{"data": {"bikes": [{"fusion_lon": 0.0, "name": "59023fc7c0c31426df089a37491e1459", "rental_uris": {"android": "https://dc.lft.to/lastmile_qr_scan", "ios": "https://dc.lft.to/lastmile_qr_scan"}, "lat": 38.8650755, "bike_id": "59023fc7c0c31426df089a37491e1459", "is_disabled": 0, "lon": -76.96899516666667, "is_reserved": 0, "fusion_lat": 0.0, "type": "electric_scooter"}, {"fusion_lon": 0.0, "name": "5e23cbd1919db2f7ff5d2ced4e77675c", "rental_uris": {"android": "https://dc.lft.to/lastmile_qr_scan", "ios": "https://dc.lft.to/lastmile_qr_scan"}, "lat": 38.9188235, "bike_id": "5e23cbd1919db2f7ff5d2ced4e77675c", "is_disabled": 0, "lon": -77.01898916666667, "is_reserved": 0, "fusion_lat": 0.0, "type": "electric_scooter"}, {"fusion_lon": 0.0, "name": "1bc60ec8d69d6842809bca2e6444dd31", "rental_uris": {"android": "https://dc.lft.to/lastmile_qr_scan", "ios": "https://dc.lft.to/lastmile_qr_scan"}, "lat": 38.901608333333336, "bike_id": "1bc60ec8d69d6842809bca2e6444dd31", "is_disabled": 0, "lon": -76.98073233333334, "is_reserved": 0, "fusion_lat": 0.0, "type": "electric_scooter"}, {"fusion_lon": 0.0, "name": "51e5fe6e9995b4706bc1e687046d84b6", "rental_uris": {"android": "https://dc.lft.to/lastmile_qr_scan", "ios": "https://dc.lft.to/lastmile_qr_scan"}, "lat": 38.9241895, "bike_id": "51e5fe6e9995b4706bc1e687046d84b6", "is_disabled": 0, "lon": -77.02012033333334, "is_reserved": 0, "fusion_lat": 0.0, "type": "electric_scooter"}, {"fusion_lon": 0.0, "name": "21ddfe6e709e72d322c749c4d8981df9", "rental_uris": {"android": "https://dc.lft.to/lastmile_qr_scan", "ios": "https://dc.lft.to/lastmile_qr_scan"}, "lat": 38.90432333333333, "bike_id": "21ddfe6e709e72d322c749c4d8981df9", "is_disabled": 0, "lon": -77.025905, "is_reserved": 0, "fusion_lat": 0.0, "type": "electric_scooter"}, {"fusion_lon": 0.0, "name": "c45a6ab8b185fd04e0c7f93a096e7096", "rental_uris": {"android": "https://dc.lft.to/lastmile_qr_scan", "ios": "https://dc.lft.to/lastmile_qr_scan"}, "lat": 38.897244, "bike_id": "c45a6ab8b185fd04e0c7f93a096e7096", "is_disabled": 0, "lon": -77.0216055, "is_reserved": 0, "fusion_lat": 0.0, "type": "electric_scooter"}, {"fusion_lon": 0.0, "name": "e4d16929601e15ec9343dd5e469d9995", "rental_uris": {"android": "https://dc.lft.to/lastmile_qr_scan", "ios": "https://dc.lft.to/lastmile_qr_scan"}, "lat": 38.880735333333334, "bike_id": "e4d16929601e15ec9343dd5e469d9995", "is_disabled": 0, "lon": -76.99158216666666, "is_reserved": 0, "fusion_lat": 0.0, "type": "electric_scooter"}, {"fusion_lon": 0.0, "name": "06600084cb5759d1ce4eb980936c5866", "rental_uris": {"android": "https://dc.lft.to/lastmile_qr_scan", "ios": "https://dc.lft.to/lastmile_qr_scan"}, "lat": 38.8647595, "bike_id": "06600084cb5759d1ce4eb980936c5866", "is_disabled": 0, "lon": -76.98237183333333, "is_reserved": 0, "fusion_lat": 0.0, "type": "electric_scooter"}, {"fusion_lon": 0.0, "name": "5e1e5cdab4a5bbf818b678a6863f9895", "rental_uris": {"android": "https://dc.lft.to/lastmile_qr_scan", "ios": "https://dc.lft.to/lastmile_qr_scan"}, "lat": 38.9225185, "bike_id": "5e1e5cdab4a5bbf818b678a6863f9895", "is_disabled": 0, "lon": -77.03042933333333, "is_reserved": 0, "fusion_lat": 0.0, "type": "electric_scooter"}, {"fusion_lon": 0.0, "name": "6db40f8dd19c50c70e3bb16e7c4aaf72", "rental_uris": {"android": "https://dc.lft.to/lastmile_qr_scan", "ios": "https://dc.lft.to/lastmile_qr_scan"}, "lat": 38.931863166666666, "bike_id": "6db40f8dd19c50c70e3bb16e7c4aaf72", "is_disabled": 0, "lon": -77.02835066666667, "is_reserved": 0, "fusion_lat": 0.0, "type": "electric_scooter"}, {"fusion_lon": 0.0, "name": "c1effc71e3ab603b27935a0aa50f1947", "rental_uris": {"android": "https://dc.lft.to/lastmile_qr_scan", "ios": "https://dc.lft.to/lastmile_qr_scan"}, "lat": 38.928582166666665, "bike_id": "c1effc71e3ab603b27935a0aa50f1947", "is_disabled": 0, "lon": -77.05436033333334, "is_reserved": 0, "fusion_lat": 0.0, "type": "electric_scooter"}, {"fusion_lon": 0.0, "name": "5110219201c4f64a21e58af078a0dda8", "rental_uris": {"android": "https://dc.lft.to/lastmile_qr_scan", "ios": "https://dc.lft.to/lastmile_qr_scan"}, "lat": 38.898351, "bike_id": "5110219201c4f64a21e58af078a0dda8", "is_disabled": 0, "lon": -77.02798966666667, "is_reserved": 0, "fusion_lat": 0.0, "type": "electric_scooter"}, {"fusion_lon": 0.0, "name": "3c9fa4379bad47c4be05560ed2218e55", "rental_uris": {"android": "https://dc.lft.to/lastmile_qr_scan", "ios": "https://dc.lft.to/lastmile_qr_scan"}, "lat": 38.87560116666667, "bike_id": "3c9fa4379bad47c4be05560ed2218e55", "is_disabled": 0, "lon": -77.00597566666667, "is_reserved": 0, "fusion_lat": 0.0, "type": "electric_scooter"}, {"fusion_lon": 0.0, "name": "9f38501cdec8bf4c378b60485a35cef5", "rental_uris": {"android": "https://dc.lft.to/lastmile_qr_scan", "ios": "https://dc.lft.to/lastmile_qr_scan"}, "lat": 38.925910333333334, "bike_id": "9f38501cdec8bf4c378b60485a35cef5", "is_disabled": 0, "lon": -77.02516866666667, "is_reserved": 0, "fusion_lat": 0.0, "type": "electric_scooter"}, {"fusion_lon": 0.0, "name": "c5701035c642488c56673e399450c523", "rental_uris": {"android": "https://dc.lft.to/lastmile_qr_scan", "ios": "https://dc.lft.to/lastmile_qr_scan"}, "lat": 38.85709816666667, "bike_id": "c5701035c642488c56673e399450c523", "is_disabled": 0, "lon": -76.98136166666667, "is_reserved": 0, "fusion_lat": 0.0, "type": "electric_scooter"}, {"fusion_lon": 0.0, "name": "591d19af8a10e94520e72daddbc9bf34", "rental_uris": {"android": "https://dc.lft.to/lastmile_qr_scan", "ios": "https://dc.lft.to/lastmile_qr_scan"}, "lat": 38.955395, "bike_id": "591d19af8a10e94520e72daddbc9bf34", "is_disabled": 0, "lon": -76.9957245, "is_reserved": 0, "fusion_lat": 0.0, "type": "electric_scooter"}, {"fusion_lon": 0.0, "name": "d7176fdba6f3a0e01774cecda7214f0e", "rental_uris": {"android": "https://dc.lft.to/lastmile_qr_scan", "ios": "https://dc.lft.to/lastmile_qr_scan"}, "lat": 38.89988066666667, "bike_id": "d7176fdba6f3a0e01774cecda7214f0e", "is_disabled": 0, "lon": -77.02696383333334, "is_reserved": 0, "fusion_lat": 0.0, "type": "electric_scooter"}, {"fusion_lon": 0.0, "name": "a3f6ae254e8613a7666e99da9d479c63", "rental_uris": {"android": "https://dc.lft.to/lastmile_qr_scan", "ios": "https://dc.lft.to/lastmile_qr_scan"}, "lat": 38.924206166666664, "bike_id": "a3f6ae254e8613a7666e99da9d479c63", "is_disabled": 0, "lon": -77.01949966666666, "is_reserved": 0, "fusion_lat": 0.0, "type": "electric_scooter"}, {"fusion_lon": 0.0, "name": "f160b0d7570d258ed3a7247aeda7cbd3", "rental_uris": {"android": "https://dc.lft.to/lastmile_qr_scan", "ios": "https://dc.lft.to/lastmile_qr_scan"}, "lat": 38.91897016666667, "bike_id": "f160b0d7570d258ed3a7247aeda7cbd3", "is_disabled": 0, "lon": -77.101704, "is_reserved": 0, "fusion_lat": 0.0, "type": "electric_bike"}, {"fusion_lon": 0.0, "name": "ecd41f4f92ff6c3e500ff8c67212d9f7", "rental_uris": {"android": "https://dc.lft.to/lastmile_qr_scan", "ios": "https://dc.lft.to/lastmile_qr_scan"}, "lat": 38.9160125, "bike_id": "ecd41f4f92ff6c3e500ff8c67212d9f7", "is_disabled": 0, "lon": -77.04618016666667, "is_reserved": 0, "fusion_lat": 0.0, "type": "electric_scooter"}, {"fusion_lon": 0.0, "name": "02c60da741b615ae6c3043eb217816fe", "rental_uris": {"android": "https://dc.lft.to/lastmile_qr_scan", "ios": "https://dc.lft.to/lastmile_qr_scan"}, "lat": 38.8358415, "bike_id": "02c60da741b615ae6c3043eb217816fe", "is_disabled": 0, "lon": -76.99028316666667, "is_reserved": 0, "fusion_lat": 0.0, "type": "electric_bike"}, {"fusion_lon": 0.0, "name": "46c385dd99b6583982e2cf22503191dc", "rental_uris": {"android": "https://dc.lft.to/lastmile_qr_scan", "ios": "https://dc.lft.to/lastmile_qr_scan"}, "lat": 38.930561833333336, "bike_id": "46c385dd99b6583982e2cf22503191dc", "is_disabled": 0, "lon": -77.02791733333333, "is_reserved": 0, "fusion_lat": 0.0, "type": "electric_scooter"}, {"fusion_lon": 0.0, "name": "88705dbaa8182b00e8797790e577206a", "rental_uris": {"android": "https://dc.lft.to/lastmile_qr_scan", "ios": "https://dc.lft.to/lastmile_qr_scan"}, "lat": 38.961214166666664, "bike_id": "88705dbaa8182b00e8797790e577206a", "is_disabled": 0, "lon": -77.02789883333334, "is_reserved": 0, "fusion_lat": 0.0, "type": "electric_scooter"}, {"fusion_lon": 0.0, "name": "6fa4c17738941eb2924d0aa5b7b323e4", "rental_uris": {"android": "https://dc.lft.to/lastmile_qr_scan", "ios": "https://dc.lft.to/lastmile_qr_scan"}, "lat": 38.88989383333333, "bike_id": "6fa4c17738941eb2924d0aa5b7b323e4", "is_disabled": 0, "lon": -77.00320833333333, "is_reserved": 0, "fusion_lat": 0.0, "type": "electric_scooter"}, {"fusion_lon": 0.0, "name": "4b60158f41dae3b26f0c6f3bb74fc46d", "rental_uris": {"android": "https://dc.lft.to/lastmile_qr_scan", "ios": "https://dc.lft.to/lastmile_qr_scan"}, "lat": 38.921501166666665, "bike_id": "4b60158f41dae3b26f0c6f3bb74fc46d", "is_disabled": 0, "lon": -77.03535366666667, "is_reserved": 0, "fusion_lat": 0.0, "type": "electric_scooter"}, {"fusion_lon": 0.0, "name": "310451bba8c9c082412545f330d4270d", "rental_uris": {"android": "https://dc.lft.to/lastmile_qr_scan", "ios": "https://dc.lft.to/lastmile_qr_scan"}, "lat": 38.890998333333336, "bike_id": "310451bba8c9c082412545f330d4270d", "is_disabled": 0, "lon": -77.00213816666667, "is_reserved": 0, "fusion_lat": 0.0, "type": "electric_scooter"}, {"fusion_lon": 0.0, "name": "56665a71810b3e9c96e6cdb77e9fe47d", "rental_uris": {"android": "https://dc.lft.to/lastmile_qr_scan", "ios": "https://dc.lft.to/lastmile_qr_scan"}, "lat": 38.923371833333334, "bike_id": "56665a71810b3e9c96e6cdb77e9fe47d", "is_disabled": 0, "lon": -77.0508985, "is_reserved": 0, "fusion_lat": 0.0, "type": "electric_scooter"}, {"fusion_lon": 0.0, "name": "2c951f3fef1fde7bc2cc864be096b880", "rental_uris": {"android": "https://dc.lft.to/lastmile_qr_scan", "ios": "https://dc.lft.to/lastmile_qr_scan"}, "lat": 38.893634, "bike_id": "2c951f3fef1fde7bc2cc864be096b880", "is_disabled": 0, "lon": -77.00332283333333, "is_reserved": 0, "fusion_lat": 0.0, "type": "electric_scooter"}, {"fusion_lon": 0.0, "name": "6578dcdd5a49702dff16cb499bd5c317", "rental_uris": {"android": "https://dc.lft.to/lastmile_qr_scan", "ios": "https://dc.lft.to/lastmile_qr_scan"}, "lat": 38.92428366666667, "bike_id": "6578dcdd5a49702dff16cb499bd5c317", "is_disabled": 0, "lon": -77.03622166666666, "is_reserved": 0, "fusion_lat": 0.0, "type": "electric_scooter"}, {"fusion_lon": 0.0, "name": "b2a55e90a404f606b4d2874f015a8294", "rental_uris": {"android": "https://dc.lft.to/lastmile_qr_scan", "ios": "https://dc.lft.to/lastmile_qr_scan"}, "lat": 38.903363166666665, "bike_id": "b2a55e90a404f606b4d2874f015a8294", "is_disabled": 0, "lon": -76.97615183333333, "is_reserved": 0, "fusion_lat": 0.0, "type": "electric_scooter"}, {"fusion_lon": 0.0, "name": "39a240330cb03e7917ea9fdcbe8373bf", "rental_uris": {"android": "https://dc.lft.to/lastmile_qr_scan", "ios": "https://dc.lft.to/lastmile_qr_scan"}, "lat": 38.83828316666666, "bike_id": "39a240330cb03e7917ea9fdcbe8373bf", "is_disabled": 0, "lon": -77.079154, "is_reserved": 0, "fusion_lat": 0.0, "type": "electric_bike"}, {"fusion_lon": 0.0, "name": "02cc2803a910fb8b9f280b97aad987f7", "rental_uris": {"android": "https://dc.lft.to/lastmile_qr_scan", "ios": "https://dc.lft.to/lastmile_qr_scan"}, "lat": 38.892179166666665, "bike_id": "02cc2803a910fb8b9f280b97aad987f7", "is_disabled": 0, "lon": -77.0216535, "is_reserved": 0, "fusion_lat": 0.0, "type": "electric_scooter"}, {"fusion_lon": 0.0, "name": "42939bc06403a4948602c9e366eb9ce5", "rental_uris": {"android": "https://dc.lft.to/lastmile_qr_scan", "ios": "https://dc.lft.to/lastmile_qr_scan"}, "lat": 38.9023645, "bike_id": "42939bc06403a4948602c9e366eb9ce5", "is_disabled": 0, "lon": -77.03774083333333, "is_reserved": 0, "fusion_lat": 0.0, "type": "electric_scooter"}, {"fusion_lon": 0.0, "name": "7caacb40396c71cff0592edff56f0648", "rental_uris": {"android": "https://dc.lft.to/lastmile_qr_scan", "ios": "https://dc.lft.to/lastmile_qr_scan"}, "lat": 38.90558883333333, "bike_id": "7caacb40396c71cff0592edff56f0648", "is_disabled": 0, "lon": -77.0348495, "is_reserved": 0, "fusion_lat": 0.0, "type": "electric_scooter"}, {"fusion_lon": 0.0, "name": "f24277e3831e47e661c560582dcbbe8e", "rental_uris": {"android": "https://dc.lft.to/lastmile_qr_scan", "ios": "https://dc.lft.to/lastmile_qr_scan"}, "lat": 38.92855866666667, "bike_id": "f24277e3831e47e661c560582dcbbe8e", "is_disabled": 0, "lon": -77.02183266666667, "is_reserved": 0, "fusion_lat": 0.0, "type": "electric_scooter"}, {"fusion_lon": 0.0, "name": "20e66cc1dbf9e88d4b3eef1813c588f0", "rental_uris": {"android": "https://dc.lft.to/lastmile_qr_scan", "ios": "https://dc.lft.to/lastmile_qr_scan"}, "lat": 38.93878133333333, "bike_id": "20e66cc1dbf9e88d4b3eef1813c588f0", "is_disabled": 0, "lon": -77.0322045, "is_reserved": 0, "fusion_lat": 0.0, "type": "electric_scooter"}, {"fusion_lon": 0.0, "name": "800d89b7c6988deba4bbc4e953ae3ebe", "rental_uris": {"android": "https://dc.lft.to/lastmile_qr_scan", "ios": "https://dc.lft.to/lastmile_qr_scan"}, "lat": 38.90291283333333, "bike_id": "800d89b7c6988deba4bbc4e953ae3ebe", "is_disabled": 0, "lon": -77.025238, "is_reserved": 0, "fusion_lat": 0.0, "type": "electric_scooter"}, {"fusion_lon": 0.0, "name": "00fc35e5f2122187386e8adc65c4b8fd", "rental_uris": {"android": "https://dc.lft.to/lastmile_qr_scan", "ios": "https://dc.lft.to/lastmile_qr_scan"}, "lat": 38.90367083333334, "bike_id": "00fc35e5f2122187386e8adc65c4b8fd", "is_disabled": 0, "lon": -76.984919, "is_reserved": 0, "fusion_lat": 0.0, "type": "electric_scooter"}, {"fusion_lon": 0.0, "name": "d137579582c532988a79ed9d16398b7b", "rental_uris": {"android": "https://dc.lft.to/lastmile_qr_scan", "ios": "https://dc.lft.to/lastmile_qr_scan"}, "lat": 38.92353833333333, "bike_id": "d137579582c532988a79ed9d16398b7b", "is_disabled": 0, "lon": -77.043941, "is_reserved": 0, "fusion_lat": 0.0, "type": "electric_scooter"}, {"fusion_lon": 0.0, "name": "0a7d1666a90f0cf26ebf1de6136f1b0e", "rental_uris": {"android": "https://dc.lft.to/lastmile_qr_scan", "ios": "https://dc.lft.to/lastmile_qr_scan"}, "lat": 38.90146216666667, "bike_id": "0a7d1666a90f0cf26ebf1de6136f1b0e", "is_disabled": 0, "lon": -77.04480183333334, "is_reserved": 0, "fusion_lat": 0.0, "type": "electric_scooter"}, {"fusion_lon": 0.0, "name": "40c8b9f0c824ce61d3f8118cbfeddaf1", "rental_uris": {"android": "https://dc.lft.to/lastmile_qr_scan", "ios": "https://dc.lft.to/lastmile_qr_scan"}, "lat": 38.92463866666667, "bike_id": "40c8b9f0c824ce61d3f8118cbfeddaf1", "is_disabled": 0, "lon": -77.02194383333334, "is_reserved": 0, "fusion_lat": 0.0, "type": "electric_scooter"}, {"fusion_lon": 0.0, "name": "84eb219649d81aff83e05310d95907b5", "rental_uris": {"android": "https://dc.lft.to/lastmile_qr_scan", "ios": "https://dc.lft.to/lastmile_qr_scan"}, "lat": 38.893583666666665, "bike_id": "84eb219649d81aff83e05310d95907b5", "is_disabled": 0, "lon": -77.00337733333333, "is_reserved": 0, "fusion_lat": 0.0, "type": "electric_scooter"}, {"fusion_lon": 0.0, "name": "443abad8b4a1625e4e7a4bdc430ee17a", "rental_uris": {"android": "https://dc.lft.to/lastmile_qr_scan", "ios": "https://dc.lft.to/lastmile_qr_scan"}, "lat": 38.939711333333335, "bike_id": "443abad8b4a1625e4e7a4bdc430ee17a", "is_disabled": 0, "lon": -77.03036033333333, "is_reserved": 0, "fusion_lat": 0.0, "type": "electric_scooter"}, {"fusion_lon": 0.0, "name": "619df285fe9a8cc569a1cf88b0db6796", "rental_uris": {"android": "https://dc.lft.to/lastmile_qr_scan", "ios": "https://dc.lft.to/lastmile_qr_scan"}, "lat": 38.93054683333333, "bike_id": "619df285fe9a8cc569a1cf88b0db6796", "is_disabled": 0, "lon": -77.03211133333333, "is_reserved": 0, "fusion_lat": 0.0, "type": "electric_scooter"}, {"fusion_lon": 0.0, "name": "10c878d9bb8d42cac407c1c75a354c8a", "rental_uris": {"android": "https://dc.lft.to/lastmile_qr_scan", "ios": "https://dc.lft.to/lastmile_qr_scan"}, "lat": 38.88519683333333, "bike_id": "10c878d9bb8d42cac407c1c75a354c8a", "is_disabled": 0, "lon": -76.92001883333333, "is_reserved": 0, "fusion_lat": 0.0, "type": "electric_scooter"}, {"fusion_lon": 0.0, "name": "33f0c01e2927a70f72540e12cb1e258f", "rental_uris": {"android": "https://dc.lft.to/lastmile_qr_scan", "ios": "https://dc.lft.to/lastmile_qr_scan"}, "lat": 38.9168365, "bike_id": "33f0c01e2927a70f72540e12cb1e258f", "is_disabled": 0, "lon": -77.02319516666667, "is_reserved": 0, "fusion_lat": 0.0, "type": "electric_scooter"}, {"fusion_lon": 0.0, "name": "4dd15a40c9f5dbce12166bd4ff1a3851", "rental_uris": {"android": "https://dc.lft.to/lastmile_qr_scan", "ios": "https://dc.lft.to/lastmile_qr_scan"}, "lat": 38.928606, "bike_id": "4dd15a40c9f5dbce12166bd4ff1a3851", "is_disabled": 0, "lon": -77.01370816666666, "is_reserved": 0, "fusion_lat": 0.0, "type": "electric_scooter"}, {"fusion_lon": 0.0, "name": "d1d4d81a5dda683d5af3d4b5375004b5", "rental_uris": {"android": "https://dc.lft.to/lastmile_qr_scan", "ios": "https://dc.lft.to/lastmile_qr_scan"}, "lat": 38.941906, "bike_id": "d1d4d81a5dda683d5af3d4b5375004b5", "is_disabled": 0, "lon": -77.03560616666667, "is_reserved": 0, "fusion_lat": 0.0, "type": "electric_scooter"}, {"fusion_lon": 0.0, "name": "4df646a58f16a4a80b0e7d0361cb288d", "rental_uris": {"android": "https://dc.lft.to/lastmile_qr_scan", "ios": "https://dc.lft.to/lastmile_qr_scan"}, "lat": 38.892351, "bike_id": "4df646a58f16a4a80b0e7d0361cb288d", "is_disabled": 0, "lon": -77.031919, "is_reserved": 0, "fusion_lat": 0.0, "type": "electric_scooter"}, {"fusion_lon": 0.0, "name": "fa70d8285fd28807591f32fe8155cc1d", "rental_uris": {"android": "https://dc.lft.to/lastmile_qr_scan", "ios": "https://dc.lft.to/lastmile_qr_scan"}, "lat": 38.9082205, "bike_id": "fa70d8285fd28807591f32fe8155cc1d", "is_disabled": 0, "lon": -77.03824066666667, "is_reserved": 0, "fusion_lat": 0.0, "type": "electric_scooter"}, {"fusion_lon": 0.0, "name": "278eddc1cc8a4f421324075d90be216f", "rental_uris": {"android": "https://dc.lft.to/lastmile_qr_scan", "ios": "https://dc.lft.to/lastmile_qr_scan"}, "lat": 38.908952666666664, "bike_id": "278eddc1cc8a4f421324075d90be216f", "is_disabled": 0, "lon": -77.04399033333333, "is_reserved": 0, "fusion_lat": 0.0, "type": "electric_scooter"}, {"fusion_lon": 0.0, "name": "6d1313b596a11a8c989e297a7bca1551", "rental_uris": {"android": "https://dc.lft.to/lastmile_qr_scan", "ios": "https://dc.lft.to/lastmile_qr_scan"}, "lat": 38.90558983333333, "bike_id": "6d1313b596a11a8c989e297a7bca1551", "is_disabled": 0, "lon": -77.0060765, "is_reserved": 0, "fusion_lat": 0.0, "type": "electric_scooter"}, {"fusion_lon": 0.0, "name": "90ae0a714cfcfcdeb141bd206c95fd7f", "rental_uris": {"android": "https://dc.lft.to/lastmile_qr_scan", "ios": "https://dc.lft.to/lastmile_qr_scan"}, "lat": 38.924686333333334, "bike_id": "90ae0a714cfcfcdeb141bd206c95fd7f", "is_disabled": 0, "lon": -77.0220335, "is_reserved": 0, "fusion_lat": 0.0, "type": "electric_scooter"}, {"fusion_lon": 0.0, "name": "fa0402e47009e5a6b9d465d066aa200c", "rental_uris": {"android": "https://dc.lft.to/lastmile_qr_scan", "ios": "https://dc.lft.to/lastmile_qr_scan"}, "lat": 38.9049845, "bike_id": "fa0402e47009e5a6b9d465d066aa200c", "is_disabled": 0, "lon": -77.043217, "is_reserved": 0, "fusion_lat": 0.0, "type": "electric_scooter"}, {"fusion_lon": 0.0, "name": "493241eb973d1b1d041a95a6b0384a09", "rental_uris": {"android": "https://dc.lft.to/lastmile_qr_scan", "ios": "https://dc.lft.to/lastmile_qr_scan"}, "lat": 38.89998683333334, "bike_id": "493241eb973d1b1d041a95a6b0384a09", "is_disabled": 0, "lon": -77.04122133333334, "is_reserved": 0, "fusion_lat": 0.0, "type": "electric_scooter"}, {"fusion_lon": 0.0, "name": "430ae271d5bbef905a8d65278ad944f3", "rental_uris": {"android": "https://dc.lft.to/lastmile_qr_scan", "ios": "https://dc.lft.to/lastmile_qr_scan"}, "lat": 38.9074555, "bike_id": "430ae271d5bbef905a8d65278ad944f3", "is_disabled": 0, "lon": -77.041608, "is_reserved": 0, "fusion_lat": 0.0, "type": "electric_scooter"}, {"fusion_lon": 0.0, "name": "5968b0947a24d8d1a5b18903a683dee0", "rental_uris": {"android": "https://dc.lft.to/lastmile_qr_scan", "ios": "https://dc.lft.to/lastmile_qr_scan"}, "lat": 38.90142433333333, "bike_id": "5968b0947a24d8d1a5b18903a683dee0", "is_disabled": 0, "lon": -77.04443466666666, "is_reserved": 0, "fusion_lat": 0.0, "type": "electric_scooter"}, {"fusion_lon": 0.0, "name": "f7c4531bef83b341efa60433387e03db", "rental_uris": {"android": "https://dc.lft.to/lastmile_qr_scan", "ios": "https://dc.lft.to/lastmile_qr_scan"}, "lat": 38.9102, "bike_id": "f7c4531bef83b341efa60433387e03db", "is_disabled": 0, "lon": -77.04267266666666, "is_reserved": 0, "fusion_lat": 0.0, "type": "electric_scooter"}, {"fusion_lon": 0.0, "name": "9c6cfb96729e321770bc56f743e99bef", "rental_uris": {"android": "https://dc.lft.to/lastmile_qr_scan", "ios": "https://dc.lft.to/lastmile_qr_scan"}, "lat": 38.92593266666667, "bike_id": "9c6cfb96729e321770bc56f743e99bef", "is_disabled": 0, "lon": -77.081122, "is_reserved": 0, "fusion_lat": 0.0, "type": "electric_scooter"}, {"fusion_lon": 0.0, "name": "69e4e7876dc6a670268d4ac87b520077", "rental_uris": {"android": "https://dc.lft.to/lastmile_qr_scan", "ios": "https://dc.lft.to/lastmile_qr_scan"}, "lat": 38.905764, "bike_id": "69e4e7876dc6a670268d4ac87b520077", "is_disabled": 0, "lon": -77.02178533333333, "is_reserved": 0, "fusion_lat": 0.0, "type": "electric_scooter"}, {"fusion_lon": 0.0, "name": "9d744262827be4f0ce3404c86ead9e0f", "rental_uris": {"android": "https://dc.lft.to/lastmile_qr_scan", "ios": "https://dc.lft.to/lastmile_qr_scan"}, "lat": 38.901751, "bike_id": "9d744262827be4f0ce3404c86ead9e0f", "is_disabled": 0, "lon": -77.046611, "is_reserved": 0, "fusion_lat": 0.0, "type": "electric_scooter"}, {"fusion_lon": 0.0, "name": "29719260bc4262678af76f08317d1b15", "rental_uris": {"android": "https://dc.lft.to/lastmile_qr_scan", "ios": "https://dc.lft.to/lastmile_qr_scan"}, "lat": 38.92886016666667, "bike_id": "29719260bc4262678af76f08317d1b15", "is_disabled": 0, "lon": -77.03484866666666, "is_reserved": 0, "fusion_lat": 0.0, "type": "electric_scooter"}, {"fusion_lon": 0.0, "name": "06835237d95b85a1cc6171b5b66ce285", "rental_uris": {"android": "https://dc.lft.to/lastmile_qr_scan", "ios": "https://dc.lft.to/lastmile_qr_scan"}, "lat": 38.904401666666665, "bike_id": "06835237d95b85a1cc6171b5b66ce285", "is_disabled": 0, "lon": -77.05319183333333, "is_reserved": 0, "fusion_lat": 0.0, "type": "electric_scooter"}, {"fusion_lon": 0.0, "name": "1dd7d88dc046c69c7baa5798060238b0", "rental_uris": {"android": "https://dc.lft.to/lastmile_qr_scan", "ios": "https://dc.lft.to/lastmile_qr_scan"}, "lat": 38.8987285, "bike_id": "1dd7d88dc046c69c7baa5798060238b0", "is_disabled": 0, "lon": -76.93189866666667, "is_reserved": 0, "fusion_lat": 0.0, "type": "electric_scooter"}, {"fusion_lon": 0.0, "name": "f1109777f601cb936d11967276465ddf", "rental_uris": {"android": "https://dc.lft.to/lastmile_qr_scan", "ios": "https://dc.lft.to/lastmile_qr_scan"}, "lat": 38.932477666666664, "bike_id": "f1109777f601cb936d11967276465ddf", "is_disabled": 0, "lon": -77.03873883333333, "is_reserved": 0, "fusion_lat": 0.0, "type": "electric_scooter"}, {"fusion_lon": 0.0, "name": "86720e463d857da7cace83cf2ada9bf8", "rental_uris": {"android": "https://dc.lft.to/lastmile_qr_scan", "ios": "https://dc.lft.to/lastmile_qr_scan"}, "lat": 38.921221833333334, "bike_id": "86720e463d857da7cace83cf2ada9bf8", "is_disabled": 0, "lon": -77.02101233333333, "is_reserved": 0, "fusion_lat": 0.0, "type": "electric_scooter"}, {"fusion_lon": 0.0, "name": "15ed85c74e945f233a7a0575a2755c15", "rental_uris": {"android": "https://dc.lft.to/lastmile_qr_scan", "ios": "https://dc.lft.to/lastmile_qr_scan"}, "lat": 38.907286666666664, "bike_id": "15ed85c74e945f233a7a0575a2755c15", "is_disabled": 0, "lon": -77.03179716666666, "is_reserved": 0, "fusion_lat": 0.0, "type": "electric_scooter"}, {"fusion_lon": 0.0, "name": "999ce9b1a621a62f9aa650869d2db7a9", "rental_uris": {"android": "https://dc.lft.to/lastmile_qr_scan", "ios": "https://dc.lft.to/lastmile_qr_scan"}, "lat": 38.90386483333333, "bike_id": "999ce9b1a621a62f9aa650869d2db7a9", "is_disabled": 0, "lon": -76.98098183333333, "is_reserved": 0, "fusion_lat": 0.0, "type": "electric_scooter"}, {"fusion_lon": 0.0, "name": "3a32f0360376632299c755e31e56093d", "rental_uris": {"android": "https://dc.lft.to/lastmile_qr_scan", "ios": "https://dc.lft.to/lastmile_qr_scan"}, "lat": 38.904207666666665, "bike_id": "3a32f0360376632299c755e31e56093d", "is_disabled": 0, "lon": -77.0250585, "is_reserved": 0, "fusion_lat": 0.0, "type": "electric_scooter"}, {"fusion_lon": 0.0, "name": "f9399714f784b25f8f5fc9b8550aa123", "rental_uris": {"android": "https://dc.lft.to/lastmile_qr_scan", "ios": "https://dc.lft.to/lastmile_qr_scan"}, "lat": 38.9077185, "bike_id": "f9399714f784b25f8f5fc9b8550aa123", "is_disabled": 0, "lon": -77.02458716666666, "is_reserved": 0, "fusion_lat": 0.0, "type": "electric_scooter"}, {"fusion_lon": 0.0, "name": "4d9ea0c74c607951717a2009a2abf3a4", "rental_uris": {"android": "https://dc.lft.to/lastmile_qr_scan", "ios": "https://dc.lft.to/lastmile_qr_scan"}, "lat": 38.911172666666666, "bike_id": "4d9ea0c74c607951717a2009a2abf3a4", "is_disabled": 0, "lon": -77.04366116666667, "is_reserved": 0, "fusion_lat": 0.0, "type": "electric_scooter"}, {"fusion_lon": 0.0, "name": "07e167b3947fdc2571859d8b17d3c380", "rental_uris": {"android": "https://dc.lft.to/lastmile_qr_scan", "ios": "https://dc.lft.to/lastmile_qr_scan"}, "lat": 38.92648766666667, "bike_id": "07e167b3947fdc2571859d8b17d3c380", "is_disabled": 0, "lon": -77.0407195, "is_reserved": 0, "fusion_lat": 0.0, "type": "electric_scooter"}, {"fusion_lon": 0.0, "name": "1ca81b6a142d4cf0d5368c7d06759e36", "rental_uris": {"android": "https://dc.lft.to/lastmile_qr_scan", "ios": "https://dc.lft.to/lastmile_qr_scan"}, "lat": 38.899723333333334, "bike_id": "1ca81b6a142d4cf0d5368c7d06759e36", "is_disabled": 0, "lon": -77.031845, "is_reserved": 0, "fusion_lat": 0.0, "type": "electric_scooter"}, {"fusion_lon": 0.0, "name": "50e89b09ed29cb45142266248a4fcf67", "rental_uris": {"android": "https://dc.lft.to/lastmile_qr_scan", "ios": "https://dc.lft.to/lastmile_qr_scan"}, "lat": 38.9279595, "bike_id": "50e89b09ed29cb45142266248a4fcf67", "is_disabled": 0, "lon": -77.05530266666666, "is_reserved": 0, "fusion_lat": 0.0, "type": "electric_scooter"}, {"fusion_lon": 0.0, "name": "00cbdda7ca12cc1e021e371eb697dd80", "rental_uris": {"android": "https://dc.lft.to/lastmile_qr_scan", "ios": "https://dc.lft.to/lastmile_qr_scan"}, "lat": 38.922427166666665, "bike_id": "00cbdda7ca12cc1e021e371eb697dd80", "is_disabled": 0, "lon": -77.019491, "is_reserved": 0, "fusion_lat": 0.0, "type": "electric_scooter"}, {"fusion_lon": 0.0, "name": "115638942f633ed8cb8363c1941467a7", "rental_uris": {"android": "https://dc.lft.to/lastmile_qr_scan", "ios": "https://dc.lft.to/lastmile_qr_scan"}, "lat": 38.893948, "bike_id": "115638942f633ed8cb8363c1941467a7", "is_disabled": 0, "lon": -76.86849566666666, "is_reserved": 0, "fusion_lat": 0.0, "type": "electric_bike"}, {"fusion_lon": 0.0, "name": "4e20dee921cf790704cec0908bae192b", "rental_uris": {"android": "https://dc.lft.to/lastmile_qr_scan", "ios": "https://dc.lft.to/lastmile_qr_scan"}, "lat": 38.876700666666665, "bike_id": "4e20dee921cf790704cec0908bae192b", "is_disabled": 0, "lon": -77.01997866666666, "is_reserved": 0, "fusion_lat": 0.0, "type": "electric_scooter"}, {"fusion_lon": 0.0, "name": "a0ea0c80ea2f2213e9abdc2158b83dde", "rental_uris": {"android": "https://dc.lft.to/lastmile_qr_scan", "ios": "https://dc.lft.to/lastmile_qr_scan"}, "lat": 38.920582, "bike_id": "a0ea0c80ea2f2213e9abdc2158b83dde", "is_disabled": 0, "lon": -77.02296783333334, "is_reserved": 0, "fusion_lat": 0.0, "type": "electric_scooter"}, {"fusion_lon": 0.0, "name": "287a68758bc981a71d12fc2e9e3beea2", "rental_uris": {"android": "https://dc.lft.to/lastmile_qr_scan", "ios": "https://dc.lft.to/lastmile_qr_scan"}, "lat": 38.89529816666666, "bike_id": "287a68758bc981a71d12fc2e9e3beea2", "is_disabled": 0, "lon": -77.03114033333334, "is_reserved": 0, "fusion_lat": 0.0, "type": "electric_scooter"}, {"fusion_lon": 0.0, "name": "6580e8cfdf1998e7e75f4b6f74c0befc", "rental_uris": {"android": "https://dc.lft.to/lastmile_qr_scan", "ios": "https://dc.lft.to/lastmile_qr_scan"}, "lat": 38.90327533333333, "bike_id": "6580e8cfdf1998e7e75f4b6f74c0befc", "is_disabled": 0, "lon": -76.98229766666667, "is_reserved": 0, "fusion_lat": 0.0, "type": "electric_scooter"}, {"fusion_lon": 0.0, "name": "25199b15fab1a7b7e1317d71ac276823", "rental_uris": {"android": "https://dc.lft.to/lastmile_qr_scan", "ios": "https://dc.lft.to/lastmile_qr_scan"}, "lat": 38.89355416666667, "bike_id": "25199b15fab1a7b7e1317d71ac276823", "is_disabled": 0, "lon": -77.00336233333333, "is_reserved": 0, "fusion_lat": 0.0, "type": "electric_scooter"}, {"fusion_lon": 0.0, "name": "db7b773ddf4043d625e0b4a51c647591", "rental_uris": {"android": "https://dc.lft.to/lastmile_qr_scan", "ios": "https://dc.lft.to/lastmile_qr_scan"}, "lat": 38.876583333333336, "bike_id": "db7b773ddf4043d625e0b4a51c647591", "is_disabled": 0, "lon": -77.00261216666667, "is_reserved": 0, "fusion_lat": 0.0, "type": "electric_scooter"}, {"fusion_lon": 0.0, "name": "0254ce67efd42783c9a4350b2c9b1165", "rental_uris": {"android": "https://dc.lft.to/lastmile_qr_scan", "ios": "https://dc.lft.to/lastmile_qr_scan"}, "lat": 38.85232833333333, "bike_id": "0254ce67efd42783c9a4350b2c9b1165", "is_disabled": 0, "lon": -77.05316566666667, "is_reserved": 0, "fusion_lat": 0.0, "type": "electric_bike"}, {"fusion_lon": 0.0, "name": "a772d2b7b72e7876029e47e93c972fbf", "rental_uris": {"android": "https://dc.lft.to/lastmile_qr_scan", "ios": "https://dc.lft.to/lastmile_qr_scan"}, "lat": 38.959103, "bike_id": "a772d2b7b72e7876029e47e93c972fbf", "is_disabled": 0, "lon": -77.000236, "is_reserved": 0, "fusion_lat": 0.0, "type": "electric_scooter"}, {"fusion_lon": 0.0, "name": "943d1f2424014bd4aeae4fe73c01b45d", "rental_uris": {"android": "https://dc.lft.to/lastmile_qr_scan", "ios": "https://dc.lft.to/lastmile_qr_scan"}, "lat": 38.8923115, "bike_id": "943d1f2424014bd4aeae4fe73c01b45d", "is_disabled": 0, "lon": -77.05004033333333, "is_reserved": 0, "fusion_lat": 0.0, "type": "electric_scooter"}, {"fusion_lon": 0.0, "name": "2d8d756245bc12858ec9c7ac01939360", "rental_uris": {"android": "https://dc.lft.to/lastmile_qr_scan", "ios": "https://dc.lft.to/lastmile_qr_scan"}, "lat": 38.90492283333333, "bike_id": "2d8d756245bc12858ec9c7ac01939360", "is_disabled": 0, "lon": -76.97738733333334, "is_reserved": 0, "fusion_lat": 0.0, "type": "electric_scooter"}, {"fusion_lon": 0.0, "name": "1ee3db053bee564ac7f8f9ddc808e189", "rental_uris": {"android": "https://dc.lft.to/lastmile_qr_scan", "ios": "https://dc.lft.to/lastmile_qr_scan"}, "lat": 38.92925366666667, "bike_id": "1ee3db053bee564ac7f8f9ddc808e189", "is_disabled": 0, "lon": -77.03262366666667, "is_reserved": 0, "fusion_lat": 0.0, "type": "electric_scooter"}, {"fusion_lon": 0.0, "name": "d42f250ca3e5bb835ebe26605efefebc", "rental_uris": {"android": "https://dc.lft.to/lastmile_qr_scan", "ios": "https://dc.lft.to/lastmile_qr_scan"}, "lat": 38.95708066666667, "bike_id": "d42f250ca3e5bb835ebe26605efefebc", "is_disabled": 0, "lon": -77.0028355, "is_reserved": 0, "fusion_lat": 0.0, "type": "electric_bike"}, {"fusion_lon": 0.0, "name": "e1996487735aa1087454a2a3094c32bc", "rental_uris": {"android": "https://dc.lft.to/lastmile_qr_scan", "ios": "https://dc.lft.to/lastmile_qr_scan"}, "lat": 38.894691, "bike_id": "e1996487735aa1087454a2a3094c32bc", "is_disabled": 0, "lon": -76.99713983333334, "is_reserved": 0, "fusion_lat": 0.0, "type": "electric_scooter"}, {"fusion_lon": 0.0, "name": "b662a8236757140354ebde57dbf5ca3e", "rental_uris": {"android": "https://dc.lft.to/lastmile_qr_scan", "ios": "https://dc.lft.to/lastmile_qr_scan"}, "lat": 38.9246495, "bike_id": "b662a8236757140354ebde57dbf5ca3e", "is_disabled": 0, "lon": -77.05237266666667, "is_reserved": 0, "fusion_lat": 0.0, "type": "electric_scooter"}, {"fusion_lon": 0.0, "name": "bf87841f79d5887a2d492fd90d0679f8", "rental_uris": {"android": "https://dc.lft.to/lastmile_qr_scan", "ios": "https://dc.lft.to/lastmile_qr_scan"}, "lat": 38.914835833333335, "bike_id": "bf87841f79d5887a2d492fd90d0679f8", "is_disabled": 0, "lon": -77.01889583333333, "is_reserved": 0, "fusion_lat": 0.0, "type": "electric_scooter"}, {"fusion_lon": 0.0, "name": "45088e4282d0d616244a271aa55cdb42", "rental_uris": {"android": "https://dc.lft.to/lastmile_qr_scan", "ios": "https://dc.lft.to/lastmile_qr_scan"}, "lat": 38.96028716666667, "bike_id": "45088e4282d0d616244a271aa55cdb42", "is_disabled": 0, "lon": -77.03325066666666, "is_reserved": 0, "fusion_lat": 0.0, "type": "electric_scooter"}, {"fusion_lon": 0.0, "name": "d6400eb04cb9955f0daa196df70d7bbd", "rental_uris": {"android": "https://dc.lft.to/lastmile_qr_scan", "ios": "https://dc.lft.to/lastmile_qr_scan"}, "lat": 38.878673166666665, "bike_id": "d6400eb04cb9955f0daa196df70d7bbd", "is_disabled": 0, "lon": -77.016441, "is_reserved": 0, "fusion_lat": 0.0, "type": "electric_scooter"}, {"fusion_lon": 0.0, "name": "40d9db08acbdb60a19e3c7131ccf94d5", "rental_uris": {"android": "https://dc.lft.to/lastmile_qr_scan", "ios": "https://dc.lft.to/lastmile_qr_scan"}, "lat": 38.8960635, "bike_id": "40d9db08acbdb60a19e3c7131ccf94d5", "is_disabled": 0, "lon": -77.04468983333334, "is_reserved": 0, "fusion_lat": 0.0, "type": "electric_scooter"}, {"fusion_lon": 0.0, "name": "cf0dba6ad0499becb8f63bcf3a57087b", "rental_uris": {"android": "https://dc.lft.to/lastmile_qr_scan", "ios": "https://dc.lft.to/lastmile_qr_scan"}, "lat": 38.9340435, "bike_id": "cf0dba6ad0499becb8f63bcf3a57087b", "is_disabled": 0, "lon": -77.038237, "is_reserved": 0, "fusion_lat": 0.0, "type": "electric_scooter"}, {"fusion_lon": 0.0, "name": "c35141e51eb90933c03caf834bdd4112", "rental_uris": {"android": "https://dc.lft.to/lastmile_qr_scan", "ios": "https://dc.lft.to/lastmile_qr_scan"}, "lat": 38.8995635, "bike_id": "c35141e51eb90933c03caf834bdd4112", "is_disabled": 0, "lon": -77.04536333333333, "is_reserved": 0, "fusion_lat": 0.0, "type": "electric_scooter"}, {"fusion_lon": 0.0, "name": "4be1d51e65d5b0b34901bdbb691155b1", "rental_uris": {"android": "https://dc.lft.to/lastmile_qr_scan", "ios": "https://dc.lft.to/lastmile_qr_scan"}, "lat": 38.881282166666665, "bike_id": "4be1d51e65d5b0b34901bdbb691155b1", "is_disabled": 0, "lon": -76.996358, "is_reserved": 0, "fusion_lat": 0.0, "type": "electric_scooter"}, {"fusion_lon": 0.0, "name": "15ae9c567112b690eb5922b0a6f0a24a", "rental_uris": {"android": "https://dc.lft.to/lastmile_qr_scan", "ios": "https://dc.lft.to/lastmile_qr_scan"}, "lat": 38.95884616666667, "bike_id": "15ae9c567112b690eb5922b0a6f0a24a", "is_disabled": 0, "lon": -76.9704235, "is_reserved": 0, "fusion_lat": 0.0, "type": "electric_bike"}, {"fusion_lon": 0.0, "name": "cd71ef28658f9eda19da3621bb0452ec", "rental_uris": {"android": "https://dc.lft.to/lastmile_qr_scan", "ios": "https://dc.lft.to/lastmile_qr_scan"}, "lat": 38.930107, "bike_id": "cd71ef28658f9eda19da3621bb0452ec", "is_disabled": 0, "lon": -77.0619055, "is_reserved": 0, "fusion_lat": 0.0, "type": "electric_scooter"}, {"fusion_lon": 0.0, "name": "265e06c542d3568d2adaac752893b746", "rental_uris": {"android": "https://dc.lft.to/lastmile_qr_scan", "ios": "https://dc.lft.to/lastmile_qr_scan"}, "lat": 38.90251266666667, "bike_id": "265e06c542d3568d2adaac752893b746", "is_disabled": 0, "lon": -77.03255783333333, "is_reserved": 0, "fusion_lat": 0.0, "type": "electric_scooter"}, {"fusion_lon": 0.0, "name": "ab8c6fb2a0bfcdb6931886cd31750bbc", "rental_uris": {"android": "https://dc.lft.to/lastmile_qr_scan", "ios": "https://dc.lft.to/lastmile_qr_scan"}, "lat": 38.897418333333334, "bike_id": "ab8c6fb2a0bfcdb6931886cd31750bbc", "is_disabled": 0, "lon": -76.97682883333333, "is_reserved": 0, "fusion_lat": 0.0, "type": "electric_scooter"}, {"fusion_lon": 0.0, "name": "421eaaea7097158f511d92f4f874f05a", "rental_uris": {"android": "https://dc.lft.to/lastmile_qr_scan", "ios": "https://dc.lft.to/lastmile_qr_scan"}, "lat": 38.89479733333334, "bike_id": "421eaaea7097158f511d92f4f874f05a", "is_disabled": 0, "lon": -76.99578933333333, "is_reserved": 0, "fusion_lat": 0.0, "type": "electric_scooter"}, {"fusion_lon": 0.0, "name": "d9e9783758b44317d078925a2518ab94", "rental_uris": {"android": "https://dc.lft.to/lastmile_qr_scan", "ios": "https://dc.lft.to/lastmile_qr_scan"}, "lat": 38.901393666666664, "bike_id": "d9e9783758b44317d078925a2518ab94", "is_disabled": 0, "lon": -76.99161533333333, "is_reserved": 0, "fusion_lat": 0.0, "type": "electric_scooter"}, {"fusion_lon": 0.0, "name": "25be97c0941dfc2d93b2355a10e2bdfc", "rental_uris": {"android": "https://dc.lft.to/lastmile_qr_scan", "ios": "https://dc.lft.to/lastmile_qr_scan"}, "lat": 38.908916166666664, "bike_id": "25be97c0941dfc2d93b2355a10e2bdfc", "is_disabled": 0, "lon": -77.02306516666667, "is_reserved": 0, "fusion_lat": 0.0, "type": "electric_scooter"}, {"fusion_lon": 0.0, "name": "97e291e81c697e6682bffd8b2da594c3", "rental_uris": {"android": "https://dc.lft.to/lastmile_qr_scan", "ios": "https://dc.lft.to/lastmile_qr_scan"}, "lat": 38.901514166666665, "bike_id": "97e291e81c697e6682bffd8b2da594c3", "is_disabled": 0, "lon": -76.97425733333333, "is_reserved": 0, "fusion_lat": 0.0, "type": "electric_scooter"}, {"fusion_lon": 0.0, "name": "5de93e48e92a63e76d37cdf96855033c", "rental_uris": {"android": "https://dc.lft.to/lastmile_qr_scan", "ios": "https://dc.lft.to/lastmile_qr_scan"}, "lat": 38.928066333333334, "bike_id": "5de93e48e92a63e76d37cdf96855033c", "is_disabled": 0, "lon": -77.03378583333334, "is_reserved": 0, "fusion_lat": 0.0, "type": "electric_scooter"}, {"fusion_lon": 0.0, "name": "aca3cc2d76ed493f2f65d486978438c5", "rental_uris": {"android": "https://dc.lft.to/lastmile_qr_scan", "ios": "https://dc.lft.to/lastmile_qr_scan"}, "lat": 38.921522, "bike_id": "aca3cc2d76ed493f2f65d486978438c5", "is_disabled": 0, "lon": -77.0338105, "is_reserved": 0, "fusion_lat": 0.0, "type": "electric_scooter"}, {"fusion_lon": 0.0, "name": "7c20f3d307c4e9859cf596a0cabe6ce7", "rental_uris": {"android": "https://dc.lft.to/lastmile_qr_scan", "ios": "https://dc.lft.to/lastmile_qr_scan"}, "lat": 38.89676133333333, "bike_id": "7c20f3d307c4e9859cf596a0cabe6ce7", "is_disabled": 0, "lon": -77.04369283333334, "is_reserved": 0, "fusion_lat": 0.0, "type": "electric_scooter"}, {"fusion_lon": 0.0, "name": "3b2166517b68a804c78bd50838106595", "rental_uris": {"android": "https://dc.lft.to/lastmile_qr_scan", "ios": "https://dc.lft.to/lastmile_qr_scan"}, "lat": 38.926012, "bike_id": "3b2166517b68a804c78bd50838106595", "is_disabled": 0, "lon": -77.02157083333333, "is_reserved": 0, "fusion_lat": 0.0, "type": "electric_scooter"}, {"fusion_lon": 0.0, "name": "45b5dbe9d5caf1641df6c0bf75bebef2", "rental_uris": {"android": "https://dc.lft.to/lastmile_qr_scan", "ios": "https://dc.lft.to/lastmile_qr_scan"}, "lat": 38.910497666666664, "bike_id": "45b5dbe9d5caf1641df6c0bf75bebef2", "is_disabled": 0, "lon": -77.043777, "is_reserved": 0, "fusion_lat": 0.0, "type": "electric_scooter"}, {"fusion_lon": 0.0, "name": "6fc6c6d98410431d20963e9a6bb50fa3", "rental_uris": {"android": "https://dc.lft.to/lastmile_qr_scan", "ios": "https://dc.lft.to/lastmile_qr_scan"}, "lat": 38.9216865, "bike_id": "6fc6c6d98410431d20963e9a6bb50fa3", "is_disabled": 0, "lon": -77.0192265, "is_reserved": 0, "fusion_lat": 0.0, "type": "electric_scooter"}, {"fusion_lon": 0.0, "name": "ecfff1bc1dc0b74c4ffe7fd69a8e4c5c", "rental_uris": {"android": "https://dc.lft.to/lastmile_qr_scan", "ios": "https://dc.lft.to/lastmile_qr_scan"}, "lat": 38.91412783333333, "bike_id": "ecfff1bc1dc0b74c4ffe7fd69a8e4c5c", "is_disabled": 0, "lon": -77.0222765, "is_reserved": 0, "fusion_lat": 0.0, "type": "electric_scooter"}, {"fusion_lon": 0.0, "name": "5ba48d98b46821777a291267741806b2", "rental_uris": {"android": "https://dc.lft.to/lastmile_qr_scan", "ios": "https://dc.lft.to/lastmile_qr_scan"}, "lat": 38.906925333333334, "bike_id": "5ba48d98b46821777a291267741806b2", "is_disabled": 0, "lon": -77.0270295, "is_reserved": 0, "fusion_lat": 0.0, "type": "electric_scooter"}, {"fusion_lon": 0.0, "name": "133e00dbaa82a8356d3b05fa2d6dd8e2", "rental_uris": {"android": "https://dc.lft.to/lastmile_qr_scan", "ios": "https://dc.lft.to/lastmile_qr_scan"}, "lat": 38.91415716666667, "bike_id": "133e00dbaa82a8356d3b05fa2d6dd8e2", "is_disabled": 0, "lon": -77.018034, "is_reserved": 0, "fusion_lat": 0.0, "type": "electric_scooter"}, {"fusion_lon": 0.0, "name": "aadd9b66636d67a9da59400db75ccc61", "rental_uris": {"android": "https://dc.lft.to/lastmile_qr_scan", "ios": "https://dc.lft.to/lastmile_qr_scan"}, "lat": 38.929172, "bike_id": "aadd9b66636d67a9da59400db75ccc61", "is_disabled": 0, "lon": -76.99814016666667, "is_reserved": 0, "fusion_lat": 0.0, "type": "electric_scooter"}, {"fusion_lon": 0.0, "name": "9f99944e7bf91d4cc151c8bdc5d2eae0", "rental_uris": {"android": "https://dc.lft.to/lastmile_qr_scan", "ios": "https://dc.lft.to/lastmile_qr_scan"}, "lat": 38.887237999999996, "bike_id": "9f99944e7bf91d4cc151c8bdc5d2eae0", "is_disabled": 0, "lon": -76.98358016666667, "is_reserved": 0, "fusion_lat": 0.0, "type": "electric_scooter"}, {"fusion_lon": 0.0, "name": "69e6bb718b794761a11d727f1613fd46", "rental_uris": {"android": "https://dc.lft.to/lastmile_qr_scan", "ios": "https://dc.lft.to/lastmile_qr_scan"}, "lat": 38.8872735, "bike_id": "69e6bb718b794761a11d727f1613fd46", "is_disabled": 0, "lon": -77.013918, "is_reserved": 0, "fusion_lat": 0.0, "type": "electric_scooter"}, {"fusion_lon": 0.0, "name": "87dcf86a992db8d5d13314e66bb5d74d", "rental_uris": {"android": "https://dc.lft.to/lastmile_qr_scan", "ios": "https://dc.lft.to/lastmile_qr_scan"}, "lat": 38.899029166666665, "bike_id": "87dcf86a992db8d5d13314e66bb5d74d", "is_disabled": 0, "lon": -77.03165216666666, "is_reserved": 0, "fusion_lat": 0.0, "type": "electric_scooter"}, {"fusion_lon": 0.0, "name": "a3faac486a3581798b8f709a53ed47ad", "rental_uris": {"android": "https://dc.lft.to/lastmile_qr_scan", "ios": "https://dc.lft.to/lastmile_qr_scan"}, "lat": 38.90373433333333, "bike_id": "a3faac486a3581798b8f709a53ed47ad", "is_disabled": 0, "lon": -77.03228733333333, "is_reserved": 0, "fusion_lat": 0.0, "type": "electric_scooter"}, {"fusion_lon": 0.0, "name": "e079749e94a9215a056e8d65e67745fd", "rental_uris": {"android": "https://dc.lft.to/lastmile_qr_scan", "ios": "https://dc.lft.to/lastmile_qr_scan"}, "lat": 38.87850133333333, "bike_id": "e079749e94a9215a056e8d65e67745fd", "is_disabled": 0, "lon": -77.02237416666667, "is_reserved": 0, "fusion_lat": 0.0, "type": "electric_scooter"}, {"fusion_lon": 0.0, "name": "d405831fcc0a83035681c78b53d2f7ee", "rental_uris": {"android": "https://dc.lft.to/lastmile_qr_scan", "ios": "https://dc.lft.to/lastmile_qr_scan"}, "lat": 38.873389, "bike_id": "d405831fcc0a83035681c78b53d2f7ee", "is_disabled": 0, "lon": -76.99169533333334, "is_reserved": 0, "fusion_lat": 0.0, "type": "electric_scooter"}, {"fusion_lon": 0.0, "name": "0b5d10d5fab1d92ea76f40247e791404", "rental_uris": {"android": "https://dc.lft.to/lastmile_qr_scan", "ios": "https://dc.lft.to/lastmile_qr_scan"}, "lat": 38.8975175, "bike_id": "0b5d10d5fab1d92ea76f40247e791404", "is_disabled": 0, "lon": -77.025554, "is_reserved": 0, "fusion_lat": 0.0, "type": "electric_scooter"}, {"fusion_lon": 0.0, "name": "347931459607aaae2626f0448af52ea8", "rental_uris": {"android": "https://dc.lft.to/lastmile_qr_scan", "ios": "https://dc.lft.to/lastmile_qr_scan"}, "lat": 38.90560033333333, "bike_id": "347931459607aaae2626f0448af52ea8", "is_disabled": 0, "lon": -77.005978, "is_reserved": 0, "fusion_lat": 0.0, "type": "electric_scooter"}, {"fusion_lon": 0.0, "name": "20e84d041aafb74063415585cf38b566", "rental_uris": {"android": "https://dc.lft.to/lastmile_qr_scan", "ios": "https://dc.lft.to/lastmile_qr_scan"}, "lat": 38.91551033333333, "bike_id": "20e84d041aafb74063415585cf38b566", "is_disabled": 0, "lon": -77.0325805, "is_reserved": 0, "fusion_lat": 0.0, "type": "electric_scooter"}, {"fusion_lon": 0.0, "name": "aabade3bc379617fdf09f8a58c313091", "rental_uris": {"android": "https://dc.lft.to/lastmile_qr_scan", "ios": "https://dc.lft.to/lastmile_qr_scan"}, "lat": 38.883638166666664, "bike_id": "aabade3bc379617fdf09f8a58c313091", "is_disabled": 0, "lon": -76.99488483333333, "is_reserved": 0, "fusion_lat": 0.0, "type": "electric_scooter"}, {"fusion_lon": 0.0, "name": "63a9da8f5b4942a5bb42423b318b1187", "rental_uris": {"android": "https://dc.lft.to/lastmile_qr_scan", "ios": "https://dc.lft.to/lastmile_qr_scan"}, "lat": 38.860068166666665, "bike_id": "63a9da8f5b4942a5bb42423b318b1187", "is_disabled": 0, "lon": -77.0653235, "is_reserved": 0, "fusion_lat": 0.0, "type": "electric_bike"}, {"fusion_lon": 0.0, "name": "55882a5919e8cbe4b4f0a20ad482ed47", "rental_uris": {"android": "https://dc.lft.to/lastmile_qr_scan", "ios": "https://dc.lft.to/lastmile_qr_scan"}, "lat": 38.907335, "bike_id": "55882a5919e8cbe4b4f0a20ad482ed47", "is_disabled": 0, "lon": -77.04339633333333, "is_reserved": 0, "fusion_lat": 0.0, "type": "electric_scooter"}, {"fusion_lon": 0.0, "name": "6766d248000208975232749e1ad27cb2", "rental_uris": {"android": "https://dc.lft.to/lastmile_qr_scan", "ios": "https://dc.lft.to/lastmile_qr_scan"}, "lat": 38.908855333333335, "bike_id": "6766d248000208975232749e1ad27cb2", "is_disabled": 0, "lon": -77.00322, "is_reserved": 0, "fusion_lat": 0.0, "type": "electric_scooter"}, {"fusion_lon": 0.0, "name": "0d7b1db323e44fc6b8eddf8cd2c5a7f5", "rental_uris": {"android": "https://dc.lft.to/lastmile_qr_scan", "ios": "https://dc.lft.to/lastmile_qr_scan"}, "lat": 38.891934666666664, "bike_id": "0d7b1db323e44fc6b8eddf8cd2c5a7f5", "is_disabled": 0, "lon": -77.00188583333333, "is_reserved": 0, "fusion_lat": 0.0, "type": "electric_scooter"}, {"fusion_lon": 0.0, "name": "7a14d54a2e6f448d418ba64d153e3750", "rental_uris": {"android": "https://dc.lft.to/lastmile_qr_scan", "ios": "https://dc.lft.to/lastmile_qr_scan"}, "lat": 38.90689, "bike_id": "7a14d54a2e6f448d418ba64d153e3750", "is_disabled": 0, "lon": -76.95258683333333, "is_reserved": 0, "fusion_lat": 0.0, "type": "electric_bike"}, {"fusion_lon": 0.0, "name": "1a371215fc7fbd0faa91dc3d69aa9c59", "rental_uris": {"android": "https://dc.lft.to/lastmile_qr_scan", "ios": "https://dc.lft.to/lastmile_qr_scan"}, "lat": 38.9157115, "bike_id": "1a371215fc7fbd0faa91dc3d69aa9c59", "is_disabled": 0, "lon": -77.01265633333334, "is_reserved": 0, "fusion_lat": 0.0, "type": "electric_scooter"}, {"fusion_lon": 0.0, "name": "de4b37932958a64aa499dc39ca519a0b", "rental_uris": {"android": "https://dc.lft.to/lastmile_qr_scan", "ios": "https://dc.lft.to/lastmile_qr_scan"}, "lat": 38.884957, "bike_id": "de4b37932958a64aa499dc39ca519a0b", "is_disabled": 0, "lon": -77.0090045, "is_reserved": 0, "fusion_lat": 0.0, "type": "electric_scooter"}, {"fusion_lon": 0.0, "name": "5d897e4fb7284b734e6a96d159105b67", "rental_uris": {"android": "https://dc.lft.to/lastmile_qr_scan", "ios": "https://dc.lft.to/lastmile_qr_scan"}, "lat": 38.924478, "bike_id": "5d897e4fb7284b734e6a96d159105b67", "is_disabled": 0, "lon": -77.03401683333334, "is_reserved": 0, "fusion_lat": 0.0, "type": "electric_scooter"}, {"fusion_lon": 0.0, "name": "cbfc5c28fd098671b389db64182310fe", "rental_uris": {"android": "https://dc.lft.to/lastmile_qr_scan", "ios": "https://dc.lft.to/lastmile_qr_scan"}, "lat": 38.90587766666667, "bike_id": "cbfc5c28fd098671b389db64182310fe", "is_disabled": 0, "lon": -77.04184866666667, "is_reserved": 0, "fusion_lat": 0.0, "type": "electric_scooter"}, {"fusion_lon": 0.0, "name": "0df2d9b0d552cca40a1ab5834b46d628", "rental_uris": {"android": "https://dc.lft.to/lastmile_qr_scan", "ios": "https://dc.lft.to/lastmile_qr_scan"}, "lat": 38.95590133333334, "bike_id": "0df2d9b0d552cca40a1ab5834b46d628", "is_disabled": 0, "lon": -77.01003016666667, "is_reserved": 0, "fusion_lat": 0.0, "type": "electric_bike"}, {"fusion_lon": 0.0, "name": "702d8c4fc56da93287237386e7193485", "rental_uris": {"android": "https://dc.lft.to/lastmile_qr_scan", "ios": "https://dc.lft.to/lastmile_qr_scan"}, "lat": 38.838655333333335, "bike_id": "702d8c4fc56da93287237386e7193485", "is_disabled": 0, "lon": -76.995412, "is_reserved": 0, "fusion_lat": 0.0, "type": "electric_bike"}, {"fusion_lon": 0.0, "name": "ec691c7dc05f783bf513e85f6d545349", "rental_uris": {"android": "https://dc.lft.to/lastmile_qr_scan", "ios": "https://dc.lft.to/lastmile_qr_scan"}, "lat": 38.897020166666664, "bike_id": "ec691c7dc05f783bf513e85f6d545349", "is_disabled": 0, "lon": -77.01288033333333, "is_reserved": 0, "fusion_lat": 0.0, "type": "electric_scooter"}, {"fusion_lon": 0.0, "name": "47c860d93bd772b7357a41ea9c6f4d71", "rental_uris": {"android": "https://dc.lft.to/lastmile_qr_scan", "ios": "https://dc.lft.to/lastmile_qr_scan"}, "lat": 38.90442066666667, "bike_id": "47c860d93bd772b7357a41ea9c6f4d71", "is_disabled": 0, "lon": -77.03241983333334, "is_reserved": 0, "fusion_lat": 0.0, "type": "electric_scooter"}, {"fusion_lon": 0.0, "name": "b618793a4aa0270fb6b0404f4d2a4081", "rental_uris": {"android": "https://dc.lft.to/lastmile_qr_scan", "ios": "https://dc.lft.to/lastmile_qr_scan"}, "lat": 38.907405833333335, "bike_id": "b618793a4aa0270fb6b0404f4d2a4081", "is_disabled": 0, "lon": -77.01537033333334, "is_reserved": 0, "fusion_lat": 0.0, "type": "electric_scooter"}, {"fusion_lon": 0.0, "name": "21b5e18416f16d934b24a6f302b14a26", "rental_uris": {"android": "https://dc.lft.to/lastmile_qr_scan", "ios": "https://dc.lft.to/lastmile_qr_scan"}, "lat": 38.94470883333334, "bike_id": "21b5e18416f16d934b24a6f302b14a26", "is_disabled": 0, "lon": -76.98692516666667, "is_reserved": 0, "fusion_lat": 0.0, "type": "electric_bike"}, {"fusion_lon": 0.0, "name": "41f3047014d93d5365c04c01087caf6a", "rental_uris": {"android": "https://dc.lft.to/lastmile_qr_scan", "ios": "https://dc.lft.to/lastmile_qr_scan"}, "lat": 38.89479733333334, "bike_id": "41f3047014d93d5365c04c01087caf6a", "is_disabled": 0, "lon": -76.99485716666666, "is_reserved": 0, "fusion_lat": 0.0, "type": "electric_scooter"}, {"fusion_lon": 0.0, "name": "3b51ab6f43188bdcafaae565cd31c3c4", "rental_uris": {"android": "https://dc.lft.to/lastmile_qr_scan", "ios": "https://dc.lft.to/lastmile_qr_scan"}, "lat": 38.90181416666667, "bike_id": "3b51ab6f43188bdcafaae565cd31c3c4", "is_disabled": 0, "lon": -77.021671, "is_reserved": 0, "fusion_lat": 0.0, "type": "electric_scooter"}, {"fusion_lon": 0.0, "name": "03196c1f05f73eebf7525ab7dcc8589e", "rental_uris": {"android": "https://dc.lft.to/lastmile_qr_scan", "ios": "https://dc.lft.to/lastmile_qr_scan"}, "lat": 38.90243683333333, "bike_id": "03196c1f05f73eebf7525ab7dcc8589e", "is_disabled": 0, "lon": -77.0018875, "is_reserved": 0, "fusion_lat": 0.0, "type": "electric_scooter"}, {"fusion_lon": 0.0, "name": "446e21bf9dfa045259ea5f1e80dd6579", "rental_uris": {"android": "https://dc.lft.to/lastmile_qr_scan", "ios": "https://dc.lft.to/lastmile_qr_scan"}, "lat": 38.99410133333333, "bike_id": "446e21bf9dfa045259ea5f1e80dd6579", "is_disabled": 0, "lon": -77.01803733333334, "is_reserved": 0, "fusion_lat": 0.0, "type": "electric_bike"}, {"fusion_lon": 0.0, "name": "4014035aabbd13be4e8842a1eed46e51", "rental_uris": {"android": "https://dc.lft.to/lastmile_qr_scan", "ios": "https://dc.lft.to/lastmile_qr_scan"}, "lat": 38.92502, "bike_id": "4014035aabbd13be4e8842a1eed46e51", "is_disabled": 0, "lon": -77.02400616666667, "is_reserved": 0, "fusion_lat": 0.0, "type": "electric_scooter"}, {"fusion_lon": 0.0, "name": "6e809704315e8552f3e6f12026618085", "rental_uris": {"android": "https://dc.lft.to/lastmile_qr_scan", "ios": "https://dc.lft.to/lastmile_qr_scan"}, "lat": 38.8904845, "bike_id": "6e809704315e8552f3e6f12026618085", "is_disabled": 0, "lon": -77.0142025, "is_reserved": 0, "fusion_lat": 0.0, "type": "electric_bike"}, {"fusion_lon": 0.0, "name": "3e06c130923153e323f35cf25eecc733", "rental_uris": {"android": "https://dc.lft.to/lastmile_qr_scan", "ios": "https://dc.lft.to/lastmile_qr_scan"}, "lat": 38.925628333333336, "bike_id": "3e06c130923153e323f35cf25eecc733", "is_disabled": 0, "lon": -77.022864, "is_reserved": 0, "fusion_lat": 0.0, "type": "electric_scooter"}, {"fusion_lon": 0.0, "name": "9f556d667c0821392f07f2a03bb17138", "rental_uris": {"android": "https://dc.lft.to/lastmile_qr_scan", "ios": "https://dc.lft.to/lastmile_qr_scan"}, "lat": 38.90026483333333, "bike_id": "9f556d667c0821392f07f2a03bb17138", "is_disabled": 0, "lon": -77.00202683333333, "is_reserved": 0, "fusion_lat": 0.0, "type": "electric_scooter"}, {"fusion_lon": 0.0, "name": "56a5398c59131bfffaec6fab303f2212", "rental_uris": {"android": "https://dc.lft.to/lastmile_qr_scan", "ios": "https://dc.lft.to/lastmile_qr_scan"}, "lat": 38.908961833333336, "bike_id": "56a5398c59131bfffaec6fab303f2212", "is_disabled": 0, "lon": -77.07266433333334, "is_reserved": 0, "fusion_lat": 0.0, "type": "electric_scooter"}, {"fusion_lon": 0.0, "name": "c70527463b7582a61e0eae7e987086ae", "rental_uris": {"android": "https://dc.lft.to/lastmile_qr_scan", "ios": "https://dc.lft.to/lastmile_qr_scan"}, "lat": 38.9390105, "bike_id": "c70527463b7582a61e0eae7e987086ae", "is_disabled": 0, "lon": -77.0604295, "is_reserved": 0, "fusion_lat": 0.0, "type": "electric_scooter"}, {"fusion_lon": 0.0, "name": "16f627dd8d071f78146c5f8f87514327", "rental_uris": {"android": "https://dc.lft.to/lastmile_qr_scan", "ios": "https://dc.lft.to/lastmile_qr_scan"}, "lat": 38.897177166666665, "bike_id": "16f627dd8d071f78146c5f8f87514327", "is_disabled": 0, "lon": -77.0269115, "is_reserved": 0, "fusion_lat": 0.0, "type": "electric_scooter"}, {"fusion_lon": 0.0, "name": "16b33f02fd0b7a0f72d2c34780439248", "rental_uris": {"android": "https://dc.lft.to/lastmile_qr_scan", "ios": "https://dc.lft.to/lastmile_qr_scan"}, "lat": 38.916749333333335, "bike_id": "16b33f02fd0b7a0f72d2c34780439248", "is_disabled": 0, "lon": -77.02967416666667, "is_reserved": 0, "fusion_lat": 0.0, "type": "electric_scooter"}, {"fusion_lon": 0.0, "name": "868e68447606d9d389e18089568b2c48", "rental_uris": {"android": "https://dc.lft.to/lastmile_qr_scan", "ios": "https://dc.lft.to/lastmile_qr_scan"}, "lat": 38.927885833333335, "bike_id": "868e68447606d9d389e18089568b2c48", "is_disabled": 0, "lon": -77.0308565, "is_reserved": 0, "fusion_lat": 0.0, "type": "electric_scooter"}, {"fusion_lon": 0.0, "name": "de0da49987c530892c2dda4312cde9ae", "rental_uris": {"android": "https://dc.lft.to/lastmile_qr_scan", "ios": "https://dc.lft.to/lastmile_qr_scan"}, "lat": 38.915546666666664, "bike_id": "de0da49987c530892c2dda4312cde9ae", "is_disabled": 0, "lon": -77.007222, "is_reserved": 0, "fusion_lat": 0.0, "type": "electric_scooter"}, {"fusion_lon": 0.0, "name": "1633edaf45529f2314457185f0843a1f", "rental_uris": {"android": "https://dc.lft.to/lastmile_qr_scan", "ios": "https://dc.lft.to/lastmile_qr_scan"}, "lat": 38.9022515, "bike_id": "1633edaf45529f2314457185f0843a1f", "is_disabled": 0, "lon": -77.0461885, "is_reserved": 0, "fusion_lat": 0.0, "type": "electric_scooter"}, {"fusion_lon": 0.0, "name": "c696fe00c435ea74f3b1de154f4a91c4", "rental_uris": {"android": "https://dc.lft.to/lastmile_qr_scan", "ios": "https://dc.lft.to/lastmile_qr_scan"}, "lat": 38.90035966666667, "bike_id": "c696fe00c435ea74f3b1de154f4a91c4", "is_disabled": 0, "lon": -77.04079716666666, "is_reserved": 0, "fusion_lat": 0.0, "type": "electric_scooter"}, {"fusion_lon": 0.0, "name": "b52edf358282a8334d74ef74d7de36e8", "rental_uris": {"android": "https://dc.lft.to/lastmile_qr_scan", "ios": "https://dc.lft.to/lastmile_qr_scan"}, "lat": 38.92899116666667, "bike_id": "b52edf358282a8334d74ef74d7de36e8", "is_disabled": 0, "lon": -77.03252666666667, "is_reserved": 0, "fusion_lat": 0.0, "type": "electric_scooter"}, {"fusion_lon": 0.0, "name": "b9bcd2d3950d458fc845ea629fa6e58d", "rental_uris": {"android": "https://dc.lft.to/lastmile_qr_scan", "ios": "https://dc.lft.to/lastmile_qr_scan"}, "lat": 38.90534016666667, "bike_id": "b9bcd2d3950d458fc845ea629fa6e58d", "is_disabled": 0, "lon": -77.04988383333334, "is_reserved": 0, "fusion_lat": 0.0, "type": "electric_scooter"}, {"fusion_lon": 0.0, "name": "02c79d8ad00dc01e98ce42f38939e991", "rental_uris": {"android": "https://dc.lft.to/lastmile_qr_scan", "ios": "https://dc.lft.to/lastmile_qr_scan"}, "lat": 38.901769333333334, "bike_id": "02c79d8ad00dc01e98ce42f38939e991", "is_disabled": 0, "lon": -76.98844083333333, "is_reserved": 0, "fusion_lat": 0.0, "type": "electric_scooter"}, {"fusion_lon": 0.0, "name": "0f7ef53b16982767a1eb02caa4ac5bc3", "rental_uris": {"android": "https://dc.lft.to/lastmile_qr_scan", "ios": "https://dc.lft.to/lastmile_qr_scan"}, "lat": 38.927227, "bike_id": "0f7ef53b16982767a1eb02caa4ac5bc3", "is_disabled": 0, "lon": -77.04111316666666, "is_reserved": 0, "fusion_lat": 0.0, "type": "electric_scooter"}, {"fusion_lon": 0.0, "name": "71955780c6015ff79b4283650cdd6089", "rental_uris": {"android": "https://dc.lft.to/lastmile_qr_scan", "ios": "https://dc.lft.to/lastmile_qr_scan"}, "lat": 38.893525333333336, "bike_id": "71955780c6015ff79b4283650cdd6089", "is_disabled": 0, "lon": -77.00333533333334, "is_reserved": 0, "fusion_lat": 0.0, "type": "electric_scooter"}, {"fusion_lon": 0.0, "name": "2cabafd42a978bebcd455ab92a06a3ea", "rental_uris": {"android": "https://dc.lft.to/lastmile_qr_scan", "ios": "https://dc.lft.to/lastmile_qr_scan"}, "lat": 38.89182783333333, "bike_id": "2cabafd42a978bebcd455ab92a06a3ea", "is_disabled": 0, "lon": -76.93600833333333, "is_reserved": 0, "fusion_lat": 0.0, "type": "electric_scooter"}, {"fusion_lon": 0.0, "name": "9832277d6893f9a6aec6feca93aade74", "rental_uris": {"android": "https://dc.lft.to/lastmile_qr_scan", "ios": "https://dc.lft.to/lastmile_qr_scan"}, "lat": 38.923381, "bike_id": "9832277d6893f9a6aec6feca93aade74", "is_disabled": 0, "lon": -77.019044, "is_reserved": 0, "fusion_lat": 0.0, "type": "electric_scooter"}, {"fusion_lon": 0.0, "name": "6bccc7a087bc9294039a895c92fcb27c", "rental_uris": {"android": "https://dc.lft.to/lastmile_qr_scan", "ios": "https://dc.lft.to/lastmile_qr_scan"}, "lat": 38.91842166666667, "bike_id": "6bccc7a087bc9294039a895c92fcb27c", "is_disabled": 0, "lon": -77.03862783333334, "is_reserved": 0, "fusion_lat": 0.0, "type": "electric_scooter"}, {"fusion_lon": 0.0, "name": "f2cf0f5f925bab50821d2752e90a4b94", "rental_uris": {"android": "https://dc.lft.to/lastmile_qr_scan", "ios": "https://dc.lft.to/lastmile_qr_scan"}, "lat": 38.91108716666667, "bike_id": "f2cf0f5f925bab50821d2752e90a4b94", "is_disabled": 0, "lon": -77.03837133333333, "is_reserved": 0, "fusion_lat": 0.0, "type": "electric_scooter"}, {"fusion_lon": 0.0, "name": "4f7771f2979f7678cebe51309674ce02", "rental_uris": {"android": "https://dc.lft.to/lastmile_qr_scan", "ios": "https://dc.lft.to/lastmile_qr_scan"}, "lat": 38.908249166666664, "bike_id": "4f7771f2979f7678cebe51309674ce02", "is_disabled": 0, "lon": -77.03356633333334, "is_reserved": 0, "fusion_lat": 0.0, "type": "electric_scooter"}, {"fusion_lon": 0.0, "name": "b600df98da2fad0e877f109106ddb9c1", "rental_uris": {"android": "https://dc.lft.to/lastmile_qr_scan", "ios": "https://dc.lft.to/lastmile_qr_scan"}, "lat": 38.914116666666665, "bike_id": "b600df98da2fad0e877f109106ddb9c1", "is_disabled": 0, "lon": -77.022286, "is_reserved": 0, "fusion_lat": 0.0, "type": "electric_scooter"}, {"fusion_lon": 0.0, "name": "6c447a2609e5295f9810e1e9c9233dd7", "rental_uris": {"android": "https://dc.lft.to/lastmile_qr_scan", "ios": "https://dc.lft.to/lastmile_qr_scan"}, "lat": 38.88731116666666, "bike_id": "6c447a2609e5295f9810e1e9c9233dd7", "is_disabled": 0, "lon": -77.00220183333333, "is_reserved": 0, "fusion_lat": 0.0, "type": "electric_scooter"}, {"fusion_lon": 0.0, "name": "9fd45e8e6b7c65a8c19d0f79137fbaf7", "rental_uris": {"android": "https://dc.lft.to/lastmile_qr_scan", "ios": "https://dc.lft.to/lastmile_qr_scan"}, "lat": 38.90889333333333, "bike_id": "9fd45e8e6b7c65a8c19d0f79137fbaf7", "is_disabled": 0, "lon": -77.023115, "is_reserved": 0, "fusion_lat": 0.0, "type": "electric_scooter"}, {"fusion_lon": 0.0, "name": "a70d5637fff58693a7572fad63349fba", "rental_uris": {"android": "https://dc.lft.to/lastmile_qr_scan", "ios": "https://dc.lft.to/lastmile_qr_scan"}, "lat": 38.9222835, "bike_id": "a70d5637fff58693a7572fad63349fba", "is_disabled": 0, "lon": -76.97531383333333, "is_reserved": 0, "fusion_lat": 0.0, "type": "electric_scooter"}, {"fusion_lon": 0.0, "name": "2f1afc448827412dc9b7bab98b31f062", "rental_uris": {"android": "https://dc.lft.to/lastmile_qr_scan", "ios": "https://dc.lft.to/lastmile_qr_scan"}, "lat": 38.9284625, "bike_id": "2f1afc448827412dc9b7bab98b31f062", "is_disabled": 0, "lon": -77.014141, "is_reserved": 0, "fusion_lat": 0.0, "type": "electric_scooter"}, {"fusion_lon": 0.0, "name": "7c70bf204883b226ebf4f8c7b7256c7a", "rental_uris": {"android": "https://dc.lft.to/lastmile_qr_scan", "ios": "https://dc.lft.to/lastmile_qr_scan"}, "lat": 38.90669916666667, "bike_id": "7c70bf204883b226ebf4f8c7b7256c7a", "is_disabled": 0, "lon": -77.05026283333333, "is_reserved": 0, "fusion_lat": 0.0, "type": "electric_scooter"}, {"fusion_lon": 0.0, "name": "349e101a9ef1b5c3aa1f9ada07e43759", "rental_uris": {"android": "https://dc.lft.to/lastmile_qr_scan", "ios": "https://dc.lft.to/lastmile_qr_scan"}, "lat": 38.902183666666666, "bike_id": "349e101a9ef1b5c3aa1f9ada07e43759", "is_disabled": 0, "lon": -77.02366333333333, "is_reserved": 0, "fusion_lat": 0.0, "type": "electric_scooter"}, {"fusion_lon": 0.0, "name": "8e68e5147482c253ec2a8fbcf088e4ce", "rental_uris": {"android": "https://dc.lft.to/lastmile_qr_scan", "ios": "https://dc.lft.to/lastmile_qr_scan"}, "lat": 38.907279333333335, "bike_id": "8e68e5147482c253ec2a8fbcf088e4ce", "is_disabled": 0, "lon": -77.03178483333333, "is_reserved": 0, "fusion_lat": 0.0, "type": "electric_scooter"}, {"fusion_lon": 0.0, "name": "aecd34ee3f54d7cfa792b733760041f7", "rental_uris": {"android": "https://dc.lft.to/lastmile_qr_scan", "ios": "https://dc.lft.to/lastmile_qr_scan"}, "lat": 38.8979625, "bike_id": "aecd34ee3f54d7cfa792b733760041f7", "is_disabled": 0, "lon": -77.03163883333333, "is_reserved": 0, "fusion_lat": 0.0, "type": "electric_scooter"}, {"fusion_lon": 0.0, "name": "43192f6964327b2ac98d193443211f54", "rental_uris": {"android": "https://dc.lft.to/lastmile_qr_scan", "ios": "https://dc.lft.to/lastmile_qr_scan"}, "lat": 38.91681233333333, "bike_id": "43192f6964327b2ac98d193443211f54", "is_disabled": 0, "lon": -77.02316483333334, "is_reserved": 0, "fusion_lat": 0.0, "type": "electric_scooter"}, {"fusion_lon": 0.0, "name": "b5ecf1c9cfd8c35fe8feff3cf4095c8e", "rental_uris": {"android": "https://dc.lft.to/lastmile_qr_scan", "ios": "https://dc.lft.to/lastmile_qr_scan"}, "lat": 38.88542066666667, "bike_id": "b5ecf1c9cfd8c35fe8feff3cf4095c8e", "is_disabled": 0, "lon": -77.116955, "is_reserved": 0, "fusion_lat": 0.0, "type": "electric_bike"}, {"fusion_lon": 0.0, "name": "0a4bd6343b0677bd0090a5b252d8c939", "rental_uris": {"android": "https://dc.lft.to/lastmile_qr_scan", "ios": "https://dc.lft.to/lastmile_qr_scan"}, "lat": 38.91620783333333, "bike_id": "0a4bd6343b0677bd0090a5b252d8c939", "is_disabled": 0, "lon": -77.03503416666666, "is_reserved": 0, "fusion_lat": 0.0, "type": "electric_scooter"}, {"fusion_lon": 0.0, "name": "021c84bf5db910f81c1cba5c4dd44833", "rental_uris": {"android": "https://dc.lft.to/lastmile_qr_scan", "ios": "https://dc.lft.to/lastmile_qr_scan"}, "lat": 38.903703166666666, "bike_id": "021c84bf5db910f81c1cba5c4dd44833", "is_disabled": 0, "lon": -77.0314185, "is_reserved": 0, "fusion_lat": 0.0, "type": "electric_scooter"}, {"fusion_lon": 0.0, "name": "f1a593b0361cc73100a92ebef16bf16a", "rental_uris": {"android": "https://dc.lft.to/lastmile_qr_scan", "ios": "https://dc.lft.to/lastmile_qr_scan"}, "lat": 38.89884133333334, "bike_id": "f1a593b0361cc73100a92ebef16bf16a", "is_disabled": 0, "lon": -76.93176683333333, "is_reserved": 0, "fusion_lat": 0.0, "type": "electric_scooter"}, {"fusion_lon": 0.0, "name": "15340e670e001d1e82b62009384487aa", "rental_uris": {"android": "https://dc.lft.to/lastmile_qr_scan", "ios": "https://dc.lft.to/lastmile_qr_scan"}, "lat": 38.894532833333336, "bike_id": "15340e670e001d1e82b62009384487aa", "is_disabled": 0, "lon": -77.19130516666667, "is_reserved": 0, "fusion_lat": 0.0, "type": "electric_bike"}, {"fusion_lon": 0.0, "name": "608374d2a8e82e564baa7b0f35f3af64", "rental_uris": {"android": "https://dc.lft.to/lastmile_qr_scan", "ios": "https://dc.lft.to/lastmile_qr_scan"}, "lat": 38.92230466666667, "bike_id": "608374d2a8e82e564baa7b0f35f3af64", "is_disabled": 0, "lon": -77.01825416666667, "is_reserved": 0, "fusion_lat": 0.0, "type": "electric_scooter"}, {"fusion_lon": 0.0, "name": "d0a8dbcaf96aabe44e224d2dd83ed313", "rental_uris": {"android": "https://dc.lft.to/lastmile_qr_scan", "ios": "https://dc.lft.to/lastmile_qr_scan"}, "lat": 38.89014916666667, "bike_id": "d0a8dbcaf96aabe44e224d2dd83ed313", "is_disabled": 0, "lon": -76.937164, "is_reserved": 0, "fusion_lat": 0.0, "type": "electric_scooter"}, {"fusion_lon": 0.0, "name": "fd54d3e5f252e85d9185db3ae3766290", "rental_uris": {"android": "https://dc.lft.to/lastmile_qr_scan", "ios": "https://dc.lft.to/lastmile_qr_scan"}, "lat": 38.8783995, "bike_id": "fd54d3e5f252e85d9185db3ae3766290", "is_disabled": 0, "lon": -77.0198085, "is_reserved": 0, "fusion_lat": 0.0, "type": "electric_scooter"}, {"fusion_lon": 0.0, "name": "552fb867c0e1600c0ba4e52d4381f227", "rental_uris": {"android": "https://dc.lft.to/lastmile_qr_scan", "ios": "https://dc.lft.to/lastmile_qr_scan"}, "lat": 38.90842583333333, "bike_id": "552fb867c0e1600c0ba4e52d4381f227", "is_disabled": 0, "lon": -77.04356816666666, "is_reserved": 0, "fusion_lat": 0.0, "type": "electric_scooter"}, {"fusion_lon": 0.0, "name": "1fe6aa1efcd8c385f16d9cac895e3083", "rental_uris": {"android": "https://dc.lft.to/lastmile_qr_scan", "ios": "https://dc.lft.to/lastmile_qr_scan"}, "lat": 38.901464, "bike_id": "1fe6aa1efcd8c385f16d9cac895e3083", "is_disabled": 0, "lon": -77.034208, "is_reserved": 0, "fusion_lat": 0.0, "type": "electric_scooter"}, {"fusion_lon": 0.0, "name": "837f4b6f9f40710903d214251bf7bdf0", "rental_uris": {"android": "https://dc.lft.to/lastmile_qr_scan", "ios": "https://dc.lft.to/lastmile_qr_scan"}, "lat": 38.90557483333333, "bike_id": "837f4b6f9f40710903d214251bf7bdf0", "is_disabled": 0, "lon": -77.040089, "is_reserved": 0, "fusion_lat": 0.0, "type": "electric_scooter"}, {"fusion_lon": 0.0, "name": "0c221bc9e11ace580165148f4a82f2bf", "rental_uris": {"android": "https://dc.lft.to/lastmile_qr_scan", "ios": "https://dc.lft.to/lastmile_qr_scan"}, "lat": 38.8964215, "bike_id": "0c221bc9e11ace580165148f4a82f2bf", "is_disabled": 0, "lon": -76.9479295, "is_reserved": 0, "fusion_lat": 0.0, "type": "electric_scooter"}, {"fusion_lon": 0.0, "name": "3a5a54ec7148cf5f926670813178f6af", "rental_uris": {"android": "https://dc.lft.to/lastmile_qr_scan", "ios": "https://dc.lft.to/lastmile_qr_scan"}, "lat": 38.90248366666667, "bike_id": "3a5a54ec7148cf5f926670813178f6af", "is_disabled": 0, "lon": -77.03967616666667, "is_reserved": 0, "fusion_lat": 0.0, "type": "electric_scooter"}, {"fusion_lon": 0.0, "name": "212b61a19073ad2bbb62878187308d8e", "rental_uris": {"android": "https://dc.lft.to/lastmile_qr_scan", "ios": "https://dc.lft.to/lastmile_qr_scan"}, "lat": 38.917016833333335, "bike_id": "212b61a19073ad2bbb62878187308d8e", "is_disabled": 0, "lon": -77.09579166666667, "is_reserved": 0, "fusion_lat": 0.0, "type": "electric_bike"}, {"fusion_lon": 0.0, "name": "8da7819e88d7ea2134f9de95d5dc8310", "rental_uris": {"android": "https://dc.lft.to/lastmile_qr_scan", "ios": "https://dc.lft.to/lastmile_qr_scan"}, "lat": 38.92510033333333, "bike_id": "8da7819e88d7ea2134f9de95d5dc8310", "is_disabled": 0, "lon": -76.99576816666666, "is_reserved": 0, "fusion_lat": 0.0, "type": "electric_scooter"}, {"fusion_lon": 0.0, "name": "fa3f8b983e5d73a085a317424ec382f7", "rental_uris": {"android": "https://dc.lft.to/lastmile_qr_scan", "ios": "https://dc.lft.to/lastmile_qr_scan"}, "lat": 38.906968166666665, "bike_id": "fa3f8b983e5d73a085a317424ec382f7", "is_disabled": 0, "lon": -77.02696333333333, "is_reserved": 0, "fusion_lat": 0.0, "type": "electric_scooter"}, {"fusion_lon": 0.0, "name": "85c33a3d6c90ef12a99c117c231c4607", "rental_uris": {"android": "https://dc.lft.to/lastmile_qr_scan", "ios": "https://dc.lft.to/lastmile_qr_scan"}, "lat": 38.9285605, "bike_id": "85c33a3d6c90ef12a99c117c231c4607", "is_disabled": 0, "lon": -77.05430116666666, "is_reserved": 0, "fusion_lat": 0.0, "type": "electric_scooter"}, {"fusion_lon": 0.0, "name": "16e57671e07e568f7272898d0164dcbc", "rental_uris": {"android": "https://dc.lft.to/lastmile_qr_scan", "ios": "https://dc.lft.to/lastmile_qr_scan"}, "lat": 38.8765625, "bike_id": "16e57671e07e568f7272898d0164dcbc", "is_disabled": 0, "lon": -76.99323916666667, "is_reserved": 0, "fusion_lat": 0.0, "type": "electric_scooter"}, {"fusion_lon": 0.0, "name": "c66cbb61c51af5646beda00b4485a255", "rental_uris": {"android": "https://dc.lft.to/lastmile_qr_scan", "ios": "https://dc.lft.to/lastmile_qr_scan"}, "lat": 38.905945, "bike_id": "c66cbb61c51af5646beda00b4485a255", "is_disabled": 0, "lon": -77.04646383333333, "is_reserved": 0, "fusion_lat": 0.0, "type": "electric_scooter"}, {"fusion_lon": 0.0, "name": "0187911d32918fa5bddbd28dee3f46ed", "rental_uris": {"android": "https://dc.lft.to/lastmile_qr_scan", "ios": "https://dc.lft.to/lastmile_qr_scan"}, "lat": 38.95774733333333, "bike_id": "0187911d32918fa5bddbd28dee3f46ed", "is_disabled": 0, "lon": -77.024651, "is_reserved": 0, "fusion_lat": 0.0, "type": "electric_scooter"}, {"fusion_lon": 0.0, "name": "716dfbc521f66b7f7c7c932ae998f54f", "rental_uris": {"android": "https://dc.lft.to/lastmile_qr_scan", "ios": "https://dc.lft.to/lastmile_qr_scan"}, "lat": 38.9019635, "bike_id": "716dfbc521f66b7f7c7c932ae998f54f", "is_disabled": 0, "lon": -77.02164216666667, "is_reserved": 0, "fusion_lat": 0.0, "type": "electric_scooter"}, {"fusion_lon": 0.0, "name": "53388bce31c610f72007355a813605e6", "rental_uris": {"android": "https://dc.lft.to/lastmile_qr_scan", "ios": "https://dc.lft.to/lastmile_qr_scan"}, "lat": 38.92610283333333, "bike_id": "53388bce31c610f72007355a813605e6", "is_disabled": 0, "lon": -77.02162866666667, "is_reserved": 0, "fusion_lat": 0.0, "type": "electric_scooter"}, {"fusion_lon": 0.0, "name": "21785a7a6e95d62be80b35dc252d980f", "rental_uris": {"android": "https://dc.lft.to/lastmile_qr_scan", "ios": "https://dc.lft.to/lastmile_qr_scan"}, "lat": 38.93295366666667, "bike_id": "21785a7a6e95d62be80b35dc252d980f", "is_disabled": 0, "lon": -77.085316, "is_reserved": 0, "fusion_lat": 0.0, "type": "electric_scooter"}, {"fusion_lon": 0.0, "name": "b9b30708b0f9c576eba9a2c33213644a", "rental_uris": {"android": "https://dc.lft.to/lastmile_qr_scan", "ios": "https://dc.lft.to/lastmile_qr_scan"}, "lat": 38.92437916666667, "bike_id": "b9b30708b0f9c576eba9a2c33213644a", "is_disabled": 0, "lon": -77.02018766666667, "is_reserved": 0, "fusion_lat": 0.0, "type": "electric_scooter"}, {"fusion_lon": 0.0, "name": "739be54cee302f42b8202eb612aa296a", "rental_uris": {"android": "https://dc.lft.to/lastmile_qr_scan", "ios": "https://dc.lft.to/lastmile_qr_scan"}, "lat": 38.89472466666667, "bike_id": "739be54cee302f42b8202eb612aa296a", "is_disabled": 0, "lon": -77.021095, "is_reserved": 0, "fusion_lat": 0.0, "type": "electric_scooter"}, {"fusion_lon": 0.0, "name": "fe9e4ee4506d79ba081f319fc750a4d3", "rental_uris": {"android": "https://dc.lft.to/lastmile_qr_scan", "ios": "https://dc.lft.to/lastmile_qr_scan"}, "lat": 38.92465, "bike_id": "fe9e4ee4506d79ba081f319fc750a4d3", "is_disabled": 0, "lon": -77.05240383333333, "is_reserved": 0, "fusion_lat": 0.0, "type": "electric_scooter"}, {"fusion_lon": 0.0, "name": "5f27c4362aa89cf85d2b12d3eddd95b5", "rental_uris": {"android": "https://dc.lft.to/lastmile_qr_scan", "ios": "https://dc.lft.to/lastmile_qr_scan"}, "lat": 38.90129983333333, "bike_id": "5f27c4362aa89cf85d2b12d3eddd95b5", "is_disabled": 0, "lon": -77.03922433333334, "is_reserved": 0, "fusion_lat": 0.0, "type": "electric_scooter"}, {"fusion_lon": 0.0, "name": "9e6c3bdb61bf3313f7002a9aea038be7", "rental_uris": {"android": "https://dc.lft.to/lastmile_qr_scan", "ios": "https://dc.lft.to/lastmile_qr_scan"}, "lat": 38.903827, "bike_id": "9e6c3bdb61bf3313f7002a9aea038be7", "is_disabled": 0, "lon": -77.03435666666667, "is_reserved": 0, "fusion_lat": 0.0, "type": "electric_scooter"}, {"fusion_lon": 0.0, "name": "bd5b0ad5a9a7ffafa9c0bbb353f2e436", "rental_uris": {"android": "https://dc.lft.to/lastmile_qr_scan", "ios": "https://dc.lft.to/lastmile_qr_scan"}, "lat": 38.929249666666664, "bike_id": "bd5b0ad5a9a7ffafa9c0bbb353f2e436", "is_disabled": 0, "lon": -77.0324615, "is_reserved": 0, "fusion_lat": 0.0, "type": "electric_scooter"}, {"fusion_lon": 0.0, "name": "57be387af25d46ec6cc84250e9453d6b", "rental_uris": {"android": "https://dc.lft.to/lastmile_qr_scan", "ios": "https://dc.lft.to/lastmile_qr_scan"}, "lat": 38.91813716666667, "bike_id": "57be387af25d46ec6cc84250e9453d6b", "is_disabled": 0, "lon": -77.02478783333333, "is_reserved": 0, "fusion_lat": 0.0, "type": "electric_scooter"}, {"fusion_lon": 0.0, "name": "c8035292fdac836551976ec9eadaee84", "rental_uris": {"android": "https://dc.lft.to/lastmile_qr_scan", "ios": "https://dc.lft.to/lastmile_qr_scan"}, "lat": 38.896164166666665, "bike_id": "c8035292fdac836551976ec9eadaee84", "is_disabled": 0, "lon": -77.0406985, "is_reserved": 0, "fusion_lat": 0.0, "type": "electric_scooter"}, {"fusion_lon": 0.0, "name": "15462f733c6111d5eeeeaaf6a1d363fb", "rental_uris": {"android": "https://dc.lft.to/lastmile_qr_scan", "ios": "https://dc.lft.to/lastmile_qr_scan"}, "lat": 38.88439566666667, "bike_id": "15462f733c6111d5eeeeaaf6a1d363fb", "is_disabled": 0, "lon": -76.9577085, "is_reserved": 0, "fusion_lat": 0.0, "type": "electric_scooter"}, {"fusion_lon": 0.0, "name": "e752732a3fe8d6eaa91bff29f3bcf613", "rental_uris": {"android": "https://dc.lft.to/lastmile_qr_scan", "ios": "https://dc.lft.to/lastmile_qr_scan"}, "lat": 38.8922105, "bike_id": "e752732a3fe8d6eaa91bff29f3bcf613", "is_disabled": 0, "lon": -77.02565333333334, "is_reserved": 0, "fusion_lat": 0.0, "type": "electric_scooter"}, {"fusion_lon": 0.0, "name": "a2771e8dd2138c07b5c7fd8988f17318", "rental_uris": {"android": "https://dc.lft.to/lastmile_qr_scan", "ios": "https://dc.lft.to/lastmile_qr_scan"}, "lat": 38.901384, "bike_id": "a2771e8dd2138c07b5c7fd8988f17318", "is_disabled": 0, "lon": -77.03879466666666, "is_reserved": 0, "fusion_lat": 0.0, "type": "electric_scooter"}, {"fusion_lon": 0.0, "name": "40e12c6612ca81e1a918799bbd8eb452", "rental_uris": {"android": "https://dc.lft.to/lastmile_qr_scan", "ios": "https://dc.lft.to/lastmile_qr_scan"}, "lat": 38.907115, "bike_id": "40e12c6612ca81e1a918799bbd8eb452", "is_disabled": 0, "lon": -77.039318, "is_reserved": 0, "fusion_lat": 0.0, "type": "electric_scooter"}, {"fusion_lon": 0.0, "name": "c72297e42989e04de178ef35e57de4e0", "rental_uris": {"android": "https://dc.lft.to/lastmile_qr_scan", "ios": "https://dc.lft.to/lastmile_qr_scan"}, "lat": 38.90724183333333, "bike_id": "c72297e42989e04de178ef35e57de4e0", "is_disabled": 0, "lon": -77.05030166666667, "is_reserved": 0, "fusion_lat": 0.0, "type": "electric_scooter"}, {"fusion_lon": 0.0, "name": "8a321d8395733935c67715283a3d89df", "rental_uris": {"android": "https://dc.lft.to/lastmile_qr_scan", "ios": "https://dc.lft.to/lastmile_qr_scan"}, "lat": 38.88990183333333, "bike_id": "8a321d8395733935c67715283a3d89df", "is_disabled": 0, "lon": -77.00319866666666, "is_reserved": 0, "fusion_lat": 0.0, "type": "electric_scooter"}, {"fusion_lon": 0.0, "name": "8ac685feb3610ad136858fd5d8462919", "rental_uris": {"android": "https://dc.lft.to/lastmile_qr_scan", "ios": "https://dc.lft.to/lastmile_qr_scan"}, "lat": 38.96114, "bike_id": "8ac685feb3610ad136858fd5d8462919", "is_disabled": 0, "lon": -77.02793566666666, "is_reserved": 0, "fusion_lat": 0.0, "type": "electric_scooter"}, {"fusion_lon": 0.0, "name": "7868a3a8943a8473a6993ddf43941bbb", "rental_uris": {"android": "https://dc.lft.to/lastmile_qr_scan", "ios": "https://dc.lft.to/lastmile_qr_scan"}, "lat": 38.9293405, "bike_id": "7868a3a8943a8473a6993ddf43941bbb", "is_disabled": 0, "lon": -77.0327975, "is_reserved": 0, "fusion_lat": 0.0, "type": "electric_scooter"}, {"fusion_lon": 0.0, "name": "a51d3eabc0cd1ecf3d7349e6ed253536", "rental_uris": {"android": "https://dc.lft.to/lastmile_qr_scan", "ios": "https://dc.lft.to/lastmile_qr_scan"}, "lat": 38.8989725, "bike_id": "a51d3eabc0cd1ecf3d7349e6ed253536", "is_disabled": 0, "lon": -76.9760405, "is_reserved": 0, "fusion_lat": 0.0, "type": "electric_scooter"}, {"fusion_lon": 0.0, "name": "e3e8ea7ef1004528ef72fe4eb51c7a1c", "rental_uris": {"android": "https://dc.lft.to/lastmile_qr_scan", "ios": "https://dc.lft.to/lastmile_qr_scan"}, "lat": 38.90497366666666, "bike_id": "e3e8ea7ef1004528ef72fe4eb51c7a1c", "is_disabled": 0, "lon": -77.0432245, "is_reserved": 0, "fusion_lat": 0.0, "type": "electric_scooter"}, {"fusion_lon": 0.0, "name": "bb720723698922d576d663346d5c442d", "rental_uris": {"android": "https://dc.lft.to/lastmile_qr_scan", "ios": "https://dc.lft.to/lastmile_qr_scan"}, "lat": 38.865218666666664, "bike_id": "bb720723698922d576d663346d5c442d", "is_disabled": 0, "lon": -76.96908833333333, "is_reserved": 0, "fusion_lat": 0.0, "type": "electric_scooter"}, {"fusion_lon": 0.0, "name": "1f5bd186d0d6f18677b1e4da06eaa06e", "rental_uris": {"android": "https://dc.lft.to/lastmile_qr_scan", "ios": "https://dc.lft.to/lastmile_qr_scan"}, "lat": 38.91359683333334, "bike_id": "1f5bd186d0d6f18677b1e4da06eaa06e", "is_disabled": 0, "lon": -77.09190733333334, "is_reserved": 0, "fusion_lat": 0.0, "type": "electric_scooter"}, {"fusion_lon": 0.0, "name": "ee7460e4d58196aeb2cd4e79dabcfa31", "rental_uris": {"android": "https://dc.lft.to/lastmile_qr_scan", "ios": "https://dc.lft.to/lastmile_qr_scan"}, "lat": 38.935866, "bike_id": "ee7460e4d58196aeb2cd4e79dabcfa31", "is_disabled": 0, "lon": -77.03376866666666, "is_reserved": 0, "fusion_lat": 0.0, "type": "electric_scooter"}, {"fusion_lon": 0.0, "name": "b20c67ba35adad3079efc39ee4dd9462", "rental_uris": {"android": "https://dc.lft.to/lastmile_qr_scan", "ios": "https://dc.lft.to/lastmile_qr_scan"}, "lat": 38.88530466666667, "bike_id": "b20c67ba35adad3079efc39ee4dd9462", "is_disabled": 0, "lon": -76.97961016666666, "is_reserved": 0, "fusion_lat": 0.0, "type": "electric_scooter"}, {"fusion_lon": 0.0, "name": "9934ee05c7f75851c93739e59c7384c3", "rental_uris": {"android": "https://dc.lft.to/lastmile_qr_scan", "ios": "https://dc.lft.to/lastmile_qr_scan"}, "lat": 38.897945, "bike_id": "9934ee05c7f75851c93739e59c7384c3", "is_disabled": 0, "lon": -77.03197516666667, "is_reserved": 0, "fusion_lat": 0.0, "type": "electric_scooter"}, {"fusion_lon": 0.0, "name": "f15efc117e70e40c6d0e971f2c514bdf", "rental_uris": {"android": "https://dc.lft.to/lastmile_qr_scan", "ios": "https://dc.lft.to/lastmile_qr_scan"}, "lat": 38.8757235, "bike_id": "f15efc117e70e40c6d0e971f2c514bdf", "is_disabled": 0, "lon": -77.00582666666666, "is_reserved": 0, "fusion_lat": 0.0, "type": "electric_scooter"}, {"fusion_lon": 0.0, "name": "43101554f56e76d3c42413cce3776132", "rental_uris": {"android": "https://dc.lft.to/lastmile_qr_scan", "ios": "https://dc.lft.to/lastmile_qr_scan"}, "lat": 38.926665166666666, "bike_id": "43101554f56e76d3c42413cce3776132", "is_disabled": 0, "lon": -77.0150355, "is_reserved": 0, "fusion_lat": 0.0, "type": "electric_scooter"}, {"fusion_lon": 0.0, "name": "a8a1c0376deaab4b4efbeda52807f5e3", "rental_uris": {"android": "https://dc.lft.to/lastmile_qr_scan", "ios": "https://dc.lft.to/lastmile_qr_scan"}, "lat": 38.89328483333333, "bike_id": "a8a1c0376deaab4b4efbeda52807f5e3", "is_disabled": 0, "lon": -77.031712, "is_reserved": 0, "fusion_lat": 0.0, "type": "electric_scooter"}, {"fusion_lon": 0.0, "name": "0638d270bc0fdf09c91ed0f4c2276f14", "rental_uris": {"android": "https://dc.lft.to/lastmile_qr_scan", "ios": "https://dc.lft.to/lastmile_qr_scan"}, "lat": 38.89798, "bike_id": "0638d270bc0fdf09c91ed0f4c2276f14", "is_disabled": 0, "lon": -77.01906633333333, "is_reserved": 0, "fusion_lat": 0.0, "type": "electric_scooter"}, {"fusion_lon": 0.0, "name": "1dff52a9ef0b7c3a432b9f7b24f2faf2", "rental_uris": {"android": "https://dc.lft.to/lastmile_qr_scan", "ios": "https://dc.lft.to/lastmile_qr_scan"}, "lat": 38.9355145, "bike_id": "1dff52a9ef0b7c3a432b9f7b24f2faf2", "is_disabled": 0, "lon": -76.99787716666667, "is_reserved": 0, "fusion_lat": 0.0, "type": "electric_scooter"}, {"fusion_lon": 0.0, "name": "a8f1621ca0ed55e52b4465391f022b05", "rental_uris": {"android": "https://dc.lft.to/lastmile_qr_scan", "ios": "https://dc.lft.to/lastmile_qr_scan"}, "lat": 38.921420833333336, "bike_id": "a8f1621ca0ed55e52b4465391f022b05", "is_disabled": 0, "lon": -77.03518083333333, "is_reserved": 0, "fusion_lat": 0.0, "type": "electric_scooter"}, {"fusion_lon": 0.0, "name": "1151d5c7dee94533d79e8e4a75daaaea", "rental_uris": {"android": "https://dc.lft.to/lastmile_qr_scan", "ios": "https://dc.lft.to/lastmile_qr_scan"}, "lat": 38.90086216666667, "bike_id": "1151d5c7dee94533d79e8e4a75daaaea", "is_disabled": 0, "lon": -77.03639466666667, "is_reserved": 0, "fusion_lat": 0.0, "type": "electric_scooter"}, {"fusion_lon": 0.0, "name": "e6dc75d6e4cfedc9a7b2bd651f2730b9", "rental_uris": {"android": "https://dc.lft.to/lastmile_qr_scan", "ios": "https://dc.lft.to/lastmile_qr_scan"}, "lat": 38.92887833333333, "bike_id": "e6dc75d6e4cfedc9a7b2bd651f2730b9", "is_disabled": 0, "lon": -77.034958, "is_reserved": 0, "fusion_lat": 0.0, "type": "electric_scooter"}, {"fusion_lon": 0.0, "name": "41ca905aedd642c4d266e1dd20b7d758", "rental_uris": {"android": "https://dc.lft.to/lastmile_qr_scan", "ios": "https://dc.lft.to/lastmile_qr_scan"}, "lat": 38.925084, "bike_id": "41ca905aedd642c4d266e1dd20b7d758", "is_disabled": 0, "lon": -77.02288216666666, "is_reserved": 0, "fusion_lat": 0.0, "type": "electric_scooter"}, {"fusion_lon": 0.0, "name": "c145b78ecf7380c1923c286f188b4644", "rental_uris": {"android": "https://dc.lft.to/lastmile_qr_scan", "ios": "https://dc.lft.to/lastmile_qr_scan"}, "lat": 38.92806016666667, "bike_id": "c145b78ecf7380c1923c286f188b4644", "is_disabled": 0, "lon": -77.03279883333333, "is_reserved": 0, "fusion_lat": 0.0, "type": "electric_scooter"}, {"fusion_lon": 0.0, "name": "49494f86462e80e7df45baf2ed40a651", "rental_uris": {"android": "https://dc.lft.to/lastmile_qr_scan", "ios": "https://dc.lft.to/lastmile_qr_scan"}, "lat": 38.93528166666667, "bike_id": "49494f86462e80e7df45baf2ed40a651", "is_disabled": 0, "lon": -77.02858816666667, "is_reserved": 0, "fusion_lat": 0.0, "type": "electric_scooter"}, {"fusion_lon": 0.0, "name": "b84a4d1542723e962837b459a91d0155", "rental_uris": {"android": "https://dc.lft.to/lastmile_qr_scan", "ios": "https://dc.lft.to/lastmile_qr_scan"}, "lat": 38.89089883333333, "bike_id": "b84a4d1542723e962837b459a91d0155", "is_disabled": 0, "lon": -76.99608233333333, "is_reserved": 0, "fusion_lat": 0.0, "type": "electric_scooter"}, {"fusion_lon": 0.0, "name": "82e84ccf69369bf542c53921b81774a8", "rental_uris": {"android": "https://dc.lft.to/lastmile_qr_scan", "ios": "https://dc.lft.to/lastmile_qr_scan"}, "lat": 38.935212666666665, "bike_id": "82e84ccf69369bf542c53921b81774a8", "is_disabled": 0, "lon": -77.03385233333333, "is_reserved": 0, "fusion_lat": 0.0, "type": "electric_scooter"}, {"fusion_lon": 0.0, "name": "134930cc22e95d0aa3edbbc843e38efb", "rental_uris": {"android": "https://dc.lft.to/lastmile_qr_scan", "ios": "https://dc.lft.to/lastmile_qr_scan"}, "lat": 38.894881, "bike_id": "134930cc22e95d0aa3edbbc843e38efb", "is_disabled": 0, "lon": -77.01125083333334, "is_reserved": 0, "fusion_lat": 0.0, "type": "electric_scooter"}, {"fusion_lon": 0.0, "name": "7d50aa0d0162ba499da8e36788e1c71e", "rental_uris": {"android": "https://dc.lft.to/lastmile_qr_scan", "ios": "https://dc.lft.to/lastmile_qr_scan"}, "lat": 38.8965865, "bike_id": "7d50aa0d0162ba499da8e36788e1c71e", "is_disabled": 0, "lon": -77.02710566666667, "is_reserved": 0, "fusion_lat": 0.0, "type": "electric_scooter"}, {"fusion_lon": 0.0, "name": "3a816110571c283ccd0c612c8a654d48", "rental_uris": {"android": "https://dc.lft.to/lastmile_qr_scan", "ios": "https://dc.lft.to/lastmile_qr_scan"}, "lat": 38.87376033333334, "bike_id": "3a816110571c283ccd0c612c8a654d48", "is_disabled": 0, "lon": -77.0009455, "is_reserved": 0, "fusion_lat": 0.0, "type": "electric_scooter"}, {"fusion_lon": 0.0, "name": "2a7fad00a7c21c32db67c63f70880a7c", "rental_uris": {"android": "https://dc.lft.to/lastmile_qr_scan", "ios": "https://dc.lft.to/lastmile_qr_scan"}, "lat": 38.92023616666667, "bike_id": "2a7fad00a7c21c32db67c63f70880a7c", "is_disabled": 0, "lon": -77.01908483333334, "is_reserved": 0, "fusion_lat": 0.0, "type": "electric_scooter"}, {"fusion_lon": 0.0, "name": "6e9773e84f9db268c2f37f87aa75a728", "rental_uris": {"android": "https://dc.lft.to/lastmile_qr_scan", "ios": "https://dc.lft.to/lastmile_qr_scan"}, "lat": 38.92462616666667, "bike_id": "6e9773e84f9db268c2f37f87aa75a728", "is_disabled": 0, "lon": -77.0221955, "is_reserved": 0, "fusion_lat": 0.0, "type": "electric_scooter"}, {"fusion_lon": 0.0, "name": "517a77a9690b8b398a99d3c8cccb9390", "rental_uris": {"android": "https://dc.lft.to/lastmile_qr_scan", "ios": "https://dc.lft.to/lastmile_qr_scan"}, "lat": 38.936984833333334, "bike_id": "517a77a9690b8b398a99d3c8cccb9390", "is_disabled": 0, "lon": -77.05601883333334, "is_reserved": 0, "fusion_lat": 0.0, "type": "electric_scooter"}, {"fusion_lon": 0.0, "name": "31177bc5029daf5f692a4493c661356e", "rental_uris": {"android": "https://dc.lft.to/lastmile_qr_scan", "ios": "https://dc.lft.to/lastmile_qr_scan"}, "lat": 38.88771333333333, "bike_id": "31177bc5029daf5f692a4493c661356e", "is_disabled": 0, "lon": -76.93265083333333, "is_reserved": 0, "fusion_lat": 0.0, "type": "electric_scooter"}, {"fusion_lon": 0.0, "name": "f2973fbe893ed8f470c6cd48f3728d52", "rental_uris": {"android": "https://dc.lft.to/lastmile_qr_scan", "ios": "https://dc.lft.to/lastmile_qr_scan"}, "lat": 38.929824833333335, "bike_id": "f2973fbe893ed8f470c6cd48f3728d52", "is_disabled": 0, "lon": -77.02772466666667, "is_reserved": 0, "fusion_lat": 0.0, "type": "electric_scooter"}, {"fusion_lon": 0.0, "name": "87adb44a9c66372e93f0cdf92d3a8372", "rental_uris": {"android": "https://dc.lft.to/lastmile_qr_scan", "ios": "https://dc.lft.to/lastmile_qr_scan"}, "lat": 38.924613666666666, "bike_id": "87adb44a9c66372e93f0cdf92d3a8372", "is_disabled": 0, "lon": -77.02117533333333, "is_reserved": 0, "fusion_lat": 0.0, "type": "electric_scooter"}, {"fusion_lon": 0.0, "name": "314b355ad2cfc83e64e2e0a0ff38b475", "rental_uris": {"android": "https://dc.lft.to/lastmile_qr_scan", "ios": "https://dc.lft.to/lastmile_qr_scan"}, "lat": 38.929781166666665, "bike_id": "314b355ad2cfc83e64e2e0a0ff38b475", "is_disabled": 0, "lon": -77.03647216666667, "is_reserved": 0, "fusion_lat": 0.0, "type": "electric_scooter"}, {"fusion_lon": 0.0, "name": "e31704688becfa057be8e6761a0b01b8", "rental_uris": {"android": "https://dc.lft.to/lastmile_qr_scan", "ios": "https://dc.lft.to/lastmile_qr_scan"}, "lat": 38.923603666666665, "bike_id": "e31704688becfa057be8e6761a0b01b8", "is_disabled": 0, "lon": -77.05048183333334, "is_reserved": 0, "fusion_lat": 0.0, "type": "electric_scooter"}, {"fusion_lon": 0.0, "name": "d5934ed6cce8b5184e76b285e3a08178", "rental_uris": {"android": "https://dc.lft.to/lastmile_qr_scan", "ios": "https://dc.lft.to/lastmile_qr_scan"}, "lat": 38.89360933333333, "bike_id": "d5934ed6cce8b5184e76b285e3a08178", "is_disabled": 0, "lon": -77.00340383333334, "is_reserved": 0, "fusion_lat": 0.0, "type": "electric_scooter"}, {"fusion_lon": 0.0, "name": "3f0bd1c7dbdb60f1f23371f8c25d19e7", "rental_uris": {"android": "https://dc.lft.to/lastmile_qr_scan", "ios": "https://dc.lft.to/lastmile_qr_scan"}, "lat": 38.924328333333335, "bike_id": "3f0bd1c7dbdb60f1f23371f8c25d19e7", "is_disabled": 0, "lon": -77.052068, "is_reserved": 0, "fusion_lat": 0.0, "type": "electric_scooter"}, {"fusion_lon": 0.0, "name": "b59290b8860bc765ebcfb82c11871ba9", "rental_uris": {"android": "https://dc.lft.to/lastmile_qr_scan", "ios": "https://dc.lft.to/lastmile_qr_scan"}, "lat": 38.886034, "bike_id": "b59290b8860bc765ebcfb82c11871ba9", "is_disabled": 0, "lon": -77.14235466666666, "is_reserved": 0, "fusion_lat": 0.0, "type": "electric_bike"}, {"fusion_lon": 0.0, "name": "2f285f4f872ae53cb0e01fccd37907ba", "rental_uris": {"android": "https://dc.lft.to/lastmile_qr_scan", "ios": "https://dc.lft.to/lastmile_qr_scan"}, "lat": 38.92509233333333, "bike_id": "2f285f4f872ae53cb0e01fccd37907ba", "is_disabled": 0, "lon": -77.02363316666667, "is_reserved": 0, "fusion_lat": 0.0, "type": "electric_scooter"}, {"fusion_lon": 0.0, "name": "5b4dedb2a7245f80bca7eec38d524012", "rental_uris": {"android": "https://dc.lft.to/lastmile_qr_scan", "ios": "https://dc.lft.to/lastmile_qr_scan"}, "lat": 38.90146266666667, "bike_id": "5b4dedb2a7245f80bca7eec38d524012", "is_disabled": 0, "lon": -77.0318095, "is_reserved": 0, "fusion_lat": 0.0, "type": "electric_scooter"}, {"fusion_lon": 0.0, "name": "32002e7f4028d0f84185961b94b6bfd7", "rental_uris": {"android": "https://dc.lft.to/lastmile_qr_scan", "ios": "https://dc.lft.to/lastmile_qr_scan"}, "lat": 38.88506366666667, "bike_id": "32002e7f4028d0f84185961b94b6bfd7", "is_disabled": 0, "lon": -77.01118483333333, "is_reserved": 0, "fusion_lat": 0.0, "type": "electric_scooter"}, {"fusion_lon": 0.0, "name": "7aedf9dcfd914ecd30fef50f649f3518", "rental_uris": {"android": "https://dc.lft.to/lastmile_qr_scan", "ios": "https://dc.lft.to/lastmile_qr_scan"}, "lat": 38.904964166666666, "bike_id": "7aedf9dcfd914ecd30fef50f649f3518", "is_disabled": 0, "lon": -77.05315016666667, "is_reserved": 0, "fusion_lat": 0.0, "type": "electric_scooter"}, {"fusion_lon": 0.0, "name": "d514dc2d0e80bdb4f3e8b08e18d3e009", "rental_uris": {"android": "https://dc.lft.to/lastmile_qr_scan", "ios": "https://dc.lft.to/lastmile_qr_scan"}, "lat": 38.936342333333336, "bike_id": "d514dc2d0e80bdb4f3e8b08e18d3e009", "is_disabled": 0, "lon": -77.05998433333333, "is_reserved": 0, "fusion_lat": 0.0, "type": "electric_scooter"}, {"fusion_lon": 0.0, "name": "b99b9d6abf2e96715dc2cf032e785287", "rental_uris": {"android": "https://dc.lft.to/lastmile_qr_scan", "ios": "https://dc.lft.to/lastmile_qr_scan"}, "lat": 38.9289535, "bike_id": "b99b9d6abf2e96715dc2cf032e785287", "is_disabled": 0, "lon": -77.016429, "is_reserved": 0, "fusion_lat": 0.0, "type": "electric_scooter"}, {"fusion_lon": 0.0, "name": "b58db6f0776dcab46930e0bb6a60c1ea", "rental_uris": {"android": "https://dc.lft.to/lastmile_qr_scan", "ios": "https://dc.lft.to/lastmile_qr_scan"}, "lat": 38.9002155, "bike_id": "b58db6f0776dcab46930e0bb6a60c1ea", "is_disabled": 0, "lon": -76.986954, "is_reserved": 0, "fusion_lat": 0.0, "type": "electric_scooter"}, {"fusion_lon": 0.0, "name": "e74c984d70a639eefea185e2daf43563", "rental_uris": {"android": "https://dc.lft.to/lastmile_qr_scan", "ios": "https://dc.lft.to/lastmile_qr_scan"}, "lat": 38.90143533333333, "bike_id": "e74c984d70a639eefea185e2daf43563", "is_disabled": 0, "lon": -77.04220066666667, "is_reserved": 0, "fusion_lat": 0.0, "type": "electric_scooter"}, {"fusion_lon": 0.0, "name": "d1f7163f4cdd7e98a4eddd4014f77ed2", "rental_uris": {"android": "https://dc.lft.to/lastmile_qr_scan", "ios": "https://dc.lft.to/lastmile_qr_scan"}, "lat": 38.905263833333336, "bike_id": "d1f7163f4cdd7e98a4eddd4014f77ed2", "is_disabled": 0, "lon": -77.02928116666666, "is_reserved": 0, "fusion_lat": 0.0, "type": "electric_scooter"}, {"fusion_lon": 0.0, "name": "0571917f9409deedc49718d25dd9e010", "rental_uris": {"android": "https://dc.lft.to/lastmile_qr_scan", "ios": "https://dc.lft.to/lastmile_qr_scan"}, "lat": 38.901193, "bike_id": "0571917f9409deedc49718d25dd9e010", "is_disabled": 0, "lon": -77.04989633333334, "is_reserved": 0, "fusion_lat": 0.0, "type": "electric_scooter"}, {"fusion_lon": 0.0, "name": "e516414fad5a5940e927e85d069b24cd", "rental_uris": {"android": "https://dc.lft.to/lastmile_qr_scan", "ios": "https://dc.lft.to/lastmile_qr_scan"}, "lat": 39.0943465, "bike_id": "e516414fad5a5940e927e85d069b24cd", "is_disabled": 0, "lon": -77.13462583333333, "is_reserved": 0, "fusion_lat": 0.0, "type": "electric_bike"}, {"fusion_lon": 0.0, "name": "cccbb1f82dbb682ea0c5b646f7ad2d75", "rental_uris": {"android": "https://dc.lft.to/lastmile_qr_scan", "ios": "https://dc.lft.to/lastmile_qr_scan"}, "lat": 38.89706416666667, "bike_id": "cccbb1f82dbb682ea0c5b646f7ad2d75", "is_disabled": 0, "lon": -76.99119583333334, "is_reserved": 0, "fusion_lat": 0.0, "type": "electric_scooter"}, {"fusion_lon": 0.0, "name": "f574869389e00fc7972447cafa3d68ba", "rental_uris": {"android": "https://dc.lft.to/lastmile_qr_scan", "ios": "https://dc.lft.to/lastmile_qr_scan"}, "lat": 38.89785033333333, "bike_id": "f574869389e00fc7972447cafa3d68ba", "is_disabled": 0, "lon": -77.02820633333333, "is_reserved": 0, "fusion_lat": 0.0, "type": "electric_scooter"}, {"fusion_lon": 0.0, "name": "abd1cc2bd24a8c856c08a0826fe4e783", "rental_uris": {"android": "https://dc.lft.to/lastmile_qr_scan", "ios": "https://dc.lft.to/lastmile_qr_scan"}, "lat": 38.923724166666666, "bike_id": "abd1cc2bd24a8c856c08a0826fe4e783", "is_disabled": 0, "lon": -77.02129616666667, "is_reserved": 0, "fusion_lat": 0.0, "type": "electric_scooter"}, {"fusion_lon": 0.0, "name": "f7490d9e4c1e8370fb7516adae896e1a", "rental_uris": {"android": "https://dc.lft.to/lastmile_qr_scan", "ios": "https://dc.lft.to/lastmile_qr_scan"}, "lat": 38.9168905, "bike_id": "f7490d9e4c1e8370fb7516adae896e1a", "is_disabled": 0, "lon": -77.03828, "is_reserved": 0, "fusion_lat": 0.0, "type": "electric_scooter"}, {"fusion_lon": 0.0, "name": "ea7f07c90d94ed4f141a1b5908b63304", "rental_uris": {"android": "https://dc.lft.to/lastmile_qr_scan", "ios": "https://dc.lft.to/lastmile_qr_scan"}, "lat": 38.900875666666664, "bike_id": "ea7f07c90d94ed4f141a1b5908b63304", "is_disabled": 0, "lon": -77.02290916666666, "is_reserved": 0, "fusion_lat": 0.0, "type": "electric_scooter"}, {"fusion_lon": 0.0, "name": "4faabc4690a9ba6b5983efe9a5b6976c", "rental_uris": {"android": "https://dc.lft.to/lastmile_qr_scan", "ios": "https://dc.lft.to/lastmile_qr_scan"}, "lat": 38.90252316666667, "bike_id": "4faabc4690a9ba6b5983efe9a5b6976c", "is_disabled": 0, "lon": -77.04300916666666, "is_reserved": 0, "fusion_lat": 0.0, "type": "electric_bike"}, {"fusion_lon": 0.0, "name": "fdebe2a02761f3a87ef906e87195fff6", "rental_uris": {"android": "https://dc.lft.to/lastmile_qr_scan", "ios": "https://dc.lft.to/lastmile_qr_scan"}, "lat": 38.893136, "bike_id": "fdebe2a02761f3a87ef906e87195fff6", "is_disabled": 0, "lon": -77.0177985, "is_reserved": 0, "fusion_lat": 0.0, "type": "electric_scooter"}, {"fusion_lon": 0.0, "name": "9dd70ac1053fdea681dcc420234c1fbf", "rental_uris": {"android": "https://dc.lft.to/lastmile_qr_scan", "ios": "https://dc.lft.to/lastmile_qr_scan"}, "lat": 38.9181455, "bike_id": "9dd70ac1053fdea681dcc420234c1fbf", "is_disabled": 0, "lon": -77.0247575, "is_reserved": 0, "fusion_lat": 0.0, "type": "electric_scooter"}, {"fusion_lon": 0.0, "name": "6b821a53894b97b30e44fb7cbd0992c4", "rental_uris": {"android": "https://dc.lft.to/lastmile_qr_scan", "ios": "https://dc.lft.to/lastmile_qr_scan"}, "lat": 38.8948125, "bike_id": "6b821a53894b97b30e44fb7cbd0992c4", "is_disabled": 0, "lon": -77.02655466666667, "is_reserved": 0, "fusion_lat": 0.0, "type": "electric_scooter"}, {"fusion_lon": 0.0, "name": "59c63eab885b1fd5015e2249aa637fd5", "rental_uris": {"android": "https://dc.lft.to/lastmile_qr_scan", "ios": "https://dc.lft.to/lastmile_qr_scan"}, "lat": 38.892085, "bike_id": "59c63eab885b1fd5015e2249aa637fd5", "is_disabled": 0, "lon": -76.9957465, "is_reserved": 0, "fusion_lat": 0.0, "type": "electric_scooter"}, {"fusion_lon": 0.0, "name": "6e80acad68c1baf02a508d7b9786ab47", "rental_uris": {"android": "https://dc.lft.to/lastmile_qr_scan", "ios": "https://dc.lft.to/lastmile_qr_scan"}, "lat": 38.88312666666667, "bike_id": "6e80acad68c1baf02a508d7b9786ab47", "is_disabled": 0, "lon": -77.01752233333333, "is_reserved": 0, "fusion_lat": 0.0, "type": "electric_scooter"}, {"fusion_lon": 0.0, "name": "a222cfd549926dd57e1faf8214b394d3", "rental_uris": {"android": "https://dc.lft.to/lastmile_qr_scan", "ios": "https://dc.lft.to/lastmile_qr_scan"}, "lat": 38.91810266666667, "bike_id": "a222cfd549926dd57e1faf8214b394d3", "is_disabled": 0, "lon": -77.02476916666667, "is_reserved": 0, "fusion_lat": 0.0, "type": "electric_scooter"}, {"fusion_lon": 0.0, "name": "62d6274b1b7361670282c982a3068d09", "rental_uris": {"android": "https://dc.lft.to/lastmile_qr_scan", "ios": "https://dc.lft.to/lastmile_qr_scan"}, "lat": 38.915767833333334, "bike_id": "62d6274b1b7361670282c982a3068d09", "is_disabled": 0, "lon": -77.03465033333333, "is_reserved": 0, "fusion_lat": 0.0, "type": "electric_scooter"}, {"fusion_lon": 0.0, "name": "3c934b3e8510ebf9d4bd23257ec04c17", "rental_uris": {"android": "https://dc.lft.to/lastmile_qr_scan", "ios": "https://dc.lft.to/lastmile_qr_scan"}, "lat": 38.90780183333333, "bike_id": "3c934b3e8510ebf9d4bd23257ec04c17", "is_disabled": 0, "lon": -77.03766833333333, "is_reserved": 0, "fusion_lat": 0.0, "type": "electric_scooter"}, {"fusion_lon": 0.0, "name": "bb2932d668f5c13b8ed9e5cdcbf8271c", "rental_uris": {"android": "https://dc.lft.to/lastmile_qr_scan", "ios": "https://dc.lft.to/lastmile_qr_scan"}, "lat": 38.840333666666666, "bike_id": "bb2932d668f5c13b8ed9e5cdcbf8271c", "is_disabled": 0, "lon": -76.97623366666667, "is_reserved": 0, "fusion_lat": 0.0, "type": "electric_bike"}, {"fusion_lon": 0.0, "name": "0e925577ce884261508f9c1a87bda1ca", "rental_uris": {"android": "https://dc.lft.to/lastmile_qr_scan", "ios": "https://dc.lft.to/lastmile_qr_scan"}, "lat": 38.896175166666666, "bike_id": "0e925577ce884261508f9c1a87bda1ca", "is_disabled": 0, "lon": -77.023747, "is_reserved": 0, "fusion_lat": 0.0, "type": "electric_scooter"}, {"fusion_lon": 0.0, "name": "416ad638f5927fac3bb9a259cceaa840", "rental_uris": {"android": "https://dc.lft.to/lastmile_qr_scan", "ios": "https://dc.lft.to/lastmile_qr_scan"}, "lat": 38.878546166666666, "bike_id": "416ad638f5927fac3bb9a259cceaa840", "is_disabled": 0, "lon": -77.0175835, "is_reserved": 0, "fusion_lat": 0.0, "type": "electric_scooter"}, {"fusion_lon": 0.0, "name": "d013c1b5729d6b4b5a1ba8d56362c66c", "rental_uris": {"android": "https://dc.lft.to/lastmile_qr_scan", "ios": "https://dc.lft.to/lastmile_qr_scan"}, "lat": 38.9147035, "bike_id": "d013c1b5729d6b4b5a1ba8d56362c66c", "is_disabled": 0, "lon": -77.03207666666667, "is_reserved": 0, "fusion_lat": 0.0, "type": "electric_scooter"}, {"fusion_lon": 0.0, "name": "487f5f5cf75328d5839ce8b7b8f7cc59", "rental_uris": {"android": "https://dc.lft.to/lastmile_qr_scan", "ios": "https://dc.lft.to/lastmile_qr_scan"}, "lat": 38.90242533333333, "bike_id": "487f5f5cf75328d5839ce8b7b8f7cc59", "is_disabled": 0, "lon": -77.0018785, "is_reserved": 0, "fusion_lat": 0.0, "type": "electric_scooter"}, {"fusion_lon": 0.0, "name": "be88c636d1f22795dac5175c2b7e350d", "rental_uris": {"android": "https://dc.lft.to/lastmile_qr_scan", "ios": "https://dc.lft.to/lastmile_qr_scan"}, "lat": 38.935034333333334, "bike_id": "be88c636d1f22795dac5175c2b7e350d", "is_disabled": 0, "lon": -77.02009516666666, "is_reserved": 0, "fusion_lat": 0.0, "type": "electric_scooter"}, {"fusion_lon": 0.0, "name": "f85778ddc8b28e893d33d068987b9738", "rental_uris": {"android": "https://dc.lft.to/lastmile_qr_scan", "ios": "https://dc.lft.to/lastmile_qr_scan"}, "lat": 38.93057433333333, "bike_id": "f85778ddc8b28e893d33d068987b9738", "is_disabled": 0, "lon": -77.02786733333333, "is_reserved": 0, "fusion_lat": 0.0, "type": "electric_scooter"}, {"fusion_lon": 0.0, "name": "72e5bc6df66a563bd09298f5a038c01e", "rental_uris": {"android": "https://dc.lft.to/lastmile_qr_scan", "ios": "https://dc.lft.to/lastmile_qr_scan"}, "lat": 38.9294575, "bike_id": "72e5bc6df66a563bd09298f5a038c01e", "is_disabled": 0, "lon": -76.9756195, "is_reserved": 0, "fusion_lat": 0.0, "type": "electric_bike"},