{"data": {"bikes": [{"bike_id": "33064e98aa4f6df259610a38cd32a4cb", "type": "electric_scooter", "is_disabled": 0, "lat": 38.88714816666667, "rental_uris": {"ios": "https://dc.lft.to/lastmile_qr_scan", "android": "https://dc.lft.to/lastmile_qr_scan"}, "is_reserved": 0, "fusion_lon": 0.0, "fusion_lat": 0.0, "lon": -77.02201283333333, "name": "33064e98aa4f6df259610a38cd32a4cb"}, {"bike_id": "f8887bf0d3c54fafe9fb4fad0da158ef", "type": "electric_scooter", "is_disabled": 0, "lat": 38.90152533333333, "rental_uris": {"ios": "https://dc.lft.to/lastmile_qr_scan", "android": "https://dc.lft.to/lastmile_qr_scan"}, "is_reserved": 0, "fusion_lon": 0.0, "fusion_lat": 0.0, "lon": -77.0229485, "name": "f8887bf0d3c54fafe9fb4fad0da158ef"}, {"bike_id": "6d247042906b606bc08f2878304ecb92", "type": "electric_scooter", "is_disabled": 0, "lat": 38.899659, "rental_uris": {"ios": "https://dc.lft.to/lastmile_qr_scan", "android": "https://dc.lft.to/lastmile_qr_scan"}, "is_reserved": 0, "fusion_lon": 0.0, "fusion_lat": 0.0, "lon": -76.9282825, "name": "6d247042906b606bc08f2878304ecb92"}, {"bike_id": "317957f6436fd20c786712d9cb1add4d", "type": "electric_scooter", "is_disabled": 0, "lat": 38.9552215, "rental_uris": {"ios": "https://dc.lft.to/lastmile_qr_scan", "android": "https://dc.lft.to/lastmile_qr_scan"}, "is_reserved": 0, "fusion_lon": 0.0, "fusion_lat": 0.0, "lon": -77.0231055, "name": "317957f6436fd20c786712d9cb1add4d"}, {"bike_id": "d4e783091e9f86d8d26122c7ee528477", "type": "electric_scooter", "is_disabled": 0, "lat": 38.91109183333333, "rental_uris": {"ios": "https://dc.lft.to/lastmile_qr_scan", "android": "https://dc.lft.to/lastmile_qr_scan"}, "is_reserved": 0, "fusion_lon": 0.0, "fusion_lat": 0.0, "lon": -77.02206483333333, "name": "d4e783091e9f86d8d26122c7ee528477"}, {"bike_id": "a5ec1652e58cc20908802650d8fb5a94", "type": "electric_bike", "is_disabled": 0, "lat": 38.963119166666665, "rental_uris": {"ios": "https://dc.lft.to/lastmile_qr_scan", "android": "https://dc.lft.to/lastmile_qr_scan"}, "is_reserved": 0, "fusion_lon": 0.0, "fusion_lat": 0.0, "lon": -76.97358316666667, "name": "a5ec1652e58cc20908802650d8fb5a94"}, {"bike_id": "728fdf8016951fe8f1dfb2b5f186f8b7", "type": "electric_scooter", "is_disabled": 0, "lat": 38.90529216666667, "rental_uris": {"ios": "https://dc.lft.to/lastmile_qr_scan", "android": "https://dc.lft.to/lastmile_qr_scan"}, "is_reserved": 0, "fusion_lon": 0.0, "fusion_lat": 0.0, "lon": -77.07030533333334, "name": "728fdf8016951fe8f1dfb2b5f186f8b7"}, {"bike_id": "d65b0d157536ef83a85ec3fc9e1d1c90", "type": "electric_scooter", "is_disabled": 0, "lat": 38.92321416666667, "rental_uris": {"ios": "https://dc.lft.to/lastmile_qr_scan", "android": "https://dc.lft.to/lastmile_qr_scan"}, "is_reserved": 0, "fusion_lon": 0.0, "fusion_lat": 0.0, "lon": -77.03681283333333, "name": "d65b0d157536ef83a85ec3fc9e1d1c90"}, {"bike_id": "7bc4bec033cd9ef9da395e8f537a3390", "type": "electric_scooter", "is_disabled": 0, "lat": 38.920419833333334, "rental_uris": {"ios": "https://dc.lft.to/lastmile_qr_scan", "android": "https://dc.lft.to/lastmile_qr_scan"}, "is_reserved": 0, "fusion_lon": 0.0, "fusion_lat": 0.0, "lon": -77.025752, "name": "7bc4bec033cd9ef9da395e8f537a3390"}, {"bike_id": "dca6a024d912589a522074e928425d58", "type": "electric_scooter", "is_disabled": 0, "lat": 38.90836983333333, "rental_uris": {"ios": "https://dc.lft.to/lastmile_qr_scan", "android": "https://dc.lft.to/lastmile_qr_scan"}, "is_reserved": 0, "fusion_lon": 0.0, "fusion_lat": 0.0, "lon": -77.01248933333333, "name": "dca6a024d912589a522074e928425d58"}, {"bike_id": "1da346a716eaebc737f1b72c8172d82a", "type": "electric_scooter", "is_disabled": 0, "lat": 38.93472166666667, "rental_uris": {"ios": "https://dc.lft.to/lastmile_qr_scan", "android": "https://dc.lft.to/lastmile_qr_scan"}, "is_reserved": 0, "fusion_lon": 0.0, "fusion_lat": 0.0, "lon": -77.07259316666666, "name": "1da346a716eaebc737f1b72c8172d82a"}, {"bike_id": "137f279d49e002eac0819fc96559d98e", "type": "electric_scooter", "is_disabled": 0, "lat": 38.8923835, "rental_uris": {"ios": "https://dc.lft.to/lastmile_qr_scan", "android": "https://dc.lft.to/lastmile_qr_scan"}, "is_reserved": 0, "fusion_lon": 0.0, "fusion_lat": 0.0, "lon": -77.0450035, "name": "137f279d49e002eac0819fc96559d98e"}, {"bike_id": "d3ba8c852c04bfe8ecda4ded56a352c3", "type": "electric_scooter", "is_disabled": 0, "lat": 38.92873383333333, "rental_uris": {"ios": "https://dc.lft.to/lastmile_qr_scan", "android": "https://dc.lft.to/lastmile_qr_scan"}, "is_reserved": 0, "fusion_lon": 0.0, "fusion_lat": 0.0, "lon": -77.03365716666667, "name": "d3ba8c852c04bfe8ecda4ded56a352c3"}, {"bike_id": "5f1b6e88e4d5111703df2014e8a54fe8", "type": "electric_scooter", "is_disabled": 0, "lat": 38.887445666666665, "rental_uris": {"ios": "https://dc.lft.to/lastmile_qr_scan", "android": "https://dc.lft.to/lastmile_qr_scan"}, "is_reserved": 0, "fusion_lon": 0.0, "fusion_lat": 0.0, "lon": -77.031668, "name": "5f1b6e88e4d5111703df2014e8a54fe8"}, {"bike_id": "df0a9cdba29c187d7b69dcf2a86ff55a", "type": "electric_scooter", "is_disabled": 0, "lat": 38.9097535, "rental_uris": {"ios": "https://dc.lft.to/lastmile_qr_scan", "android": "https://dc.lft.to/lastmile_qr_scan"}, "is_reserved": 0, "fusion_lon": 0.0, "fusion_lat": 0.0, "lon": -77.03298016666666, "name": "df0a9cdba29c187d7b69dcf2a86ff55a"}, {"bike_id": "67ae6d3957f3518de82c7022d4f6ad8a", "type": "electric_scooter", "is_disabled": 0, "lat": 38.900406, "rental_uris": {"ios": "https://dc.lft.to/lastmile_qr_scan", "android": "https://dc.lft.to/lastmile_qr_scan"}, "is_reserved": 0, "fusion_lon": 0.0, "fusion_lat": 0.0, "lon": -76.99153, "name": "67ae6d3957f3518de82c7022d4f6ad8a"}, {"bike_id": "abeead58e8f5b6c9517b2e5466ac947d", "type": "electric_scooter", "is_disabled": 0, "lat": 38.96605866666667, "rental_uris": {"ios": "https://dc.lft.to/lastmile_qr_scan", "android": "https://dc.lft.to/lastmile_qr_scan"}, "is_reserved": 0, "fusion_lon": 0.0, "fusion_lat": 0.0, "lon": -77.01981916666666, "name": "abeead58e8f5b6c9517b2e5466ac947d"}, {"bike_id": "b462c38b37d3467540f873ec4d98ca9e", "type": "electric_scooter", "is_disabled": 0, "lat": 38.899499166666665, "rental_uris": {"ios": "https://dc.lft.to/lastmile_qr_scan", "android": "https://dc.lft.to/lastmile_qr_scan"}, "is_reserved": 0, "fusion_lon": 0.0, "fusion_lat": 0.0, "lon": -77.02001633333333, "name": "b462c38b37d3467540f873ec4d98ca9e"}, {"bike_id": "e6851328ff6e36ff1d7ac6cf6bf4d60e", "type": "electric_scooter", "is_disabled": 0, "lat": 38.914189666666665, "rental_uris": {"ios": "https://dc.lft.to/lastmile_qr_scan", "android": "https://dc.lft.to/lastmile_qr_scan"}, "is_reserved": 0, "fusion_lon": 0.0, "fusion_lat": 0.0, "lon": -77.02225133333333, "name": "e6851328ff6e36ff1d7ac6cf6bf4d60e"}, {"bike_id": "4759ef3da1a0b963a3fcb96674b0dce5", "type": "electric_bike", "is_disabled": 0, "lat": 38.88151966666667, "rental_uris": {"ios": "https://dc.lft.to/lastmile_qr_scan", "android": "https://dc.lft.to/lastmile_qr_scan"}, "is_reserved": 0, "fusion_lon": 0.0, "fusion_lat": 0.0, "lon": -77.016751, "name": "4759ef3da1a0b963a3fcb96674b0dce5"}, {"bike_id": "fd3424b6264235378c5dab0d4ef341c1", "type": "electric_bike", "is_disabled": 0, "lat": 38.807067, "rental_uris": {"ios": "https://dc.lft.to/lastmile_qr_scan", "android": "https://dc.lft.to/lastmile_qr_scan"}, "is_reserved": 0, "fusion_lon": 0.0, "fusion_lat": 0.0, "lon": -77.06174183333333, "name": "fd3424b6264235378c5dab0d4ef341c1"}, {"bike_id": "6c55629a404a782a755ddd627f8eefba", "type": "electric_scooter", "is_disabled": 0, "lat": 38.9119035, "rental_uris": {"ios": "https://dc.lft.to/lastmile_qr_scan", "android": "https://dc.lft.to/lastmile_qr_scan"}, "is_reserved": 0, "fusion_lon": 0.0, "fusion_lat": 0.0, "lon": -77.03837616666667, "name": "6c55629a404a782a755ddd627f8eefba"}, {"bike_id": "3e44042f526a1d71c03475545172e1e2", "type": "electric_scooter", "is_disabled": 0, "lat": 38.9025045, "rental_uris": {"ios": "https://dc.lft.to/lastmile_qr_scan", "android": "https://dc.lft.to/lastmile_qr_scan"}, "is_reserved": 0, "fusion_lon": 0.0, "fusion_lat": 0.0, "lon": -76.98669766666667, "name": "3e44042f526a1d71c03475545172e1e2"}, {"bike_id": "1fc812ead9c237efceab1c4965af6afd", "type": "electric_scooter", "is_disabled": 0, "lat": 38.88540583333333, "rental_uris": {"ios": "https://dc.lft.to/lastmile_qr_scan", "android": "https://dc.lft.to/lastmile_qr_scan"}, "is_reserved": 0, "fusion_lon": 0.0, "fusion_lat": 0.0, "lon": -77.00580083333334, "name": "1fc812ead9c237efceab1c4965af6afd"}, {"bike_id": "3056908bbd59d6f118b3ffe4c7baaf59", "type": "electric_scooter", "is_disabled": 0, "lat": 38.873596666666664, "rental_uris": {"ios": "https://dc.lft.to/lastmile_qr_scan", "android": "https://dc.lft.to/lastmile_qr_scan"}, "is_reserved": 0, "fusion_lon": 0.0, "fusion_lat": 0.0, "lon": -76.97029016666667, "name": "3056908bbd59d6f118b3ffe4c7baaf59"}, {"bike_id": "c04452d029eb5d2d8b88a9c767fa9325", "type": "electric_scooter", "is_disabled": 0, "lat": 38.933248, "rental_uris": {"ios": "https://dc.lft.to/lastmile_qr_scan", "android": "https://dc.lft.to/lastmile_qr_scan"}, "is_reserved": 0, "fusion_lon": 0.0, "fusion_lat": 0.0, "lon": -77.02847516666667, "name": "c04452d029eb5d2d8b88a9c767fa9325"}, {"bike_id": "2e7c881ad2e8358ee4b60342695fff6b", "type": "electric_scooter", "is_disabled": 0, "lat": 38.9208235, "rental_uris": {"ios": "https://dc.lft.to/lastmile_qr_scan", "android": "https://dc.lft.to/lastmile_qr_scan"}, "is_reserved": 0, "fusion_lon": 0.0, "fusion_lat": 0.0, "lon": -77.03825566666667, "name": "2e7c881ad2e8358ee4b60342695fff6b"}, {"bike_id": "b7763f0795b7a81ee581f4b7f27b8675", "type": "electric_bike", "is_disabled": 0, "lat": 38.88446533333333, "rental_uris": {"ios": "https://dc.lft.to/lastmile_qr_scan", "android": "https://dc.lft.to/lastmile_qr_scan"}, "is_reserved": 0, "fusion_lon": 0.0, "fusion_lat": 0.0, "lon": -77.0248375, "name": "b7763f0795b7a81ee581f4b7f27b8675"}, {"bike_id": "d09e36927a925886caedf231955566c7", "type": "electric_scooter", "is_disabled": 0, "lat": 38.90388816666667, "rental_uris": {"ios": "https://dc.lft.to/lastmile_qr_scan", "android": "https://dc.lft.to/lastmile_qr_scan"}, "is_reserved": 0, "fusion_lon": 0.0, "fusion_lat": 0.0, "lon": -77.021924, "name": "d09e36927a925886caedf231955566c7"}, {"bike_id": "6fcc421a5fff190ab532e17643090cd9", "type": "electric_scooter", "is_disabled": 0, "lat": 38.89882883333333, "rental_uris": {"ios": "https://dc.lft.to/lastmile_qr_scan", "android": "https://dc.lft.to/lastmile_qr_scan"}, "is_reserved": 0, "fusion_lon": 0.0, "fusion_lat": 0.0, "lon": -76.93173533333334, "name": "6fcc421a5fff190ab532e17643090cd9"}, {"bike_id": "cf3de5ff472226c241b9c1f083cac45c", "type": "electric_scooter", "is_disabled": 0, "lat": 38.917039333333335, "rental_uris": {"ios": "https://dc.lft.to/lastmile_qr_scan", "android": "https://dc.lft.to/lastmile_qr_scan"}, "is_reserved": 0, "fusion_lon": 0.0, "fusion_lat": 0.0, "lon": -77.0372135, "name": "cf3de5ff472226c241b9c1f083cac45c"}, {"bike_id": "e6ca74ea7a2006c939a07692b737fe4b", "type": "electric_scooter", "is_disabled": 0, "lat": 38.894936333333334, "rental_uris": {"ios": "https://dc.lft.to/lastmile_qr_scan", "android": "https://dc.lft.to/lastmile_qr_scan"}, "is_reserved": 0, "fusion_lon": 0.0, "fusion_lat": 0.0, "lon": -77.0229085, "name": "e6ca74ea7a2006c939a07692b737fe4b"}, {"bike_id": "b9fd4f8d1e660721868b261c481777b4", "type": "electric_bike", "is_disabled": 0, "lat": 38.97880933333333, "rental_uris": {"ios": "https://dc.lft.to/lastmile_qr_scan", "android": "https://dc.lft.to/lastmile_qr_scan"}, "is_reserved": 0, "fusion_lon": 0.0, "fusion_lat": 0.0, "lon": -77.0603205, "name": "b9fd4f8d1e660721868b261c481777b4"}, {"bike_id": "92f836fd2dd64b8c3142c47620aadfeb", "type": "electric_scooter", "is_disabled": 0, "lat": 38.87714016666666, "rental_uris": {"ios": "https://dc.lft.to/lastmile_qr_scan", "android": "https://dc.lft.to/lastmile_qr_scan"}, "is_reserved": 0, "fusion_lon": 0.0, "fusion_lat": 0.0, "lon": -77.00520433333334, "name": "92f836fd2dd64b8c3142c47620aadfeb"}, {"bike_id": "948cb32e78057eae09c22e6b87087531", "type": "electric_scooter", "is_disabled": 0, "lat": 38.89760783333333, "rental_uris": {"ios": "https://dc.lft.to/lastmile_qr_scan", "android": "https://dc.lft.to/lastmile_qr_scan"}, "is_reserved": 0, "fusion_lon": 0.0, "fusion_lat": 0.0, "lon": -77.02768583333334, "name": "948cb32e78057eae09c22e6b87087531"}, {"bike_id": "63e8c6404440312c6247c2bfdf7380e5", "type": "electric_scooter", "is_disabled": 0, "lat": 38.892232, "rental_uris": {"ios": "https://dc.lft.to/lastmile_qr_scan", "android": "https://dc.lft.to/lastmile_qr_scan"}, "is_reserved": 0, "fusion_lon": 0.0, "fusion_lat": 0.0, "lon": -77.04370866666666, "name": "63e8c6404440312c6247c2bfdf7380e5"}, {"bike_id": "ea5ecc6ad3cc80a9f9623190c3841ce0", "type": "electric_scooter", "is_disabled": 0, "lat": 38.93471916666667, "rental_uris": {"ios": "https://dc.lft.to/lastmile_qr_scan", "android": "https://dc.lft.to/lastmile_qr_scan"}, "is_reserved": 0, "fusion_lon": 0.0, "fusion_lat": 0.0, "lon": -77.07266166666666, "name": "ea5ecc6ad3cc80a9f9623190c3841ce0"}, {"bike_id": "76df81047b04b495bc5d0004dcd35df0", "type": "electric_scooter", "is_disabled": 0, "lat": 38.940201333333334, "rental_uris": {"ios": "https://dc.lft.to/lastmile_qr_scan", "android": "https://dc.lft.to/lastmile_qr_scan"}, "is_reserved": 0, "fusion_lon": 0.0, "fusion_lat": 0.0, "lon": -76.97610683333333, "name": "76df81047b04b495bc5d0004dcd35df0"}, {"bike_id": "b6865ae1aa326520ce538f693c8b5459", "type": "electric_scooter", "is_disabled": 0, "lat": 38.91099033333333, "rental_uris": {"ios": "https://dc.lft.to/lastmile_qr_scan", "android": "https://dc.lft.to/lastmile_qr_scan"}, "is_reserved": 0, "fusion_lon": 0.0, "fusion_lat": 0.0, "lon": -77.0419895, "name": "b6865ae1aa326520ce538f693c8b5459"}, {"bike_id": "699a3863df6fbb212f0ccf52f2131ee3", "type": "electric_scooter", "is_disabled": 0, "lat": 38.894301666666664, "rental_uris": {"ios": "https://dc.lft.to/lastmile_qr_scan", "android": "https://dc.lft.to/lastmile_qr_scan"}, "is_reserved": 0, "fusion_lon": 0.0, "fusion_lat": 0.0, "lon": -77.0104995, "name": "699a3863df6fbb212f0ccf52f2131ee3"}, {"bike_id": "731fa88548cf886116413bcc8252aa23", "type": "electric_scooter", "is_disabled": 0, "lat": 38.920433833333334, "rental_uris": {"ios": "https://dc.lft.to/lastmile_qr_scan", "android": "https://dc.lft.to/lastmile_qr_scan"}, "is_reserved": 0, "fusion_lon": 0.0, "fusion_lat": 0.0, "lon": -77.0257675, "name": "731fa88548cf886116413bcc8252aa23"}, {"bike_id": "65ab5e3efebae6764ef005067a2fcdb5", "type": "electric_scooter", "is_disabled": 0, "lat": 38.894761, "rental_uris": {"ios": "https://dc.lft.to/lastmile_qr_scan", "android": "https://dc.lft.to/lastmile_qr_scan"}, "is_reserved": 0, "fusion_lon": 0.0, "fusion_lat": 0.0, "lon": -76.94859283333334, "name": "65ab5e3efebae6764ef005067a2fcdb5"}, {"bike_id": "9a196e9e9316c2e0f09116b9f0fccacc", "type": "electric_scooter", "is_disabled": 0, "lat": 38.89921483333333, "rental_uris": {"ios": "https://dc.lft.to/lastmile_qr_scan", "android": "https://dc.lft.to/lastmile_qr_scan"}, "is_reserved": 0, "fusion_lon": 0.0, "fusion_lat": 0.0, "lon": -77.00363066666667, "name": "9a196e9e9316c2e0f09116b9f0fccacc"}, {"bike_id": "a68f29f13e5c67966b1d3bc68edf0ebf", "type": "electric_scooter", "is_disabled": 0, "lat": 38.93208283333333, "rental_uris": {"ios": "https://dc.lft.to/lastmile_qr_scan", "android": "https://dc.lft.to/lastmile_qr_scan"}, "is_reserved": 0, "fusion_lon": 0.0, "fusion_lat": 0.0, "lon": -77.0351265, "name": "a68f29f13e5c67966b1d3bc68edf0ebf"}, {"bike_id": "dc5932f2fa665e17735b06c5746f9a02", "type": "electric_scooter", "is_disabled": 0, "lat": 38.900586, "rental_uris": {"ios": "https://dc.lft.to/lastmile_qr_scan", "android": "https://dc.lft.to/lastmile_qr_scan"}, "is_reserved": 0, "fusion_lon": 0.0, "fusion_lat": 0.0, "lon": -77.04527966666667, "name": "dc5932f2fa665e17735b06c5746f9a02"}, {"bike_id": "daaa0985d134d01752ca331d3f06997a", "type": "electric_scooter", "is_disabled": 0, "lat": 38.910078166666665, "rental_uris": {"ios": "https://dc.lft.to/lastmile_qr_scan", "android": "https://dc.lft.to/lastmile_qr_scan"}, "is_reserved": 0, "fusion_lon": 0.0, "fusion_lat": 0.0, "lon": -77.03192366666667, "name": "daaa0985d134d01752ca331d3f06997a"}, {"bike_id": "89d03000b5199efbd5533e73b8ad9a27", "type": "electric_scooter", "is_disabled": 0, "lat": 38.867002666666664, "rental_uris": {"ios": "https://dc.lft.to/lastmile_qr_scan", "android": "https://dc.lft.to/lastmile_qr_scan"}, "is_reserved": 0, "fusion_lon": 0.0, "fusion_lat": 0.0, "lon": -76.98714166666667, "name": "89d03000b5199efbd5533e73b8ad9a27"}, {"bike_id": "e4b360d0aeab77aecd950712ea897b49", "type": "electric_scooter", "is_disabled": 0, "lat": 38.903013, "rental_uris": {"ios": "https://dc.lft.to/lastmile_qr_scan", "android": "https://dc.lft.to/lastmile_qr_scan"}, "is_reserved": 0, "fusion_lon": 0.0, "fusion_lat": 0.0, "lon": -77.03355533333334, "name": "e4b360d0aeab77aecd950712ea897b49"}, {"bike_id": "3d52122a9e46183999bd1831013217b9", "type": "electric_bike", "is_disabled": 0, "lat": 38.978561666666664, "rental_uris": {"ios": "https://dc.lft.to/lastmile_qr_scan", "android": "https://dc.lft.to/lastmile_qr_scan"}, "is_reserved": 0, "fusion_lon": 0.0, "fusion_lat": 0.0, "lon": -76.94048166666667, "name": "3d52122a9e46183999bd1831013217b9"}, {"bike_id": "f65b877e6e88852a3d65a41eb545042a", "type": "electric_scooter", "is_disabled": 0, "lat": 38.87869833333333, "rental_uris": {"ios": "https://dc.lft.to/lastmile_qr_scan", "android": "https://dc.lft.to/lastmile_qr_scan"}, "is_reserved": 0, "fusion_lon": 0.0, "fusion_lat": 0.0, "lon": -77.0191445, "name": "f65b877e6e88852a3d65a41eb545042a"}, {"bike_id": "10f9cce5878a70d1940d05c1fcc2d715", "type": "electric_scooter", "is_disabled": 0, "lat": 38.898644166666664, "rental_uris": {"ios": "https://dc.lft.to/lastmile_qr_scan", "android": "https://dc.lft.to/lastmile_qr_scan"}, "is_reserved": 0, "fusion_lon": 0.0, "fusion_lat": 0.0, "lon": -76.94635066666666, "name": "10f9cce5878a70d1940d05c1fcc2d715"}, {"bike_id": "3ff43583e3a6fc188f5ddcdedb4da682", "type": "electric_scooter", "is_disabled": 0, "lat": 38.93077916666667, "rental_uris": {"ios": "https://dc.lft.to/lastmile_qr_scan", "android": "https://dc.lft.to/lastmile_qr_scan"}, "is_reserved": 0, "fusion_lon": 0.0, "fusion_lat": 0.0, "lon": -77.02793466666667, "name": "3ff43583e3a6fc188f5ddcdedb4da682"}, {"bike_id": "51122e35741a5e88dc89ecdaa6c92394", "type": "electric_scooter", "is_disabled": 0, "lat": 38.892210166666665, "rental_uris": {"ios": "https://dc.lft.to/lastmile_qr_scan", "android": "https://dc.lft.to/lastmile_qr_scan"}, "is_reserved": 0, "fusion_lon": 0.0, "fusion_lat": 0.0, "lon": -77.02260066666666, "name": "51122e35741a5e88dc89ecdaa6c92394"}, {"bike_id": "c3ad2fcbfcda75e8c335633a2ee250df", "type": "electric_scooter", "is_disabled": 0, "lat": 38.92826266666667, "rental_uris": {"ios": "https://dc.lft.to/lastmile_qr_scan", "android": "https://dc.lft.to/lastmile_qr_scan"}, "is_reserved": 0, "fusion_lon": 0.0, "fusion_lat": 0.0, "lon": -77.02256533333333, "name": "c3ad2fcbfcda75e8c335633a2ee250df"}, {"bike_id": "b03a4ed2f414b1d8d41c5745bcf74c64", "type": "electric_scooter", "is_disabled": 0, "lat": 38.86700416666667, "rental_uris": {"ios": "https://dc.lft.to/lastmile_qr_scan", "android": "https://dc.lft.to/lastmile_qr_scan"}, "is_reserved": 0, "fusion_lon": 0.0, "fusion_lat": 0.0, "lon": -76.98709766666667, "name": "b03a4ed2f414b1d8d41c5745bcf74c64"}, {"bike_id": "4658964e65f65ab9ae5c3d63d9c33b0e", "type": "electric_scooter", "is_disabled": 0, "lat": 38.912662166666664, "rental_uris": {"ios": "https://dc.lft.to/lastmile_qr_scan", "android": "https://dc.lft.to/lastmile_qr_scan"}, "is_reserved": 0, "fusion_lon": 0.0, "fusion_lat": 0.0, "lon": -77.04493916666667, "name": "4658964e65f65ab9ae5c3d63d9c33b0e"}, {"bike_id": "4c9e1211e533f6dfdba9ca68b1bccf73", "type": "electric_scooter", "is_disabled": 0, "lat": 38.92081783333333, "rental_uris": {"ios": "https://dc.lft.to/lastmile_qr_scan", "android": "https://dc.lft.to/lastmile_qr_scan"}, "is_reserved": 0, "fusion_lon": 0.0, "fusion_lat": 0.0, "lon": -77.0230295, "name": "4c9e1211e533f6dfdba9ca68b1bccf73"}, {"bike_id": "74f86cd9b9b1033d42de48b628bb3076", "type": "electric_scooter", "is_disabled": 0, "lat": 38.89242516666667, "rental_uris": {"ios": "https://dc.lft.to/lastmile_qr_scan", "android": "https://dc.lft.to/lastmile_qr_scan"}, "is_reserved": 0, "fusion_lon": 0.0, "fusion_lat": 0.0, "lon": -77.0450295, "name": "74f86cd9b9b1033d42de48b628bb3076"}, {"bike_id": "481030f4deb4a118cf072f464c0b0c9c", "type": "electric_scooter", "is_disabled": 0, "lat": 38.901231333333335, "rental_uris": {"ios": "https://dc.lft.to/lastmile_qr_scan", "android": "https://dc.lft.to/lastmile_qr_scan"}, "is_reserved": 0, "fusion_lon": 0.0, "fusion_lat": 0.0, "lon": -77.01816583333333, "name": "481030f4deb4a118cf072f464c0b0c9c"}, {"bike_id": "73bbc8377e8e243838b4db0334c17f8b", "type": "electric_scooter", "is_disabled": 0, "lat": 38.9232765, "rental_uris": {"ios": "https://dc.lft.to/lastmile_qr_scan", "android": "https://dc.lft.to/lastmile_qr_scan"}, "is_reserved": 0, "fusion_lon": 0.0, "fusion_lat": 0.0, "lon": -77.03755266666667, "name": "73bbc8377e8e243838b4db0334c17f8b"}, {"bike_id": "d6b4b48bab6f85e3a6709bcf8449e3b3", "type": "electric_scooter", "is_disabled": 0, "lat": 38.930725, "rental_uris": {"ios": "https://dc.lft.to/lastmile_qr_scan", "android": "https://dc.lft.to/lastmile_qr_scan"}, "is_reserved": 0, "fusion_lon": 0.0, "fusion_lat": 0.0, "lon": -77.02793883333334, "name": "d6b4b48bab6f85e3a6709bcf8449e3b3"}, {"bike_id": "c951193bbd5165fc806b39d0910523ac", "type": "electric_scooter", "is_disabled": 0, "lat": 38.915017, "rental_uris": {"ios": "https://dc.lft.to/lastmile_qr_scan", "android": "https://dc.lft.to/lastmile_qr_scan"}, "is_reserved": 0, "fusion_lon": 0.0, "fusion_lat": 0.0, "lon": -77.01776766666667, "name": "c951193bbd5165fc806b39d0910523ac"}, {"bike_id": "64800feffaf32db8ace03198d5adc4a8", "type": "electric_scooter", "is_disabled": 0, "lat": 38.915509166666666, "rental_uris": {"ios": "https://dc.lft.to/lastmile_qr_scan", "android": "https://dc.lft.to/lastmile_qr_scan"}, "is_reserved": 0, "fusion_lon": 0.0, "fusion_lat": 0.0, "lon": -77.01234483333333, "name": "64800feffaf32db8ace03198d5adc4a8"}, {"bike_id": "977e6703039f397cabec598794aa3ef5", "type": "electric_scooter", "is_disabled": 0, "lat": 38.90238883333333, "rental_uris": {"ios": "https://dc.lft.to/lastmile_qr_scan", "android": "https://dc.lft.to/lastmile_qr_scan"}, "is_reserved": 0, "fusion_lon": 0.0, "fusion_lat": 0.0, "lon": -77.03252816666667, "name": "977e6703039f397cabec598794aa3ef5"}, {"bike_id": "cc1c7daf6492ee596bb8428f5a258d5e", "type": "electric_scooter", "is_disabled": 0, "lat": 38.9127875, "rental_uris": {"ios": "https://dc.lft.to/lastmile_qr_scan", "android": "https://dc.lft.to/lastmile_qr_scan"}, "is_reserved": 0, "fusion_lon": 0.0, "fusion_lat": 0.0, "lon": -77.03186366666667, "name": "cc1c7daf6492ee596bb8428f5a258d5e"}, {"bike_id": "906d4b2576e4fc0ea3ca9978d160c91b", "type": "electric_scooter", "is_disabled": 0, "lat": 38.909521833333336, "rental_uris": {"ios": "https://dc.lft.to/lastmile_qr_scan", "android": "https://dc.lft.to/lastmile_qr_scan"}, "is_reserved": 0, "fusion_lon": 0.0, "fusion_lat": 0.0, "lon": -77.04868933333333, "name": "906d4b2576e4fc0ea3ca9978d160c91b"}, {"bike_id": "8d2e1d699d5f8058a68b335be0df69ba", "type": "electric_bike", "is_disabled": 0, "lat": 38.91548216666666, "rental_uris": {"ios": "https://dc.lft.to/lastmile_qr_scan", "android": "https://dc.lft.to/lastmile_qr_scan"}, "is_reserved": 0, "fusion_lon": 0.0, "fusion_lat": 0.0, "lon": -77.06669633333334, "name": "8d2e1d699d5f8058a68b335be0df69ba"}, {"bike_id": "0028440575d0dc67aea6e7d6211a47af", "type": "electric_scooter", "is_disabled": 0, "lat": 38.911878333333334, "rental_uris": {"ios": "https://dc.lft.to/lastmile_qr_scan", "android": "https://dc.lft.to/lastmile_qr_scan"}, "is_reserved": 0, "fusion_lon": 0.0, "fusion_lat": 0.0, "lon": -77.03831883333334, "name": "0028440575d0dc67aea6e7d6211a47af"}, {"bike_id": "94aff89d6535e44ebacef86d22505272", "type": "electric_scooter", "is_disabled": 0, "lat": 38.94924116666667, "rental_uris": {"ios": "https://dc.lft.to/lastmile_qr_scan", "android": "https://dc.lft.to/lastmile_qr_scan"}, "is_reserved": 0, "fusion_lon": 0.0, "fusion_lat": 0.0, "lon": -77.01858133333333, "name": "94aff89d6535e44ebacef86d22505272"}, {"bike_id": "e8d74f1bae99b6da7b67dfdd71ed327e", "type": "electric_scooter", "is_disabled": 0, "lat": 38.905147666666664, "rental_uris": {"ios": "https://dc.lft.to/lastmile_qr_scan", "android": "https://dc.lft.to/lastmile_qr_scan"}, "is_reserved": 0, "fusion_lon": 0.0, "fusion_lat": 0.0, "lon": -77.05153733333333, "name": "e8d74f1bae99b6da7b67dfdd71ed327e"}, {"bike_id": "363228994578ed64581f187608311107", "type": "electric_scooter", "is_disabled": 0, "lat": 38.915602666666665, "rental_uris": {"ios": "https://dc.lft.to/lastmile_qr_scan", "android": "https://dc.lft.to/lastmile_qr_scan"}, "is_reserved": 0, "fusion_lon": 0.0, "fusion_lat": 0.0, "lon": -77.01039633333333, "name": "363228994578ed64581f187608311107"}, {"bike_id": "d7842f5e5705bc4c1a18d69bdc814af6", "type": "electric_scooter", "is_disabled": 0, "lat": 38.89232166666667, "rental_uris": {"ios": "https://dc.lft.to/lastmile_qr_scan", "android": "https://dc.lft.to/lastmile_qr_scan"}, "is_reserved": 0, "fusion_lon": 0.0, "fusion_lat": 0.0, "lon": -77.04674083333333, "name": "d7842f5e5705bc4c1a18d69bdc814af6"}, {"bike_id": "dba82c09880a484bea1f3823ee529780", "type": "electric_scooter", "is_disabled": 0, "lat": 38.892479, "rental_uris": {"ios": "https://dc.lft.to/lastmile_qr_scan", "android": "https://dc.lft.to/lastmile_qr_scan"}, "is_reserved": 0, "fusion_lon": 0.0, "fusion_lat": 0.0, "lon": -76.9533585, "name": "dba82c09880a484bea1f3823ee529780"}, {"bike_id": "4d5a09f69f795eb07009504b40adf45c", "type": "electric_scooter", "is_disabled": 0, "lat": 38.892414, "rental_uris": {"ios": "https://dc.lft.to/lastmile_qr_scan", "android": "https://dc.lft.to/lastmile_qr_scan"}, "is_reserved": 0, "fusion_lon": 0.0, "fusion_lat": 0.0, "lon": -77.04876583333333, "name": "4d5a09f69f795eb07009504b40adf45c"}, {"bike_id": "2179d20c7c44a3904ac1013a4f8b9bbb", "type": "electric_scooter", "is_disabled": 0, "lat": 38.917666, "rental_uris": {"ios": "https://dc.lft.to/lastmile_qr_scan", "android": "https://dc.lft.to/lastmile_qr_scan"}, "is_reserved": 0, "fusion_lon": 0.0, "fusion_lat": 0.0, "lon": -77.0295585, "name": "2179d20c7c44a3904ac1013a4f8b9bbb"}, {"bike_id": "840bd2a1371238ac3a12a556a0a11672", "type": "electric_scooter", "is_disabled": 0, "lat": 38.926368, "rental_uris": {"ios": "https://dc.lft.to/lastmile_qr_scan", "android": "https://dc.lft.to/lastmile_qr_scan"}, "is_reserved": 0, "fusion_lon": 0.0, "fusion_lat": 0.0, "lon": -77.01382616666666, "name": "840bd2a1371238ac3a12a556a0a11672"}, {"bike_id": "91e22a52727c3d46df3e8de2386f80ca", "type": "electric_scooter", "is_disabled": 0, "lat": 38.865058166666664, "rental_uris": {"ios": "https://dc.lft.to/lastmile_qr_scan", "android": "https://dc.lft.to/lastmile_qr_scan"}, "is_reserved": 0, "fusion_lon": 0.0, "fusion_lat": 0.0, "lon": -76.990014, "name": "91e22a52727c3d46df3e8de2386f80ca"}, {"bike_id": "bb8fac66d1c192ef2d5eea439963d85b", "type": "electric_scooter", "is_disabled": 0, "lat": 38.91646983333333, "rental_uris": {"ios": "https://dc.lft.to/lastmile_qr_scan", "android": "https://dc.lft.to/lastmile_qr_scan"}, "is_reserved": 0, "fusion_lon": 0.0, "fusion_lat": 0.0, "lon": -77.0320445, "name": "bb8fac66d1c192ef2d5eea439963d85b"}, {"bike_id": "8d04ef193066dc2b67e525407b1c5acc", "type": "electric_scooter", "is_disabled": 0, "lat": 38.9009595, "rental_uris": {"ios": "https://dc.lft.to/lastmile_qr_scan", "android": "https://dc.lft.to/lastmile_qr_scan"}, "is_reserved": 0, "fusion_lon": 0.0, "fusion_lat": 0.0, "lon": -76.983418, "name": "8d04ef193066dc2b67e525407b1c5acc"}, {"bike_id": "b75dfaeda424a51c2ee4c3905fbff03e", "type": "electric_scooter", "is_disabled": 0, "lat": 38.917108, "rental_uris": {"ios": "https://dc.lft.to/lastmile_qr_scan", "android": "https://dc.lft.to/lastmile_qr_scan"}, "is_reserved": 0, "fusion_lon": 0.0, "fusion_lat": 0.0, "lon": -77.0387105, "name": "b75dfaeda424a51c2ee4c3905fbff03e"}, {"bike_id": "452e90495353ff579a3f4d76b7859f5d", "type": "electric_scooter", "is_disabled": 0, "lat": 38.875041, "rental_uris": {"ios": "https://dc.lft.to/lastmile_qr_scan", "android": "https://dc.lft.to/lastmile_qr_scan"}, "is_reserved": 0, "fusion_lon": 0.0, "fusion_lat": 0.0, "lon": -77.01229883333333, "name": "452e90495353ff579a3f4d76b7859f5d"}, {"bike_id": "7c5be822e1f4f9db5ba747bc70dc7ef7", "type": "electric_bike", "is_disabled": 0, "lat": 38.808972833333335, "rental_uris": {"ios": "https://dc.lft.to/lastmile_qr_scan", "android": "https://dc.lft.to/lastmile_qr_scan"}, "is_reserved": 0, "fusion_lon": 0.0, "fusion_lat": 0.0, "lon": -77.08651283333333, "name": "7c5be822e1f4f9db5ba747bc70dc7ef7"}, {"bike_id": "a118433f96b1dd30d55e948f7d1d0147", "type": "electric_scooter", "is_disabled": 0, "lat": 38.87859183333333, "rental_uris": {"ios": "https://dc.lft.to/lastmile_qr_scan", "android": "https://dc.lft.to/lastmile_qr_scan"}, "is_reserved": 0, "fusion_lon": 0.0, "fusion_lat": 0.0, "lon": -77.01757883333333, "name": "a118433f96b1dd30d55e948f7d1d0147"}, {"bike_id": "d88ee88940196b37ea6f524bc0adcddf", "type": "electric_scooter", "is_disabled": 0, "lat": 38.902301333333334, "rental_uris": {"ios": "https://dc.lft.to/lastmile_qr_scan", "android": "https://dc.lft.to/lastmile_qr_scan"}, "is_reserved": 0, "fusion_lon": 0.0, "fusion_lat": 0.0, "lon": -77.03778833333334, "name": "d88ee88940196b37ea6f524bc0adcddf"}, {"bike_id": "c81c002d6a21ac4056a7e01e61d9eaf5", "type": "electric_bike", "is_disabled": 0, "lat": 38.91949866666667, "rental_uris": {"ios": "https://dc.lft.to/lastmile_qr_scan", "android": "https://dc.lft.to/lastmile_qr_scan"}, "is_reserved": 0, "fusion_lon": 0.0, "fusion_lat": 0.0, "lon": -77.00316266666667, "name": "c81c002d6a21ac4056a7e01e61d9eaf5"}, {"bike_id": "783578bc3333319c9d6e1cf59eb06d1f", "type": "electric_scooter", "is_disabled": 0, "lat": 38.90730966666667, "rental_uris": {"ios": "https://dc.lft.to/lastmile_qr_scan", "android": "https://dc.lft.to/lastmile_qr_scan"}, "is_reserved": 0, "fusion_lon": 0.0, "fusion_lat": 0.0, "lon": -77.03197283333333, "name": "783578bc3333319c9d6e1cf59eb06d1f"}, {"bike_id": "2a870364fc38e969990cc24633b96e92", "type": "electric_scooter", "is_disabled": 0, "lat": 38.926748, "rental_uris": {"ios": "https://dc.lft.to/lastmile_qr_scan", "android": "https://dc.lft.to/lastmile_qr_scan"}, "is_reserved": 0, "fusion_lon": 0.0, "fusion_lat": 0.0, "lon": -77.07326433333333, "name": "2a870364fc38e969990cc24633b96e92"}, {"bike_id": "3974161c8b0ac8e7d7828a09e277649b", "type": "electric_scooter", "is_disabled": 0, "lat": 38.91554816666667, "rental_uris": {"ios": "https://dc.lft.to/lastmile_qr_scan", "android": "https://dc.lft.to/lastmile_qr_scan"}, "is_reserved": 0, "fusion_lon": 0.0, "fusion_lat": 0.0, "lon": -77.03217883333333, "name": "3974161c8b0ac8e7d7828a09e277649b"}, {"bike_id": "2ccc2fc4e9c0626dd3655b9df7563477", "type": "electric_scooter", "is_disabled": 0, "lat": 38.93614316666667, "rental_uris": {"ios": "https://dc.lft.to/lastmile_qr_scan", "android": "https://dc.lft.to/lastmile_qr_scan"}, "is_reserved": 0, "fusion_lon": 0.0, "fusion_lat": 0.0, "lon": -77.05900283333334, "name": "2ccc2fc4e9c0626dd3655b9df7563477"}, {"bike_id": "a1c0ee148b65647639570ce94097abee", "type": "electric_scooter", "is_disabled": 0, "lat": 38.91822883333333, "rental_uris": {"ios": "https://dc.lft.to/lastmile_qr_scan", "android": "https://dc.lft.to/lastmile_qr_scan"}, "is_reserved": 0, "fusion_lon": 0.0, "fusion_lat": 0.0, "lon": -77.04945983333333, "name": "a1c0ee148b65647639570ce94097abee"}, {"bike_id": "ca12503b2828804c47379eca8422ddb3", "type": "electric_scooter", "is_disabled": 0, "lat": 38.943316333333335, "rental_uris": {"ios": "https://dc.lft.to/lastmile_qr_scan", "android": "https://dc.lft.to/lastmile_qr_scan"}, "is_reserved": 0, "fusion_lon": 0.0, "fusion_lat": 0.0, "lon": -77.06187516666667, "name": "ca12503b2828804c47379eca8422ddb3"}, {"bike_id": "c6748ded6719f032d653cb58202a900b", "type": "electric_scooter", "is_disabled": 0, "lat": 38.909865, "rental_uris": {"ios": "https://dc.lft.to/lastmile_qr_scan", "android": "https://dc.lft.to/lastmile_qr_scan"}, "is_reserved": 0, "fusion_lon": 0.0, "fusion_lat": 0.0, "lon": -77.02190416666667, "name": "c6748ded6719f032d653cb58202a900b"}, {"bike_id": "41888325e0b856a002ca36e7f935a9de", "type": "electric_scooter", "is_disabled": 0, "lat": 38.90959016666667, "rental_uris": {"ios": "https://dc.lft.to/lastmile_qr_scan", "android": "https://dc.lft.to/lastmile_qr_scan"}, "is_reserved": 0, "fusion_lon": 0.0, "fusion_lat": 0.0, "lon": -77.03634583333333, "name": "41888325e0b856a002ca36e7f935a9de"}, {"bike_id": "4ada95b142060b24ed01d60dafea125d", "type": "electric_scooter", "is_disabled": 0, "lat": 38.9249975, "rental_uris": {"ios": "https://dc.lft.to/lastmile_qr_scan", "android": "https://dc.lft.to/lastmile_qr_scan"}, "is_reserved": 0, "fusion_lon": 0.0, "fusion_lat": 0.0, "lon": -77.037883, "name": "4ada95b142060b24ed01d60dafea125d"}, {"bike_id": "51839dd3b23d25f9e18b4911f63f239e", "type": "electric_scooter", "is_disabled": 0, "lat": 38.905721666666665, "rental_uris": {"ios": "https://dc.lft.to/lastmile_qr_scan", "android": "https://dc.lft.to/lastmile_qr_scan"}, "is_reserved": 0, "fusion_lon": 0.0, "fusion_lat": 0.0, "lon": -77.03081283333333, "name": "51839dd3b23d25f9e18b4911f63f239e"}, {"bike_id": "2d0cea180d64c5a97633fc338575447a", "type": "electric_scooter", "is_disabled": 0, "lat": 38.925049666666666, "rental_uris": {"ios": "https://dc.lft.to/lastmile_qr_scan", "android": "https://dc.lft.to/lastmile_qr_scan"}, "is_reserved": 0, "fusion_lon": 0.0, "fusion_lat": 0.0, "lon": -77.0216095, "name": "2d0cea180d64c5a97633fc338575447a"}, {"bike_id": "d6638a63eaed02d1445b59ca4df9a258", "type": "electric_scooter", "is_disabled": 0, "lat": 38.8923805, "rental_uris": {"ios": "https://dc.lft.to/lastmile_qr_scan", "android": "https://dc.lft.to/lastmile_qr_scan"}, "is_reserved": 0, "fusion_lon": 0.0, "fusion_lat": 0.0, "lon": -77.04154, "name": "d6638a63eaed02d1445b59ca4df9a258"}, {"bike_id": "0d3d40e0be9c207a004b696aa697f644", "type": "electric_scooter", "is_disabled": 0, "lat": 38.883947166666665, "rental_uris": {"ios": "https://dc.lft.to/lastmile_qr_scan", "android": "https://dc.lft.to/lastmile_qr_scan"}, "is_reserved": 0, "fusion_lon": 0.0, "fusion_lat": 0.0, "lon": -77.01964133333334, "name": "0d3d40e0be9c207a004b696aa697f644"}, {"bike_id": "2fd9854fe69a1b67ab1e6c067d482f24", "type": "electric_scooter", "is_disabled": 0, "lat": 38.91185766666667, "rental_uris": {"ios": "https://dc.lft.to/lastmile_qr_scan", "android": "https://dc.lft.to/lastmile_qr_scan"}, "is_reserved": 0, "fusion_lon": 0.0, "fusion_lat": 0.0, "lon": -77.03218116666666, "name": "2fd9854fe69a1b67ab1e6c067d482f24"}, {"bike_id": "1a081a4132f87e76c8f6d3c106b27a51", "type": "electric_scooter", "is_disabled": 0, "lat": 38.9025835, "rental_uris": {"ios": "https://dc.lft.to/lastmile_qr_scan", "android": "https://dc.lft.to/lastmile_qr_scan"}, "is_reserved": 0, "fusion_lon": 0.0, "fusion_lat": 0.0, "lon": -76.98120583333333, "name": "1a081a4132f87e76c8f6d3c106b27a51"}, {"bike_id": "57f2d16aedfdcea5f16642a69db4f040", "type": "electric_scooter", "is_disabled": 0, "lat": 38.91464916666666, "rental_uris": {"ios": "https://dc.lft.to/lastmile_qr_scan", "android": "https://dc.lft.to/lastmile_qr_scan"}, "is_reserved": 0, "fusion_lon": 0.0, "fusion_lat": 0.0, "lon": -77.04591616666667, "name": "57f2d16aedfdcea5f16642a69db4f040"}, {"bike_id": "73d875f0c9b109a342107a59f93c2a99", "type": "electric_scooter", "is_disabled": 0, "lat": 38.8984635, "rental_uris": {"ios": "https://dc.lft.to/lastmile_qr_scan", "android": "https://dc.lft.to/lastmile_qr_scan"}, "is_reserved": 0, "fusion_lon": 0.0, "fusion_lat": 0.0, "lon": -77.0217715, "name": "73d875f0c9b109a342107a59f93c2a99"}, {"bike_id": "6f88279a923d5d618769f135640daa00", "type": "electric_scooter", "is_disabled": 0, "lat": 38.91265333333333, "rental_uris": {"ios": "https://dc.lft.to/lastmile_qr_scan", "android": "https://dc.lft.to/lastmile_qr_scan"}, "is_reserved": 0, "fusion_lon": 0.0, "fusion_lat": 0.0, "lon": -77.03640483333334, "name": "6f88279a923d5d618769f135640daa00"}, {"bike_id": "42b60e5aaf3cec7806000ab4eaacd920", "type": "electric_scooter", "is_disabled": 0, "lat": 38.88712566666667, "rental_uris": {"ios": "https://dc.lft.to/lastmile_qr_scan", "android": "https://dc.lft.to/lastmile_qr_scan"}, "is_reserved": 0, "fusion_lon": 0.0, "fusion_lat": 0.0, "lon": -77.01775033333334, "name": "42b60e5aaf3cec7806000ab4eaacd920"}, {"bike_id": "cfc2c985fc9288ae7d5e39b95723a1df", "type": "electric_scooter", "is_disabled": 0, "lat": 38.874694, "rental_uris": {"ios": "https://dc.lft.to/lastmile_qr_scan", "android": "https://dc.lft.to/lastmile_qr_scan"}, "is_reserved": 0, "fusion_lon": 0.0, "fusion_lat": 0.0, "lon": -77.00558516666666, "name": "cfc2c985fc9288ae7d5e39b95723a1df"}, {"bike_id": "ba0d7d9d0b092473ea5ee70c4b4173db", "type": "electric_scooter", "is_disabled": 0, "lat": 38.88738933333333, "rental_uris": {"ios": "https://dc.lft.to/lastmile_qr_scan", "android": "https://dc.lft.to/lastmile_qr_scan"}, "is_reserved": 0, "fusion_lon": 0.0, "fusion_lat": 0.0, "lon": -77.01532116666667, "name": "ba0d7d9d0b092473ea5ee70c4b4173db"}, {"bike_id": "fbdc59e60357f0a10405e6c2cb77cebf", "type": "electric_scooter", "is_disabled": 0, "lat": 38.902732666666665, "rental_uris": {"ios": "https://dc.lft.to/lastmile_qr_scan", "android": "https://dc.lft.to/lastmile_qr_scan"}, "is_reserved": 0, "fusion_lon": 0.0, "fusion_lat": 0.0, "lon": -77.03331366666667, "name": "fbdc59e60357f0a10405e6c2cb77cebf"}, {"bike_id": "2f180a21e48d3796e14b745410529c1c", "type": "electric_bike", "is_disabled": 0, "lat": 38.89741316666667, "rental_uris": {"ios": "https://dc.lft.to/lastmile_qr_scan", "android": "https://dc.lft.to/lastmile_qr_scan"}, "is_reserved": 0, "fusion_lon": 0.0, "fusion_lat": 0.0, "lon": -76.9204645, "name": "2f180a21e48d3796e14b745410529c1c"}, {"bike_id": "17f8755c9ff1cb51b22a7e0b8b6ff7c2", "type": "electric_scooter", "is_disabled": 0, "lat": 38.905531333333336, "rental_uris": {"ios": "https://dc.lft.to/lastmile_qr_scan", "android": "https://dc.lft.to/lastmile_qr_scan"}, "is_reserved": 0, "fusion_lon": 0.0, "fusion_lat": 0.0, "lon": -77.00571433333333, "name": "17f8755c9ff1cb51b22a7e0b8b6ff7c2"}, {"bike_id": "40674f0c2895a46d14606d395302fe5c", "type": "electric_scooter", "is_disabled": 0, "lat": 38.901099333333335, "rental_uris": {"ios": "https://dc.lft.to/lastmile_qr_scan", "android": "https://dc.lft.to/lastmile_qr_scan"}, "is_reserved": 0, "fusion_lon": 0.0, "fusion_lat": 0.0, "lon": -77.01233033333334, "name": "40674f0c2895a46d14606d395302fe5c"}, {"bike_id": "d8556bf6f6bb94e8f2f60839bd6a38ec", "type": "electric_scooter", "is_disabled": 0, "lat": 38.91679383333334, "rental_uris": {"ios": "https://dc.lft.to/lastmile_qr_scan", "android": "https://dc.lft.to/lastmile_qr_scan"}, "is_reserved": 0, "fusion_lon": 0.0, "fusion_lat": 0.0, "lon": -77.02313883333333, "name": "d8556bf6f6bb94e8f2f60839bd6a38ec"}, {"bike_id": "21665194c237bf71f7bb301a89f74e7a", "type": "electric_scooter", "is_disabled": 0, "lat": 38.9074115, "rental_uris": {"ios": "https://dc.lft.to/lastmile_qr_scan", "android": "https://dc.lft.to/lastmile_qr_scan"}, "is_reserved": 0, "fusion_lon": 0.0, "fusion_lat": 0.0, "lon": -77.02981933333334, "name": "21665194c237bf71f7bb301a89f74e7a"}, {"bike_id": "0ab93f95435e00be80e8addae36500d3", "type": "electric_bike", "is_disabled": 0, "lat": 38.937028833333336, "rental_uris": {"ios": "https://dc.lft.to/lastmile_qr_scan", "android": "https://dc.lft.to/lastmile_qr_scan"}, "is_reserved": 0, "fusion_lon": 0.0, "fusion_lat": 0.0, "lon": -77.05606866666666, "name": "0ab93f95435e00be80e8addae36500d3"}, {"bike_id": "262ee7c0ad264afbb6625c0f956cc3ba", "type": "electric_scooter", "is_disabled": 0, "lat": 38.921097, "rental_uris": {"ios": "https://dc.lft.to/lastmile_qr_scan", "android": "https://dc.lft.to/lastmile_qr_scan"}, "is_reserved": 0, "fusion_lon": 0.0, "fusion_lat": 0.0, "lon": -77.06331916666667, "name": "262ee7c0ad264afbb6625c0f956cc3ba"}, {"bike_id": "6f30317797c2b3f38a74335d585b063f", "type": "electric_bike", "is_disabled": 0, "lat": 38.83159783333333, "rental_uris": {"ios": "https://dc.lft.to/lastmile_qr_scan", "android": "https://dc.lft.to/lastmile_qr_scan"}, "is_reserved": 0, "fusion_lon": 0.0, "fusion_lat": 0.0, "lon": -76.99543766666666, "name": "6f30317797c2b3f38a74335d585b063f"}, {"bike_id": "3bfacd56edfa27001149004aa474ac7b", "type": "electric_scooter", "is_disabled": 0, "lat": 38.897226, "rental_uris": {"ios": "https://dc.lft.to/lastmile_qr_scan", "android": "https://dc.lft.to/lastmile_qr_scan"}, "is_reserved": 0, "fusion_lon": 0.0, "fusion_lat": 0.0, "lon": -77.02734683333334, "name": "3bfacd56edfa27001149004aa474ac7b"}, {"bike_id": "bbcf1cd11579fc343dc6060fe88052f9", "type": "electric_scooter", "is_disabled": 0, "lat": 38.935472833333336, "rental_uris": {"ios": "https://dc.lft.to/lastmile_qr_scan", "android": "https://dc.lft.to/lastmile_qr_scan"}, "is_reserved": 0, "fusion_lon": 0.0, "fusion_lat": 0.0, "lon": -77.02505483333333, "name": "bbcf1cd11579fc343dc6060fe88052f9"}, {"bike_id": "4ceec5e70d3e19416a698d20ab6b8b48", "type": "electric_scooter", "is_disabled": 0, "lat": 38.9049985, "rental_uris": {"ios": "https://dc.lft.to/lastmile_qr_scan", "android": "https://dc.lft.to/lastmile_qr_scan"}, "is_reserved": 0, "fusion_lon": 0.0, "fusion_lat": 0.0, "lon": -77.06887533333334, "name": "4ceec5e70d3e19416a698d20ab6b8b48"}, {"bike_id": "b273c528d0e9b1f0c6f4bb0ff8bfdd41", "type": "electric_scooter", "is_disabled": 0, "lat": 38.920490666666666, "rental_uris": {"ios": "https://dc.lft.to/lastmile_qr_scan", "android": "https://dc.lft.to/lastmile_qr_scan"}, "is_reserved": 0, "fusion_lon": 0.0, "fusion_lat": 0.0, "lon": -77.03412683333333, "name": "b273c528d0e9b1f0c6f4bb0ff8bfdd41"}, {"bike_id": "70ffa7b9c4526ef40277aaf8c45deaa8", "type": "electric_scooter", "is_disabled": 0, "lat": 38.887118, "rental_uris": {"ios": "https://dc.lft.to/lastmile_qr_scan", "android": "https://dc.lft.to/lastmile_qr_scan"}, "is_reserved": 0, "fusion_lon": 0.0, "fusion_lat": 0.0, "lon": -77.017748, "name": "70ffa7b9c4526ef40277aaf8c45deaa8"}, {"bike_id": "aa78aae05e3aa025a564ef4db26a18bc", "type": "electric_scooter", "is_disabled": 0, "lat": 38.89913833333333, "rental_uris": {"ios": "https://dc.lft.to/lastmile_qr_scan", "android": "https://dc.lft.to/lastmile_qr_scan"}, "is_reserved": 0, "fusion_lon": 0.0, "fusion_lat": 0.0, "lon": -76.93368266666667, "name": "aa78aae05e3aa025a564ef4db26a18bc"}, {"bike_id": "32c9f1fd36c245cfd1a08259a0274336", "type": "electric_scooter", "is_disabled": 0, "lat": 38.938801, "rental_uris": {"ios": "https://dc.lft.to/lastmile_qr_scan", "android": "https://dc.lft.to/lastmile_qr_scan"}, "is_reserved": 0, "fusion_lon": 0.0, "fusion_lat": 0.0, "lon": -77.02470816666667, "name": "32c9f1fd36c245cfd1a08259a0274336"}, {"bike_id": "2e006fbb71d4177888456ead3b5b419f", "type": "electric_scooter", "is_disabled": 0, "lat": 38.91554283333333, "rental_uris": {"ios": "https://dc.lft.to/lastmile_qr_scan", "android": "https://dc.lft.to/lastmile_qr_scan"}, "is_reserved": 0, "fusion_lon": 0.0, "fusion_lat": 0.0, "lon": -77.03323616666667, "name": "2e006fbb71d4177888456ead3b5b419f"}, {"bike_id": "389632650ca075289598b86971a33a2c", "type": "electric_scooter", "is_disabled": 0, "lat": 38.965575666666666, "rental_uris": {"ios": "https://dc.lft.to/lastmile_qr_scan", "android": "https://dc.lft.to/lastmile_qr_scan"}, "is_reserved": 0, "fusion_lon": 0.0, "fusion_lat": 0.0, "lon": -77.0020575, "name": "389632650ca075289598b86971a33a2c"}, {"bike_id": "ba264ecaf0bc0de54facef3fd4289003", "type": "electric_scooter", "is_disabled": 0, "lat": 38.892213166666664, "rental_uris": {"ios": "https://dc.lft.to/lastmile_qr_scan", "android": "https://dc.lft.to/lastmile_qr_scan"}, "is_reserved": 0, "fusion_lon": 0.0, "fusion_lat": 0.0, "lon": -77.04369816666667, "name": "ba264ecaf0bc0de54facef3fd4289003"}, {"bike_id": "f3a373fe6eb2b6a2aa0a7c5deb6feeda", "type": "electric_scooter", "is_disabled": 0, "lat": 38.936115666666666, "rental_uris": {"ios": "https://dc.lft.to/lastmile_qr_scan", "android": "https://dc.lft.to/lastmile_qr_scan"}, "is_reserved": 0, "fusion_lon": 0.0, "fusion_lat": 0.0, "lon": -77.05897083333333, "name": "f3a373fe6eb2b6a2aa0a7c5deb6feeda"}, {"bike_id": "e3f90ef32a18ceb671b0de8a239145cf", "type": "electric_scooter", "is_disabled": 0, "lat": 38.887418833333335, "rental_uris": {"ios": "https://dc.lft.to/lastmile_qr_scan", "android": "https://dc.lft.to/lastmile_qr_scan"}, "is_reserved": 0, "fusion_lon": 0.0, "fusion_lat": 0.0, "lon": -77.02564366666667, "name": "e3f90ef32a18ceb671b0de8a239145cf"}, {"bike_id": "b71a3c12af9fccbd6018327b1177adef", "type": "electric_scooter", "is_disabled": 0, "lat": 38.925986, "rental_uris": {"ios": "https://dc.lft.to/lastmile_qr_scan", "android": "https://dc.lft.to/lastmile_qr_scan"}, "is_reserved": 0, "fusion_lon": 0.0, "fusion_lat": 0.0, "lon": -77.021558, "name": "b71a3c12af9fccbd6018327b1177adef"}, {"bike_id": "45aa170212f680c5ce9a778c7d43b733", "type": "electric_scooter", "is_disabled": 0, "lat": 38.924689, "rental_uris": {"ios": "https://dc.lft.to/lastmile_qr_scan", "android": "https://dc.lft.to/lastmile_qr_scan"}, "is_reserved": 0, "fusion_lon": 0.0, "fusion_lat": 0.0, "lon": -77.03795666666667, "name": "45aa170212f680c5ce9a778c7d43b733"}, {"bike_id": "b4a60a3c7e7fc854dfc1133bf0f8ff99", "type": "electric_scooter", "is_disabled": 0, "lat": 38.932476, "rental_uris": {"ios": "https://dc.lft.to/lastmile_qr_scan", "android": "https://dc.lft.to/lastmile_qr_scan"}, "is_reserved": 0, "fusion_lon": 0.0, "fusion_lat": 0.0, "lon": -77.03272183333333, "name": "b4a60a3c7e7fc854dfc1133bf0f8ff99"}, {"bike_id": "41c86afddedd651dd5e9e9c5858e8103", "type": "electric_scooter", "is_disabled": 0, "lat": 38.90966216666666, "rental_uris": {"ios": "https://dc.lft.to/lastmile_qr_scan", "android": "https://dc.lft.to/lastmile_qr_scan"}, "is_reserved": 0, "fusion_lon": 0.0, "fusion_lat": 0.0, "lon": -77.01720766666666, "name": "41c86afddedd651dd5e9e9c5858e8103"}, {"bike_id": "3f6a6afb0e6c28d08c5d149b46e86268", "type": "electric_scooter", "is_disabled": 0, "lat": 38.91417783333333, "rental_uris": {"ios": "https://dc.lft.to/lastmile_qr_scan", "android": "https://dc.lft.to/lastmile_qr_scan"}, "is_reserved": 0, "fusion_lon": 0.0, "fusion_lat": 0.0, "lon": -77.039954, "name": "3f6a6afb0e6c28d08c5d149b46e86268"}, {"bike_id": "fc35020b3490e1018fdbe87b9f1a3801", "type": "electric_scooter", "is_disabled": 0, "lat": 38.91993083333333, "rental_uris": {"ios": "https://dc.lft.to/lastmile_qr_scan", "android": "https://dc.lft.to/lastmile_qr_scan"}, "is_reserved": 0, "fusion_lon": 0.0, "fusion_lat": 0.0, "lon": -77.03964566666667, "name": "fc35020b3490e1018fdbe87b9f1a3801"}, {"bike_id": "3295b94f14f61ba2f48f820fb56e8852", "type": "electric_scooter", "is_disabled": 0, "lat": 38.882976166666666, "rental_uris": {"ios": "https://dc.lft.to/lastmile_qr_scan", "android": "https://dc.lft.to/lastmile_qr_scan"}, "is_reserved": 0, "fusion_lon": 0.0, "fusion_lat": 0.0, "lon": -76.94204783333333, "name": "3295b94f14f61ba2f48f820fb56e8852"}, {"bike_id": "cafe2419ceed397f4f76a0fbfed65340", "type": "electric_scooter", "is_disabled": 0, "lat": 38.90262033333333, "rental_uris": {"ios": "https://dc.lft.to/lastmile_qr_scan", "android": "https://dc.lft.to/lastmile_qr_scan"}, "is_reserved": 0, "fusion_lon": 0.0, "fusion_lat": 0.0, "lon": -77.01833416666666, "name": "cafe2419ceed397f4f76a0fbfed65340"}, {"bike_id": "850d47202c99b0360a4c2fefce55fb02", "type": "electric_scooter", "is_disabled": 0, "lat": 38.9232235, "rental_uris": {"ios": "https://dc.lft.to/lastmile_qr_scan", "android": "https://dc.lft.to/lastmile_qr_scan"}, "is_reserved": 0, "fusion_lon": 0.0, "fusion_lat": 0.0, "lon": -77.02969766666666, "name": "850d47202c99b0360a4c2fefce55fb02"}, {"bike_id": "42de32a2d5e8cc039dadf0feccf2c4c0", "type": "electric_scooter", "is_disabled": 0, "lat": 38.9215005, "rental_uris": {"ios": "https://dc.lft.to/lastmile_qr_scan", "android": "https://dc.lft.to/lastmile_qr_scan"}, "is_reserved": 0, "fusion_lon": 0.0, "fusion_lat": 0.0, "lon": -77.03442433333333, "name": "42de32a2d5e8cc039dadf0feccf2c4c0"}, {"bike_id": "a844f98e7bb6c2168bc487dda260fa8a", "type": "electric_scooter", "is_disabled": 0, "lat": 38.915916833333334, "rental_uris": {"ios": "https://dc.lft.to/lastmile_qr_scan", "android": "https://dc.lft.to/lastmile_qr_scan"}, "is_reserved": 0, "fusion_lon": 0.0, "fusion_lat": 0.0, "lon": -77.001974, "name": "a844f98e7bb6c2168bc487dda260fa8a"}, {"bike_id": "085cc3432e4d81f2b304c836319fff20", "type": "electric_scooter", "is_disabled": 0, "lat": 38.933881166666666, "rental_uris": {"ios": "https://dc.lft.to/lastmile_qr_scan", "android": "https://dc.lft.to/lastmile_qr_scan"}, "is_reserved": 0, "fusion_lon": 0.0, "fusion_lat": 0.0, "lon": -77.05741116666667, "name": "085cc3432e4d81f2b304c836319fff20"}, {"bike_id": "f10271ead7d19d37973ffcd61d38270e", "type": "electric_scooter", "is_disabled": 0, "lat": 38.89497, "rental_uris": {"ios": "https://dc.lft.to/lastmile_qr_scan", "android": "https://dc.lft.to/lastmile_qr_scan"}, "is_reserved": 0, "fusion_lon": 0.0, "fusion_lat": 0.0, "lon": -77.02288283333333, "name": "f10271ead7d19d37973ffcd61d38270e"}, {"bike_id": "dc0a2513f5a3564acb39f4c57934ce0b", "type": "electric_scooter", "is_disabled": 0, "lat": 38.89738766666667, "rental_uris": {"ios": "https://dc.lft.to/lastmile_qr_scan", "android": "https://dc.lft.to/lastmile_qr_scan"}, "is_reserved": 0, "fusion_lon": 0.0, "fusion_lat": 0.0, "lon": -77.04679716666666, "name": "dc0a2513f5a3564acb39f4c57934ce0b"}, {"bike_id": "209451156221e0b59f080575fb81f35b", "type": "electric_scooter", "is_disabled": 0, "lat": 38.9181935, "rental_uris": {"ios": "https://dc.lft.to/lastmile_qr_scan", "android": "https://dc.lft.to/lastmile_qr_scan"}, "is_reserved": 0, "fusion_lon": 0.0, "fusion_lat": 0.0, "lon": -77.049443, "name": "209451156221e0b59f080575fb81f35b"}, {"bike_id": "6469cfe7cdce389c2ca777b5db7c74ff", "type": "electric_scooter", "is_disabled": 0, "lat": 38.91682566666667, "rental_uris": {"ios": "https://dc.lft.to/lastmile_qr_scan", "android": "https://dc.lft.to/lastmile_qr_scan"}, "is_reserved": 0, "fusion_lon": 0.0, "fusion_lat": 0.0, "lon": -77.02959016666667, "name": "6469cfe7cdce389c2ca777b5db7c74ff"}, {"bike_id": "d9fc9e7908c3625f6ce3d3085e2a615e", "type": "electric_scooter", "is_disabled": 0, "lat": 38.907242333333336, "rental_uris": {"ios": "https://dc.lft.to/lastmile_qr_scan", "android": "https://dc.lft.to/lastmile_qr_scan"}, "is_reserved": 0, "fusion_lon": 0.0, "fusion_lat": 0.0, "lon": -77.03277566666667, "name": "d9fc9e7908c3625f6ce3d3085e2a615e"}, {"bike_id": "9788400d85388c2d96c52b1385d5c490", "type": "electric_scooter", "is_disabled": 0, "lat": 38.92995583333333, "rental_uris": {"ios": "https://dc.lft.to/lastmile_qr_scan", "android": "https://dc.lft.to/lastmile_qr_scan"}, "is_reserved": 0, "fusion_lon": 0.0, "fusion_lat": 0.0, "lon": -77.02369916666666, "name": "9788400d85388c2d96c52b1385d5c490"}, {"bike_id": "5e5e1274b4d2d925b8cfe1d373ad90c7", "type": "electric_scooter", "is_disabled": 0, "lat": 38.88118933333333, "rental_uris": {"ios": "https://dc.lft.to/lastmile_qr_scan", "android": "https://dc.lft.to/lastmile_qr_scan"}, "is_reserved": 0, "fusion_lon": 0.0, "fusion_lat": 0.0, "lon": -77.0018145, "name": "5e5e1274b4d2d925b8cfe1d373ad90c7"}, {"bike_id": "7535768c7787d890e17eaa0849375abd", "type": "electric_scooter", "is_disabled": 0, "lat": 38.9119065, "rental_uris": {"ios": "https://dc.lft.to/lastmile_qr_scan", "android": "https://dc.lft.to/lastmile_qr_scan"}, "is_reserved": 0, "fusion_lon": 0.0, "fusion_lat": 0.0, "lon": -77.03834116666667, "name": "7535768c7787d890e17eaa0849375abd"}, {"bike_id": "0125190caea3916961a493af83d27e7f", "type": "electric_bike", "is_disabled": 0, "lat": 39.05276083333333, "rental_uris": {"ios": "https://dc.lft.to/lastmile_qr_scan", "android": "https://dc.lft.to/lastmile_qr_scan"}, "is_reserved": 0, "fusion_lon": 0.0, "fusion_lat": 0.0, "lon": -77.08066983333333, "name": "0125190caea3916961a493af83d27e7f"}, {"bike_id": "8d1f89e5dfa80491fe87ae2552c87d46", "type": "electric_scooter", "is_disabled": 0, "lat": 38.87356783333333, "rental_uris": {"ios": "https://dc.lft.to/lastmile_qr_scan", "android": "https://dc.lft.to/lastmile_qr_scan"}, "is_reserved": 0, "fusion_lon": 0.0, "fusion_lat": 0.0, "lon": -76.9702745, "name": "8d1f89e5dfa80491fe87ae2552c87d46"}, {"bike_id": "0e8b5ef90ae1b9b71e434dd4fc520a35", "type": "electric_scooter", "is_disabled": 0, "lat": 38.93336, "rental_uris": {"ios": "https://dc.lft.to/lastmile_qr_scan", "android": "https://dc.lft.to/lastmile_qr_scan"}, "is_reserved": 0, "fusion_lon": 0.0, "fusion_lat": 0.0, "lon": -77.02058616666666, "name": "0e8b5ef90ae1b9b71e434dd4fc520a35"}, {"bike_id": "af730775c91566cb14c8226714f3c6a5", "type": "electric_scooter", "is_disabled": 0, "lat": 38.86702366666667, "rental_uris": {"ios": "https://dc.lft.to/lastmile_qr_scan", "android": "https://dc.lft.to/lastmile_qr_scan"}, "is_reserved": 0, "fusion_lon": 0.0, "fusion_lat": 0.0, "lon": -76.98715366666667, "name": "af730775c91566cb14c8226714f3c6a5"}, {"bike_id": "7e3716157f4d15f8ccb8e7afc02b9f1f", "type": "electric_scooter", "is_disabled": 0, "lat": 38.91422583333333, "rental_uris": {"ios": "https://dc.lft.to/lastmile_qr_scan", "android": "https://dc.lft.to/lastmile_qr_scan"}, "is_reserved": 0, "fusion_lon": 0.0, "fusion_lat": 0.0, "lon": -77.01985066666667, "name": "7e3716157f4d15f8ccb8e7afc02b9f1f"}, {"bike_id": "ab29b97cd49e61d9b5f10607582483bc", "type": "electric_scooter", "is_disabled": 0, "lat": 38.911156, "rental_uris": {"ios": "https://dc.lft.to/lastmile_qr_scan", "android": "https://dc.lft.to/lastmile_qr_scan"}, "is_reserved": 0, "fusion_lon": 0.0, "fusion_lat": 0.0, "lon": -77.04216866666667, "name": "ab29b97cd49e61d9b5f10607582483bc"}, {"bike_id": "23dd8a8c0d76807f58f1276a423c346f", "type": "electric_scooter", "is_disabled": 0, "lat": 38.92106733333333, "rental_uris": {"ios": "https://dc.lft.to/lastmile_qr_scan", "android": "https://dc.lft.to/lastmile_qr_scan"}, "is_reserved": 0, "fusion_lon": 0.0, "fusion_lat": 0.0, "lon": -77.04172016666666, "name": "23dd8a8c0d76807f58f1276a423c346f"}, {"bike_id": "333feba805d86506f68bddc67925c5ec", "type": "electric_scooter", "is_disabled": 0, "lat": 38.887072, "rental_uris": {"ios": "https://dc.lft.to/lastmile_qr_scan", "android": "https://dc.lft.to/lastmile_qr_scan"}, "is_reserved": 0, "fusion_lon": 0.0, "fusion_lat": 0.0, "lon": -77.01773066666667, "name": "333feba805d86506f68bddc67925c5ec"}, {"bike_id": "01b20a01c3ab4992735314843ce6bd5e", "type": "electric_scooter", "is_disabled": 0, "lat": 38.917098833333334, "rental_uris": {"ios": "https://dc.lft.to/lastmile_qr_scan", "android": "https://dc.lft.to/lastmile_qr_scan"}, "is_reserved": 0, "fusion_lon": 0.0, "fusion_lat": 0.0, "lon": -77.02414916666666, "name": "01b20a01c3ab4992735314843ce6bd5e"}, {"bike_id": "11d7b7ea317427bb7e662add686df8da", "type": "electric_bike", "is_disabled": 0, "lat": 39.013701, "rental_uris": {"ios": "https://dc.lft.to/lastmile_qr_scan", "android": "https://dc.lft.to/lastmile_qr_scan"}, "is_reserved": 0, "fusion_lon": 0.0, "fusion_lat": 0.0, "lon": -76.9213565, "name": "11d7b7ea317427bb7e662add686df8da"}, {"bike_id": "7356047284cf7673103edb6f1d3ee690", "type": "electric_scooter", "is_disabled": 0, "lat": 38.9081735, "rental_uris": {"ios": "https://dc.lft.to/lastmile_qr_scan", "android": "https://dc.lft.to/lastmile_qr_scan"}, "is_reserved": 0, "fusion_lon": 0.0, "fusion_lat": 0.0, "lon": -76.99711283333333, "name": "7356047284cf7673103edb6f1d3ee690"}, {"bike_id": "572232b3fd593b2bfcccc0e034875f4f", "type": "electric_scooter", "is_disabled": 0, "lat": 38.92260533333334, "rental_uris": {"ios": "https://dc.lft.to/lastmile_qr_scan", "android": "https://dc.lft.to/lastmile_qr_scan"}, "is_reserved": 0, "fusion_lon": 0.0, "fusion_lat": 0.0, "lon": -77.02037583333333, "name": "572232b3fd593b2bfcccc0e034875f4f"}, {"bike_id": "985161a856c58942506c906e5b71d29e", "type": "electric_scooter", "is_disabled": 0, "lat": 38.9138475, "rental_uris": {"ios": "https://dc.lft.to/lastmile_qr_scan", "android": "https://dc.lft.to/lastmile_qr_scan"}, "is_reserved": 0, "fusion_lon": 0.0, "fusion_lat": 0.0, "lon": -77.03211516666667, "name": "985161a856c58942506c906e5b71d29e"}, {"bike_id": "3ff50d2189f4db2a1db53bf60c78353a", "type": "electric_scooter", "is_disabled": 0, "lat": 38.8960495, "rental_uris": {"ios": "https://dc.lft.to/lastmile_qr_scan", "android": "https://dc.lft.to/lastmile_qr_scan"}, "is_reserved": 0, "fusion_lon": 0.0, "fusion_lat": 0.0, "lon": -77.0093165, "name": "3ff50d2189f4db2a1db53bf60c78353a"}, {"bike_id": "ff80cffdea297e655e898bd6e300f34d", "type": "electric_scooter", "is_disabled": 0, "lat": 38.916960833333334, "rental_uris": {"ios": "https://dc.lft.to/lastmile_qr_scan", "android": "https://dc.lft.to/lastmile_qr_scan"}, "is_reserved": 0, "fusion_lon": 0.0, "fusion_lat": 0.0, "lon": -77.03767866666666, "name": "ff80cffdea297e655e898bd6e300f34d"}, {"bike_id": "75af8193519c53f3c6816e3989d8cd0c", "type": "electric_bike", "is_disabled": 0, "lat": 38.921482833333336, "rental_uris": {"ios": "https://dc.lft.to/lastmile_qr_scan", "android": "https://dc.lft.to/lastmile_qr_scan"}, "is_reserved": 0, "fusion_lon": 0.0, "fusion_lat": 0.0, "lon": -77.03662883333334, "name": "75af8193519c53f3c6816e3989d8cd0c"}, {"bike_id": "c321dd64c2be6e32f8b29364b540abe6", "type": "electric_scooter", "is_disabled": 0, "lat": 38.91776216666667, "rental_uris": {"ios": "https://dc.lft.to/lastmile_qr_scan", "android": "https://dc.lft.to/lastmile_qr_scan"}, "is_reserved": 0, "fusion_lon": 0.0, "fusion_lat": 0.0, "lon": -77.029541, "name": "c321dd64c2be6e32f8b29364b540abe6"}, {"bike_id": "d7985009674d8c228b503d88021d2df7", "type": "electric_scooter", "is_disabled": 0, "lat": 38.8854565, "rental_uris": {"ios": "https://dc.lft.to/lastmile_qr_scan", "android": "https://dc.lft.to/lastmile_qr_scan"}, "is_reserved": 0, "fusion_lon": 0.0, "fusion_lat": 0.0, "lon": -77.00581816666667, "name": "d7985009674d8c228b503d88021d2df7"}, {"bike_id": "8b892aeee98e7a872ddead14f47adb51", "type": "electric_scooter", "is_disabled": 0, "lat": 38.92399316666667, "rental_uris": {"ios": "https://dc.lft.to/lastmile_qr_scan", "android": "https://dc.lft.to/lastmile_qr_scan"}, "is_reserved": 0, "fusion_lon": 0.0, "fusion_lat": 0.0, "lon": -76.99375183333333, "name": "8b892aeee98e7a872ddead14f47adb51"}, {"bike_id": "940141e46cb651c9035b747031f43188", "type": "electric_scooter", "is_disabled": 0, "lat": 38.920218166666665, "rental_uris": {"ios": "https://dc.lft.to/lastmile_qr_scan", "android": "https://dc.lft.to/lastmile_qr_scan"}, "is_reserved": 0, "fusion_lon": 0.0, "fusion_lat": 0.0, "lon": -77.04170483333333, "name": "940141e46cb651c9035b747031f43188"}, {"bike_id": "a50206d3f4363a49b3995cf45b0cdd98", "type": "electric_scooter", "is_disabled": 0, "lat": 38.9565015, "rental_uris": {"ios": "https://dc.lft.to/lastmile_qr_scan", "android": "https://dc.lft.to/lastmile_qr_scan"}, "is_reserved": 0, "fusion_lon": 0.0, "fusion_lat": 0.0, "lon": -77.01963783333333, "name": "a50206d3f4363a49b3995cf45b0cdd98"}, {"bike_id": "3fd412c9c0c8df87198fcaef6ed10a83", "type": "electric_scooter", "is_disabled": 0, "lat": 38.93263783333333, "rental_uris": {"ios": "https://dc.lft.to/lastmile_qr_scan", "android": "https://dc.lft.to/lastmile_qr_scan"}, "is_reserved": 0, "fusion_lon": 0.0, "fusion_lat": 0.0, "lon": -77.0349795, "name": "3fd412c9c0c8df87198fcaef6ed10a83"}, {"bike_id": "5674d90d977aafc1f5cd4bc0cdbd620b", "type": "electric_scooter", "is_disabled": 0, "lat": 38.9036975, "rental_uris": {"ios": "https://dc.lft.to/lastmile_qr_scan", "android": "https://dc.lft.to/lastmile_qr_scan"}, "is_reserved": 0, "fusion_lon": 0.0, "fusion_lat": 0.0, "lon": -77.02942166666666, "name": "5674d90d977aafc1f5cd4bc0cdbd620b"}, {"bike_id": "9fcf24ba722f35f27a2cb075c0cd2af5", "type": "electric_scooter", "is_disabled": 0, "lat": 38.91908133333333, "rental_uris": {"ios": "https://dc.lft.to/lastmile_qr_scan", "android": "https://dc.lft.to/lastmile_qr_scan"}, "is_reserved": 0, "fusion_lon": 0.0, "fusion_lat": 0.0, "lon": -77.0135735, "name": "9fcf24ba722f35f27a2cb075c0cd2af5"}, {"bike_id": "471bde0e30d4eff106f610a922f0333d", "type": "electric_scooter", "is_disabled": 0, "lat": 38.93478416666667, "rental_uris": {"ios": "https://dc.lft.to/lastmile_qr_scan", "android": "https://dc.lft.to/lastmile_qr_scan"}, "is_reserved": 0, "fusion_lon": 0.0, "fusion_lat": 0.0, "lon": -77.08151566666666, "name": "471bde0e30d4eff106f610a922f0333d"}, {"bike_id": "7e3ee16179758ba3f0aa204dd9214572", "type": "electric_scooter", "is_disabled": 0, "lat": 38.882713833333334, "rental_uris": {"ios": "https://dc.lft.to/lastmile_qr_scan", "android": "https://dc.lft.to/lastmile_qr_scan"}, "is_reserved": 0, "fusion_lon": 0.0, "fusion_lat": 0.0, "lon": -76.99018033333333, "name": "7e3ee16179758ba3f0aa204dd9214572"}, {"bike_id": "6c4e5fd7fde73530b3fa8a79d9c8bfc5", "type": "electric_scooter", "is_disabled": 0, "lat": 38.892363833333334, "rental_uris": {"ios": "https://dc.lft.to/lastmile_qr_scan", "android": "https://dc.lft.to/lastmile_qr_scan"}, "is_reserved": 0, "fusion_lon": 0.0, "fusion_lat": 0.0, "lon": -76.94095416666667, "name": "6c4e5fd7fde73530b3fa8a79d9c8bfc5"}, {"bike_id": "e259bccb5cabfa082153c50e9577fc4e", "type": "electric_scooter", "is_disabled": 0, "lat": 38.91587366666667, "rental_uris": {"ios": "https://dc.lft.to/lastmile_qr_scan", "android": "https://dc.lft.to/lastmile_qr_scan"}, "is_reserved": 0, "fusion_lon": 0.0, "fusion_lat": 0.0, "lon": -77.0229355, "name": "e259bccb5cabfa082153c50e9577fc4e"}, {"bike_id": "e9bc41c75127611f9276ed785748d3e7", "type": "electric_scooter", "is_disabled": 0, "lat": 38.91641933333333, "rental_uris": {"ios": "https://dc.lft.to/lastmile_qr_scan", "android": "https://dc.lft.to/lastmile_qr_scan"}, "is_reserved": 0, "fusion_lon": 0.0, "fusion_lat": 0.0, "lon": -77.00049266666667, "name": "e9bc41c75127611f9276ed785748d3e7"}, {"bike_id": "e0e592a04780f0da834b3503a336a192", "type": "electric_scooter", "is_disabled": 0, "lat": 38.94716416666667, "rental_uris": {"ios": "https://dc.lft.to/lastmile_qr_scan", "android": "https://dc.lft.to/lastmile_qr_scan"}, "is_reserved": 0, "fusion_lon": 0.0, "fusion_lat": 0.0, "lon": -77.03327033333333, "name": "e0e592a04780f0da834b3503a336a192"}, {"bike_id": "8d7a481107c8f33dd671d3f2705143c3", "type": "electric_scooter", "is_disabled": 0, "lat": 38.928620333333335, "rental_uris": {"ios": "https://dc.lft.to/lastmile_qr_scan", "android": "https://dc.lft.to/lastmile_qr_scan"}, "is_reserved": 0, "fusion_lon": 0.0, "fusion_lat": 0.0, "lon": -77.0362885, "name": "8d7a481107c8f33dd671d3f2705143c3"}, {"bike_id": "cf89daec935487d28ea03cd1c96c5492", "type": "electric_scooter", "is_disabled": 0, "lat": 38.89798183333333, "rental_uris": {"ios": "https://dc.lft.to/lastmile_qr_scan", "android": "https://dc.lft.to/lastmile_qr_scan"}, "is_reserved": 0, "fusion_lon": 0.0, "fusion_lat": 0.0, "lon": -77.0247985, "name": "cf89daec935487d28ea03cd1c96c5492"}, {"bike_id": "070148a96af1abada77f6a8dec034786", "type": "electric_scooter", "is_disabled": 0, "lat": 38.906612333333335, "rental_uris": {"ios": "https://dc.lft.to/lastmile_qr_scan", "android": "https://dc.lft.to/lastmile_qr_scan"}, "is_reserved": 0, "fusion_lon": 0.0, "fusion_lat": 0.0, "lon": -77.03903266666667, "name": "070148a96af1abada77f6a8dec034786"}, {"bike_id": "3a155dd737e385259cd8fa1ec59cd169", "type": "electric_scooter", "is_disabled": 0, "lat": 38.888717666666665, "rental_uris": {"ios": "https://dc.lft.to/lastmile_qr_scan", "android": "https://dc.lft.to/lastmile_qr_scan"}, "is_reserved": 0, "fusion_lon": 0.0, "fusion_lat": 0.0, "lon": -76.990294, "name": "3a155dd737e385259cd8fa1ec59cd169"}, {"bike_id": "06651fafc29c7ece3a738d91467d7c1c", "type": "electric_scooter", "is_disabled": 0, "lat": 38.9351155, "rental_uris": {"ios": "https://dc.lft.to/lastmile_qr_scan", "android": "https://dc.lft.to/lastmile_qr_scan"}, "is_reserved": 0, "fusion_lon": 0.0, "fusion_lat": 0.0, "lon": -77.03291316666666, "name": "06651fafc29c7ece3a738d91467d7c1c"}, {"bike_id": "9977117f0f9c6dc7491b7897ddfac26e", "type": "electric_scooter", "is_disabled": 0, "lat": 38.85970016666667, "rental_uris": {"ios": "https://dc.lft.to/lastmile_qr_scan", "android": "https://dc.lft.to/lastmile_qr_scan"}, "is_reserved": 0, "fusion_lon": 0.0, "fusion_lat": 0.0, "lon": -76.99160683333334, "name": "9977117f0f9c6dc7491b7897ddfac26e"}, {"bike_id": "5dabd2a9a3ba7d452c3b39dfb05945e4", "type": "electric_scooter", "is_disabled": 0, "lat": 38.941839333333334, "rental_uris": {"ios": "https://dc.lft.to/lastmile_qr_scan", "android": "https://dc.lft.to/lastmile_qr_scan"}, "is_reserved": 0, "fusion_lon": 0.0, "fusion_lat": 0.0, "lon": -77.02492183333334, "name": "5dabd2a9a3ba7d452c3b39dfb05945e4"}, {"bike_id": "c559d8014a6fdf5e53a693aba99bc85d", "type": "electric_bike", "is_disabled": 0, "lat": 38.92637966666667, "rental_uris": {"ios": "https://dc.lft.to/lastmile_qr_scan", "android": "https://dc.lft.to/lastmile_qr_scan"}, "is_reserved": 0, "fusion_lon": 0.0, "fusion_lat": 0.0, "lon": -76.984231, "name": "c559d8014a6fdf5e53a693aba99bc85d"}, {"bike_id": "613e8a8cc84d8fbd903b414640b47b18", "type": "electric_bike", "is_disabled": 0, "lat": 38.930610333333334, "rental_uris": {"ios": "https://dc.lft.to/lastmile_qr_scan", "android": "https://dc.lft.to/lastmile_qr_scan"}, "is_reserved": 0, "fusion_lon": 0.0, "fusion_lat": 0.0, "lon": -77.03694333333334, "name": "613e8a8cc84d8fbd903b414640b47b18"}, {"bike_id": "3e86f99ca38faaca1ac3d977b87e22b6", "type": "electric_bike", "is_disabled": 0, "lat": 38.9366385, "rental_uris": {"ios": "https://dc.lft.to/lastmile_qr_scan", "android": "https://dc.lft.to/lastmile_qr_scan"}, "is_reserved": 0, "fusion_lon": 0.0, "fusion_lat": 0.0, "lon": -76.95201983333334, "name": "3e86f99ca38faaca1ac3d977b87e22b6"}, {"bike_id": "da160995625ba6f4a8a1aab84775839e", "type": "electric_scooter", "is_disabled": 0, "lat": 38.916851333333334, "rental_uris": {"ios": "https://dc.lft.to/lastmile_qr_scan", "android": "https://dc.lft.to/lastmile_qr_scan"}, "is_reserved": 0, "fusion_lon": 0.0, "fusion_lat": 0.0, "lon": -77.02955966666667, "name": "da160995625ba6f4a8a1aab84775839e"}, {"bike_id": "b2829241c0a0f4edc2f24f7cfd0d2f48", "type": "electric_scooter", "is_disabled": 0, "lat": 38.9072765, "rental_uris": {"ios": "https://dc.lft.to/lastmile_qr_scan", "android": "https://dc.lft.to/lastmile_qr_scan"}, "is_reserved": 0, "fusion_lon": 0.0, "fusion_lat": 0.0, "lon": -77.02977016666667, "name": "b2829241c0a0f4edc2f24f7cfd0d2f48"}, {"bike_id": "15eda90292ccbfa0ab7abd98d3671f46", "type": "electric_bike", "is_disabled": 0, "lat": 38.92448, "rental_uris": {"ios": "https://dc.lft.to/lastmile_qr_scan", "android": "https://dc.lft.to/lastmile_qr_scan"}, "is_reserved": 0, "fusion_lon": 0.0, "fusion_lat": 0.0, "lon": -77.22548416666666, "name": "15eda90292ccbfa0ab7abd98d3671f46"}, {"bike_id": "51b5c9dae97d6e4557218ab217929802", "type": "electric_scooter", "is_disabled": 0, "lat": 38.903843, "rental_uris": {"ios": "https://dc.lft.to/lastmile_qr_scan", "android": "https://dc.lft.to/lastmile_qr_scan"}, "is_reserved": 0, "fusion_lon": 0.0, "fusion_lat": 0.0, "lon": -77.02952583333334, "name": "51b5c9dae97d6e4557218ab217929802"}, {"bike_id": "debad7c4441d1f409090176ea7d381b3", "type": "electric_bike", "is_disabled": 0, "lat": 38.90205683333333, "rental_uris": {"ios": "https://dc.lft.to/lastmile_qr_scan", "android": "https://dc.lft.to/lastmile_qr_scan"}, "is_reserved": 0, "fusion_lon": 0.0, "fusion_lat": 0.0, "lon": -76.9740815, "name": "debad7c4441d1f409090176ea7d381b3"}, {"bike_id": "4df28962c6b578b5d31490f1bf9c9ed6", "type": "electric_scooter", "is_disabled": 0, "lat": 38.89725983333334, "rental_uris": {"ios": "https://dc.lft.to/lastmile_qr_scan", "android": "https://dc.lft.to/lastmile_qr_scan"}, "is_reserved": 0, "fusion_lon": 0.0, "fusion_lat": 0.0, "lon": -77.02169766666667, "name": "4df28962c6b578b5d31490f1bf9c9ed6"}, {"bike_id": "9c5035a444e64e9586f494d2bc211557", "type": "electric_scooter", "is_disabled": 0, "lat": 38.9002005, "rental_uris": {"ios": "https://dc.lft.to/lastmile_qr_scan", "android": "https://dc.lft.to/lastmile_qr_scan"}, "is_reserved": 0, "fusion_lon": 0.0, "fusion_lat": 0.0, "lon": -77.01167833333334, "name": "9c5035a444e64e9586f494d2bc211557"}, {"bike_id": "77d0029b873b19b93e3d317a40e45a29", "type": "electric_scooter", "is_disabled": 0, "lat": 38.906863333333334, "rental_uris": {"ios": "https://dc.lft.to/lastmile_qr_scan", "android": "https://dc.lft.to/lastmile_qr_scan"}, "is_reserved": 0, "fusion_lon": 0.0, "fusion_lat": 0.0, "lon": -77.02391166666666, "name": "77d0029b873b19b93e3d317a40e45a29"}, {"bike_id": "219ede40bf292e6dc05df1554ea204c6", "type": "electric_scooter", "is_disabled": 0, "lat": 38.941947, "rental_uris": {"ios": "https://dc.lft.to/lastmile_qr_scan", "android": "https://dc.lft.to/lastmile_qr_scan"}, "is_reserved": 0, "fusion_lon": 0.0, "fusion_lat": 0.0, "lon": -77.02430066666666, "name": "219ede40bf292e6dc05df1554ea204c6"}, {"bike_id": "fb2d803c460b2d7581061f58bdd6e72f", "type": "electric_scooter", "is_disabled": 0, "lat": 38.90650433333333, "rental_uris": {"ios": "https://dc.lft.to/lastmile_qr_scan", "android": "https://dc.lft.to/lastmile_qr_scan"}, "is_reserved": 0, "fusion_lon": 0.0, "fusion_lat": 0.0, "lon": -77.00974116666667, "name": "fb2d803c460b2d7581061f58bdd6e72f"}, {"bike_id": "efae6dc86af90dd8540131429374194d", "type": "electric_scooter", "is_disabled": 0, "lat": 38.92786533333334, "rental_uris": {"ios": "https://dc.lft.to/lastmile_qr_scan", "android": "https://dc.lft.to/lastmile_qr_scan"}, "is_reserved": 0, "fusion_lon": 0.0, "fusion_lat": 0.0, "lon": -77.02659383333334, "name": "efae6dc86af90dd8540131429374194d"}, {"bike_id": "4dc136ca18b6b590faf5b32d5e516cd1", "type": "electric_scooter", "is_disabled": 0, "lat": 38.91475616666666, "rental_uris": {"ios": "https://dc.lft.to/lastmile_qr_scan", "android": "https://dc.lft.to/lastmile_qr_scan"}, "is_reserved": 0, "fusion_lon": 0.0, "fusion_lat": 0.0, "lon": -77.04558633333333, "name": "4dc136ca18b6b590faf5b32d5e516cd1"}, {"bike_id": "0a1f61b40467bd619aff218b017cbcbe", "type": "electric_bike", "is_disabled": 0, "lat": 38.920824833333334, "rental_uris": {"ios": "https://dc.lft.to/lastmile_qr_scan", "android": "https://dc.lft.to/lastmile_qr_scan"}, "is_reserved": 0, "fusion_lon": 0.0, "fusion_lat": 0.0, "lon": -77.02427633333333, "name": "0a1f61b40467bd619aff218b017cbcbe"}, {"bike_id": "377fa6af7455e4de59d9e0c275cfef51", "type": "electric_bike", "is_disabled": 0, "lat": 38.970699833333335, "rental_uris": {"ios": "https://dc.lft.to/lastmile_qr_scan", "android": "https://dc.lft.to/lastmile_qr_scan"}, "is_reserved": 0, "fusion_lon": 0.0, "fusion_lat": 0.0, "lon": -76.93610366666667, "name": "377fa6af7455e4de59d9e0c275cfef51"}, {"bike_id": "c6b9e42bea6a126f8a87c591303fead3", "type": "electric_scooter", "is_disabled": 0, "lat": 38.90573783333333, "rental_uris": {"ios": "https://dc.lft.to/lastmile_qr_scan", "android": "https://dc.lft.to/lastmile_qr_scan"}, "is_reserved": 0, "fusion_lon": 0.0, "fusion_lat": 0.0, "lon": -76.97630183333334, "name": "c6b9e42bea6a126f8a87c591303fead3"}, {"bike_id": "39555f4dbc038e86632778de613ed567", "type": "electric_scooter", "is_disabled": 0, "lat": 38.9233345, "rental_uris": {"ios": "https://dc.lft.to/lastmile_qr_scan", "android": "https://dc.lft.to/lastmile_qr_scan"}, "is_reserved": 0, "fusion_lon": 0.0, "fusion_lat": 0.0, "lon": -77.0189775, "name": "39555f4dbc038e86632778de613ed567"}, {"bike_id": "c15ba5f1df95c75f632bd34c1d4334d7", "type": "electric_scooter", "is_disabled": 0, "lat": 38.90143333333333, "rental_uris": {"ios": "https://dc.lft.to/lastmile_qr_scan", "android": "https://dc.lft.to/lastmile_qr_scan"}, "is_reserved": 0, "fusion_lon": 0.0, "fusion_lat": 0.0, "lon": -77.01496366666667, "name": "c15ba5f1df95c75f632bd34c1d4334d7"}, {"bike_id": "99d399d28ed3ce973362daa6d5e258ca", "type": "electric_scooter", "is_disabled": 0, "lat": 38.928538, "rental_uris": {"ios": "https://dc.lft.to/lastmile_qr_scan", "android": "https://dc.lft.to/lastmile_qr_scan"}, "is_reserved": 0, "fusion_lon": 0.0, "fusion_lat": 0.0, "lon": -77.03619483333334, "name": "99d399d28ed3ce973362daa6d5e258ca"}, {"bike_id": "ef53f210fc0692b87f384c8f6f22be7d", "type": "electric_scooter", "is_disabled": 0, "lat": 38.904679, "rental_uris": {"ios": "https://dc.lft.to/lastmile_qr_scan", "android": "https://dc.lft.to/lastmile_qr_scan"}, "is_reserved": 0, "fusion_lon": 0.0, "fusion_lat": 0.0, "lon": -77.04339133333333, "name": "ef53f210fc0692b87f384c8f6f22be7d"}, {"bike_id": "0ac0dfdedb44d200eb413b820ad74e55", "type": "electric_scooter", "is_disabled": 0, "lat": 38.9248315, "rental_uris": {"ios": "https://dc.lft.to/lastmile_qr_scan", "android": "https://dc.lft.to/lastmile_qr_scan"}, "is_reserved": 0, "fusion_lon": 0.0, "fusion_lat": 0.0, "lon": -77.0310455, "name": "0ac0dfdedb44d200eb413b820ad74e55"}, {"bike_id": "656e6ed006b051f2ed2e6705e4111d0c", "type": "electric_scooter", "is_disabled": 0, "lat": 38.92244783333334, "rental_uris": {"ios": "https://dc.lft.to/lastmile_qr_scan", "android": "https://dc.lft.to/lastmile_qr_scan"}, "is_reserved": 0, "fusion_lon": 0.0, "fusion_lat": 0.0, "lon": -77.03087583333334, "name": "656e6ed006b051f2ed2e6705e4111d0c"}, {"bike_id": "2df82ac2e604f3b77eb675a67e8e28db", "type": "electric_scooter", "is_disabled": 0, "lat": 38.912697666666666, "rental_uris": {"ios": "https://dc.lft.to/lastmile_qr_scan", "android": "https://dc.lft.to/lastmile_qr_scan"}, "is_reserved": 0, "fusion_lon": 0.0, "fusion_lat": 0.0, "lon": -77.02957466666666, "name": "2df82ac2e604f3b77eb675a67e8e28db"}, {"bike_id": "a90e1be2c521b3264588cb100c4b6865", "type": "electric_scooter", "is_disabled": 0, "lat": 38.870921, "rental_uris": {"ios": "https://dc.lft.to/lastmile_qr_scan", "android": "https://dc.lft.to/lastmile_qr_scan"}, "is_reserved": 0, "fusion_lon": 0.0, "fusion_lat": 0.0, "lon": -77.01199816666667, "name": "a90e1be2c521b3264588cb100c4b6865"}, {"bike_id": "be0941f46b68a1cc65b124efeaa2eaba", "type": "electric_bike", "is_disabled": 0, "lat": 38.93548116666667, "rental_uris": {"ios": "https://dc.lft.to/lastmile_qr_scan", "android": "https://dc.lft.to/lastmile_qr_scan"}, "is_reserved": 0, "fusion_lon": 0.0, "fusion_lat": 0.0, "lon": -76.9389745, "name": "be0941f46b68a1cc65b124efeaa2eaba"}, {"bike_id": "bbbd5df9bc3b84d302f687470ad0fbb6", "type": "electric_scooter", "is_disabled": 0, "lat": 38.86700066666667, "rental_uris": {"ios": "https://dc.lft.to/lastmile_qr_scan", "android": "https://dc.lft.to/lastmile_qr_scan"}, "is_reserved": 0, "fusion_lon": 0.0, "fusion_lat": 0.0, "lon": -76.98712266666666, "name": "bbbd5df9bc3b84d302f687470ad0fbb6"}, {"bike_id": "4f036bb3fcbb452bc81a7553851f4c04", "type": "electric_scooter", "is_disabled": 0, "lat": 38.91923583333333, "rental_uris": {"ios": "https://dc.lft.to/lastmile_qr_scan", "android": "https://dc.lft.to/lastmile_qr_scan"}, "is_reserved": 0, "fusion_lon": 0.0, "fusion_lat": 0.0, "lon": -77.02424166666667, "name": "4f036bb3fcbb452bc81a7553851f4c04"}, {"bike_id": "55df3ac70f62154182f7518950b1ea59", "type": "electric_bike", "is_disabled": 0, "lat": 38.88394916666667, "rental_uris": {"ios": "https://dc.lft.to/lastmile_qr_scan", "android": "https://dc.lft.to/lastmile_qr_scan"}, "is_reserved": 0, "fusion_lon": 0.0, "fusion_lat": 0.0, "lon": -76.96051033333333, "name": "55df3ac70f62154182f7518950b1ea59"}, {"bike_id": "90df87b995b1051d7aa419b14029ef09", "type": "electric_scooter", "is_disabled": 0, "lat": 38.901143833333336, "rental_uris": {"ios": "https://dc.lft.to/lastmile_qr_scan", "android": "https://dc.lft.to/lastmile_qr_scan"}, "is_reserved": 0, "fusion_lon": 0.0, "fusion_lat": 0.0, "lon": -77.04989216666667, "name": "90df87b995b1051d7aa419b14029ef09"}, {"bike_id": "ce0501ba90739e01f70396304310c255", "type": "electric_scooter", "is_disabled": 0, "lat": 38.8753675, "rental_uris": {"ios": "https://dc.lft.to/lastmile_qr_scan", "android": "https://dc.lft.to/lastmile_qr_scan"}, "is_reserved": 0, "fusion_lon": 0.0, "fusion_lat": 0.0, "lon": -77.004508, "name": "ce0501ba90739e01f70396304310c255"}, {"bike_id": "b61b85181b39b58bc5b7b118b90ebe9e", "type": "electric_scooter", "is_disabled": 0, "lat": 38.924707166666664, "rental_uris": {"ios": "https://dc.lft.to/lastmile_qr_scan", "android": "https://dc.lft.to/lastmile_qr_scan"}, "is_reserved": 0, "fusion_lon": 0.0, "fusion_lat": 0.0, "lon": -77.0377695, "name": "b61b85181b39b58bc5b7b118b90ebe9e"}, {"bike_id": "e8188a129b5317bfd8e80af35f26f32d", "type": "electric_scooter", "is_disabled": 0, "lat": 38.92855483333334, "rental_uris": {"ios": "https://dc.lft.to/lastmile_qr_scan", "android": "https://dc.lft.to/lastmile_qr_scan"}, "is_reserved": 0, "fusion_lon": 0.0, "fusion_lat": 0.0, "lon": -77.03658483333334, "name": "e8188a129b5317bfd8e80af35f26f32d"}, {"bike_id": "210c007a14ab8e82a73abaea34f88841", "type": "electric_scooter", "is_disabled": 0, "lat": 38.90091916666667, "rental_uris": {"ios": "https://dc.lft.to/lastmile_qr_scan", "android": "https://dc.lft.to/lastmile_qr_scan"}, "is_reserved": 0, "fusion_lon": 0.0, "fusion_lat": 0.0, "lon": -77.05002566666667, "name": "210c007a14ab8e82a73abaea34f88841"}, {"bike_id": "abfa5f1156148ce86e245565fe5e761d", "type": "electric_scooter", "is_disabled": 0, "lat": 38.918057166666664, "rental_uris": {"ios": "https://dc.lft.to/lastmile_qr_scan", "android": "https://dc.lft.to/lastmile_qr_scan"}, "is_reserved": 0, "fusion_lon": 0.0, "fusion_lat": 0.0, "lon": -77.0343555, "name": "abfa5f1156148ce86e245565fe5e761d"}, {"bike_id": "3296f6aff946b0c69ed84f6534ecba43", "type": "electric_scooter", "is_disabled": 0, "lat": 38.906376333333334, "rental_uris": {"ios": "https://dc.lft.to/lastmile_qr_scan", "android": "https://dc.lft.to/lastmile_qr_scan"}, "is_reserved": 0, "fusion_lon": 0.0, "fusion_lat": 0.0, "lon": -77.01786766666666, "name": "3296f6aff946b0c69ed84f6534ecba43"}, {"bike_id": "d5cd4c05f0ac748033fd48231d51e73d", "type": "electric_scooter", "is_disabled": 0, "lat": 38.903610666666665, "rental_uris": {"ios": "https://dc.lft.to/lastmile_qr_scan", "android": "https://dc.lft.to/lastmile_qr_scan"}, "is_reserved": 0, "fusion_lon": 0.0, "fusion_lat": 0.0, "lon": -77.02956133333333, "name": "d5cd4c05f0ac748033fd48231d51e73d"}, {"bike_id": "96858bf5d3dff0fb26ce01fb6fbdceb1", "type": "electric_scooter", "is_disabled": 0, "lat": 38.918093999999996, "rental_uris": {"ios": "https://dc.lft.to/lastmile_qr_scan", "android": "https://dc.lft.to/lastmile_qr_scan"}, "is_reserved": 0, "fusion_lon": 0.0, "fusion_lat": 0.0, "lon": -77.00256816666666, "name": "96858bf5d3dff0fb26ce01fb6fbdceb1"}, {"bike_id": "c3b80cde81b050969ac9f8bb1016fdba", "type": "electric_scooter", "is_disabled": 0, "lat": 38.90268916666667, "rental_uris": {"ios": "https://dc.lft.to/lastmile_qr_scan", "android": "https://dc.lft.to/lastmile_qr_scan"}, "is_reserved": 0, "fusion_lon": 0.0, "fusion_lat": 0.0, "lon": -77.01887516666666, "name": "c3b80cde81b050969ac9f8bb1016fdba"}, {"bike_id": "1eefc21382872b3a13905ad88d739277", "type": "electric_scooter", "is_disabled": 0, "lat": 38.92304683333333, "rental_uris": {"ios": "https://dc.lft.to/lastmile_qr_scan", "android": "https://dc.lft.to/lastmile_qr_scan"}, "is_reserved": 0, "fusion_lon": 0.0, "fusion_lat": 0.0, "lon": -77.02975333333333, "name": "1eefc21382872b3a13905ad88d739277"}, {"bike_id": "393efc944acc5b3d6e39f5ee026756a1", "type": "electric_scooter", "is_disabled": 0, "lat": 38.89638983333333, "rental_uris": {"ios": "https://dc.lft.to/lastmile_qr_scan", "android": "https://dc.lft.to/lastmile_qr_scan"}, "is_reserved": 0, "fusion_lon": 0.0, "fusion_lat": 0.0, "lon": -77.02815266666667, "name": "393efc944acc5b3d6e39f5ee026756a1"}, {"bike_id": "3ea6cf0633c75901b5aa9550d414c3e3", "type": "electric_scooter", "is_disabled": 0, "lat": 38.92222683333333, "rental_uris": {"ios": "https://dc.lft.to/lastmile_qr_scan", "android": "https://dc.lft.to/lastmile_qr_scan"}, "is_reserved": 0, "fusion_lon": 0.0, "fusion_lat": 0.0, "lon": -77.04238966666666, "name": "3ea6cf0633c75901b5aa9550d414c3e3"}, {"bike_id": "914e236cb6297ebabd067a9ea1a88f0c", "type": "electric_scooter", "is_disabled": 0, "lat": 38.91764966666667, "rental_uris": {"ios": "https://dc.lft.to/lastmile_qr_scan", "android": "https://dc.lft.to/lastmile_qr_scan"}, "is_reserved": 0, "fusion_lon": 0.0, "fusion_lat": 0.0, "lon": -77.04769016666667, "name": "914e236cb6297ebabd067a9ea1a88f0c"}, {"bike_id": "e8d21caef80da9ebbeb041d92852c737", "type": "electric_scooter", "is_disabled": 0, "lat": 38.89231366666667, "rental_uris": {"ios": "https://dc.lft.to/lastmile_qr_scan", "android": "https://dc.lft.to/lastmile_qr_scan"}, "is_reserved": 0, "fusion_lon": 0.0, "fusion_lat": 0.0, "lon": -77.0467575, "name": "e8d21caef80da9ebbeb041d92852c737"}, {"bike_id": "db89e034d93c6580bea871bc51884ba7", "type": "electric_scooter", "is_disabled": 0, "lat": 38.90079, "rental_uris": {"ios": "https://dc.lft.to/lastmile_qr_scan", "android": "https://dc.lft.to/lastmile_qr_scan"}, "is_reserved": 0, "fusion_lon": 0.0, "fusion_lat": 0.0, "lon": -77.01216, "name": "db89e034d93c6580bea871bc51884ba7"}, {"bike_id": "e3b6627ece95730f02fcb9846fd3ebee", "type": "electric_scooter", "is_disabled": 0, "lat": 38.90977216666667, "rental_uris": {"ios": "https://dc.lft.to/lastmile_qr_scan", "android": "https://dc.lft.to/lastmile_qr_scan"}, "is_reserved": 0, "fusion_lon": 0.0, "fusion_lat": 0.0, "lon": -77.03450766666667, "name": "e3b6627ece95730f02fcb9846fd3ebee"}, {"bike_id": "4edc5fc9d3ffabe36f68f23782a7f5d1", "type": "electric_scooter", "is_disabled": 0, "lat": 38.894944333333335, "rental_uris": {"ios": "https://dc.lft.to/lastmile_qr_scan", "android": "https://dc.lft.to/lastmile_qr_scan"}, "is_reserved": 0, "fusion_lon": 0.0, "fusion_lat": 0.0, "lon": -77.0229545, "name": "4edc5fc9d3ffabe36f68f23782a7f5d1"}, {"bike_id": "38c523bd70320048bfdedac714e7a991", "type": "electric_scooter", "is_disabled": 0, "lat": 38.9023495, "rental_uris": {"ios": "https://dc.lft.to/lastmile_qr_scan", "android": "https://dc.lft.to/lastmile_qr_scan"}, "is_reserved": 0, "fusion_lon": 0.0, "fusion_lat": 0.0, "lon": -77.0604845, "name": "38c523bd70320048bfdedac714e7a991"}, {"bike_id": "bdff13ac90e73586d08323d39ea1f426", "type": "electric_scooter", "is_disabled": 0, "lat": 38.919967666666665, "rental_uris": {"ios": "https://dc.lft.to/lastmile_qr_scan", "android": "https://dc.lft.to/lastmile_qr_scan"}, "is_reserved": 0, "fusion_lon": 0.0, "fusion_lat": 0.0, "lon": -77.08187416666667, "name": "bdff13ac90e73586d08323d39ea1f426"}, {"bike_id": "ae515e28f31992f657cdc3f5db21a074", "type": "electric_scooter", "is_disabled": 0, "lat": 38.9083195, "rental_uris": {"ios": "https://dc.lft.to/lastmile_qr_scan", "android": "https://dc.lft.to/lastmile_qr_scan"}, "is_reserved": 0, "fusion_lon": 0.0, "fusion_lat": 0.0, "lon": -77.031917, "name": "ae515e28f31992f657cdc3f5db21a074"}, {"bike_id": "d081e29a42df85be5d07672fc0667f3a", "type": "electric_scooter", "is_disabled": 0, "lat": 38.92049133333333, "rental_uris": {"ios": "https://dc.lft.to/lastmile_qr_scan", "android": "https://dc.lft.to/lastmile_qr_scan"}, "is_reserved": 0, "fusion_lon": 0.0, "fusion_lat": 0.0, "lon": -77.04182083333333, "name": "d081e29a42df85be5d07672fc0667f3a"}, {"bike_id": "aa1700fc01ffe90738f836ad8007d54e", "type": "electric_scooter", "is_disabled": 0, "lat": 38.8953435, "rental_uris": {"ios": "https://dc.lft.to/lastmile_qr_scan", "android": "https://dc.lft.to/lastmile_qr_scan"}, "is_reserved": 0, "fusion_lon": 0.0, "fusion_lat": 0.0, "lon": -77.02817166666667, "name": "aa1700fc01ffe90738f836ad8007d54e"}, {"bike_id": "34c34e553024c3e9cace7adfee53b6ef", "type": "electric_scooter", "is_disabled": 0, "lat": 38.8852025, "rental_uris": {"ios": "https://dc.lft.to/lastmile_qr_scan", "android": "https://dc.lft.to/lastmile_qr_scan"}, "is_reserved": 0, "fusion_lon": 0.0, "fusion_lat": 0.0, "lon": -76.97708766666666, "name": "34c34e553024c3e9cace7adfee53b6ef"}, {"bike_id": "b2f9002dba65e4cf2ab401437760e5db", "type": "electric_scooter", "is_disabled": 0, "lat": 38.913209333333334, "rental_uris": {"ios": "https://dc.lft.to/lastmile_qr_scan", "android": "https://dc.lft.to/lastmile_qr_scan"}, "is_reserved": 0, "fusion_lon": 0.0, "fusion_lat": 0.0, "lon": -77.03168466666666, "name": "b2f9002dba65e4cf2ab401437760e5db"}, {"bike_id": "f1ce4511ef50bde36086a95c5fe56740", "type": "electric_scooter", "is_disabled": 0, "lat": 38.931574, "rental_uris": {"ios": "https://dc.lft.to/lastmile_qr_scan", "android": "https://dc.lft.to/lastmile_qr_scan"}, "is_reserved": 0, "fusion_lon": 0.0, "fusion_lat": 0.0, "lon": -77.03345833333333, "name": "f1ce4511ef50bde36086a95c5fe56740"}, {"bike_id": "9ed956f2ba3edbfb8d426f2a27161b21", "type": "electric_scooter", "is_disabled": 0, "lat": 38.9369395, "rental_uris": {"ios": "https://dc.lft.to/lastmile_qr_scan", "android": "https://dc.lft.to/lastmile_qr_scan"}, "is_reserved": 0, "fusion_lon": 0.0, "fusion_lat": 0.0, "lon": -77.023805, "name": "9ed956f2ba3edbfb8d426f2a27161b21"}, {"bike_id": "e2629b8c82c28211627587ac357483fb", "type": "electric_scooter", "is_disabled": 0, "lat": 38.91417233333333, "rental_uris": {"ios": "https://dc.lft.to/lastmile_qr_scan", "android": "https://dc.lft.to/lastmile_qr_scan"}, "is_reserved": 0, "fusion_lon": 0.0, "fusion_lat": 0.0, "lon": -77.01987516666667, "name": "e2629b8c82c28211627587ac357483fb"}, {"bike_id": "ac777d5ab12c0a59bc3b86ac836bf5ff", "type": "electric_scooter", "is_disabled": 0, "lat": 38.93823483333333, "rental_uris": {"ios": "https://dc.lft.to/lastmile_qr_scan", "android": "https://dc.lft.to/lastmile_qr_scan"}, "is_reserved": 0, "fusion_lon": 0.0, "fusion_lat": 0.0, "lon": -77.05996266666666, "name": "ac777d5ab12c0a59bc3b86ac836bf5ff"}, {"bike_id": "4a50d4dbffde0f74867cf68af5fe7954", "type": "electric_scooter", "is_disabled": 0, "lat": 38.91981116666667, "rental_uris": {"ios": "https://dc.lft.to/lastmile_qr_scan", "android": "https://dc.lft.to/lastmile_qr_scan"}, "is_reserved": 0, "fusion_lon": 0.0, "fusion_lat": 0.0, "lon": -77.01794233333334, "name": "4a50d4dbffde0f74867cf68af5fe7954"}, {"bike_id": "cb96056629ca459441881682792735b3", "type": "electric_bike", "is_disabled": 0, "lat": 38.964119, "rental_uris": {"ios": "https://dc.lft.to/lastmile_qr_scan", "android": "https://dc.lft.to/lastmile_qr_scan"}, "is_reserved": 0, "fusion_lon": 0.0, "fusion_lat": 0.0, "lon": -76.99998866666667, "name": "cb96056629ca459441881682792735b3"}, {"bike_id": "e5b14a6586e9a0c183537b1eeacf7ac3", "type": "electric_scooter", "is_disabled": 0, "lat": 38.884858666666666, "rental_uris": {"ios": "https://dc.lft.to/lastmile_qr_scan", "android": "https://dc.lft.to/lastmile_qr_scan"}, "is_reserved": 0, "fusion_lon": 0.0, "fusion_lat": 0.0, "lon": -77.03476933333333, "name": "e5b14a6586e9a0c183537b1eeacf7ac3"}, {"bike_id": "d3ca106e16d8435f6305e3f16900151a", "type": "electric_scooter", "is_disabled": 0, "lat": 38.905705, "rental_uris": {"ios": "https://dc.lft.to/lastmile_qr_scan", "android": "https://dc.lft.to/lastmile_qr_scan"}, "is_reserved": 0, "fusion_lon": 0.0, "fusion_lat": 0.0, "lon": -77.05132316666666, "name": "d3ca106e16d8435f6305e3f16900151a"}, {"bike_id": "f05a2fdfbcfc1ec1ce071cd916c77c70", "type": "electric_scooter", "is_disabled": 0, "lat": 38.922858166666664, "rental_uris": {"ios": "https://dc.lft.to/lastmile_qr_scan", "android": "https://dc.lft.to/lastmile_qr_scan"}, "is_reserved": 0, "fusion_lon": 0.0, "fusion_lat": 0.0, "lon": -77.07301583333333, "name": "f05a2fdfbcfc1ec1ce071cd916c77c70"}, {"bike_id": "ab194ab9e1dcabe505e4f3ee57bd1518", "type": "electric_scooter", "is_disabled": 0, "lat": 38.93241416666667, "rental_uris": {"ios": "https://dc.lft.to/lastmile_qr_scan", "android": "https://dc.lft.to/lastmile_qr_scan"}, "is_reserved": 0, "fusion_lon": 0.0, "fusion_lat": 0.0, "lon": -77.02970883333333, "name": "ab194ab9e1dcabe505e4f3ee57bd1518"}, {"bike_id": "c7ce2d3d8e318dc8ba22895f50045c8f", "type": "electric_scooter", "is_disabled": 0, "lat": 38.904134666666664, "rental_uris": {"ios": "https://dc.lft.to/lastmile_qr_scan", "android": "https://dc.lft.to/lastmile_qr_scan"}, "is_reserved": 0, "fusion_lon": 0.0, "fusion_lat": 0.0, "lon": -77.04865283333334, "name": "c7ce2d3d8e318dc8ba22895f50045c8f"}, {"bike_id": "65608f291a0de1ba9d4f7e8e1279c60e", "type": "electric_scooter", "is_disabled": 0, "lat": 38.900822, "rental_uris": {"ios": "https://dc.lft.to/lastmile_qr_scan", "android": "https://dc.lft.to/lastmile_qr_scan"}, "is_reserved": 0, "fusion_lon": 0.0, "fusion_lat": 0.0, "lon": -77.05008383333333, "name": "65608f291a0de1ba9d4f7e8e1279c60e"}, {"bike_id": "bef3f630ab23b94e6030eee652646f88", "type": "electric_scooter", "is_disabled": 0, "lat": 38.91833716666667, "rental_uris": {"ios": "https://dc.lft.to/lastmile_qr_scan", "android": "https://dc.lft.to/lastmile_qr_scan"}, "is_reserved": 0, "fusion_lon": 0.0, "fusion_lat": 0.0, "lon": -77.03943233333334, "name": "bef3f630ab23b94e6030eee652646f88"}, {"bike_id": "a5674b8772a188c6ea0c7027452286b3", "type": "electric_scooter", "is_disabled": 0, "lat": 38.92214033333333, "rental_uris": {"ios": "https://dc.lft.to/lastmile_qr_scan", "android": "https://dc.lft.to/lastmile_qr_scan"}, "is_reserved": 0, "fusion_lon": 0.0, "fusion_lat": 0.0, "lon": -77.04239183333334, "name": "a5674b8772a188c6ea0c7027452286b3"}, {"bike_id": "221dbea65105053d168721899d46de30", "type": "electric_scooter", "is_disabled": 0, "lat": 38.911015166666665, "rental_uris": {"ios": "https://dc.lft.to/lastmile_qr_scan", "android": "https://dc.lft.to/lastmile_qr_scan"}, "is_reserved": 0, "fusion_lon": 0.0, "fusion_lat": 0.0, "lon": -77.0021525, "name": "221dbea65105053d168721899d46de30"}, {"bike_id": "5e6481368c4fcf3c981a6ea4fa116ccb", "type": "electric_scooter", "is_disabled": 0, "lat": 38.89748, "rental_uris": {"ios": "https://dc.lft.to/lastmile_qr_scan", "android": "https://dc.lft.to/lastmile_qr_scan"}, "is_reserved": 0, "fusion_lon": 0.0, "fusion_lat": 0.0, "lon": -77.04546716666667, "name": "5e6481368c4fcf3c981a6ea4fa116ccb"}, {"bike_id": "92cf6303dc6fdd69482596b349c3eb35", "type": "electric_scooter", "is_disabled": 0, "lat": 38.9017355, "rental_uris": {"ios": "https://dc.lft.to/lastmile_qr_scan", "android": "https://dc.lft.to/lastmile_qr_scan"}, "is_reserved": 0, "fusion_lon": 0.0, "fusion_lat": 0.0, "lon": -76.984512, "name": "92cf6303dc6fdd69482596b349c3eb35"}, {"bike_id": "7df0190a6dde1fbba97bebd05d4c6ce2", "type": "electric_scooter", "is_disabled": 0, "lat": 38.90723033333333, "rental_uris": {"ios": "https://dc.lft.to/lastmile_qr_scan", "android": "https://dc.lft.to/lastmile_qr_scan"}, "is_reserved": 0, "fusion_lon": 0.0, "fusion_lat": 0.0, "lon": -77.00063733333333, "name": "7df0190a6dde1fbba97bebd05d4c6ce2"}, {"bike_id": "a00cdac6c6c743f0a1268a5a79276232", "type": "electric_scooter", "is_disabled": 0, "lat": 38.86658633333333, "rental_uris": {"ios": "https://dc.lft.to/lastmile_qr_scan", "android": "https://dc.lft.to/lastmile_qr_scan"}, "is_reserved": 0, "fusion_lon": 0.0, "fusion_lat": 0.0, "lon": -76.98889916666667, "name": "a00cdac6c6c743f0a1268a5a79276232"}, {"bike_id": "36c10dfdce1893925db51ed9844fd7ae", "type": "electric_bike", "is_disabled": 0, "lat": 38.84614666666667, "rental_uris": {"ios": "https://dc.lft.to/lastmile_qr_scan", "android": "https://dc.lft.to/lastmile_qr_scan"}, "is_reserved": 0, "fusion_lon": 0.0, "fusion_lat": 0.0, "lon": -76.9691595, "name": "36c10dfdce1893925db51ed9844fd7ae"}, {"bike_id": "d720077dc2cd43556e80fd1002e9550b", "type": "electric_scooter", "is_disabled": 0, "lat": 38.90419583333333, "rental_uris": {"ios": "https://dc.lft.to/lastmile_qr_scan", "android": "https://dc.lft.to/lastmile_qr_scan"}, "is_reserved": 0, "fusion_lon": 0.0, "fusion_lat": 0.0, "lon": -76.97373283333333, "name": "d720077dc2cd43556e80fd1002e9550b"}, {"bike_id": "775b5a7517e9a5c201c9d3f0b781973e", "type": "electric_scooter", "is_disabled": 0, "lat": 38.89219516666667, "rental_uris": {"ios": "https://dc.lft.to/lastmile_qr_scan", "android": "https://dc.lft.to/lastmile_qr_scan"}, "is_reserved": 0, "fusion_lon": 0.0, "fusion_lat": 0.0, "lon": -77.02448533333333, "name": "775b5a7517e9a5c201c9d3f0b781973e"}, {"bike_id": "80219daefc000234d22c167c78a38c44", "type": "electric_scooter", "is_disabled": 0, "lat": 38.865676, "rental_uris": {"ios": "https://dc.lft.to/lastmile_qr_scan", "android": "https://dc.lft.to/lastmile_qr_scan"}, "is_reserved": 0, "fusion_lon": 0.0, "fusion_lat": 0.0, "lon": -76.9821495, "name": "80219daefc000234d22c167c78a38c44"}, {"bike_id": "f21557a19c522eeed695ed45bf050f6b", "type": "electric_scooter", "is_disabled": 0, "lat": 38.92253866666667, "rental_uris": {"ios": "https://dc.lft.to/lastmile_qr_scan", "android": "https://dc.lft.to/lastmile_qr_scan"}, "is_reserved": 0, "fusion_lon": 0.0, "fusion_lat": 0.0, "lon": -77.03657516666667, "name": "f21557a19c522eeed695ed45bf050f6b"}, {"bike_id": "16e2b0cefabafaf7b047d499c711812b", "type": "electric_scooter", "is_disabled": 0, "lat": 38.913371166666664, "rental_uris": {"ios": "https://dc.lft.to/lastmile_qr_scan", "android": "https://dc.lft.to/lastmile_qr_scan"}, "is_reserved": 0, "fusion_lon": 0.0, "fusion_lat": 0.0, "lon": -77.040005, "name": "16e2b0cefabafaf7b047d499c711812b"}, {"bike_id": "b943e5782efd5bdb5599bbad2a39210a", "type": "electric_scooter", "is_disabled": 0, "lat": 38.91952216666667, "rental_uris": {"ios": "https://dc.lft.to/lastmile_qr_scan", "android": "https://dc.lft.to/lastmile_qr_scan"}, "is_reserved": 0, "fusion_lon": 0.0, "fusion_lat": 0.0, "lon": -77.0249855, "name": "b943e5782efd5bdb5599bbad2a39210a"}, {"bike_id": "2b19eeb55e75e4fecc929d316a6debef", "type": "electric_scooter", "is_disabled": 0, "lat": 38.905526, "rental_uris": {"ios": "https://dc.lft.to/lastmile_qr_scan", "android": "https://dc.lft.to/lastmile_qr_scan"}, "is_reserved": 0, "fusion_lon": 0.0, "fusion_lat": 0.0, "lon": -77.04185483333333, "name": "2b19eeb55e75e4fecc929d316a6debef"}, {"bike_id": "9e09f8e19275d503125e1561c2786dbf", "type": "electric_scooter", "is_disabled": 0, "lat": 38.89954133333333, "rental_uris": {"ios": "https://dc.lft.to/lastmile_qr_scan", "android": "https://dc.lft.to/lastmile_qr_scan"}, "is_reserved": 0, "fusion_lon": 0.0, "fusion_lat": 0.0, "lon": -76.97533733333333, "name": "9e09f8e19275d503125e1561c2786dbf"}, {"bike_id": "c0a1129e645dccc4acfb5b3d9a29973e", "type": "electric_bike", "is_disabled": 0, "lat": 38.892060666666666, "rental_uris": {"ios": "https://dc.lft.to/lastmile_qr_scan", "android": "https://dc.lft.to/lastmile_qr_scan"}, "is_reserved": 0, "fusion_lon": 0.0, "fusion_lat": 0.0, "lon": -76.97640933333334, "name": "c0a1129e645dccc4acfb5b3d9a29973e"}, {"bike_id": "241995a16c49a261889f62f64dc3d3fb", "type": "electric_scooter", "is_disabled": 0, "lat": 38.92651633333333, "rental_uris": {"ios": "https://dc.lft.to/lastmile_qr_scan", "android": "https://dc.lft.to/lastmile_qr_scan"}, "is_reserved": 0, "fusion_lon": 0.0, "fusion_lat": 0.0, "lon": -77.02476216666666, "name": "241995a16c49a261889f62f64dc3d3fb"}, {"bike_id": "b465d64d949ceaa175d786d0349b97c3", "type": "electric_scooter", "is_disabled": 0, "lat": 38.925814833333334, "rental_uris": {"ios": "https://dc.lft.to/lastmile_qr_scan", "android": "https://dc.lft.to/lastmile_qr_scan"}, "is_reserved": 0, "fusion_lon": 0.0, "fusion_lat": 0.0, "lon": -77.05423866666666, "name": "b465d64d949ceaa175d786d0349b97c3"}, {"bike_id": "a4560fb88eeb9d4c9b6051dafe745a20", "type": "electric_scooter", "is_disabled": 0, "lat": 38.9244975, "rental_uris": {"ios": "https://dc.lft.to/lastmile_qr_scan", "android": "https://dc.lft.to/lastmile_qr_scan"}, "is_reserved": 0, "fusion_lon": 0.0, "fusion_lat": 0.0, "lon": -77.024122, "name": "a4560fb88eeb9d4c9b6051dafe745a20"}, {"bike_id": "95a8c2fa9698ec7962029a178d584a7a", "type": "electric_scooter", "is_disabled": 0, "lat": 38.915603833333336, "rental_uris": {"ios": "https://dc.lft.to/lastmile_qr_scan", "android": "https://dc.lft.to/lastmile_qr_scan"}, "is_reserved": 0, "fusion_lon": 0.0, "fusion_lat": 0.0, "lon": -77.02289066666667, "name": "95a8c2fa9698ec7962029a178d584a7a"}, {"bike_id": "1479589be1dd5a2f908814e314e48aea", "type": "electric_scooter", "is_disabled": 0, "lat": 38.909732, "rental_uris": {"ios": "https://dc.lft.to/lastmile_qr_scan", "android": "https://dc.lft.to/lastmile_qr_scan"}, "is_reserved": 0, "fusion_lon": 0.0, "fusion_lat": 0.0, "lon": -77.0238725, "name": "1479589be1dd5a2f908814e314e48aea"}, {"bike_id": "b89076bb00d26d6552af284132993148", "type": "electric_scooter", "is_disabled": 0, "lat": 38.89619883333334, "rental_uris": {"ios": "https://dc.lft.to/lastmile_qr_scan", "android": "https://dc.lft.to/lastmile_qr_scan"}, "is_reserved": 0, "fusion_lon": 0.0, "fusion_lat": 0.0, "lon": -77.0220905, "name": "b89076bb00d26d6552af284132993148"}, {"bike_id": "9defcf23140bb9b68b1abff848fda234", "type": "electric_scooter", "is_disabled": 0, "lat": 38.9027535, "rental_uris": {"ios": "https://dc.lft.to/lastmile_qr_scan", "android": "https://dc.lft.to/lastmile_qr_scan"}, "is_reserved": 0, "fusion_lon": 0.0, "fusion_lat": 0.0, "lon": -77.033163, "name": "9defcf23140bb9b68b1abff848fda234"}, {"bike_id": "c0b1f461c2615a664b0403bb99e4bb29", "type": "electric_scooter", "is_disabled": 0, "lat": 38.9241645, "rental_uris": {"ios": "https://dc.lft.to/lastmile_qr_scan", "android": "https://dc.lft.to/lastmile_qr_scan"}, "is_reserved": 0, "fusion_lon": 0.0, "fusion_lat": 0.0, "lon": -77.02005533333333, "name": "c0b1f461c2615a664b0403bb99e4bb29"}, {"bike_id": "d4554420d481da32cfcf65c9de20ac5b", "type": "electric_scooter", "is_disabled": 0, "lat": 38.90418666666667, "rental_uris": {"ios": "https://dc.lft.to/lastmile_qr_scan", "android": "https://dc.lft.to/lastmile_qr_scan"}, "is_reserved": 0, "fusion_lon": 0.0, "fusion_lat": 0.0, "lon": -77.02430316666667, "name": "d4554420d481da32cfcf65c9de20ac5b"}, {"bike_id": "b33059a2653d5c9a0f17003a41485261", "type": "electric_scooter", "is_disabled": 0, "lat": 38.91561083333333, "rental_uris": {"ios": "https://dc.lft.to/lastmile_qr_scan", "android": "https://dc.lft.to/lastmile_qr_scan"}, "is_reserved": 0, "fusion_lon": 0.0, "fusion_lat": 0.0, "lon": -77.03122766666667, "name": "b33059a2653d5c9a0f17003a41485261"}, {"bike_id": "27e1fe048bf741ccfe03175d29790ad8", "type": "electric_scooter", "is_disabled": 0, "lat": 38.92615083333333, "rental_uris": {"ios": "https://dc.lft.to/lastmile_qr_scan", "android": "https://dc.lft.to/lastmile_qr_scan"}, "is_reserved": 0, "fusion_lon": 0.0, "fusion_lat": 0.0, "lon": -77.0370295, "name": "27e1fe048bf741ccfe03175d29790ad8"}, {"bike_id": "3ccb4ad12d487a9d57139c8ca300bf59", "type": "electric_scooter", "is_disabled": 0, "lat": 38.90414066666666, "rental_uris": {"ios": "https://dc.lft.to/lastmile_qr_scan", "android": "https://dc.lft.to/lastmile_qr_scan"}, "is_reserved": 0, "fusion_lon": 0.0, "fusion_lat": 0.0, "lon": -76.97333816666666, "name": "3ccb4ad12d487a9d57139c8ca300bf59"}, {"bike_id": "33f3502e129bce4f7fce2a20df5fb067", "type": "electric_bike", "is_disabled": 0, "lat": 38.91688033333333, "rental_uris": {"ios": "https://dc.lft.to/lastmile_qr_scan", "android": "https://dc.lft.to/lastmile_qr_scan"}, "is_reserved": 0, "fusion_lon": 0.0, "fusion_lat": 0.0, "lon": -77.03761116666666, "name": "33f3502e129bce4f7fce2a20df5fb067"}, {"bike_id": "0e484f5cd426c476dd3afcad5a891d3f", "type": "electric_bike", "is_disabled": 0, "lat": 38.89609816666667, "rental_uris": {"ios": "https://dc.lft.to/lastmile_qr_scan", "android": "https://dc.lft.to/lastmile_qr_scan"},