{"data": {"bikes": [{"lon": -76.99384783333333, "bike_id": "7c3b4f7f1f659fe9e07b0c9340e136bf", "lat": 38.883494, "fusion_lon": 0.0, "fusion_lat": 0.0, "type": "electric_scooter", "name": "7c3b4f7f1f659fe9e07b0c9340e136bf", "is_disabled": 0, "rental_uris": {"ios": "https://dc.lft.to/lastmile_qr_scan", "android": "https://dc.lft.to/lastmile_qr_scan"}, "is_reserved": 0}, {"lon": -77.028773, "bike_id": "39b2d9f4e1679a1cb34e4007bc4c325d", "lat": 38.898666, "fusion_lon": 0.0, "fusion_lat": 0.0, "type": "electric_scooter", "name": "39b2d9f4e1679a1cb34e4007bc4c325d", "is_disabled": 0, "rental_uris": {"ios": "https://dc.lft.to/lastmile_qr_scan", "android": "https://dc.lft.to/lastmile_qr_scan"}, "is_reserved": 0}, {"lon": -77.03424366666667, "bike_id": "d5c6b5ac722ec8118297e247e5c2a60c", "lat": 38.902384833333336, "fusion_lon": 0.0, "fusion_lat": 0.0, "type": "electric_scooter", "name": "d5c6b5ac722ec8118297e247e5c2a60c", "is_disabled": 0, "rental_uris": {"ios": "https://dc.lft.to/lastmile_qr_scan", "android": "https://dc.lft.to/lastmile_qr_scan"}, "is_reserved": 0}, {"lon": -76.96786433333334, "bike_id": "ed21f51dd6d192f646100189c6762159", "lat": 38.86842766666667, "fusion_lon": 0.0, "fusion_lat": 0.0, "type": "electric_scooter", "name": "ed21f51dd6d192f646100189c6762159", "is_disabled": 0, "rental_uris": {"ios": "https://dc.lft.to/lastmile_qr_scan", "android": "https://dc.lft.to/lastmile_qr_scan"}, "is_reserved": 0}, {"lon": -77.03940316666667, "bike_id": "5995c0dcec44fe91e5dc833cc81a3714", "lat": 38.91703116666667, "fusion_lon": 0.0, "fusion_lat": 0.0, "type": "electric_scooter", "name": "5995c0dcec44fe91e5dc833cc81a3714", "is_disabled": 0, "rental_uris": {"ios": "https://dc.lft.to/lastmile_qr_scan", "android": "https://dc.lft.to/lastmile_qr_scan"}, "is_reserved": 0}, {"lon": -76.98098916666666, "bike_id": "84dce6b4953b9e13ccd1be52197dd6c7", "lat": 38.895517, "fusion_lon": 0.0, "fusion_lat": 0.0, "type": "electric_scooter", "name": "84dce6b4953b9e13ccd1be52197dd6c7", "is_disabled": 0, "rental_uris": {"ios": "https://dc.lft.to/lastmile_qr_scan", "android": "https://dc.lft.to/lastmile_qr_scan"}, "is_reserved": 0}, {"lon": -77.02619616666667, "bike_id": "0faa51526f6c199215bd4de992208ec5", "lat": 38.91697666666666, "fusion_lon": 0.0, "fusion_lat": 0.0, "type": "electric_scooter", "name": "0faa51526f6c199215bd4de992208ec5", "is_disabled": 0, "rental_uris": {"ios": "https://dc.lft.to/lastmile_qr_scan", "android": "https://dc.lft.to/lastmile_qr_scan"}, "is_reserved": 0}, {"lon": -76.961538, "bike_id": "4ea1717e1204c05e5d24469fb6d98406", "lat": 38.8835795, "fusion_lon": 0.0, "fusion_lat": 0.0, "type": "electric_scooter", "name": "4ea1717e1204c05e5d24469fb6d98406", "is_disabled": 0, "rental_uris": {"ios": "https://dc.lft.to/lastmile_qr_scan", "android": "https://dc.lft.to/lastmile_qr_scan"}, "is_reserved": 0}, {"lon": -77.00812166666667, "bike_id": "b175fc6c4ed7b318d7508da24bc935bb", "lat": 38.90585316666667, "fusion_lon": 0.0, "fusion_lat": 0.0, "type": "electric_scooter", "name": "b175fc6c4ed7b318d7508da24bc935bb", "is_disabled": 0, "rental_uris": {"ios": "https://dc.lft.to/lastmile_qr_scan", "android": "https://dc.lft.to/lastmile_qr_scan"}, "is_reserved": 0}, {"lon": -77.10808066666667, "bike_id": "a9b9f5fb60b1a0896c3e6e2c395f5e92", "lat": 38.81205083333333, "fusion_lon": 0.0, "fusion_lat": 0.0, "type": "electric_bike", "name": "a9b9f5fb60b1a0896c3e6e2c395f5e92", "is_disabled": 0, "rental_uris": {"ios": "https://dc.lft.to/lastmile_qr_scan", "android": "https://dc.lft.to/lastmile_qr_scan"}, "is_reserved": 0}, {"lon": -77.00192233333334, "bike_id": "6833fbd9c9f11da70f74834d0f001b17", "lat": 38.900402166666666, "fusion_lon": 0.0, "fusion_lat": 0.0, "type": "electric_scooter", "name": "6833fbd9c9f11da70f74834d0f001b17", "is_disabled": 0, "rental_uris": {"ios": "https://dc.lft.to/lastmile_qr_scan", "android": "https://dc.lft.to/lastmile_qr_scan"}, "is_reserved": 0}, {"lon": -77.04277933333333, "bike_id": "6c48167b74f5694427009443c456e55e", "lat": 38.91013216666666, "fusion_lon": 0.0, "fusion_lat": 0.0, "type": "electric_scooter", "name": "6c48167b74f5694427009443c456e55e", "is_disabled": 0, "rental_uris": {"ios": "https://dc.lft.to/lastmile_qr_scan", "android": "https://dc.lft.to/lastmile_qr_scan"}, "is_reserved": 0}, {"lon": -77.039967, "bike_id": "9fccd945d2d284989ef1cc82223e4d15", "lat": 38.903597500000004, "fusion_lon": 0.0, "fusion_lat": 0.0, "type": "electric_scooter", "name": "9fccd945d2d284989ef1cc82223e4d15", "is_disabled": 0, "rental_uris": {"ios": "https://dc.lft.to/lastmile_qr_scan", "android": "https://dc.lft.to/lastmile_qr_scan"}, "is_reserved": 0}, {"lon": -77.01520733333334, "bike_id": "7d2093a4ad1234f4661c73bed0320be6", "lat": 38.88496716666667, "fusion_lon": 0.0, "fusion_lat": 0.0, "type": "electric_scooter", "name": "7d2093a4ad1234f4661c73bed0320be6", "is_disabled": 0, "rental_uris": {"ios": "https://dc.lft.to/lastmile_qr_scan", "android": "https://dc.lft.to/lastmile_qr_scan"}, "is_reserved": 0}, {"lon": -77.0625485, "bike_id": "a82366d9974016d4dca50a80e79ee9ce", "lat": 38.90250666666667, "fusion_lon": 0.0, "fusion_lat": 0.0, "type": "electric_bike", "name": "a82366d9974016d4dca50a80e79ee9ce", "is_disabled": 0, "rental_uris": {"ios": "https://dc.lft.to/lastmile_qr_scan", "android": "https://dc.lft.to/lastmile_qr_scan"}, "is_reserved": 0}, {"lon": -77.041621, "bike_id": "dd6be8fc2797dfb2350082f12fdda301", "lat": 38.905487666666666, "fusion_lon": 0.0, "fusion_lat": 0.0, "type": "electric_scooter", "name": "dd6be8fc2797dfb2350082f12fdda301", "is_disabled": 0, "rental_uris": {"ios": "https://dc.lft.to/lastmile_qr_scan", "android": "https://dc.lft.to/lastmile_qr_scan"}, "is_reserved": 0}, {"lon": -77.021781, "bike_id": "a0feb7ce50779cb903c9aeb2aa9780a5", "lat": 38.893566, "fusion_lon": 0.0, "fusion_lat": 0.0, "type": "electric_scooter", "name": "a0feb7ce50779cb903c9aeb2aa9780a5", "is_disabled": 0, "rental_uris": {"ios": "https://dc.lft.to/lastmile_qr_scan", "android": "https://dc.lft.to/lastmile_qr_scan"}, "is_reserved": 0}, {"lon": -77.03170166666666, "bike_id": "3ccdc8d4c8ea03a9a46385d33ca42f66", "lat": 38.90288483333333, "fusion_lon": 0.0, "fusion_lat": 0.0, "type": "electric_scooter", "name": "3ccdc8d4c8ea03a9a46385d33ca42f66", "is_disabled": 0, "rental_uris": {"ios": "https://dc.lft.to/lastmile_qr_scan", "android": "https://dc.lft.to/lastmile_qr_scan"}, "is_reserved": 0}, {"lon": -77.12495416666667, "bike_id": "dae70fc530dc685ff95f70307af13d95", "lat": 38.82788133333333, "fusion_lon": 0.0, "fusion_lat": 0.0, "type": "electric_bike", "name": "dae70fc530dc685ff95f70307af13d95", "is_disabled": 0, "rental_uris": {"ios": "https://dc.lft.to/lastmile_qr_scan", "android": "https://dc.lft.to/lastmile_qr_scan"}, "is_reserved": 0}, {"lon": -76.9855745, "bike_id": "63fb1994567ccb3b94da626b83cb7888", "lat": 38.89955066666667, "fusion_lon": 0.0, "fusion_lat": 0.0, "type": "electric_scooter", "name": "63fb1994567ccb3b94da626b83cb7888", "is_disabled": 0, "rental_uris": {"ios": "https://dc.lft.to/lastmile_qr_scan", "android": "https://dc.lft.to/lastmile_qr_scan"}, "is_reserved": 0}, {"lon": -77.0209875, "bike_id": "bf50cf41b901c605abaa1acf9c444bb7", "lat": 38.93115016666667, "fusion_lon": 0.0, "fusion_lat": 0.0, "type": "electric_scooter", "name": "bf50cf41b901c605abaa1acf9c444bb7", "is_disabled": 0, "rental_uris": {"ios": "https://dc.lft.to/lastmile_qr_scan", "android": "https://dc.lft.to/lastmile_qr_scan"}, "is_reserved": 0}, {"lon": -77.02718533333334, "bike_id": "e2ef7837e47470c24315e2b959423d63", "lat": 38.934742666666665, "fusion_lon": 0.0, "fusion_lat": 0.0, "type": "electric_scooter", "name": "e2ef7837e47470c24315e2b959423d63", "is_disabled": 0, "rental_uris": {"ios": "https://dc.lft.to/lastmile_qr_scan", "android": "https://dc.lft.to/lastmile_qr_scan"}, "is_reserved": 0}, {"lon": -77.01597916666667, "bike_id": "a8d93775367bd0f7297512a850bea8f3", "lat": 38.9016375, "fusion_lon": 0.0, "fusion_lat": 0.0, "type": "electric_scooter", "name": "a8d93775367bd0f7297512a850bea8f3", "is_disabled": 0, "rental_uris": {"ios": "https://dc.lft.to/lastmile_qr_scan", "android": "https://dc.lft.to/lastmile_qr_scan"}, "is_reserved": 0}, {"lon": -77.051246, "bike_id": "153ae064297ffc6ff3b5ffe20e48521d", "lat": 38.923640666666664, "fusion_lon": 0.0, "fusion_lat": 0.0, "type": "electric_scooter", "name": "153ae064297ffc6ff3b5ffe20e48521d", "is_disabled": 0, "rental_uris": {"ios": "https://dc.lft.to/lastmile_qr_scan", "android": "https://dc.lft.to/lastmile_qr_scan"}, "is_reserved": 0}, {"lon": -77.06434216666666, "bike_id": "826072247dd870a598c636c88d1dd5f0", "lat": 38.90893, "fusion_lon": 0.0, "fusion_lat": 0.0, "type": "electric_scooter", "name": "826072247dd870a598c636c88d1dd5f0", "is_disabled": 0, "rental_uris": {"ios": "https://dc.lft.to/lastmile_qr_scan", "android": "https://dc.lft.to/lastmile_qr_scan"}, "is_reserved": 0}, {"lon": -77.03406566666666, "bike_id": "6b2d57c27f9d7cb289513bdcc57b1cd3", "lat": 38.960314333333336, "fusion_lon": 0.0, "fusion_lat": 0.0, "type": "electric_bike", "name": "6b2d57c27f9d7cb289513bdcc57b1cd3", "is_disabled": 0, "rental_uris": {"ios": "https://dc.lft.to/lastmile_qr_scan", "android": "https://dc.lft.to/lastmile_qr_scan"}, "is_reserved": 0}, {"lon": -77.00386433333334, "bike_id": "1b450a423d59ad59e98f244b62a66172", "lat": 38.90596133333333, "fusion_lon": 0.0, "fusion_lat": 0.0, "type": "electric_scooter", "name": "1b450a423d59ad59e98f244b62a66172", "is_disabled": 0, "rental_uris": {"ios": "https://dc.lft.to/lastmile_qr_scan", "android": "https://dc.lft.to/lastmile_qr_scan"}, "is_reserved": 0}, {"lon": -77.02796133333334, "bike_id": "d2106f3af5acb40b13e399483ed37365", "lat": 38.927673, "fusion_lon": 0.0, "fusion_lat": 0.0, "type": "electric_scooter", "name": "d2106f3af5acb40b13e399483ed37365", "is_disabled": 0, "rental_uris": {"ios": "https://dc.lft.to/lastmile_qr_scan", "android": "https://dc.lft.to/lastmile_qr_scan"}, "is_reserved": 0}, {"lon": -77.00284133333334, "bike_id": "dd9d285af7c38151b34e292fb7491d4b", "lat": 38.9570865, "fusion_lon": 0.0, "fusion_lat": 0.0, "type": "electric_bike", "name": "dd9d285af7c38151b34e292fb7491d4b", "is_disabled": 0, "rental_uris": {"ios": "https://dc.lft.to/lastmile_qr_scan", "android": "https://dc.lft.to/lastmile_qr_scan"}, "is_reserved": 0}, {"lon": -77.04326766666667, "bike_id": "2ba896c55fb1bdc07937a84c4f8fab87", "lat": 38.91880783333333, "fusion_lon": 0.0, "fusion_lat": 0.0, "type": "electric_scooter", "name": "2ba896c55fb1bdc07937a84c4f8fab87", "is_disabled": 0, "rental_uris": {"ios": "https://dc.lft.to/lastmile_qr_scan", "android": "https://dc.lft.to/lastmile_qr_scan"}, "is_reserved": 0}, {"lon": -76.99851433333333, "bike_id": "46c5dac409d2e143856c6d3bcab94cda", "lat": 38.84163183333333, "fusion_lon": 0.0, "fusion_lat": 0.0, "type": "electric_scooter", "name": "46c5dac409d2e143856c6d3bcab94cda", "is_disabled": 0, "rental_uris": {"ios": "https://dc.lft.to/lastmile_qr_scan", "android": "https://dc.lft.to/lastmile_qr_scan"}, "is_reserved": 0}, {"lon": -77.0342875, "bike_id": "93e2458e51ed585c1c19a44b8e2159ab", "lat": 38.9274535, "fusion_lon": 0.0, "fusion_lat": 0.0, "type": "electric_scooter", "name": "93e2458e51ed585c1c19a44b8e2159ab", "is_disabled": 0, "rental_uris": {"ios": "https://dc.lft.to/lastmile_qr_scan", "android": "https://dc.lft.to/lastmile_qr_scan"}, "is_reserved": 0}, {"lon": -76.98852716666667, "bike_id": "0a06890059998d99c8e95da92bc32e91", "lat": 38.90129233333333, "fusion_lon": 0.0, "fusion_lat": 0.0, "type": "electric_scooter", "name": "0a06890059998d99c8e95da92bc32e91", "is_disabled": 0, "rental_uris": {"ios": "https://dc.lft.to/lastmile_qr_scan", "android": "https://dc.lft.to/lastmile_qr_scan"}, "is_reserved": 0}, {"lon": -77.0332345, "bike_id": "6760cdf0e426ae61b32955441b98abe8", "lat": 38.896548833333334, "fusion_lon": 0.0, "fusion_lat": 0.0, "type": "electric_scooter", "name": "6760cdf0e426ae61b32955441b98abe8", "is_disabled": 0, "rental_uris": {"ios": "https://dc.lft.to/lastmile_qr_scan", "android": "https://dc.lft.to/lastmile_qr_scan"}, "is_reserved": 0}, {"lon": -77.01982316666667, "bike_id": "c4000105288e9b4c1665d624d0569fe7", "lat": 38.915308333333336, "fusion_lon": 0.0, "fusion_lat": 0.0, "type": "electric_scooter", "name": "c4000105288e9b4c1665d624d0569fe7", "is_disabled": 0, "rental_uris": {"ios": "https://dc.lft.to/lastmile_qr_scan", "android": "https://dc.lft.to/lastmile_qr_scan"}, "is_reserved": 0}, {"lon": -77.00071983333333, "bike_id": "03edfe7f32c1214fab1865b45a4621c6", "lat": 38.873759166666666, "fusion_lon": 0.0, "fusion_lat": 0.0, "type": "electric_scooter", "name": "03edfe7f32c1214fab1865b45a4621c6", "is_disabled": 0, "rental_uris": {"ios": "https://dc.lft.to/lastmile_qr_scan", "android": "https://dc.lft.to/lastmile_qr_scan"}, "is_reserved": 0}, {"lon": -77.0426835, "bike_id": "b7aeeeec3d84b9542de35dbceb1c0253", "lat": 38.910404666666665, "fusion_lon": 0.0, "fusion_lat": 0.0, "type": "electric_scooter", "name": "b7aeeeec3d84b9542de35dbceb1c0253", "is_disabled": 0, "rental_uris": {"ios": "https://dc.lft.to/lastmile_qr_scan", "android": "https://dc.lft.to/lastmile_qr_scan"}, "is_reserved": 0}, {"lon": -77.03660133333334, "bike_id": "dd6168f2cc0e9e0b262bdefc4ab2944e", "lat": 38.91292416666667, "fusion_lon": 0.0, "fusion_lat": 0.0, "type": "electric_scooter", "name": "dd6168f2cc0e9e0b262bdefc4ab2944e", "is_disabled": 0, "rental_uris": {"ios": "https://dc.lft.to/lastmile_qr_scan", "android": "https://dc.lft.to/lastmile_qr_scan"}, "is_reserved": 0}, {"lon": -77.122212, "bike_id": "0d27a4375e565906b6fc171901bb5bb2", "lat": 38.85295816666667, "fusion_lon": 0.0, "fusion_lat": 0.0, "type": "electric_bike", "name": "0d27a4375e565906b6fc171901bb5bb2", "is_disabled": 0, "rental_uris": {"ios": "https://dc.lft.to/lastmile_qr_scan", "android": "https://dc.lft.to/lastmile_qr_scan"}, "is_reserved": 0}, {"lon": -77.0434265, "bike_id": "334400b9cf99ac45edd86d09ef2af11a", "lat": 38.92140333333333, "fusion_lon": 0.0, "fusion_lat": 0.0, "type": "electric_scooter", "name": "334400b9cf99ac45edd86d09ef2af11a", "is_disabled": 0, "rental_uris": {"ios": "https://dc.lft.to/lastmile_qr_scan", "android": "https://dc.lft.to/lastmile_qr_scan"}, "is_reserved": 0}, {"lon": -77.04062816666666, "bike_id": "a370814ad7eb1e605232c2d4a1185374", "lat": 38.914876, "fusion_lon": 0.0, "fusion_lat": 0.0, "type": "electric_scooter", "name": "a370814ad7eb1e605232c2d4a1185374", "is_disabled": 0, "rental_uris": {"ios": "https://dc.lft.to/lastmile_qr_scan", "android": "https://dc.lft.to/lastmile_qr_scan"}, "is_reserved": 0}, {"lon": -76.97738866666667, "bike_id": "8b3b62e6f60e0d6f04f7beae1eb86cf8", "lat": 38.864743, "fusion_lon": 0.0, "fusion_lat": 0.0, "type": "electric_scooter", "name": "8b3b62e6f60e0d6f04f7beae1eb86cf8", "is_disabled": 0, "rental_uris": {"ios": "https://dc.lft.to/lastmile_qr_scan", "android": "https://dc.lft.to/lastmile_qr_scan"}, "is_reserved": 0}, {"lon": -77.0416555, "bike_id": "967fe3b1a8c2a6d76a3d718630fb0dda", "lat": 38.912554666666665, "fusion_lon": 0.0, "fusion_lat": 0.0, "type": "electric_scooter", "name": "967fe3b1a8c2a6d76a3d718630fb0dda", "is_disabled": 0, "rental_uris": {"ios": "https://dc.lft.to/lastmile_qr_scan", "android": "https://dc.lft.to/lastmile_qr_scan"}, "is_reserved": 0}, {"lon": -77.04155533333333, "bike_id": "d228712a9d3100c1802f9442ca47eb33", "lat": 38.92339233333333, "fusion_lon": 0.0, "fusion_lat": 0.0, "type": "electric_scooter", "name": "d228712a9d3100c1802f9442ca47eb33", "is_disabled": 0, "rental_uris": {"ios": "https://dc.lft.to/lastmile_qr_scan", "android": "https://dc.lft.to/lastmile_qr_scan"}, "is_reserved": 0}, {"lon": -77.02719416666666, "bike_id": "bd6add6b5083c36229c83b59a75d72e5", "lat": 38.89779766666667, "fusion_lon": 0.0, "fusion_lat": 0.0, "type": "electric_scooter", "name": "bd6add6b5083c36229c83b59a75d72e5", "is_disabled": 0, "rental_uris": {"ios": "https://dc.lft.to/lastmile_qr_scan", "android": "https://dc.lft.to/lastmile_qr_scan"}, "is_reserved": 0}, {"lon": -77.04108583333333, "bike_id": "5c73ef420560993d025a2e65fa31b69d", "lat": 38.9230555, "fusion_lon": 0.0, "fusion_lat": 0.0, "type": "electric_scooter", "name": "5c73ef420560993d025a2e65fa31b69d", "is_disabled": 0, "rental_uris": {"ios": "https://dc.lft.to/lastmile_qr_scan", "android": "https://dc.lft.to/lastmile_qr_scan"}, "is_reserved": 0}, {"lon": -76.989169, "bike_id": "74ea07d22bcd0e899d68cb733077f0bd", "lat": 38.901855, "fusion_lon": 0.0, "fusion_lat": 0.0, "type": "electric_scooter", "name": "74ea07d22bcd0e899d68cb733077f0bd", "is_disabled": 0, "rental_uris": {"ios": "https://dc.lft.to/lastmile_qr_scan", "android": "https://dc.lft.to/lastmile_qr_scan"}, "is_reserved": 0}, {"lon": -77.03049316666667, "bike_id": "2b527a73a5c071c2c6b565e110428771", "lat": 38.884277, "fusion_lon": 0.0, "fusion_lat": 0.0, "type": "electric_scooter", "name": "2b527a73a5c071c2c6b565e110428771", "is_disabled": 0, "rental_uris": {"ios": "https://dc.lft.to/lastmile_qr_scan", "android": "https://dc.lft.to/lastmile_qr_scan"}, "is_reserved": 0}, {"lon": -77.04173266666666, "bike_id": "56e3bf1db25d6f1da4072b2fbfa6e6a9", "lat": 38.9231515, "fusion_lon": 0.0, "fusion_lat": 0.0, "type": "electric_scooter", "name": "56e3bf1db25d6f1da4072b2fbfa6e6a9", "is_disabled": 0, "rental_uris": {"ios": "https://dc.lft.to/lastmile_qr_scan", "android": "https://dc.lft.to/lastmile_qr_scan"}, "is_reserved": 0}, {"lon": -76.95751116666666, "bike_id": "59e9bcf43b6a9893587df78f27cc13c8", "lat": 38.884258, "fusion_lon": 0.0, "fusion_lat": 0.0, "type": "electric_scooter", "name": "59e9bcf43b6a9893587df78f27cc13c8", "is_disabled": 0, "rental_uris": {"ios": "https://dc.lft.to/lastmile_qr_scan", "android": "https://dc.lft.to/lastmile_qr_scan"}, "is_reserved": 0}, {"lon": -77.05017283333333, "bike_id": "b09a0da0864d9b5623ae3258a40c70f3", "lat": 38.901484833333335, "fusion_lon": 0.0, "fusion_lat": 0.0, "type": "electric_scooter", "name": "b09a0da0864d9b5623ae3258a40c70f3", "is_disabled": 0, "rental_uris": {"ios": "https://dc.lft.to/lastmile_qr_scan", "android": "https://dc.lft.to/lastmile_qr_scan"}, "is_reserved": 0}, {"lon": -77.03045716666666, "bike_id": "2aea9c299d702c75fa213c81e114fe2f", "lat": 38.87842533333333, "fusion_lon": 0.0, "fusion_lat": 0.0, "type": "electric_scooter", "name": "2aea9c299d702c75fa213c81e114fe2f", "is_disabled": 0, "rental_uris": {"ios": "https://dc.lft.to/lastmile_qr_scan", "android": "https://dc.lft.to/lastmile_qr_scan"}, "is_reserved": 0}, {"lon": -77.0386635, "bike_id": "f0e2e89256f41e7771a221a778486797", "lat": 38.912588666666664, "fusion_lon": 0.0, "fusion_lat": 0.0, "type": "electric_scooter", "name": "f0e2e89256f41e7771a221a778486797", "is_disabled": 0, "rental_uris": {"ios": "https://dc.lft.to/lastmile_qr_scan", "android": "https://dc.lft.to/lastmile_qr_scan"}, "is_reserved": 0}, {"lon": -76.9373405, "bike_id": "83607c761be6f35867b099973e92c2ed", "lat": 38.890133666666664, "fusion_lon": 0.0, "fusion_lat": 0.0, "type": "electric_scooter", "name": "83607c761be6f35867b099973e92c2ed", "is_disabled": 0, "rental_uris": {"ios": "https://dc.lft.to/lastmile_qr_scan", "android": "https://dc.lft.to/lastmile_qr_scan"}, "is_reserved": 0}, {"lon": -77.021659, "bike_id": "4d32dbbc042cb610288d096373deccde", "lat": 38.89748016666667, "fusion_lon": 0.0, "fusion_lat": 0.0, "type": "electric_scooter", "name": "4d32dbbc042cb610288d096373deccde", "is_disabled": 0, "rental_uris": {"ios": "https://dc.lft.to/lastmile_qr_scan", "android": "https://dc.lft.to/lastmile_qr_scan"}, "is_reserved": 0}, {"lon": -77.034483, "bike_id": "51fa4008f9258babe97ca6b914afc684", "lat": 38.90974383333333, "fusion_lon": 0.0, "fusion_lat": 0.0, "type": "electric_scooter", "name": "51fa4008f9258babe97ca6b914afc684", "is_disabled": 0, "rental_uris": {"ios": "https://dc.lft.to/lastmile_qr_scan", "android": "https://dc.lft.to/lastmile_qr_scan"}, "is_reserved": 0}, {"lon": -76.99002516666667, "bike_id": "624063913bf91718d90418361e2311a1", "lat": 38.86503916666667, "fusion_lon": 0.0, "fusion_lat": 0.0, "type": "electric_scooter", "name": "624063913bf91718d90418361e2311a1", "is_disabled": 0, "rental_uris": {"ios": "https://dc.lft.to/lastmile_qr_scan", "android": "https://dc.lft.to/lastmile_qr_scan"}, "is_reserved": 0}, {"lon": -77.0569, "bike_id": "d7b249d19ecf3577b316910c0cffc54e", "lat": 38.9051395, "fusion_lon": 0.0, "fusion_lat": 0.0, "type": "electric_bike", "name": "d7b249d19ecf3577b316910c0cffc54e", "is_disabled": 0, "rental_uris": {"ios": "https://dc.lft.to/lastmile_qr_scan", "android": "https://dc.lft.to/lastmile_qr_scan"}, "is_reserved": 0}, {"lon": -77.03126366666666, "bike_id": "92c6c46005a81105993bd4f6d0452c3d", "lat": 38.988259166666666, "fusion_lon": 0.0, "fusion_lat": 0.0, "type": "electric_scooter", "name": "92c6c46005a81105993bd4f6d0452c3d", "is_disabled": 0, "rental_uris": {"ios": "https://dc.lft.to/lastmile_qr_scan", "android": "https://dc.lft.to/lastmile_qr_scan"}, "is_reserved": 0}, {"lon": -77.05875833333333, "bike_id": "3626df6e254e036411b2b462c5ecbbff", "lat": 38.935541, "fusion_lon": 0.0, "fusion_lat": 0.0, "type": "electric_scooter", "name": "3626df6e254e036411b2b462c5ecbbff", "is_disabled": 0, "rental_uris": {"ios": "https://dc.lft.to/lastmile_qr_scan", "android": "https://dc.lft.to/lastmile_qr_scan"}, "is_reserved": 0}, {"lon": -77.01979783333333, "bike_id": "7f4f19b2469eb44f81ad90c9328ca816", "lat": 38.9109855, "fusion_lon": 0.0, "fusion_lat": 0.0, "type": "electric_scooter", "name": "7f4f19b2469eb44f81ad90c9328ca816", "is_disabled": 0, "rental_uris": {"ios": "https://dc.lft.to/lastmile_qr_scan", "android": "https://dc.lft.to/lastmile_qr_scan"}, "is_reserved": 0}, {"lon": -77.0440865, "bike_id": "663a361eeb1cf00b85d6097445a0b80c", "lat": 38.91126633333333, "fusion_lon": 0.0, "fusion_lat": 0.0, "type": "electric_scooter", "name": "663a361eeb1cf00b85d6097445a0b80c", "is_disabled": 0, "rental_uris": {"ios": "https://dc.lft.to/lastmile_qr_scan", "android": "https://dc.lft.to/lastmile_qr_scan"}, "is_reserved": 0}, {"lon": -77.02029466666667, "bike_id": "6fca32392b08411379fac02c3b370c22", "lat": 38.915543166666666, "fusion_lon": 0.0, "fusion_lat": 0.0, "type": "electric_scooter", "name": "6fca32392b08411379fac02c3b370c22", "is_disabled": 0, "rental_uris": {"ios": "https://dc.lft.to/lastmile_qr_scan", "android": "https://dc.lft.to/lastmile_qr_scan"}, "is_reserved": 0}, {"lon": -76.96387866666667, "bike_id": "ea77008041ef066bc9d2d885752df4cb", "lat": 38.951686, "fusion_lon": 0.0, "fusion_lat": 0.0, "type": "electric_bike", "name": "ea77008041ef066bc9d2d885752df4cb", "is_disabled": 0, "rental_uris": {"ios": "https://dc.lft.to/lastmile_qr_scan", "android": "https://dc.lft.to/lastmile_qr_scan"}, "is_reserved": 0}, {"lon": -77.2280015, "bike_id": "fa9844e705e2e73ca867a8866f7fdfe1", "lat": 38.910156, "fusion_lon": 0.0, "fusion_lat": 0.0, "type": "electric_bike", "name": "fa9844e705e2e73ca867a8866f7fdfe1", "is_disabled": 0, "rental_uris": {"ios": "https://dc.lft.to/lastmile_qr_scan", "android": "https://dc.lft.to/lastmile_qr_scan"}, "is_reserved": 0}, {"lon": -77.00363566666667, "bike_id": "7980b2fbece8b4feb2e5b0e4b0abc658", "lat": 38.8993015, "fusion_lon": 0.0, "fusion_lat": 0.0, "type": "electric_scooter", "name": "7980b2fbece8b4feb2e5b0e4b0abc658", "is_disabled": 0, "rental_uris": {"ios": "https://dc.lft.to/lastmile_qr_scan", "android": "https://dc.lft.to/lastmile_qr_scan"}, "is_reserved": 0}, {"lon": -77.0409365, "bike_id": "df742abc1664fed4196e69a8d8d3f11d", "lat": 38.9238985, "fusion_lon": 0.0, "fusion_lat": 0.0, "type": "electric_scooter", "name": "df742abc1664fed4196e69a8d8d3f11d", "is_disabled": 0, "rental_uris": {"ios": "https://dc.lft.to/lastmile_qr_scan", "android": "https://dc.lft.to/lastmile_qr_scan"}, "is_reserved": 0}, {"lon": -77.04352166666666, "bike_id": "554448f757aea0f0a683637a70d3c354", "lat": 38.910513, "fusion_lon": 0.0, "fusion_lat": 0.0, "type": "electric_scooter", "name": "554448f757aea0f0a683637a70d3c354", "is_disabled": 0, "rental_uris": {"ios": "https://dc.lft.to/lastmile_qr_scan", "android": "https://dc.lft.to/lastmile_qr_scan"}, "is_reserved": 0}, {"lon": -77.0279705, "bike_id": "3c8de71bdce9939b3c91cb910773a3e9", "lat": 38.954046, "fusion_lon": 0.0, "fusion_lat": 0.0, "type": "electric_scooter", "name": "3c8de71bdce9939b3c91cb910773a3e9", "is_disabled": 0, "rental_uris": {"ios": "https://dc.lft.to/lastmile_qr_scan", "android": "https://dc.lft.to/lastmile_qr_scan"}, "is_reserved": 0}, {"lon": -77.0209515, "bike_id": "21b5e6432795c84db8b4ada19ade386c", "lat": 38.929157000000004, "fusion_lon": 0.0, "fusion_lat": 0.0, "type": "electric_scooter", "name": "21b5e6432795c84db8b4ada19ade386c", "is_disabled": 0, "rental_uris": {"ios": "https://dc.lft.to/lastmile_qr_scan", "android": "https://dc.lft.to/lastmile_qr_scan"}, "is_reserved": 0}, {"lon": -77.00744483333334, "bike_id": "10a2f9821a684669c5773847e87456de", "lat": 38.925321, "fusion_lon": 0.0, "fusion_lat": 0.0, "type": "electric_scooter", "name": "10a2f9821a684669c5773847e87456de", "is_disabled": 0, "rental_uris": {"ios": "https://dc.lft.to/lastmile_qr_scan", "android": "https://dc.lft.to/lastmile_qr_scan"}, "is_reserved": 0}, {"lon": -77.021822, "bike_id": "56b64dff9d9670b2da26253500d639b0", "lat": 38.897327, "fusion_lon": 0.0, "fusion_lat": 0.0, "type": "electric_scooter", "name": "56b64dff9d9670b2da26253500d639b0", "is_disabled": 0, "rental_uris": {"ios": "https://dc.lft.to/lastmile_qr_scan", "android": "https://dc.lft.to/lastmile_qr_scan"}, "is_reserved": 0}, {"lon": -77.03662633333333, "bike_id": "468bd6e902d119de2f05bc174daf7f01", "lat": 38.912954, "fusion_lon": 0.0, "fusion_lat": 0.0, "type": "electric_scooter", "name": "468bd6e902d119de2f05bc174daf7f01", "is_disabled": 0, "rental_uris": {"ios": "https://dc.lft.to/lastmile_qr_scan", "android": "https://dc.lft.to/lastmile_qr_scan"}, "is_reserved": 0}, {"lon": -77.04846383333333, "bike_id": "214bd14073937cef4355d24725e64099", "lat": 38.8883485, "fusion_lon": 0.0, "fusion_lat": 0.0, "type": "electric_scooter", "name": "214bd14073937cef4355d24725e64099", "is_disabled": 0, "rental_uris": {"ios": "https://dc.lft.to/lastmile_qr_scan", "android": "https://dc.lft.to/lastmile_qr_scan"}, "is_reserved": 0}, {"lon": -77.018744, "bike_id": "d47afa25b7abc7a433c2c57508fa9234", "lat": 38.918261666666666, "fusion_lon": 0.0, "fusion_lat": 0.0, "type": "electric_scooter", "name": "d47afa25b7abc7a433c2c57508fa9234", "is_disabled": 0, "rental_uris": {"ios": "https://dc.lft.to/lastmile_qr_scan", "android": "https://dc.lft.to/lastmile_qr_scan"}, "is_reserved": 0}, {"lon": -77.00065966666666, "bike_id": "e1c01f574be0feac689f3ff9f1a4e005", "lat": 38.89504133333333, "fusion_lon": 0.0, "fusion_lat": 0.0, "type": "electric_scooter", "name": "e1c01f574be0feac689f3ff9f1a4e005", "is_disabled": 0, "rental_uris": {"ios": "https://dc.lft.to/lastmile_qr_scan", "android": "https://dc.lft.to/lastmile_qr_scan"}, "is_reserved": 0}, {"lon": -76.98232983333334, "bike_id": "12cad5337ac2c3a1107bc610f01d0205", "lat": 38.886465666666666, "fusion_lon": 0.0, "fusion_lat": 0.0, "type": "electric_scooter", "name": "12cad5337ac2c3a1107bc610f01d0205", "is_disabled": 0, "rental_uris": {"ios": "https://dc.lft.to/lastmile_qr_scan", "android": "https://dc.lft.to/lastmile_qr_scan"}, "is_reserved": 0}, {"lon": -77.04338866666667, "bike_id": "f855e5b51f87201313be99750296e85b", "lat": 38.9221865, "fusion_lon": 0.0, "fusion_lat": 0.0, "type": "electric_scooter", "name": "f855e5b51f87201313be99750296e85b", "is_disabled": 0, "rental_uris": {"ios": "https://dc.lft.to/lastmile_qr_scan", "android": "https://dc.lft.to/lastmile_qr_scan"}, "is_reserved": 0}, {"lon": -77.10494316666667, "bike_id": "73ec93f8389c25b5dd9eb3b8fd762c8e", "lat": 38.8561465, "fusion_lon": 0.0, "fusion_lat": 0.0, "type": "electric_bike", "name": "73ec93f8389c25b5dd9eb3b8fd762c8e", "is_disabled": 0, "rental_uris": {"ios": "https://dc.lft.to/lastmile_qr_scan", "android": "https://dc.lft.to/lastmile_qr_scan"}, "is_reserved": 0}, {"lon": -77.04422916666667, "bike_id": "545137edf8a0892c8a226917cf814499", "lat": 38.92110366666667, "fusion_lon": 0.0, "fusion_lat": 0.0, "type": "electric_scooter", "name": "545137edf8a0892c8a226917cf814499", "is_disabled": 0, "rental_uris": {"ios": "https://dc.lft.to/lastmile_qr_scan", "android": "https://dc.lft.to/lastmile_qr_scan"}, "is_reserved": 0}, {"lon": -77.04275866666667, "bike_id": "81e334d520541ebbe62cfe2592f3b9cc", "lat": 38.907345, "fusion_lon": 0.0, "fusion_lat": 0.0, "type": "electric_scooter", "name": "81e334d520541ebbe62cfe2592f3b9cc", "is_disabled": 0, "rental_uris": {"ios": "https://dc.lft.to/lastmile_qr_scan", "android": "https://dc.lft.to/lastmile_qr_scan"}, "is_reserved": 0}, {"lon": -77.04158166666667, "bike_id": "a6530ec17adafe7ba631ce304578ba79", "lat": 38.9142045, "fusion_lon": 0.0, "fusion_lat": 0.0, "type": "electric_scooter", "name": "a6530ec17adafe7ba631ce304578ba79", "is_disabled": 0, "rental_uris": {"ios": "https://dc.lft.to/lastmile_qr_scan", "android": "https://dc.lft.to/lastmile_qr_scan"}, "is_reserved": 0}, {"lon": -77.03179583333333, "bike_id": "bad9fd939510da8cc632d1085f64f270", "lat": 38.93684066666667, "fusion_lon": 0.0, "fusion_lat": 0.0, "type": "electric_scooter", "name": "bad9fd939510da8cc632d1085f64f270", "is_disabled": 0, "rental_uris": {"ios": "https://dc.lft.to/lastmile_qr_scan", "android": "https://dc.lft.to/lastmile_qr_scan"}, "is_reserved": 0}, {"lon": -77.0515865, "bike_id": "2b57f1ad71d96664728dd63cd8a648fa", "lat": 39.04312383333333, "fusion_lon": 0.0, "fusion_lat": 0.0, "type": "electric_bike", "name": "2b57f1ad71d96664728dd63cd8a648fa", "is_disabled": 0, "rental_uris": {"ios": "https://dc.lft.to/lastmile_qr_scan", "android": "https://dc.lft.to/lastmile_qr_scan"}, "is_reserved": 0}, {"lon": -77.03347883333333, "bike_id": "317334bca175597af2915e3d7fbbffe5", "lat": 38.89246933333333, "fusion_lon": 0.0, "fusion_lat": 0.0, "type": "electric_scooter", "name": "317334bca175597af2915e3d7fbbffe5", "is_disabled": 0, "rental_uris": {"ios": "https://dc.lft.to/lastmile_qr_scan", "android": "https://dc.lft.to/lastmile_qr_scan"}, "is_reserved": 0}, {"lon": -77.01211683333334, "bike_id": "5520fbf5f57ea19f8d18a394a254b641", "lat": 38.92119866666667, "fusion_lon": 0.0, "fusion_lat": 0.0, "type": "electric_scooter", "name": "5520fbf5f57ea19f8d18a394a254b641", "is_disabled": 0, "rental_uris": {"ios": "https://dc.lft.to/lastmile_qr_scan", "android": "https://dc.lft.to/lastmile_qr_scan"}, "is_reserved": 0}, {"lon": -76.9753545, "bike_id": "ee6eb6fd10a0da8a695e7fa82a85e77e", "lat": 38.86421566666667, "fusion_lon": 0.0, "fusion_lat": 0.0, "type": "electric_scooter", "name": "ee6eb6fd10a0da8a695e7fa82a85e77e", "is_disabled": 0, "rental_uris": {"ios": "https://dc.lft.to/lastmile_qr_scan", "android": "https://dc.lft.to/lastmile_qr_scan"}, "is_reserved": 0}, {"lon": -76.9300505, "bike_id": "77a83135c08952989ba9870a154fa914", "lat": 38.89197333333333, "fusion_lon": 0.0, "fusion_lat": 0.0, "type": "electric_scooter", "name": "77a83135c08952989ba9870a154fa914", "is_disabled": 0, "rental_uris": {"ios": "https://dc.lft.to/lastmile_qr_scan", "android": "https://dc.lft.to/lastmile_qr_scan"}, "is_reserved": 0}, {"lon": -77.0062465, "bike_id": "ec9bdf83d66173fe1c8ce9c57c41ed28", "lat": 38.91257, "fusion_lon": 0.0, "fusion_lat": 0.0, "type": "electric_scooter", "name": "ec9bdf83d66173fe1c8ce9c57c41ed28", "is_disabled": 0, "rental_uris": {"ios": "https://dc.lft.to/lastmile_qr_scan", "android": "https://dc.lft.to/lastmile_qr_scan"}, "is_reserved": 0}, {"lon": -77.0569785, "bike_id": "62472be8450f9d27e1fc05b4f8a485bf", "lat": 38.937135166666664, "fusion_lon": 0.0, "fusion_lat": 0.0, "type": "electric_scooter", "name": "62472be8450f9d27e1fc05b4f8a485bf", "is_disabled": 0, "rental_uris": {"ios": "https://dc.lft.to/lastmile_qr_scan", "android": "https://dc.lft.to/lastmile_qr_scan"}, "is_reserved": 0}, {"lon": -76.99533233333334, "bike_id": "2ad97142216fd0878f47c518127c0083", "lat": 38.883744, "fusion_lon": 0.0, "fusion_lat": 0.0, "type": "electric_scooter", "name": "2ad97142216fd0878f47c518127c0083", "is_disabled": 0, "rental_uris": {"ios": "https://dc.lft.to/lastmile_qr_scan", "android": "https://dc.lft.to/lastmile_qr_scan"}, "is_reserved": 0}, {"lon": -77.05727366666666, "bike_id": "ed13e55e0424a824c8b903a83c434625", "lat": 38.93368533333334, "fusion_lon": 0.0, "fusion_lat": 0.0, "type": "electric_scooter", "name": "ed13e55e0424a824c8b903a83c434625", "is_disabled": 0, "rental_uris": {"ios": "https://dc.lft.to/lastmile_qr_scan", "android": "https://dc.lft.to/lastmile_qr_scan"}, "is_reserved": 0}, {"lon": -77.02562116666667, "bike_id": "ed125116709d40fa2bc1192db86acbc1", "lat": 38.933517333333334, "fusion_lon": 0.0, "fusion_lat": 0.0, "type": "electric_scooter", "name": "ed125116709d40fa2bc1192db86acbc1", "is_disabled": 0, "rental_uris": {"ios": "https://dc.lft.to/lastmile_qr_scan", "android": "https://dc.lft.to/lastmile_qr_scan"}, "is_reserved": 0}, {"lon": -77.03993616666666, "bike_id": "5760d85f3469fe98e4c3face23b9b742", "lat": 38.903663, "fusion_lon": 0.0, "fusion_lat": 0.0, "type": "electric_scooter", "name": "5760d85f3469fe98e4c3face23b9b742", "is_disabled": 0, "rental_uris": {"ios": "https://dc.lft.to/lastmile_qr_scan", "android": "https://dc.lft.to/lastmile_qr_scan"}, "is_reserved": 0}, {"lon": -77.060243, "bike_id": "65c0da09eebc6eb7cbd1f65d5cec5e24", "lat": 38.905003, "fusion_lon": 0.0, "fusion_lat": 0.0, "type": "electric_scooter", "name": "65c0da09eebc6eb7cbd1f65d5cec5e24", "is_disabled": 0, "rental_uris": {"ios": "https://dc.lft.to/lastmile_qr_scan", "android": "https://dc.lft.to/lastmile_qr_scan"}, "is_reserved": 0}, {"lon": -77.03866066666667, "bike_id": "5c124b0fb05f887d798f99bcded30c34", "lat": 38.911681333333334, "fusion_lon": 0.0, "fusion_lat": 0.0, "type": "electric_scooter", "name": "5c124b0fb05f887d798f99bcded30c34", "is_disabled": 0, "rental_uris": {"ios": "https://dc.lft.to/lastmile_qr_scan", "android": "https://dc.lft.to/lastmile_qr_scan"}, "is_reserved": 0}, {"lon": -77.04909866666667, "bike_id": "22ba69395b790565a0bbb34d870b60cf", "lat": 38.8883955, "fusion_lon": 0.0, "fusion_lat": 0.0, "type": "electric_scooter", "name": "22ba69395b790565a0bbb34d870b60cf", "is_disabled": 0, "rental_uris": {"ios": "https://dc.lft.to/lastmile_qr_scan", "android": "https://dc.lft.to/lastmile_qr_scan"}, "is_reserved": 0}, {"lon": -76.99205283333333, "bike_id": "bacf3727587a413282eb8b492ea869db", "lat": 38.898300666666664, "fusion_lon": 0.0, "fusion_lat": 0.0, "type": "electric_scooter", "name": "bacf3727587a413282eb8b492ea869db", "is_disabled": 0, "rental_uris": {"ios": "https://dc.lft.to/lastmile_qr_scan", "android": "https://dc.lft.to/lastmile_qr_scan"}, "is_reserved": 0}, {"lon": -76.94633366666666, "bike_id": "a0aebbbe7f7934dd551294227b0e594f", "lat": 38.89831783333333, "fusion_lon": 0.0, "fusion_lat": 0.0, "type": "electric_scooter", "name": "a0aebbbe7f7934dd551294227b0e594f", "is_disabled": 0, "rental_uris": {"ios": "https://dc.lft.to/lastmile_qr_scan", "android": "https://dc.lft.to/lastmile_qr_scan"}, "is_reserved": 0}, {"lon": -77.03952916666667, "bike_id": "358818f0f9b007639b0150ae0b6e080b", "lat": 38.898877, "fusion_lon": 0.0, "fusion_lat": 0.0, "type": "electric_scooter", "name": "358818f0f9b007639b0150ae0b6e080b", "is_disabled": 0, "rental_uris": {"ios": "https://dc.lft.to/lastmile_qr_scan", "android": "https://dc.lft.to/lastmile_qr_scan"}, "is_reserved": 0}, {"lon": -77.03179666666666, "bike_id": "a5302b76c5e6058b5ee2516db2ae9ee3", "lat": 38.8922475, "fusion_lon": 0.0, "fusion_lat": 0.0, "type": "electric_scooter", "name": "a5302b76c5e6058b5ee2516db2ae9ee3", "is_disabled": 0, "rental_uris": {"ios": "https://dc.lft.to/lastmile_qr_scan", "android": "https://dc.lft.to/lastmile_qr_scan"}, "is_reserved": 0}, {"lon": -77.0225205, "bike_id": "5a8a68cb12c34911db07295808bbbb6a", "lat": 38.928958333333334, "fusion_lon": 0.0, "fusion_lat": 0.0, "type": "electric_scooter", "name": "5a8a68cb12c34911db07295808bbbb6a", "is_disabled": 0, "rental_uris": {"ios": "https://dc.lft.to/lastmile_qr_scan", "android": "https://dc.lft.to/lastmile_qr_scan"}, "is_reserved": 0}, {"lon": -77.024385, "bike_id": "dcbfc7dc0513476eb886ad3fff544783", "lat": 38.920300833333336, "fusion_lon": 0.0, "fusion_lat": 0.0, "type": "electric_scooter", "name": "dcbfc7dc0513476eb886ad3fff544783", "is_disabled": 0, "rental_uris": {"ios": "https://dc.lft.to/lastmile_qr_scan", "android": "https://dc.lft.to/lastmile_qr_scan"}, "is_reserved": 0}, {"lon": -76.96520683333334, "bike_id": "0005ecacf3478dfcefcbfc3fab9ea2b0", "lat": 38.8748005, "fusion_lon": 0.0, "fusion_lat": 0.0, "type": "electric_scooter", "name": "0005ecacf3478dfcefcbfc3fab9ea2b0", "is_disabled": 0, "rental_uris": {"ios": "https://dc.lft.to/lastmile_qr_scan", "android": "https://dc.lft.to/lastmile_qr_scan"}, "is_reserved": 0}, {"lon": -77.0215445, "bike_id": "857daf38f3b1596bb6be274b9568816c", "lat": 38.89500316666667, "fusion_lon": 0.0, "fusion_lat": 0.0, "type": "electric_scooter", "name": "857daf38f3b1596bb6be274b9568816c", "is_disabled": 0, "rental_uris": {"ios": "https://dc.lft.to/lastmile_qr_scan", "android": "https://dc.lft.to/lastmile_qr_scan"}, "is_reserved": 0}, {"lon": -77.072293, "bike_id": "d9453455e17a342ff16c6f147badef08", "lat": 38.922709166666664, "fusion_lon": 0.0, "fusion_lat": 0.0, "type": "electric_scooter", "name": "d9453455e17a342ff16c6f147badef08", "is_disabled": 0, "rental_uris": {"ios": "https://dc.lft.to/lastmile_qr_scan", "android": "https://dc.lft.to/lastmile_qr_scan"}, "is_reserved": 0}, {"lon": -77.02182, "bike_id": "42fe37301b32b95222770330009b0a03", "lat": 38.893572666666664, "fusion_lon": 0.0, "fusion_lat": 0.0, "type": "electric_scooter", "name": "42fe37301b32b95222770330009b0a03", "is_disabled": 0, "rental_uris": {"ios": "https://dc.lft.to/lastmile_qr_scan", "android": "https://dc.lft.to/lastmile_qr_scan"}, "is_reserved": 0}, {"lon": -76.97341216666666, "bike_id": "eeb8709768c7dd3538081ef6d6587466", "lat": 38.86519916666666, "fusion_lon": 0.0, "fusion_lat": 0.0, "type": "electric_bike", "name": "eeb8709768c7dd3538081ef6d6587466", "is_disabled": 0, "rental_uris": {"ios": "https://dc.lft.to/lastmile_qr_scan", "android": "https://dc.lft.to/lastmile_qr_scan"}, "is_reserved": 0}, {"lon": -77.03922116666666, "bike_id": "d4d3eaec04616c57fe659e61a87f26c9", "lat": 38.91850633333333, "fusion_lon": 0.0, "fusion_lat": 0.0, "type": "electric_scooter", "name": "d4d3eaec04616c57fe659e61a87f26c9", "is_disabled": 0, "rental_uris": {"ios": "https://dc.lft.to/lastmile_qr_scan", "android": "https://dc.lft.to/lastmile_qr_scan"}, "is_reserved": 0}, {"lon": -76.98083116666666, "bike_id": "40b343e146d1cc8a09295dbbed3f6208", "lat": 38.884228666666665, "fusion_lon": 0.0, "fusion_lat": 0.0, "type": "electric_scooter", "name": "40b343e146d1cc8a09295dbbed3f6208", "is_disabled": 0, "rental_uris": {"ios": "https://dc.lft.to/lastmile_qr_scan", "android": "https://dc.lft.to/lastmile_qr_scan"}, "is_reserved": 0}, {"lon": -77.0321495, "bike_id": "b83dccd420f280bee26cc7a22b4a3c60", "lat": 38.892267, "fusion_lon": 0.0, "fusion_lat": 0.0, "type": "electric_scooter", "name": "b83dccd420f280bee26cc7a22b4a3c60", "is_disabled": 0, "rental_uris": {"ios": "https://dc.lft.to/lastmile_qr_scan", "android": "https://dc.lft.to/lastmile_qr_scan"}, "is_reserved": 0}, {"lon": -77.036491, "bike_id": "7b478cef1ded456c9938e7531be2f9d9", "lat": 38.9122275, "fusion_lon": 0.0, "fusion_lat": 0.0, "type": "electric_scooter", "name": "7b478cef1ded456c9938e7531be2f9d9", "is_disabled": 0, "rental_uris": {"ios": "https://dc.lft.to/lastmile_qr_scan", "android": "https://dc.lft.to/lastmile_qr_scan"}, "is_reserved": 0}, {"lon": -76.98563616666667, "bike_id": "81bc7aab734f1def9a8e61aec9d5957f", "lat": 38.90920466666667, "fusion_lon": 0.0, "fusion_lat": 0.0, "type": "electric_scooter", "name": "81bc7aab734f1def9a8e61aec9d5957f", "is_disabled": 0, "rental_uris": {"ios": "https://dc.lft.to/lastmile_qr_scan", "android": "https://dc.lft.to/lastmile_qr_scan"}, "is_reserved": 0}, {"lon": -77.02950683333333, "bike_id": "d2ac846133586699605ebe7980b98d42", "lat": 38.91692316666666, "fusion_lon": 0.0, "fusion_lat": 0.0, "type": "electric_scooter", "name": "d2ac846133586699605ebe7980b98d42", "is_disabled": 0, "rental_uris": {"ios": "https://dc.lft.to/lastmile_qr_scan", "android": "https://dc.lft.to/lastmile_qr_scan"}, "is_reserved": 0}, {"lon": -77.05857733333333, "bike_id": "b3bb9a8e8b5cdd52e97f593ce172db53", "lat": 38.93606966666667, "fusion_lon": 0.0, "fusion_lat": 0.0, "type": "electric_scooter", "name": "b3bb9a8e8b5cdd52e97f593ce172db53", "is_disabled": 0, "rental_uris": {"ios": "https://dc.lft.to/lastmile_qr_scan", "android": "https://dc.lft.to/lastmile_qr_scan"}, "is_reserved": 0}, {"lon": -76.98200183333333, "bike_id": "d6f32322b46d8532d8c3bd9dee146c8e", "lat": 38.926067, "fusion_lon": 0.0, "fusion_lat": 0.0, "type": "electric_scooter", "name": "d6f32322b46d8532d8c3bd9dee146c8e", "is_disabled": 0, "rental_uris": {"ios": "https://dc.lft.to/lastmile_qr_scan", "android": "https://dc.lft.to/lastmile_qr_scan"}, "is_reserved": 0}, {"lon": -77.03205433333333, "bike_id": "fc2eec1c878f6baf4b8d2dac96de6bc5", "lat": 38.918431166666664, "fusion_lon": 0.0, "fusion_lat": 0.0, "type": "electric_scooter", "name": "fc2eec1c878f6baf4b8d2dac96de6bc5", "is_disabled": 0, "rental_uris": {"ios": "https://dc.lft.to/lastmile_qr_scan", "android": "https://dc.lft.to/lastmile_qr_scan"}, "is_reserved": 0}, {"lon": -77.03529033333334, "bike_id": "09336ad7972ff9bcb18ef54cf98c6b46", "lat": 38.92625733333333, "fusion_lon": 0.0, "fusion_lat": 0.0, "type": "electric_scooter", "name": "09336ad7972ff9bcb18ef54cf98c6b46", "is_disabled": 0, "rental_uris": {"ios": "https://dc.lft.to/lastmile_qr_scan", "android": "https://dc.lft.to/lastmile_qr_scan"}, "is_reserved": 0}, {"lon": -77.002333, "bike_id": "482091782a1438591af642aeea8b6cdc", "lat": 38.900365, "fusion_lon": 0.0, "fusion_lat": 0.0, "type": "electric_scooter", "name": "482091782a1438591af642aeea8b6cdc", "is_disabled": 0, "rental_uris": {"ios": "https://dc.lft.to/lastmile_qr_scan", "android": "https://dc.lft.to/lastmile_qr_scan"}, "is_reserved": 0}, {"lon": -77.0117335, "bike_id": "c626182e451c752e1e65ea08860e6351", "lat": 38.8723545, "fusion_lon": 0.0, "fusion_lat": 0.0, "type": "electric_bike", "name": "c626182e451c752e1e65ea08860e6351", "is_disabled": 0, "rental_uris": {"ios": "https://dc.lft.to/lastmile_qr_scan", "android": "https://dc.lft.to/lastmile_qr_scan"}, "is_reserved": 0}, {"lon": -76.95486566666666, "bike_id": "8b420c6889ec95143993b1c5f1149d3c", "lat": 38.88471966666667, "fusion_lon": 0.0, "fusion_lat": 0.0, "type": "electric_scooter", "name": "8b420c6889ec95143993b1c5f1149d3c", "is_disabled": 0, "rental_uris": {"ios": "https://dc.lft.to/lastmile_qr_scan", "android": "https://dc.lft.to/lastmile_qr_scan"}, "is_reserved": 0}, {"lon": -77.02292866666667, "bike_id": "baa2ec7d493ec276d1dc2962c875c37e", "lat": 38.890581833333336, "fusion_lon": 0.0, "fusion_lat": 0.0, "type": "electric_scooter", "name": "baa2ec7d493ec276d1dc2962c875c37e", "is_disabled": 0, "rental_uris": {"ios": "https://dc.lft.to/lastmile_qr_scan", "android": "https://dc.lft.to/lastmile_qr_scan"}, "is_reserved": 0}, {"lon": -76.991868, "bike_id": "087193916af5bf5b5e375ef42caadf4a", "lat": 38.8897475, "fusion_lon": 0.0, "fusion_lat": 0.0, "type": "electric_scooter", "name": "087193916af5bf5b5e375ef42caadf4a", "is_disabled": 0, "rental_uris": {"ios": "https://dc.lft.to/lastmile_qr_scan", "android": "https://dc.lft.to/lastmile_qr_scan"}, "is_reserved": 0}, {"lon": -76.98885566666667, "bike_id": "b23320ac73930484c85745bec6caa90f", "lat": 38.86652866666667, "fusion_lon": 0.0, "fusion_lat": 0.0, "type": "electric_scooter", "name": "b23320ac73930484c85745bec6caa90f", "is_disabled": 0, "rental_uris": {"ios": "https://dc.lft.to/lastmile_qr_scan", "android": "https://dc.lft.to/lastmile_qr_scan"}, "is_reserved": 0}, {"lon": -77.06257716666667, "bike_id": "c15a8dd8fcfc1d8d355f58103d14b040", "lat": 38.944166, "fusion_lon": 0.0, "fusion_lat": 0.0, "type": "electric_scooter", "name": "c15a8dd8fcfc1d8d355f58103d14b040", "is_disabled": 0, "rental_uris": {"ios": "https://dc.lft.to/lastmile_qr_scan", "android": "https://dc.lft.to/lastmile_qr_scan"}, "is_reserved": 0}, {"lon": -77.10094633333334, "bike_id": "dfaf64221bf3baa1590ad9e386010fc0", "lat": 38.959544333333334, "fusion_lon": 0.0, "fusion_lat": 0.0, "type": "electric_bike", "name": "dfaf64221bf3baa1590ad9e386010fc0", "is_disabled": 0, "rental_uris": {"ios": "https://dc.lft.to/lastmile_qr_scan", "android": "https://dc.lft.to/lastmile_qr_scan"}, "is_reserved": 0}, {"lon": -77.03656833333334, "bike_id": "ece04904289c8dab32089697734af409", "lat": 38.94180033333333, "fusion_lon": 0.0, "fusion_lat": 0.0, "type": "electric_scooter", "name": "ece04904289c8dab32089697734af409", "is_disabled": 0, "rental_uris": {"ios": "https://dc.lft.to/lastmile_qr_scan", "android": "https://dc.lft.to/lastmile_qr_scan"}, "is_reserved": 0}, {"lon": -76.98900016666667, "bike_id": "2219cc33a61d8e75a1c05690eb3733e6", "lat": 38.91344683333333, "fusion_lon": 0.0, "fusion_lat": 0.0, "type": "electric_scooter", "name": "2219cc33a61d8e75a1c05690eb3733e6", "is_disabled": 0, "rental_uris": {"ios": "https://dc.lft.to/lastmile_qr_scan", "android": "https://dc.lft.to/lastmile_qr_scan"}, "is_reserved": 0}, {"lon": -76.98263233333333, "bike_id": "4e58d9f52e7ff8298271fd6d5a5482c9", "lat": 38.908520333333335, "fusion_lon": 0.0, "fusion_lat": 0.0, "type": "electric_scooter", "name": "4e58d9f52e7ff8298271fd6d5a5482c9", "is_disabled": 0, "rental_uris": {"ios": "https://dc.lft.to/lastmile_qr_scan", "android": "https://dc.lft.to/lastmile_qr_scan"}, "is_reserved": 0}, {"lon": -76.9869375, "bike_id": "1eaa407f72a4364a9a3e855fe0114a5d", "lat": 38.907067, "fusion_lon": 0.0, "fusion_lat": 0.0, "type": "electric_scooter", "name": "1eaa407f72a4364a9a3e855fe0114a5d", "is_disabled": 0, "rental_uris": {"ios": "https://dc.lft.to/lastmile_qr_scan", "android": "https://dc.lft.to/lastmile_qr_scan"}, "is_reserved": 0}, {"lon": -76.99483933333333, "bike_id": "07a62a2024f99cba27418a5f9d278031", "lat": 38.91570983333333, "fusion_lon": 0.0, "fusion_lat": 0.0, "type": "electric_scooter", "name": "07a62a2024f99cba27418a5f9d278031", "is_disabled": 0, "rental_uris": {"ios": "https://dc.lft.to/lastmile_qr_scan", "android": "https://dc.lft.to/lastmile_qr_scan"}, "is_reserved": 0}, {"lon": -77.02626633333334, "bike_id": "c5c45fd84a4bc4b5d107571014662f4d", "lat": 38.962223, "fusion_lon": 0.0, "fusion_lat": 0.0, "type": "electric_bike", "name": "c5c45fd84a4bc4b5d107571014662f4d", "is_disabled": 0, "rental_uris": {"ios": "https://dc.lft.to/lastmile_qr_scan", "android": "https://dc.lft.to/lastmile_qr_scan"}, "is_reserved": 0}, {"lon": -76.93369933333334, "bike_id": "9489ae35245294fa25434cb560d38cfc", "lat": 38.899137333333336, "fusion_lon": 0.0, "fusion_lat": 0.0, "type": "electric_scooter", "name": "9489ae35245294fa25434cb560d38cfc", "is_disabled": 0, "rental_uris": {"ios": "https://dc.lft.to/lastmile_qr_scan", "android": "https://dc.lft.to/lastmile_qr_scan"}, "is_reserved": 0}, {"lon": -76.94290066666667, "bike_id": "d49b69f32bce0f91954f94587220c3f9", "lat": 38.938682166666666, "fusion_lon": 0.0, "fusion_lat": 0.0, "type": "electric_bike", "name": "d49b69f32bce0f91954f94587220c3f9", "is_disabled": 0, "rental_uris": {"ios": "https://dc.lft.to/lastmile_qr_scan", "android": "https://dc.lft.to/lastmile_qr_scan"}, "is_reserved": 0}, {"lon": -77.08810066666666, "bike_id": "be41f614cbd6e13b287c6af549c2eaf6", "lat": 38.911727166666665, "fusion_lon": 0.0, "fusion_lat": 0.0, "type": "electric_bike", "name": "be41f614cbd6e13b287c6af549c2eaf6", "is_disabled": 0, "rental_uris": {"ios": "https://dc.lft.to/lastmile_qr_scan", "android": "https://dc.lft.to/lastmile_qr_scan"}, "is_reserved": 0}, {"lon": -77.062797, "bike_id": "002eeb94076e9f4ebb2287365aa4d3b8", "lat": 38.905398166666664, "fusion_lon": 0.0, "fusion_lat": 0.0, "type": "electric_scooter", "name": "002eeb94076e9f4ebb2287365aa4d3b8", "is_disabled": 0, "rental_uris": {"ios": "https://dc.lft.to/lastmile_qr_scan", "android": "https://dc.lft.to/lastmile_qr_scan"}, "is_reserved": 0}, {"lon": -76.97619266666666, "bike_id": "f21e66d5d2ed86ca472dc27951a103c1", "lat": 38.926483833333336, "fusion_lon": 0.0, "fusion_lat": 0.0, "type": "electric_scooter", "name": "f21e66d5d2ed86ca472dc27951a103c1", "is_disabled": 0, "rental_uris": {"ios": "https://dc.lft.to/lastmile_qr_scan", "android": "https://dc.lft.to/lastmile_qr_scan"}, "is_reserved": 0}, {"lon": -77.0392475, "bike_id": "d5f20b30f7b4fdef151f24bf328d780d", "lat": 38.92794933333333, "fusion_lon": 0.0, "fusion_lat": 0.0, "type": "electric_scooter", "name": "d5f20b30f7b4fdef151f24bf328d780d", "is_disabled": 0, "rental_uris": {"ios": "https://dc.lft.to/lastmile_qr_scan", "android": "https://dc.lft.to/lastmile_qr_scan"}, "is_reserved": 0}, {"lon": -76.95233233333333, "bike_id": "8174320b9c2fca57109d3c0a9f6dcf55", "lat": 38.89099083333333, "fusion_lon": 0.0, "fusion_lat": 0.0, "type": "electric_scooter", "name": "8174320b9c2fca57109d3c0a9f6dcf55", "is_disabled": 0, "rental_uris": {"ios": "https://dc.lft.to/lastmile_qr_scan", "android": "https://dc.lft.to/lastmile_qr_scan"}, "is_reserved": 0}, {"lon": -77.01868816666666, "bike_id": "18838b0677cbf1862c5dc935bb70a3e6", "lat": 38.95152233333334, "fusion_lon": 0.0, "fusion_lat": 0.0, "type": "electric_scooter", "name": "18838b0677cbf1862c5dc935bb70a3e6", "is_disabled": 0, "rental_uris": {"ios": "https://dc.lft.to/lastmile_qr_scan", "android": "https://dc.lft.to/lastmile_qr_scan"}, "is_reserved": 0}, {"lon": -76.99104116666666, "bike_id": "cec1e98052b7e3f0f7466f9237bbc4ad", "lat": 38.903186, "fusion_lon": 0.0, "fusion_lat": 0.0, "type": "electric_scooter", "name": "cec1e98052b7e3f0f7466f9237bbc4ad", "is_disabled": 0, "rental_uris": {"ios": "https://dc.lft.to/lastmile_qr_scan", "android": "https://dc.lft.to/lastmile_qr_scan"}, "is_reserved": 0}, {"lon": -76.997801, "bike_id": "cfe4843329c9b6fb0e973c68a5dacee7", "lat": 38.844245666666666, "fusion_lon": 0.0, "fusion_lat": 0.0, "type": "electric_scooter", "name": "cfe4843329c9b6fb0e973c68a5dacee7", "is_disabled": 0, "rental_uris": {"ios": "https://dc.lft.to/lastmile_qr_scan", "android": "https://dc.lft.to/lastmile_qr_scan"}, "is_reserved": 0}, {"lon": -77.05129183333334, "bike_id": "427687ca4ac0eb483df60ffff3137902", "lat": 38.8986035, "fusion_lon": 0.0, "fusion_lat": 0.0, "type": "electric_scooter", "name": "427687ca4ac0eb483df60ffff3137902", "is_disabled": 0, "rental_uris": {"ios": "https://dc.lft.to/lastmile_qr_scan", "android": "https://dc.lft.to/lastmile_qr_scan"}, "is_reserved": 0}, {"lon": -76.9959345, "bike_id": "72c4d3afa7cffdce1474fb48fbbd0a03", "lat": 38.884320833333334, "fusion_lon": 0.0, "fusion_lat": 0.0, "type": "electric_scooter", "name": "72c4d3afa7cffdce1474fb48fbbd0a03", "is_disabled": 0, "rental_uris": {"ios": "https://dc.lft.to/lastmile_qr_scan", "android": "https://dc.lft.to/lastmile_qr_scan"}, "is_reserved": 0}, {"lon": -77.07662166666667, "bike_id": "6fdf45264a612fa1d7226d9e35e58cd2", "lat": 38.862662, "fusion_lon": 0.0, "fusion_lat": 0.0, "type": "electric_bike", "name": "6fdf45264a612fa1d7226d9e35e58cd2", "is_disabled": 0, "rental_uris": {"ios": "https://dc.lft.to/lastmile_qr_scan", "android": "https://dc.lft.to/lastmile_qr_scan"}, "is_reserved": 0}, {"lon": -76.97870316666666, "bike_id": "140951fb9ac984a94a560ecbb7cfb123", "lat": 38.883035, "fusion_lon": 0.0, "fusion_lat": 0.0, "type": "electric_scooter", "name": "140951fb9ac984a94a560ecbb7cfb123", "is_disabled": 0, "rental_uris": {"ios": "https://dc.lft.to/lastmile_qr_scan", "android": "https://dc.lft.to/lastmile_qr_scan"}, "is_reserved": 0}, {"lon": -77.0498105, "bike_id": "89ae88df4ee2400048dbb07a93041a42", "lat": 39.06292916666666, "fusion_lon": 0.0, "fusion_lat": 0.0, "type": "electric_bike", "name": "89ae88df4ee2400048dbb07a93041a42", "is_disabled": 0, "rental_uris": {"ios": "https://dc.lft.to/lastmile_qr_scan", "android": "https://dc.lft.to/lastmile_qr_scan"}, "is_reserved": 0}, {"lon": -76.993681, "bike_id": "1f765cb45b127f926fd62b1fa452daa5", "lat": 38.9402675, "fusion_lon": 0.0, "fusion_lat": 0.0, "type": "electric_scooter", "name": "1f765cb45b127f926fd62b1fa452daa5", "is_disabled": 0, "rental_uris": {"ios": "https://dc.lft.to/lastmile_qr_scan", "android": "https://dc.lft.to/lastmile_qr_scan"}, "is_reserved": 0}, {"lon": -77.0381885, "bike_id": "5daee502f00d4a92a1a0fba32f5115fa", "lat": 38.9097315, "fusion_lon": 0.0, "fusion_lat": 0.0, "type": "electric_scooter", "name": "5daee502f00d4a92a1a0fba32f5115fa", "is_disabled": 0, "rental_uris": {"ios": "https://dc.lft.to/lastmile_qr_scan", "android": "https://dc.lft.to/lastmile_qr_scan"}, "is_reserved": 0}, {"lon": -77.02964366666667, "bike_id": "05a53fd754f7df925c357704adbbb8e1", "lat": 38.9127465, "fusion_lon": 0.0, "fusion_lat": 0.0, "type": "electric_scooter", "name": "05a53fd754f7df925c357704adbbb8e1", "is_disabled": 0, "rental_uris": {"ios": "https://dc.lft.to/lastmile_qr_scan", "android": "https://dc.lft.to/lastmile_qr_scan"}, "is_reserved": 0}, {"lon": -76.99013216666667, "bike_id": "5ac5bc52b05f89aaad50d9c4998e2990", "lat": 38.946015, "fusion_lon": 0.0, "fusion_lat": 0.0, "type": "electric_scooter", "name": "5ac5bc52b05f89aaad50d9c4998e2990", "is_disabled": 0, "rental_uris": {"ios": "https://dc.lft.to/lastmile_qr_scan", "android": "https://dc.lft.to/lastmile_qr_scan"}, "is_reserved": 0}, {"lon": -77.03858366666667, "bike_id": "e1a5f92559e6506bea3743f09e3bb1d2", "lat": 38.92013733333334, "fusion_lon": 0.0, "fusion_lat": 0.0, "type": "electric_scooter", "name": "e1a5f92559e6506bea3743f09e3bb1d2", "is_disabled": 0, "rental_uris": {"ios": "https://dc.lft.to/lastmile_qr_scan", "android": "https://dc.lft.to/lastmile_qr_scan"}, "is_reserved": 0}, {"lon": -77.07008083333334, "bike_id": "4ba24c816a1a8c9c1fcd46b3757b3dd1", "lat": 38.9585385, "fusion_lon": 0.0, "fusion_lat": 0.0, "type": "electric_scooter", "name": "4ba24c816a1a8c9c1fcd46b3757b3dd1", "is_disabled": 0, "rental_uris": {"ios": "https://dc.lft.to/lastmile_qr_scan", "android": "https://dc.lft.to/lastmile_qr_scan"}, "is_reserved": 0}, {"lon": -77.02897466666667, "bike_id": "9ae5a37b55f127c8780fcaae0bd62a9d", "lat": 38.91699766666667, "fusion_lon": 0.0, "fusion_lat": 0.0, "type": "electric_scooter", "name": "9ae5a37b55f127c8780fcaae0bd62a9d", "is_disabled": 0, "rental_uris": {"ios": "https://dc.lft.to/lastmile_qr_scan", "android": "https://dc.lft.to/lastmile_qr_scan"}, "is_reserved": 0}, {"lon": -77.02943766666667, "bike_id": "43fdea2d095e3cd526734ec792e52a28", "lat": 38.89659483333333, "fusion_lon": 0.0, "fusion_lat": 0.0, "type": "electric_scooter", "name": "43fdea2d095e3cd526734ec792e52a28", "is_disabled": 0, "rental_uris": {"ios": "https://dc.lft.to/lastmile_qr_scan", "android": "https://dc.lft.to/lastmile_qr_scan"}, "is_reserved": 0}, {"lon": -77.01302466666667, "bike_id": "c43738bb14ca15787ab19bd7e18eae05", "lat": 38.94322016666667, "fusion_lon": 0.0, "fusion_lat": 0.0, "type": "electric_scooter", "name": "c43738bb14ca15787ab19bd7e18eae05", "is_disabled": 0, "rental_uris": {"ios": "https://dc.lft.to/lastmile_qr_scan", "android": "https://dc.lft.to/lastmile_qr_scan"}, "is_reserved": 0}, {"lon": -77.029523, "bike_id": "289014c5bb28fcf0b2717279fa7f97c8", "lat": 38.885929, "fusion_lon": 0.0, "fusion_lat": 0.0, "type": "electric_bike", "name": "289014c5bb28fcf0b2717279fa7f97c8", "is_disabled": 0, "rental_uris": {"ios": "https://dc.lft.to/lastmile_qr_scan", "android": "https://dc.lft.to/lastmile_qr_scan"}, "is_reserved": 0}, {"lon": -76.960918, "bike_id": "e066b1943a0e45a674d31f6059aa1412", "lat": 38.918658666666666, "fusion_lon": 0.0, "fusion_lat": 0.0, "type": "electric_bike", "name": "e066b1943a0e45a674d31f6059aa1412", "is_disabled": 0, "rental_uris": {"ios": "https://dc.lft.to/lastmile_qr_scan", "android": "https://dc.lft.to/lastmile_qr_scan"}, "is_reserved": 0}, {"lon": -77.03220616666667, "bike_id": "2e501a469e71d5ebaad42650be9197bc", "lat": 38.9192695, "fusion_lon": 0.0, "fusion_lat": 0.0, "type": "electric_scooter", "name": "2e501a469e71d5ebaad42650be9197bc", "is_disabled": 0, "rental_uris": {"ios": "https://dc.lft.to/lastmile_qr_scan", "android": "https://dc.lft.to/lastmile_qr_scan"}, "is_reserved": 0}, {"lon": -77.034412, "bike_id": "710924dc5e0cde6f7d4634dc35672405", "lat": 38.91800683333334, "fusion_lon": 0.0, "fusion_lat": 0.0, "type": "electric_scooter", "name": "710924dc5e0cde6f7d4634dc35672405", "is_disabled": 0, "rental_uris": {"ios": "https://dc.lft.to/lastmile_qr_scan", "android": "https://dc.lft.to/lastmile_qr_scan"}, "is_reserved": 0}, {"lon": -77.00577983333334, "bike_id": "c7c103f85e002ecb72118c01a31f085a", "lat": 38.83585516666667, "fusion_lon": 0.0, "fusion_lat": 0.0, "type": "electric_scooter", "name": "c7c103f85e002ecb72118c01a31f085a", "is_disabled": 0, "rental_uris": {"ios": "https://dc.lft.to/lastmile_qr_scan", "android": "https://dc.lft.to/lastmile_qr_scan"}, "is_reserved": 0}, {"lon": -77.04874533333333, "bike_id": "4a71fc90084d4ab7fb786761c142c61f", "lat": 38.89232333333333, "fusion_lon": 0.0, "fusion_lat": 0.0, "type": "electric_scooter", "name": "4a71fc90084d4ab7fb786761c142c61f", "is_disabled": 0, "rental_uris": {"ios": "https://dc.lft.to/lastmile_qr_scan", "android": "https://dc.lft.to/lastmile_qr_scan"}, "is_reserved": 0}, {"lon": -77.04436216666667, "bike_id": "300311e212e35e35b2c181d764d3a019", "lat": 38.90957266666667, "fusion_lon": 0.0, "fusion_lat": 0.0, "type": "electric_scooter", "name": "300311e212e35e35b2c181d764d3a019", "is_disabled": 0, "rental_uris": {"ios": "https://dc.lft.to/lastmile_qr_scan", "android": "https://dc.lft.to/lastmile_qr_scan"}, "is_reserved": 0}, {"lon": -76.99379133333333, "bike_id": "6c8daa08cc7e3ca672b201eb63a49bd5", "lat": 38.97187616666667, "fusion_lon": 0.0, "fusion_lat": 0.0, "type": "electric_bike", "name": "6c8daa08cc7e3ca672b201eb63a49bd5", "is_disabled": 0, "rental_uris": {"ios": "https://dc.lft.to/lastmile_qr_scan", "android": "https://dc.lft.to/lastmile_qr_scan"}, "is_reserved": 0}, {"lon": -77.04846583333334, "bike_id": "8214b8cfc208a24d78df3118fb25625a", "lat": 38.888356333333334, "fusion_lon": 0.0, "fusion_lat": 0.0, "type": "electric_scooter", "name": "8214b8cfc208a24d78df3118fb25625a", "is_disabled": 0, "rental_uris": {"ios": "https://dc.lft.to/lastmile_qr_scan", "android": "https://dc.lft.to/lastmile_qr_scan"}, "is_reserved": 0}, {"lon": -76.98751066666667, "bike_id": "41789c50ff51742db767d7349bd86074", "lat": 38.9002895, "fusion_lon": 0.0, "fusion_lat": 0.0, "type": "electric_scooter", "name": "41789c50ff51742db767d7349bd86074", "is_disabled": 0, "rental_uris": {"ios": "https://dc.lft.to/lastmile_qr_scan", "android": "https://dc.lft.to/lastmile_qr_scan"}, "is_reserved": 0}, {"lon": -77.02391533333333, "bike_id": "048b0813baff2af969614ec66bce0953", "lat": 38.91145183333333, "fusion_lon": 0.0, "fusion_lat": 0.0, "type": "electric_scooter", "name": "048b0813baff2af969614ec66bce0953", "is_disabled": 0, "rental_uris": {"ios": "https://dc.lft.to/lastmile_qr_scan", "android": "https://dc.lft.to/lastmile_qr_scan"}, "is_reserved": 0}, {"lon": -77.03667333333334, "bike_id": "aa099f48933cdba68a364edde6787816", "lat": 38.9182005, "fusion_lon": 0.0, "fusion_lat": 0.0, "type": "electric_scooter", "name": "aa099f48933cdba68a364edde6787816", "is_disabled": 0, "rental_uris": {"ios": "https://dc.lft.to/lastmile_qr_scan", "android": "https://dc.lft.to/lastmile_qr_scan"}, "is_reserved": 0}, {"lon": -77.02213766666667, "bike_id": "5221f4384a7c2aeed79a88ccc23225a6", "lat": 38.905546, "fusion_lon": 0.0, "fusion_lat": 0.0, "type": "electric_scooter", "name": "5221f4384a7c2aeed79a88ccc23225a6", "is_disabled": 0, "rental_uris": {"ios": "https://dc.lft.to/lastmile_qr_scan", "android": "https://dc.lft.to/lastmile_qr_scan"}, "is_reserved": 0}, {"lon": -77.03867066666666, "bike_id": "1470f6df33245b4a6dcdfe4707b72329", "lat": 38.90969416666667, "fusion_lon": 0.0, "fusion_lat": 0.0, "type": "electric_scooter", "name": "1470f6df33245b4a6dcdfe4707b72329", "is_disabled": 0, "rental_uris": {"ios": "https://dc.lft.to/lastmile_qr_scan", "android": "https://dc.lft.to/lastmile_qr_scan"}, "is_reserved": 0}, {"lon": -77.00579383333333, "bike_id": "05ee9d455ef4231a9722bbf07cdecdcf", "lat": 38.830005, "fusion_lon": 0.0, "fusion_lat": 0.0, "type": "electric_scooter", "name": "05ee9d455ef4231a9722bbf07cdecdcf", "is_disabled": 0, "rental_uris": {"ios": "https://dc.lft.to/lastmile_qr_scan", "android": "https://dc.lft.to/lastmile_qr_scan"}, "is_reserved": 0}, {"lon": -77.09470516666667, "bike_id": "1aed2e5103f3e670ed7339716252c3d7", "lat": 38.869363, "fusion_lon": 0.0, "fusion_lat": 0.0, "type": "electric_bike", "name": "1aed2e5103f3e670ed7339716252c3d7", "is_disabled": 0, "rental_uris": {"ios": "https://dc.lft.to/lastmile_qr_scan", "android": "https://dc.lft.to/lastmile_qr_scan"}, "is_reserved": 0}, {"lon": -76.98798733333334, "bike_id": "3eccaaf1c02596dae22aed6da7ffab43", "lat": 38.8923925, "fusion_lon": 0.0, "fusion_lat": 0.0, "type": "electric_scooter", "name": "3eccaaf1c02596dae22aed6da7ffab43", "is_disabled": 0, "rental_uris": {"ios": "https://dc.lft.to/lastmile_qr_scan", "android": "https://dc.lft.to/lastmile_qr_scan"}, "is_reserved": 0}, {"lon": -77.10526433333334, "bike_id": "795ae8d9d3d8ddc5e831ec245db1da83", "lat": 38.87374483333333, "fusion_lon": 0.0, "fusion_lat": 0.0, "type": "electric_bike", "name": "795ae8d9d3d8ddc5e831ec245db1da83", "is_disabled": 0, "rental_uris": {"ios": "https://dc.lft.to/lastmile_qr_scan", "android": "https://dc.lft.to/lastmile_qr_scan"}, "is_reserved": 0}, {"lon": -77.041114, "bike_id": "0884704ee47a50fb916f414e0b562f84", "lat": 38.915539333333335, "fusion_lon": 0.0, "fusion_lat": 0.0, "type": "electric_scooter", "name": "0884704ee47a50fb916f414e0b562f84", "is_disabled": 0, "rental_uris": {"ios": "https://dc.lft.to/lastmile_qr_scan", "android": "https://dc.lft.to/lastmile_qr_scan"}, "is_reserved": 0}, {"lon": -77.07823666666667, "bike_id": "12b97b6fdb35094a838a6edbd30dc82a", "lat": 38.9237245, "fusion_lon": 0.0, "fusion_lat": 0.0, "type": "electric_scooter", "name": "12b97b6fdb35094a838a6edbd30dc82a", "is_disabled": 0, "rental_uris": {"ios": "https://dc.lft.to/lastmile_qr_scan", "android": "https://dc.lft.to/lastmile_qr_scan"}, "is_reserved": 0}, {"lon": -76.99219166666667, "bike_id": "089353121ff2ebae3a0abf0d954b76ec", "lat": 38.91867766666667, "fusion_lon": 0.0, "fusion_lat": 0.0, "type": "electric_scooter", "name": "089353121ff2ebae3a0abf0d954b76ec", "is_disabled": 0, "rental_uris": {"ios": "https://dc.lft.to/lastmile_qr_scan", "android": "https://dc.lft.to/lastmile_qr_scan"}, "is_reserved": 0}, {"lon": -76.99267616666667, "bike_id": "e2c065fd5a9768de8f1b898eac4895a8", "lat": 38.9039035, "fusion_lon": 0.0, "fusion_lat": 0.0, "type": "electric_scooter", "name": "e2c065fd5a9768de8f1b898eac4895a8", "is_disabled": 0, "rental_uris": {"ios": "https://dc.lft.to/lastmile_qr_scan", "android": "https://dc.lft.to/lastmile_qr_scan"}, "is_reserved": 0}, {"lon": -77.02359, "bike_id": "1d49e12a784a2e2a5d45e3615036f85d", "lat": 38.8962595, "fusion_lon": 0.0, "fusion_lat": 0.0, "type": "electric_scooter", "name": "1d49e12a784a2e2a5d45e3615036f85d", "is_disabled": 0, "rental_uris": {"ios": "https://dc.lft.to/lastmile_qr_scan", "android": "https://dc.lft.to/lastmile_qr_scan"}, "is_reserved": 0}, {"lon": -77.04352183333333, "bike_id": "219c47202ea8d2962a6dee1ffb100583", "lat": 38.91219366666667, "fusion_lon": 0.0, "fusion_lat": 0.0, "type": "electric_scooter", "name": "219c47202ea8d2962a6dee1ffb100583", "is_disabled": 0, "rental_uris": {"ios": "https://dc.lft.to/lastmile_qr_scan", "android": "https://dc.lft.to/lastmile_qr_scan"}, "is_reserved": 0}, {"lon": -77.06287383333333, "bike_id": "487e02b634b164b60e8080d1182f2bad", "lat": 38.913189833333334, "fusion_lon": 0.0, "fusion_lat": 0.0, "type": "electric_bike", "name": "487e02b634b164b60e8080d1182f2bad", "is_disabled": 0, "rental_uris": {"ios": "https://dc.lft.to/lastmile_qr_scan", "android": "https://dc.lft.to/lastmile_qr_scan"}, "is_reserved": 0}, {"lon": -77.03965083333334, "bike_id": "342562e48abf67c61803b5177d609fde", "lat": 38.89898316666667, "fusion_lon": 0.0, "fusion_lat": 0.0, "type": "electric_scooter", "name": "342562e48abf67c61803b5177d609fde", "is_disabled": 0, "rental_uris": {"ios": "https://dc.lft.to/lastmile_qr_scan", "android": "https://dc.lft.to/lastmile_qr_scan"}, "is_reserved": 0}, {"lon": -77.03232933333334, "bike_id": "c44d324aacd340ab5b552c6a2fe1034e", "lat": 38.929916666666664, "fusion_lon": 0.0, "fusion_lat": 0.0, "type": "electric_scooter", "name": "c44d324aacd340ab5b552c6a2fe1034e", "is_disabled": 0, "rental_uris": {"ios": "https://dc.lft.to/lastmile_qr_scan", "android": "https://dc.lft.to/lastmile_qr_scan"}, "is_reserved": 0}, {"lon": -76.9814385, "bike_id": "172f691865d9aabc405073561e2f9e90", "lat": 38.905627833333334, "fusion_lon": 0.0, "fusion_lat": 0.0, "type": "electric_scooter", "name": "172f691865d9aabc405073561e2f9e90", "is_disabled": 0, "rental_uris": {"ios": "https://dc.lft.to/lastmile_qr_scan", "android": "https://dc.lft.to/lastmile_qr_scan"}, "is_reserved": 0}, {"lon": -77.05957583333333, "bike_id": "747cf3e2f71815b2effe6b0ef00bed85", "lat": 38.9054215, "fusion_lon": 0.0, "fusion_lat": 0.0, "type": "electric_scooter", "name": "747cf3e2f71815b2effe6b0ef00bed85", "is_disabled": 0, "rental_uris": {"ios": "https://dc.lft.to/lastmile_qr_scan", "android": "https://dc.lft.to/lastmile_qr_scan"}, "is_reserved": 0}, {"lon": -77.055648, "bike_id": "3cbf6f49d3d56e74a0f444bcd61885b9", "lat": 38.93041616666667, "fusion_lon": 0.0, "fusion_lat": 0.0, "type": "electric_scooter", "name": "3cbf6f49d3d56e74a0f444bcd61885b9", "is_disabled": 0, "rental_uris": {"ios": "https://dc.lft.to/lastmile_qr_scan", "android": "https://dc.lft.to/lastmile_qr_scan"}, "is_reserved": 0}, {"lon": -77.03717266666666, "bike_id": "ed443d5d1866175d5d2fcd2a311623c8", "lat": 38.914793, "fusion_lon": 0.0, "fusion_lat": 0.0, "type": "electric_scooter", "name": "ed443d5d1866175d5d2fcd2a311623c8", "is_disabled": 0, "rental_uris": {"ios": "https://dc.lft.to/lastmile_qr_scan", "android": "https://dc.lft.to/lastmile_qr_scan"}, "is_reserved": 0}, {"lon": -77.0010805, "bike_id": "07d5fafc8409d79130ccd474f9fe3bd7", "lat": 38.917049166666665, "fusion_lon": 0.0, "fusion_lat": 0.0, "type": "electric_scooter", "name": "07d5fafc8409d79130ccd474f9fe3bd7", "is_disabled": 0, "rental_uris": {"ios": "https://dc.lft.to/lastmile_qr_scan", "android": "https://dc.lft.to/lastmile_qr_scan"}, "is_reserved": 0}, {"lon": -77.0189325, "bike_id": "10056dcc24f777acb275756f82eddc5b", "lat": 38.87459916666667, "fusion_lon": 0.0, "fusion_lat": 0.0, "type": "electric_scooter", "name": "10056dcc24f777acb275756f82eddc5b", "is_disabled": 0, "rental_uris": {"ios": "https://dc.lft.to/lastmile_qr_scan", "android": "https://dc.lft.to/lastmile_qr_scan"}, "is_reserved": 0}, {"lon": -77.03259866666667, "bike_id": "2e5ae615ebeb04139674d95b28a42487", "lat": 38.932661333333336, "fusion_lon": 0.0, "fusion_lat": 0.0, "type": "electric_scooter", "name": "2e5ae615ebeb04139674d95b28a42487", "is_disabled": 0, "rental_uris": {"ios": "https://dc.lft.to/lastmile_qr_scan", "android": "https://dc.lft.to/lastmile_qr_scan"}, "is_reserved": 0}, {"lon": -77.034342, "bike_id": "08e6b5b7ceec3706025ff1987cb92bee", "lat": 38.90974516666667, "fusion_lon": 0.0, "fusion_lat": 0.0, "type": "electric_scooter", "name": "08e6b5b7ceec3706025ff1987cb92bee", "is_disabled": 0, "rental_uris": {"ios": "https://dc.lft.to/lastmile_qr_scan", "android": "https://dc.lft.to/lastmile_qr_scan"}, "is_reserved": 0}, {"lon": -77.04106533333334, "bike_id": "b80b9df4e04890b9c548ac34f1f5049a", "lat": 38.892307833333334, "fusion_lon": 0.0, "fusion_lat": 0.0, "type": "electric_scooter", "name": "b80b9df4e04890b9c548ac34f1f5049a", "is_disabled": 0, "rental_uris": {"ios": "https://dc.lft.to/lastmile_qr_scan", "android": "https://dc.lft.to/lastmile_qr_scan"}, "is_reserved": 0}, {"lon": -77.0026055, "bike_id": "1e661ab1cb10c66a39e4d358167a5613", "lat": 38.91820033333333, "fusion_lon": 0.0, "fusion_lat": 0.0, "type": "electric_scooter", "name": "1e661ab1cb10c66a39e4d358167a5613", "is_disabled": 0, "rental_uris": {"ios": "https://dc.lft.to/lastmile_qr_scan", "android": "https://dc.lft.to/lastmile_qr_scan"}, "is_reserved": 0}, {"lon": -77.02721633333333, "bike_id": "1fb836011d1755aea43435c50db7633c", "lat": 38.90671716666667, "fusion_lon": 0.0, "fusion_lat": 0.0, "type": "electric_scooter", "name": "1fb836011d1755aea43435c50db7633c", "is_disabled": 0, "rental_uris": {"ios": "https://dc.lft.to/lastmile_qr_scan", "android": "https://dc.lft.to/lastmile_qr_scan"}, "is_reserved": 0}, {"lon": -77.04496066666667, "bike_id": "e4a8686029516b1f139760a2a7b73df0", "lat": 38.919317, "fusion_lon": 0.0, "fusion_lat": 0.0, "type": "electric_scooter", "name": "e4a8686029516b1f139760a2a7b73df0", "is_disabled": 0, "rental_uris": {"ios": "https://dc.lft.to/lastmile_qr_scan", "android": "https://dc.lft.to/lastmile_qr_scan"}, "is_reserved": 0}, {"lon": -77.0487745, "bike_id": "2376d52ef0b7aff107934b007bc7954a", "lat": 38.892353, "fusion_lon": 0.0, "fusion_lat": 0.0, "type": "electric_scooter", "name": "2376d52ef0b7aff107934b007bc7954a", "is_disabled": 0, "rental_uris": {"ios": "https://dc.lft.to/lastmile_qr_scan", "android": "https://dc.lft.to/lastmile_qr_scan"}, "is_reserved": 0}, {"lon": -77.01627233333333, "bike_id": "5704e79060216aedeee5e854471fd2c1", "lat": 38.906104166666665, "fusion_lon": 0.0, "fusion_lat": 0.0, "type": "electric_scooter", "name": "5704e79060216aedeee5e854471fd2c1", "is_disabled": 0, "rental_uris": {"ios": "https://dc.lft.to/lastmile_qr_scan", "android": "https://dc.lft.to/lastmile_qr_scan"}, "is_reserved": 0}, {"lon": -77.09494716666667, "bike_id": "47ab45a9658002fd991d416773a136a3", "lat": 38.807641833333335, "fusion_lon": 0.0, "fusion_lat": 0.0, "type": "electric_bike", "name": "47ab45a9658002fd991d416773a136a3", "is_disabled": 0, "rental_uris": {"ios": "https://dc.lft.to/lastmile_qr_scan", "android": "https://dc.lft.to/lastmile_qr_scan"}, "is_reserved": 0}, {"lon": -77.03646116666667, "bike_id": "e31b4b3e7c4d58adb59ed00996e67984", "lat": 38.90361816666667, "fusion_lon": 0.0, "fusion_lat": 0.0, "type": "electric_scooter", "name": "e31b4b3e7c4d58adb59ed00996e67984", "is_disabled": 0, "rental_uris": {"ios": "https://dc.lft.to/lastmile_qr_scan", "android": "https://dc.lft.to/lastmile_qr_scan"}, "is_reserved": 0}, {"lon": -77.0279215, "bike_id": "345f29f7c51234caa92f960db3a30d52", "lat": 38.9276165, "fusion_lon": 0.0, "fusion_lat": 0.0, "type": "electric_scooter", "name": "345f29f7c51234caa92f960db3a30d52", "is_disabled": 0, "rental_uris": {"ios": "https://dc.lft.to/lastmile_qr_scan", "android": "https://dc.lft.to/lastmile_qr_scan"}, "is_reserved": 0}, {"lon": -76.98661683333333, "bike_id": "342b048518806b71585fb6010b99e815", "lat": 38.91253666666667, "fusion_lon": 0.0, "fusion_lat": 0.0, "type": "electric_scooter", "name": "342b048518806b71585fb6010b99e815", "is_disabled": 0, "rental_uris": {"ios": "https://dc.lft.to/lastmile_qr_scan", "android": "https://dc.lft.to/lastmile_qr_scan"}, "is_reserved": 0}, {"lon": -76.9883655, "bike_id": "80e774dd3bdd2c79d48e19e229be36df", "lat": 38.9012615, "fusion_lon": 0.0, "fusion_lat": 0.0, "type": "electric_scooter", "name": "80e774dd3bdd2c79d48e19e229be36df", "is_disabled": 0, "rental_uris": {"ios": "https://dc.lft.to/lastmile_qr_scan", "android": "https://dc.lft.to/lastmile_qr_scan"}, "is_reserved": 0}, {"lon": -77.04160366666666, "bike_id": "afc044e379040340045a85d8f9852f45", "lat": 38.917994, "fusion_lon": 0.0, "fusion_lat": 0.0, "type": "electric_scooter", "name": "afc044e379040340045a85d8f9852f45", "is_disabled": 0, "rental_uris": {"ios": "https://dc.lft.to/lastmile_qr_scan", "android": "https://dc.lft.to/lastmile_qr_scan"}, "is_reserved": 0}, {"lon": -77.02383366666666, "bike_id": "b7addf0be70b27d567992e324dabefca", "lat": 38.907834666666666, "fusion_lon": 0.0, "fusion_lat": 0.0, "type": "electric_scooter", "name": "b7addf0be70b27d567992e324dabefca", "is_disabled": 0, "rental_uris": {"ios": "https://dc.lft.to/lastmile_qr_scan", "android": "https://dc.lft.to/lastmile_qr_scan"}, "is_reserved": 0}, {"lon": -77.032006, "bike_id": "88ef4c49344db91dda91d33ba43b9273", "lat": 38.93047333333333, "fusion_lon": 0.0, "fusion_lat": 0.0, "type": "electric_scooter", "name": "88ef4c49344db91dda91d33ba43b9273", "is_disabled": 0, "rental_uris": {"ios": "https://dc.lft.to/lastmile_qr_scan", "android": "https://dc.lft.to/lastmile_qr_scan"}, "is_reserved": 0}, {"lon": -77.02412266666667, "bike_id": "e924c51aa81fdb8bb8cb002af7a1954a", "lat": 38.92158083333333, "fusion_lon": 0.0, "fusion_lat": 0.0, "type": "electric_scooter", "name": "e924c51aa81fdb8bb8cb002af7a1954a", "is_disabled": 0, "rental_uris": {"ios": "https://dc.lft.to/lastmile_qr_scan", "android": "https://dc.lft.to/lastmile_qr_scan"}, "is_reserved": 0}, {"lon": -77.0061195, "bike_id": "cef89d556d43352e8f5eaef4a0d499be", "lat": 38.871805333333334, "fusion_lon": 0.0, "fusion_lat": 0.0, "type": "electric_scooter", "name": "cef89d556d43352e8f5eaef4a0d499be", "is_disabled": 0, "rental_uris": {"ios": "https://dc.lft.to/lastmile_qr_scan", "android": "https://dc.lft.to/lastmile_qr_scan"}, "is_reserved": 0}, {"lon": -76.984582, "bike_id": "c1bc2784bea925f132e2241c89b459e8", "lat": 38.905527666666664, "fusion_lon": 0.0, "fusion_lat": 0.0, "type": "electric_scooter", "name": "c1bc2784bea925f132e2241c89b459e8", "is_disabled": 0, "rental_uris": {"ios": "https://dc.lft.to/lastmile_qr_scan", "android": "https://dc.lft.to/lastmile_qr_scan"}, "is_reserved": 0}, {"lon": -77.032011, "bike_id": "2ada072b4ce2d2629e5e193d2fd027d5", "lat": 38.919614833333334, "fusion_lon": 0.0, "fusion_lat": 0.0, "type": "electric_scooter", "name": "2ada072b4ce2d2629e5e193d2fd027d5", "is_disabled": 0, "rental_uris": {"ios": "https://dc.lft.to/lastmile_qr_scan", "android": "https://dc.lft.to/lastmile_qr_scan"}, "is_reserved": 0}, {"lon": -77.03637883333333, "bike_id": "ef1e5306514bc85726eb09c27d906f8a", "lat": 38.9176645, "fusion_lon": 0.0, "fusion_lat": 0.0, "type": "electric_scooter", "name": "ef1e5306514bc85726eb09c27d906f8a", "is_disabled": 0, "rental_uris": {"ios": "https://dc.lft.to/lastmile_qr_scan", "android": "https://dc.lft.to/lastmile_qr_scan"}, "is_reserved": 0}, {"lon": -77.003431, "bike_id": "ce3b6c78d2554ce4356d9beeb4640a3c", "lat": 38.91625483333333, "fusion_lon": 0.0, "fusion_lat": 0.0, "type": "electric_scooter", "name": "ce3b6c78d2554ce4356d9beeb4640a3c", "is_disabled": 0, "rental_uris": {"ios": "https://dc.lft.to/lastmile_qr_scan", "android": "https://dc.lft.to/lastmile_qr_scan"}, "is_reserved": 0}, {"lon": -76.9917385, "bike_id": "26c6a52c50664972cc0114bb15957178", "lat": 38.889895333333335, "fusion_lon": 0.0, "fusion_lat": 0.0, "type": "electric_scooter", "name": "26c6a52c50664972cc0114bb15957178", "is_disabled": 0, "rental_uris": {"ios": "https://dc.lft.to/lastmile_qr_scan", "android": "https://dc.lft.to/lastmile_qr_scan"}, "is_reserved": 0}, {"lon": -77.02429683333334, "bike_id": "16827e1807f997082976994aac84c9d3", "lat": 38.923423666666665, "fusion_lon": 0.0, "fusion_lat": 0.0, "type": "electric_scooter", "name": "16827e1807f997082976994aac84c9d3", "is_disabled": 0, "rental_uris": {"ios": "https://dc.lft.to/lastmile_qr_scan", "android": "https://dc.lft.to/lastmile_qr_scan"}, "is_reserved": 0}, {"lon": -77.05063, "bike_id": "acb2c65ffb54c84f147f35fa8bd7fc24", "lat": 38.925874, "fusion_lon": 0.0, "fusion_lat": 0.0, "type": "electric_scooter", "name": "acb2c65ffb54c84f147f35fa8bd7fc24", "is_disabled": 0, "rental_uris": {"ios": "https://dc.lft.to/lastmile_qr_scan", "android": "https://dc.lft.to/lastmile_qr_scan"}, "is_reserved": 0}, {"lon": -77.03760733333333, "bike_id": "66482b8ee5d621d745e173f8f563c014", "lat": 38.9288245, "fusion_lon": 0.0, "fusion_lat": 0.0, "type": "electric_scooter", "name": "66482b8ee5d621d745e173f8f563c014", "is_disabled": 0, "rental_uris": {"ios": "https://dc.lft.to/lastmile_qr_scan", "android": "https://dc.lft.to/lastmile_qr_scan"}, "is_reserved": 0}, {"lon": -77.02492683333334, "bike_id": "9cc5862650e078b88c4f7484c32efe0f", "lat": 38.9191575, "fusion_lon": 0.0, "fusion_lat": 0.0, "type": "electric_scooter", "name": "9cc5862650e078b88c4f7484c32efe0f", "is_disabled": 0, "rental_uris": {"ios": "https://dc.lft.to/lastmile_qr_scan", "android": "https://dc.lft.to/lastmile_qr_scan"}, "is_reserved": 0}, {"lon": -77.04162533333333, "bike_id": "683caefefa831790de5f324c0c4ee648", "lat": 38.912521166666664, "fusion_lon": 0.0, "fusion_lat": 0.0, "type": "electric_scooter", "name": "683caefefa831790de5f324c0c4ee648", "is_disabled": 0, "rental_uris": {"ios": "https://dc.lft.to/lastmile_qr_scan", "android": "https://dc.lft.to/lastmile_qr_scan"}, "is_reserved": 0}, {"lon": -77.03343966666667, "bike_id": "3438e9e2c73a1622bb11f36d477bece6", "lat": 38.89897533333333, "fusion_lon": 0.0, "fusion_lat": 0.0, "type": "electric_scooter", "name": "3438e9e2c73a1622bb11f36d477bece6", "is_disabled": 0, "rental_uris": {"ios": "https://dc.lft.to/lastmile_qr_scan", "android": "https://dc.lft.to/lastmile_qr_scan"}, "is_reserved": 0}, {"lon": -76.93734033333334, "bike_id": "4c0225cf718ea86d6a16b344c77a3e4e", "lat": 38.890074166666665, "fusion_lon": 0.0, "fusion_lat": 0.0, "type": "electric_scooter", "name": "4c0225cf718ea86d6a16b344c77a3e4e", "is_disabled": 0, "rental_uris": {"ios": "https://dc.lft.to/lastmile_qr_scan", "android": "https://dc.lft.to/lastmile_qr_scan"}, "is_reserved": 0}, {"lon": -77.02495283333333, "bike_id": "aa8e02cb9a92347d85129d955ab6c452", "lat": 38.930950333333335, "fusion_lon": 0.0, "fusion_lat": 0.0, "type": "electric_scooter", "name": "aa8e02cb9a92347d85129d955ab6c452", "is_disabled": 0, "rental_uris": {"ios": "https://dc.lft.to/lastmile_qr_scan", "android": "https://dc.lft.to/lastmile_qr_scan"}, "is_reserved": 0}, {"lon": -77.0581175, "bike_id": "47a4505a7b7eff0b3cc17d43f87d3f63", "lat": 38.935103833333336, "fusion_lon": 0.0, "fusion_lat": 0.0, "type": "electric_scooter", "name": "47a4505a7b7eff0b3cc17d43f87d3f63", "is_disabled": 0, "rental_uris": {"ios": "https://dc.lft.to/lastmile_qr_scan", "android": "https://dc.lft.to/lastmile_qr_scan"}, "is_reserved": 0}, {"lon": -77.0234295, "bike_id": "c7703d2c16078c9b4efcb40a8f3b99da", "lat": 38.902871833333336, "fusion_lon": 0.0, "fusion_lat": 0.0, "type": "electric_scooter", "name": "c7703d2c16078c9b4efcb40a8f3b99da", "is_disabled": 0, "rental_uris": {"ios": "https://dc.lft.to/lastmile_qr_scan", "android": "https://dc.lft.to/lastmile_qr_scan"}, "is_reserved": 0}, {"lon": -77.04378733333333, "bike_id": "0c43f4f4bc2d2ce1a0b421597cf62665", "lat": 38.920717, "fusion_lon": 0.0, "fusion_lat": 0.0, "type": "electric_scooter", "name": "0c43f4f4bc2d2ce1a0b421597cf62665", "is_disabled": 0, "rental_uris": {"ios": "https://dc.lft.to/lastmile_qr_scan", "android": "https://dc.lft.to/lastmile_qr_scan"}, "is_reserved": 0}, {"lon": -77.04431733333334, "bike_id": "647a961085eb33f400a55b322760a01d", "lat": 38.92131083333334, "fusion_lon": 0.0, "fusion_lat": 0.0, "type": "electric_scooter", "name": "647a961085eb33f400a55b322760a01d", "is_disabled": 0, "rental_uris": {"ios": "https://dc.lft.to/lastmile_qr_scan", "android": "https://dc.lft.to/lastmile_qr_scan"}, "is_reserved": 0}, {"lon": -77.01646333333333, "bike_id": "418452ff0c0ebe6c24616d6350198f80", "lat": 38.92897816666667, "fusion_lon": 0.0, "fusion_lat": 0.0, "type": "electric_scooter", "name": "418452ff0c0ebe6c24616d6350198f80", "is_disabled": 0, "rental_uris": {"ios": "https://dc.lft.to/lastmile_qr_scan", "android": "https://dc.lft.to/lastmile_qr_scan"}, "is_reserved": 0}, {"lon": -77.07767133333333, "bike_id": "77572ec01ef9a92e30b9887c4de1416a", "lat": 38.9255595, "fusion_lon": 0.0, "fusion_lat": 0.0, "type": "electric_scooter", "name": "77572ec01ef9a92e30b9887c4de1416a", "is_disabled": 0, "rental_uris": {"ios": "https://dc.lft.to/lastmile_qr_scan", "android": "https://dc.lft.to/lastmile_qr_scan"}, "is_reserved": 0}, {"lon": -77.02198133333333, "bike_id": "49a1dc4899415bb3824945b096d00bec", "lat": 38.902119666666664, "fusion_lon": 0.0, "fusion_lat": 0.0, "type": "electric_scooter", "name": "49a1dc4899415bb3824945b096d00bec", "is_disabled": 0, "rental_uris": {"ios": "https://dc.lft.to/lastmile_qr_scan", "android": "https://dc.lft.to/lastmile_qr_scan"}, "is_reserved": 0}, {"lon": -77.06297933333333, "bike_id": "23789b1eca2df2dd096eca5c51bfdd80", "lat": 38.90537966666667, "fusion_lon": 0.0, "fusion_lat": 0.0, "type": "electric_scooter", "name": "23789b1eca2df2dd096eca5c51bfdd80", "is_disabled": 0, "rental_uris": {"ios": "https://dc.lft.to/lastmile_qr_scan", "android": "https://dc.lft.to/lastmile_qr_scan"}, "is_reserved": 0}, {"lon": -77.02798083333333, "bike_id": "6330a9c8357ee08e5e427103302a006e", "lat": 38.93023783333334, "fusion_lon": 0.0, "fusion_lat": 0.0, "type": "electric_scooter", "name": "6330a9c8357ee08e5e427103302a006e", "is_disabled": 0, "rental_uris": {"ios": "https://dc.lft.to/lastmile_qr_scan", "android": "https://dc.lft.to/lastmile_qr_scan"}, "is_reserved": 0}, {"lon": -76.99770833333334, "bike_id": "cad96bf003c84a3aa7f14348f762687f", "lat": 38.92299966666667, "fusion_lon": 0.0, "fusion_lat": 0.0, "type": "electric_scooter", "name": "cad96bf003c84a3aa7f14348f762687f", "is_disabled": 0, "rental_uris": {"ios": "https://dc.lft.to/lastmile_qr_scan", "android": "https://dc.lft.to/lastmile_qr_scan"}, "is_reserved": 0}, {"lon": -76.96357666666667, "bike_id": "dd2f18ef96a1258364f6362e28867dc6", "lat": 38.935003, "fusion_lon": 0.0, "fusion_lat": 0.0, "type": "electric_scooter", "name": "dd2f18ef96a1258364f6362e28867dc6", "is_disabled": 0, "rental_uris": {"ios": "https://dc.lft.to/lastmile_qr_scan", "android": "https://dc.lft.to/lastmile_qr_scan"}, "is_reserved": 0}, {"lon": -77.000668, "bike_id": "693a9ca31562fa8047beb1730db0af9e", "lat": 38.924341166666665, "fusion_lon": 0.0, "fusion_lat": 0.0, "type": "electric_scooter", "name": "693a9ca31562fa8047beb1730db0af9e", "is_disabled": 0, "rental_uris": {"ios": "https://dc.lft.to/lastmile_qr_scan", "android": "https://dc.lft.to/lastmile_qr_scan"}, "is_reserved": 0}, {"lon": -77.02948616666667, "bike_id": "a1412c4ac2cebbc2fbd9b40a573870b6", "lat": 38.905061, "fusion_lon": 0.0, "fusion_lat": 0.0, "type": "electric_scooter", "name": "a1412c4ac2cebbc2fbd9b40a573870b6", "is_disabled": 0, "rental_uris": {"ios": "https://dc.lft.to/lastmile_qr_scan", "android": "https://dc.lft.to/lastmile_qr_scan"}, "is_reserved": 0}, {"lon": -77.0091665, "bike_id": "0fe0bbecbe9a3e1443cc51bf151802b7", "lat": 38.82785, "fusion_lon": 0.0, "fusion_lat": 0.0, "type": "electric_bike", "name": "0fe0bbecbe9a3e1443cc51bf151802b7", "is_disabled": 0, "rental_uris": {"ios": "https://dc.lft.to/lastmile_qr_scan", "android": "https://dc.lft.to/lastmile_qr_scan"}, "is_reserved": 0}, {"lon": -76.98292566666667, "bike_id": "4688e723334c1edc884a3367d3dd1777", "lat": 38.90107583333333, "fusion_lon": 0.0, "fusion_lat": 0.0, "type": "electric_scooter", "name": "4688e723334c1edc884a3367d3dd1777", "is_disabled": 0, "rental_uris": {"ios": "https://dc.lft.to/lastmile_qr_scan", "android": "https://dc.lft.to/lastmile_qr_scan"}, "is_reserved": 0}, {"lon": -77.02119966666666, "bike_id": "20ac3b41171a6eaed66e15077feb9eba", "lat": 38.9370505, "fusion_lon": 0.0, "fusion_lat": 0.0, "type": "electric_scooter", "name": "20ac3b41171a6eaed66e15077feb9eba", "is_disabled": 0, "rental_uris": {"ios": "https://dc.lft.to/lastmile_qr_scan", "android": "https://dc.lft.to/lastmile_qr_scan"}, "is_reserved": 0}, {"lon": -77.03817583333333, "bike_id": "e7eedc0e3b940d4fb3790c0b2dbc37b9", "lat": 38.930946, "fusion_lon": 0.0, "fusion_lat": 0.0, "type": "electric_scooter", "name": "e7eedc0e3b940d4fb3790c0b2dbc37b9", "is_disabled": 0, "rental_uris": {"ios": "https://dc.lft.to/lastmile_qr_scan", "android": "https://dc.lft.to/lastmile_qr_scan"}, "is_reserved": 0}, {"lon": -77.01703333333333, "bike_id": "dba74f938befebcfe96a067ab4462bef", "lat": 38.9025095, "fusion_lon": 0.0, "fusion_lat": 0.0, "type": "electric_scooter", "name": "dba74f938befebcfe96a067ab4462bef", "is_disabled": 0, "rental_uris": {"ios": "https://dc.lft.to/lastmile_qr_scan", "android": "https://dc.lft.to/lastmile_qr_scan"}, "is_reserved": 0}, {"lon": -77.03338083333334, "bike_id": "4cd15a1c8b72ff75fd9db1800e3126f8", "lat": 38.9191745, "fusion_lon": 0.0, "fusion_lat": 0.0, "type": "electric_scooter", "name": "4cd15a1c8b72ff75fd9db1800e3126f8", "is_disabled": 0, "rental_uris": {"ios": "https://dc.lft.to/lastmile_qr_scan", "android": "https://dc.lft.to/lastmile_qr_scan"}, "is_reserved": 0}, {"lon": -76.97840083333334, "bike_id": "bfa6f02518cf603efe41d59f2d220a9f", "lat": 38.865666166666664, "fusion_lon": 0.0, "fusion_lat": 0.0, "type": "electric_scooter", "name": "bfa6f02518cf603efe41d59f2d220a9f", "is_disabled": 0, "rental_uris": {"ios": "https://dc.lft.to/lastmile_qr_scan", "android": "https://dc.lft.to/lastmile_qr_scan"}, "is_reserved": 0}, {"lon": -77.03868666666666, "bike_id": "342487da80d931165632fd91122fed8e", "lat": 38.90972683333333, "fusion_lon": 0.0, "fusion_lat": 0.0, "type": "electric_scooter", "name": "342487da80d931165632fd91122fed8e", "is_disabled": 0, "rental_uris": {"ios": "https://dc.lft.to/lastmile_qr_scan", "android": "https://dc.lft.to/lastmile_qr_scan"}, "is_reserved": 0}, {"lon": -77.03810083333333, "bike_id": "2280843c5a7daf26e384655bb3682eb2", "lat": 38.931094, "fusion_lon": 0.0, "fusion_lat": 0.0, "type": "electric_scooter", "name": "2280843c5a7daf26e384655bb3682eb2", "is_disabled": 0, "rental_uris": {"ios": "https://dc.lft.to/lastmile_qr_scan", "android": "https://dc.lft.to/lastmile_qr_scan"}, "is_reserved": 0}, {"lon": -77.02394016666666, "bike_id": "6ee70cd9435b0d62c0868e0f6ea532aa", "lat": 38.91522483333333, "fusion_lon": 0.0, "fusion_lat": 0.0, "type": "electric_scooter", "name": "6ee70cd9435b0d62c0868e0f6ea532aa", "is_disabled": 0, "rental_uris": {"ios": "https://dc.lft.to/lastmile_qr_scan", "android": "https://dc.lft.to/lastmile_qr_scan"}, "is_reserved": 0}, {"lon": -77.02710983333333, "bike_id": "6f1604d305be57661ed26eeafb2f2f7b", "lat": 38.89726233333333, "fusion_lon": 0.0, "fusion_lat": 0.0, "type": "electric_scooter", "name": "6f1604d305be57661ed26eeafb2f2f7b", "is_disabled": 0, "rental_uris": {"ios": "https://dc.lft.to/lastmile_qr_scan", "android": "https://dc.lft.to/lastmile_qr_scan"}, "is_reserved": 0}, {"lon": -76.9489615, "bike_id": "850a2249abb9ef521a7c84443840523e", "lat": 38.8952585, "fusion_lon": 0.0, "fusion_lat": 0.0, "type": "electric_scooter", "name": "850a2249abb9ef521a7c84443840523e", "is_disabled": 0, "rental_uris": {"ios": "https://dc.lft.to/lastmile_qr_scan", "android": "https://dc.lft.to/lastmile_qr_scan"}, "is_reserved": 0}, {"lon": -77.03903083333333, "bike_id": "50f676f6a3f70580ddcf118fffff0679", "lat": 38.923381166666665, "fusion_lon": 0.0, "fusion_lat": 0.0, "type": "electric_scooter", "name": "50f676f6a3f70580ddcf118fffff0679", "is_disabled": 0, "rental_uris": {"ios": "https://dc.lft.to/lastmile_qr_scan", "android": "https://dc.lft.to/lastmile_qr_scan"}, "is_reserved": 0}, {"lon": -77.02210516666666, "bike_id": "6c6d444539af83e435d57c9efcc90129", "lat": 38.91654166666667, "fusion_lon": 0.0, "fusion_lat": 0.0, "type": "electric_scooter", "name": "6c6d444539af83e435d57c9efcc90129", "is_disabled": 0, "rental_uris": {"ios": "https://dc.lft.to/lastmile_qr_scan", "android": "https://dc.lft.to/lastmile_qr_scan"}, "is_reserved": 0}, {"lon": -77.03850966666667, "bike_id": "041d958fd7f2737147065785b5e6055b", "lat": 38.91015083333333, "fusion_lon": 0.0, "fusion_lat": 0.0, "type": "electric_scooter", "name": "041d958fd7f2737147065785b5e6055b", "is_disabled": 0, "rental_uris": {"ios": "https://dc.lft.to/lastmile_qr_scan", "android": "https://dc.lft.to/lastmile_qr_scan"}, "is_reserved": 0}, {"lon": -77.0247705, "bike_id": "f976f232afea1b1a7afa02096b37acd4", "lat": 38.925933, "fusion_lon": 0.0, "fusion_lat": 0.0, "type": "electric_scooter", "name": "f976f232afea1b1a7afa02096b37acd4", "is_disabled": 0, "rental_uris": {"ios": "https://dc.lft.to/lastmile_qr_scan", "android": "https://dc.lft.to/lastmile_qr_scan"}, "is_reserved": 0}, {"lon": -77.04350683333334, "bike_id": "a7a5c43d63693e5cbe683cc07c05c11d", "lat": 38.91059583333333, "fusion_lon": 0.0, "fusion_lat": 0.0, "type": "electric_scooter", "name": "a7a5c43d63693e5cbe683cc07c05c11d", "is_disabled": 0, "rental_uris": {"ios": "https://dc.lft.to/lastmile_qr_scan", "android": "https://dc.lft.to/lastmile_qr_scan"}, "is_reserved": 0}, {"lon": -76.99375533333334, "bike_id": "c6731e6e1b46b212b926d61daae8ccdb", "lat": 38.923944666666664, "fusion_lon": 0.0, "fusion_lat": 0.0, "type": "electric_scooter", "name": "c6731e6e1b46b212b926d61daae8ccdb", "is_disabled": 0, "rental_uris": {"ios": "https://dc.lft.to/lastmile_qr_scan", "android": "https://dc.lft.to/lastmile_qr_scan"}, "is_reserved": 0}, {"lon": -77.03340416666667, "bike_id": "890c2cf35e4fb42c981733927490bb32", "lat": 38.9390235, "fusion_lon": 0.0, "fusion_lat": 0.0, "type": "electric_scooter", "name": "890c2cf35e4fb42c981733927490bb32", "is_disabled": 0, "rental_uris": {"ios": "https://dc.lft.to/lastmile_qr_scan", "android": "https://dc.lft.to/lastmile_qr_scan"}, "is_reserved": 0}, {"lon": -77.038057, "bike_id": "c2d8f592e4f772625d94dd8e08645464", "lat": 38.92191016666666, "fusion_lon": 0.0, "fusion_lat": 0.0, "type": "electric_bike", "name": "c2d8f592e4f772625d94dd8e08645464", "is_disabled": 0, "rental_uris": {"ios": "https://dc.lft.to/lastmile_qr_scan", "android": "https://dc.lft.to/lastmile_qr_scan"}, "is_reserved": 0}, {"lon": -77.03516583333334, "bike_id": "800897ad086f67476e6f5ff23afe4f2d", "lat": 38.91594933333333, "fusion_lon": 0.0, "fusion_lat": 0.0, "type": "electric_scooter", "name": "800897ad086f67476e6f5ff23afe4f2d", "is_disabled": 0, "rental_uris": {"ios": "https://dc.lft.to/lastmile_qr_scan", "android": "https://dc.lft.to/lastmile_qr_scan"}, "is_reserved": 0}, {"lon": -77.03423516666666, "bike_id": "85d3e8a984636536951972d80b186a59", "lat": 38.905526333333334, "fusion_lon": 0.0, "fusion_lat": 0.0, "type": "electric_scooter", "name": "85d3e8a984636536951972d80b186a59", "is_disabled": 0, "rental_uris": {"ios": "https://dc.lft.to/lastmile_qr_scan", "android": "https://dc.lft.to/lastmile_qr_scan"}, "is_reserved": 0}, {"lon": -77.021395, "bike_id": "302d78afd72ae9d220d504483ffb1cd8", "lat": 38.91549666666667, "fusion_lon": 0.0, "fusion_lat": 0.0, "type": "electric_scooter", "name": "302d78afd72ae9d220d504483ffb1cd8", "is_disabled": 0, "rental_uris": {"ios": "https://dc.lft.to/lastmile_qr_scan", "android": "https://dc.lft.to/lastmile_qr_scan"}, "is_reserved": 0}, {"lon": -77.03529416666667, "bike_id": "9ec2f12e38822aacf31205e5f28eee98", "lat": 38.918373333333335, "fusion_lon": 0.0, "fusion_lat": 0.0, "type": "electric_scooter", "name": "9ec2f12e38822aacf31205e5f28eee98", "is_disabled": 0, "rental_uris": {"ios": "https://dc.lft.to/lastmile_qr_scan", "android": "https://dc.lft.to/lastmile_qr_scan"}, "is_reserved": 0}, {"lon": -77.03263433333333, "bike_id": "765c2862ffed2dbbdf65763575d5556c", "lat": 38.9390285, "fusion_lon": 0.0, "fusion_lat": 0.0, "type": "electric_scooter", "name": "765c2862ffed2dbbdf65763575d5556c", "is_disabled": 0, "rental_uris": {"ios": "https://dc.lft.to/lastmile_qr_scan", "android": "https://dc.lft.to/lastmile_qr_scan"}, "is_reserved": 0}, {"lon": -77.03294, "bike_id": "faaace6cf85d0d9b6f5d91f9ce2a08e7", "lat": 38.909684166666665, "fusion_lon": 0.0, "fusion_lat": 0.0, "type": "electric_scooter", "name": "faaace6cf85d0d9b6f5d91f9ce2a08e7", "is_disabled": 0, "rental_uris": {"ios": "https://dc.lft.to/lastmile_qr_scan", "android": "https://dc.lft.to/lastmile_qr_scan"}, "is_reserved": 0}, {"lon": -77.02360133333333, "bike_id": "4cca1c017ea1740c8a79f682f6c6ae7e", "lat": 38.922234, "fusion_lon": 0.0, "fusion_lat": 0.0, "type": "electric_scooter", "name": "4cca1c017ea1740c8a79f682f6c6ae7e", "is_disabled": 0, "rental_uris": {"ios": "https://dc.lft.to/lastmile_qr_scan", "android": "https://dc.lft.to/lastmile_qr_scan"}, "is_reserved": 0}, {"lon": -77.000763, "bike_id": "1399a6cf9a4e7dc1dbe56cf28771036f", "lat": 38.9239915, "fusion_lon": 0.0, "fusion_lat": 0.0, "type": "electric_scooter", "name": "1399a6cf9a4e7dc1dbe56cf28771036f", "is_disabled": 0, "rental_uris": {"ios": "https://dc.lft.to/lastmile_qr_scan", "android": "https://dc.lft.to/lastmile_qr_scan"}, "is_reserved": 0}, {"lon": -77.00339383333333, "bike_id": "735ab03c641c8a1a9f1ec54853cec630", "lat": 38.891906666666664, "fusion_lon": 0.0, "fusion_lat": 0.0, "type": "electric_scooter", "name": "735ab03c641c8a1a9f1ec54853cec630", "is_disabled": 0, "rental_uris": {"ios": "https://dc.lft.to/lastmile_qr_scan", "android": "https://dc.lft.to/lastmile_qr_scan"}, "is_reserved": 0}, {"lon": -76.9822515, "bike_id": "c4844b156d0f8b078939c1593c1924b5", "lat": 38.8975985, "fusion_lon": 0.0, "fusion_lat": 0.0, "type": "electric_bike", "name": "c4844b156d0f8b078939c1593c1924b5", "is_disabled": 0, "rental_uris": {"ios": "https://dc.lft.to/lastmile_qr_scan", "android": "https://dc.lft.to/lastmile_qr_scan"}, "is_reserved": 0}, {"lon": -77.0317975, "bike_id": "4697361676c74cbb799cdda9f0295159", "lat": 38.89773133333333, "fusion_lon": 0.0, "fusion_lat": 0.0, "type": "electric_scooter", "name": "4697361676c74cbb799cdda9f0295159", "is_disabled": 0, "rental_uris": {"ios": "https://dc.lft.to/lastmile_qr_scan", "android": "https://dc.lft.to/lastmile_qr_scan"}, "is_reserved": 0}, {"lon": -76.940692, "bike_id": "6c132f2df1cc7e509cb8293dd75d3144", "lat": 38.893227, "fusion_lon": 0.0, "fusion_lat": 0.0, "type": "electric_scooter", "name": "6c132f2df1cc7e509cb8293dd75d3144", "is_disabled": 0, "rental_uris": {"ios": "https://dc.lft.to/lastmile_qr_scan", "android": "https://dc.lft.to/lastmile_qr_scan"}, "is_reserved": 0}, {"lon": -77.04500683333333, "bike_id": "9ae7b1c6db9d942e7b24b8261fec9bc2", "lat": 38.914153166666665, "fusion_lon": 0.0, "fusion_lat": 0.0, "type": "electric_scooter", "name": "9ae7b1c6db9d942e7b24b8261fec9bc2", "is_disabled": 0, "rental_uris": {"ios": "https://dc.lft.to/lastmile_qr_scan", "android": "https://dc.lft.to/lastmile_qr_scan"}, "is_reserved": 0}, {"lon": -77.02979233333333, "bike_id": "c36105c091f7cb3f8f8528557d71a33a", "lat": 38.92277933333333, "fusion_lon": 0.0, "fusion_lat": 0.0, "type": "electric_scooter", "name": "c36105c091f7cb3f8f8528557d71a33a", "is_disabled": 0, "rental_uris": {"ios": "https://dc.lft.to/lastmile_qr_scan", "android": "https://dc.lft.to/lastmile_qr_scan"}, "is_reserved": 0}, {"lon": -77.04056383333334, "bike_id": "80e9f063b766477803146cc715a71190", "lat": 38.92878266666666, "fusion_lon": 0.0, "fusion_lat": 0.0, "type": "electric_scooter", "name": "80e9f063b766477803146cc715a71190", "is_disabled": 0, "rental_uris": {"ios": "https://dc.lft.to/lastmile_qr_scan", "android": "https://dc.lft.to/lastmile_qr_scan"}, "is_reserved": 0}, {"lon": -77.0301625, "bike_id": "0232e6640218c2359e6b4808f4880419", "lat": 38.88456333333333, "fusion_lon": 0.0, "fusion_lat": 0.0, "type": "electric_scooter", "name": "0232e6640218c2359e6b4808f4880419", "is_disabled": 0, "rental_uris": {"ios": "https://dc.lft.to/lastmile_qr_scan", "android": "https://dc.lft.to/lastmile_qr_scan"}, "is_reserved": 0}, {"lon": -77.02318616666666, "bike_id": "db3bde5f97530614c30ca390d16c5f25", "lat": 38.8949005, "fusion_lon": 0.0, "fusion_lat": 0.0, "type": "electric_scooter", "name": "db3bde5f97530614c30ca390d16c5f25", "is_disabled": 0, "rental_uris": {"ios": "https://dc.lft.to/lastmile_qr_scan", "android": "https://dc.lft.to/lastmile_qr_scan"}, "is_reserved": 0}, {"lon": -77.11708083333333, "bike_id": "da70b59ce578e6a82595d9ac35d8065a", "lat": 38.8674625, "fusion_lon": 0.0, "fusion_lat": 0.0, "type": "electric_bike", "name": "da70b59ce578e6a82595d9ac35d8065a", "is_disabled": 0, "rental_uris": {"ios": "https://dc.lft.to/lastmile_qr_scan", "android": "https://dc.lft.to/lastmile_qr_scan"}, "is_reserved": 0}, {"lon": -77.01199616666666, "bike_id": "c3b051fc59e39de5368aa9ebf15a601a", "lat": 38.82405633333333, "fusion_lon": 0.0, "fusion_lat": 0.0, "type": "electric_bike", "name": "c3b051fc59e39de5368aa9ebf15a601a", "is_disabled": 0, "rental_uris": {"ios": "https://dc.lft.to/lastmile_qr_scan", "android": "https://dc.lft.to/lastmile_qr_scan"}, "is_reserved": 0}, {"lon": -77.02973966666667, "bike_id": "1ae73ddf34ea3714189206e03c0c4717", "lat": 38.917236333333335, "fusion_lon": 0.0, "fusion_lat": 0.0, "type": "electric_scooter", "name": "1ae73ddf34ea3714189206e03c0c4717", "is_disabled": 0, "rental_uris": {"ios": "https://dc.lft.to/lastmile_qr_scan", "android": "https://dc.lft.to/lastmile_qr_scan"}, "is_reserved": 0}, {"lon": -76.95753366666666, "bike_id": "019670ab800d25c414fcfbbae4204097", "lat": 38.88430183333333, "fusion_lon": 0.0, "fusion_lat": 0.0, "type": "electric_scooter", "name": "019670ab800d25c414fcfbbae4204097", "is_disabled": 0, "rental_uris": {"ios": "https://dc.lft.to/lastmile_qr_scan", "android": "https://dc.lft.to/lastmile_qr_scan"}, "is_reserved": 0}, {"lon": -77.0007355, "bike_id": "7b5163fc58695a1ec781e55ec47f6914", "lat": 38.901408333333336, "fusion_lon": 0.0, "fusion_lat": 0.0, "type": "electric_scooter", "name": "7b5163fc58695a1ec781e55ec47f6914", "is_disabled": 0, "rental_uris": {"ios": "https://dc.lft.to/lastmile_qr_scan", "android": "https://dc.lft.to/lastmile_qr_scan"}, "is_reserved": 0}, {"lon": -77.03665983333333, "bike_id": "28a44ae37ce10f28b9d281bec625b3d7", "lat": 38.93342166666667, "fusion_lon": 0.0, "fusion_lat": 0.0, "type": "electric_scooter", "name": "28a44ae37ce10f28b9d281bec625b3d7", "is_disabled": 0, "rental_uris": {"ios": "https://dc.lft.to/lastmile_qr_scan", "android": "https://dc.lft.to/lastmile_qr_scan"}, "is_reserved": 0}, {"lon": -76.98242616666667, "bike_id": "2834af908c65078a5d12cc44cde64174", "lat": 38.864571166666664, "fusion_lon": 0.0, "fusion_lat": 0.0, "type": "electric_scooter", "name": "2834af908c65078a5d12cc44cde64174", "is_disabled": 0, "rental_uris": {"ios": "https://dc.lft.to/lastmile_qr_scan", "android": "https://dc.lft.to/lastmile_qr_scan"}, "is_reserved": 0}, {"lon": -77.02338666666667, "bike_id": "7293ed19124c4be2c0a2825035f993ea", "lat": 38.908577333333334, "fusion_lon": 0.0, "fusion_lat": 0.0, "type": "electric_scooter", "name": "7293ed19124c4be2c0a2825035f993ea", "is_disabled": 0, "rental_uris": {"ios": "https://dc.lft.to/lastmile_qr_scan", "android": "https://dc.lft.to/lastmile_qr_scan"}, "is_reserved": 0}, {"lon": -77.032582, "bike_id": "297252609a031666238dc64b06fee9fe", "lat": 38.92917033333333, "fusion_lon": 0.0, "fusion_lat": 0.0, "type": "electric_scooter", "name": "297252609a031666238dc64b06fee9fe", "is_disabled": 0, "rental_uris": {"ios": "https://dc.lft.to/lastmile_qr_scan", "android": "https://dc.lft.to/lastmile_qr_scan"}, "is_reserved": 0}, {"lon": -77.0035915, "bike_id": "ebb24909d5f027aade469a45e9df8b79", "lat": 38.89538433333333, "fusion_lon": 0.0, "fusion_lat": 0.0, "type": "electric_scooter", "name": "ebb24909d5f027aade469a45e9df8b79", "is_disabled": 0, "rental_uris": {"ios": "https://dc.lft.to/lastmile_qr_scan", "android": "https://dc.lft.to/lastmile_qr_scan"}, "is_reserved": 0}, {"lon": -77.00957766666667, "bike_id": "80ff1b081863fb383020dcf4362a0999", "lat": 38.92134133333333, "fusion_lon": 0.0, "fusion_lat": 0.0, "type": "electric_scooter", "name": "80ff1b081863fb383020dcf4362a0999", "is_disabled": 0, "rental_uris": {"ios": "https://dc.lft.to/lastmile_qr_scan", "android": "https://dc.lft.to/lastmile_qr_scan"}, "is_reserved": 0}, {"lon": -77.011288, "bike_id": "a37aa1bef62028aa9ab506ca4e530d5d", "lat": 38.9073125, "fusion_lon": 0.0, "fusion_lat": 0.0, "type": "electric_scooter", "name": "a37aa1bef62028aa9ab506ca4e530d5d", "is_disabled": 0, "rental_uris": {"ios": "https://dc.lft.to/lastmile_qr_scan", "android": "https://dc.lft.to/lastmile_qr_scan"}, "is_reserved": 0},