{"data": {"bikes": [{"type": "electric_scooter", "rental_uris": {"ios": "https://dc.lft.to/lastmile_qr_scan", "android": "https://dc.lft.to/lastmile_qr_scan"}, "lon": -77.031857, "fusion_lon": 0.0, "is_disabled": 0, "lat": 38.91911066666667, "bike_id": "f38fba634e22786826eb1f08b48a7812", "name": "f38fba634e22786826eb1f08b48a7812", "is_reserved": 0, "fusion_lat": 0.0}, {"type": "electric_scooter", "rental_uris": {"ios": "https://dc.lft.to/lastmile_qr_scan", "android": "https://dc.lft.to/lastmile_qr_scan"}, "lon": -77.045691, "fusion_lon": 0.0, "is_disabled": 0, "lat": 38.922472666666664, "bike_id": "9afadc5f359b13c8f831074eca0c7b5f", "name": "9afadc5f359b13c8f831074eca0c7b5f", "is_reserved": 0, "fusion_lat": 0.0}, {"type": "electric_scooter", "rental_uris": {"ios": "https://dc.lft.to/lastmile_qr_scan", "android": "https://dc.lft.to/lastmile_qr_scan"}, "lon": -76.97729866666667, "fusion_lon": 0.0, "is_disabled": 0, "lat": 38.87294333333333, "bike_id": "9b43eef654b2e4bdd9f25a06733c9815", "name": "9b43eef654b2e4bdd9f25a06733c9815", "is_reserved": 0, "fusion_lat": 0.0}, {"type": "electric_scooter", "rental_uris": {"ios": "https://dc.lft.to/lastmile_qr_scan", "android": "https://dc.lft.to/lastmile_qr_scan"}, "lon": -77.03509316666667, "fusion_lon": 0.0, "is_disabled": 0, "lat": 38.918778333333336, "bike_id": "3d1b52e9db1c671b506987fdf394de59", "name": "3d1b52e9db1c671b506987fdf394de59", "is_reserved": 0, "fusion_lat": 0.0}, {"type": "electric_scooter", "rental_uris": {"ios": "https://dc.lft.to/lastmile_qr_scan", "android": "https://dc.lft.to/lastmile_qr_scan"}, "lon": -77.041974, "fusion_lon": 0.0, "is_disabled": 0, "lat": 38.905197, "bike_id": "9269eda858b80a2fc85d642203615270", "name": "9269eda858b80a2fc85d642203615270", "is_reserved": 0, "fusion_lat": 0.0}, {"type": "electric_scooter", "rental_uris": {"ios": "https://dc.lft.to/lastmile_qr_scan", "android": "https://dc.lft.to/lastmile_qr_scan"}, "lon": -77.03222283333334, "fusion_lon": 0.0, "is_disabled": 0, "lat": 38.9183905, "bike_id": "8cff23928ec41e29489bf8b7e51ceb7b", "name": "8cff23928ec41e29489bf8b7e51ceb7b", "is_reserved": 0, "fusion_lat": 0.0}, {"type": "electric_scooter", "rental_uris": {"ios": "https://dc.lft.to/lastmile_qr_scan", "android": "https://dc.lft.to/lastmile_qr_scan"}, "lon": -76.99093866666666, "fusion_lon": 0.0, "is_disabled": 0, "lat": 38.882276, "bike_id": "3c4d85318af892eb7376124d4fd0d16d", "name": "3c4d85318af892eb7376124d4fd0d16d", "is_reserved": 0, "fusion_lat": 0.0}, {"type": "electric_scooter", "rental_uris": {"ios": "https://dc.lft.to/lastmile_qr_scan", "android": "https://dc.lft.to/lastmile_qr_scan"}, "lon": -77.0366835, "fusion_lon": 0.0, "is_disabled": 0, "lat": 38.906737, "bike_id": "6ba1c7a876b86f991a16a72020620714", "name": "6ba1c7a876b86f991a16a72020620714", "is_reserved": 0, "fusion_lat": 0.0}, {"type": "electric_scooter", "rental_uris": {"ios": "https://dc.lft.to/lastmile_qr_scan", "android": "https://dc.lft.to/lastmile_qr_scan"}, "lon": -77.059003, "fusion_lon": 0.0, "is_disabled": 0, "lat": 38.902372, "bike_id": "21b4932a7c0562f736848855900343b4", "name": "21b4932a7c0562f736848855900343b4", "is_reserved": 0, "fusion_lat": 0.0}, {"type": "electric_scooter", "rental_uris": {"ios": "https://dc.lft.to/lastmile_qr_scan", "android": "https://dc.lft.to/lastmile_qr_scan"}, "lon": -77.02192333333333, "fusion_lon": 0.0, "is_disabled": 0, "lat": 38.921026, "bike_id": "773bf10a334408a348133740218c4bfd", "name": "773bf10a334408a348133740218c4bfd", "is_reserved": 0, "fusion_lat": 0.0}, {"type": "electric_scooter", "rental_uris": {"ios": "https://dc.lft.to/lastmile_qr_scan", "android": "https://dc.lft.to/lastmile_qr_scan"}, "lon": -76.99632766666667, "fusion_lon": 0.0, "is_disabled": 0, "lat": 38.908931, "bike_id": "4eab1fd39b265507e67e5829717830e3", "name": "4eab1fd39b265507e67e5829717830e3", "is_reserved": 0, "fusion_lat": 0.0}, {"type": "electric_scooter", "rental_uris": {"ios": "https://dc.lft.to/lastmile_qr_scan", "android": "https://dc.lft.to/lastmile_qr_scan"}, "lon": -77.04195833333333, "fusion_lon": 0.0, "is_disabled": 0, "lat": 38.9055775, "bike_id": "c933201a9506cf4989a3130bd363c249", "name": "c933201a9506cf4989a3130bd363c249", "is_reserved": 0, "fusion_lat": 0.0}, {"type": "electric_scooter", "rental_uris": {"ios": "https://dc.lft.to/lastmile_qr_scan", "android": "https://dc.lft.to/lastmile_qr_scan"}, "lon": -77.02295583333333, "fusion_lon": 0.0, "is_disabled": 0, "lat": 38.916065, "bike_id": "1c2aa953740ae07c69120e0fdd5bc10e", "name": "1c2aa953740ae07c69120e0fdd5bc10e", "is_reserved": 0, "fusion_lat": 0.0}, {"type": "electric_scooter", "rental_uris": {"ios": "https://dc.lft.to/lastmile_qr_scan", "android": "https://dc.lft.to/lastmile_qr_scan"}, "lon": -77.04411433333334, "fusion_lon": 0.0, "is_disabled": 0, "lat": 38.92601833333333, "bike_id": "d4996f0e55ff923c5a05d96cc310dd7b", "name": "d4996f0e55ff923c5a05d96cc310dd7b", "is_reserved": 0, "fusion_lat": 0.0}, {"type": "electric_scooter", "rental_uris": {"ios": "https://dc.lft.to/lastmile_qr_scan", "android": "https://dc.lft.to/lastmile_qr_scan"}, "lon": -77.0261295, "fusion_lon": 0.0, "is_disabled": 0, "lat": 38.9308155, "bike_id": "8358b11b3cfce492234d43953ef8be36", "name": "8358b11b3cfce492234d43953ef8be36", "is_reserved": 0, "fusion_lat": 0.0}, {"type": "electric_bike", "rental_uris": {"ios": "https://dc.lft.to/lastmile_qr_scan", "android": "https://dc.lft.to/lastmile_qr_scan"}, "lon": -76.9881285, "fusion_lon": 0.0, "is_disabled": 0, "lat": 38.911401166666664, "bike_id": "4c479c2c9bc672265bc889a01e3cf3bd", "name": "4c479c2c9bc672265bc889a01e3cf3bd", "is_reserved": 0, "fusion_lat": 0.0}, {"type": "electric_scooter", "rental_uris": {"ios": "https://dc.lft.to/lastmile_qr_scan", "android": "https://dc.lft.to/lastmile_qr_scan"}, "lon": -77.00771416666667, "fusion_lon": 0.0, "is_disabled": 0, "lat": 38.907303, "bike_id": "09f4fb04cc7441df98f402cbb66aff50", "name": "09f4fb04cc7441df98f402cbb66aff50", "is_reserved": 0, "fusion_lat": 0.0}, {"type": "electric_scooter", "rental_uris": {"ios": "https://dc.lft.to/lastmile_qr_scan", "android": "https://dc.lft.to/lastmile_qr_scan"}, "lon": -77.04165466666667, "fusion_lon": 0.0, "is_disabled": 0, "lat": 38.934144333333336, "bike_id": "a09978f9d9fef96e66c6246ae96f93a6", "name": "a09978f9d9fef96e66c6246ae96f93a6", "is_reserved": 0, "fusion_lat": 0.0}, {"type": "electric_scooter", "rental_uris": {"ios": "https://dc.lft.to/lastmile_qr_scan", "android": "https://dc.lft.to/lastmile_qr_scan"}, "lon": -77.03643633333333, "fusion_lon": 0.0, "is_disabled": 0, "lat": 38.91615683333333, "bike_id": "c1afe73f594a6d8e945e194e17057212", "name": "c1afe73f594a6d8e945e194e17057212", "is_reserved": 0, "fusion_lat": 0.0}, {"type": "electric_scooter", "rental_uris": {"ios": "https://dc.lft.to/lastmile_qr_scan", "android": "https://dc.lft.to/lastmile_qr_scan"}, "lon": -77.0269575, "fusion_lon": 0.0, "is_disabled": 0, "lat": 38.911244833333335, "bike_id": "0775e2b27ea57fbca8800b984fa3ee2e", "name": "0775e2b27ea57fbca8800b984fa3ee2e", "is_reserved": 0, "fusion_lat": 0.0}, {"type": "electric_bike", "rental_uris": {"ios": "https://dc.lft.to/lastmile_qr_scan", "android": "https://dc.lft.to/lastmile_qr_scan"}, "lon": -77.12024783333334, "fusion_lon": 0.0, "is_disabled": 0, "lat": 38.854899, "bike_id": "ff117dde4da53d649957da8157d0d63b", "name": "ff117dde4da53d649957da8157d0d63b", "is_reserved": 0, "fusion_lat": 0.0}, {"type": "electric_scooter", "rental_uris": {"ios": "https://dc.lft.to/lastmile_qr_scan", "android": "https://dc.lft.to/lastmile_qr_scan"}, "lon": -77.02152166666667, "fusion_lon": 0.0, "is_disabled": 0, "lat": 38.8864925, "bike_id": "c47a706a997f03843a0dc4d5d1b5cb3e", "name": "c47a706a997f03843a0dc4d5d1b5cb3e", "is_reserved": 0, "fusion_lat": 0.0}, {"type": "electric_scooter", "rental_uris": {"ios": "https://dc.lft.to/lastmile_qr_scan", "android": "https://dc.lft.to/lastmile_qr_scan"}, "lon": -77.0378685, "fusion_lon": 0.0, "is_disabled": 0, "lat": 38.930209, "bike_id": "2fced260545a5353b06be9c0dc6effb4", "name": "2fced260545a5353b06be9c0dc6effb4", "is_reserved": 0, "fusion_lat": 0.0}, {"type": "electric_bike", "rental_uris": {"ios": "https://dc.lft.to/lastmile_qr_scan", "android": "https://dc.lft.to/lastmile_qr_scan"}, "lon": -77.11614266666666, "fusion_lon": 0.0, "is_disabled": 0, "lat": 38.854894, "bike_id": "d656bd5600e9d6686b871503d6d3d355", "name": "d656bd5600e9d6686b871503d6d3d355", "is_reserved": 0, "fusion_lat": 0.0}, {"type": "electric_bike", "rental_uris": {"ios": "https://dc.lft.to/lastmile_qr_scan", "android": "https://dc.lft.to/lastmile_qr_scan"}, "lon": -77.08835733333333, "fusion_lon": 0.0, "is_disabled": 0, "lat": 38.96691666666667, "bike_id": "349357497c4d7821fcc0af7adbf8410b", "name": "349357497c4d7821fcc0af7adbf8410b", "is_reserved": 0, "fusion_lat": 0.0}, {"type": "electric_scooter", "rental_uris": {"ios": "https://dc.lft.to/lastmile_qr_scan", "android": "https://dc.lft.to/lastmile_qr_scan"}, "lon": -77.04011416666667, "fusion_lon": 0.0, "is_disabled": 0, "lat": 38.94194433333333, "bike_id": "a77382b430701db034ce13cd422ff93d", "name": "a77382b430701db034ce13cd422ff93d", "is_reserved": 0, "fusion_lat": 0.0}, {"type": "electric_scooter", "rental_uris": {"ios": "https://dc.lft.to/lastmile_qr_scan", "android": "https://dc.lft.to/lastmile_qr_scan"}, "lon": -77.01551133333334, "fusion_lon": 0.0, "is_disabled": 0, "lat": 38.87989433333333, "bike_id": "0e768f16e741a3f9affebc6966f16659", "name": "0e768f16e741a3f9affebc6966f16659", "is_reserved": 0, "fusion_lat": 0.0}, {"type": "electric_bike", "rental_uris": {"ios": "https://dc.lft.to/lastmile_qr_scan", "android": "https://dc.lft.to/lastmile_qr_scan"}, "lon": -77.02619316666667, "fusion_lon": 0.0, "is_disabled": 0, "lat": 38.96929883333333, "bike_id": "2ee44b573b5a92b5bf06febb46ca660b", "name": "2ee44b573b5a92b5bf06febb46ca660b", "is_reserved": 0, "fusion_lat": 0.0}, {"type": "electric_scooter", "rental_uris": {"ios": "https://dc.lft.to/lastmile_qr_scan", "android": "https://dc.lft.to/lastmile_qr_scan"}, "lon": -76.96525816666667, "fusion_lon": 0.0, "is_disabled": 0, "lat": 38.876289, "bike_id": "a4a9dc94508b0f29b4f216efb691fc2c", "name": "a4a9dc94508b0f29b4f216efb691fc2c", "is_reserved": 0, "fusion_lat": 0.0}, {"type": "electric_scooter", "rental_uris": {"ios": "https://dc.lft.to/lastmile_qr_scan", "android": "https://dc.lft.to/lastmile_qr_scan"}, "lon": -77.03194466666666, "fusion_lon": 0.0, "is_disabled": 0, "lat": 38.9162345, "bike_id": "49525ba1be5c533013eab36ddc7af554", "name": "49525ba1be5c533013eab36ddc7af554", "is_reserved": 0, "fusion_lat": 0.0}, {"type": "electric_scooter", "rental_uris": {"ios": "https://dc.lft.to/lastmile_qr_scan", "android": "https://dc.lft.to/lastmile_qr_scan"}, "lon": -77.02288366666667, "fusion_lon": 0.0, "is_disabled": 0, "lat": 38.91442083333333, "bike_id": "bcf5e6d45bda82055219e95e923fba91", "name": "bcf5e6d45bda82055219e95e923fba91", "is_reserved": 0, "fusion_lat": 0.0}, {"type": "electric_scooter", "rental_uris": {"ios": "https://dc.lft.to/lastmile_qr_scan", "android": "https://dc.lft.to/lastmile_qr_scan"}, "lon": -77.03657066666666, "fusion_lon": 0.0, "is_disabled": 0, "lat": 38.92265616666667, "bike_id": "84713806a3169f5b0661b6e9d1f21eba", "name": "84713806a3169f5b0661b6e9d1f21eba", "is_reserved": 0, "fusion_lat": 0.0}, {"type": "electric_bike", "rental_uris": {"ios": "https://dc.lft.to/lastmile_qr_scan", "android": "https://dc.lft.to/lastmile_qr_scan"}, "lon": -77.020935, "fusion_lon": 0.0, "is_disabled": 0, "lat": 38.93718066666667, "bike_id": "0e814984bb00a46f5620bfbb70ba17ae", "name": "0e814984bb00a46f5620bfbb70ba17ae", "is_reserved": 0, "fusion_lat": 0.0}, {"type": "electric_scooter", "rental_uris": {"ios": "https://dc.lft.to/lastmile_qr_scan", "android": "https://dc.lft.to/lastmile_qr_scan"}, "lon": -77.03886333333334, "fusion_lon": 0.0, "is_disabled": 0, "lat": 38.906609333333336, "bike_id": "ed807b72f68f639335e2dac4154fe7a3", "name": "ed807b72f68f639335e2dac4154fe7a3", "is_reserved": 0, "fusion_lat": 0.0}, {"type": "electric_scooter", "rental_uris": {"ios": "https://dc.lft.to/lastmile_qr_scan", "android": "https://dc.lft.to/lastmile_qr_scan"}, "lon": -77.04476033333333, "fusion_lon": 0.0, "is_disabled": 0, "lat": 38.91116616666667, "bike_id": "83d7dac54b9087e00d2b72ab632e8450", "name": "83d7dac54b9087e00d2b72ab632e8450", "is_reserved": 0, "fusion_lat": 0.0}, {"type": "electric_scooter", "rental_uris": {"ios": "https://dc.lft.to/lastmile_qr_scan", "android": "https://dc.lft.to/lastmile_qr_scan"}, "lon": -76.96513416666667, "fusion_lon": 0.0, "is_disabled": 0, "lat": 38.8762855, "bike_id": "4220e8ef198ed9199f4d5fdc1e2906b8", "name": "4220e8ef198ed9199f4d5fdc1e2906b8", "is_reserved": 0, "fusion_lat": 0.0}, {"type": "electric_bike", "rental_uris": {"ios": "https://dc.lft.to/lastmile_qr_scan", "android": "https://dc.lft.to/lastmile_qr_scan"}, "lon": -77.11802333333333, "fusion_lon": 0.0, "is_disabled": 0, "lat": 38.873776666666664, "bike_id": "446f6699145d1b3b50058b57016e849f", "name": "446f6699145d1b3b50058b57016e849f", "is_reserved": 0, "fusion_lat": 0.0}, {"type": "electric_scooter", "rental_uris": {"ios": "https://dc.lft.to/lastmile_qr_scan", "android": "https://dc.lft.to/lastmile_qr_scan"}, "lon": -77.045436, "fusion_lon": 0.0, "is_disabled": 0, "lat": 38.916109166666665, "bike_id": "e1b4b95d0ca83f2ec3445ee905317b1f", "name": "e1b4b95d0ca83f2ec3445ee905317b1f", "is_reserved": 0, "fusion_lat": 0.0}, {"type": "electric_bike", "rental_uris": {"ios": "https://dc.lft.to/lastmile_qr_scan", "android": "https://dc.lft.to/lastmile_qr_scan"}, "lon": -77.12486333333334, "fusion_lon": 0.0, "is_disabled": 0, "lat": 38.853963, "bike_id": "7e7120cb4f73d3caf8ca41c979e49aa4", "name": "7e7120cb4f73d3caf8ca41c979e49aa4", "is_reserved": 0, "fusion_lat": 0.0}, {"type": "electric_scooter", "rental_uris": {"ios": "https://dc.lft.to/lastmile_qr_scan", "android": "https://dc.lft.to/lastmile_qr_scan"}, "lon": -77.04680816666666, "fusion_lon": 0.0, "is_disabled": 0, "lat": 38.897378, "bike_id": "6f740c792c707ed184388c9235d9d468", "name": "6f740c792c707ed184388c9235d9d468", "is_reserved": 0, "fusion_lat": 0.0}, {"type": "electric_bike", "rental_uris": {"ios": "https://dc.lft.to/lastmile_qr_scan", "android": "https://dc.lft.to/lastmile_qr_scan"}, "lon": -76.97529733333333, "fusion_lon": 0.0, "is_disabled": 0, "lat": 38.8401245, "bike_id": "cfe198a3d714da2eb9f20ac3defd18eb", "name": "cfe198a3d714da2eb9f20ac3defd18eb", "is_reserved": 0, "fusion_lat": 0.0}, {"type": "electric_scooter", "rental_uris": {"ios": "https://dc.lft.to/lastmile_qr_scan", "android": "https://dc.lft.to/lastmile_qr_scan"}, "lon": -77.03186433333333, "fusion_lon": 0.0, "is_disabled": 0, "lat": 38.896158, "bike_id": "66428fa164179ed1b3724a5a9379b921", "name": "66428fa164179ed1b3724a5a9379b921", "is_reserved": 0, "fusion_lat": 0.0}, {"type": "electric_bike", "rental_uris": {"ios": "https://dc.lft.to/lastmile_qr_scan", "android": "https://dc.lft.to/lastmile_qr_scan"}, "lon": -77.02409816666666, "fusion_lon": 0.0, "is_disabled": 0, "lat": 38.896870166666666, "bike_id": "2db2310a2129677c4eda457ead1de7e5", "name": "2db2310a2129677c4eda457ead1de7e5", "is_reserved": 0, "fusion_lat": 0.0}, {"type": "electric_scooter", "rental_uris": {"ios": "https://dc.lft.to/lastmile_qr_scan", "android": "https://dc.lft.to/lastmile_qr_scan"}, "lon": -77.03030433333333, "fusion_lon": 0.0, "is_disabled": 0, "lat": 38.931135833333336, "bike_id": "ae36b93dbd8770a2244219638b88ff19", "name": "ae36b93dbd8770a2244219638b88ff19", "is_reserved": 0, "fusion_lat": 0.0}, {"type": "electric_scooter", "rental_uris": {"ios": "https://dc.lft.to/lastmile_qr_scan", "android": "https://dc.lft.to/lastmile_qr_scan"}, "lon": -76.995185, "fusion_lon": 0.0, "is_disabled": 0, "lat": 38.8837295, "bike_id": "fcd01052ba3becf850d8f9d5c90f3ddd", "name": "fcd01052ba3becf850d8f9d5c90f3ddd", "is_reserved": 0, "fusion_lat": 0.0}, {"type": "electric_scooter", "rental_uris": {"ios": "https://dc.lft.to/lastmile_qr_scan", "android": "https://dc.lft.to/lastmile_qr_scan"}, "lon": -76.98183833333333, "fusion_lon": 0.0, "is_disabled": 0, "lat": 38.89588883333333, "bike_id": "41e9e1712ce09b6c842e720dd57ec383", "name": "41e9e1712ce09b6c842e720dd57ec383", "is_reserved": 0, "fusion_lat": 0.0}, {"type": "electric_scooter", "rental_uris": {"ios": "https://dc.lft.to/lastmile_qr_scan", "android": "https://dc.lft.to/lastmile_qr_scan"}, "lon": -77.0378765, "fusion_lon": 0.0, "is_disabled": 0, "lat": 38.9263035, "bike_id": "a527df528e0fce53cb9ada673ef02c74", "name": "a527df528e0fce53cb9ada673ef02c74", "is_reserved": 0, "fusion_lat": 0.0}, {"type": "electric_scooter", "rental_uris": {"ios": "https://dc.lft.to/lastmile_qr_scan", "android": "https://dc.lft.to/lastmile_qr_scan"}, "lon": -77.02169933333333, "fusion_lon": 0.0, "is_disabled": 0, "lat": 38.8972585, "bike_id": "69edf25812fee75f225ad6782c084508", "name": "69edf25812fee75f225ad6782c084508", "is_reserved": 0, "fusion_lat": 0.0}, {"type": "electric_scooter", "rental_uris": {"ios": "https://dc.lft.to/lastmile_qr_scan", "android": "https://dc.lft.to/lastmile_qr_scan"}, "lon": -77.0115775, "fusion_lon": 0.0, "is_disabled": 0, "lat": 38.90026783333333, "bike_id": "a8c775900e8e0135b515c2bb187bfe0b", "name": "a8c775900e8e0135b515c2bb187bfe0b", "is_reserved": 0, "fusion_lat": 0.0}, {"type": "electric_scooter", "rental_uris": {"ios": "https://dc.lft.to/lastmile_qr_scan", "android": "https://dc.lft.to/lastmile_qr_scan"}, "lon": -77.05220816666667, "fusion_lon": 0.0, "is_disabled": 0, "lat": 38.92502266666666, "bike_id": "628a38510d6de2bfe348d161cc9f093e", "name": "628a38510d6de2bfe348d161cc9f093e", "is_reserved": 0, "fusion_lat": 0.0}, {"type": "electric_scooter", "rental_uris": {"ios": "https://dc.lft.to/lastmile_qr_scan", "android": "https://dc.lft.to/lastmile_qr_scan"}, "lon": -77.0230685, "fusion_lon": 0.0, "is_disabled": 0, "lat": 38.916281166666664, "bike_id": "c7a6113b5812ac615a31dcdbc6ed2365", "name": "c7a6113b5812ac615a31dcdbc6ed2365", "is_reserved": 0, "fusion_lat": 0.0}, {"type": "electric_scooter", "rental_uris": {"ios": "https://dc.lft.to/lastmile_qr_scan", "android": "https://dc.lft.to/lastmile_qr_scan"}, "lon": -77.04174116666667, "fusion_lon": 0.0, "is_disabled": 0, "lat": 38.9014625, "bike_id": "dcdf10e7342968bf5178901bbb9daf4d", "name": "dcdf10e7342968bf5178901bbb9daf4d", "is_reserved": 0, "fusion_lat": 0.0}, {"type": "electric_scooter", "rental_uris": {"ios": "https://dc.lft.to/lastmile_qr_scan", "android": "https://dc.lft.to/lastmile_qr_scan"}, "lon": -77.039585, "fusion_lon": 0.0, "is_disabled": 0, "lat": 38.907407, "bike_id": "dbb3847dab75d3b8b101e01541d5e7e2", "name": "dbb3847dab75d3b8b101e01541d5e7e2", "is_reserved": 0, "fusion_lat": 0.0}, {"type": "electric_bike", "rental_uris": {"ios": "https://dc.lft.to/lastmile_qr_scan", "android": "https://dc.lft.to/lastmile_qr_scan"}, "lon": -77.09807483333333, "fusion_lon": 0.0, "is_disabled": 0, "lat": 38.850271, "bike_id": "33badc74bf7ec581c122240da0ab33cd", "name": "33badc74bf7ec581c122240da0ab33cd", "is_reserved": 0, "fusion_lat": 0.0}, {"type": "electric_scooter", "rental_uris": {"ios": "https://dc.lft.to/lastmile_qr_scan", "android": "https://dc.lft.to/lastmile_qr_scan"}, "lon": -76.9794435, "fusion_lon": 0.0, "is_disabled": 0, "lat": 38.945227333333335, "bike_id": "b427dac37f05357a28de2ffd3e73f1f8", "name": "b427dac37f05357a28de2ffd3e73f1f8", "is_reserved": 0, "fusion_lat": 0.0}, {"type": "electric_scooter", "rental_uris": {"ios": "https://dc.lft.to/lastmile_qr_scan", "android": "https://dc.lft.to/lastmile_qr_scan"}, "lon": -77.01864516666667, "fusion_lon": 0.0, "is_disabled": 0, "lat": 38.9316235, "bike_id": "fe4ce74edb8c43f1ce17bebf28ee56f2", "name": "fe4ce74edb8c43f1ce17bebf28ee56f2", "is_reserved": 0, "fusion_lat": 0.0}, {"type": "electric_scooter", "rental_uris": {"ios": "https://dc.lft.to/lastmile_qr_scan", "android": "https://dc.lft.to/lastmile_qr_scan"}, "lon": -77.02222083333334, "fusion_lon": 0.0, "is_disabled": 0, "lat": 38.8922155, "bike_id": "3bf8b085cb9035b2a57983ca85b0ff41", "name": "3bf8b085cb9035b2a57983ca85b0ff41", "is_reserved": 0, "fusion_lat": 0.0}, {"type": "electric_scooter", "rental_uris": {"ios": "https://dc.lft.to/lastmile_qr_scan", "android": "https://dc.lft.to/lastmile_qr_scan"}, "lon": -77.00246716666666, "fusion_lon": 0.0, "is_disabled": 0, "lat": 38.88024033333333, "bike_id": "622880712a02cec2ca90d66b3259fe8f", "name": "622880712a02cec2ca90d66b3259fe8f", "is_reserved": 0, "fusion_lat": 0.0}, {"type": "electric_scooter", "rental_uris": {"ios": "https://dc.lft.to/lastmile_qr_scan", "android": "https://dc.lft.to/lastmile_qr_scan"}, "lon": -76.92871, "fusion_lon": 0.0, "is_disabled": 0, "lat": 38.885164333333336, "bike_id": "442bd4ba9a9406d2a9467eec52e2f5cb", "name": "442bd4ba9a9406d2a9467eec52e2f5cb", "is_reserved": 0, "fusion_lat": 0.0}, {"type": "electric_bike", "rental_uris": {"ios": "https://dc.lft.to/lastmile_qr_scan", "android": "https://dc.lft.to/lastmile_qr_scan"}, "lon": -76.99666416666666, "fusion_lon": 0.0, "is_disabled": 0, "lat": 38.89741466666667, "bike_id": "8ed866a7c8e045cfbcab4dbf035ba6ee", "name": "8ed866a7c8e045cfbcab4dbf035ba6ee", "is_reserved": 0, "fusion_lat": 0.0}, {"type": "electric_bike", "rental_uris": {"ios": "https://dc.lft.to/lastmile_qr_scan", "android": "https://dc.lft.to/lastmile_qr_scan"}, "lon": -77.0207165, "fusion_lon": 0.0, "is_disabled": 0, "lat": 38.964395833333334, "bike_id": "862f777b078c57cede0a2a33e39277c8", "name": "862f777b078c57cede0a2a33e39277c8", "is_reserved": 0, "fusion_lat": 0.0}, {"type": "electric_scooter", "rental_uris": {"ios": "https://dc.lft.to/lastmile_qr_scan", "android": "https://dc.lft.to/lastmile_qr_scan"}, "lon": -77.022137, "fusion_lon": 0.0, "is_disabled": 0, "lat": 38.91255483333333, "bike_id": "093342b9c02b463babd5e334c0cfe4e3", "name": "093342b9c02b463babd5e334c0cfe4e3", "is_reserved": 0, "fusion_lat": 0.0}, {"type": "electric_scooter", "rental_uris": {"ios": "https://dc.lft.to/lastmile_qr_scan", "android": "https://dc.lft.to/lastmile_qr_scan"}, "lon": -77.03353216666666, "fusion_lon": 0.0, "is_disabled": 0, "lat": 38.931496833333334, "bike_id": "8106f0127ac7170cf5b7bd3ff8302d50", "name": "8106f0127ac7170cf5b7bd3ff8302d50", "is_reserved": 0, "fusion_lat": 0.0}, {"type": "electric_scooter", "rental_uris": {"ios": "https://dc.lft.to/lastmile_qr_scan", "android": "https://dc.lft.to/lastmile_qr_scan"}, "lon": -76.99822666666667, "fusion_lon": 0.0, "is_disabled": 0, "lat": 38.90040666666667, "bike_id": "d2289fe55bef733b0b3fa106dce0f20d", "name": "d2289fe55bef733b0b3fa106dce0f20d", "is_reserved": 0, "fusion_lat": 0.0}, {"type": "electric_scooter", "rental_uris": {"ios": "https://dc.lft.to/lastmile_qr_scan", "android": "https://dc.lft.to/lastmile_qr_scan"}, "lon": -76.97598, "fusion_lon": 0.0, "is_disabled": 0, "lat": 38.903329666666664, "bike_id": "026f2fc7b79a2d74352aca61a828bb04", "name": "026f2fc7b79a2d74352aca61a828bb04", "is_reserved": 0, "fusion_lat": 0.0}, {"type": "electric_scooter", "rental_uris": {"ios": "https://dc.lft.to/lastmile_qr_scan", "android": "https://dc.lft.to/lastmile_qr_scan"}, "lon": -77.05133166666667, "fusion_lon": 0.0, "is_disabled": 0, "lat": 38.923645666666665, "bike_id": "50942121886f96f67664f118980375c4", "name": "50942121886f96f67664f118980375c4", "is_reserved": 0, "fusion_lat": 0.0}, {"type": "electric_scooter", "rental_uris": {"ios": "https://dc.lft.to/lastmile_qr_scan", "android": "https://dc.lft.to/lastmile_qr_scan"}, "lon": -77.03869283333333, "fusion_lon": 0.0, "is_disabled": 0, "lat": 38.909771166666665, "bike_id": "46bc4d890e0a28fb97b3b686413faee1", "name": "46bc4d890e0a28fb97b3b686413faee1", "is_reserved": 0, "fusion_lat": 0.0}, {"type": "electric_scooter", "rental_uris": {"ios": "https://dc.lft.to/lastmile_qr_scan", "android": "https://dc.lft.to/lastmile_qr_scan"}, "lon": -77.0344815, "fusion_lon": 0.0, "is_disabled": 0, "lat": 38.91850266666667, "bike_id": "7ed24dd28ac0fc8c9110a13525b70dd9", "name": "7ed24dd28ac0fc8c9110a13525b70dd9", "is_reserved": 0, "fusion_lat": 0.0}, {"type": "electric_scooter", "rental_uris": {"ios": "https://dc.lft.to/lastmile_qr_scan", "android": "https://dc.lft.to/lastmile_qr_scan"}, "lon": -77.0558525, "fusion_lon": 0.0, "is_disabled": 0, "lat": 38.910531, "bike_id": "a1c705d4c7f99556367147dd661dce0d", "name": "a1c705d4c7f99556367147dd661dce0d", "is_reserved": 0, "fusion_lat": 0.0}, {"type": "electric_scooter", "rental_uris": {"ios": "https://dc.lft.to/lastmile_qr_scan", "android": "https://dc.lft.to/lastmile_qr_scan"}, "lon": -77.025424, "fusion_lon": 0.0, "is_disabled": 0, "lat": 38.92402383333334, "bike_id": "baa4403358488a83fad1e20da012c762", "name": "baa4403358488a83fad1e20da012c762", "is_reserved": 0, "fusion_lat": 0.0}, {"type": "electric_scooter", "rental_uris": {"ios": "https://dc.lft.to/lastmile_qr_scan", "android": "https://dc.lft.to/lastmile_qr_scan"}, "lon": -77.04587233333334, "fusion_lon": 0.0, "is_disabled": 0, "lat": 38.90862166666667, "bike_id": "e803272919e780bd5a6c26fe675a520a", "name": "e803272919e780bd5a6c26fe675a520a", "is_reserved": 0, "fusion_lat": 0.0}, {"type": "electric_scooter", "rental_uris": {"ios": "https://dc.lft.to/lastmile_qr_scan", "android": "https://dc.lft.to/lastmile_qr_scan"}, "lon": -77.02623566666666, "fusion_lon": 0.0, "is_disabled": 0, "lat": 38.89220266666667, "bike_id": "c1ba97ad375109b57388826db7c9e892", "name": "c1ba97ad375109b57388826db7c9e892", "is_reserved": 0, "fusion_lat": 0.0}, {"type": "electric_scooter", "rental_uris": {"ios": "https://dc.lft.to/lastmile_qr_scan", "android": "https://dc.lft.to/lastmile_qr_scan"}, "lon": -76.999453, "fusion_lon": 0.0, "is_disabled": 0, "lat": 38.842974166666664, "bike_id": "6664ec81689705d9e3ccae77b50c9b00", "name": "6664ec81689705d9e3ccae77b50c9b00", "is_reserved": 0, "fusion_lat": 0.0}, {"type": "electric_scooter", "rental_uris": {"ios": "https://dc.lft.to/lastmile_qr_scan", "android": "https://dc.lft.to/lastmile_qr_scan"}, "lon": -77.02182816666667, "fusion_lon": 0.0, "is_disabled": 0, "lat": 38.90622116666667, "bike_id": "6073397d61bd06227c2c46940dbd2005", "name": "6073397d61bd06227c2c46940dbd2005", "is_reserved": 0, "fusion_lat": 0.0}, {"type": "electric_scooter", "rental_uris": {"ios": "https://dc.lft.to/lastmile_qr_scan", "android": "https://dc.lft.to/lastmile_qr_scan"}, "lon": -77.04255066666667, "fusion_lon": 0.0, "is_disabled": 0, "lat": 38.92201216666667, "bike_id": "845bc9fa9230b3b3d5d7353b8cc39550", "name": "845bc9fa9230b3b3d5d7353b8cc39550", "is_reserved": 0, "fusion_lat": 0.0}, {"type": "electric_scooter", "rental_uris": {"ios": "https://dc.lft.to/lastmile_qr_scan", "android": "https://dc.lft.to/lastmile_qr_scan"}, "lon": -77.05129016666666, "fusion_lon": 0.0, "is_disabled": 0, "lat": 38.923627, "bike_id": "8e162b0da3fec97306f9256ac1462322", "name": "8e162b0da3fec97306f9256ac1462322", "is_reserved": 0, "fusion_lat": 0.0}, {"type": "electric_scooter", "rental_uris": {"ios": "https://dc.lft.to/lastmile_qr_scan", "android": "https://dc.lft.to/lastmile_qr_scan"}, "lon": -77.00717883333333, "fusion_lon": 0.0, "is_disabled": 0, "lat": 38.90579866666667, "bike_id": "4b0853701ccb9aa46267756392a83e69", "name": "4b0853701ccb9aa46267756392a83e69", "is_reserved": 0, "fusion_lat": 0.0}, {"type": "electric_scooter", "rental_uris": {"ios": "https://dc.lft.to/lastmile_qr_scan", "android": "https://dc.lft.to/lastmile_qr_scan"}, "lon": -76.94988633333334, "fusion_lon": 0.0, "is_disabled": 0, "lat": 38.894074333333336, "bike_id": "7e9e73e9a4d3a38046e0b29793281821", "name": "7e9e73e9a4d3a38046e0b29793281821", "is_reserved": 0, "fusion_lat": 0.0}, {"type": "electric_scooter", "rental_uris": {"ios": "https://dc.lft.to/lastmile_qr_scan", "android": "https://dc.lft.to/lastmile_qr_scan"}, "lon": -77.031489, "fusion_lon": 0.0, "is_disabled": 0, "lat": 38.911158666666665, "bike_id": "8670a3ecddb689f73d252a4e3752e3d5", "name": "8670a3ecddb689f73d252a4e3752e3d5", "is_reserved": 0, "fusion_lat": 0.0}, {"type": "electric_scooter", "rental_uris": {"ios": "https://dc.lft.to/lastmile_qr_scan", "android": "https://dc.lft.to/lastmile_qr_scan"}, "lon": -77.04029466666667, "fusion_lon": 0.0, "is_disabled": 0, "lat": 38.91807816666667, "bike_id": "334e7f361374f6ffa575a859aa3eed5a", "name": "334e7f361374f6ffa575a859aa3eed5a", "is_reserved": 0, "fusion_lat": 0.0}, {"type": "electric_scooter", "rental_uris": {"ios": "https://dc.lft.to/lastmile_qr_scan", "android": "https://dc.lft.to/lastmile_qr_scan"}, "lon": -77.03841016666667, "fusion_lon": 0.0, "is_disabled": 0, "lat": 38.91758516666667, "bike_id": "e67c8f127c4d8a6b9ce61b5a8afff30b", "name": "e67c8f127c4d8a6b9ce61b5a8afff30b", "is_reserved": 0, "fusion_lat": 0.0}, {"type": "electric_scooter", "rental_uris": {"ios": "https://dc.lft.to/lastmile_qr_scan", "android": "https://dc.lft.to/lastmile_qr_scan"}, "lon": -77.05519816666667, "fusion_lon": 0.0, "is_disabled": 0, "lat": 38.94413216666667, "bike_id": "78a078dd6309a9b3db01d487c2a48d4f", "name": "78a078dd6309a9b3db01d487c2a48d4f", "is_reserved": 0, "fusion_lat": 0.0}, {"type": "electric_scooter", "rental_uris": {"ios": "https://dc.lft.to/lastmile_qr_scan", "android": "https://dc.lft.to/lastmile_qr_scan"}, "lon": -77.02802333333334, "fusion_lon": 0.0, "is_disabled": 0, "lat": 38.892331, "bike_id": "2a96aecdcb75eea6824a5f40d36bea0c", "name": "2a96aecdcb75eea6824a5f40d36bea0c", "is_reserved": 0, "fusion_lat": 0.0}, {"type": "electric_scooter", "rental_uris": {"ios": "https://dc.lft.to/lastmile_qr_scan", "android": "https://dc.lft.to/lastmile_qr_scan"}, "lon": -77.04477766666666, "fusion_lon": 0.0, "is_disabled": 0, "lat": 38.911114, "bike_id": "3d42b9f1ffa798d359e9b820519561a2", "name": "3d42b9f1ffa798d359e9b820519561a2", "is_reserved": 0, "fusion_lat": 0.0}, {"type": "electric_scooter", "rental_uris": {"ios": "https://dc.lft.to/lastmile_qr_scan", "android": "https://dc.lft.to/lastmile_qr_scan"}, "lon": -77.0337875, "fusion_lon": 0.0, "is_disabled": 0, "lat": 38.90959316666667, "bike_id": "a94fcae5b6b9b72f61d7ae8604643173", "name": "a94fcae5b6b9b72f61d7ae8604643173", "is_reserved": 0, "fusion_lat": 0.0}, {"type": "electric_scooter", "rental_uris": {"ios": "https://dc.lft.to/lastmile_qr_scan", "android": "https://dc.lft.to/lastmile_qr_scan"}, "lon": -77.020002, "fusion_lon": 0.0, "is_disabled": 0, "lat": 38.915656, "bike_id": "20e042db70c1b839df3b5ea53e7bb328", "name": "20e042db70c1b839df3b5ea53e7bb328", "is_reserved": 0, "fusion_lat": 0.0}, {"type": "electric_scooter", "rental_uris": {"ios": "https://dc.lft.to/lastmile_qr_scan", "android": "https://dc.lft.to/lastmile_qr_scan"}, "lon": -77.02841416666666, "fusion_lon": 0.0, "is_disabled": 0, "lat": 38.9327795, "bike_id": "b1149e0dbcbe7824b58953864a52f65e", "name": "b1149e0dbcbe7824b58953864a52f65e", "is_reserved": 0, "fusion_lat": 0.0}, {"type": "electric_scooter", "rental_uris": {"ios": "https://dc.lft.to/lastmile_qr_scan", "android": "https://dc.lft.to/lastmile_qr_scan"}, "lon": -77.03120533333333, "fusion_lon": 0.0, "is_disabled": 0, "lat": 38.92038616666667, "bike_id": "8cb0bd1aed41c26c7b3c452a67b7487c", "name": "8cb0bd1aed41c26c7b3c452a67b7487c", "is_reserved": 0, "fusion_lat": 0.0}, {"type": "electric_scooter", "rental_uris": {"ios": "https://dc.lft.to/lastmile_qr_scan", "android": "https://dc.lft.to/lastmile_qr_scan"}, "lon": -77.03917616666666, "fusion_lon": 0.0, "is_disabled": 0, "lat": 38.918181, "bike_id": "1950ec3404f27381bbd99a25ad921571", "name": "1950ec3404f27381bbd99a25ad921571", "is_reserved": 0, "fusion_lat": 0.0}, {"type": "electric_scooter", "rental_uris": {"ios": "https://dc.lft.to/lastmile_qr_scan", "android": "https://dc.lft.to/lastmile_qr_scan"}, "lon": -77.076831, "fusion_lon": 0.0, "is_disabled": 0, "lat": 38.94227983333333, "bike_id": "4fbe521c8c85e3b58f623c0831aae08c", "name": "4fbe521c8c85e3b58f623c0831aae08c", "is_reserved": 0, "fusion_lat": 0.0}, {"type": "electric_scooter", "rental_uris": {"ios": "https://dc.lft.to/lastmile_qr_scan", "android": "https://dc.lft.to/lastmile_qr_scan"}, "lon": -77.0318405, "fusion_lon": 0.0, "is_disabled": 0, "lat": 38.89230466666667, "bike_id": "9b6a516379ce47c711452098e25a9676", "name": "9b6a516379ce47c711452098e25a9676", "is_reserved": 0, "fusion_lat": 0.0}, {"type": "electric_scooter", "rental_uris": {"ios": "https://dc.lft.to/lastmile_qr_scan", "android": "https://dc.lft.to/lastmile_qr_scan"}, "lon": -77.02339883333333, "fusion_lon": 0.0, "is_disabled": 0, "lat": 38.91793, "bike_id": "ac02053dd0d6b200931c834444bb1bfe", "name": "ac02053dd0d6b200931c834444bb1bfe", "is_reserved": 0, "fusion_lat": 0.0}, {"type": "electric_scooter", "rental_uris": {"ios": "https://dc.lft.to/lastmile_qr_scan", "android": "https://dc.lft.to/lastmile_qr_scan"}, "lon": -77.03661216666667, "fusion_lon": 0.0, "is_disabled": 0, "lat": 38.92026216666667, "bike_id": "2dc339a3141209dfcfabb05f74d0114b", "name": "2dc339a3141209dfcfabb05f74d0114b", "is_reserved": 0, "fusion_lat": 0.0}, {"type": "electric_scooter", "rental_uris": {"ios": "https://dc.lft.to/lastmile_qr_scan", "android": "https://dc.lft.to/lastmile_qr_scan"}, "lon": -77.048969, "fusion_lon": 0.0, "is_disabled": 0, "lat": 38.900998, "bike_id": "08a89512b587709327ec9eebfa028e85", "name": "08a89512b587709327ec9eebfa028e85", "is_reserved": 0, "fusion_lat": 0.0}, {"type": "electric_scooter", "rental_uris": {"ios": "https://dc.lft.to/lastmile_qr_scan", "android": "https://dc.lft.to/lastmile_qr_scan"}, "lon": -76.9903225, "fusion_lon": 0.0, "is_disabled": 0, "lat": 38.891481, "bike_id": "d379e9842f4439889e639cca879ccf77", "name": "d379e9842f4439889e639cca879ccf77", "is_reserved": 0, "fusion_lat": 0.0}, {"type": "electric_scooter", "rental_uris": {"ios": "https://dc.lft.to/lastmile_qr_scan", "android": "https://dc.lft.to/lastmile_qr_scan"}, "lon": -77.04079266666666, "fusion_lon": 0.0, "is_disabled": 0, "lat": 38.914090333333334, "bike_id": "8188733b6fc6dd85824e3f4af1e32a2f", "name": "8188733b6fc6dd85824e3f4af1e32a2f", "is_reserved": 0, "fusion_lat": 0.0}, {"type": "electric_scooter", "rental_uris": {"ios": "https://dc.lft.to/lastmile_qr_scan", "android": "https://dc.lft.to/lastmile_qr_scan"}, "lon": -77.046789, "fusion_lon": 0.0, "is_disabled": 0, "lat": 38.91581466666667, "bike_id": "3a6cb0de2b826f4c3c54217cca48fc84", "name": "3a6cb0de2b826f4c3c54217cca48fc84", "is_reserved": 0, "fusion_lat": 0.0}, {"type": "electric_scooter", "rental_uris": {"ios": "https://dc.lft.to/lastmile_qr_scan", "android": "https://dc.lft.to/lastmile_qr_scan"}, "lon": -77.02980583333333, "fusion_lon": 0.0, "is_disabled": 0, "lat": 38.915622666666664, "bike_id": "43c7215b745db772809fce3307ca5ec0", "name": "43c7215b745db772809fce3307ca5ec0", "is_reserved": 0, "fusion_lat": 0.0}, {"type": "electric_bike", "rental_uris": {"ios": "https://dc.lft.to/lastmile_qr_scan", "android": "https://dc.lft.to/lastmile_qr_scan"}, "lon": -77.11719816666667, "fusion_lon": 0.0, "is_disabled": 0, "lat": 39.0545995, "bike_id": "c01de72d5f0c68c724a71c885b247296", "name": "c01de72d5f0c68c724a71c885b247296", "is_reserved": 0, "fusion_lat": 0.0}, {"type": "electric_scooter", "rental_uris": {"ios": "https://dc.lft.to/lastmile_qr_scan", "android": "https://dc.lft.to/lastmile_qr_scan"}, "lon": -77.0322095, "fusion_lon": 0.0, "is_disabled": 0, "lat": 38.892262333333335, "bike_id": "d67c55827f490eb5429102d632c56cb7", "name": "d67c55827f490eb5429102d632c56cb7", "is_reserved": 0, "fusion_lat": 0.0}, {"type": "electric_scooter", "rental_uris": {"ios": "https://dc.lft.to/lastmile_qr_scan", "android": "https://dc.lft.to/lastmile_qr_scan"}, "lon": -77.04339816666666, "fusion_lon": 0.0, "is_disabled": 0, "lat": 38.90817966666667, "bike_id": "2555f61d76df30b75b2ac42bee6bbf30", "name": "2555f61d76df30b75b2ac42bee6bbf30", "is_reserved": 0, "fusion_lat": 0.0}, {"type": "electric_scooter", "rental_uris": {"ios": "https://dc.lft.to/lastmile_qr_scan", "android": "https://dc.lft.to/lastmile_qr_scan"}, "lon": -77.02221866666666, "fusion_lon": 0.0, "is_disabled": 0, "lat": 38.89219416666667, "bike_id": "fb00a430a36b1d08011f91bddc47d661", "name": "fb00a430a36b1d08011f91bddc47d661", "is_reserved": 0, "fusion_lat": 0.0}, {"type": "electric_scooter", "rental_uris": {"ios": "https://dc.lft.to/lastmile_qr_scan", "android": "https://dc.lft.to/lastmile_qr_scan"}, "lon": -77.001956, "fusion_lon": 0.0, "is_disabled": 0, "lat": 38.900369166666664, "bike_id": "3e42d1af817767c5647aa53286e15140", "name": "3e42d1af817767c5647aa53286e15140", "is_reserved": 0, "fusion_lat": 0.0}, {"type": "electric_scooter", "rental_uris": {"ios": "https://dc.lft.to/lastmile_qr_scan", "android": "https://dc.lft.to/lastmile_qr_scan"}, "lon": -77.04885233333333, "fusion_lon": 0.0, "is_disabled": 0, "lat": 38.91337683333333, "bike_id": "d744ede28e5fb44fb1321f14f586f42e", "name": "d744ede28e5fb44fb1321f14f586f42e", "is_reserved": 0, "fusion_lat": 0.0}, {"type": "electric_scooter", "rental_uris": {"ios": "https://dc.lft.to/lastmile_qr_scan", "android": "https://dc.lft.to/lastmile_qr_scan"}, "lon": -77.02982233333333, "fusion_lon": 0.0, "is_disabled": 0, "lat": 38.91681033333333, "bike_id": "44f824fedf7f3f6de7cf82ea7806e2e1", "name": "44f824fedf7f3f6de7cf82ea7806e2e1", "is_reserved": 0, "fusion_lat": 0.0}, {"type": "electric_scooter", "rental_uris": {"ios": "https://dc.lft.to/lastmile_qr_scan", "android": "https://dc.lft.to/lastmile_qr_scan"}, "lon": -77.0475015, "fusion_lon": 0.0, "is_disabled": 0, "lat": 38.90198483333333, "bike_id": "bbcfa621d2c1fd7274adb5c9c97fce7f", "name": "bbcfa621d2c1fd7274adb5c9c97fce7f", "is_reserved": 0, "fusion_lat": 0.0}, {"type": "electric_scooter", "rental_uris": {"ios": "https://dc.lft.to/lastmile_qr_scan", "android": "https://dc.lft.to/lastmile_qr_scan"}, "lon": -77.040644, "fusion_lon": 0.0, "is_disabled": 0, "lat": 38.904006333333335, "bike_id": "63e09be876e29126c4900f22e57f8897", "name": "63e09be876e29126c4900f22e57f8897", "is_reserved": 0, "fusion_lat": 0.0}, {"type": "electric_scooter", "rental_uris": {"ios": "https://dc.lft.to/lastmile_qr_scan", "android": "https://dc.lft.to/lastmile_qr_scan"}, "lon": -77.07299966666666, "fusion_lon": 0.0, "is_disabled": 0, "lat": 38.92148683333333, "bike_id": "296496953dc64f4b878d57750e60fc70", "name": "296496953dc64f4b878d57750e60fc70", "is_reserved": 0, "fusion_lat": 0.0}, {"type": "electric_scooter", "rental_uris": {"ios": "https://dc.lft.to/lastmile_qr_scan", "android": "https://dc.lft.to/lastmile_qr_scan"}, "lon": -77.001222, "fusion_lon": 0.0, "is_disabled": 0, "lat": 38.87797066666667, "bike_id": "2f4cb4abb79b210ce2f21289e20df98f", "name": "2f4cb4abb79b210ce2f21289e20df98f", "is_reserved": 0, "fusion_lat": 0.0}, {"type": "electric_scooter", "rental_uris": {"ios": "https://dc.lft.to/lastmile_qr_scan", "android": "https://dc.lft.to/lastmile_qr_scan"}, "lon": -76.97237633333333, "fusion_lon": 0.0, "is_disabled": 0, "lat": 38.854555166666664, "bike_id": "4111176783010ef446ab888171df72ef", "name": "4111176783010ef446ab888171df72ef", "is_reserved": 0, "fusion_lat": 0.0}, {"type": "electric_scooter", "rental_uris": {"ios": "https://dc.lft.to/lastmile_qr_scan", "android": "https://dc.lft.to/lastmile_qr_scan"}, "lon": -77.0632775, "fusion_lon": 0.0, "is_disabled": 0, "lat": 38.9026655, "bike_id": "19a023e38023f89eebb41efc94859fb3", "name": "19a023e38023f89eebb41efc94859fb3", "is_reserved": 0, "fusion_lat": 0.0}, {"type": "electric_scooter", "rental_uris": {"ios": "https://dc.lft.to/lastmile_qr_scan", "android": "https://dc.lft.to/lastmile_qr_scan"}, "lon": -77.05015866666666, "fusion_lon": 0.0, "is_disabled": 0, "lat": 38.90311716666667, "bike_id": "6aaf26b703cdb502fa7acf31b88f98d4", "name": "6aaf26b703cdb502fa7acf31b88f98d4", "is_reserved": 0, "fusion_lat": 0.0}, {"type": "electric_scooter", "rental_uris": {"ios": "https://dc.lft.to/lastmile_qr_scan", "android": "https://dc.lft.to/lastmile_qr_scan"}, "lon": -76.97327416666667, "fusion_lon": 0.0, "is_disabled": 0, "lat": 38.90409916666667, "bike_id": "2b9cba0640423342f3b4626523f9bbff", "name": "2b9cba0640423342f3b4626523f9bbff", "is_reserved": 0, "fusion_lat": 0.0}, {"type": "electric_bike", "rental_uris": {"ios": "https://dc.lft.to/lastmile_qr_scan", "android": "https://dc.lft.to/lastmile_qr_scan"}, "lon": -77.0363795, "fusion_lon": 0.0, "is_disabled": 0, "lat": 38.93285433333333, "bike_id": "d6e4aee362144a6ba1203c79c4959aca", "name": "d6e4aee362144a6ba1203c79c4959aca", "is_reserved": 0, "fusion_lat": 0.0}, {"type": "electric_scooter", "rental_uris": {"ios": "https://dc.lft.to/lastmile_qr_scan", "android": "https://dc.lft.to/lastmile_qr_scan"}, "lon": -77.000728, "fusion_lon": 0.0, "is_disabled": 0, "lat": 38.90585316666667, "bike_id": "8d8201ae351056c2aff22516d5376e02", "name": "8d8201ae351056c2aff22516d5376e02", "is_reserved": 0, "fusion_lat": 0.0}, {"type": "electric_bike", "rental_uris": {"ios": "https://dc.lft.to/lastmile_qr_scan", "android": "https://dc.lft.to/lastmile_qr_scan"}, "lon": -77.094874, "fusion_lon": 0.0, "is_disabled": 0, "lat": 39.0305135, "bike_id": "2d50c90235f41c9ac049e1061fe86884", "name": "2d50c90235f41c9ac049e1061fe86884", "is_reserved": 0, "fusion_lat": 0.0}, {"type": "electric_scooter", "rental_uris": {"ios": "https://dc.lft.to/lastmile_qr_scan", "android": "https://dc.lft.to/lastmile_qr_scan"}, "lon": -77.01081016666667, "fusion_lon": 0.0, "is_disabled": 0, "lat": 38.91625633333334, "bike_id": "426fd6602aeb1a6ee6d3cceaa52947ff", "name": "426fd6602aeb1a6ee6d3cceaa52947ff", "is_reserved": 0, "fusion_lat": 0.0}, {"type": "electric_scooter", "rental_uris": {"ios": "https://dc.lft.to/lastmile_qr_scan", "android": "https://dc.lft.to/lastmile_qr_scan"}, "lon": -77.03047933333333, "fusion_lon": 0.0, "is_disabled": 0, "lat": 38.88436216666667, "bike_id": "d55021514811a15247cb786f4acb85e0", "name": "d55021514811a15247cb786f4acb85e0", "is_reserved": 0, "fusion_lat": 0.0}, {"type": "electric_scooter", "rental_uris": {"ios": "https://dc.lft.to/lastmile_qr_scan", "android": "https://dc.lft.to/lastmile_qr_scan"}, "lon": -77.02069966666667, "fusion_lon": 0.0, "is_disabled": 0, "lat": 38.875773833333334, "bike_id": "5f004edc94fbefe934cbebb372472952", "name": "5f004edc94fbefe934cbebb372472952", "is_reserved": 0, "fusion_lat": 0.0}, {"type": "electric_scooter", "rental_uris": {"ios": "https://dc.lft.to/lastmile_qr_scan", "android": "https://dc.lft.to/lastmile_qr_scan"}, "lon": -77.0038815, "fusion_lon": 0.0, "is_disabled": 0, "lat": 38.91064033333333, "bike_id": "de0d25222e0b0be1b1dd2da700395586", "name": "de0d25222e0b0be1b1dd2da700395586", "is_reserved": 0, "fusion_lat": 0.0}, {"type": "electric_scooter", "rental_uris": {"ios": "https://dc.lft.to/lastmile_qr_scan", "android": "https://dc.lft.to/lastmile_qr_scan"}, "lon": -77.03729283333334, "fusion_lon": 0.0, "is_disabled": 0, "lat": 38.91710533333333, "bike_id": "b869144a64550e6a78533ab45026b90a", "name": "b869144a64550e6a78533ab45026b90a", "is_reserved": 0, "fusion_lat": 0.0}, {"type": "electric_scooter", "rental_uris": {"ios": "https://dc.lft.to/lastmile_qr_scan", "android": "https://dc.lft.to/lastmile_qr_scan"}, "lon": -77.03541133333333, "fusion_lon": 0.0, "is_disabled": 0, "lat": 38.926434666666665, "bike_id": "f9ec4bf16fc91038994a6db7d6a6a0e5", "name": "f9ec4bf16fc91038994a6db7d6a6a0e5", "is_reserved": 0, "fusion_lat": 0.0}, {"type": "electric_scooter", "rental_uris": {"ios": "https://dc.lft.to/lastmile_qr_scan", "android": "https://dc.lft.to/lastmile_qr_scan"}, "lon": -77.02717216666667, "fusion_lon": 0.0, "is_disabled": 0, "lat": 38.90738016666667, "bike_id": "38eb2365bdae3f70f5f11ca2a40946c0", "name": "38eb2365bdae3f70f5f11ca2a40946c0", "is_reserved": 0, "fusion_lat": 0.0}, {"type": "electric_scooter", "rental_uris": {"ios": "https://dc.lft.to/lastmile_qr_scan", "android": "https://dc.lft.to/lastmile_qr_scan"}, "lon": -77.02743083333333, "fusion_lon": 0.0, "is_disabled": 0, "lat": 38.8975235, "bike_id": "2171786beda06bb284e307122431e184", "name": "2171786beda06bb284e307122431e184", "is_reserved": 0, "fusion_lat": 0.0}, {"type": "electric_scooter", "rental_uris": {"ios": "https://dc.lft.to/lastmile_qr_scan", "android": "https://dc.lft.to/lastmile_qr_scan"}, "lon": -77.02801866666667, "fusion_lon": 0.0, "is_disabled": 0, "lat": 38.892359, "bike_id": "6c264e4e18c2031a999472df110dc978", "name": "6c264e4e18c2031a999472df110dc978", "is_reserved": 0, "fusion_lat": 0.0}, {"type": "electric_scooter", "rental_uris": {"ios": "https://dc.lft.to/lastmile_qr_scan", "android": "https://dc.lft.to/lastmile_qr_scan"}, "lon": -77.04328766666667, "fusion_lon": 0.0, "is_disabled": 0, "lat": 38.8922425, "bike_id": "f533e164cfcfcc3aa3b607a76b440173", "name": "f533e164cfcfcc3aa3b607a76b440173", "is_reserved": 0, "fusion_lat": 0.0}, {"type": "electric_scooter", "rental_uris": {"ios": "https://dc.lft.to/lastmile_qr_scan", "android": "https://dc.lft.to/lastmile_qr_scan"}, "lon": -77.01374083333333, "fusion_lon": 0.0, "is_disabled": 0, "lat": 38.892225333333336, "bike_id": "7203b47a01fb89454116f64aa8cf9f93", "name": "7203b47a01fb89454116f64aa8cf9f93", "is_reserved": 0, "fusion_lat": 0.0}, {"type": "electric_scooter", "rental_uris": {"ios": "https://dc.lft.to/lastmile_qr_scan", "android": "https://dc.lft.to/lastmile_qr_scan"}, "lon": -77.03336983333334, "fusion_lon": 0.0, "is_disabled": 0, "lat": 38.892258, "bike_id": "4054f5be5f16dfa70ac902d89498ea5f", "name": "4054f5be5f16dfa70ac902d89498ea5f", "is_reserved": 0, "fusion_lat": 0.0}, {"type": "electric_scooter", "rental_uris": {"ios": "https://dc.lft.to/lastmile_qr_scan", "android": "https://dc.lft.to/lastmile_qr_scan"}, "lon": -76.98925633333333, "fusion_lon": 0.0, "is_disabled": 0, "lat": 38.840686166666664, "bike_id": "3278b3c0d2e6e7f01969914a02f5b67e", "name": "3278b3c0d2e6e7f01969914a02f5b67e", "is_reserved": 0, "fusion_lat": 0.0}, {"type": "electric_scooter", "rental_uris": {"ios": "https://dc.lft.to/lastmile_qr_scan", "android": "https://dc.lft.to/lastmile_qr_scan"}, "lon": -77.02220466666667, "fusion_lon": 0.0, "is_disabled": 0, "lat": 38.91274133333334, "bike_id": "39486bdeeaed12be67acdf126a2f1efb", "name": "39486bdeeaed12be67acdf126a2f1efb", "is_reserved": 0, "fusion_lat": 0.0}, {"type": "electric_scooter", "rental_uris": {"ios": "https://dc.lft.to/lastmile_qr_scan", "android": "https://dc.lft.to/lastmile_qr_scan"}, "lon": -77.03508833333333, "fusion_lon": 0.0, "is_disabled": 0, "lat": 38.92158033333333, "bike_id": "f6695f7aa27e20b8ccdc4ffc7a2d7022", "name": "f6695f7aa27e20b8ccdc4ffc7a2d7022", "is_reserved": 0, "fusion_lat": 0.0}, {"type": "electric_scooter", "rental_uris": {"ios": "https://dc.lft.to/lastmile_qr_scan", "android": "https://dc.lft.to/lastmile_qr_scan"}, "lon": -77.027566, "fusion_lon": 0.0, "is_disabled": 0, "lat": 38.9578145, "bike_id": "275dad3f19486983089db5d3c7095c27", "name": "275dad3f19486983089db5d3c7095c27", "is_reserved": 0, "fusion_lat": 0.0}, {"type": "electric_scooter", "rental_uris": {"ios": "https://dc.lft.to/lastmile_qr_scan", "android": "https://dc.lft.to/lastmile_qr_scan"}, "lon": -77.052329, "fusion_lon": 0.0, "is_disabled": 0, "lat": 38.924572166666664, "bike_id": "a6f34f63f25ed1a1382cb96d195b0ccf", "name": "a6f34f63f25ed1a1382cb96d195b0ccf", "is_reserved": 0, "fusion_lat": 0.0}, {"type": "electric_scooter", "rental_uris": {"ios": "https://dc.lft.to/lastmile_qr_scan", "android": "https://dc.lft.to/lastmile_qr_scan"}, "lon": -77.029837, "fusion_lon": 0.0, "is_disabled": 0, "lat": 38.922428333333336, "bike_id": "a49baf2a8caee60e3f5875b453aba6fa", "name": "a49baf2a8caee60e3f5875b453aba6fa", "is_reserved": 0, "fusion_lat": 0.0}, {"type": "electric_scooter", "rental_uris": {"ios": "https://dc.lft.to/lastmile_qr_scan", "android": "https://dc.lft.to/lastmile_qr_scan"}, "lon": -77.0217975, "fusion_lon": 0.0, "is_disabled": 0, "lat": 38.892981166666665, "bike_id": "184d839a59f41eda689ae913887a8a0f", "name": "184d839a59f41eda689ae913887a8a0f", "is_reserved": 0, "fusion_lat": 0.0}, {"type": "electric_scooter", "rental_uris": {"ios": "https://dc.lft.to/lastmile_qr_scan", "android": "https://dc.lft.to/lastmile_qr_scan"}, "lon": -76.957515, "fusion_lon": 0.0, "is_disabled": 0, "lat": 38.8842655, "bike_id": "0b6c7d100f2b5d173883c143e0afc0ff", "name": "0b6c7d100f2b5d173883c143e0afc0ff", "is_reserved": 0, "fusion_lat": 0.0}, {"type": "electric_scooter", "rental_uris": {"ios": "https://dc.lft.to/lastmile_qr_scan", "android": "https://dc.lft.to/lastmile_qr_scan"}, "lon": -77.03422316666666, "fusion_lon": 0.0, "is_disabled": 0, "lat": 38.90973316666667, "bike_id": "f21bf6075b88e2961cae5a52e55c6f98", "name": "f21bf6075b88e2961cae5a52e55c6f98", "is_reserved": 0, "fusion_lat": 0.0}, {"type": "electric_scooter", "rental_uris": {"ios": "https://dc.lft.to/lastmile_qr_scan", "android": "https://dc.lft.to/lastmile_qr_scan"}, "lon": -77.02435766666666, "fusion_lon": 0.0, "is_disabled": 0, "lat": 38.92752933333333, "bike_id": "c3a84b22d2fc9fe826681a0f9dba6687", "name": "c3a84b22d2fc9fe826681a0f9dba6687", "is_reserved": 0, "fusion_lat": 0.0}, {"type": "electric_scooter", "rental_uris": {"ios": "https://dc.lft.to/lastmile_qr_scan", "android": "https://dc.lft.to/lastmile_qr_scan"}, "lon": -77.03263116666666, "fusion_lon": 0.0, "is_disabled": 0, "lat": 38.919933666666665, "bike_id": "e75e4f9228ab8994946c15a985aa5db9", "name": "e75e4f9228ab8994946c15a985aa5db9", "is_reserved": 0, "fusion_lat": 0.0}, {"type": "electric_scooter", "rental_uris": {"ios": "https://dc.lft.to/lastmile_qr_scan", "android": "https://dc.lft.to/lastmile_qr_scan"}, "lon": -77.04918966666666, "fusion_lon": 0.0, "is_disabled": 0, "lat": 38.90088933333333, "bike_id": "67638da77cbb26db4ae0b29b68eb1a41", "name": "67638da77cbb26db4ae0b29b68eb1a41", "is_reserved": 0, "fusion_lat": 0.0}, {"type": "electric_bike", "rental_uris": {"ios": "https://dc.lft.to/lastmile_qr_scan", "android": "https://dc.lft.to/lastmile_qr_scan"}, "lon": -76.98689683333333, "fusion_lon": 0.0, "is_disabled": 0, "lat": 38.944722, "bike_id": "f8b79382f074540115d3ff41c5d75a99", "name": "f8b79382f074540115d3ff41c5d75a99", "is_reserved": 0, "fusion_lat": 0.0}, {"type": "electric_scooter", "rental_uris": {"ios": "https://dc.lft.to/lastmile_qr_scan", "android": "https://dc.lft.to/lastmile_qr_scan"}, "lon": -77.0460135, "fusion_lon": 0.0, "is_disabled": 0, "lat": 38.9186045, "bike_id": "40a690e9229dd68ff3775e784f0a64c1", "name": "40a690e9229dd68ff3775e784f0a64c1", "is_reserved": 0, "fusion_lat": 0.0}, {"type": "electric_bike", "rental_uris": {"ios": "https://dc.lft.to/lastmile_qr_scan", "android": "https://dc.lft.to/lastmile_qr_scan"}, "lon": -76.983002, "fusion_lon": 0.0, "is_disabled": 0, "lat": 38.96282016666667, "bike_id": "6a6c31c940067c57ff5941bf0f5ab99e", "name": "6a6c31c940067c57ff5941bf0f5ab99e", "is_reserved": 0, "fusion_lat": 0.0}, {"type": "electric_scooter", "rental_uris": {"ios": "https://dc.lft.to/lastmile_qr_scan", "android": "https://dc.lft.to/lastmile_qr_scan"}, "lon": -77.00759133333334, "fusion_lon": 0.0, "is_disabled": 0, "lat": 38.90039483333334, "bike_id": "d3c3dde95e202bcac67aa908867e6066", "name": "d3c3dde95e202bcac67aa908867e6066", "is_reserved": 0, "fusion_lat": 0.0}, {"type": "electric_scooter", "rental_uris": {"ios": "https://dc.lft.to/lastmile_qr_scan", "android": "https://dc.lft.to/lastmile_qr_scan"}, "lon": -77.02827883333333, "fusion_lon": 0.0, "is_disabled": 0, "lat": 38.887326, "bike_id": "ca9dbb65707ea5294fa5ac8218eb08f1", "name": "ca9dbb65707ea5294fa5ac8218eb08f1", "is_reserved": 0, "fusion_lat": 0.0}, {"type": "electric_scooter", "rental_uris": {"ios": "https://dc.lft.to/lastmile_qr_scan", "android": "https://dc.lft.to/lastmile_qr_scan"}, "lon": -77.03313383333334, "fusion_lon": 0.0, "is_disabled": 0, "lat": 38.9319485, "bike_id": "61fd092932845b39f3afea1a79c82933", "name": "61fd092932845b39f3afea1a79c82933", "is_reserved": 0, "fusion_lat": 0.0}, {"type": "electric_scooter", "rental_uris": {"ios": "https://dc.lft.to/lastmile_qr_scan", "android": "https://dc.lft.to/lastmile_qr_scan"}, "lon": -77.026941, "fusion_lon": 0.0, "is_disabled": 0, "lat": 38.906861666666664, "bike_id": "4f1b77de8273d21d102f44b411cfed76", "name": "4f1b77de8273d21d102f44b411cfed76", "is_reserved": 0, "fusion_lat": 0.0}, {"type": "electric_scooter", "rental_uris": {"ios": "https://dc.lft.to/lastmile_qr_scan", "android": "https://dc.lft.to/lastmile_qr_scan"}, "lon": -76.98214933333334, "fusion_lon": 0.0, "is_disabled": 0, "lat": 38.87826666666667, "bike_id": "de849500ca0296b03353f97624cffd15", "name": "de849500ca0296b03353f97624cffd15", "is_reserved": 0, "fusion_lat": 0.0}, {"type": "electric_scooter", "rental_uris": {"ios": "https://dc.lft.to/lastmile_qr_scan", "android": "https://dc.lft.to/lastmile_qr_scan"}, "lon": -77.022248, "fusion_lon": 0.0, "is_disabled": 0, "lat": 38.9355345, "bike_id": "eb4e9c9e37417274fed420f92c9a8836", "name": "eb4e9c9e37417274fed420f92c9a8836", "is_reserved": 0, "fusion_lat": 0.0}, {"type": "electric_bike", "rental_uris": {"ios": "https://dc.lft.to/lastmile_qr_scan", "android": "https://dc.lft.to/lastmile_qr_scan"}, "lon": -76.98993766666666, "fusion_lon": 0.0, "is_disabled": 0, "lat": 38.86390766666667, "bike_id": "6785738425efbf8b8f86f629ccdda08e", "name": "6785738425efbf8b8f86f629ccdda08e", "is_reserved": 0, "fusion_lat": 0.0}, {"type": "electric_scooter", "rental_uris": {"ios": "https://dc.lft.to/lastmile_qr_scan", "android": "https://dc.lft.to/lastmile_qr_scan"}, "lon": -77.02281866666667, "fusion_lon": 0.0, "is_disabled": 0, "lat": 38.916842, "bike_id": "2d6a9e7ac0f05b82b64fa4b69e6f421c", "name": "2d6a9e7ac0f05b82b64fa4b69e6f421c", "is_reserved": 0, "fusion_lat": 0.0}, {"type": "electric_scooter", "rental_uris": {"ios": "https://dc.lft.to/lastmile_qr_scan", "android": "https://dc.lft.to/lastmile_qr_scan"}, "lon": -77.03830033333334, "fusion_lon": 0.0, "is_disabled": 0, "lat": 38.9217525, "bike_id": "86d70156e96ccd4a6a8b3361f8dc9904", "name": "86d70156e96ccd4a6a8b3361f8dc9904", "is_reserved": 0, "fusion_lat": 0.0}, {"type": "electric_scooter", "rental_uris": {"ios": "https://dc.lft.to/lastmile_qr_scan", "android": "https://dc.lft.to/lastmile_qr_scan"}, "lon": -77.0455125, "fusion_lon": 0.0, "is_disabled": 0, "lat": 38.934097333333334, "bike_id": "4589540c15c114f3e3d8916e0f0217ae", "name": "4589540c15c114f3e3d8916e0f0217ae", "is_reserved": 0, "fusion_lat": 0.0}, {"type": "electric_scooter", "rental_uris": {"ios": "https://dc.lft.to/lastmile_qr_scan", "android": "https://dc.lft.to/lastmile_qr_scan"}, "lon": -77.0301165, "fusion_lon": 0.0, "is_disabled": 0, "lat": 38.939743, "bike_id": "3505d059f99c1167bcd2601ff8021554", "name": "3505d059f99c1167bcd2601ff8021554", "is_reserved": 0, "fusion_lat": 0.0}, {"type": "electric_scooter", "rental_uris": {"ios": "https://dc.lft.to/lastmile_qr_scan", "android": "https://dc.lft.to/lastmile_qr_scan"}, "lon": -77.01675, "fusion_lon": 0.0, "is_disabled": 0, "lat": 38.8813675, "bike_id": "9f12ba296f244f335593fe0fb30dd935", "name": "9f12ba296f244f335593fe0fb30dd935", "is_reserved": 0, "fusion_lat": 0.0}, {"type": "electric_scooter", "rental_uris": {"ios": "https://dc.lft.to/lastmile_qr_scan", "android": "https://dc.lft.to/lastmile_qr_scan"}, "lon": -77.02783866666667, "fusion_lon": 0.0, "is_disabled": 0, "lat": 38.927752166666664, "bike_id": "a84839feff1a381d9b2239d5240120fb", "name": "a84839feff1a381d9b2239d5240120fb", "is_reserved": 0, "fusion_lat": 0.0}, {"type": "electric_scooter", "rental_uris": {"ios": "https://dc.lft.to/lastmile_qr_scan", "android": "https://dc.lft.to/lastmile_qr_scan"}, "lon": -77.017597, "fusion_lon": 0.0, "is_disabled": 0, "lat": 38.87715983333333, "bike_id": "57e3fbe9d2125798996d864b3fac13d4", "name": "57e3fbe9d2125798996d864b3fac13d4", "is_reserved": 0, "fusion_lat": 0.0}, {"type": "electric_bike", "rental_uris": {"ios": "https://dc.lft.to/lastmile_qr_scan", "android": "https://dc.lft.to/lastmile_qr_scan"}, "lon": -77.08084633333333, "fusion_lon": 0.0, "is_disabled": 0, "lat": 38.908665, "bike_id": "2d47f5e56331cc6cf8768185f5fbb4ee", "name": "2d47f5e56331cc6cf8768185f5fbb4ee", "is_reserved": 0, "fusion_lat": 0.0}, {"type": "electric_scooter", "rental_uris": {"ios": "https://dc.lft.to/lastmile_qr_scan", "android": "https://dc.lft.to/lastmile_qr_scan"}, "lon": -77.016227, "fusion_lon": 0.0, "is_disabled": 0, "lat": 38.91891783333333, "bike_id": "1920872d3d7281d80a2bcb882659800a", "name": "1920872d3d7281d80a2bcb882659800a", "is_reserved": 0, "fusion_lat": 0.0}, {"type": "electric_scooter", "rental_uris": {"ios": "https://dc.lft.to/lastmile_qr_scan", "android": "https://dc.lft.to/lastmile_qr_scan"}, "lon": -76.99903333333333, "fusion_lon": 0.0, "is_disabled": 0, "lat": 38.89898516666667, "bike_id": "2d143399eb5eace487684195d1452e08", "name": "2d143399eb5eace487684195d1452e08", "is_reserved": 0, "fusion_lat": 0.0}, {"type": "electric_bike", "rental_uris": {"ios": "https://dc.lft.to/lastmile_qr_scan", "android": "https://dc.lft.to/lastmile_qr_scan"}, "lon": -77.06334333333334, "fusion_lon": 0.0, "is_disabled": 0, "lat": 38.92110266666667, "bike_id": "fbaaa72a6a4a3bc902ceee7f2ba4259c", "name": "fbaaa72a6a4a3bc902ceee7f2ba4259c", "is_reserved": 0, "fusion_lat": 0.0}, {"type": "electric_scooter", "rental_uris": {"ios": "https://dc.lft.to/lastmile_qr_scan", "android": "https://dc.lft.to/lastmile_qr_scan"}, "lon": -77.049018, "fusion_lon": 0.0, "is_disabled": 0, "lat": 38.90111783333333, "bike_id": "ba28c265e8fd0751a699fa26820bd2d9", "name": "ba28c265e8fd0751a699fa26820bd2d9", "is_reserved": 0, "fusion_lat": 0.0}, {"type": "electric_bike", "rental_uris": {"ios": "https://dc.lft.to/lastmile_qr_scan", "android": "https://dc.lft.to/lastmile_qr_scan"}, "lon": -77.024701, "fusion_lon": 0.0, "is_disabled": 0, "lat": 38.952957833333336, "bike_id": "46f9b33a566d589472bd8bad769f326c", "name": "46f9b33a566d589472bd8bad769f326c", "is_reserved": 0, "fusion_lat": 0.0}, {"type": "electric_scooter", "rental_uris": {"ios": "https://dc.lft.to/lastmile_qr_scan", "android": "https://dc.lft.to/lastmile_qr_scan"}, "lon": -77.032138, "fusion_lon": 0.0, "is_disabled": 0, "lat": 38.918505333333336, "bike_id": "d11809f83b300ec804f10c7781d7cc3c", "name": "d11809f83b300ec804f10c7781d7cc3c", "is_reserved": 0, "fusion_lat": 0.0}, {"type": "electric_scooter", "rental_uris": {"ios": "https://dc.lft.to/lastmile_qr_scan", "android": "https://dc.lft.to/lastmile_qr_scan"}, "lon": -77.04086416666667, "fusion_lon": 0.0, "is_disabled": 0, "lat": 38.916986333333334, "bike_id": "7f6cf327d2897a82f0cfb760b4b61534", "name": "7f6cf327d2897a82f0cfb760b4b61534", "is_reserved": 0, "fusion_lat": 0.0}, {"type": "electric_scooter", "rental_uris": {"ios": "https://dc.lft.to/lastmile_qr_scan", "android": "https://dc.lft.to/lastmile_qr_scan"}, "lon": -76.98886183333333, "fusion_lon": 0.0, "is_disabled": 0, "lat": 38.866511833333334, "bike_id": "5c9e51f10b288b63b0f1e5b6fea6638b", "name": "5c9e51f10b288b63b0f1e5b6fea6638b", "is_reserved": 0, "fusion_lat": 0.0}, {"type": "electric_scooter", "rental_uris": {"ios": "https://dc.lft.to/lastmile_qr_scan", "android": "https://dc.lft.to/lastmile_qr_scan"}, "lon": -77.02498716666666, "fusion_lon": 0.0, "is_disabled": 0, "lat": 38.919539, "bike_id": "7586011110a5777e45583da044260827", "name": "7586011110a5777e45583da044260827", "is_reserved": 0, "fusion_lat": 0.0}, {"type": "electric_scooter", "rental_uris": {"ios": "https://dc.lft.to/lastmile_qr_scan", "android": "https://dc.lft.to/lastmile_qr_scan"}, "lon": -76.99627583333333, "fusion_lon": 0.0, "is_disabled": 0, "lat": 38.900004, "bike_id": "56da6925171a0fd060786b62c3a8ab6f", "name": "56da6925171a0fd060786b62c3a8ab6f", "is_reserved": 0, "fusion_lat": 0.0}, {"type": "electric_scooter", "rental_uris": {"ios": "https://dc.lft.to/lastmile_qr_scan", "android": "https://dc.lft.to/lastmile_qr_scan"}, "lon": -77.02055216666666, "fusion_lon": 0.0, "is_disabled": 0, "lat": 38.908425333333334, "bike_id": "35f781af9ff14342b7ed9f6fb8463887", "name": "35f781af9ff14342b7ed9f6fb8463887", "is_reserved": 0, "fusion_lat": 0.0}, {"type": "electric_bike", "rental_uris": {"ios": "https://dc.lft.to/lastmile_qr_scan", "android": "https://dc.lft.to/lastmile_qr_scan"}, "lon": -77.07113883333334, "fusion_lon": 0.0, "is_disabled": 0, "lat": 38.80066816666667, "bike_id": "6cbf210f06de3eff840a725e45c5c69c", "name": "6cbf210f06de3eff840a725e45c5c69c", "is_reserved": 0, "fusion_lat": 0.0}, {"type": "electric_scooter", "rental_uris": {"ios": "https://dc.lft.to/lastmile_qr_scan", "android": "https://dc.lft.to/lastmile_qr_scan"}, "lon": -77.04330816666666, "fusion_lon": 0.0, "is_disabled": 0, "lat": 38.8922445, "bike_id": "fcb979fb0cf06367adb269d20fd5795a", "name": "fcb979fb0cf06367adb269d20fd5795a", "is_reserved": 0, "fusion_lat": 0.0}, {"type": "electric_scooter", "rental_uris": {"ios": "https://dc.lft.to/lastmile_qr_scan", "android": "https://dc.lft.to/lastmile_qr_scan"}, "lon": -77.03273233333333, "fusion_lon": 0.0, "is_disabled": 0, "lat": 38.932489333333336, "bike_id": "ebb4113a61c989ef3c86de4cfdcf1a17", "name": "ebb4113a61c989ef3c86de4cfdcf1a17", "is_reserved": 0, "fusion_lat": 0.0}, {"type": "electric_scooter", "rental_uris": {"ios": "https://dc.lft.to/lastmile_qr_scan", "android": "https://dc.lft.to/lastmile_qr_scan"}, "lon": -77.02499816666666, "fusion_lon": 0.0, "is_disabled": 0, "lat": 38.918069833333334, "bike_id": "02fb6ab4861ee84a06035e912654e3a8", "name": "02fb6ab4861ee84a06035e912654e3a8", "is_reserved": 0, "fusion_lat": 0.0}, {"type": "electric_scooter", "rental_uris": {"ios": "https://dc.lft.to/lastmile_qr_scan", "android": "https://dc.lft.to/lastmile_qr_scan"}, "lon": -77.0363115, "fusion_lon": 0.0, "is_disabled": 0, "lat": 38.93715916666667, "bike_id": "05b02637c5aa6a54e82de709104321cb", "name": "05b02637c5aa6a54e82de709104321cb", "is_reserved": 0, "fusion_lat": 0.0}, {"type": "electric_scooter", "rental_uris": {"ios": "https://dc.lft.to/lastmile_qr_scan", "android": "https://dc.lft.to/lastmile_qr_scan"}, "lon": -77.04418366666667, "fusion_lon": 0.0, "is_disabled": 0, "lat": 38.9252495, "bike_id": "171013683d6f3728ee3790a4941bc1da", "name": "171013683d6f3728ee3790a4941bc1da", "is_reserved": 0, "fusion_lat": 0.0}, {"type": "electric_scooter", "rental_uris": {"ios": "https://dc.lft.to/lastmile_qr_scan", "android": "https://dc.lft.to/lastmile_qr_scan"}, "lon": -77.032689, "fusion_lon": 0.0, "is_disabled": 0, "lat": 38.93773483333333, "bike_id": "727188c6b29ec96016b65b9c506d5bb0", "name": "727188c6b29ec96016b65b9c506d5bb0", "is_reserved": 0, "fusion_lat": 0.0}, {"type": "electric_scooter", "rental_uris": {"ios": "https://dc.lft.to/lastmile_qr_scan", "android": "https://dc.lft.to/lastmile_qr_scan"}, "lon": -76.993804, "fusion_lon": 0.0, "is_disabled": 0, "lat": 38.90034966666666, "bike_id": "55e2ea4e93e9aab3a03ade307b215944", "name": "55e2ea4e93e9aab3a03ade307b215944", "is_reserved": 0, "fusion_lat": 0.0}, {"type": "electric_scooter", "rental_uris": {"ios": "https://dc.lft.to/lastmile_qr_scan", "android": "https://dc.lft.to/lastmile_qr_scan"}, "lon": -77.02304216666667, "fusion_lon": 0.0, "is_disabled": 0, "lat": 38.91771466666667, "bike_id": "bc6a735e7fc8fab00cd10f026687485a", "name": "bc6a735e7fc8fab00cd10f026687485a", "is_reserved": 0, "fusion_lat": 0.0}, {"type": "electric_scooter", "rental_uris": {"ios": "https://dc.lft.to/lastmile_qr_scan", "android": "https://dc.lft.to/lastmile_qr_scan"}, "lon": -77.03266783333333, "fusion_lon": 0.0, "is_disabled": 0, "lat": 38.93520216666667, "bike_id": "768f29ead3d419ebdf8f5f094eeae387", "name": "768f29ead3d419ebdf8f5f094eeae387", "is_reserved": 0, "fusion_lat": 0.0}, {"type": "electric_scooter", "rental_uris": {"ios": "https://dc.lft.to/lastmile_qr_scan", "android": "https://dc.lft.to/lastmile_qr_scan"}, "lon": -77.02801833333334, "fusion_lon": 0.0, "is_disabled": 0, "lat": 38.892327, "bike_id": "a078352d7d1493fb2f1c0a7dcb60714d", "name": "a078352d7d1493fb2f1c0a7dcb60714d", "is_reserved": 0, "fusion_lat": 0.0}, {"type": "electric_scooter", "rental_uris": {"ios": "https://dc.lft.to/lastmile_qr_scan", "android": "https://dc.lft.to/lastmile_qr_scan"}, "lon": -77.0201205, "fusion_lon": 0.0, "is_disabled": 0, "lat": 38.911188, "bike_id": "ddfe9a20f6800f5c81547290b6cae932", "name": "ddfe9a20f6800f5c81547290b6cae932", "is_reserved": 0, "fusion_lat": 0.0}, {"type": "electric_scooter", "rental_uris": {"ios": "https://dc.lft.to/lastmile_qr_scan", "android": "https://dc.lft.to/lastmile_qr_scan"}, "lon": -77.031779, "fusion_lon": 0.0, "is_disabled": 0, "lat": 38.91820233333333, "bike_id": "afff6c9c62363f7e1e7add02b1fd5dfb", "name": "afff6c9c62363f7e1e7add02b1fd5dfb", "is_reserved": 0, "fusion_lat": 0.0}, {"type": "electric_scooter", "rental_uris": {"ios": "https://dc.lft.to/lastmile_qr_scan", "android": "https://dc.lft.to/lastmile_qr_scan"}, "lon": -77.04194216666667, "fusion_lon": 0.0, "is_disabled": 0, "lat": 38.91888183333333, "bike_id": "37bb8a560cd127caca3fb66b07f1917a", "name": "37bb8a560cd127caca3fb66b07f1917a", "is_reserved": 0, "fusion_lat": 0.0}, {"type": "electric_scooter", "rental_uris": {"ios": "https://dc.lft.to/lastmile_qr_scan", "android": "https://dc.lft.to/lastmile_qr_scan"}, "lon": -77.04818733333333, "fusion_lon": 0.0, "is_disabled": 0, "lat": 38.91046, "bike_id": "827eba00ba7f99a03598256cb134247a", "name": "827eba00ba7f99a03598256cb134247a", "is_reserved": 0, "fusion_lat": 0.0}, {"type": "electric_scooter", "rental_uris": {"ios": "https://dc.lft.to/lastmile_qr_scan", "android": "https://dc.lft.to/lastmile_qr_scan"}, "lon": -77.04687983333334, "fusion_lon": 0.0, "is_disabled": 0, "lat": 38.89223466666667, "bike_id": "c98174e3ca85cbb69df2f792ccb8abcb", "name": "c98174e3ca85cbb69df2f792ccb8abcb", "is_reserved": 0, "fusion_lat": 0.0}, {"type": "electric_scooter", "rental_uris": {"ios": "https://dc.lft.to/lastmile_qr_scan", "android": "https://dc.lft.to/lastmile_qr_scan"}, "lon": -77.04143066666667, "fusion_lon": 0.0, "is_disabled": 0, "lat": 38.89352016666667, "bike_id": "b9e9087555badfbd9bea394c0283a083", "name": "b9e9087555badfbd9bea394c0283a083", "is_reserved": 0, "fusion_lat": 0.0}, {"type": "electric_scooter", "rental_uris": {"ios": "https://dc.lft.to/lastmile_qr_scan", "android": "https://dc.lft.to/lastmile_qr_scan"}, "lon": -76.9970825, "fusion_lon": 0.0, "is_disabled": 0, "lat": 38.84436733333333, "bike_id": "9fbaa29790814b7fa0491c2da4c104bb", "name": "9fbaa29790814b7fa0491c2da4c104bb", "is_reserved": 0, "fusion_lat": 0.0}, {"type": "electric_scooter", "rental_uris": {"ios": "https://dc.lft.to/lastmile_qr_scan", "android": "https://dc.lft.to/lastmile_qr_scan"}, "lon": -76.990585, "fusion_lon": 0.0, "is_disabled": 0, "lat": 38.871747, "bike_id": "3614db0e36b620747b2e5741f6abf8c3", "name": "3614db0e36b620747b2e5741f6abf8c3", "is_reserved": 0, "fusion_lat": 0.0}, {"type": "electric_scooter", "rental_uris": {"ios": "https://dc.lft.to/lastmile_qr_scan", "android": "https://dc.lft.to/lastmile_qr_scan"}, "lon": -76.931738, "fusion_lon": 0.0, "is_disabled": 0, "lat": 38.89885833333334, "bike_id": "48d0a0958d94f7ae1c8866e72296a935", "name": "48d0a0958d94f7ae1c8866e72296a935", "is_reserved": 0, "fusion_lat": 0.0}, {"type": "electric_scooter", "rental_uris": {"ios": "https://dc.lft.to/lastmile_qr_scan", "android": "https://dc.lft.to/lastmile_qr_scan"}, "lon": -76.98546283333333, "fusion_lon": 0.0, "is_disabled": 0, "lat": 38.866770333333335, "bike_id": "d5d0b3faef8d3e88e8d3cbd6433a3a25", "name": "d5d0b3faef8d3e88e8d3cbd6433a3a25", "is_reserved": 0, "fusion_lat": 0.0}, {"type": "electric_scooter", "rental_uris": {"ios": "https://dc.lft.to/lastmile_qr_scan", "android": "https://dc.lft.to/lastmile_qr_scan"}, "lon": -77.02174316666667, "fusion_lon": 0.0, "is_disabled": 0, "lat": 38.89727933333333, "bike_id": "65d5377de62928ce85a3cec1d387f703", "name": "65d5377de62928ce85a3cec1d387f703", "is_reserved": 0, "fusion_lat": 0.0}, {"type": "electric_scooter", "rental_uris": {"ios": "https://dc.lft.to/lastmile_qr_scan", "android": "https://dc.lft.to/lastmile_qr_scan"}, "lon": -77.05005283333334, "fusion_lon": 0.0, "is_disabled": 0, "lat": 38.89230466666667, "bike_id": "c6714466596fe379d0015cd7cc63fda2", "name": "c6714466596fe379d0015cd7cc63fda2", "is_reserved": 0, "fusion_lat": 0.0}, {"type": "electric_bike", "rental_uris": {"ios": "https://dc.lft.to/lastmile_qr_scan", "android": "https://dc.lft.to/lastmile_qr_scan"}, "lon": -77.0066175, "fusion_lon": 0.0, "is_disabled": 0, "lat": 38.90835166666667, "bike_id": "07599ec365f3e34f97a7e4a17df51fb4", "name": "07599ec365f3e34f97a7e4a17df51fb4", "is_reserved": 0, "fusion_lat": 0.0}, {"type": "electric_bike", "rental_uris": {"ios": "https://dc.lft.to/lastmile_qr_scan", "android": "https://dc.lft.to/lastmile_qr_scan"}, "lon": -76.9978075, "fusion_lon": 0.0, "is_disabled": 0, "lat": 38.86213383333333, "bike_id": "511dcecfdc399abb6e538ca1cf579abc", "name": "511dcecfdc399abb6e538ca1cf579abc", "is_reserved": 0, "fusion_lat": 0.0}, {"type": "electric_scooter", "rental_uris": {"ios": "https://dc.lft.to/lastmile_qr_scan", "android": "https://dc.lft.to/lastmile_qr_scan"}, "lon": -76.9987485, "fusion_lon": 0.0, "is_disabled": 0, "lat": 38.90756, "bike_id": "b0748a46baa0e6dc84b913a7a0d8d832", "name": "b0748a46baa0e6dc84b913a7a0d8d832", "is_reserved": 0, "fusion_lat": 0.0}, {"type": "electric_scooter", "rental_uris": {"ios": "https://dc.lft.to/lastmile_qr_scan", "android": "https://dc.lft.to/lastmile_qr_scan"}, "lon": -77.02878816666667, "fusion_lon": 0.0, "is_disabled": 0, "lat": 38.928204666666666, "bike_id": "80b6824c61f584acbc21efcfad91d514", "name": "80b6824c61f584acbc21efcfad91d514", "is_reserved": 0, "fusion_lat": 0.0}, {"type": "electric_scooter", "rental_uris": {"ios": "https://dc.lft.to/lastmile_qr_scan", "android": "https://dc.lft.to/lastmile_qr_scan"}, "lon": -77.03102166666666, "fusion_lon": 0.0, "is_disabled": 0, "lat": 38.928554, "bike_id": "137201125694ff1747b67a62b88a4be2", "name": "137201125694ff1747b67a62b88a4be2", "is_reserved": 0, "fusion_lat": 0.0}, {"type": "electric_scooter", "rental_uris": {"ios": "https://dc.lft.to/lastmile_qr_scan", "android": "https://dc.lft.to/lastmile_qr_scan"}, "lon": -77.00079733333334, "fusion_lon": 0.0, "is_disabled": 0, "lat": 38.9075435, "bike_id": "d9086f0d973419a75ce4cb31f2be0d93", "name": "d9086f0d973419a75ce4cb31f2be0d93", "is_reserved": 0, "fusion_lat": 0.0}, {"type": "electric_scooter", "rental_uris": {"ios": "https://dc.lft.to/lastmile_qr_scan", "android": "https://dc.lft.to/lastmile_qr_scan"}, "lon": -77.0271615, "fusion_lon": 0.0, "is_disabled": 0, "lat": 38.917096666666666, "bike_id": "d319cc8427bd16ae308e6a5c27a1807b", "name": "d319cc8427bd16ae308e6a5c27a1807b", "is_reserved": 0, "fusion_lat": 0.0}, {"type": "electric_scooter", "rental_uris": {"ios": "https://dc.lft.to/lastmile_qr_scan", "android": "https://dc.lft.to/lastmile_qr_scan"}, "lon": -77.05934733333333, "fusion_lon": 0.0, "is_disabled": 0, "lat": 38.9430965, "bike_id": "cfdaca965b8e63df15fa68f02f7be8d2", "name": "cfdaca965b8e63df15fa68f02f7be8d2", "is_reserved": 0, "fusion_lat": 0.0}, {"type": "electric_scooter", "rental_uris": {"ios": "https://dc.lft.to/lastmile_qr_scan", "android": "https://dc.lft.to/lastmile_qr_scan"}, "lon": -77.03593783333334, "fusion_lon": 0.0, "is_disabled": 0, "lat": 38.91882483333333, "bike_id": "d667bdd3859ee7778f7db2c638369d40", "name": "d667bdd3859ee7778f7db2c638369d40", "is_reserved": 0, "fusion_lat": 0.0}, {"type": "electric_scooter", "rental_uris": {"ios": "https://dc.lft.to/lastmile_qr_scan", "android": "https://dc.lft.to/lastmile_qr_scan"}, "lon": -77.04069116666666, "fusion_lon": 0.0, "is_disabled": 0, "lat": 38.9127495, "bike_id": "b541074e9588047d81c3f15973589b71", "name": "b541074e9588047d81c3f15973589b71", "is_reserved": 0, "fusion_lat": 0.0}, {"type": "electric_scooter", "rental_uris": {"ios": "https://dc.lft.to/lastmile_qr_scan", "android": "https://dc.lft.to/lastmile_qr_scan"}, "lon": -77.0271335, "fusion_lon": 0.0, "is_disabled": 0, "lat": 38.900748, "bike_id": "b5005ae4ebc76c191fa1e5c2b65129f8", "name": "b5005ae4ebc76c191fa1e5c2b65129f8", "is_reserved": 0, "fusion_lat": 0.0}, {"type": "electric_scooter", "rental_uris": {"ios": "https://dc.lft.to/lastmile_qr_scan", "android": "https://dc.lft.to/lastmile_qr_scan"}, "lon": -77.0114815, "fusion_lon": 0.0, "is_disabled": 0, "lat": 38.906495, "bike_id": "bd9dd56045e80a501ab8f9b3e1f63709", "name": "bd9dd56045e80a501ab8f9b3e1f63709", "is_reserved": 0, "fusion_lat": 0.0}, {"type": "electric_scooter", "rental_uris": {"ios": "https://dc.lft.to/lastmile_qr_scan", "android": "https://dc.lft.to/lastmile_qr_scan"}, "lon": -76.98960716666667, "fusion_lon": 0.0, "is_disabled": 0, "lat": 38.909438, "bike_id": "fd058080700bde4e3092b93fbe324323", "name": "fd058080700bde4e3092b93fbe324323", "is_reserved": 0, "fusion_lat": 0.0}, {"type": "electric_scooter", "rental_uris": {"ios": "https://dc.lft.to/lastmile_qr_scan", "android": "https://dc.lft.to/lastmile_qr_scan"}, "lon": -76.9376035, "fusion_lon": 0.0, "is_disabled": 0, "lat": 38.8904515, "bike_id": "baaf41f8905b821c3b99e4cb07bc6160", "name": "baaf41f8905b821c3b99e4cb07bc6160", "is_reserved": 0, "fusion_lat": 0.0}, {"type": "electric_scooter", "rental_uris": {"ios": "https://dc.lft.to/lastmile_qr_scan", "android": "https://dc.lft.to/lastmile_qr_scan"}, "lon": -77.03453433333334, "fusion_lon": 0.0, "is_disabled": 0, "lat": 38.907348666666664, "bike_id": "e81219621c0f966a2d51e86d2a7ac8d6", "name": "e81219621c0f966a2d51e86d2a7ac8d6", "is_reserved": 0, "fusion_lat": 0.0}, {"type": "electric_scooter", "rental_uris": {"ios": "https://dc.lft.to/lastmile_qr_scan", "android": "https://dc.lft.to/lastmile_qr_scan"}, "lon": -77.01109416666667, "fusion_lon": 0.0, "is_disabled": 0, "lat": 38.903545, "bike_id": "7247c313aa88516e20f9dbe543ad20bc", "name": "7247c313aa88516e20f9dbe543ad20bc", "is_reserved": 0, "fusion_lat": 0.0}, {"type": "electric_scooter", "rental_uris": {"ios": "https://dc.lft.to/lastmile_qr_scan", "android": "https://dc.lft.to/lastmile_qr_scan"}, "lon": -77.02562833333333, "fusion_lon": 0.0, "is_disabled": 0, "lat": 38.92380266666667, "bike_id": "5d3d10f3cef72dc532533aef3efc3233", "name": "5d3d10f3cef72dc532533aef3efc3233", "is_reserved": 0, "fusion_lat": 0.0}, {"type": "electric_scooter", "rental_uris": {"ios": "https://dc.lft.to/lastmile_qr_scan", "android": "https://dc.lft.to/lastmile_qr_scan"}, "lon": -76.98361416666667, "fusion_lon": 0.0, "is_disabled": 0, "lat": 38.88745333333333, "bike_id": "85138881e981542e04550a062a04bab8", "name": "85138881e981542e04550a062a04bab8", "is_reserved": 0, "fusion_lat": 0.0}, {"type": "electric_bike", "rental_uris": {"ios": "https://dc.lft.to/lastmile_qr_scan", "android": "https://dc.lft.to/lastmile_qr_scan"}, "lon": -76.975893, "fusion_lon": 0.0, "is_disabled": 0, "lat": 38.8402715, "bike_id": "68260b68ac7205f7f1ebdc2290bc675b", "name": "68260b68ac7205f7f1ebdc2290bc675b", "is_reserved": 0, "fusion_lat": 0.0}, {"type": "electric_scooter", "rental_uris": {"ios": "https://dc.lft.to/lastmile_qr_scan", "android": "https://dc.lft.to/lastmile_qr_scan"}, "lon": -77.05800283333333, "fusion_lon": 0.0, "is_disabled": 0, "lat": 38.90277433333333, "bike_id": "90a52c4737b8bd6f096142a4ba0d8372", "name": "90a52c4737b8bd6f096142a4ba0d8372", "is_reserved": 0, "fusion_lat": 0.0}, {"type": "electric_scooter", "rental_uris": {"ios": "https://dc.lft.to/lastmile_qr_scan", "android": "https://dc.lft.to/lastmile_qr_scan"}, "lon": -77.040313, "fusion_lon": 0.0, "is_disabled": 0, "lat": 38.9244305, "bike_id": "049b6f10438c9518a500c3c1e241d746", "name": "049b6f10438c9518a500c3c1e241d746", "is_reserved": 0, "fusion_lat": 0.0}, {"type": "electric_scooter", "rental_uris": {"ios": "https://dc.lft.to/lastmile_qr_scan", "android": "https://dc.lft.to/lastmile_qr_scan"}, "lon": -76.98715766666666, "fusion_lon": 0.0, "is_disabled": 0, "lat": 38.86699616666667, "bike_id": "609bd202daca79cdf55266b78257a183", "name": "609bd202daca79cdf55266b78257a183", "is_reserved": 0, "fusion_lat": 0.0}, {"type": "electric_scooter", "rental_uris": {"ios": "https://dc.lft.to/lastmile_qr_scan", "android": "https://dc.lft.to/lastmile_qr_scan"}, "lon": -77.032502, "fusion_lon": 0.0, "is_disabled": 0, "lat": 38.904661833333336, "bike_id": "eb76489e7771f6553579f9cc6bd5539f", "name": "eb76489e7771f6553579f9cc6bd5539f", "is_reserved": 0, "fusion_lat": 0.0}, {"type": "electric_bike", "rental_uris": {"ios": "https://dc.lft.to/lastmile_qr_scan", "android": "https://dc.lft.to/lastmile_qr_scan"}, "lon": -76.995648, "fusion_lon": 0.0, "is_disabled": 0, "lat": 38.884742, "bike_id": "bfde2c902d904ad9dc9d160bab57ab64", "name": "bfde2c902d904ad9dc9d160bab57ab64", "is_reserved": 0, "fusion_lat": 0.0}, {"type": "electric_scooter", "rental_uris": {"ios": "https://dc.lft.to/lastmile_qr_scan", "android": "https://dc.lft.to/lastmile_qr_scan"}, "lon": -77.0730105, "fusion_lon": 0.0, "is_disabled": 0, "lat": 38.935281833333335, "bike_id": "3f5448bce5c88cf592dd841c6a7a810d", "name": "3f5448bce5c88cf592dd841c6a7a810d", "is_reserved": 0, "fusion_lat": 0.0}, {"type": "electric_scooter", "rental_uris": {"ios": "https://dc.lft.to/lastmile_qr_scan", "android": "https://dc.lft.to/lastmile_qr_scan"}, "lon": -77.00341116666667, "fusion_lon": 0.0, "is_disabled": 0, "lat": 38.88745083333333, "bike_id": "efe95940e8fb9e50d0b03183df348381", "name": "efe95940e8fb9e50d0b03183df348381", "is_reserved": 0, "fusion_lat": 0.0}, {"type": "electric_scooter", "rental_uris": {"ios": "https://dc.lft.to/lastmile_qr_scan", "android": "https://dc.lft.to/lastmile_qr_scan"}, "lon": -77.036596, "fusion_lon": 0.0, "is_disabled": 0, "lat": 38.917238833333336, "bike_id": "21d9daf6898394c918edc564b4e1f18f", "name": "21d9daf6898394c918edc564b4e1f18f", "is_reserved": 0, "fusion_lat": 0.0}, {"type": "electric_scooter", "rental_uris": {"ios": "https://dc.lft.to/lastmile_qr_scan", "android": "https://dc.lft.to/lastmile_qr_scan"}, "lon": -77.040581, "fusion_lon": 0.0, "is_disabled": 0, "lat": 38.8989335, "bike_id": "e094dcac2ded92fe74f7a331ae12af2d", "name": "e094dcac2ded92fe74f7a331ae12af2d", "is_reserved": 0, "fusion_lat": 0.0}, {"type": "electric_scooter", "rental_uris": {"ios": "https://dc.lft.to/lastmile_qr_scan", "android": "https://dc.lft.to/lastmile_qr_scan"}, "lon": -77.0393475, "fusion_lon": 0.0, "is_disabled": 0, "lat": 38.91560666666667, "bike_id": "bc7c3df857c83216b7f597878c0c7d94", "name": "bc7c3df857c83216b7f597878c0c7d94", "is_reserved": 0, "fusion_lat": 0.0}, {"type": "electric_scooter", "rental_uris": {"ios": "https://dc.lft.to/lastmile_qr_scan", "android": "https://dc.lft.to/lastmile_qr_scan"}, "lon": -77.0364595, "fusion_lon": 0.0, "is_disabled": 0, "lat": 38.902831666666664, "bike_id": "2414678f223d8f93f43a7e02c391508d", "name": "2414678f223d8f93f43a7e02c391508d", "is_reserved": 0, "fusion_lat": 0.0}, {"type": "electric_scooter", "rental_uris": {"ios": "https://dc.lft.to/lastmile_qr_scan", "android": "https://dc.lft.to/lastmile_qr_scan"}, "lon": -77.0732945, "fusion_lon": 0.0, "is_disabled": 0, "lat": 38.92487783333333, "bike_id": "2c9d0fe8502946f696e241ae952b0e12", "name": "2c9d0fe8502946f696e241ae952b0e12", "is_reserved": 0, "fusion_lat": 0.0}, {"type": "electric_scooter", "rental_uris": {"ios": "https://dc.lft.to/lastmile_qr_scan", "android": "https://dc.lft.to/lastmile_qr_scan"}, "lon": -77.02796833333333, "fusion_lon": 0.0, "is_disabled": 0, "lat": 38.9170825, "bike_id": "2017573d9421dfd5f9672baf5d5baccf", "name": "2017573d9421dfd5f9672baf5d5baccf", "is_reserved": 0, "fusion_lat": 0.0}, {"type": "electric_scooter", "rental_uris": {"ios": "https://dc.lft.to/lastmile_qr_scan", "android": "https://dc.lft.to/lastmile_qr_scan"}, "lon": -77.031842, "fusion_lon": 0.0, "is_disabled": 0, "lat": 38.913338333333336, "bike_id": "4ec79c9f2de746302f529d7e73d7ec0a", "name": "4ec79c9f2de746302f529d7e73d7ec0a", "is_reserved": 0, "fusion_lat": 0.0}, {"type": "electric_scooter", "rental_uris": {"ios": "https://dc.lft.to/lastmile_qr_scan", "android": "https://dc.lft.to/lastmile_qr_scan"}, "lon": -77.02721983333333, "fusion_lon": 0.0, "is_disabled": 0, "lat": 38.95184833333333, "bike_id": "1285dfed57ce016f798a06e322270ea8", "name": "1285dfed57ce016f798a06e322270ea8", "is_reserved": 0, "fusion_lat": 0.0}, {"type": "electric_bike", "rental_uris": {"ios": "https://dc.lft.to/lastmile_qr_scan", "android": "https://dc.lft.to/lastmile_qr_scan"}, "lon": -77.05009633333333, "fusion_lon": 0.0, "is_disabled": 0, "lat": 39.03859716666667, "bike_id": "2e5a19730c88d64d55fd9f4f656c57f1", "name": "2e5a19730c88d64d55fd9f4f656c57f1", "is_reserved": 0, "fusion_lat": 0.0}, {"type": "electric_scooter", "rental_uris": {"ios": "https://dc.lft.to/lastmile_qr_scan", "android": "https://dc.lft.to/lastmile_qr_scan"}, "lon": -77.02595866666667, "fusion_lon": 0.0, "is_disabled": 0, "lat": 38.942052833333335, "bike_id": "894dd9d97ac32a6b538e381552206aed", "name": "894dd9d97ac32a6b538e381552206aed", "is_reserved": 0, "fusion_lat": 0.0}, {"type": "electric_bike", "rental_uris": {"ios": "https://dc.lft.to/lastmile_qr_scan", "android": "https://dc.lft.to/lastmile_qr_scan"}, "lon": -77.08809033333333, "fusion_lon": 0.0, "is_disabled": 0, "lat": 38.86240633333333, "bike_id": "3da2d5a026d682a1c024795bf3680106", "name": "3da2d5a026d682a1c024795bf3680106", "is_reserved": 0, "fusion_lat": 0.0}, {"type": "electric_scooter", "rental_uris": {"ios": "https://dc.lft.to/lastmile_qr_scan", "android": "https://dc.lft.to/lastmile_qr_scan"}, "lon": -77.01373816666667, "fusion_lon": 0.0, "is_disabled": 0, "lat": 38.8922455, "bike_id": "ce329a02bf229b29eeeb5970b025251a", "name": "ce329a02bf229b29eeeb5970b025251a", "is_reserved": 0, "fusion_lat": 0.0}, {"type": "electric_scooter", "rental_uris": {"ios": "https://dc.lft.to/lastmile_qr_scan", "android": "https://dc.lft.to/lastmile_qr_scan"}, "lon": -76.99408833333334, "fusion_lon": 0.0, "is_disabled": 0, "lat": 38.8779705, "bike_id": "558c834321d1d373eb5ab589edc1e46f", "name": "558c834321d1d373eb5ab589edc1e46f", "is_reserved": 0, "fusion_lat": 0.0}, {"type": "electric_scooter", "rental_uris": {"ios": "https://dc.lft.to/lastmile_qr_scan", "android": "https://dc.lft.to/lastmile_qr_scan"}, "lon": -77.03590166666666, "fusion_lon": 0.0, "is_disabled": 0, "lat": 38.933039666666666, "bike_id": "64b7085577451929bffa39f477b102f2", "name": "64b7085577451929bffa39f477b102f2", "is_reserved": 0, "fusion_lat": 0.0}, {"type": "electric_bike", "rental_uris": {"ios": "https://dc.lft.to/lastmile_qr_scan", "android": "https://dc.lft.to/lastmile_qr_scan"}, "lon": -76.9879775, "fusion_lon": 0.0, "is_disabled": 0, "lat": 38.92218833333333, "bike_id": "3adf0e11b43f67f0821fdd1c01ef4d2c", "name": "3adf0e11b43f67f0821fdd1c01ef4d2c", "is_reserved": 0, "fusion_lat": 0.0}, {"type": "electric_scooter", "rental_uris": {"ios": "https://dc.lft.to/lastmile_qr_scan", "android": "https://dc.lft.to/lastmile_qr_scan"}, "lon": -77.01844966666667, "fusion_lon": 0.0, "is_disabled": 0, "lat": 38.9081925, "bike_id": "178bb64d472b05ab734db48c10a1680d", "name": "178bb64d472b05ab734db48c10a1680d", "is_reserved": 0, "fusion_lat": 0.0}, {"type": "electric_scooter", "rental_uris": {"ios": "https://dc.lft.to/lastmile_qr_scan", "android": "https://dc.lft.to/lastmile_qr_scan"}, "lon": -77.03141583333333, "fusion_lon": 0.0, "is_disabled": 0, "lat": 38.915774, "bike_id": "37bd618a0632ba44d6ec8152e4ccc8c6", "name": "37bd618a0632ba44d6ec8152e4ccc8c6", "is_reserved": 0, "fusion_lat": 0.0}, {"type": "electric_scooter", "rental_uris": {"ios": "https://dc.lft.to/lastmile_qr_scan", "android": "https://dc.lft.to/lastmile_qr_scan"}, "lon": -77.029796, "fusion_lon": 0.0, "is_disabled": 0, "lat": 38.9168685, "bike_id": "a08b6d64c3ade930e4df33bb5e7857a1", "name": "a08b6d64c3ade930e4df33bb5e7857a1", "is_reserved": 0, "fusion_lat": 0.0}, {"type": "electric_scooter", "rental_uris": {"ios": "https://dc.lft.to/lastmile_qr_scan", "android": "https://dc.lft.to/lastmile_qr_scan"}, "lon": -77.02281216666667, "fusion_lon": 0.0, "is_disabled": 0, "lat": 38.87844666666667, "bike_id": "66ae97f5fb924c3be57e3691fe37b580", "name": "66ae97f5fb924c3be57e3691fe37b580", "is_reserved": 0, "fusion_lat": 0.0}, {"type": "electric_scooter", "rental_uris": {"ios": "https://dc.lft.to/lastmile_qr_scan", "android": "https://dc.lft.to/lastmile_qr_scan"}, "lon": -77.02450216666666, "fusion_lon": 0.0, "is_disabled": 0, "lat": 38.938774, "bike_id": "dff4793df84f147bd119241597a23e8d", "name": "dff4793df84f147bd119241597a23e8d", "is_reserved": 0, "fusion_lat": 0.0}, {"type": "electric_scooter", "rental_uris": {"ios": "https://dc.lft.to/lastmile_qr_scan", "android": "https://dc.lft.to/lastmile_qr_scan"}, "lon": -77.02974383333333, "fusion_lon": 0.0, "is_disabled": 0, "lat": 38.924636, "bike_id": "d863945ed195f2d27d40396a520e4f19", "name": "d863945ed195f2d27d40396a520e4f19", "is_reserved": 0, "fusion_lat": 0.0}, {"type": "electric_scooter", "rental_uris": {"ios": "https://dc.lft.to/lastmile_qr_scan", "android": "https://dc.lft.to/lastmile_qr_scan"}, "lon": -77.03257433333333, "fusion_lon": 0.0, "is_disabled": 0, "lat": 38.919389333333335, "bike_id": "55a6273b4b58c1e3f2128040a1e886ff", "name": "55a6273b4b58c1e3f2128040a1e886ff", "is_reserved": 0, "fusion_lat": 0.0}, {"type": "electric_scooter", "rental_uris": {"ios": "https://dc.lft.to/lastmile_qr_scan", "android": "https://dc.lft.to/lastmile_qr_scan"}, "lon": -77.03216783333333, "fusion_lon": 0.0, "is_disabled": 0, "lat": 38.909757, "bike_id": "60251d5d9bd1844496bed33926f727c3", "name": "60251d5d9bd1844496bed33926f727c3", "is_reserved": 0, "fusion_lat": 0.0}, {"type": "electric_scooter", "rental_uris": {"ios": "https://dc.lft.to/lastmile_qr_scan", "android": "https://dc.lft.to/lastmile_qr_scan"}, "lon": -77.03208233333334, "fusion_lon": 0.0, "is_disabled": 0, "lat": 38.91711316666667, "bike_id": "c5cb480db490daa654849542f2839045", "name": "c5cb480db490daa654849542f2839045", "is_reserved": 0, "fusion_lat": 0.0}, {"type": "electric_scooter", "rental_uris": {"ios": "https://dc.lft.to/lastmile_qr_scan", "android": "https://dc.lft.to/lastmile_qr_scan"}, "lon": -77.021802, "fusion_lon": 0.0, "is_disabled": 0, "lat": 38.893007, "bike_id": "1e0377fa0d3562ba6fca2e3f625e84b8", "name": "1e0377fa0d3562ba6fca2e3f625e84b8", "is_reserved": 0, "fusion_lat": 0.0}, {"type": "electric_bike", "rental_uris": {"ios": "https://dc.lft.to/lastmile_qr_scan", "android": "https://dc.lft.to/lastmile_qr_scan"}, "lon": -77.07896783333334, "fusion_lon": 0.0, "is_disabled": 0, "lat": 38.83939516666667, "bike_id": "bf5a8caea94efeb04e7a722f97e58354", "name": "bf5a8caea94efeb04e7a722f97e58354", "is_reserved": 0, "fusion_lat": 0.0}, {"type": "electric_scooter", "rental_uris": {"ios": "https://dc.lft.to/lastmile_qr_scan", "android": "https://dc.lft.to/lastmile_qr_scan"}, "lon": -77.02497, "fusion_lon": 0.0, "is_disabled": 0, "lat": 38.919711, "bike_id": "f9505a10ca8618dd6a09779648657427", "name": "f9505a10ca8618dd6a09779648657427", "is_reserved": 0, "fusion_lat": 0.0}, {"type": "electric_scooter", "rental_uris": {"ios": "https://dc.lft.to/lastmile_qr_scan", "android": "https://dc.lft.to/lastmile_qr_scan"}, "lon": -76.97811, "fusion_lon": 0.0, "is_disabled": 0, "lat": 38.89450516666667, "bike_id": "a8467317346796c9921df112dfe2cb83", "name": "a8467317346796c9921df112dfe2cb83", "is_reserved": 0, "fusion_lat": 0.0}, {"type": "electric_bike", "rental_uris": {"ios": "https://dc.lft.to/lastmile_qr_scan", "android": "https://dc.lft.to/lastmile_qr_scan"}, "lon": -76.982038, "fusion_lon": 0.0, "is_disabled": 0, "lat": 38.985051, "bike_id": "5965eb6b642916229415dc89490db2c5", "name": "5965eb6b642916229415dc89490db2c5", "is_reserved": 0, "fusion_lat": 0.0}, {"type": "electric_bike", "rental_uris": {"ios": "https://dc.lft.to/lastmile_qr_scan", "android": "https://dc.lft.to/lastmile_qr_scan"}, "lon": -77.0685925, "fusion_lon": 0.0, "is_disabled": 0, "lat": 38.8057765, "bike_id": "c80a417b3ff06d91c39cb1ee587b4015", "name": "c80a417b3ff06d91c39cb1ee587b4015", "is_reserved": 0, "fusion_lat": 0.0}, {"type": "electric_scooter", "rental_uris": {"ios": "https://dc.lft.to/lastmile_qr_scan", "android": "https://dc.lft.to/lastmile_qr_scan"}, "lon": -77.02741183333333, "fusion_lon": 0.0, "is_disabled": 0, "lat": 38.927937666666665, "bike_id": "2cf395947229f14f3cd0fdfe835af27d", "name": "2cf395947229f14f3cd0fdfe835af27d", "is_reserved": 0, "fusion_lat": 0.0}, {"type": "electric_scooter", "rental_uris": {"ios": "https://dc.lft.to/lastmile_qr_scan", "android": "https://dc.lft.to/lastmile_qr_scan"}, "lon": -77.021064, "fusion_lon": 0.0, "is_disabled": 0, "lat": 38.945781833333335, "bike_id": "eb21af4189e9c43944de324b54f9fc16", "name": "eb21af4189e9c43944de324b54f9fc16", "is_reserved": 0, "fusion_lat": 0.0}, {"type": "electric_scooter", "rental_uris": {"ios": "https://dc.lft.to/lastmile_qr_scan", "android": "https://dc.lft.to/lastmile_qr_scan"}, "lon": -77.02295983333333, "fusion_lon": 0.0, "is_disabled": 0, "lat": 38.91666283333333, "bike_id": "b317396a9b03ae7d099161d81ca4d74d", "name": "b317396a9b03ae7d099161d81ca4d74d", "is_reserved": 0, "fusion_lat": 0.0}, {"type": "electric_bike", "rental_uris": {"ios": "https://dc.lft.to/lastmile_qr_scan", "android": "https://dc.lft.to/lastmile_qr_scan"}, "lon": -77.01036216666667, "fusion_lon": 0.0, "is_disabled": 0, "lat": 38.958798, "bike_id": "ed2d0aa47beddb9c86e050c5cac1c8fb", "name": "ed2d0aa47beddb9c86e050c5cac1c8fb", "is_reserved": 0, "fusion_lat": 0.0}, {"type": "electric_scooter", "rental_uris": {"ios": "https://dc.lft.to/lastmile_qr_scan", "android": "https://dc.lft.to/lastmile_qr_scan"}, "lon": -77.03123366666667, "fusion_lon": 0.0, "is_disabled": 0, "lat": 38.95933183333333, "bike_id": "b496a1258a774b482a6e3e5d05ffc247", "name": "b496a1258a774b482a6e3e5d05ffc247", "is_reserved": 0, "fusion_lat": 0.0}, {"type": "electric_bike", "rental_uris": {"ios": "https://dc.lft.to/lastmile_qr_scan", "android": "https://dc.lft.to/lastmile_qr_scan"}, "lon": -77.0177985, "fusion_lon": 0.0, "is_disabled": 0, "lat": 38.9827005, "bike_id": "4815fd494650aa8c2f2a6175f26683ad", "name": "4815fd494650aa8c2f2a6175f26683ad", "is_reserved": 0, "fusion_lat": 0.0}, {"type": "electric_scooter", "rental_uris": {"ios": "https://dc.lft.to/lastmile_qr_scan", "android": "https://dc.lft.to/lastmile_qr_scan"}, "lon": -77.05002733333333, "fusion_lon": 0.0, "is_disabled": 0, "lat": 38.8923175, "bike_id": "c1fdda86824932fa3afd41b85a07b3bb", "name": "c1fdda86824932fa3afd41b85a07b3bb", "is_reserved": 0, "fusion_lat": 0.0}, {"type": "electric_scooter", "rental_uris": {"ios": "https://dc.lft.to/lastmile_qr_scan", "android": "https://dc.lft.to/lastmile_qr_scan"}, "lon": -77.036945, "fusion_lon": 0.0, "is_disabled": 0, "lat": 38.928360166666664, "bike_id": "af19ca1284a7b9c3334a53ae9b37f958", "name": "af19ca1284a7b9c3334a53ae9b37f958", "is_reserved": 0, "fusion_lat": 0.0}, {"type": "electric_scooter", "rental_uris": {"ios": "https://dc.lft.to/lastmile_qr_scan", "android": "https://dc.lft.to/lastmile_qr_scan"}, "lon": -77.05026333333333, "fusion_lon": 0.0, "is_disabled": 0, "lat": 38.923670333333334, "bike_id": "638daa8b506f2c0ad866421d9d24e84b", "name": "638daa8b506f2c0ad866421d9d24e84b", "is_reserved": 0, "fusion_lat": 0.0}, {"type": "electric_scooter", "rental_uris": {"ios": "https://dc.lft.to/lastmile_qr_scan", "android": "https://dc.lft.to/lastmile_qr_scan"}, "lon": -77.02536583333334, "fusion_lon": 0.0, "is_disabled": 0, "lat": 38.9237105, "bike_id": "cfcada23107f3dae0d0d7d6b21d9fdb4", "name": "cfcada23107f3dae0d0d7d6b21d9fdb4", "is_reserved": 0, "fusion_lat": 0.0}, {"type": "electric_scooter", "rental_uris": {"ios": "https://dc.lft.to/lastmile_qr_scan", "android": "https://dc.lft.to/lastmile_qr_scan"}, "lon": -77.02334583333334, "fusion_lon": 0.0, "is_disabled": 0, "lat": 38.92302016666667, "bike_id": "94f20bc9d7a6138012374f8be4e199a7", "name": "94f20bc9d7a6138012374f8be4e199a7", "is_reserved": 0, "fusion_lat": 0.0}, {"type": "electric_scooter", "rental_uris": {"ios": "https://dc.lft.to/lastmile_qr_scan", "android": "https://dc.lft.to/lastmile_qr_scan"}, "lon": -77.021944, "fusion_lon": 0.0, "is_disabled": 0, "lat": 38.93294266666667, "bike_id": "2619bd1402832b0942f259ba02e47239", "name": "2619bd1402832b0942f259ba02e47239", "is_reserved": 0, "fusion_lat": 0.0}, {"type": "electric_scooter", "rental_uris": {"ios": "https://dc.lft.to/lastmile_qr_scan", "android": "https://dc.lft.to/lastmile_qr_scan"}, "lon": -77.0375805, "fusion_lon": 0.0, "is_disabled": 0, "lat": 38.911189666666665, "bike_id": "69e952961fe2003ee370db5d4bdb7e74", "name": "69e952961fe2003ee370db5d4bdb7e74", "is_reserved": 0, "fusion_lat": 0.0}, {"type": "electric_scooter", "rental_uris": {"ios": "https://dc.lft.to/lastmile_qr_scan", "android": "https://dc.lft.to/lastmile_qr_scan"}, "lon": -77.03765966666667, "fusion_lon": 0.0, "is_disabled": 0, "lat": 38.9168435, "bike_id": "21e3b17597edcf96ff0365812146d7ef", "name": "21e3b17597edcf96ff0365812146d7ef", "is_reserved": 0, "fusion_lat": 0.0}, {"type": "electric_scooter", "rental_uris": {"ios": "https://dc.lft.to/lastmile_qr_scan", "android": "https://dc.lft.to/lastmile_qr_scan"}, "lon": -77.02173966666666, "fusion_lon": 0.0, "is_disabled": 0, "lat": 38.914816, "bike_id": "a928936c342d8ad2a132c21f31862ac4", "name": "a928936c342d8ad2a132c21f31862ac4", "is_reserved": 0, "fusion_lat": 0.0}, {"type": "electric_scooter", "rental_uris": {"ios": "https://dc.lft.to/lastmile_qr_scan", "android": "https://dc.lft.to/lastmile_qr_scan"}, "lon": -76.9898935, "fusion_lon": 0.0, "is_disabled": 0, "lat": 38.86497833333333, "bike_id": "9e1dae2a3f0343fc4233873a46e7bcd3", "name": "9e1dae2a3f0343fc4233873a46e7bcd3", "is_reserved": 0, "fusion_lat": 0.0}, {"type": "electric_scooter", "rental_uris": {"ios": "https://dc.lft.to/lastmile_qr_scan", "android": "https://dc.lft.to/lastmile_qr_scan"}, "lon": -77.01364166666667, "fusion_lon": 0.0, "is_disabled": 0, "lat": 38.89233816666667, "bike_id": "0f30bc41b31842cdc2b5ce7201baebb4", "name": "0f30bc41b31842cdc2b5ce7201baebb4", "is_reserved": 0, "fusion_lat": 0.0}, {"type": "electric_scooter", "rental_uris": {"ios": "https://dc.lft.to/lastmile_qr_scan", "android": "https://dc.lft.to/lastmile_qr_scan"}, "lon": -77.01541116666667, "fusion_lon": 0.0, "is_disabled": 0, "lat": 38.891662, "bike_id": "070833bcf363663423d82027066d6cce", "name": "070833bcf363663423d82027066d6cce", "is_reserved": 0, "fusion_lat": 0.0}, {"type": "electric_scooter", "rental_uris": {"ios": "https://dc.lft.to/lastmile_qr_scan", "android": "https://dc.lft.to/lastmile_qr_scan"}, "lon": -77.02603816666667, "fusion_lon": 0.0, "is_disabled": 0, "lat": 38.91412783333333, "bike_id": "825888b74bcd2300fae20b5d409d444e", "name": "825888b74bcd2300fae20b5d409d444e", "is_reserved": 0, "fusion_lat": 0.0}, {"type": "electric_bike", "rental_uris": {"ios": "https://dc.lft.to/lastmile_qr_scan", "android": "https://dc.lft.to/lastmile_qr_scan"}, "lon": -77.0382, "fusion_lon": 0.0, "is_disabled": 0, "lat": 38.91406716666667, "bike_id": "a74e59b09956b6a2af7bfbfddf7eeb9a", "name": "a74e59b09956b6a2af7bfbfddf7eeb9a", "is_reserved": 0, "fusion_lat": 0.0}, {"type": "electric_scooter", "rental_uris": {"ios": "https://dc.lft.to/lastmile_qr_scan", "android": "https://dc.lft.to/lastmile_qr_scan"}, "lon": -77.02592616666666, "fusion_lon": 0.0, "is_disabled": 0, "lat": 38.9052715, "bike_id": "f585433c45c0fca409941df6ecff622a", "name": "f585433c45c0fca409941df6ecff622a", "is_reserved": 0, "fusion_lat": 0.0}, {"type": "electric_scooter", "rental_uris": {"ios": "https://dc.lft.to/lastmile_qr_scan", "android": "https://dc.lft.to/lastmile_qr_scan"}, "lon": -77.04029816666667, "fusion_lon": 0.0, "is_disabled": 0, "lat": 38.918059166666666, "bike_id": "dd030f75c5d73af627487f23078839f5", "name": "dd030f75c5d73af627487f23078839f5", "is_reserved": 0, "fusion_lat": 0.0}, {"type": "electric_scooter", "rental_uris": {"ios": "https://dc.lft.to/lastmile_qr_scan", "android": "https://dc.lft.to/lastmile_qr_scan"}, "lon": -77.01289133333333, "fusion_lon": 0.0, "is_disabled": 0, "lat": 38.8815835, "bike_id": "ab2a3470b85a2b2bd1d5950b1759616f", "name": "ab2a3470b85a2b2bd1d5950b1759616f", "is_reserved": 0, "fusion_lat": 0.0}, {"type": "electric_scooter", "rental_uris": {"ios": "https://dc.lft.to/lastmile_qr_scan", "android": "https://dc.lft.to/lastmile_qr_scan"}, "lon": -77.02683133333333, "fusion_lon": 0.0, "is_disabled": 0, "lat": 38.899375, "bike_id": "eb71200a0a8ff7dbc14ca928e13687c8", "name": "eb71200a0a8ff7dbc14ca928e13687c8", "is_reserved": 0, "fusion_lat": 0.0}, {"type": "electric_scooter", "rental_uris": {"ios": "https://dc.lft.to/lastmile_qr_scan", "android": "https://dc.lft.to/lastmile_qr_scan"}, "lon": -77.04365416666667, "fusion_lon": 0.0, "is_disabled": 0, "lat": 38.892211, "bike_id": "81bcf00dee7028900992b3419b315a6a", "name": "81bcf00dee7028900992b3419b315a6a", "is_reserved": 0, "fusion_lat": 0.0}, {"type": "electric_scooter", "rental_uris": {"ios": "https://dc.lft.to/lastmile_qr_scan", "android": "https://dc.lft.to/lastmile_qr_scan"}, "lon": -77.0269015, "fusion_lon": 0.0, "is_disabled": 0, "lat": 38.916943333333336, "bike_id": "6c0a2181f7a0685290d90065f4b1311b", "name": "6c0a2181f7a0685290d90065f4b1311b", "is_reserved": 0, "fusion_lat": 0.0}, {"type": "electric_scooter", "rental_uris": {"ios": "https://dc.lft.to/lastmile_qr_scan", "android": "https://dc.lft.to/lastmile_qr_scan"}, "lon": -77.02789783333333, "fusion_lon": 0.0, "is_disabled": 0, "lat": 38.96131033333333, "bike_id": "52ba01e8495befc5e8c913309d591f2f", "name": "52ba01e8495befc5e8c913309d591f2f", "is_reserved": 0, "fusion_lat": 0.0}, {"type": "electric_scooter", "rental_uris": {"ios": "https://dc.lft.to/lastmile_qr_scan", "android": "https://dc.lft.to/lastmile_qr_scan"}, "lon": -77.030772, "fusion_lon": 0.0, "is_disabled": 0, "lat": 38.91113433333334, "bike_id": "16483d4906bb381aa50eaf42c25add29", "name": "16483d4906bb381aa50eaf42c25add29", "is_reserved": 0, "fusion_lat": 0.0}, {"type": "electric_scooter", "rental_uris": {"ios": "https://dc.lft.to/lastmile_qr_scan", "android": "https://dc.lft.to/lastmile_qr_scan"}, "lon": -77.02329983333334, "fusion_lon": 0.0, "is_disabled": 0, "lat": 38.91787883333333, "bike_id": "956ebb0b12929e6c0ad2a33e2d97cfcc", "name": "956ebb0b12929e6c0ad2a33e2d97cfcc", "is_reserved": 0, "fusion_lat": 0.0}, {"type": "electric_scooter", "rental_uris": {"ios": "https://dc.lft.to/lastmile_qr_scan", "android": "https://dc.lft.to/lastmile_qr_scan"}, "lon": -77.04474, "fusion_lon": 0.0, "is_disabled": 0, "lat": 38.91533716666667, "bike_id": "ba508a99c69730fcc4d97c2d354be0dc", "name": "ba508a99c69730fcc4d97c2d354be0dc", "is_reserved": 0, "fusion_lat": 0.0}, {"type": "electric_scooter", "rental_uris": {"ios": "https://dc.lft.to/lastmile_qr_scan", "android": "https://dc.lft.to/lastmile_qr_scan"}, "lon": -77.0427225, "fusion_lon": 0.0, "is_disabled": 0, "lat": 38.907597333333335, "bike_id": "6fd0a4ffce4db65fdb4de330cb76263f", "name": "6fd0a4ffce4db65fdb4de330cb76263f", "is_reserved": 0, "fusion_lat": 0.0}, {"type": "electric_scooter", "rental_uris": {"ios": "https://dc.lft.to/lastmile_qr_scan", "android": "https://dc.lft.to/lastmile_qr_scan"}, "lon": -77.04009916666666, "fusion_lon": 0.0, "is_disabled": 0, "lat": 38.92206133333333, "bike_id": "e5265c05454976b8096f1bd20e800fb4", "name": "e5265c05454976b8096f1bd20e800fb4", "is_reserved": 0, "fusion_lat": 0.0}, {"type": "electric_bike", "rental_uris": {"ios": "https://dc.lft.to/lastmile_qr_scan", "android": "https://dc.lft.to/lastmile_qr_scan"}, "lon": -77.18741783333333, "fusion_lon": 0.0, "is_disabled": 0, "lat": 38.89355283333333, "bike_id": "139b60b95e717cb5616dbf6b4f855e50", "name": "139b60b95e717cb5616dbf6b4f855e50", "is_reserved": 0, "fusion_lat": 0.0}, {"type": "electric_scooter", "rental_uris": {"ios": "https://dc.lft.to/lastmile_qr_scan", "android": "https://dc.lft.to/lastmile_qr_scan"}, "lon": -77.04479966666666, "fusion_lon": 0.0, "is_disabled": 0, "lat": 38.912127166666664, "bike_id": "6cb6212ace2c5d92c28591fb8689f4db", "name": "6cb6212ace2c5d92c28591fb8689f4db", "is_reserved": 0, "fusion_lat": 0.0}, {"type": "electric_scooter", "rental_uris": {"ios": "https://dc.lft.to/lastmile_qr_scan", "android": "https://dc.lft.to/lastmile_qr_scan"}, "lon": -77.0365535, "fusion_lon": 0.0, "is_disabled": 0, "lat": 38.91727983333333, "bike_id": "3e20f4826b9eedc016471dd7b2f6400f", "name": "3e20f4826b9eedc016471dd7b2f6400f", "is_reserved": 0, "fusion_lat": 0.0},