{"data": {"bikes": [{"name": "f352048d80d6b3e8097694f77cfdbb11", "type": "electric_scooter", "lat": 38.89980583333333, "is_reserved": 0, "lon": -77.031364, "fusion_lon": 0.0, "is_disabled": 0, "fusion_lat": 0.0, "bike_id": "f352048d80d6b3e8097694f77cfdbb11", "rental_uris": {"ios": "https://dc.lft.to/lastmile_qr_scan", "android": "https://dc.lft.to/lastmile_qr_scan"}}, {"name": "06973d03fdb0f2a48c4bbe01981393d2", "type": "electric_scooter", "lat": 38.8723125, "is_reserved": 0, "lon": -77.01169866666666, "fusion_lon": 0.0, "is_disabled": 0, "fusion_lat": 0.0, "bike_id": "06973d03fdb0f2a48c4bbe01981393d2", "rental_uris": {"ios": "https://dc.lft.to/lastmile_qr_scan", "android": "https://dc.lft.to/lastmile_qr_scan"}}, {"name": "c3892acbc5187ead4f8db3e728a21a69", "type": "electric_bike", "lat": 38.959082333333335, "is_reserved": 0, "lon": -77.00156783333334, "fusion_lon": 0.0, "is_disabled": 0, "fusion_lat": 0.0, "bike_id": "c3892acbc5187ead4f8db3e728a21a69", "rental_uris": {"ios": "https://dc.lft.to/lastmile_qr_scan", "android": "https://dc.lft.to/lastmile_qr_scan"}}, {"name": "d26ae941d152d05feba18fce210ae539", "type": "electric_scooter", "lat": 38.91574133333334, "is_reserved": 0, "lon": -77.02202516666667, "fusion_lon": 0.0, "is_disabled": 0, "fusion_lat": 0.0, "bike_id": "d26ae941d152d05feba18fce210ae539", "rental_uris": {"ios": "https://dc.lft.to/lastmile_qr_scan", "android": "https://dc.lft.to/lastmile_qr_scan"}}, {"name": "c50c03c7c3851fae2f4993a414b91db4", "type": "electric_scooter", "lat": 38.85450933333333, "is_reserved": 0, "lon": -76.98575733333334, "fusion_lon": 0.0, "is_disabled": 0, "fusion_lat": 0.0, "bike_id": "c50c03c7c3851fae2f4993a414b91db4", "rental_uris": {"ios": "https://dc.lft.to/lastmile_qr_scan", "android": "https://dc.lft.to/lastmile_qr_scan"}}, {"name": "ac45c608c6edd6e99409ed432fdc8e2f", "type": "electric_scooter", "lat": 38.918759333333334, "is_reserved": 0, "lon": -77.04351683333333, "fusion_lon": 0.0, "is_disabled": 0, "fusion_lat": 0.0, "bike_id": "ac45c608c6edd6e99409ed432fdc8e2f", "rental_uris": {"ios": "https://dc.lft.to/lastmile_qr_scan", "android": "https://dc.lft.to/lastmile_qr_scan"}}, {"name": "97a18bf8d16073b1804ab9f7547dacbe", "type": "electric_scooter", "lat": 38.9288655, "is_reserved": 0, "lon": -77.03759033333333, "fusion_lon": 0.0, "is_disabled": 0, "fusion_lat": 0.0, "bike_id": "97a18bf8d16073b1804ab9f7547dacbe", "rental_uris": {"ios": "https://dc.lft.to/lastmile_qr_scan", "android": "https://dc.lft.to/lastmile_qr_scan"}}, {"name": "d9adaf3d41e4c279dce8b982f17b2e9b", "type": "electric_scooter", "lat": 38.940977333333336, "is_reserved": 0, "lon": -77.021114, "fusion_lon": 0.0, "is_disabled": 0, "fusion_lat": 0.0, "bike_id": "d9adaf3d41e4c279dce8b982f17b2e9b", "rental_uris": {"ios": "https://dc.lft.to/lastmile_qr_scan", "android": "https://dc.lft.to/lastmile_qr_scan"}}, {"name": "34a8a270239d827a3553548dcd719b7e", "type": "electric_scooter", "lat": 38.924830666666665, "is_reserved": 0, "lon": -77.0283895, "fusion_lon": 0.0, "is_disabled": 0, "fusion_lat": 0.0, "bike_id": "34a8a270239d827a3553548dcd719b7e", "rental_uris": {"ios": "https://dc.lft.to/lastmile_qr_scan", "android": "https://dc.lft.to/lastmile_qr_scan"}}, {"name": "9ee26446d97fa029be46ce1b7cded5d0", "type": "electric_scooter", "lat": 38.878407833333334, "is_reserved": 0, "lon": -77.01964633333333, "fusion_lon": 0.0, "is_disabled": 0, "fusion_lat": 0.0, "bike_id": "9ee26446d97fa029be46ce1b7cded5d0", "rental_uris": {"ios": "https://dc.lft.to/lastmile_qr_scan", "android": "https://dc.lft.to/lastmile_qr_scan"}}, {"name": "cdd3e0236e75a4e5100b69d5bd45a196", "type": "electric_scooter", "lat": 38.89842816666667, "is_reserved": 0, "lon": -77.03320016666666, "fusion_lon": 0.0, "is_disabled": 0, "fusion_lat": 0.0, "bike_id": "cdd3e0236e75a4e5100b69d5bd45a196", "rental_uris": {"ios": "https://dc.lft.to/lastmile_qr_scan", "android": "https://dc.lft.to/lastmile_qr_scan"}}, {"name": "9fe25735015591c1111cc85fda87ce01", "type": "electric_bike", "lat": 38.90362433333333, "is_reserved": 0, "lon": -76.98327266666666, "fusion_lon": 0.0, "is_disabled": 0, "fusion_lat": 0.0, "bike_id": "9fe25735015591c1111cc85fda87ce01", "rental_uris": {"ios": "https://dc.lft.to/lastmile_qr_scan", "android": "https://dc.lft.to/lastmile_qr_scan"}}, {"name": "2bbf62e242646df17b22865211ad71c8", "type": "electric_scooter", "lat": 38.86354466666667, "is_reserved": 0, "lon": -76.99067466666666, "fusion_lon": 0.0, "is_disabled": 0, "fusion_lat": 0.0, "bike_id": "2bbf62e242646df17b22865211ad71c8", "rental_uris": {"ios": "https://dc.lft.to/lastmile_qr_scan", "android": "https://dc.lft.to/lastmile_qr_scan"}}, {"name": "61031834545aa0b33abc041e25b68a9c", "type": "electric_scooter", "lat": 38.901731166666664, "is_reserved": 0, "lon": -77.0001025, "fusion_lon": 0.0, "is_disabled": 0, "fusion_lat": 0.0, "bike_id": "61031834545aa0b33abc041e25b68a9c", "rental_uris": {"ios": "https://dc.lft.to/lastmile_qr_scan", "android": "https://dc.lft.to/lastmile_qr_scan"}}, {"name": "97e4f6c20436f9d30d74d17282d4b2c7", "type": "electric_scooter", "lat": 38.90553633333333, "is_reserved": 0, "lon": -77.046577, "fusion_lon": 0.0, "is_disabled": 0, "fusion_lat": 0.0, "bike_id": "97e4f6c20436f9d30d74d17282d4b2c7", "rental_uris": {"ios": "https://dc.lft.to/lastmile_qr_scan", "android": "https://dc.lft.to/lastmile_qr_scan"}}, {"name": "35a686ae5b67f5675513813cfd79676c", "type": "electric_scooter", "lat": 38.90377616666667, "is_reserved": 0, "lon": -77.044698, "fusion_lon": 0.0, "is_disabled": 0, "fusion_lat": 0.0, "bike_id": "35a686ae5b67f5675513813cfd79676c", "rental_uris": {"ios": "https://dc.lft.to/lastmile_qr_scan", "android": "https://dc.lft.to/lastmile_qr_scan"}}, {"name": "0dc4e541163d736d144444c01a2679a5", "type": "electric_scooter", "lat": 38.884891333333336, "is_reserved": 0, "lon": -77.0285735, "fusion_lon": 0.0, "is_disabled": 0, "fusion_lat": 0.0, "bike_id": "0dc4e541163d736d144444c01a2679a5", "rental_uris": {"ios": "https://dc.lft.to/lastmile_qr_scan", "android": "https://dc.lft.to/lastmile_qr_scan"}}, {"name": "552507537b0f9e8331afb69779d68ece", "type": "electric_scooter", "lat": 38.941189666666666, "is_reserved": 0, "lon": -77.026563, "fusion_lon": 0.0, "is_disabled": 0, "fusion_lat": 0.0, "bike_id": "552507537b0f9e8331afb69779d68ece", "rental_uris": {"ios": "https://dc.lft.to/lastmile_qr_scan", "android": "https://dc.lft.to/lastmile_qr_scan"}}, {"name": "3994123c3eda17ab3f698315098654a7", "type": "electric_scooter", "lat": 38.90865566666667, "is_reserved": 0, "lon": -76.98616666666666, "fusion_lon": 0.0, "is_disabled": 0, "fusion_lat": 0.0, "bike_id": "3994123c3eda17ab3f698315098654a7", "rental_uris": {"ios": "https://dc.lft.to/lastmile_qr_scan", "android": "https://dc.lft.to/lastmile_qr_scan"}}, {"name": "0638951a87811f923a8d202a5c27a508", "type": "electric_scooter", "lat": 38.90032333333333, "is_reserved": 0, "lon": -76.98835016666666, "fusion_lon": 0.0, "is_disabled": 0, "fusion_lat": 0.0, "bike_id": "0638951a87811f923a8d202a5c27a508", "rental_uris": {"ios": "https://dc.lft.to/lastmile_qr_scan", "android": "https://dc.lft.to/lastmile_qr_scan"}}, {"name": "42d5feb87af9b4214995a6f0c1154867", "type": "electric_scooter", "lat": 38.905214666666666, "is_reserved": 0, "lon": -77.065861, "fusion_lon": 0.0, "is_disabled": 0, "fusion_lat": 0.0, "bike_id": "42d5feb87af9b4214995a6f0c1154867", "rental_uris": {"ios": "https://dc.lft.to/lastmile_qr_scan", "android": "https://dc.lft.to/lastmile_qr_scan"}}, {"name": "21d4dfc59b6f5dc065e6da8544f16a18", "type": "electric_scooter", "lat": 38.92368316666666, "is_reserved": 0, "lon": -77.050467, "fusion_lon": 0.0, "is_disabled": 0, "fusion_lat": 0.0, "bike_id": "21d4dfc59b6f5dc065e6da8544f16a18", "rental_uris": {"ios": "https://dc.lft.to/lastmile_qr_scan", "android": "https://dc.lft.to/lastmile_qr_scan"}}, {"name": "5a69e2bf531d0604a08ba579df496aaa", "type": "electric_scooter", "lat": 38.90575483333333, "is_reserved": 0, "lon": -77.005737, "fusion_lon": 0.0, "is_disabled": 0, "fusion_lat": 0.0, "bike_id": "5a69e2bf531d0604a08ba579df496aaa", "rental_uris": {"ios": "https://dc.lft.to/lastmile_qr_scan", "android": "https://dc.lft.to/lastmile_qr_scan"}}, {"name": "621c3bce2971460e7ef357b0bee2f2f2", "type": "electric_bike", "lat": 38.9135845, "is_reserved": 0, "lon": -77.0287855, "fusion_lon": 0.0, "is_disabled": 0, "fusion_lat": 0.0, "bike_id": "621c3bce2971460e7ef357b0bee2f2f2", "rental_uris": {"ios": "https://dc.lft.to/lastmile_qr_scan", "android": "https://dc.lft.to/lastmile_qr_scan"}}, {"name": "5e0a4c2d44d4e7e5e7e25076fed83fbd", "type": "electric_bike", "lat": 39.03051283333333, "is_reserved": 0, "lon": -77.09479833333333, "fusion_lon": 0.0, "is_disabled": 0, "fusion_lat": 0.0, "bike_id": "5e0a4c2d44d4e7e5e7e25076fed83fbd", "rental_uris": {"ios": "https://dc.lft.to/lastmile_qr_scan", "android": "https://dc.lft.to/lastmile_qr_scan"}}, {"name": "fd10086d71830f339713a93dcba3bafb", "type": "electric_scooter", "lat": 38.905395166666665, "is_reserved": 0, "lon": -77.0519605, "fusion_lon": 0.0, "is_disabled": 0, "fusion_lat": 0.0, "bike_id": "fd10086d71830f339713a93dcba3bafb", "rental_uris": {"ios": "https://dc.lft.to/lastmile_qr_scan", "android": "https://dc.lft.to/lastmile_qr_scan"}}, {"name": "93c0ac3e4f2af9f0e54ced7a4aee304b", "type": "electric_bike", "lat": 38.970556333333334, "is_reserved": 0, "lon": -76.9362145, "fusion_lon": 0.0, "is_disabled": 0, "fusion_lat": 0.0, "bike_id": "93c0ac3e4f2af9f0e54ced7a4aee304b", "rental_uris": {"ios": "https://dc.lft.to/lastmile_qr_scan", "android": "https://dc.lft.to/lastmile_qr_scan"}}, {"name": "76a2a348c0ece257219295545bacc24a", "type": "electric_bike", "lat": 38.908960666666665, "is_reserved": 0, "lon": -77.0321305, "fusion_lon": 0.0, "is_disabled": 0, "fusion_lat": 0.0, "bike_id": "76a2a348c0ece257219295545bacc24a", "rental_uris": {"ios": "https://dc.lft.to/lastmile_qr_scan", "android": "https://dc.lft.to/lastmile_qr_scan"}}, {"name": "9c7983a57f8127a36c0a48d44b5f4364", "type": "electric_scooter", "lat": 38.915465833333336, "is_reserved": 0, "lon": -77.03855633333333, "fusion_lon": 0.0, "is_disabled": 0, "fusion_lat": 0.0, "bike_id": "9c7983a57f8127a36c0a48d44b5f4364", "rental_uris": {"ios": "https://dc.lft.to/lastmile_qr_scan", "android": "https://dc.lft.to/lastmile_qr_scan"}}, {"name": "864a8723557898bffed19b74d3e49b48", "type": "electric_scooter", "lat": 38.904372333333335, "is_reserved": 0, "lon": -77.0284075, "fusion_lon": 0.0, "is_disabled": 0, "fusion_lat": 0.0, "bike_id": "864a8723557898bffed19b74d3e49b48", "rental_uris": {"ios": "https://dc.lft.to/lastmile_qr_scan", "android": "https://dc.lft.to/lastmile_qr_scan"}}, {"name": "e7b9f07e99e3db586ba45cdb5e2d036f", "type": "electric_scooter", "lat": 38.931143, "is_reserved": 0, "lon": -77.03842033333333, "fusion_lon": 0.0, "is_disabled": 0, "fusion_lat": 0.0, "bike_id": "e7b9f07e99e3db586ba45cdb5e2d036f", "rental_uris": {"ios": "https://dc.lft.to/lastmile_qr_scan", "android": "https://dc.lft.to/lastmile_qr_scan"}}, {"name": "ed9927dc2cd58df4710489b839fac82b", "type": "electric_scooter", "lat": 38.92483983333333, "is_reserved": 0, "lon": -77.037646, "fusion_lon": 0.0, "is_disabled": 0, "fusion_lat": 0.0, "bike_id": "ed9927dc2cd58df4710489b839fac82b", "rental_uris": {"ios": "https://dc.lft.to/lastmile_qr_scan", "android": "https://dc.lft.to/lastmile_qr_scan"}}, {"name": "974a8ab9b6b76e60d05cfffa15af3553", "type": "electric_scooter", "lat": 38.9078895, "is_reserved": 0, "lon": -77.0096855, "fusion_lon": 0.0, "is_disabled": 0, "fusion_lat": 0.0, "bike_id": "974a8ab9b6b76e60d05cfffa15af3553", "rental_uris": {"ios": "https://dc.lft.to/lastmile_qr_scan", "android": "https://dc.lft.to/lastmile_qr_scan"}}, {"name": "2b686bf0af5a3162c94d233c0e68bb81", "type": "electric_scooter", "lat": 38.934467, "is_reserved": 0, "lon": -77.0284695, "fusion_lon": 0.0, "is_disabled": 0, "fusion_lat": 0.0, "bike_id": "2b686bf0af5a3162c94d233c0e68bb81", "rental_uris": {"ios": "https://dc.lft.to/lastmile_qr_scan", "android": "https://dc.lft.to/lastmile_qr_scan"}}, {"name": "f3b5d4dbc7e72fcbc68b70dd7a5aff77", "type": "electric_bike", "lat": 38.946238, "is_reserved": 0, "lon": -76.94631, "fusion_lon": 0.0, "is_disabled": 0, "fusion_lat": 0.0, "bike_id": "f3b5d4dbc7e72fcbc68b70dd7a5aff77", "rental_uris": {"ios": "https://dc.lft.to/lastmile_qr_scan", "android": "https://dc.lft.to/lastmile_qr_scan"}}, {"name": "b84cc5d05a92c4431090f2bc8077cd3c", "type": "electric_scooter", "lat": 38.922323666666664, "is_reserved": 0, "lon": -77.03892666666667, "fusion_lon": 0.0, "is_disabled": 0, "fusion_lat": 0.0, "bike_id": "b84cc5d05a92c4431090f2bc8077cd3c", "rental_uris": {"ios": "https://dc.lft.to/lastmile_qr_scan", "android": "https://dc.lft.to/lastmile_qr_scan"}}, {"name": "c2385b7897f1085d174df5bc29d8a311", "type": "electric_scooter", "lat": 38.90571166666667, "is_reserved": 0, "lon": -77.00605466666667, "fusion_lon": 0.0, "is_disabled": 0, "fusion_lat": 0.0, "bike_id": "c2385b7897f1085d174df5bc29d8a311", "rental_uris": {"ios": "https://dc.lft.to/lastmile_qr_scan", "android": "https://dc.lft.to/lastmile_qr_scan"}}, {"name": "f51f1234cec70d8b544e243cecdc874c", "type": "electric_scooter", "lat": 38.86697433333333, "is_reserved": 0, "lon": -76.98711333333333, "fusion_lon": 0.0, "is_disabled": 0, "fusion_lat": 0.0, "bike_id": "f51f1234cec70d8b544e243cecdc874c", "rental_uris": {"ios": "https://dc.lft.to/lastmile_qr_scan", "android": "https://dc.lft.to/lastmile_qr_scan"}}, {"name": "4c0a448aa345b021882b9db3f6f6c5a9", "type": "electric_scooter", "lat": 38.932479, "is_reserved": 0, "lon": -77.029488, "fusion_lon": 0.0, "is_disabled": 0, "fusion_lat": 0.0, "bike_id": "4c0a448aa345b021882b9db3f6f6c5a9", "rental_uris": {"ios": "https://dc.lft.to/lastmile_qr_scan", "android": "https://dc.lft.to/lastmile_qr_scan"}}, {"name": "17594136cb120eeb53d73bb44b0971c2", "type": "electric_scooter", "lat": 38.93124816666667, "is_reserved": 0, "lon": -77.036016, "fusion_lon": 0.0, "is_disabled": 0, "fusion_lat": 0.0, "bike_id": "17594136cb120eeb53d73bb44b0971c2", "rental_uris": {"ios": "https://dc.lft.to/lastmile_qr_scan", "android": "https://dc.lft.to/lastmile_qr_scan"}}, {"name": "8d338fee3bda7f60666432579d747445", "type": "electric_scooter", "lat": 38.906453, "is_reserved": 0, "lon": -77.029666, "fusion_lon": 0.0, "is_disabled": 0, "fusion_lat": 0.0, "bike_id": "8d338fee3bda7f60666432579d747445", "rental_uris": {"ios": "https://dc.lft.to/lastmile_qr_scan", "android": "https://dc.lft.to/lastmile_qr_scan"}}, {"name": "d5625318110e4dc565ac132c5533bc26", "type": "electric_scooter", "lat": 38.89771916666667, "is_reserved": 0, "lon": -77.02694133333334, "fusion_lon": 0.0, "is_disabled": 0, "fusion_lat": 0.0, "bike_id": "d5625318110e4dc565ac132c5533bc26", "rental_uris": {"ios": "https://dc.lft.to/lastmile_qr_scan", "android": "https://dc.lft.to/lastmile_qr_scan"}}, {"name": "8dcc599b1213e69aaf079e8ff1a61726", "type": "electric_scooter", "lat": 38.93095433333333, "is_reserved": 0, "lon": -77.034467, "fusion_lon": 0.0, "is_disabled": 0, "fusion_lat": 0.0, "bike_id": "8dcc599b1213e69aaf079e8ff1a61726", "rental_uris": {"ios": "https://dc.lft.to/lastmile_qr_scan", "android": "https://dc.lft.to/lastmile_qr_scan"}}, {"name": "053ef7c93bd7a8fd2fe4dc6a43a4ce94", "type": "electric_scooter", "lat": 38.896661333333334, "is_reserved": 0, "lon": -77.01189083333334, "fusion_lon": 0.0, "is_disabled": 0, "fusion_lat": 0.0, "bike_id": "053ef7c93bd7a8fd2fe4dc6a43a4ce94", "rental_uris": {"ios": "https://dc.lft.to/lastmile_qr_scan", "android": "https://dc.lft.to/lastmile_qr_scan"}}, {"name": "2a3b2c351290dc4a7b35ac0d90262d3c", "type": "electric_scooter", "lat": 38.899432, "is_reserved": 0, "lon": -77.0317795, "fusion_lon": 0.0, "is_disabled": 0, "fusion_lat": 0.0, "bike_id": "2a3b2c351290dc4a7b35ac0d90262d3c", "rental_uris": {"ios": "https://dc.lft.to/lastmile_qr_scan", "android": "https://dc.lft.to/lastmile_qr_scan"}}, {"name": "c77293cca242978323a50085de31c92f", "type": "electric_scooter", "lat": 38.897989, "is_reserved": 0, "lon": -76.99165566666667, "fusion_lon": 0.0, "is_disabled": 0, "fusion_lat": 0.0, "bike_id": "c77293cca242978323a50085de31c92f", "rental_uris": {"ios": "https://dc.lft.to/lastmile_qr_scan", "android": "https://dc.lft.to/lastmile_qr_scan"}}, {"name": "eab4f1fc4bc5cdbda0eb60cf7d19ee01", "type": "electric_bike", "lat": 38.89788583333333, "is_reserved": 0, "lon": -76.90431233333334, "fusion_lon": 0.0, "is_disabled": 0, "fusion_lat": 0.0, "bike_id": "eab4f1fc4bc5cdbda0eb60cf7d19ee01", "rental_uris": {"ios": "https://dc.lft.to/lastmile_qr_scan", "android": "https://dc.lft.to/lastmile_qr_scan"}}, {"name": "3fb97e55201b330f8445a3b8761be5aa", "type": "electric_scooter", "lat": 38.87086133333333, "is_reserved": 0, "lon": -77.0120645, "fusion_lon": 0.0, "is_disabled": 0, "fusion_lat": 0.0, "bike_id": "3fb97e55201b330f8445a3b8761be5aa", "rental_uris": {"ios": "https://dc.lft.to/lastmile_qr_scan", "android": "https://dc.lft.to/lastmile_qr_scan"}}, {"name": "85b31e947f406ca76f4917fff528ee00", "type": "electric_scooter", "lat": 38.9396575, "is_reserved": 0, "lon": -77.0531865, "fusion_lon": 0.0, "is_disabled": 0, "fusion_lat": 0.0, "bike_id": "85b31e947f406ca76f4917fff528ee00", "rental_uris": {"ios": "https://dc.lft.to/lastmile_qr_scan", "android": "https://dc.lft.to/lastmile_qr_scan"}}, {"name": "216585b96c9805eab838c7a400d4556a", "type": "electric_scooter", "lat": 38.90605983333333, "is_reserved": 0, "lon": -77.051249, "fusion_lon": 0.0, "is_disabled": 0, "fusion_lat": 0.0, "bike_id": "216585b96c9805eab838c7a400d4556a", "rental_uris": {"ios": "https://dc.lft.to/lastmile_qr_scan", "android": "https://dc.lft.to/lastmile_qr_scan"}}, {"name": "abb11ca37223021660bd397ea0974d95", "type": "electric_scooter", "lat": 38.89730766666667, "is_reserved": 0, "lon": -77.00146933333333, "fusion_lon": 0.0, "is_disabled": 0, "fusion_lat": 0.0, "bike_id": "abb11ca37223021660bd397ea0974d95", "rental_uris": {"ios": "https://dc.lft.to/lastmile_qr_scan", "android": "https://dc.lft.to/lastmile_qr_scan"}}, {"name": "1d1b9db7d0d7e0f77ea2ede304f0f253", "type": "electric_scooter", "lat": 38.929856666666666, "is_reserved": 0, "lon": -77.0347305, "fusion_lon": 0.0, "is_disabled": 0, "fusion_lat": 0.0, "bike_id": "1d1b9db7d0d7e0f77ea2ede304f0f253", "rental_uris": {"ios": "https://dc.lft.to/lastmile_qr_scan", "android": "https://dc.lft.to/lastmile_qr_scan"}}, {"name": "4478b203fe176bf0c2acb1e1df8db5af", "type": "electric_scooter", "lat": 38.930683333333334, "is_reserved": 0, "lon": -77.03802833333333, "fusion_lon": 0.0, "is_disabled": 0, "fusion_lat": 0.0, "bike_id": "4478b203fe176bf0c2acb1e1df8db5af", "rental_uris": {"ios": "https://dc.lft.to/lastmile_qr_scan", "android": "https://dc.lft.to/lastmile_qr_scan"}}, {"name": "23ca7498e32361c03f1250a949e2d2c9", "type": "electric_bike", "lat": 38.877330666666666, "is_reserved": 0, "lon": -77.1184865, "fusion_lon": 0.0, "is_disabled": 0, "fusion_lat": 0.0, "bike_id": "23ca7498e32361c03f1250a949e2d2c9", "rental_uris": {"ios": "https://dc.lft.to/lastmile_qr_scan", "android": "https://dc.lft.to/lastmile_qr_scan"}}, {"name": "630f25fce201df60c5459bd447187c1d", "type": "electric_scooter", "lat": 38.91213283333333, "is_reserved": 0, "lon": -77.02803783333333, "fusion_lon": 0.0, "is_disabled": 0, "fusion_lat": 0.0, "bike_id": "630f25fce201df60c5459bd447187c1d", "rental_uris": {"ios": "https://dc.lft.to/lastmile_qr_scan", "android": "https://dc.lft.to/lastmile_qr_scan"}}, {"name": "ef77b8622611e0dc8f34ec9f83a39e9b", "type": "electric_scooter", "lat": 38.90304066666667, "is_reserved": 0, "lon": -77.060227, "fusion_lon": 0.0, "is_disabled": 0, "fusion_lat": 0.0, "bike_id": "ef77b8622611e0dc8f34ec9f83a39e9b", "rental_uris": {"ios": "https://dc.lft.to/lastmile_qr_scan", "android": "https://dc.lft.to/lastmile_qr_scan"}}, {"name": "532b0c496bf1ec4cda39ae7584bd7942", "type": "electric_scooter", "lat": 38.911160333333335, "is_reserved": 0, "lon": -77.00245716666667, "fusion_lon": 0.0, "is_disabled": 0, "fusion_lat": 0.0, "bike_id": "532b0c496bf1ec4cda39ae7584bd7942", "rental_uris": {"ios": "https://dc.lft.to/lastmile_qr_scan", "android": "https://dc.lft.to/lastmile_qr_scan"}}, {"name": "c5dd88592a14419c46868d040197fd4b", "type": "electric_scooter", "lat": 38.93210666666667, "is_reserved": 0, "lon": -77.023816, "fusion_lon": 0.0, "is_disabled": 0, "fusion_lat": 0.0, "bike_id": "c5dd88592a14419c46868d040197fd4b", "rental_uris": {"ios": "https://dc.lft.to/lastmile_qr_scan", "android": "https://dc.lft.to/lastmile_qr_scan"}}, {"name": "4eb31da8eafaed41b5cfdff581ada855", "type": "electric_scooter", "lat": 38.87889766666667, "is_reserved": 0, "lon": -77.02277783333334, "fusion_lon": 0.0, "is_disabled": 0, "fusion_lat": 0.0, "bike_id": "4eb31da8eafaed41b5cfdff581ada855", "rental_uris": {"ios": "https://dc.lft.to/lastmile_qr_scan", "android": "https://dc.lft.to/lastmile_qr_scan"}}, {"name": "c7d0fc65a7e6778560be58d44badca91", "type": "electric_scooter", "lat": 38.883474166666666, "is_reserved": 0, "lon": -76.98556483333333, "fusion_lon": 0.0, "is_disabled": 0, "fusion_lat": 0.0, "bike_id": "c7d0fc65a7e6778560be58d44badca91", "rental_uris": {"ios": "https://dc.lft.to/lastmile_qr_scan", "android": "https://dc.lft.to/lastmile_qr_scan"}}, {"name": "285550c06a4b4007e1089bebbddc1820", "type": "electric_bike", "lat": 39.026491, "is_reserved": 0, "lon": -77.12534716666667, "fusion_lon": 0.0, "is_disabled": 0, "fusion_lat": 0.0, "bike_id": "285550c06a4b4007e1089bebbddc1820", "rental_uris": {"ios": "https://dc.lft.to/lastmile_qr_scan", "android": "https://dc.lft.to/lastmile_qr_scan"}}, {"name": "21f1dfb5c959ba8ef3a5fa8dc2828e97", "type": "electric_scooter", "lat": 38.89890666666667, "is_reserved": 0, "lon": -77.03294316666667, "fusion_lon": 0.0, "is_disabled": 0, "fusion_lat": 0.0, "bike_id": "21f1dfb5c959ba8ef3a5fa8dc2828e97", "rental_uris": {"ios": "https://dc.lft.to/lastmile_qr_scan", "android": "https://dc.lft.to/lastmile_qr_scan"}}, {"name": "372309e27111a837a2d6b6eb0fb0bad7", "type": "electric_scooter", "lat": 38.91676016666667, "is_reserved": 0, "lon": -77.024006, "fusion_lon": 0.0, "is_disabled": 0, "fusion_lat": 0.0, "bike_id": "372309e27111a837a2d6b6eb0fb0bad7", "rental_uris": {"ios": "https://dc.lft.to/lastmile_qr_scan", "android": "https://dc.lft.to/lastmile_qr_scan"}}, {"name": "1bbaa906fb18a7766147466bce74643a", "type": "electric_scooter", "lat": 38.88511883333334, "is_reserved": 0, "lon": -77.00575966666666, "fusion_lon": 0.0, "is_disabled": 0, "fusion_lat": 0.0, "bike_id": "1bbaa906fb18a7766147466bce74643a", "rental_uris": {"ios": "https://dc.lft.to/lastmile_qr_scan", "android": "https://dc.lft.to/lastmile_qr_scan"}}, {"name": "aeabcb5003fc0d5c853380595a3ec109", "type": "electric_scooter", "lat": 38.895317166666665, "is_reserved": 0, "lon": -76.94931633333333, "fusion_lon": 0.0, "is_disabled": 0, "fusion_lat": 0.0, "bike_id": "aeabcb5003fc0d5c853380595a3ec109", "rental_uris": {"ios": "https://dc.lft.to/lastmile_qr_scan", "android": "https://dc.lft.to/lastmile_qr_scan"}}, {"name": "154c0827a2e08067bbeb9ec356785dd6", "type": "electric_scooter", "lat": 38.9119365, "is_reserved": 0, "lon": -77.06103583333334, "fusion_lon": 0.0, "is_disabled": 0, "fusion_lat": 0.0, "bike_id": "154c0827a2e08067bbeb9ec356785dd6", "rental_uris": {"ios": "https://dc.lft.to/lastmile_qr_scan", "android": "https://dc.lft.to/lastmile_qr_scan"}}, {"name": "4b26b3391cceb1af81d799d6bc89aeb3", "type": "electric_scooter", "lat": 38.878377, "is_reserved": 0, "lon": -77.00051033333334, "fusion_lon": 0.0, "is_disabled": 0, "fusion_lat": 0.0, "bike_id": "4b26b3391cceb1af81d799d6bc89aeb3", "rental_uris": {"ios": "https://dc.lft.to/lastmile_qr_scan", "android": "https://dc.lft.to/lastmile_qr_scan"}}, {"name": "3c5b77c27ebf30687a5fbd2d5d3a32df", "type": "electric_scooter", "lat": 38.9009855, "is_reserved": 0, "lon": -77.05053866666667, "fusion_lon": 0.0, "is_disabled": 0, "fusion_lat": 0.0, "bike_id": "3c5b77c27ebf30687a5fbd2d5d3a32df", "rental_uris": {"ios": "https://dc.lft.to/lastmile_qr_scan", "android": "https://dc.lft.to/lastmile_qr_scan"}}, {"name": "b43c0595bba0a0f68f00b0a6f10f5c0e", "type": "electric_scooter", "lat": 38.935996833333334, "is_reserved": 0, "lon": -77.03763583333334, "fusion_lon": 0.0, "is_disabled": 0, "fusion_lat": 0.0, "bike_id": "b43c0595bba0a0f68f00b0a6f10f5c0e", "rental_uris": {"ios": "https://dc.lft.to/lastmile_qr_scan", "android": "https://dc.lft.to/lastmile_qr_scan"}}, {"name": "98261ad700e01685d4581a56fd1adfcd", "type": "electric_scooter", "lat": 38.89223916666667, "is_reserved": 0, "lon": -77.04540966666667, "fusion_lon": 0.0, "is_disabled": 0, "fusion_lat": 0.0, "bike_id": "98261ad700e01685d4581a56fd1adfcd", "rental_uris": {"ios": "https://dc.lft.to/lastmile_qr_scan", "android": "https://dc.lft.to/lastmile_qr_scan"}}, {"name": "676844a679b006efcdbc9f42a71b7345", "type": "electric_scooter", "lat": 38.9290505, "is_reserved": 0, "lon": -77.02161883333333, "fusion_lon": 0.0, "is_disabled": 0, "fusion_lat": 0.0, "bike_id": "676844a679b006efcdbc9f42a71b7345", "rental_uris": {"ios": "https://dc.lft.to/lastmile_qr_scan", "android": "https://dc.lft.to/lastmile_qr_scan"}}, {"name": "deabf9c1dcabf04c44f9a65fa74ae8cf", "type": "electric_scooter", "lat": 38.93493433333333, "is_reserved": 0, "lon": -77.0284495, "fusion_lon": 0.0, "is_disabled": 0, "fusion_lat": 0.0, "bike_id": "deabf9c1dcabf04c44f9a65fa74ae8cf", "rental_uris": {"ios": "https://dc.lft.to/lastmile_qr_scan", "android": "https://dc.lft.to/lastmile_qr_scan"}}, {"name": "3d14dc38cc4c206a723fd6f71f27512d", "type": "electric_scooter", "lat": 38.900234833333336, "is_reserved": 0, "lon": -76.98701166666666, "fusion_lon": 0.0, "is_disabled": 0, "fusion_lat": 0.0, "bike_id": "3d14dc38cc4c206a723fd6f71f27512d", "rental_uris": {"ios": "https://dc.lft.to/lastmile_qr_scan", "android": "https://dc.lft.to/lastmile_qr_scan"}}, {"name": "a541e7f93877f6787281b6233490fd46", "type": "electric_scooter", "lat": 38.935451, "is_reserved": 0, "lon": -77.0341325, "fusion_lon": 0.0, "is_disabled": 0, "fusion_lat": 0.0, "bike_id": "a541e7f93877f6787281b6233490fd46", "rental_uris": {"ios": "https://dc.lft.to/lastmile_qr_scan", "android": "https://dc.lft.to/lastmile_qr_scan"}}, {"name": "a4a0333d5f9365e925427457cc5e7cca", "type": "electric_bike", "lat": 38.854269333333335, "is_reserved": 0, "lon": -76.90973266666667, "fusion_lon": 0.0, "is_disabled": 0, "fusion_lat": 0.0, "bike_id": "a4a0333d5f9365e925427457cc5e7cca", "rental_uris": {"ios": "https://dc.lft.to/lastmile_qr_scan", "android": "https://dc.lft.to/lastmile_qr_scan"}}, {"name": "539956c7cc687f9c8a24b93a9446cd08", "type": "electric_scooter", "lat": 38.9267055, "is_reserved": 0, "lon": -76.99544116666667, "fusion_lon": 0.0, "is_disabled": 0, "fusion_lat": 0.0, "bike_id": "539956c7cc687f9c8a24b93a9446cd08", "rental_uris": {"ios": "https://dc.lft.to/lastmile_qr_scan", "android": "https://dc.lft.to/lastmile_qr_scan"}}, {"name": "51bb27a95f764df0180ecaebaa504794", "type": "electric_bike", "lat": 38.81048933333334, "is_reserved": 0, "lon": -77.08508916666666, "fusion_lon": 0.0, "is_disabled": 0, "fusion_lat": 0.0, "bike_id": "51bb27a95f764df0180ecaebaa504794", "rental_uris": {"ios": "https://dc.lft.to/lastmile_qr_scan", "android": "https://dc.lft.to/lastmile_qr_scan"}}, {"name": "7bcb99eabc27714f6dbb843aa6a6e6e1", "type": "electric_scooter", "lat": 38.8442365, "is_reserved": 0, "lon": -76.99778933333333, "fusion_lon": 0.0, "is_disabled": 0, "fusion_lat": 0.0, "bike_id": "7bcb99eabc27714f6dbb843aa6a6e6e1", "rental_uris": {"ios": "https://dc.lft.to/lastmile_qr_scan", "android": "https://dc.lft.to/lastmile_qr_scan"}}, {"name": "42e60650cabe78e07f45f5c856003040", "type": "electric_scooter", "lat": 38.86663583333333, "is_reserved": 0, "lon": -76.98885216666666, "fusion_lon": 0.0, "is_disabled": 0, "fusion_lat": 0.0, "bike_id": "42e60650cabe78e07f45f5c856003040", "rental_uris": {"ios": "https://dc.lft.to/lastmile_qr_scan", "android": "https://dc.lft.to/lastmile_qr_scan"}}, {"name": "cecd62fdd9d61aff019a12fb066b89c1", "type": "electric_scooter", "lat": 38.90031483333333, "is_reserved": 0, "lon": -77.00205233333334, "fusion_lon": 0.0, "is_disabled": 0, "fusion_lat": 0.0, "bike_id": "cecd62fdd9d61aff019a12fb066b89c1", "rental_uris": {"ios": "https://dc.lft.to/lastmile_qr_scan", "android": "https://dc.lft.to/lastmile_qr_scan"}}, {"name": "12e2b681b1691ee4570b32e6aee20c75", "type": "electric_bike", "lat": 38.82225833333333, "is_reserved": 0, "lon": -77.10445916666667, "fusion_lon": 0.0, "is_disabled": 0, "fusion_lat": 0.0, "bike_id": "12e2b681b1691ee4570b32e6aee20c75", "rental_uris": {"ios": "https://dc.lft.to/lastmile_qr_scan", "android": "https://dc.lft.to/lastmile_qr_scan"}}, {"name": "ec865e4665b6e6fc3ec569cbf497ba07", "type": "electric_scooter", "lat": 38.905479166666666, "is_reserved": 0, "lon": -77.0218655, "fusion_lon": 0.0, "is_disabled": 0, "fusion_lat": 0.0, "bike_id": "ec865e4665b6e6fc3ec569cbf497ba07", "rental_uris": {"ios": "https://dc.lft.to/lastmile_qr_scan", "android": "https://dc.lft.to/lastmile_qr_scan"}}, {"name": "da329e77ad5e145dd40863cc3fe6c605", "type": "electric_scooter", "lat": 38.91256933333333, "is_reserved": 0, "lon": -77.00930483333333, "fusion_lon": 0.0, "is_disabled": 0, "fusion_lat": 0.0, "bike_id": "da329e77ad5e145dd40863cc3fe6c605", "rental_uris": {"ios": "https://dc.lft.to/lastmile_qr_scan", "android": "https://dc.lft.to/lastmile_qr_scan"}}, {"name": "bf420ffd5525ddb5ca2b7c4d6d4980a6", "type": "electric_scooter", "lat": 38.87752583333334, "is_reserved": 0, "lon": -77.00818433333333, "fusion_lon": 0.0, "is_disabled": 0, "fusion_lat": 0.0, "bike_id": "bf420ffd5525ddb5ca2b7c4d6d4980a6", "rental_uris": {"ios": "https://dc.lft.to/lastmile_qr_scan", "android": "https://dc.lft.to/lastmile_qr_scan"}}, {"name": "c8164f6bc34f2fdf4e66dda07671053a", "type": "electric_scooter", "lat": 38.8955355, "is_reserved": 0, "lon": -76.9265815, "fusion_lon": 0.0, "is_disabled": 0, "fusion_lat": 0.0, "bike_id": "c8164f6bc34f2fdf4e66dda07671053a", "rental_uris": {"ios": "https://dc.lft.to/lastmile_qr_scan", "android": "https://dc.lft.to/lastmile_qr_scan"}}, {"name": "4c5ba6b0243c50ec515a4f74ccad4862", "type": "electric_scooter", "lat": 38.9234705, "is_reserved": 0, "lon": -77.03201016666667, "fusion_lon": 0.0, "is_disabled": 0, "fusion_lat": 0.0, "bike_id": "4c5ba6b0243c50ec515a4f74ccad4862", "rental_uris": {"ios": "https://dc.lft.to/lastmile_qr_scan", "android": "https://dc.lft.to/lastmile_qr_scan"}}, {"name": "cb58e523e16e000954e925c40850f71c", "type": "electric_scooter", "lat": 38.920002333333336, "is_reserved": 0, "lon": -76.95810133333333, "fusion_lon": 0.0, "is_disabled": 0, "fusion_lat": 0.0, "bike_id": "cb58e523e16e000954e925c40850f71c", "rental_uris": {"ios": "https://dc.lft.to/lastmile_qr_scan", "android": "https://dc.lft.to/lastmile_qr_scan"}}, {"name": "e8206129685dd72209392e5b2bf20c9a", "type": "electric_scooter", "lat": 38.962347333333334, "is_reserved": 0, "lon": -77.029787, "fusion_lon": 0.0, "is_disabled": 0, "fusion_lat": 0.0, "bike_id": "e8206129685dd72209392e5b2bf20c9a", "rental_uris": {"ios": "https://dc.lft.to/lastmile_qr_scan", "android": "https://dc.lft.to/lastmile_qr_scan"}}, {"name": "98062f918cd22b7fd510f6939e5610df", "type": "electric_scooter", "lat": 38.9027525, "is_reserved": 0, "lon": -77.0336885, "fusion_lon": 0.0, "is_disabled": 0, "fusion_lat": 0.0, "bike_id": "98062f918cd22b7fd510f6939e5610df", "rental_uris": {"ios": "https://dc.lft.to/lastmile_qr_scan", "android": "https://dc.lft.to/lastmile_qr_scan"}}, {"name": "ed4155517823be62d702cded90758b9f", "type": "electric_scooter", "lat": 38.921234166666665, "is_reserved": 0, "lon": -77.04430966666666, "fusion_lon": 0.0, "is_disabled": 0, "fusion_lat": 0.0, "bike_id": "ed4155517823be62d702cded90758b9f", "rental_uris": {"ios": "https://dc.lft.to/lastmile_qr_scan", "android": "https://dc.lft.to/lastmile_qr_scan"}}, {"name": "eb0bec9d3f25e150b26b95fa4f6cc92a", "type": "electric_scooter", "lat": 38.940869, "is_reserved": 0, "lon": -77.06189566666667, "fusion_lon": 0.0, "is_disabled": 0, "fusion_lat": 0.0, "bike_id": "eb0bec9d3f25e150b26b95fa4f6cc92a", "rental_uris": {"ios": "https://dc.lft.to/lastmile_qr_scan", "android": "https://dc.lft.to/lastmile_qr_scan"}}, {"name": "6ece83bd3e8eb56ebe26334e2f82736c", "type": "electric_bike", "lat": 38.8393405, "is_reserved": 0, "lon": -77.07903066666667, "fusion_lon": 0.0, "is_disabled": 0, "fusion_lat": 0.0, "bike_id": "6ece83bd3e8eb56ebe26334e2f82736c", "rental_uris": {"ios": "https://dc.lft.to/lastmile_qr_scan", "android": "https://dc.lft.to/lastmile_qr_scan"}}, {"name": "8b7901ae2ed1b3f5df3d6702c7b5f9fa", "type": "electric_scooter", "lat": 38.91113416666666, "is_reserved": 0, "lon": -77.03476466666666, "fusion_lon": 0.0, "is_disabled": 0, "fusion_lat": 0.0, "bike_id": "8b7901ae2ed1b3f5df3d6702c7b5f9fa", "rental_uris": {"ios": "https://dc.lft.to/lastmile_qr_scan", "android": "https://dc.lft.to/lastmile_qr_scan"}}, {"name": "50ef5e2bf3437fb7e72908703161f881", "type": "electric_scooter", "lat": 38.903040833333336, "is_reserved": 0, "lon": -77.0334815, "fusion_lon": 0.0, "is_disabled": 0, "fusion_lat": 0.0, "bike_id": "50ef5e2bf3437fb7e72908703161f881", "rental_uris": {"ios": "https://dc.lft.to/lastmile_qr_scan", "android": "https://dc.lft.to/lastmile_qr_scan"}}, {"name": "f89b6ef1adeac8b4d319544302fe6f91", "type": "electric_bike", "lat": 38.880406666666666, "is_reserved": 0, "lon": -77.0132485, "fusion_lon": 0.0, "is_disabled": 0, "fusion_lat": 0.0, "bike_id": "f89b6ef1adeac8b4d319544302fe6f91", "rental_uris": {"ios": "https://dc.lft.to/lastmile_qr_scan", "android": "https://dc.lft.to/lastmile_qr_scan"}}, {"name": "32e23cb6cfa70783750c23c3e967653a", "type": "electric_scooter", "lat": 38.915722833333334, "is_reserved": 0, "lon": -77.02204566666667, "fusion_lon": 0.0, "is_disabled": 0, "fusion_lat": 0.0, "bike_id": "32e23cb6cfa70783750c23c3e967653a", "rental_uris": {"ios": "https://dc.lft.to/lastmile_qr_scan", "android": "https://dc.lft.to/lastmile_qr_scan"}}, {"name": "cf7529aa19da663a53c26f42c3b83307", "type": "electric_bike", "lat": 38.842767, "is_reserved": 0, "lon": -76.98844383333333, "fusion_lon": 0.0, "is_disabled": 0, "fusion_lat": 0.0, "bike_id": "cf7529aa19da663a53c26f42c3b83307", "rental_uris": {"ios": "https://dc.lft.to/lastmile_qr_scan", "android": "https://dc.lft.to/lastmile_qr_scan"}}, {"name": "5c9b361bf9c036fe209a37721d516f31", "type": "electric_scooter", "lat": 38.91497533333333, "is_reserved": 0, "lon": -77.03936533333334, "fusion_lon": 0.0, "is_disabled": 0, "fusion_lat": 0.0, "bike_id": "5c9b361bf9c036fe209a37721d516f31", "rental_uris": {"ios": "https://dc.lft.to/lastmile_qr_scan", "android": "https://dc.lft.to/lastmile_qr_scan"}}, {"name": "c78ff7729264066c2acee49bff09b37b", "type": "electric_scooter", "lat": 38.90593333333333, "is_reserved": 0, "lon": -77.01609016666667, "fusion_lon": 0.0, "is_disabled": 0, "fusion_lat": 0.0, "bike_id": "c78ff7729264066c2acee49bff09b37b", "rental_uris": {"ios": "https://dc.lft.to/lastmile_qr_scan", "android": "https://dc.lft.to/lastmile_qr_scan"}}, {"name": "941b098d2384aec83f7c802ee235d9fa", "type": "electric_scooter", "lat": 38.914558166666666, "is_reserved": 0, "lon": -77.03862783333334, "fusion_lon": 0.0, "is_disabled": 0, "fusion_lat": 0.0, "bike_id": "941b098d2384aec83f7c802ee235d9fa", "rental_uris": {"ios": "https://dc.lft.to/lastmile_qr_scan", "android": "https://dc.lft.to/lastmile_qr_scan"}}, {"name": "72c24382fe1f56d03c772c9e979858ef", "type": "electric_scooter", "lat": 38.9002975, "is_reserved": 0, "lon": -77.011599, "fusion_lon": 0.0, "is_disabled": 0, "fusion_lat": 0.0, "bike_id": "72c24382fe1f56d03c772c9e979858ef", "rental_uris": {"ios": "https://dc.lft.to/lastmile_qr_scan", "android": "https://dc.lft.to/lastmile_qr_scan"}}, {"name": "925b03669e4d4352d5ffbfd5a1606d27", "type": "electric_scooter", "lat": 38.89848416666667, "is_reserved": 0, "lon": -77.03311083333334, "fusion_lon": 0.0, "is_disabled": 0, "fusion_lat": 0.0, "bike_id": "925b03669e4d4352d5ffbfd5a1606d27", "rental_uris": {"ios": "https://dc.lft.to/lastmile_qr_scan", "android": "https://dc.lft.to/lastmile_qr_scan"}}, {"name": "e91d5dfe372434b3fe27d5fd11c9b5a8", "type": "electric_scooter", "lat": 38.939845166666665, "is_reserved": 0, "lon": -77.02596133333333, "fusion_lon": 0.0, "is_disabled": 0, "fusion_lat": 0.0, "bike_id": "e91d5dfe372434b3fe27d5fd11c9b5a8", "rental_uris": {"ios": "https://dc.lft.to/lastmile_qr_scan", "android": "https://dc.lft.to/lastmile_qr_scan"}}, {"name": "418aa42145533f11b0dbdfc2d8047e42", "type": "electric_scooter", "lat": 38.915784, "is_reserved": 0, "lon": -76.98386883333333, "fusion_lon": 0.0, "is_disabled": 0, "fusion_lat": 0.0, "bike_id": "418aa42145533f11b0dbdfc2d8047e42", "rental_uris": {"ios": "https://dc.lft.to/lastmile_qr_scan", "android": "https://dc.lft.to/lastmile_qr_scan"}}, {"name": "6a743ead9cc32f99b3b445573c69c516", "type": "electric_scooter", "lat": 38.898975, "is_reserved": 0, "lon": -77.03289216666667, "fusion_lon": 0.0, "is_disabled": 0, "fusion_lat": 0.0, "bike_id": "6a743ead9cc32f99b3b445573c69c516", "rental_uris": {"ios": "https://dc.lft.to/lastmile_qr_scan", "android": "https://dc.lft.to/lastmile_qr_scan"}}, {"name": "7c9fd2f3736baf39c8fc468c488f4829", "type": "electric_scooter", "lat": 38.9345585, "is_reserved": 0, "lon": -77.0305065, "fusion_lon": 0.0, "is_disabled": 0, "fusion_lat": 0.0, "bike_id": "7c9fd2f3736baf39c8fc468c488f4829", "rental_uris": {"ios": "https://dc.lft.to/lastmile_qr_scan", "android": "https://dc.lft.to/lastmile_qr_scan"}}, {"name": "23668300b1041ccee5400e60fac61e9b", "type": "electric_bike", "lat": 38.84610416666666, "is_reserved": 0, "lon": -76.97830983333333, "fusion_lon": 0.0, "is_disabled": 0, "fusion_lat": 0.0, "bike_id": "23668300b1041ccee5400e60fac61e9b", "rental_uris": {"ios": "https://dc.lft.to/lastmile_qr_scan", "android": "https://dc.lft.to/lastmile_qr_scan"}}, {"name": "c99af96753b6551055ade78f7b590bb1", "type": "electric_scooter", "lat": 38.890145, "is_reserved": 0, "lon": -76.93731966666667, "fusion_lon": 0.0, "is_disabled": 0, "fusion_lat": 0.0, "bike_id": "c99af96753b6551055ade78f7b590bb1", "rental_uris": {"ios": "https://dc.lft.to/lastmile_qr_scan", "android": "https://dc.lft.to/lastmile_qr_scan"}}, {"name": "3b47f0a5f9566f98af6cd1025d89c4d2", "type": "electric_scooter", "lat": 38.91483983333333, "is_reserved": 0, "lon": -77.00835066666667, "fusion_lon": 0.0, "is_disabled": 0, "fusion_lat": 0.0, "bike_id": "3b47f0a5f9566f98af6cd1025d89c4d2", "rental_uris": {"ios": "https://dc.lft.to/lastmile_qr_scan", "android": "https://dc.lft.to/lastmile_qr_scan"}}, {"name": "186741c31d5a68f42518e8d0ac98317e", "type": "electric_scooter", "lat": 38.92338633333333, "is_reserved": 0, "lon": -77.04009483333333, "fusion_lon": 0.0, "is_disabled": 0, "fusion_lat": 0.0, "bike_id": "186741c31d5a68f42518e8d0ac98317e", "rental_uris": {"ios": "https://dc.lft.to/lastmile_qr_scan", "android": "https://dc.lft.to/lastmile_qr_scan"}}, {"name": "9edd3d9f25c2332985bc9405e34d3fa0", "type": "electric_bike", "lat": 38.95290683333333, "is_reserved": 0, "lon": -76.978102, "fusion_lon": 0.0, "is_disabled": 0, "fusion_lat": 0.0, "bike_id": "9edd3d9f25c2332985bc9405e34d3fa0", "rental_uris": {"ios": "https://dc.lft.to/lastmile_qr_scan", "android": "https://dc.lft.to/lastmile_qr_scan"}}, {"name": "bea285b7de136cfc86d959f9b57817d0", "type": "electric_bike", "lat": 38.846078166666665, "is_reserved": 0, "lon": -76.968888, "fusion_lon": 0.0, "is_disabled": 0, "fusion_lat": 0.0, "bike_id": "bea285b7de136cfc86d959f9b57817d0", "rental_uris": {"ios": "https://dc.lft.to/lastmile_qr_scan", "android": "https://dc.lft.to/lastmile_qr_scan"}}, {"name": "440f1571e4ce00bdd12b0f1ded520ddd", "type": "electric_scooter", "lat": 38.924834833333335, "is_reserved": 0, "lon": -77.05215666666666, "fusion_lon": 0.0, "is_disabled": 0, "fusion_lat": 0.0, "bike_id": "440f1571e4ce00bdd12b0f1ded520ddd", "rental_uris": {"ios": "https://dc.lft.to/lastmile_qr_scan", "android": "https://dc.lft.to/lastmile_qr_scan"}}, {"name": "ab85b70e4703a6fad0fd1b2717504a69", "type": "electric_scooter", "lat": 38.88499483333333, "is_reserved": 0, "lon": -76.99842066666666, "fusion_lon": 0.0, "is_disabled": 0, "fusion_lat": 0.0, "bike_id": "ab85b70e4703a6fad0fd1b2717504a69", "rental_uris": {"ios": "https://dc.lft.to/lastmile_qr_scan", "android": "https://dc.lft.to/lastmile_qr_scan"}}, {"name": "5e135a63088e42c7d186570d1dd00542", "type": "electric_bike", "lat": 39.058114333333336, "is_reserved": 0, "lon": -77.12626216666666, "fusion_lon": 0.0, "is_disabled": 0, "fusion_lat": 0.0, "bike_id": "5e135a63088e42c7d186570d1dd00542", "rental_uris": {"ios": "https://dc.lft.to/lastmile_qr_scan", "android": "https://dc.lft.to/lastmile_qr_scan"}}, {"name": "764e0ffaa583f23282eff077c4274fb8", "type": "electric_scooter", "lat": 38.89917283333333, "is_reserved": 0, "lon": -77.015437, "fusion_lon": 0.0, "is_disabled": 0, "fusion_lat": 0.0, "bike_id": "764e0ffaa583f23282eff077c4274fb8", "rental_uris": {"ios": "https://dc.lft.to/lastmile_qr_scan", "android": "https://dc.lft.to/lastmile_qr_scan"}}, {"name": "ed02216334eb89e971e2de590d5abd4c", "type": "electric_scooter", "lat": 38.941824833333335, "is_reserved": 0, "lon": -77.03027, "fusion_lon": 0.0, "is_disabled": 0, "fusion_lat": 0.0, "bike_id": "ed02216334eb89e971e2de590d5abd4c", "rental_uris": {"ios": "https://dc.lft.to/lastmile_qr_scan", "android": "https://dc.lft.to/lastmile_qr_scan"}}, {"name": "e976942927fcedbc04d57a303bae9f6f", "type": "electric_scooter", "lat": 38.902723333333334, "is_reserved": 0, "lon": -77.03169366666667, "fusion_lon": 0.0, "is_disabled": 0, "fusion_lat": 0.0, "bike_id": "e976942927fcedbc04d57a303bae9f6f", "rental_uris": {"ios": "https://dc.lft.to/lastmile_qr_scan", "android": "https://dc.lft.to/lastmile_qr_scan"}}, {"name": "c7cbe0d836d311f6dd6564742074477e", "type": "electric_scooter", "lat": 38.919044, "is_reserved": 0, "lon": -77.0418095, "fusion_lon": 0.0, "is_disabled": 0, "fusion_lat": 0.0, "bike_id": "c7cbe0d836d311f6dd6564742074477e", "rental_uris": {"ios": "https://dc.lft.to/lastmile_qr_scan", "android": "https://dc.lft.to/lastmile_qr_scan"}}, {"name": "f727b98b12930eca3421ce081fb2b284", "type": "electric_scooter", "lat": 38.927582, "is_reserved": 0, "lon": -77.02422216666666, "fusion_lon": 0.0, "is_disabled": 0, "fusion_lat": 0.0, "bike_id": "f727b98b12930eca3421ce081fb2b284", "rental_uris": {"ios": "https://dc.lft.to/lastmile_qr_scan", "android": "https://dc.lft.to/lastmile_qr_scan"}}, {"name": "949cf833ea5e6d425e0cb4ada89851ae", "type": "electric_scooter", "lat": 38.917374, "is_reserved": 0, "lon": -77.01025933333334, "fusion_lon": 0.0, "is_disabled": 0, "fusion_lat": 0.0, "bike_id": "949cf833ea5e6d425e0cb4ada89851ae", "rental_uris": {"ios": "https://dc.lft.to/lastmile_qr_scan", "android": "https://dc.lft.to/lastmile_qr_scan"}}, {"name": "5c512b0b3eca7c74635f68cc3191be1a", "type": "electric_scooter", "lat": 38.9056545, "is_reserved": 0, "lon": -77.02811566666666, "fusion_lon": 0.0, "is_disabled": 0, "fusion_lat": 0.0, "bike_id": "5c512b0b3eca7c74635f68cc3191be1a", "rental_uris": {"ios": "https://dc.lft.to/lastmile_qr_scan", "android": "https://dc.lft.to/lastmile_qr_scan"}}, {"name": "9c40e1177d704a94b04b4db8d9125fa4", "type": "electric_scooter", "lat": 38.924495666666665, "is_reserved": 0, "lon": -76.99328666666666, "fusion_lon": 0.0, "is_disabled": 0, "fusion_lat": 0.0, "bike_id": "9c40e1177d704a94b04b4db8d9125fa4", "rental_uris": {"ios": "https://dc.lft.to/lastmile_qr_scan", "android": "https://dc.lft.to/lastmile_qr_scan"}}, {"name": "1ef56623a503d75b4e5d4834decb7819", "type": "electric_scooter", "lat": 38.91550216666667, "is_reserved": 0, "lon": -77.04615866666667, "fusion_lon": 0.0, "is_disabled": 0, "fusion_lat": 0.0, "bike_id": "1ef56623a503d75b4e5d4834decb7819", "rental_uris": {"ios": "https://dc.lft.to/lastmile_qr_scan", "android": "https://dc.lft.to/lastmile_qr_scan"}}, {"name": "503de47ce8d83dd704cfe07f0941ea15", "type": "electric_scooter", "lat": 38.90890666666667, "is_reserved": 0, "lon": -77.0056825, "fusion_lon": 0.0, "is_disabled": 0, "fusion_lat": 0.0, "bike_id": "503de47ce8d83dd704cfe07f0941ea15", "rental_uris": {"ios": "https://dc.lft.to/lastmile_qr_scan", "android": "https://dc.lft.to/lastmile_qr_scan"}}, {"name": "f99ef997c8a6f21282ce16796a38aeed", "type": "electric_scooter", "lat": 38.912678166666666, "is_reserved": 0, "lon": -77.033229, "fusion_lon": 0.0, "is_disabled": 0, "fusion_lat": 0.0, "bike_id": "f99ef997c8a6f21282ce16796a38aeed", "rental_uris": {"ios": "https://dc.lft.to/lastmile_qr_scan", "android": "https://dc.lft.to/lastmile_qr_scan"}}, {"name": "f266e76e0a457fb3b09f18e49f6e8108", "type": "electric_bike", "lat": 38.961272, "is_reserved": 0, "lon": -77.03270233333333, "fusion_lon": 0.0, "is_disabled": 0, "fusion_lat": 0.0, "bike_id": "f266e76e0a457fb3b09f18e49f6e8108", "rental_uris": {"ios": "https://dc.lft.to/lastmile_qr_scan", "android": "https://dc.lft.to/lastmile_qr_scan"}}, {"name": "2ad0d18a3eb09dfa656ccf4cb53a46f1", "type": "electric_scooter", "lat": 38.895098, "is_reserved": 0, "lon": -77.022894, "fusion_lon": 0.0, "is_disabled": 0, "fusion_lat": 0.0, "bike_id": "2ad0d18a3eb09dfa656ccf4cb53a46f1", "rental_uris": {"ios": "https://dc.lft.to/lastmile_qr_scan", "android": "https://dc.lft.to/lastmile_qr_scan"}}, {"name": "239e8e1962542f35ec64ba16f5ae2c6d", "type": "electric_scooter", "lat": 38.89877416666667, "is_reserved": 0, "lon": -76.931562, "fusion_lon": 0.0, "is_disabled": 0, "fusion_lat": 0.0, "bike_id": "239e8e1962542f35ec64ba16f5ae2c6d", "rental_uris": {"ios": "https://dc.lft.to/lastmile_qr_scan", "android": "https://dc.lft.to/lastmile_qr_scan"}}, {"name": "e761111bdc88b8e24320f1cfa2e73095", "type": "electric_scooter", "lat": 38.943988, "is_reserved": 0, "lon": -77.0389375, "fusion_lon": 0.0, "is_disabled": 0, "fusion_lat": 0.0, "bike_id": "e761111bdc88b8e24320f1cfa2e73095", "rental_uris": {"ios": "https://dc.lft.to/lastmile_qr_scan", "android": "https://dc.lft.to/lastmile_qr_scan"}}, {"name": "2e7a791267ddfaac0ddc76660a17f985", "type": "electric_scooter", "lat": 38.922451, "is_reserved": 0, "lon": -77.04129, "fusion_lon": 0.0, "is_disabled": 0, "fusion_lat": 0.0, "bike_id": "2e7a791267ddfaac0ddc76660a17f985", "rental_uris": {"ios": "https://dc.lft.to/lastmile_qr_scan", "android": "https://dc.lft.to/lastmile_qr_scan"}}, {"name": "193669324dc34d3bdf8287f89aed87c5", "type": "electric_scooter", "lat": 38.923261, "is_reserved": 0, "lon": -77.04487516666667, "fusion_lon": 0.0, "is_disabled": 0, "fusion_lat": 0.0, "bike_id": "193669324dc34d3bdf8287f89aed87c5", "rental_uris": {"ios": "https://dc.lft.to/lastmile_qr_scan", "android": "https://dc.lft.to/lastmile_qr_scan"}}, {"name": "405a4c5f7d8e4aab50e044cd5c7cbedd", "type": "electric_scooter", "lat": 38.8924535, "is_reserved": 0, "lon": -77.03192633333333, "fusion_lon": 0.0, "is_disabled": 0, "fusion_lat": 0.0, "bike_id": "405a4c5f7d8e4aab50e044cd5c7cbedd", "rental_uris": {"ios": "https://dc.lft.to/lastmile_qr_scan", "android": "https://dc.lft.to/lastmile_qr_scan"}}, {"name": "5dcf9ae612abf36f97493ade316f594b", "type": "electric_bike", "lat": 38.92042583333333, "is_reserved": 0, "lon": -77.03435166666667, "fusion_lon": 0.0, "is_disabled": 0, "fusion_lat": 0.0, "bike_id": "5dcf9ae612abf36f97493ade316f594b", "rental_uris": {"ios": "https://dc.lft.to/lastmile_qr_scan", "android": "https://dc.lft.to/lastmile_qr_scan"}}, {"name": "637028fae07bac1f95a99e34a47ee983", "type": "electric_scooter", "lat": 38.9089395, "is_reserved": 0, "lon": -77.08667533333333, "fusion_lon": 0.0, "is_disabled": 0, "fusion_lat": 0.0, "bike_id": "637028fae07bac1f95a99e34a47ee983", "rental_uris": {"ios": "https://dc.lft.to/lastmile_qr_scan", "android": "https://dc.lft.to/lastmile_qr_scan"}}, {"name": "eb117d267e448028a950f0f809a88726", "type": "electric_bike", "lat": 38.879779666666664, "is_reserved": 0, "lon": -76.91601883333334, "fusion_lon": 0.0, "is_disabled": 0, "fusion_lat": 0.0, "bike_id": "eb117d267e448028a950f0f809a88726", "rental_uris": {"ios": "https://dc.lft.to/lastmile_qr_scan", "android": "https://dc.lft.to/lastmile_qr_scan"}}, {"name": "c46504239a1cfc3078b8a37d2f9cd122", "type": "electric_scooter", "lat": 38.917132, "is_reserved": 0, "lon": -77.02322633333333, "fusion_lon": 0.0, "is_disabled": 0, "fusion_lat": 0.0, "bike_id": "c46504239a1cfc3078b8a37d2f9cd122", "rental_uris": {"ios": "https://dc.lft.to/lastmile_qr_scan", "android": "https://dc.lft.to/lastmile_qr_scan"}}, {"name": "df4596a2af8e26a0486d05354f04b5b1", "type": "electric_scooter", "lat": 38.903892166666665, "is_reserved": 0, "lon": -77.01644133333333, "fusion_lon": 0.0, "is_disabled": 0, "fusion_lat": 0.0, "bike_id": "df4596a2af8e26a0486d05354f04b5b1", "rental_uris": {"ios": "https://dc.lft.to/lastmile_qr_scan", "android": "https://dc.lft.to/lastmile_qr_scan"}}, {"name": "d00e539919109f86d7233c8ee5344902", "type": "electric_bike", "lat": 38.82448566666667, "is_reserved": 0, "lon": -77.070466, "fusion_lon": 0.0, "is_disabled": 0, "fusion_lat": 0.0, "bike_id": "d00e539919109f86d7233c8ee5344902", "rental_uris": {"ios": "https://dc.lft.to/lastmile_qr_scan", "android": "https://dc.lft.to/lastmile_qr_scan"}}, {"name": "4a3b4504a0a26b900f88a58b2ef445bf", "type": "electric_bike", "lat": 38.918572833333336, "is_reserved": 0, "lon": -76.960931, "fusion_lon": 0.0, "is_disabled": 0, "fusion_lat": 0.0, "bike_id": "4a3b4504a0a26b900f88a58b2ef445bf", "rental_uris": {"ios": "https://dc.lft.to/lastmile_qr_scan", "android": "https://dc.lft.to/lastmile_qr_scan"}}, {"name": "0d82f0799f42b5ecefdade5ba8a47579", "type": "electric_scooter", "lat": 38.899222333333334, "is_reserved": 0, "lon": -76.93382716666666, "fusion_lon": 0.0, "is_disabled": 0, "fusion_lat": 0.0, "bike_id": "0d82f0799f42b5ecefdade5ba8a47579", "rental_uris": {"ios": "https://dc.lft.to/lastmile_qr_scan", "android": "https://dc.lft.to/lastmile_qr_scan"}}, {"name": "e320c585a6dbc1c3c21f361516618493", "type": "electric_bike", "lat": 38.90668483333334, "is_reserved": 0, "lon": -76.99967983333333, "fusion_lon": 0.0, "is_disabled": 0, "fusion_lat": 0.0, "bike_id": "e320c585a6dbc1c3c21f361516618493", "rental_uris": {"ios": "https://dc.lft.to/lastmile_qr_scan", "android": "https://dc.lft.to/lastmile_qr_scan"}}, {"name": "76440059ae76acf4f7674f4708b88ec1", "type": "electric_scooter", "lat": 38.9287075, "is_reserved": 0, "lon": -77.03478566666666, "fusion_lon": 0.0, "is_disabled": 0, "fusion_lat": 0.0, "bike_id": "76440059ae76acf4f7674f4708b88ec1", "rental_uris": {"ios": "https://dc.lft.to/lastmile_qr_scan", "android": "https://dc.lft.to/lastmile_qr_scan"}}, {"name": "ec974cd039093bba747dcbea13921879", "type": "electric_scooter", "lat": 38.9227805, "is_reserved": 0, "lon": -77.0365975, "fusion_lon": 0.0, "is_disabled": 0, "fusion_lat": 0.0, "bike_id": "ec974cd039093bba747dcbea13921879", "rental_uris": {"ios": "https://dc.lft.to/lastmile_qr_scan", "android": "https://dc.lft.to/lastmile_qr_scan"}}, {"name": "847e51b3a8b2644c3be33eb5b0f10c88", "type": "electric_scooter", "lat": 38.902671833333336, "is_reserved": 0, "lon": -77.05402083333334, "fusion_lon": 0.0, "is_disabled": 0, "fusion_lat": 0.0, "bike_id": "847e51b3a8b2644c3be33eb5b0f10c88", "rental_uris": {"ios": "https://dc.lft.to/lastmile_qr_scan", "android": "https://dc.lft.to/lastmile_qr_scan"}}, {"name": "ea7aabd1366fcf73a145e361b88d60ad", "type": "electric_scooter", "lat": 38.894832, "is_reserved": 0, "lon": -76.99537433333333, "fusion_lon": 0.0, "is_disabled": 0, "fusion_lat": 0.0, "bike_id": "ea7aabd1366fcf73a145e361b88d60ad", "rental_uris": {"ios": "https://dc.lft.to/lastmile_qr_scan", "android": "https://dc.lft.to/lastmile_qr_scan"}}, {"name": "73d7c3f7c208003f7fcd0850143d1193", "type": "electric_scooter", "lat": 38.885857, "is_reserved": 0, "lon": -77.01979, "fusion_lon": 0.0, "is_disabled": 0, "fusion_lat": 0.0, "bike_id": "73d7c3f7c208003f7fcd0850143d1193", "rental_uris": {"ios": "https://dc.lft.to/lastmile_qr_scan", "android": "https://dc.lft.to/lastmile_qr_scan"}}, {"name": "a26fffbffa947917dcd9bd299e05a99e", "type": "electric_scooter", "lat": 38.9229115, "is_reserved": 0, "lon": -77.04258216666666, "fusion_lon": 0.0, "is_disabled": 0, "fusion_lat": 0.0, "bike_id": "a26fffbffa947917dcd9bd299e05a99e", "rental_uris": {"ios": "https://dc.lft.to/lastmile_qr_scan", "android": "https://dc.lft.to/lastmile_qr_scan"}}, {"name": "e6c6577520388f4b9c04577a985fbc70", "type": "electric_scooter", "lat": 38.91730733333333, "is_reserved": 0, "lon": -77.0230465, "fusion_lon": 0.0, "is_disabled": 0, "fusion_lat": 0.0, "bike_id": "e6c6577520388f4b9c04577a985fbc70", "rental_uris": {"ios": "https://dc.lft.to/lastmile_qr_scan", "android": "https://dc.lft.to/lastmile_qr_scan"}}, {"name": "44fe12c9498c66b664b6e5420628950b", "type": "electric_scooter", "lat": 38.879144833333335, "is_reserved": 0, "lon": -77.01735566666666, "fusion_lon": 0.0, "is_disabled": 0, "fusion_lat": 0.0, "bike_id": "44fe12c9498c66b664b6e5420628950b", "rental_uris": {"ios": "https://dc.lft.to/lastmile_qr_scan", "android": "https://dc.lft.to/lastmile_qr_scan"}}, {"name": "8b6117c1a99e34accb40abf5d89b820c", "type": "electric_scooter", "lat": 38.900346166666665, "is_reserved": 0, "lon": -77.00198716666667, "fusion_lon": 0.0, "is_disabled": 0, "fusion_lat": 0.0, "bike_id": "8b6117c1a99e34accb40abf5d89b820c", "rental_uris": {"ios": "https://dc.lft.to/lastmile_qr_scan", "android": "https://dc.lft.to/lastmile_qr_scan"}}, {"name": "b6a9bae267a0a94bb5154062848d3513", "type": "electric_scooter", "lat": 38.8984125, "is_reserved": 0, "lon": -77.0330695, "fusion_lon": 0.0, "is_disabled": 0, "fusion_lat": 0.0, "bike_id": "b6a9bae267a0a94bb5154062848d3513", "rental_uris": {"ios": "https://dc.lft.to/lastmile_qr_scan", "android": "https://dc.lft.to/lastmile_qr_scan"}}, {"name": "ab64c4f0f37be3cb7f304d1d2121ce7e", "type": "electric_scooter", "lat": 38.893450333333334, "is_reserved": 0, "lon": -76.9914765, "fusion_lon": 0.0, "is_disabled": 0, "fusion_lat": 0.0, "bike_id": "ab64c4f0f37be3cb7f304d1d2121ce7e", "rental_uris": {"ios": "https://dc.lft.to/lastmile_qr_scan", "android": "https://dc.lft.to/lastmile_qr_scan"}}, {"name": "91da3d07b3b239fcb56efc332def7921", "type": "electric_scooter", "lat": 38.90374716666667, "is_reserved": 0, "lon": -77.03873283333333, "fusion_lon": 0.0, "is_disabled": 0, "fusion_lat": 0.0, "bike_id": "91da3d07b3b239fcb56efc332def7921", "rental_uris": {"ios": "https://dc.lft.to/lastmile_qr_scan", "android": "https://dc.lft.to/lastmile_qr_scan"}}, {"name": "d8358ae922b3b04f5577cbd53513b5cd", "type": "electric_scooter", "lat": 38.92469583333333, "is_reserved": 0, "lon": -77.02833833333334, "fusion_lon": 0.0, "is_disabled": 0, "fusion_lat": 0.0, "bike_id": "d8358ae922b3b04f5577cbd53513b5cd", "rental_uris": {"ios": "https://dc.lft.to/lastmile_qr_scan", "android": "https://dc.lft.to/lastmile_qr_scan"}}, {"name": "ae2e491282b56a37bc289349b335e9d9", "type": "electric_scooter", "lat": 38.89232883333333, "is_reserved": 0, "lon": -77.05, "fusion_lon": 0.0, "is_disabled": 0, "fusion_lat": 0.0, "bike_id": "ae2e491282b56a37bc289349b335e9d9", "rental_uris": {"ios": "https://dc.lft.to/lastmile_qr_scan", "android": "https://dc.lft.to/lastmile_qr_scan"}}, {"name": "c9185a87451826cfff327aea9a98687c", "type": "electric_scooter", "lat": 38.9125515, "is_reserved": 0, "lon": -77.00957133333333, "fusion_lon": 0.0, "is_disabled": 0, "fusion_lat": 0.0, "bike_id": "c9185a87451826cfff327aea9a98687c", "rental_uris": {"ios": "https://dc.lft.to/lastmile_qr_scan", "android": "https://dc.lft.to/lastmile_qr_scan"}}, {"name": "34be9a2041e0a18be416bde068f39911", "type": "electric_scooter", "lat": 38.925945, "is_reserved": 0, "lon": -77.00478833333334, "fusion_lon": 0.0, "is_disabled": 0, "fusion_lat": 0.0, "bike_id": "34be9a2041e0a18be416bde068f39911", "rental_uris": {"ios": "https://dc.lft.to/lastmile_qr_scan", "android": "https://dc.lft.to/lastmile_qr_scan"}}, {"name": "a62ff3d40b83e94224e2c8690463ef72", "type": "electric_scooter", "lat": 38.93530333333333, "is_reserved": 0, "lon": -77.02853416666666, "fusion_lon": 0.0, "is_disabled": 0, "fusion_lat": 0.0, "bike_id": "a62ff3d40b83e94224e2c8690463ef72", "rental_uris": {"ios": "https://dc.lft.to/lastmile_qr_scan", "android": "https://dc.lft.to/lastmile_qr_scan"}}, {"name": "adde85efcc175ee9d0d09d1faecb63cf", "type": "electric_scooter", "lat": 38.8836045, "is_reserved": 0, "lon": -77.031718, "fusion_lon": 0.0, "is_disabled": 0, "fusion_lat": 0.0, "bike_id": "adde85efcc175ee9d0d09d1faecb63cf", "rental_uris": {"ios": "https://dc.lft.to/lastmile_qr_scan", "android": "https://dc.lft.to/lastmile_qr_scan"}}, {"name": "237e3ebef0292fb92d185fac65916bdc", "type": "electric_scooter", "lat": 38.9076305, "is_reserved": 0, "lon": -77.00095916666666, "fusion_lon": 0.0, "is_disabled": 0, "fusion_lat": 0.0, "bike_id": "237e3ebef0292fb92d185fac65916bdc", "rental_uris": {"ios": "https://dc.lft.to/lastmile_qr_scan", "android": "https://dc.lft.to/lastmile_qr_scan"}}, {"name": "1d077524aafa3117b1c07c6b09406396", "type": "electric_scooter", "lat": 38.8923465, "is_reserved": 0, "lon": -77.028032, "fusion_lon": 0.0, "is_disabled": 0, "fusion_lat": 0.0, "bike_id": "1d077524aafa3117b1c07c6b09406396", "rental_uris": {"ios": "https://dc.lft.to/lastmile_qr_scan", "android": "https://dc.lft.to/lastmile_qr_scan"}}, {"name": "ad784f3f3843586ab45d29e19a4dfa8c", "type": "electric_scooter", "lat": 38.931531666666665, "is_reserved": 0, "lon": -77.038928, "fusion_lon": 0.0, "is_disabled": 0, "fusion_lat": 0.0, "bike_id": "ad784f3f3843586ab45d29e19a4dfa8c", "rental_uris": {"ios": "https://dc.lft.to/lastmile_qr_scan", "android": "https://dc.lft.to/lastmile_qr_scan"}}, {"name": "a6f8b1abdd84b1237a690170b417ba4c", "type": "electric_scooter", "lat": 38.90709233333333, "is_reserved": 0, "lon": -77.075693, "fusion_lon": 0.0, "is_disabled": 0, "fusion_lat": 0.0, "bike_id": "a6f8b1abdd84b1237a690170b417ba4c", "rental_uris": {"ios": "https://dc.lft.to/lastmile_qr_scan", "android": "https://dc.lft.to/lastmile_qr_scan"}}, {"name": "95f91131f347cf51d873c531356c4d26", "type": "electric_scooter", "lat": 38.89832883333333, "is_reserved": 0, "lon": -76.94635566666666, "fusion_lon": 0.0, "is_disabled": 0, "fusion_lat": 0.0, "bike_id": "95f91131f347cf51d873c531356c4d26", "rental_uris": {"ios": "https://dc.lft.to/lastmile_qr_scan", "android": "https://dc.lft.to/lastmile_qr_scan"}}, {"name": "dfa7f8ff14c14222c7def8b722b35157", "type": "electric_scooter", "lat": 38.89224266666667, "is_reserved": 0, "lon": -77.0433005, "fusion_lon": 0.0, "is_disabled": 0, "fusion_lat": 0.0, "bike_id": "dfa7f8ff14c14222c7def8b722b35157", "rental_uris": {"ios": "https://dc.lft.to/lastmile_qr_scan", "android": "https://dc.lft.to/lastmile_qr_scan"}}, {"name": "3c9ba773fb6941d55e10e3acd014e22f", "type": "electric_bike", "lat": 38.8906775, "is_reserved": 0, "lon": -77.079001, "fusion_lon": 0.0, "is_disabled": 0, "fusion_lat": 0.0, "bike_id": "3c9ba773fb6941d55e10e3acd014e22f", "rental_uris": {"ios": "https://dc.lft.to/lastmile_qr_scan", "android": "https://dc.lft.to/lastmile_qr_scan"}}, {"name": "6b88aa322b6d2f873192bb484ab9e452", "type": "electric_scooter", "lat": 38.902635333333336, "is_reserved": 0, "lon": -77.01726966666666, "fusion_lon": 0.0, "is_disabled": 0, "fusion_lat": 0.0, "bike_id": "6b88aa322b6d2f873192bb484ab9e452", "rental_uris": {"ios": "https://dc.lft.to/lastmile_qr_scan", "android": "https://dc.lft.to/lastmile_qr_scan"}}, {"name": "65df138423e2185755582dcff08203c7", "type": "electric_scooter", "lat": 38.90649666666667, "is_reserved": 0, "lon": -77.03853683333334, "fusion_lon": 0.0, "is_disabled": 0, "fusion_lat": 0.0, "bike_id": "65df138423e2185755582dcff08203c7", "rental_uris": {"ios": "https://dc.lft.to/lastmile_qr_scan", "android": "https://dc.lft.to/lastmile_qr_scan"}}, {"name": "9ea23968c09bdcf532eb00691b78eb0b", "type": "electric_scooter", "lat": 38.863535166666665, "is_reserved": 0, "lon": -76.9907255, "fusion_lon": 0.0, "is_disabled": 0, "fusion_lat": 0.0, "bike_id": "9ea23968c09bdcf532eb00691b78eb0b", "rental_uris": {"ios": "https://dc.lft.to/lastmile_qr_scan", "android": "https://dc.lft.to/lastmile_qr_scan"}}, {"name": "702d86ec747698f15683debabe4e6ad2", "type": "electric_scooter", "lat": 38.892190166666666, "is_reserved": 0, "lon": -77.04868716666667, "fusion_lon": 0.0, "is_disabled": 0, "fusion_lat": 0.0, "bike_id": "702d86ec747698f15683debabe4e6ad2", "rental_uris": {"ios": "https://dc.lft.to/lastmile_qr_scan", "android": "https://dc.lft.to/lastmile_qr_scan"}}, {"name": "e69f333550ab7be9f5aec131e7199c36", "type": "electric_scooter", "lat": 38.92374516666667, "is_reserved": 0, "lon": -77.03130833333333, "fusion_lon": 0.0, "is_disabled": 0, "fusion_lat": 0.0, "bike_id": "e69f333550ab7be9f5aec131e7199c36", "rental_uris": {"ios": "https://dc.lft.to/lastmile_qr_scan", "android": "https://dc.lft.to/lastmile_qr_scan"}}, {"name": "5691e1ec604b33636c421ef51b25a29d", "type": "electric_scooter", "lat": 38.89217216666667, "is_reserved": 0, "lon": -77.032098, "fusion_lon": 0.0, "is_disabled": 0, "fusion_lat": 0.0, "bike_id": "5691e1ec604b33636c421ef51b25a29d", "rental_uris": {"ios": "https://dc.lft.to/lastmile_qr_scan", "android": "https://dc.lft.to/lastmile_qr_scan"}}, {"name": "b9bd235d0f2d8398ed1029ad9215c54d", "type": "electric_scooter", "lat": 38.90240166666667, "is_reserved": 0, "lon": -77.01769833333333, "fusion_lon": 0.0, "is_disabled": 0, "fusion_lat": 0.0, "bike_id": "b9bd235d0f2d8398ed1029ad9215c54d", "rental_uris": {"ios": "https://dc.lft.to/lastmile_qr_scan", "android": "https://dc.lft.to/lastmile_qr_scan"}}, {"name": "3886dafd09ec038393cd3c2d7672c28d", "type": "electric_scooter", "lat": 38.9003925, "is_reserved": 0, "lon": -76.99802533333333, "fusion_lon": 0.0, "is_disabled": 0, "fusion_lat": 0.0, "bike_id": "3886dafd09ec038393cd3c2d7672c28d", "rental_uris": {"ios": "https://dc.lft.to/lastmile_qr_scan", "android": "https://dc.lft.to/lastmile_qr_scan"}}, {"name": "dbcc8179d462d07b04614b31467bc5fe", "type": "electric_scooter", "lat": 38.901204666666665, "is_reserved": 0, "lon": -77.05001216666666, "fusion_lon": 0.0, "is_disabled": 0, "fusion_lat": 0.0, "bike_id": "dbcc8179d462d07b04614b31467bc5fe", "rental_uris": {"ios": "https://dc.lft.to/lastmile_qr_scan", "android": "https://dc.lft.to/lastmile_qr_scan"}}, {"name": "ab52b050fafdecf8d5217639c4d23dc2", "type": "electric_scooter", "lat": 38.9133075, "is_reserved": 0, "lon": -77.0483845, "fusion_lon": 0.0, "is_disabled": 0, "fusion_lat": 0.0, "bike_id": "ab52b050fafdecf8d5217639c4d23dc2", "rental_uris": {"ios": "https://dc.lft.to/lastmile_qr_scan", "android": "https://dc.lft.to/lastmile_qr_scan"}}, {"name": "b4d90c5ef26a3e9a523387c150335bdd", "type": "electric_scooter", "lat": 38.87835966666667, "is_reserved": 0, "lon": -76.9884045, "fusion_lon": 0.0, "is_disabled": 0, "fusion_lat": 0.0, "bike_id": "b4d90c5ef26a3e9a523387c150335bdd", "rental_uris": {"ios": "https://dc.lft.to/lastmile_qr_scan", "android": "https://dc.lft.to/lastmile_qr_scan"}}, {"name": "6edff3e5befbb24a1dd690427cf9d1ab", "type": "electric_bike", "lat": 38.876565666666664, "is_reserved": 0, "lon": -77.01462, "fusion_lon": 0.0, "is_disabled": 0, "fusion_lat": 0.0, "bike_id": "6edff3e5befbb24a1dd690427cf9d1ab", "rental_uris": {"ios": "https://dc.lft.to/lastmile_qr_scan", "android": "https://dc.lft.to/lastmile_qr_scan"}}, {"name": "ca7018ab0b626912c6cca9538c08f241", "type": "electric_bike", "lat": 38.93579883333334, "is_reserved": 0, "lon": -77.02117716666666, "fusion_lon": 0.0, "is_disabled": 0, "fusion_lat": 0.0, "bike_id": "ca7018ab0b626912c6cca9538c08f241", "rental_uris": {"ios": "https://dc.lft.to/lastmile_qr_scan", "android": "https://dc.lft.to/lastmile_qr_scan"}}, {"name": "7b685a759cc100f86e04a5b9ef448823", "type": "electric_scooter", "lat": 38.920364666666664, "is_reserved": 0, "lon": -77.04170566666667, "fusion_lon": 0.0, "is_disabled": 0, "fusion_lat": 0.0, "bike_id": "7b685a759cc100f86e04a5b9ef448823", "rental_uris": {"ios": "https://dc.lft.to/lastmile_qr_scan", "android": "https://dc.lft.to/lastmile_qr_scan"}}, {"name": "b60748c7dbdf0bf48bcb49dbad4560ee", "type": "electric_scooter", "lat": 38.88050466666667, "is_reserved": 0, "lon": -77.013302, "fusion_lon": 0.0, "is_disabled": 0, "fusion_lat": 0.0, "bike_id": "b60748c7dbdf0bf48bcb49dbad4560ee", "rental_uris": {"ios": "https://dc.lft.to/lastmile_qr_scan", "android": "https://dc.lft.to/lastmile_qr_scan"}}, {"name": "d173c2f398b095f5e71b11ff32d0ec49", "type": "electric_scooter", "lat": 38.89523066666667, "is_reserved": 0, "lon": -76.99139533333333, "fusion_lon": 0.0, "is_disabled": 0, "fusion_lat": 0.0, "bike_id": "d173c2f398b095f5e71b11ff32d0ec49", "rental_uris": {"ios": "https://dc.lft.to/lastmile_qr_scan", "android": "https://dc.lft.to/lastmile_qr_scan"}}, {"name": "609ed2c7d1c70dcc99e79b4d144bfedf", "type": "electric_scooter", "lat": 38.898883, "is_reserved": 0, "lon": -76.931738, "fusion_lon": 0.0, "is_disabled": 0, "fusion_lat": 0.0, "bike_id": "609ed2c7d1c70dcc99e79b4d144bfedf", "rental_uris": {"ios": "https://dc.lft.to/lastmile_qr_scan", "android": "https://dc.lft.to/lastmile_qr_scan"}}, {"name": "8c7abf0179c1cab66c97059f5b663f02", "type": "electric_scooter", "lat": 38.942041333333336, "is_reserved": 0, "lon": -77.03586133333333, "fusion_lon": 0.0, "is_disabled": 0, "fusion_lat": 0.0, "bike_id": "8c7abf0179c1cab66c97059f5b663f02", "rental_uris": {"ios": "https://dc.lft.to/lastmile_qr_scan", "android": "https://dc.lft.to/lastmile_qr_scan"}}, {"name": "64cac2764fbc424b51e85019c094eccf", "type": "electric_scooter", "lat": 38.92123016666667, "is_reserved": 0, "lon": -77.036619, "fusion_lon": 0.0, "is_disabled": 0, "fusion_lat": 0.0, "bike_id": "64cac2764fbc424b51e85019c094eccf", "rental_uris": {"ios": "https://dc.lft.to/lastmile_qr_scan", "android": "https://dc.lft.to/lastmile_qr_scan"}}, {"name": "684cc1085433f824bca3e8418459a6be", "type": "electric_scooter", "lat": 38.9036615, "is_reserved": 0, "lon": -77.04001683333334, "fusion_lon": 0.0, "is_disabled": 0, "fusion_lat": 0.0, "bike_id": "684cc1085433f824bca3e8418459a6be", "rental_uris": {"ios": "https://dc.lft.to/lastmile_qr_scan", "android": "https://dc.lft.to/lastmile_qr_scan"}}, {"name": "5c39b86cd0b71eb257f01a9bc5a4666d", "type": "electric_scooter", "lat": 38.906119333333336, "is_reserved": 0, "lon": -77.0128585, "fusion_lon": 0.0, "is_disabled": 0, "fusion_lat": 0.0, "bike_id": "5c39b86cd0b71eb257f01a9bc5a4666d", "rental_uris": {"ios": "https://dc.lft.to/lastmile_qr_scan", "android": "https://dc.lft.to/lastmile_qr_scan"}}, {"name": "582dee54398ba45db1eaa0a43d4000dc", "type": "electric_scooter", "lat": 38.897364, "is_reserved": 0, "lon": -77.01319233333334, "fusion_lon": 0.0, "is_disabled": 0, "fusion_lat": 0.0, "bike_id": "582dee54398ba45db1eaa0a43d4000dc", "rental_uris": {"ios": "https://dc.lft.to/lastmile_qr_scan", "android": "https://dc.lft.to/lastmile_qr_scan"}}, {"name": "4709429fdb43e8960bb39ad63d0b900c", "type": "electric_scooter", "lat": 38.91475066666667, "is_reserved": 0, "lon": -77.03210366666667, "fusion_lon": 0.0, "is_disabled": 0, "fusion_lat": 0.0, "bike_id": "4709429fdb43e8960bb39ad63d0b900c", "rental_uris": {"ios": "https://dc.lft.to/lastmile_qr_scan", "android": "https://dc.lft.to/lastmile_qr_scan"}}, {"name": "091e808ba68fb8359c02ebda34b66381", "type": "electric_scooter", "lat": 38.91342133333333, "is_reserved": 0, "lon": -77.03121433333334, "fusion_lon": 0.0, "is_disabled": 0, "fusion_lat": 0.0, "bike_id": "091e808ba68fb8359c02ebda34b66381", "rental_uris": {"ios": "https://dc.lft.to/lastmile_qr_scan", "android": "https://dc.lft.to/lastmile_qr_scan"}}, {"name": "e1b1d059f97ebcc037160e6d48c54fea", "type": "electric_scooter", "lat": 38.9095435, "is_reserved": 0, "lon": -76.98538966666666, "fusion_lon": 0.0, "is_disabled": 0, "fusion_lat": 0.0, "bike_id": "e1b1d059f97ebcc037160e6d48c54fea", "rental_uris": {"ios": "https://dc.lft.to/lastmile_qr_scan", "android": "https://dc.lft.to/lastmile_qr_scan"}}, {"name": "31d56e9c6646718cc6378e66d693eb09", "type": "electric_scooter", "lat": 38.884139166666664, "is_reserved": 0, "lon": -76.97603783333334, "fusion_lon": 0.0, "is_disabled": 0, "fusion_lat": 0.0, "bike_id": "31d56e9c6646718cc6378e66d693eb09", "rental_uris": {"ios": "https://dc.lft.to/lastmile_qr_scan", "android": "https://dc.lft.to/lastmile_qr_scan"}}, {"name": "63684dd6d18e89eb03c2af7a458c5e9a", "type": "electric_scooter", "lat": 38.9032345, "is_reserved": 0, "lon": -77.03848233333333, "fusion_lon": 0.0, "is_disabled": 0, "fusion_lat": 0.0, "bike_id": "63684dd6d18e89eb03c2af7a458c5e9a", "rental_uris": {"ios": "https://dc.lft.to/lastmile_qr_scan", "android": "https://dc.lft.to/lastmile_qr_scan"}}, {"name": "2b3cdebf770e0e180a5aed43f82defae", "type": "electric_scooter", "lat": 38.90064383333333, "is_reserved": 0, "lon": -77.0507445, "fusion_lon": 0.0, "is_disabled": 0, "fusion_lat": 0.0, "bike_id": "2b3cdebf770e0e180a5aed43f82defae", "rental_uris": {"ios": "https://dc.lft.to/lastmile_qr_scan", "android": "https://dc.lft.to/lastmile_qr_scan"}}, {"name": "9c34a38cd5bc5f459ab1daa63978efc9", "type": "electric_scooter", "lat": 38.92303916666667, "is_reserved": 0, "lon": -76.99391666666666, "fusion_lon": 0.0, "is_disabled": 0, "fusion_lat": 0.0, "bike_id": "9c34a38cd5bc5f459ab1daa63978efc9", "rental_uris": {"ios": "https://dc.lft.to/lastmile_qr_scan", "android": "https://dc.lft.to/lastmile_qr_scan"}}, {"name": "b181f188882f2e6d3839eaa2b2f7cbb7", "type": "electric_scooter", "lat": 38.92020983333333, "is_reserved": 0, "lon": -77.02575983333334, "fusion_lon": 0.0, "is_disabled": 0, "fusion_lat": 0.0, "bike_id": "b181f188882f2e6d3839eaa2b2f7cbb7", "rental_uris": {"ios": "https://dc.lft.to/lastmile_qr_scan", "android": "https://dc.lft.to/lastmile_qr_scan"}}, {"name": "f1eea5a14759663a26fea6ef11c777d5", "type": "electric_scooter", "lat": 38.9498555, "is_reserved": 0, "lon": -77.07929566666667, "fusion_lon": 0.0, "is_disabled": 0, "fusion_lat": 0.0, "bike_id": "f1eea5a14759663a26fea6ef11c777d5", "rental_uris": {"ios": "https://dc.lft.to/lastmile_qr_scan", "android": "https://dc.lft.to/lastmile_qr_scan"}}, {"name": "f0ef5e6b798b981a1462707b8ca45724", "type": "electric_scooter", "lat": 38.969846833333335, "is_reserved": 0, "lon": -77.02714933333333, "fusion_lon": 0.0, "is_disabled": 0, "fusion_lat": 0.0, "bike_id": "f0ef5e6b798b981a1462707b8ca45724", "rental_uris": {"ios": "https://dc.lft.to/lastmile_qr_scan", "android": "https://dc.lft.to/lastmile_qr_scan"}}, {"name": "9b5d4c8b11888c031e33a80af2c50d14", "type": "electric_scooter", "lat": 38.92002883333333, "is_reserved": 0, "lon": -77.0388515, "fusion_lon": 0.0, "is_disabled": 0, "fusion_lat": 0.0, "bike_id": "9b5d4c8b11888c031e33a80af2c50d14", "rental_uris": {"ios": "https://dc.lft.to/lastmile_qr_scan", "android": "https://dc.lft.to/lastmile_qr_scan"}}, {"name": "de8960098197eb4509bec73b4947e764", "type": "electric_scooter", "lat": 38.876756666666665, "is_reserved": 0, "lon": -77.00061583333333, "fusion_lon": 0.0, "is_disabled": 0, "fusion_lat": 0.0, "bike_id": "de8960098197eb4509bec73b4947e764", "rental_uris": {"ios": "https://dc.lft.to/lastmile_qr_scan", "android": "https://dc.lft.to/lastmile_qr_scan"}}, {"name": "75ccc52a75c7a9a4c99cc973c7d41e80", "type": "electric_scooter", "lat": 38.8429005, "is_reserved": 0, "lon": -76.9995, "fusion_lon": 0.0, "is_disabled": 0, "fusion_lat": 0.0, "bike_id": "75ccc52a75c7a9a4c99cc973c7d41e80", "rental_uris": {"ios": "https://dc.lft.to/lastmile_qr_scan", "android": "https://dc.lft.to/lastmile_qr_scan"}}, {"name": "cf1e5d8e269d45616c446dc2b43bf5a6", "type": "electric_bike", "lat": 38.965334666666664, "is_reserved": 0, "lon": -77.03518966666667, "fusion_lon": 0.0, "is_disabled": 0, "fusion_lat": 0.0, "bike_id": "cf1e5d8e269d45616c446dc2b43bf5a6", "rental_uris": {"ios": "https://dc.lft.to/lastmile_qr_scan", "android": "https://dc.lft.to/lastmile_qr_scan"}}, {"name": "4e4016c186ebfe4b3148927682670d18", "type": "electric_scooter", "lat": 38.86699683333333, "is_reserved": 0, "lon": -76.98708033333334, "fusion_lon": 0.0, "is_disabled": 0, "fusion_lat": 0.0, "bike_id": "4e4016c186ebfe4b3148927682670d18", "rental_uris": {"ios": "https://dc.lft.to/lastmile_qr_scan", "android": "https://dc.lft.to/lastmile_qr_scan"}}, {"name": "b8328dd29c7cddffb7059eb3c5b4984c", "type": "electric_bike", "lat": 38.955368166666666, "is_reserved": 0, "lon": -77.0229225, "fusion_lon": 0.0, "is_disabled": 0, "fusion_lat": 0.0, "bike_id": "b8328dd29c7cddffb7059eb3c5b4984c", "rental_uris": {"ios": "https://dc.lft.to/lastmile_qr_scan", "android": "https://dc.lft.to/lastmile_qr_scan"}}, {"name": "e2d99c7d6f4798619697bc97ad5d9170", "type": "electric_scooter", "lat": 38.90972816666667, "is_reserved": 0, "lon": -77.0171185, "fusion_lon": 0.0, "is_disabled": 0, "fusion_lat": 0.0, "bike_id": "e2d99c7d6f4798619697bc97ad5d9170", "rental_uris": {"ios": "https://dc.lft.to/lastmile_qr_scan", "android": "https://dc.lft.to/lastmile_qr_scan"}}, {"name": "0a9eddadc426120f8b502a0ebfd7db81", "type": "electric_scooter", "lat": 38.9058845, "is_reserved": 0, "lon": -77.065184, "fusion_lon": 0.0, "is_disabled": 0, "fusion_lat": 0.0, "bike_id": "0a9eddadc426120f8b502a0ebfd7db81", "rental_uris": {"ios": "https://dc.lft.to/lastmile_qr_scan", "android": "https://dc.lft.to/lastmile_qr_scan"}}, {"name": "40eabf56944279f8e8f972eb80146ba4", "type": "electric_scooter", "lat": 38.919714166666665, "is_reserved": 0, "lon": -77.00107666666666, "fusion_lon": 0.0, "is_disabled": 0, "fusion_lat": 0.0, "bike_id": "40eabf56944279f8e8f972eb80146ba4", "rental_uris": {"ios": "https://dc.lft.to/lastmile_qr_scan", "android": "https://dc.lft.to/lastmile_qr_scan"}}, {"name": "50de71ad2696c19e992122f53b7c6473", "type": "electric_scooter", "lat": 38.9234125, "is_reserved": 0, "lon": -77.019076, "fusion_lon": 0.0, "is_disabled": 0, "fusion_lat": 0.0, "bike_id": "50de71ad2696c19e992122f53b7c6473", "rental_uris": {"ios": "https://dc.lft.to/lastmile_qr_scan", "android": "https://dc.lft.to/lastmile_qr_scan"}}, {"name": "a0cb8a84f0892546a24ceda9df21bac6", "type": "electric_scooter", "lat": 38.90529433333333, "is_reserved": 0, "lon": -77.06384366666667, "fusion_lon": 0.0, "is_disabled": 0, "fusion_lat": 0.0, "bike_id": "a0cb8a84f0892546a24ceda9df21bac6", "rental_uris": {"ios": "https://dc.lft.to/lastmile_qr_scan", "android": "https://dc.lft.to/lastmile_qr_scan"}}, {"name": "1b156f885d9952f87b9dd5039d3bb987", "type": "electric_bike", "lat": 38.88838966666667, "is_reserved": 0, "lon": -76.993612, "fusion_lon": 0.0, "is_disabled": 0, "fusion_lat": 0.0, "bike_id": "1b156f885d9952f87b9dd5039d3bb987", "rental_uris": {"ios": "https://dc.lft.to/lastmile_qr_scan", "android": "https://dc.lft.to/lastmile_qr_scan"}}, {"name": "ce252f583c0058b1fe3a7195b4efb9ab", "type": "electric_scooter", "lat": 38.905555, "is_reserved": 0, "lon": -77.005654, "fusion_lon": 0.0, "is_disabled": 0, "fusion_lat": 0.0, "bike_id": "ce252f583c0058b1fe3a7195b4efb9ab", "rental_uris": {"ios": "https://dc.lft.to/lastmile_qr_scan", "android": "https://dc.lft.to/lastmile_qr_scan"}}, {"name": "ca9c25be0b2c584b11da9a6914fffc92", "type": "electric_scooter", "lat": 38.90972716666667, "is_reserved": 0, "lon": -77.01123366666667, "fusion_lon": 0.0, "is_disabled": 0, "fusion_lat": 0.0, "bike_id": "ca9c25be0b2c584b11da9a6914fffc92", "rental_uris": {"ios": "https://dc.lft.to/lastmile_qr_scan", "android": "https://dc.lft.to/lastmile_qr_scan"}}, {"name": "13d0d929347c05d502d2e2f748d680e9", "type": "electric_scooter", "lat": 38.90586833333333, "is_reserved": 0, "lon": -77.06514233333333, "fusion_lon": 0.0, "is_disabled": 0, "fusion_lat": 0.0, "bike_id": "13d0d929347c05d502d2e2f748d680e9", "rental_uris": {"ios": "https://dc.lft.to/lastmile_qr_scan", "android": "https://dc.lft.to/lastmile_qr_scan"}}, {"name": "0d5953560b018f4ff144112e47219b14", "type": "electric_scooter", "lat": 38.9185795, "is_reserved": 0, "lon": -76.96551383333333, "fusion_lon": 0.0, "is_disabled": 0, "fusion_lat": 0.0, "bike_id": "0d5953560b018f4ff144112e47219b14", "rental_uris": {"ios": "https://dc.lft.to/lastmile_qr_scan", "android": "https://dc.lft.to/lastmile_qr_scan"}}, {"name": "9593c5128a3296152bce7d9b27d26bb5", "type": "electric_scooter", "lat": 38.92059066666667, "is_reserved": 0, "lon": -77.02977633333333, "fusion_lon": 0.0, "is_disabled": 0, "fusion_lat": 0.0, "bike_id": "9593c5128a3296152bce7d9b27d26bb5", "rental_uris": {"ios": "https://dc.lft.to/lastmile_qr_scan", "android": "https://dc.lft.to/lastmile_qr_scan"}}, {"name": "93e7b9536a7162ce3882f7eda6c501d8", "type": "electric_scooter", "lat": 38.926325, "is_reserved": 0, "lon": -77.03504, "fusion_lon": 0.0, "is_disabled": 0, "fusion_lat": 0.0, "bike_id": "93e7b9536a7162ce3882f7eda6c501d8", "rental_uris": {"ios": "https://dc.lft.to/lastmile_qr_scan", "android": "https://dc.lft.to/lastmile_qr_scan"}}, {"name": "316aaeec94e45c0c3c09d73555b89266", "type": "electric_scooter", "lat": 38.925884333333336, "is_reserved": 0, "lon": -77.03916716666667, "fusion_lon": 0.0, "is_disabled": 0, "fusion_lat": 0.0, "bike_id": "316aaeec94e45c0c3c09d73555b89266", "rental_uris": {"ios": "https://dc.lft.to/lastmile_qr_scan", "android": "https://dc.lft.to/lastmile_qr_scan"}}, {"name": "0c8b92ee433a24eeff40ea5e0f36749f", "type": "electric_scooter", "lat": 38.920526333333335, "is_reserved": 0, "lon": -76.9987495, "fusion_lon": 0.0, "is_disabled": 0, "fusion_lat": 0.0, "bike_id": "0c8b92ee433a24eeff40ea5e0f36749f", "rental_uris": {"ios": "https://dc.lft.to/lastmile_qr_scan", "android": "https://dc.lft.to/lastmile_qr_scan"}}, {"name": "22a44df3e7fd280f5e066664dea4c59a", "type": "electric_scooter", "lat": 38.91351216666666, "is_reserved": 0, "lon": -77.01558883333334, "fusion_lon": 0.0, "is_disabled": 0, "fusion_lat": 0.0, "bike_id": "22a44df3e7fd280f5e066664dea4c59a", "rental_uris": {"ios": "https://dc.lft.to/lastmile_qr_scan", "android": "https://dc.lft.to/lastmile_qr_scan"}}, {"name": "4cbd97ca888ec16f2cdc174712777ed1", "type": "electric_scooter", "lat": 38.924547833333335, "is_reserved": 0, "lon": -77.00209633333333, "fusion_lon": 0.0, "is_disabled": 0, "fusion_lat": 0.0, "bike_id": "4cbd97ca888ec16f2cdc174712777ed1", "rental_uris": {"ios": "https://dc.lft.to/lastmile_qr_scan", "android": "https://dc.lft.to/lastmile_qr_scan"}}, {"name": "cab5f8c03d362dde35a9135ea18bcf67", "type": "electric_scooter", "lat": 38.900246833333334, "is_reserved": 0, "lon": -77.01191266666666, "fusion_lon": 0.0, "is_disabled": 0, "fusion_lat": 0.0, "bike_id": "cab5f8c03d362dde35a9135ea18bcf67", "rental_uris": {"ios": "https://dc.lft.to/lastmile_qr_scan", "android": "https://dc.lft.to/lastmile_qr_scan"}}, {"name": "cf33d6acb32c8b9560cabf7c67925849", "type": "electric_scooter", "lat": 38.911905833333336, "is_reserved": 0, "lon": -76.99622283333333, "fusion_lon": 0.0, "is_disabled": 0, "fusion_lat": 0.0, "bike_id": "cf33d6acb32c8b9560cabf7c67925849", "rental_uris": {"ios": "https://dc.lft.to/lastmile_qr_scan", "android": "https://dc.lft.to/lastmile_qr_scan"}}, {"name": "9ad2a5c28d9e0527089243704e1f75c7", "type": "electric_scooter", "lat": 38.94434966666667, "is_reserved": 0, "lon": -77.06353866666667, "fusion_lon": 0.0, "is_disabled": 0, "fusion_lat": 0.0, "bike_id": "9ad2a5c28d9e0527089243704e1f75c7", "rental_uris": {"ios": "https://dc.lft.to/lastmile_qr_scan", "android": "https://dc.lft.to/lastmile_qr_scan"}}, {"name": "b1b8809bf17f61dd0c7926483f378de6", "type": "electric_scooter", "lat": 38.89795933333333, "is_reserved": 0, "lon": -77.02990416666667, "fusion_lon": 0.0, "is_disabled": 0, "fusion_lat": 0.0, "bike_id": "b1b8809bf17f61dd0c7926483f378de6", "rental_uris": {"ios": "https://dc.lft.to/lastmile_qr_scan", "android": "https://dc.lft.to/lastmile_qr_scan"}}, {"name": "1b31afb4164f61f6637491fcbb36dcd2", "type": "electric_scooter", "lat": 38.89222733333333, "is_reserved": 0, "lon": -77.04263666666667, "fusion_lon": 0.0, "is_disabled": 0, "fusion_lat": 0.0, "bike_id": "1b31afb4164f61f6637491fcbb36dcd2", "rental_uris": {"ios": "https://dc.lft.to/lastmile_qr_scan", "android": "https://dc.lft.to/lastmile_qr_scan"}}, {"name": "451ab4dc00d2897e82a5ab6c256c44c3", "type": "electric_scooter", "lat": 38.9206655, "is_reserved": 0, "lon": -77.02918866666667, "fusion_lon": 0.0, "is_disabled": 0, "fusion_lat": 0.0, "bike_id": "451ab4dc00d2897e82a5ab6c256c44c3", "rental_uris": {"ios": "https://dc.lft.to/lastmile_qr_scan", "android": "https://dc.lft.to/lastmile_qr_scan"}}, {"name": "c6e80878affa2e2b523276c0d1f0e15b", "type": "electric_scooter", "lat": 38.88330533333333, "is_reserved": 0, "lon": -77.017404, "fusion_lon": 0.0, "is_disabled": 0, "fusion_lat": 0.0, "bike_id": "c6e80878affa2e2b523276c0d1f0e15b", "rental_uris": {"ios": "https://dc.lft.to/lastmile_qr_scan", "android": "https://dc.lft.to/lastmile_qr_scan"}}, {"name": "99eb3c726e7b5366c8c12a98ae887a1a", "type": "electric_bike", "lat": 38.8549415, "is_reserved": 0, "lon": -77.11521983333333, "fusion_lon": 0.0, "is_disabled": 0, "fusion_lat": 0.0, "bike_id": "99eb3c726e7b5366c8c12a98ae887a1a", "rental_uris": {"ios": "https://dc.lft.to/lastmile_qr_scan", "android": "https://dc.lft.to/lastmile_qr_scan"}}, {"name": "a08013829a6649fc265ce55db3cb37a6", "type": "electric_scooter", "lat": 38.961123666666666, "is_reserved": 0, "lon": -77.02815683333333, "fusion_lon": 0.0, "is_disabled": 0, "fusion_lat": 0.0, "bike_id": "a08013829a6649fc265ce55db3cb37a6", "rental_uris": {"ios": "https://dc.lft.to/lastmile_qr_scan", "android": "https://dc.lft.to/lastmile_qr_scan"}}, {"name": "65973aa5619a206bc6ca253e3f80a0ba", "type": "electric_scooter", "lat": 38.91712533333333, "is_reserved": 0, "lon": -77.0310505, "fusion_lon": 0.0, "is_disabled": 0, "fusion_lat": 0.0, "bike_id": "65973aa5619a206bc6ca253e3f80a0ba", "rental_uris": {"ios": "https://dc.lft.to/lastmile_qr_scan", "android": "https://dc.lft.to/lastmile_qr_scan"}}, {"name": "0257c0e3c6c69bbb2f41738b5b8770d4", "type": "electric_scooter", "lat": 38.907546333333336, "is_reserved": 0, "lon": -77.00122783333333, "fusion_lon": 0.0, "is_disabled": 0, "fusion_lat": 0.0, "bike_id": "0257c0e3c6c69bbb2f41738b5b8770d4", "rental_uris": {"ios": "https://dc.lft.to/lastmile_qr_scan", "android": "https://dc.lft.to/lastmile_qr_scan"}}, {"name": "31034af0297547e5b9c548a7761147d2", "type": "electric_scooter", "lat": 38.91938233333333, "is_reserved": 0, "lon": -77.01348183333333, "fusion_lon": 0.0, "is_disabled": 0, "fusion_lat": 0.0, "bike_id": "31034af0297547e5b9c548a7761147d2", "rental_uris": {"ios": "https://dc.lft.to/lastmile_qr_scan", "android": "https://dc.lft.to/lastmile_qr_scan"}}, {"name": "d1f84eb0c153bd3d79db8e390dbbd56c", "type": "electric_scooter", "lat": 38.915810666666665, "is_reserved": 0, "lon": -76.983885, "fusion_lon": 0.0, "is_disabled": 0, "fusion_lat": 0.0, "bike_id": "d1f84eb0c153bd3d79db8e390dbbd56c", "rental_uris": {"ios": "https://dc.lft.to/lastmile_qr_scan", "android": "https://dc.lft.to/lastmile_qr_scan"}}, {"name": "a435deda17c8510dcbaa48cd144918fe", "type": "electric_scooter", "lat": 38.92374266666667, "is_reserved": 0, "lon": -77.03188783333333, "fusion_lon": 0.0, "is_disabled": 0, "fusion_lat": 0.0, "bike_id": "a435deda17c8510dcbaa48cd144918fe", "rental_uris": {"ios": "https://dc.lft.to/lastmile_qr_scan", "android": "https://dc.lft.to/lastmile_qr_scan"}}, {"name": "29b9e7cbb0e0c790379129f20952acc5", "type": "electric_scooter", "lat": 38.93528966666667, "is_reserved": 0, "lon": -77.05818416666666, "fusion_lon": 0.0, "is_disabled": 0, "fusion_lat": 0.0, "bike_id": "29b9e7cbb0e0c790379129f20952acc5", "rental_uris": {"ios": "https://dc.lft.to/lastmile_qr_scan", "android": "https://dc.lft.to/lastmile_qr_scan"}}, {"name": "7cbdd867b4b9875025f7ebf56cc56e4b", "type": "electric_scooter", "lat": 38.89506633333333, "is_reserved": 0, "lon": -77.00335566666666, "fusion_lon": 0.0, "is_disabled": 0, "fusion_lat": 0.0, "bike_id": "7cbdd867b4b9875025f7ebf56cc56e4b", "rental_uris": {"ios": "https://dc.lft.to/lastmile_qr_scan", "android": "https://dc.lft.to/lastmile_qr_scan"}}, {"name": "8ce61d5e9e0ed736fbcabe4bb4d6201d", "type": "electric_bike", "lat": 38.96168433333333, "is_reserved": 0, "lon": -77.07388683333333, "fusion_lon": 0.0, "is_disabled": 0, "fusion_lat": 0.0, "bike_id": "8ce61d5e9e0ed736fbcabe4bb4d6201d", "rental_uris": {"ios": "https://dc.lft.to/lastmile_qr_scan", "android": "https://dc.lft.to/lastmile_qr_scan"}}, {"name": "ac183ef6b2ae1de765e3335c8fec09ae", "type": "electric_bike", "lat": 38.855175, "is_reserved": 0, "lon": -77.111521, "fusion_lon": 0.0, "is_disabled": 0, "fusion_lat": 0.0, "bike_id": "ac183ef6b2ae1de765e3335c8fec09ae", "rental_uris": {"ios": "https://dc.lft.to/lastmile_qr_scan", "android": "https://dc.lft.to/lastmile_qr_scan"}}, {"name": "181f2d0e24089f40e550fb7057d6a81f", "type": "electric_scooter", "lat": 38.89883716666667, "is_reserved": 0, "lon": -76.93177, "fusion_lon": 0.0, "is_disabled": 0, "fusion_lat": 0.0, "bike_id": "181f2d0e24089f40e550fb7057d6a81f", "rental_uris": {"ios": "https://dc.lft.to/lastmile_qr_scan", "android": "https://dc.lft.to/lastmile_qr_scan"}}, {"name": "5259724824c743fd2cf6bd3a28ad2605", "type": "electric_scooter", "lat": 38.900341, "is_reserved": 0, "lon": -76.98837883333333, "fusion_lon": 0.0, "is_disabled": 0, "fusion_lat": 0.0, "bike_id": "5259724824c743fd2cf6bd3a28ad2605", "rental_uris": {"ios": "https://dc.lft.to/lastmile_qr_scan", "android": "https://dc.lft.to/lastmile_qr_scan"}}, {"name": "c65c40708d68b37f1831b640b2209620", "type": "electric_scooter", "lat": 38.9156825, "is_reserved": 0, "lon": -77.021776, "fusion_lon": 0.0, "is_disabled": 0, "fusion_lat": 0.0, "bike_id": "c65c40708d68b37f1831b640b2209620", "rental_uris": {"ios": "https://dc.lft.to/lastmile_qr_scan", "android": "https://dc.lft.to/lastmile_qr_scan"}}, {"name": "18d11dfd29b2f852b7a9954bf6e0662d", "type": "electric_scooter", "lat": 38.871976833333335, "is_reserved": 0, "lon": -77.00576933333333, "fusion_lon": 0.0, "is_disabled": 0, "fusion_lat": 0.0, "bike_id": "18d11dfd29b2f852b7a9954bf6e0662d", "rental_uris": {"ios": "https://dc.lft.to/lastmile_qr_scan", "android": "https://dc.lft.to/lastmile_qr_scan"}}, {"name": "38354f2c5ef0609321d462b7adc6c459", "type": "electric_scooter", "lat": 38.8624475, "is_reserved": 0, "lon": -76.9949885, "fusion_lon": 0.0, "is_disabled": 0, "fusion_lat": 0.0, "bike_id": "38354f2c5ef0609321d462b7adc6c459", "rental_uris": {"ios": "https://dc.lft.to/lastmile_qr_scan", "android": "https://dc.lft.to/lastmile_qr_scan"}}, {"name": "fa6c2d7159b6e86478e207eb51194640", "type": "electric_scooter", "lat": 38.844273666666666, "is_reserved": 0, "lon": -76.99776716666666, "fusion_lon": 0.0, "is_disabled": 0, "fusion_lat": 0.0, "bike_id": "fa6c2d7159b6e86478e207eb51194640", "rental_uris": {"ios": "https://dc.lft.to/lastmile_qr_scan", "android": "https://dc.lft.to/lastmile_qr_scan"}}, {"name": "003c9ce5085ffd867847cb739f691068", "type": "electric_scooter", "lat": 38.9140445, "is_reserved": 0, "lon": -77.0390805, "fusion_lon": 0.0, "is_disabled": 0, "fusion_lat": 0.0, "bike_id": "003c9ce5085ffd867847cb739f691068", "rental_uris": {"ios": "https://dc.lft.to/lastmile_qr_scan", "android": "https://dc.lft.to/lastmile_qr_scan"}}, {"name": "cf9aa10915bba61939c64a7e352255cc", "type": "electric_bike", "lat": 38.9220995, "is_reserved": 0, "lon": -76.98795133333333, "fusion_lon": 0.0, "is_disabled": 0, "fusion_lat": 0.0, "bike_id": "cf9aa10915bba61939c64a7e352255cc", "rental_uris": {"ios": "https://dc.lft.to/lastmile_qr_scan", "android": "https://dc.lft.to/lastmile_qr_scan"}}, {"name": "d985b6f2fd4cef487b2d056ba7f23bf7", "type": "electric_scooter", "lat": 38.91838533333333, "is_reserved": 0, "lon": -77.0314475, "fusion_lon": 0.0, "is_disabled": 0, "fusion_lat": 0.0, "bike_id": "d985b6f2fd4cef487b2d056ba7f23bf7", "rental_uris": {"ios": "https://dc.lft.to/lastmile_qr_scan", "android": "https://dc.lft.to/lastmile_qr_scan"}}, {"name": "5fd35e6c39eaeefca79d2a5ee49fb47b", "type": "electric_scooter", "lat": 38.93502266666667, "is_reserved": 0, "lon": -77.01999083333334, "fusion_lon": 0.0, "is_disabled": 0, "fusion_lat": 0.0, "bike_id": "5fd35e6c39eaeefca79d2a5ee49fb47b", "rental_uris": {"ios": "https://dc.lft.to/lastmile_qr_scan", "android": "https://dc.lft.to/lastmile_qr_scan"}}, {"name": "717e763a369f9e4a81160d4d091fa455", "type": "electric_scooter", "lat": 38.90272183333333, "is_reserved": 0, "lon": -77.003273, "fusion_lon": 0.0, "is_disabled": 0, "fusion_lat": 0.0, "bike_id": "717e763a369f9e4a81160d4d091fa455", "rental_uris": {"ios": "https://dc.lft.to/lastmile_qr_scan", "android": "https://dc.lft.to/lastmile_qr_scan"}}, {"name": "c348429d4b2fe14102e174cdf6a7fbeb", "type": "electric_bike", "lat": 38.875795, "is_reserved": 0, "lon": -77.10561833333334, "fusion_lon": 0.0, "is_disabled": 0, "fusion_lat": 0.0, "bike_id": "c348429d4b2fe14102e174cdf6a7fbeb", "rental_uris": {"ios": "https://dc.lft.to/lastmile_qr_scan", "android": "https://dc.lft.to/lastmile_qr_scan"}}, {"name": "185a5499985402ffa144633633ce7707", "type": "electric_scooter", "lat": 38.90383883333333, "is_reserved": 0, "lon": -77.016444, "fusion_lon": 0.0, "is_disabled": 0, "fusion_lat": 0.0, "bike_id": "185a5499985402ffa144633633ce7707", "rental_uris": {"ios": "https://dc.lft.to/lastmile_qr_scan", "android": "https://dc.lft.to/lastmile_qr_scan"}}, {"name": "2354a3df075c064d37d62af60f98af97", "type": "electric_scooter", "lat": 38.8839615, "is_reserved": 0, "lon": -76.93043883333333, "fusion_lon": 0.0, "is_disabled": 0, "fusion_lat": 0.0, "bike_id": "2354a3df075c064d37d62af60f98af97", "rental_uris": {"ios": "https://dc.lft.to/lastmile_qr_scan", "android": "https://dc.lft.to/lastmile_qr_scan"}}, {"name": "7b550ee8bf6e713a094f828fb946fbec", "type": "electric_scooter", "lat": 38.943681833333336, "is_reserved": 0, "lon": -77.02181283333333, "fusion_lon": 0.0, "is_disabled": 0, "fusion_lat": 0.0, "bike_id": "7b550ee8bf6e713a094f828fb946fbec", "rental_uris": {"ios": "https://dc.lft.to/lastmile_qr_scan", "android": "https://dc.lft.to/lastmile_qr_scan"}}, {"name": "5bd8131ebc0f07c0652b65a59cbaf035", "type": "electric_scooter", "lat": 38.88752866666667, "is_reserved": 0, "lon": -76.97983516666666, "fusion_lon": 0.0, "is_disabled": 0, "fusion_lat": 0.0, "bike_id": "5bd8131ebc0f07c0652b65a59cbaf035", "rental_uris": {"ios": "https://dc.lft.to/lastmile_qr_scan", "android": "https://dc.lft.to/lastmile_qr_scan"}}, {"name": "d246fd52ba7561678291aada5d9c02d7", "type": "electric_scooter", "lat": 38.933485166666664, "is_reserved": 0, "lon": -77.029684, "fusion_lon": 0.0, "is_disabled": 0, "fusion_lat": 0.0, "bike_id": "d246fd52ba7561678291aada5d9c02d7", "rental_uris": {"ios": "https://dc.lft.to/lastmile_qr_scan", "android": "https://dc.lft.to/lastmile_qr_scan"}}, {"name": "3dbd5e73b63fbcf982f379438173d63a", "type": "electric_scooter", "lat": 38.89642766666667, "is_reserved": 0, "lon": -77.032282, "fusion_lon": 0.0, "is_disabled": 0, "fusion_lat": 0.0, "bike_id": "3dbd5e73b63fbcf982f379438173d63a", "rental_uris": {"ios": "https://dc.lft.to/lastmile_qr_scan", "android": "https://dc.lft.to/lastmile_qr_scan"}}, {"name": "bd73addb85a2b01fc681f0a8a6129f67", "type": "electric_scooter", "lat": 38.8949755, "is_reserved": 0, "lon": -77.01014666666667, "fusion_lon": 0.0, "is_disabled": 0, "fusion_lat": 0.0, "bike_id": "bd73addb85a2b01fc681f0a8a6129f67", "rental_uris": {"ios": "https://dc.lft.to/lastmile_qr_scan", "android": "https://dc.lft.to/lastmile_qr_scan"}}, {"name": "e519deee146fffdcf1dadc0333ecf3da", "type": "electric_scooter", "lat": 38.93068183333333, "is_reserved": 0, "lon": -77.03804616666666, "fusion_lon": 0.0, "is_disabled": 0, "fusion_lat": 0.0, "bike_id": "e519deee146fffdcf1dadc0333ecf3da", "rental_uris": {"ios": "https://dc.lft.to/lastmile_qr_scan", "android": "https://dc.lft.to/lastmile_qr_scan"}}, {"name": "5f0d3dbae34e0087b32b4f3a6e24910d", "type": "electric_scooter", "lat": 38.87637516666667, "is_reserved": 0, "lon": -76.99587483333333, "fusion_lon": 0.0, "is_disabled": 0, "fusion_lat": 0.0, "bike_id": "5f0d3dbae34e0087b32b4f3a6e24910d", "rental_uris": {"ios": "https://dc.lft.to/lastmile_qr_scan", "android": "https://dc.lft.to/lastmile_qr_scan"}}, {"name": "52db3d77aa881c15d41e918fea642265", "type": "electric_scooter", "lat": 38.94961683333333, "is_reserved": 0, "lon": -77.027192, "fusion_lon": 0.0, "is_disabled": 0, "fusion_lat": 0.0, "bike_id": "52db3d77aa881c15d41e918fea642265", "rental_uris": {"ios": "https://dc.lft.to/lastmile_qr_scan", "android": "https://dc.lft.to/lastmile_qr_scan"}}, {"name": "4f4949f98d63c9280be3b6aa270ebde0", "type": "electric_scooter", "lat": 38.918973333333334, "is_reserved": 0, "lon": -77.01971583333334, "fusion_lon": 0.0, "is_disabled": 0, "fusion_lat": 0.0, "bike_id": "4f4949f98d63c9280be3b6aa270ebde0", "rental_uris": {"ios": "https://dc.lft.to/lastmile_qr_scan", "android": "https://dc.lft.to/lastmile_qr_scan"}}, {"name": "17bba41e3b57f2985b488f1fce0b7573", "type": "electric_scooter", "lat": 38.90035783333333, "is_reserved": 0, "lon": -77.01118616666666, "fusion_lon": 0.0, "is_disabled": 0, "fusion_lat": 0.0, "bike_id": "17bba41e3b57f2985b488f1fce0b7573", "rental_uris": {"ios": "https://dc.lft.to/lastmile_qr_scan", "android": "https://dc.lft.to/lastmile_qr_scan"}}, {"name": "1497e22e141a8d7fb379df6550a75eaf", "type": "electric_scooter", "lat": 38.8770715, "is_reserved": 0, "lon": -76.99383383333333, "fusion_lon": 0.0, "is_disabled": 0, "fusion_lat": 0.0, "bike_id": "1497e22e141a8d7fb379df6550a75eaf", "rental_uris": {"ios": "https://dc.lft.to/lastmile_qr_scan", "android": "https://dc.lft.to/lastmile_qr_scan"}}, {"name": "c9b4ef4dbc618f274bb41a1c56fab62a", "type": "electric_scooter", "lat": 38.902736, "is_reserved": 0, "lon": -77.03844416666666, "fusion_lon": 0.0, "is_disabled": 0, "fusion_lat": 0.0, "bike_id": "c9b4ef4dbc618f274bb41a1c56fab62a", "rental_uris": {"ios": "https://dc.lft.to/lastmile_qr_scan", "android": "https://dc.lft.to/lastmile_qr_scan"}}, {"name": "7a4bf66f29fa1b14a5791b62fa38c9b3", "type": "electric_scooter", "lat": 38.8984145, "is_reserved": 0, "lon": -77.03305283333333, "fusion_lon": 0.0, "is_disabled": 0, "fusion_lat": 0.0, "bike_id": "7a4bf66f29fa1b14a5791b62fa38c9b3", "rental_uris": {"ios": "https://dc.lft.to/lastmile_qr_scan", "android": "https://dc.lft.to/lastmile_qr_scan"}}, {"name": "48be5c6f90c051d66374853371cbea99", "type": "electric_scooter", "lat": 38.900441, "is_reserved": 0, "lon": -77.00205933333334, "fusion_lon": 0.0, "is_disabled": 0, "fusion_lat": 0.0, "bike_id": "48be5c6f90c051d66374853371cbea99", "rental_uris": {"ios": "https://dc.lft.to/lastmile_qr_scan", "android": "https://dc.lft.to/lastmile_qr_scan"}}, {"name": "6591ed3adc2ea76dc6575076a1965966", "type": "electric_scooter", "lat": 38.9083955, "is_reserved": 0, "lon": -76.99964933333334, "fusion_lon": 0.0, "is_disabled": 0, "fusion_lat": 0.0, "bike_id": "6591ed3adc2ea76dc6575076a1965966", "rental_uris": {"ios": "https://dc.lft.to/lastmile_qr_scan", "android": "https://dc.lft.to/lastmile_qr_scan"}}, {"name": "c9caa11d81fa69be794e3d7b9bd7c82c", "type": "electric_scooter", "lat": 38.88326383333333, "is_reserved": 0, "lon": -77.01768733333333, "fusion_lon": 0.0, "is_disabled": 0, "fusion_lat": 0.0, "bike_id": "c9caa11d81fa69be794e3d7b9bd7c82c", "rental_uris": {"ios": "https://dc.lft.to/lastmile_qr_scan", "android": "https://dc.lft.to/lastmile_qr_scan"}}, {"name": "41dde6e5f907a64bba3d9d6b55c7a059", "type": "electric_bike", "lat": 38.89686283333333, "is_reserved": 0, "lon": -76.94068433333334, "fusion_lon": 0.0, "is_disabled": 0, "fusion_lat": 0.0, "bike_id": "41dde6e5f907a64bba3d9d6b55c7a059", "rental_uris": {"ios": "https://dc.lft.to/lastmile_qr_scan", "android": "https://dc.lft.to/lastmile_qr_scan"}}, {"name": "815cce43f66c2f4f23ddff7ff62610d3", "type": "electric_scooter", "lat": 38.86423, "is_reserved": 0, "lon": -76.98576866666667, "fusion_lon": 0.0, "is_disabled": 0, "fusion_lat": 0.0, "bike_id": "815cce43f66c2f4f23ddff7ff62610d3", "rental_uris": {"ios": "https://dc.lft.to/lastmile_qr_scan", "android": "https://dc.lft.to/lastmile_qr_scan"}}, {"name": "0cfd34d6ece0a4789cae01db8db2e55b", "type": "electric_bike", "lat": 38.886424833333336, "is_reserved": 0, "lon": -76.9546935, "fusion_lon": 0.0, "is_disabled": 0, "fusion_lat": 0.0, "bike_id": "0cfd34d6ece0a4789cae01db8db2e55b", "rental_uris": {"ios": "https://dc.lft.to/lastmile_qr_scan", "android": "https://dc.lft.to/lastmile_qr_scan"}}, {"name": "a8932ef2f77377228172cd2926b43240", "type": "electric_scooter", "lat": 38.93353, "is_reserved": 0, "lon": -77.0342615, "fusion_lon": 0.0, "is_disabled": 0, "fusion_lat": 0.0, "bike_id": "a8932ef2f77377228172cd2926b43240", "rental_uris": {"ios": "https://dc.lft.to/lastmile_qr_scan", "android": "https://dc.lft.to/lastmile_qr_scan"}}, {"name": "d6fb2fa4e9667eb8824cfdc311a221c3", "type": "electric_scooter", "lat": 38.9337005, "is_reserved": 0, "lon": -77.05726016666667, "fusion_lon": 0.0, "is_disabled": 0, "fusion_lat": 0.0, "bike_id": "d6fb2fa4e9667eb8824cfdc311a221c3", "rental_uris": {"ios": "https://dc.lft.to/lastmile_qr_scan", "android": "https://dc.lft.to/lastmile_qr_scan"}}, {"name": "ff57e8dfb2062c14c11bf808a8dd18ca", "type": "electric_scooter", "lat": 38.90726683333333, "is_reserved": 0, "lon": -77.025041, "fusion_lon": 0.0, "is_disabled": 0, "fusion_lat": 0.0, "bike_id": "ff57e8dfb2062c14c11bf808a8dd18ca", "rental_uris": {"ios": "https://dc.lft.to/lastmile_qr_scan", "android": "https://dc.lft.to/lastmile_qr_scan"}}, {"name": "17bee0c6cb6d6c6b5fd6329e5ea09fd2", "type": "electric_scooter", "lat": 38.92597133333334, "is_reserved": 0, "lon": -77.02122283333334, "fusion_lon": 0.0, "is_disabled": 0, "fusion_lat": 0.0, "bike_id": "17bee0c6cb6d6c6b5fd6329e5ea09fd2", "rental_uris": {"ios": "https://dc.lft.to/lastmile_qr_scan", "android": "https://dc.lft.to/lastmile_qr_scan"}}, {"name": "0cba23f599eccc5ee436f5f2b4295c44", "type": "electric_scooter", "lat": 38.9055275, "is_reserved": 0, "lon": -77.04652716666666, "fusion_lon": 0.0, "is_disabled": 0, "fusion_lat": 0.0, "bike_id": "0cba23f599eccc5ee436f5f2b4295c44", "rental_uris": {"ios": "https://dc.lft.to/lastmile_qr_scan", "android": "https://dc.lft.to/lastmile_qr_scan"}}, {"name": "cf05dd1e62d39a5b8d5bc2b7b6f4a570", "type": "electric_scooter", "lat": 38.9176385, "is_reserved": 0, "lon": -77.02709716666666, "fusion_lon": 0.0, "is_disabled": 0, "fusion_lat": 0.0, "bike_id": "cf05dd1e62d39a5b8d5bc2b7b6f4a570", "rental_uris": {"ios": "https://dc.lft.to/lastmile_qr_scan", "android": "https://dc.lft.to/lastmile_qr_scan"}}, {"name": "ae373afe218301dd9592c9277258fb15", "type": "electric_scooter", "lat": 38.89230383333334, "is_reserved": 0, "lon": -77.05000283333334, "fusion_lon": 0.0, "is_disabled": 0, "fusion_lat": 0.0, "bike_id": "ae373afe218301dd9592c9277258fb15", "rental_uris": {"ios": "https://dc.lft.to/lastmile_qr_scan", "android": "https://dc.lft.to/lastmile_qr_scan"}}, {"name": "b4fb3981aa3f63c2989705e916a825c4", "type": "electric_scooter", "lat": 38.937564333333334, "is_reserved": 0, "lon": -77.02490366666666, "fusion_lon": 0.0, "is_disabled": 0, "fusion_lat": 0.0, "bike_id": "b4fb3981aa3f63c2989705e916a825c4", "rental_uris": {"ios": "https://dc.lft.to/lastmile_qr_scan", "android": "https://dc.lft.to/lastmile_qr_scan"}}, {"name": "dfa1c31fe2b17fcf5632459c6adcfa7f", "type": "electric_bike", "lat": 38.894553, "is_reserved": 0, "lon": -76.97035466666667, "fusion_lon": 0.0, "is_disabled": 0, "fusion_lat": 0.0, "bike_id": "dfa1c31fe2b17fcf5632459c6adcfa7f", "rental_uris": {"ios": "https://dc.lft.to/lastmile_qr_scan", "android": "https://dc.lft.to/lastmile_qr_scan"}}, {"name": "177d6222d7e2641ec19899434408f941", "type": "electric_scooter", "lat": 38.91048, "is_reserved": 0, "lon": -77.028116, "fusion_lon": 0.0, "is_disabled": 0, "fusion_lat": 0.0, "bike_id": "177d6222d7e2641ec19899434408f941", "rental_uris": {"ios": "https://dc.lft.to/lastmile_qr_scan", "android": "https://dc.lft.to/lastmile_qr_scan"}},