{"data": {"bikes": [{"rental_uris": {"android": "https://dc.lft.to/lastmile_qr_scan", "ios": "https://dc.lft.to/lastmile_qr_scan"}, "name": "f1755c684204e84d4b2aa31a03e30ec0", "fusion_lat": 0.0, "lon": -76.99752933333333, "is_disabled": 0, "is_reserved": 0, "fusion_lon": 0.0, "lat": 38.900291333333335, "type": "electric_scooter", "bike_id": "f1755c684204e84d4b2aa31a03e30ec0"}, {"rental_uris": {"android": "https://dc.lft.to/lastmile_qr_scan", "ios": "https://dc.lft.to/lastmile_qr_scan"}, "name": "2918c9b592921f5dda979a23b3392758", "fusion_lat": 0.0, "lon": -76.9991635, "is_disabled": 0, "is_reserved": 0, "fusion_lon": 0.0, "lat": 38.90745583333333, "type": "electric_scooter", "bike_id": "2918c9b592921f5dda979a23b3392758"}, {"rental_uris": {"android": "https://dc.lft.to/lastmile_qr_scan", "ios": "https://dc.lft.to/lastmile_qr_scan"}, "name": "4ce63438412b01384b1f02306059354a", "fusion_lat": 0.0, "lon": -77.03105433333333, "is_disabled": 0, "is_reserved": 0, "fusion_lon": 0.0, "lat": 38.92572583333333, "type": "electric_scooter", "bike_id": "4ce63438412b01384b1f02306059354a"}, {"rental_uris": {"android": "https://dc.lft.to/lastmile_qr_scan", "ios": "https://dc.lft.to/lastmile_qr_scan"}, "name": "c6162671574cf2e7f6689c12f38e3a47", "fusion_lat": 0.0, "lon": -77.02222783333333, "is_disabled": 0, "is_reserved": 0, "fusion_lon": 0.0, "lat": 38.89222766666666, "type": "electric_scooter", "bike_id": "c6162671574cf2e7f6689c12f38e3a47"}, {"rental_uris": {"android": "https://dc.lft.to/lastmile_qr_scan", "ios": "https://dc.lft.to/lastmile_qr_scan"}, "name": "76230f6c531c4c5376e32a471d89600f", "fusion_lat": 0.0, "lon": -77.0139805, "is_disabled": 0, "is_reserved": 0, "fusion_lon": 0.0, "lat": 38.88032783333333, "type": "electric_scooter", "bike_id": "76230f6c531c4c5376e32a471d89600f"}, {"rental_uris": {"android": "https://dc.lft.to/lastmile_qr_scan", "ios": "https://dc.lft.to/lastmile_qr_scan"}, "name": "0b666a9f3e5540d5585c0adb68442155", "fusion_lat": 0.0, "lon": -76.97911333333333, "is_disabled": 0, "is_reserved": 0, "fusion_lon": 0.0, "lat": 38.89437783333333, "type": "electric_scooter", "bike_id": "0b666a9f3e5540d5585c0adb68442155"}, {"rental_uris": {"android": "https://dc.lft.to/lastmile_qr_scan", "ios": "https://dc.lft.to/lastmile_qr_scan"}, "name": "78c29d5358f4e3db77943122e5a1a18c", "fusion_lat": 0.0, "lon": -77.00609916666667, "is_disabled": 0, "is_reserved": 0, "fusion_lon": 0.0, "lat": 38.87181316666667, "type": "electric_scooter", "bike_id": "78c29d5358f4e3db77943122e5a1a18c"}, {"rental_uris": {"android": "https://dc.lft.to/lastmile_qr_scan", "ios": "https://dc.lft.to/lastmile_qr_scan"}, "name": "99c1c8205e4979e39d76762d17465446", "fusion_lat": 0.0, "lon": -77.0383275, "is_disabled": 0, "is_reserved": 0, "fusion_lon": 0.0, "lat": 38.90389916666667, "type": "electric_scooter", "bike_id": "99c1c8205e4979e39d76762d17465446"}, {"rental_uris": {"android": "https://dc.lft.to/lastmile_qr_scan", "ios": "https://dc.lft.to/lastmile_qr_scan"}, "name": "c658855f2e5eed4613739355b1f1c863", "fusion_lat": 0.0, "lon": -77.005279, "is_disabled": 0, "is_reserved": 0, "fusion_lon": 0.0, "lat": 38.8793995, "type": "electric_scooter", "bike_id": "c658855f2e5eed4613739355b1f1c863"}, {"rental_uris": {"android": "https://dc.lft.to/lastmile_qr_scan", "ios": "https://dc.lft.to/lastmile_qr_scan"}, "name": "5bf14d79a5f818d99ec4049fde64cd54", "fusion_lat": 0.0, "lon": -77.1068115, "is_disabled": 0, "is_reserved": 0, "fusion_lon": 0.0, "lat": 38.935799, "type": "electric_bike", "bike_id": "5bf14d79a5f818d99ec4049fde64cd54"}, {"rental_uris": {"android": "https://dc.lft.to/lastmile_qr_scan", "ios": "https://dc.lft.to/lastmile_qr_scan"}, "name": "a0f4c917c2711f38bb94cba331f0db44", "fusion_lat": 0.0, "lon": -77.03991333333333, "is_disabled": 0, "is_reserved": 0, "fusion_lon": 0.0, "lat": 38.89224466666667, "type": "electric_scooter", "bike_id": "a0f4c917c2711f38bb94cba331f0db44"}, {"rental_uris": {"android": "https://dc.lft.to/lastmile_qr_scan", "ios": "https://dc.lft.to/lastmile_qr_scan"}, "name": "364883bd411a1a9c098448cf5063e7ee", "fusion_lat": 0.0, "lon": -77.03608866666667, "is_disabled": 0, "is_reserved": 0, "fusion_lon": 0.0, "lat": 38.9233495, "type": "electric_scooter", "bike_id": "364883bd411a1a9c098448cf5063e7ee"}, {"rental_uris": {"android": "https://dc.lft.to/lastmile_qr_scan", "ios": "https://dc.lft.to/lastmile_qr_scan"}, "name": "68e694c5cc295ef8617f46784f47f612", "fusion_lat": 0.0, "lon": -77.00967666666666, "is_disabled": 0, "is_reserved": 0, "fusion_lon": 0.0, "lat": 38.907910666666666, "type": "electric_scooter", "bike_id": "68e694c5cc295ef8617f46784f47f612"}, {"rental_uris": {"android": "https://dc.lft.to/lastmile_qr_scan", "ios": "https://dc.lft.to/lastmile_qr_scan"}, "name": "c1b66efa60330ed8955d3be009569ede", "fusion_lat": 0.0, "lon": -77.065167, "is_disabled": 0, "is_reserved": 0, "fusion_lon": 0.0, "lat": 38.905338666666665, "type": "electric_scooter", "bike_id": "c1b66efa60330ed8955d3be009569ede"}, {"rental_uris": {"android": "https://dc.lft.to/lastmile_qr_scan", "ios": "https://dc.lft.to/lastmile_qr_scan"}, "name": "aa01ac1a8060e247fb9959e4a9c90b34", "fusion_lat": 0.0, "lon": -77.03084383333334, "is_disabled": 0, "is_reserved": 0, "fusion_lon": 0.0, "lat": 38.919203833333334, "type": "electric_scooter", "bike_id": "aa01ac1a8060e247fb9959e4a9c90b34"}, {"rental_uris": {"android": "https://dc.lft.to/lastmile_qr_scan", "ios": "https://dc.lft.to/lastmile_qr_scan"}, "name": "26e10c67169a6ecd2670aeebeb80e23f", "fusion_lat": 0.0, "lon": -76.96179483333333, "is_disabled": 0, "is_reserved": 0, "fusion_lon": 0.0, "lat": 38.91860416666667, "type": "electric_bike", "bike_id": "26e10c67169a6ecd2670aeebeb80e23f"}, {"rental_uris": {"android": "https://dc.lft.to/lastmile_qr_scan", "ios": "https://dc.lft.to/lastmile_qr_scan"}, "name": "417908e02aa5ca042a9ffd79451bc5e0", "fusion_lat": 0.0, "lon": -77.03825116666667, "is_disabled": 0, "is_reserved": 0, "fusion_lon": 0.0, "lat": 38.907797333333335, "type": "electric_scooter", "bike_id": "417908e02aa5ca042a9ffd79451bc5e0"}, {"rental_uris": {"android": "https://dc.lft.to/lastmile_qr_scan", "ios": "https://dc.lft.to/lastmile_qr_scan"}, "name": "6cc78f2523c09af06b978883776c8401", "fusion_lat": 0.0, "lon": -77.01750316666667, "is_disabled": 0, "is_reserved": 0, "fusion_lon": 0.0, "lat": 38.886396, "type": "electric_scooter", "bike_id": "6cc78f2523c09af06b978883776c8401"}, {"rental_uris": {"android": "https://dc.lft.to/lastmile_qr_scan", "ios": "https://dc.lft.to/lastmile_qr_scan"}, "name": "6e6e64f5091bc261f391544c4f985d74", "fusion_lat": 0.0, "lon": -77.017471, "is_disabled": 0, "is_reserved": 0, "fusion_lon": 0.0, "lat": 38.87282483333333, "type": "electric_scooter", "bike_id": "6e6e64f5091bc261f391544c4f985d74"}, {"rental_uris": {"android": "https://dc.lft.to/lastmile_qr_scan", "ios": "https://dc.lft.to/lastmile_qr_scan"}, "name": "8cd80c985e62acf88454ce576f3d9fd2", "fusion_lat": 0.0, "lon": -77.03248716666667, "is_disabled": 0, "is_reserved": 0, "fusion_lon": 0.0, "lat": 38.929111, "type": "electric_scooter", "bike_id": "8cd80c985e62acf88454ce576f3d9fd2"}, {"rental_uris": {"android": "https://dc.lft.to/lastmile_qr_scan", "ios": "https://dc.lft.to/lastmile_qr_scan"}, "name": "71ed6b361a564b370a977d7b2c3cb4c0", "fusion_lat": 0.0, "lon": -77.0394915, "is_disabled": 0, "is_reserved": 0, "fusion_lon": 0.0, "lat": 38.90196, "type": "electric_scooter", "bike_id": "71ed6b361a564b370a977d7b2c3cb4c0"}, {"rental_uris": {"android": "https://dc.lft.to/lastmile_qr_scan", "ios": "https://dc.lft.to/lastmile_qr_scan"}, "name": "8f5ae66a232ceb043f1ad58cba09abb4", "fusion_lat": 0.0, "lon": -77.0335685, "is_disabled": 0, "is_reserved": 0, "fusion_lon": 0.0, "lat": 38.924457, "type": "electric_scooter", "bike_id": "8f5ae66a232ceb043f1ad58cba09abb4"}, {"rental_uris": {"android": "https://dc.lft.to/lastmile_qr_scan", "ios": "https://dc.lft.to/lastmile_qr_scan"}, "name": "66d0474d74fa77774debe14214ebea3c", "fusion_lat": 0.0, "lon": -77.0389795, "is_disabled": 0, "is_reserved": 0, "fusion_lon": 0.0, "lat": 38.922457333333334, "type": "electric_scooter", "bike_id": "66d0474d74fa77774debe14214ebea3c"}, {"rental_uris": {"android": "https://dc.lft.to/lastmile_qr_scan", "ios": "https://dc.lft.to/lastmile_qr_scan"}, "name": "920549f32e405bfc5ec32e237976e1d5", "fusion_lat": 0.0, "lon": -77.08168116666667, "is_disabled": 0, "is_reserved": 0, "fusion_lon": 0.0, "lat": 38.88877216666667, "type": "electric_bike", "bike_id": "920549f32e405bfc5ec32e237976e1d5"}, {"rental_uris": {"android": "https://dc.lft.to/lastmile_qr_scan", "ios": "https://dc.lft.to/lastmile_qr_scan"}, "name": "6e5bc63dd0a8dc6d74505f3803ac9cfc", "fusion_lat": 0.0, "lon": -77.04560483333333, "is_disabled": 0, "is_reserved": 0, "fusion_lon": 0.0, "lat": 38.90751983333333, "type": "electric_scooter", "bike_id": "6e5bc63dd0a8dc6d74505f3803ac9cfc"}, {"rental_uris": {"android": "https://dc.lft.to/lastmile_qr_scan", "ios": "https://dc.lft.to/lastmile_qr_scan"}, "name": "663efd3ca2a4969d27cc7b621526f0a7", "fusion_lat": 0.0, "lon": -77.00335066666666, "is_disabled": 0, "is_reserved": 0, "fusion_lon": 0.0, "lat": 38.893571666666666, "type": "electric_scooter", "bike_id": "663efd3ca2a4969d27cc7b621526f0a7"}, {"rental_uris": {"android": "https://dc.lft.to/lastmile_qr_scan", "ios": "https://dc.lft.to/lastmile_qr_scan"}, "name": "60a84b501b982d078781402636e87741", "fusion_lat": 0.0, "lon": -77.02267666666667, "is_disabled": 0, "is_reserved": 0, "fusion_lon": 0.0, "lat": 38.8873675, "type": "electric_scooter", "bike_id": "60a84b501b982d078781402636e87741"}, {"rental_uris": {"android": "https://dc.lft.to/lastmile_qr_scan", "ios": "https://dc.lft.to/lastmile_qr_scan"}, "name": "d9581c8b960fe34f4001d38a16fbc2ad", "fusion_lat": 0.0, "lon": -77.012789, "is_disabled": 0, "is_reserved": 0, "fusion_lon": 0.0, "lat": 38.877865166666666, "type": "electric_bike", "bike_id": "d9581c8b960fe34f4001d38a16fbc2ad"}, {"rental_uris": {"android": "https://dc.lft.to/lastmile_qr_scan", "ios": "https://dc.lft.to/lastmile_qr_scan"}, "name": "5d2f0ec4c1bf1ecf8d0125afb48227ed", "fusion_lat": 0.0, "lon": -77.0158535, "is_disabled": 0, "is_reserved": 0, "fusion_lon": 0.0, "lat": 38.876446, "type": "electric_scooter", "bike_id": "5d2f0ec4c1bf1ecf8d0125afb48227ed"}, {"rental_uris": {"android": "https://dc.lft.to/lastmile_qr_scan", "ios": "https://dc.lft.to/lastmile_qr_scan"}, "name": "7e56fab2947673031e499c485859092d", "fusion_lat": 0.0, "lon": -77.02595483333333, "is_disabled": 0, "is_reserved": 0, "fusion_lon": 0.0, "lat": 38.97592683333333, "type": "electric_scooter", "bike_id": "7e56fab2947673031e499c485859092d"}, {"rental_uris": {"android": "https://dc.lft.to/lastmile_qr_scan", "ios": "https://dc.lft.to/lastmile_qr_scan"}, "name": "39a0cbc8127e0753b782ced2d7e7bc9a", "fusion_lat": 0.0, "lon": -77.0416965, "is_disabled": 0, "is_reserved": 0, "fusion_lon": 0.0, "lat": 38.906255333333334, "type": "electric_scooter", "bike_id": "39a0cbc8127e0753b782ced2d7e7bc9a"}, {"rental_uris": {"android": "https://dc.lft.to/lastmile_qr_scan", "ios": "https://dc.lft.to/lastmile_qr_scan"}, "name": "9264796b0a6354919a4c51776106b060", "fusion_lat": 0.0, "lon": -77.02493233333334, "is_disabled": 0, "is_reserved": 0, "fusion_lon": 0.0, "lat": 38.92743683333333, "type": "electric_scooter", "bike_id": "9264796b0a6354919a4c51776106b060"}, {"rental_uris": {"android": "https://dc.lft.to/lastmile_qr_scan", "ios": "https://dc.lft.to/lastmile_qr_scan"}, "name": "3a5ba424b8e04e90ce60b68a2b069400", "fusion_lat": 0.0, "lon": -77.02538016666666, "is_disabled": 0, "is_reserved": 0, "fusion_lon": 0.0, "lat": 38.9210005, "type": "electric_scooter", "bike_id": "3a5ba424b8e04e90ce60b68a2b069400"}, {"rental_uris": {"android": "https://dc.lft.to/lastmile_qr_scan", "ios": "https://dc.lft.to/lastmile_qr_scan"}, "name": "26da98ac4b70337d3dea65f96c819b41", "fusion_lat": 0.0, "lon": -77.04661433333334, "is_disabled": 0, "is_reserved": 0, "fusion_lon": 0.0, "lat": 38.905180333333334, "type": "electric_scooter", "bike_id": "26da98ac4b70337d3dea65f96c819b41"}, {"rental_uris": {"android": "https://dc.lft.to/lastmile_qr_scan", "ios": "https://dc.lft.to/lastmile_qr_scan"}, "name": "38ef4548f015b4d6fcbfa9494e11f986", "fusion_lat": 0.0, "lon": -77.029788, "is_disabled": 0, "is_reserved": 0, "fusion_lon": 0.0, "lat": 38.924567333333336, "type": "electric_scooter", "bike_id": "38ef4548f015b4d6fcbfa9494e11f986"}, {"rental_uris": {"android": "https://dc.lft.to/lastmile_qr_scan", "ios": "https://dc.lft.to/lastmile_qr_scan"}, "name": "ede0acbe528d00a3ed0f75b80f617b56", "fusion_lat": 0.0, "lon": -77.0373935, "is_disabled": 0, "is_reserved": 0, "fusion_lon": 0.0, "lat": 38.9025945, "type": "electric_scooter", "bike_id": "ede0acbe528d00a3ed0f75b80f617b56"}, {"rental_uris": {"android": "https://dc.lft.to/lastmile_qr_scan", "ios": "https://dc.lft.to/lastmile_qr_scan"}, "name": "8828fb067319857dec75551a85234cbc", "fusion_lat": 0.0, "lon": -77.036288, "is_disabled": 0, "is_reserved": 0, "fusion_lon": 0.0, "lat": 38.90266883333334, "type": "electric_scooter", "bike_id": "8828fb067319857dec75551a85234cbc"}, {"rental_uris": {"android": "https://dc.lft.to/lastmile_qr_scan", "ios": "https://dc.lft.to/lastmile_qr_scan"}, "name": "7adc0b2d2f9ac4b8f25f3f0d203c80d2", "fusion_lat": 0.0, "lon": -77.04529583333333, "is_disabled": 0, "is_reserved": 0, "fusion_lon": 0.0, "lat": 38.903609333333335, "type": "electric_scooter", "bike_id": "7adc0b2d2f9ac4b8f25f3f0d203c80d2"}, {"rental_uris": {"android": "https://dc.lft.to/lastmile_qr_scan", "ios": "https://dc.lft.to/lastmile_qr_scan"}, "name": "8a94ab30db493cabdb46149311260c3b", "fusion_lat": 0.0, "lon": -76.94766966666667, "is_disabled": 0, "is_reserved": 0, "fusion_lon": 0.0, "lat": 38.89634983333333, "type": "electric_bike", "bike_id": "8a94ab30db493cabdb46149311260c3b"}, {"rental_uris": {"android": "https://dc.lft.to/lastmile_qr_scan", "ios": "https://dc.lft.to/lastmile_qr_scan"}, "name": "321b2910cbe7dc7e9d3d3bc16b37d14f", "fusion_lat": 0.0, "lon": -76.99080266666667, "is_disabled": 0, "is_reserved": 0, "fusion_lon": 0.0, "lat": 38.842885, "type": "electric_scooter", "bike_id": "321b2910cbe7dc7e9d3d3bc16b37d14f"}, {"rental_uris": {"android": "https://dc.lft.to/lastmile_qr_scan", "ios": "https://dc.lft.to/lastmile_qr_scan"}, "name": "69ce86a824862d053995ae5a85a7b64d", "fusion_lat": 0.0, "lon": -77.02748666666666, "is_disabled": 0, "is_reserved": 0, "fusion_lon": 0.0, "lat": 38.924096166666665, "type": "electric_scooter", "bike_id": "69ce86a824862d053995ae5a85a7b64d"}, {"rental_uris": {"android": "https://dc.lft.to/lastmile_qr_scan", "ios": "https://dc.lft.to/lastmile_qr_scan"}, "name": "e670ba6c8fa6d0cd3706cb4e8d220644", "fusion_lat": 0.0, "lon": -76.9846085, "is_disabled": 0, "is_reserved": 0, "fusion_lon": 0.0, "lat": 38.893646, "type": "electric_scooter", "bike_id": "e670ba6c8fa6d0cd3706cb4e8d220644"}, {"rental_uris": {"android": "https://dc.lft.to/lastmile_qr_scan", "ios": "https://dc.lft.to/lastmile_qr_scan"}, "name": "7d3b36bf7752e3bb5fbbda7dff780a8f", "fusion_lat": 0.0, "lon": -77.0333235, "is_disabled": 0, "is_reserved": 0, "fusion_lon": 0.0, "lat": 38.91916883333333, "type": "electric_scooter", "bike_id": "7d3b36bf7752e3bb5fbbda7dff780a8f"}, {"rental_uris": {"android": "https://dc.lft.to/lastmile_qr_scan", "ios": "https://dc.lft.to/lastmile_qr_scan"}, "name": "5e08b985b3a09e765fc7aac4900171fc", "fusion_lat": 0.0, "lon": -77.01133183333333, "is_disabled": 0, "is_reserved": 0, "fusion_lon": 0.0, "lat": 38.87089, "type": "electric_scooter", "bike_id": "5e08b985b3a09e765fc7aac4900171fc"}, {"rental_uris": {"android": "https://dc.lft.to/lastmile_qr_scan", "ios": "https://dc.lft.to/lastmile_qr_scan"}, "name": "c17f6edf65029e47ce7975304d08e439", "fusion_lat": 0.0, "lon": -77.00444033333333, "is_disabled": 0, "is_reserved": 0, "fusion_lon": 0.0, "lat": 38.91182966666667, "type": "electric_scooter", "bike_id": "c17f6edf65029e47ce7975304d08e439"}, {"rental_uris": {"android": "https://dc.lft.to/lastmile_qr_scan", "ios": "https://dc.lft.to/lastmile_qr_scan"}, "name": "80177f955bb73ec8e5fd602b4854ac13", "fusion_lat": 0.0, "lon": -77.01904466666667, "is_disabled": 0, "is_reserved": 0, "fusion_lon": 0.0, "lat": 38.93920416666667, "type": "electric_scooter", "bike_id": "80177f955bb73ec8e5fd602b4854ac13"}, {"rental_uris": {"android": "https://dc.lft.to/lastmile_qr_scan", "ios": "https://dc.lft.to/lastmile_qr_scan"}, "name": "b0cee105699af0610cf81629f590d0bc", "fusion_lat": 0.0, "lon": -77.02037033333333, "is_disabled": 0, "is_reserved": 0, "fusion_lon": 0.0, "lat": 38.892756166666665, "type": "electric_scooter", "bike_id": "b0cee105699af0610cf81629f590d0bc"}, {"rental_uris": {"android": "https://dc.lft.to/lastmile_qr_scan", "ios": "https://dc.lft.to/lastmile_qr_scan"}, "name": "58331689b0047564d1196c8dcc90226c", "fusion_lat": 0.0, "lon": -77.02388483333333, "is_disabled": 0, "is_reserved": 0, "fusion_lon": 0.0, "lat": 38.907476, "type": "electric_scooter", "bike_id": "58331689b0047564d1196c8dcc90226c"}, {"rental_uris": {"android": "https://dc.lft.to/lastmile_qr_scan", "ios": "https://dc.lft.to/lastmile_qr_scan"}, "name": "dbe2433718c7fd64b1fde8a4b61adcbb", "fusion_lat": 0.0, "lon": -77.0293965, "is_disabled": 0, "is_reserved": 0, "fusion_lon": 0.0, "lat": 38.898248, "type": "electric_scooter", "bike_id": "dbe2433718c7fd64b1fde8a4b61adcbb"}, {"rental_uris": {"android": "https://dc.lft.to/lastmile_qr_scan", "ios": "https://dc.lft.to/lastmile_qr_scan"}, "name": "9bd18bc03e9d27d327b4933953e08d80", "fusion_lat": 0.0, "lon": -77.04001916666667, "is_disabled": 0, "is_reserved": 0, "fusion_lon": 0.0, "lat": 38.924344166666664, "type": "electric_scooter", "bike_id": "9bd18bc03e9d27d327b4933953e08d80"}, {"rental_uris": {"android": "https://dc.lft.to/lastmile_qr_scan", "ios": "https://dc.lft.to/lastmile_qr_scan"}, "name": "336bb43b9099b164ab4da9a82a789ead", "fusion_lat": 0.0, "lon": -77.0390985, "is_disabled": 0, "is_reserved": 0, "fusion_lon": 0.0, "lat": 38.902559833333335, "type": "electric_scooter", "bike_id": "336bb43b9099b164ab4da9a82a789ead"}, {"rental_uris": {"android": "https://dc.lft.to/lastmile_qr_scan", "ios": "https://dc.lft.to/lastmile_qr_scan"}, "name": "17a35a5443ceaecf7c637e91961943f5", "fusion_lat": 0.0, "lon": -76.9419995, "is_disabled": 0, "is_reserved": 0, "fusion_lon": 0.0, "lat": 38.893731833333334, "type": "electric_scooter", "bike_id": "17a35a5443ceaecf7c637e91961943f5"}, {"rental_uris": {"android": "https://dc.lft.to/lastmile_qr_scan", "ios": "https://dc.lft.to/lastmile_qr_scan"}, "name": "19a212ae25dbf94ef965e8066525dcaa", "fusion_lat": 0.0, "lon": -77.02787016666667, "is_disabled": 0, "is_reserved": 0, "fusion_lon": 0.0, "lat": 38.96135533333333, "type": "electric_scooter", "bike_id": "19a212ae25dbf94ef965e8066525dcaa"}, {"rental_uris": {"android": "https://dc.lft.to/lastmile_qr_scan", "ios": "https://dc.lft.to/lastmile_qr_scan"}, "name": "71196be35c28ce077f732f6e911f1303", "fusion_lat": 0.0, "lon": -77.046133, "is_disabled": 0, "is_reserved": 0, "fusion_lon": 0.0, "lat": 38.905550166666664, "type": "electric_scooter", "bike_id": "71196be35c28ce077f732f6e911f1303"}, {"rental_uris": {"android": "https://dc.lft.to/lastmile_qr_scan", "ios": "https://dc.lft.to/lastmile_qr_scan"}, "name": "bdbed141e890a12d7dfaf3724b1dd278", "fusion_lat": 0.0, "lon": -76.93201816666667, "is_disabled": 0, "is_reserved": 0, "fusion_lon": 0.0, "lat": 38.87238933333333, "type": "electric_bike", "bike_id": "bdbed141e890a12d7dfaf3724b1dd278"}, {"rental_uris": {"android": "https://dc.lft.to/lastmile_qr_scan", "ios": "https://dc.lft.to/lastmile_qr_scan"}, "name": "a86081b8b15a1d22310e7e949abe92ef", "fusion_lat": 0.0, "lon": -77.01849216666666, "is_disabled": 0, "is_reserved": 0, "fusion_lon": 0.0, "lat": 38.954296666666664, "type": "electric_scooter", "bike_id": "a86081b8b15a1d22310e7e949abe92ef"}, {"rental_uris": {"android": "https://dc.lft.to/lastmile_qr_scan", "ios": "https://dc.lft.to/lastmile_qr_scan"}, "name": "8b9c8f686c522a3461ffab41ed3532d5", "fusion_lat": 0.0, "lon": -77.02209233333333, "is_disabled": 0, "is_reserved": 0, "fusion_lon": 0.0, "lat": 38.9210935, "type": "electric_scooter", "bike_id": "8b9c8f686c522a3461ffab41ed3532d5"}, {"rental_uris": {"android": "https://dc.lft.to/lastmile_qr_scan", "ios": "https://dc.lft.to/lastmile_qr_scan"}, "name": "fca35141ff9235148553a807a3fbf764", "fusion_lat": 0.0, "lon": -77.02606333333334, "is_disabled": 0, "is_reserved": 0, "fusion_lon": 0.0, "lat": 38.916174, "type": "electric_scooter", "bike_id": "fca35141ff9235148553a807a3fbf764"}, {"rental_uris": {"android": "https://dc.lft.to/lastmile_qr_scan", "ios": "https://dc.lft.to/lastmile_qr_scan"}, "name": "4a509c547c84027c776e9929777e0b51", "fusion_lat": 0.0, "lon": -77.0340415, "is_disabled": 0, "is_reserved": 0, "fusion_lon": 0.0, "lat": 38.91916466666667, "type": "electric_scooter", "bike_id": "4a509c547c84027c776e9929777e0b51"}, {"rental_uris": {"android": "https://dc.lft.to/lastmile_qr_scan", "ios": "https://dc.lft.to/lastmile_qr_scan"}, "name": "f8d11019141d92e2b8def718e16d8517", "fusion_lat": 0.0, "lon": -77.07659883333334, "is_disabled": 0, "is_reserved": 0, "fusion_lon": 0.0, "lat": 38.910820333333334, "type": "electric_scooter", "bike_id": "f8d11019141d92e2b8def718e16d8517"}, {"rental_uris": {"android": "https://dc.lft.to/lastmile_qr_scan", "ios": "https://dc.lft.to/lastmile_qr_scan"}, "name": "04250910223624d974a34ff47f5bb5c0", "fusion_lat": 0.0, "lon": -77.0996145, "is_disabled": 0, "is_reserved": 0, "fusion_lon": 0.0, "lat": 38.85788, "type": "electric_bike", "bike_id": "04250910223624d974a34ff47f5bb5c0"}, {"rental_uris": {"android": "https://dc.lft.to/lastmile_qr_scan", "ios": "https://dc.lft.to/lastmile_qr_scan"}, "name": "d65d4d7fe8d2cd3c37120b16531b8b28", "fusion_lat": 0.0, "lon": -77.03466966666667, "is_disabled": 0, "is_reserved": 0, "fusion_lon": 0.0, "lat": 38.90874516666667, "type": "electric_scooter", "bike_id": "d65d4d7fe8d2cd3c37120b16531b8b28"}, {"rental_uris": {"android": "https://dc.lft.to/lastmile_qr_scan", "ios": "https://dc.lft.to/lastmile_qr_scan"}, "name": "7f24bff56ec2edc365b68d58f947a2d5", "fusion_lat": 0.0, "lon": -77.03186333333333, "is_disabled": 0, "is_reserved": 0, "fusion_lon": 0.0, "lat": 38.902243166666665, "type": "electric_scooter", "bike_id": "7f24bff56ec2edc365b68d58f947a2d5"}, {"rental_uris": {"android": "https://dc.lft.to/lastmile_qr_scan", "ios": "https://dc.lft.to/lastmile_qr_scan"}, "name": "1d3c59ee5dbf391fcf676cb51ea2a261", "fusion_lat": 0.0, "lon": -77.03997783333334, "is_disabled": 0, "is_reserved": 0, "fusion_lon": 0.0, "lat": 38.8887165, "type": "electric_scooter", "bike_id": "1d3c59ee5dbf391fcf676cb51ea2a261"}, {"rental_uris": {"android": "https://dc.lft.to/lastmile_qr_scan", "ios": "https://dc.lft.to/lastmile_qr_scan"}, "name": "7023420e0038af47491e9421eb688d4b", "fusion_lat": 0.0, "lon": -77.03226233333334, "is_disabled": 0, "is_reserved": 0, "fusion_lon": 0.0, "lat": 38.9143345, "type": "electric_scooter", "bike_id": "7023420e0038af47491e9421eb688d4b"}, {"rental_uris": {"android": "https://dc.lft.to/lastmile_qr_scan", "ios": "https://dc.lft.to/lastmile_qr_scan"}, "name": "e5f1998f8936c4a2b0d7d4a2bc5e9dfa", "fusion_lat": 0.0, "lon": -77.02228366666667, "is_disabled": 0, "is_reserved": 0, "fusion_lon": 0.0, "lat": 38.90102533333334, "type": "electric_scooter", "bike_id": "e5f1998f8936c4a2b0d7d4a2bc5e9dfa"}, {"rental_uris": {"android": "https://dc.lft.to/lastmile_qr_scan", "ios": "https://dc.lft.to/lastmile_qr_scan"}, "name": "85289e730c245b808d95992b8d8311bd", "fusion_lat": 0.0, "lon": -76.94997116666667, "is_disabled": 0, "is_reserved": 0, "fusion_lon": 0.0, "lat": 38.89395566666666, "type": "electric_scooter", "bike_id": "85289e730c245b808d95992b8d8311bd"}, {"rental_uris": {"android": "https://dc.lft.to/lastmile_qr_scan", "ios": "https://dc.lft.to/lastmile_qr_scan"}, "name": "13114f3f849608754f7e432bbb82a0cb", "fusion_lat": 0.0, "lon": -76.98911016666666, "is_disabled": 0, "is_reserved": 0, "fusion_lon": 0.0, "lat": 38.902323333333335, "type": "electric_scooter", "bike_id": "13114f3f849608754f7e432bbb82a0cb"}, {"rental_uris": {"android": "https://dc.lft.to/lastmile_qr_scan", "ios": "https://dc.lft.to/lastmile_qr_scan"}, "name": "380358fbd455b76bc592f89e41cd6648", "fusion_lat": 0.0, "lon": -77.02451816666667, "is_disabled": 0, "is_reserved": 0, "fusion_lon": 0.0, "lat": 38.92890666666667, "type": "electric_scooter", "bike_id": "380358fbd455b76bc592f89e41cd6648"}, {"rental_uris": {"android": "https://dc.lft.to/lastmile_qr_scan", "ios": "https://dc.lft.to/lastmile_qr_scan"}, "name": "6781601c9b47033a42f86dc432697595", "fusion_lat": 0.0, "lon": -77.04626116666667, "is_disabled": 0, "is_reserved": 0, "fusion_lon": 0.0, "lat": 38.905539833333336, "type": "electric_scooter", "bike_id": "6781601c9b47033a42f86dc432697595"}, {"rental_uris": {"android": "https://dc.lft.to/lastmile_qr_scan", "ios": "https://dc.lft.to/lastmile_qr_scan"}, "name": "9ef1831dae20096b498fd878ffad90ea", "fusion_lat": 0.0, "lon": -77.00339483333333, "is_disabled": 0, "is_reserved": 0, "fusion_lon": 0.0, "lat": 38.88919883333333, "type": "electric_scooter", "bike_id": "9ef1831dae20096b498fd878ffad90ea"}, {"rental_uris": {"android": "https://dc.lft.to/lastmile_qr_scan", "ios": "https://dc.lft.to/lastmile_qr_scan"}, "name": "d60c085202ed331fe703a91505d3bc95", "fusion_lat": 0.0, "lon": -77.04658683333334, "is_disabled": 0, "is_reserved": 0, "fusion_lon": 0.0, "lat": 38.90441783333333, "type": "electric_scooter", "bike_id": "d60c085202ed331fe703a91505d3bc95"}, {"rental_uris": {"android": "https://dc.lft.to/lastmile_qr_scan", "ios": "https://dc.lft.to/lastmile_qr_scan"}, "name": "48d75fde3074cda73651d09785365607", "fusion_lat": 0.0, "lon": -77.02364316666667, "is_disabled": 0, "is_reserved": 0, "fusion_lon": 0.0, "lat": 38.93087416666667, "type": "electric_scooter", "bike_id": "48d75fde3074cda73651d09785365607"}, {"rental_uris": {"android": "https://dc.lft.to/lastmile_qr_scan", "ios": "https://dc.lft.to/lastmile_qr_scan"}, "name": "3c2da3cea8aa38b5997fcc1963ea503b", "fusion_lat": 0.0, "lon": -76.94841233333334, "is_disabled": 0, "is_reserved": 0, "fusion_lon": 0.0, "lat": 38.894869666666665, "type": "electric_scooter", "bike_id": "3c2da3cea8aa38b5997fcc1963ea503b"}, {"rental_uris": {"android": "https://dc.lft.to/lastmile_qr_scan", "ios": "https://dc.lft.to/lastmile_qr_scan"}, "name": "294b047270f18e94abf92e454016fbf2", "fusion_lat": 0.0, "lon": -77.04191883333333, "is_disabled": 0, "is_reserved": 0, "fusion_lon": 0.0, "lat": 38.9233655, "type": "electric_scooter", "bike_id": "294b047270f18e94abf92e454016fbf2"}, {"rental_uris": {"android": "https://dc.lft.to/lastmile_qr_scan", "ios": "https://dc.lft.to/lastmile_qr_scan"}, "name": "4b32ffa910638b296dcd98c548de04d4", "fusion_lat": 0.0, "lon": -77.02220183333333, "is_disabled": 0, "is_reserved": 0, "fusion_lon": 0.0, "lat": 38.8986065, "type": "electric_scooter", "bike_id": "4b32ffa910638b296dcd98c548de04d4"}, {"rental_uris": {"android": "https://dc.lft.to/lastmile_qr_scan", "ios": "https://dc.lft.to/lastmile_qr_scan"}, "name": "f7784bd517221eeda368f10a2ba4f9d7", "fusion_lat": 0.0, "lon": -77.05515533333333, "is_disabled": 0, "is_reserved": 0, "fusion_lon": 0.0, "lat": 38.944184, "type": "electric_scooter", "bike_id": "f7784bd517221eeda368f10a2ba4f9d7"}, {"rental_uris": {"android": "https://dc.lft.to/lastmile_qr_scan", "ios": "https://dc.lft.to/lastmile_qr_scan"}, "name": "12c730e22bbda422b483c392d8449a28", "fusion_lat": 0.0, "lon": -77.01199733333333, "is_disabled": 0, "is_reserved": 0, "fusion_lon": 0.0, "lat": 38.887733, "type": "electric_scooter", "bike_id": "12c730e22bbda422b483c392d8449a28"}, {"rental_uris": {"android": "https://dc.lft.to/lastmile_qr_scan", "ios": "https://dc.lft.to/lastmile_qr_scan"}, "name": "b88b8cc4a035bcbdb24cbdcbc76e0d93", "fusion_lat": 0.0, "lon": -76.98372616666667, "is_disabled": 0, "is_reserved": 0, "fusion_lon": 0.0, "lat": 38.914633333333335, "type": "electric_bike", "bike_id": "b88b8cc4a035bcbdb24cbdcbc76e0d93"}, {"rental_uris": {"android": "https://dc.lft.to/lastmile_qr_scan", "ios": "https://dc.lft.to/lastmile_qr_scan"}, "name": "952f1d7958b95a53fa5bc3e3f7410953", "fusion_lat": 0.0, "lon": -77.0293865, "is_disabled": 0, "is_reserved": 0, "fusion_lon": 0.0, "lat": 38.89831, "type": "electric_scooter", "bike_id": "952f1d7958b95a53fa5bc3e3f7410953"}, {"rental_uris": {"android": "https://dc.lft.to/lastmile_qr_scan", "ios": "https://dc.lft.to/lastmile_qr_scan"}, "name": "d2dccddd2a8e29deb14bebfbb1a1295d", "fusion_lat": 0.0, "lon": -77.04208466666667, "is_disabled": 0, "is_reserved": 0, "fusion_lon": 0.0, "lat": 38.920881, "type": "electric_scooter", "bike_id": "d2dccddd2a8e29deb14bebfbb1a1295d"}, {"rental_uris": {"android": "https://dc.lft.to/lastmile_qr_scan", "ios": "https://dc.lft.to/lastmile_qr_scan"}, "name": "b30c392369b2251ead79c8e4659ba673", "fusion_lat": 0.0, "lon": -77.03151016666666, "is_disabled": 0, "is_reserved": 0, "fusion_lon": 0.0, "lat": 38.887507, "type": "electric_scooter", "bike_id": "b30c392369b2251ead79c8e4659ba673"}, {"rental_uris": {"android": "https://dc.lft.to/lastmile_qr_scan", "ios": "https://dc.lft.to/lastmile_qr_scan"}, "name": "29184ec3ab86c5b6e0b61c9253953b0a", "fusion_lat": 0.0, "lon": -77.04173366666667, "is_disabled": 0, "is_reserved": 0, "fusion_lon": 0.0, "lat": 38.905338, "type": "electric_scooter", "bike_id": "29184ec3ab86c5b6e0b61c9253953b0a"}, {"rental_uris": {"android": "https://dc.lft.to/lastmile_qr_scan", "ios": "https://dc.lft.to/lastmile_qr_scan"}, "name": "2bf797f2592b676e812fab6be6ed57d4", "fusion_lat": 0.0, "lon": -77.06296966666666, "is_disabled": 0, "is_reserved": 0, "fusion_lon": 0.0, "lat": 38.9039525, "type": "electric_scooter", "bike_id": "2bf797f2592b676e812fab6be6ed57d4"}, {"rental_uris": {"android": "https://dc.lft.to/lastmile_qr_scan", "ios": "https://dc.lft.to/lastmile_qr_scan"}, "name": "44fb838faba3776276bcad8e74b3ffd9", "fusion_lat": 0.0, "lon": -77.00357116666666, "is_disabled": 0, "is_reserved": 0, "fusion_lon": 0.0, "lat": 38.87753283333333, "type": "electric_scooter", "bike_id": "44fb838faba3776276bcad8e74b3ffd9"}, {"rental_uris": {"android": "https://dc.lft.to/lastmile_qr_scan", "ios": "https://dc.lft.to/lastmile_qr_scan"}, "name": "34dcd99e5a71de0c1b5d49b766b8beae", "fusion_lat": 0.0, "lon": -77.0103525, "is_disabled": 0, "is_reserved": 0, "fusion_lon": 0.0, "lat": 38.90007, "type": "electric_scooter", "bike_id": "34dcd99e5a71de0c1b5d49b766b8beae"}, {"rental_uris": {"android": "https://dc.lft.to/lastmile_qr_scan", "ios": "https://dc.lft.to/lastmile_qr_scan"}, "name": "f22bc140238fdf9179c60bbe91cf0e9b", "fusion_lat": 0.0, "lon": -77.132315, "is_disabled": 0, "is_reserved": 0, "fusion_lon": 0.0, "lat": 38.8697385, "type": "electric_bike", "bike_id": "f22bc140238fdf9179c60bbe91cf0e9b"}, {"rental_uris": {"android": "https://dc.lft.to/lastmile_qr_scan", "ios": "https://dc.lft.to/lastmile_qr_scan"}, "name": "50793c956f3264e69bb3e60e2bd7eac6", "fusion_lat": 0.0, "lon": -77.01567416666667, "is_disabled": 0, "is_reserved": 0, "fusion_lon": 0.0, "lat": 38.89144483333333, "type": "electric_scooter", "bike_id": "50793c956f3264e69bb3e60e2bd7eac6"}, {"rental_uris": {"android": "https://dc.lft.to/lastmile_qr_scan", "ios": "https://dc.lft.to/lastmile_qr_scan"}, "name": "609b8b21f99b8fe04176775a6da88fa6", "fusion_lat": 0.0, "lon": -77.00564766666666, "is_disabled": 0, "is_reserved": 0, "fusion_lon": 0.0, "lat": 38.88504983333333, "type": "electric_scooter", "bike_id": "609b8b21f99b8fe04176775a6da88fa6"}, {"rental_uris": {"android": "https://dc.lft.to/lastmile_qr_scan", "ios": "https://dc.lft.to/lastmile_qr_scan"}, "name": "3ff89dc252ccac9147e39883fb983349", "fusion_lat": 0.0, "lon": -77.02539016666667, "is_disabled": 0, "is_reserved": 0, "fusion_lon": 0.0, "lat": 38.90083716666667, "type": "electric_scooter", "bike_id": "3ff89dc252ccac9147e39883fb983349"}, {"rental_uris": {"android": "https://dc.lft.to/lastmile_qr_scan", "ios": "https://dc.lft.to/lastmile_qr_scan"}, "name": "86d7ea57d0cc6dec33b0522f5a74011b", "fusion_lat": 0.0, "lon": -77.0075785, "is_disabled": 0, "is_reserved": 0, "fusion_lon": 0.0, "lat": 38.87674, "type": "electric_scooter", "bike_id": "86d7ea57d0cc6dec33b0522f5a74011b"}, {"rental_uris": {"android": "https://dc.lft.to/lastmile_qr_scan", "ios": "https://dc.lft.to/lastmile_qr_scan"}, "name": "90afc4fd7cbfa7c9d5393f2e85f5c591", "fusion_lat": 0.0, "lon": -77.07171166666667, "is_disabled": 0, "is_reserved": 0, "fusion_lon": 0.0, "lat": 38.907806666666666, "type": "electric_scooter", "bike_id": "90afc4fd7cbfa7c9d5393f2e85f5c591"}, {"rental_uris": {"android": "https://dc.lft.to/lastmile_qr_scan", "ios": "https://dc.lft.to/lastmile_qr_scan"}, "name": "3503cb0f1467982a8f6f07366cb690a5", "fusion_lat": 0.0, "lon": -76.9917225, "is_disabled": 0, "is_reserved": 0, "fusion_lon": 0.0, "lat": 38.889731833333336, "type": "electric_bike", "bike_id": "3503cb0f1467982a8f6f07366cb690a5"}, {"rental_uris": {"android": "https://dc.lft.to/lastmile_qr_scan", "ios": "https://dc.lft.to/lastmile_qr_scan"}, "name": "a92082406eb0bfae0806427dd49ed6ef", "fusion_lat": 0.0, "lon": -77.02170733333334, "is_disabled": 0, "is_reserved": 0, "fusion_lon": 0.0, "lat": 38.94294, "type": "electric_scooter", "bike_id": "a92082406eb0bfae0806427dd49ed6ef"}, {"rental_uris": {"android": "https://dc.lft.to/lastmile_qr_scan", "ios": "https://dc.lft.to/lastmile_qr_scan"}, "name": "3c40d38c715960d328c4fdf3dfe8cb7f", "fusion_lat": 0.0, "lon": -77.06282583333333, "is_disabled": 0, "is_reserved": 0, "fusion_lon": 0.0, "lat": 38.90494833333333, "type": "electric_scooter", "bike_id": "3c40d38c715960d328c4fdf3dfe8cb7f"}, {"rental_uris": {"android": "https://dc.lft.to/lastmile_qr_scan", "ios": "https://dc.lft.to/lastmile_qr_scan"}, "name": "04ccee6adb9773f6e5cbfeef43f5c0e0", "fusion_lat": 0.0, "lon": -77.02421516666666, "is_disabled": 0, "is_reserved": 0, "fusion_lon": 0.0, "lat": 38.91824, "type": "electric_scooter", "bike_id": "04ccee6adb9773f6e5cbfeef43f5c0e0"}, {"rental_uris": {"android": "https://dc.lft.to/lastmile_qr_scan", "ios": "https://dc.lft.to/lastmile_qr_scan"}, "name": "2f84b90ab5f239d768b75a1a3d0e9ceb", "fusion_lat": 0.0, "lon": -77.0224045, "is_disabled": 0, "is_reserved": 0, "fusion_lon": 0.0, "lat": 38.92292366666667, "type": "electric_bike", "bike_id": "2f84b90ab5f239d768b75a1a3d0e9ceb"}, {"rental_uris": {"android": "https://dc.lft.to/lastmile_qr_scan", "ios": "https://dc.lft.to/lastmile_qr_scan"}, "name": "7d40542d2fe798006998ea3e7778896a", "fusion_lat": 0.0, "lon": -77.03332483333334, "is_disabled": 0, "is_reserved": 0, "fusion_lon": 0.0, "lat": 38.898297166666666, "type": "electric_scooter", "bike_id": "7d40542d2fe798006998ea3e7778896a"}, {"rental_uris": {"android": "https://dc.lft.to/lastmile_qr_scan", "ios": "https://dc.lft.to/lastmile_qr_scan"}, "name": "2142f0fc90918d95d5aad9c6d002fe43", "fusion_lat": 0.0, "lon": -77.04503333333334, "is_disabled": 0, "is_reserved": 0, "fusion_lon": 0.0, "lat": 38.91421283333333, "type": "electric_scooter", "bike_id": "2142f0fc90918d95d5aad9c6d002fe43"}, {"rental_uris": {"android": "https://dc.lft.to/lastmile_qr_scan", "ios": "https://dc.lft.to/lastmile_qr_scan"}, "name": "5c36657558eabe920191347db8f7cf02", "fusion_lat": 0.0, "lon": -77.04260166666667, "is_disabled": 0, "is_reserved": 0, "fusion_lon": 0.0, "lat": 38.9082035, "type": "electric_scooter", "bike_id": "5c36657558eabe920191347db8f7cf02"}, {"rental_uris": {"android": "https://dc.lft.to/lastmile_qr_scan", "ios": "https://dc.lft.to/lastmile_qr_scan"}, "name": "42ee1e21c88b77c2f9df5edda3cc3f4c", "fusion_lat": 0.0, "lon": -77.0260355, "is_disabled": 0, "is_reserved": 0, "fusion_lon": 0.0, "lat": 38.91635183333333, "type": "electric_scooter", "bike_id": "42ee1e21c88b77c2f9df5edda3cc3f4c"}, {"rental_uris": {"android": "https://dc.lft.to/lastmile_qr_scan", "ios": "https://dc.lft.to/lastmile_qr_scan"}, "name": "ec661ecb8e95baa127a2284a96143c52", "fusion_lat": 0.0, "lon": -77.04743883333333, "is_disabled": 0, "is_reserved": 0, "fusion_lon": 0.0, "lat": 38.90591666666667, "type": "electric_scooter", "bike_id": "ec661ecb8e95baa127a2284a96143c52"}, {"rental_uris": {"android": "https://dc.lft.to/lastmile_qr_scan", "ios": "https://dc.lft.to/lastmile_qr_scan"}, "name": "895c157ea3f0be1b4b23f4fca5c7948a", "fusion_lat": 0.0, "lon": -77.02917733333334, "is_disabled": 0, "is_reserved": 0, "fusion_lon": 0.0, "lat": 38.938721, "type": "electric_scooter", "bike_id": "895c157ea3f0be1b4b23f4fca5c7948a"}, {"rental_uris": {"android": "https://dc.lft.to/lastmile_qr_scan", "ios": "https://dc.lft.to/lastmile_qr_scan"}, "name": "d91d15244727025ad0ce270b78d903e2", "fusion_lat": 0.0, "lon": -77.03190083333334, "is_disabled": 0, "is_reserved": 0, "fusion_lon": 0.0, "lat": 38.91765016666667, "type": "electric_scooter", "bike_id": "d91d15244727025ad0ce270b78d903e2"}, {"rental_uris": {"android": "https://dc.lft.to/lastmile_qr_scan", "ios": "https://dc.lft.to/lastmile_qr_scan"}, "name": "2edd10073e1e1cbf6e5ea95d5585000a", "fusion_lat": 0.0, "lon": -76.93227283333333, "is_disabled": 0, "is_reserved": 0, "fusion_lon": 0.0, "lat": 38.865937833333334, "type": "electric_bike", "bike_id": "2edd10073e1e1cbf6e5ea95d5585000a"}, {"rental_uris": {"android": "https://dc.lft.to/lastmile_qr_scan", "ios": "https://dc.lft.to/lastmile_qr_scan"}, "name": "2f93fb154d773aeb1fa9e36e5ab126ad", "fusion_lat": 0.0, "lon": -77.01837083333334, "is_disabled": 0, "is_reserved": 0, "fusion_lon": 0.0, "lat": 38.921990666666666, "type": "electric_scooter", "bike_id": "2f93fb154d773aeb1fa9e36e5ab126ad"}, {"rental_uris": {"android": "https://dc.lft.to/lastmile_qr_scan", "ios": "https://dc.lft.to/lastmile_qr_scan"}, "name": "ccc5d029beba901f4ba61035b152978e", "fusion_lat": 0.0, "lon": -77.1258335, "is_disabled": 0, "is_reserved": 0, "fusion_lon": 0.0, "lat": 38.851457833333335, "type": "electric_bike", "bike_id": "ccc5d029beba901f4ba61035b152978e"}, {"rental_uris": {"android": "https://dc.lft.to/lastmile_qr_scan", "ios": "https://dc.lft.to/lastmile_qr_scan"}, "name": "195e8fae31403f9a2692c57f5d338ace", "fusion_lat": 0.0, "lon": -76.940653, "is_disabled": 0, "is_reserved": 0, "fusion_lon": 0.0, "lat": 38.8902535, "type": "electric_scooter", "bike_id": "195e8fae31403f9a2692c57f5d338ace"}, {"rental_uris": {"android": "https://dc.lft.to/lastmile_qr_scan", "ios": "https://dc.lft.to/lastmile_qr_scan"}, "name": "204e2d54dc900be3f39a716d9c8619e4", "fusion_lat": 0.0, "lon": -77.032138, "is_disabled": 0, "is_reserved": 0, "fusion_lon": 0.0, "lat": 38.892268, "type": "electric_scooter", "bike_id": "204e2d54dc900be3f39a716d9c8619e4"}, {"rental_uris": {"android": "https://dc.lft.to/lastmile_qr_scan", "ios": "https://dc.lft.to/lastmile_qr_scan"}, "name": "f72a510add4acd3c5fdc12a3ee3e9f92", "fusion_lat": 0.0, "lon": -77.0225225, "is_disabled": 0, "is_reserved": 0, "fusion_lon": 0.0, "lat": 38.96556266666666, "type": "electric_scooter", "bike_id": "f72a510add4acd3c5fdc12a3ee3e9f92"}, {"rental_uris": {"android": "https://dc.lft.to/lastmile_qr_scan", "ios": "https://dc.lft.to/lastmile_qr_scan"}, "name": "fdcdce4ec2db2b33b1e62dbff5072cda", "fusion_lat": 0.0, "lon": -77.02717183333333, "is_disabled": 0, "is_reserved": 0, "fusion_lon": 0.0, "lat": 38.9075265, "type": "electric_scooter", "bike_id": "fdcdce4ec2db2b33b1e62dbff5072cda"}, {"rental_uris": {"android": "https://dc.lft.to/lastmile_qr_scan", "ios": "https://dc.lft.to/lastmile_qr_scan"}, "name": "778edb8489f457214b21d0343b53ab5e", "fusion_lat": 0.0, "lon": -77.0449705, "is_disabled": 0, "is_reserved": 0, "fusion_lon": 0.0, "lat": 38.909183166666665, "type": "electric_scooter", "bike_id": "778edb8489f457214b21d0343b53ab5e"}, {"rental_uris": {"android": "https://dc.lft.to/lastmile_qr_scan", "ios": "https://dc.lft.to/lastmile_qr_scan"}, "name": "f74ff318d770322cd4bacf236ae4d5fb", "fusion_lat": 0.0, "lon": -77.02233433333333, "is_disabled": 0, "is_reserved": 0, "fusion_lon": 0.0, "lat": 38.898461, "type": "electric_bike", "bike_id": "f74ff318d770322cd4bacf236ae4d5fb"}, {"rental_uris": {"android": "https://dc.lft.to/lastmile_qr_scan", "ios": "https://dc.lft.to/lastmile_qr_scan"}, "name": "cac6338d5bec45015746dea01013bc78", "fusion_lat": 0.0, "lon": -77.02484133333333, "is_disabled": 0, "is_reserved": 0, "fusion_lon": 0.0, "lat": 38.8801355, "type": "electric_scooter", "bike_id": "cac6338d5bec45015746dea01013bc78"}, {"rental_uris": {"android": "https://dc.lft.to/lastmile_qr_scan", "ios": "https://dc.lft.to/lastmile_qr_scan"}, "name": "eeeecfc84e2896fc2c93b944ef9d1264", "fusion_lat": 0.0, "lon": -77.042825, "is_disabled": 0, "is_reserved": 0, "fusion_lon": 0.0, "lat": 38.9141585, "type": "electric_scooter", "bike_id": "eeeecfc84e2896fc2c93b944ef9d1264"}, {"rental_uris": {"android": "https://dc.lft.to/lastmile_qr_scan", "ios": "https://dc.lft.to/lastmile_qr_scan"}, "name": "6f457065feb3dbc21e4b1d400dc0db5a", "fusion_lat": 0.0, "lon": -77.0297385, "is_disabled": 0, "is_reserved": 0, "fusion_lon": 0.0, "lat": 38.927472, "type": "electric_scooter", "bike_id": "6f457065feb3dbc21e4b1d400dc0db5a"}, {"rental_uris": {"android": "https://dc.lft.to/lastmile_qr_scan", "ios": "https://dc.lft.to/lastmile_qr_scan"}, "name": "9cb2f81d09496b74e2411e4af24b48f6", "fusion_lat": 0.0, "lon": -77.008299, "is_disabled": 0, "is_reserved": 0, "fusion_lon": 0.0, "lat": 38.91261516666667, "type": "electric_scooter", "bike_id": "9cb2f81d09496b74e2411e4af24b48f6"}, {"rental_uris": {"android": "https://dc.lft.to/lastmile_qr_scan", "ios": "https://dc.lft.to/lastmile_qr_scan"}, "name": "8fcfa3543ce5f22027122553dc68d78c", "fusion_lat": 0.0, "lon": -76.88906083333333, "is_disabled": 0, "is_reserved": 0, "fusion_lon": 0.0, "lat": 38.92593316666667, "type": "electric_bike", "bike_id": "8fcfa3543ce5f22027122553dc68d78c"}, {"rental_uris": {"android": "https://dc.lft.to/lastmile_qr_scan", "ios": "https://dc.lft.to/lastmile_qr_scan"}, "name": "e18c9039d9398fc827055b50e1193a31", "fusion_lat": 0.0, "lon": -77.0033345, "is_disabled": 0, "is_reserved": 0, "fusion_lon": 0.0, "lat": 38.89357033333334, "type": "electric_scooter", "bike_id": "e18c9039d9398fc827055b50e1193a31"}, {"rental_uris": {"android": "https://dc.lft.to/lastmile_qr_scan", "ios": "https://dc.lft.to/lastmile_qr_scan"}, "name": "5bc0bcde97c7784d9bda32b2872e802a", "fusion_lat": 0.0, "lon": -77.03833583333333, "is_disabled": 0, "is_reserved": 0, "fusion_lon": 0.0, "lat": 38.90347916666666, "type": "electric_scooter", "bike_id": "5bc0bcde97c7784d9bda32b2872e802a"}, {"rental_uris": {"android": "https://dc.lft.to/lastmile_qr_scan", "ios": "https://dc.lft.to/lastmile_qr_scan"}, "name": "fe90fa1443faaf8df9d7a2bafb400efc", "fusion_lat": 0.0, "lon": -77.07189266666667, "is_disabled": 0, "is_reserved": 0, "fusion_lon": 0.0, "lat": 38.92104416666667, "type": "electric_scooter", "bike_id": "fe90fa1443faaf8df9d7a2bafb400efc"}, {"rental_uris": {"android": "https://dc.lft.to/lastmile_qr_scan", "ios": "https://dc.lft.to/lastmile_qr_scan"}, "name": "435eb0e78528011e142617a9c1fa2a7f", "fusion_lat": 0.0, "lon": -76.95224966666666, "is_disabled": 0, "is_reserved": 0, "fusion_lon": 0.0, "lat": 38.892359666666664, "type": "electric_bike", "bike_id": "435eb0e78528011e142617a9c1fa2a7f"}, {"rental_uris": {"android": "https://dc.lft.to/lastmile_qr_scan", "ios": "https://dc.lft.to/lastmile_qr_scan"}, "name": "10099402d3357407b0362d39cc0f9dcc", "fusion_lat": 0.0, "lon": -77.023173, "is_disabled": 0, "is_reserved": 0, "fusion_lon": 0.0, "lat": 38.927879, "type": "electric_scooter", "bike_id": "10099402d3357407b0362d39cc0f9dcc"}, {"rental_uris": {"android": "https://dc.lft.to/lastmile_qr_scan", "ios": "https://dc.lft.to/lastmile_qr_scan"}, "name": "5699c42906cfc5db59dc260d8570a999", "fusion_lat": 0.0, "lon": -77.03836516666667, "is_disabled": 0, "is_reserved": 0, "fusion_lon": 0.0, "lat": 38.909945666666665, "type": "electric_scooter", "bike_id": "5699c42906cfc5db59dc260d8570a999"}, {"rental_uris": {"android": "https://dc.lft.to/lastmile_qr_scan", "ios": "https://dc.lft.to/lastmile_qr_scan"}, "name": "5196a8f9a3848acee2f9ec116b4ffe7d", "fusion_lat": 0.0, "lon": -76.94858316666667, "is_disabled": 0, "is_reserved": 0, "fusion_lon": 0.0, "lat": 38.895687833333334, "type": "electric_scooter", "bike_id": "5196a8f9a3848acee2f9ec116b4ffe7d"}, {"rental_uris": {"android": "https://dc.lft.to/lastmile_qr_scan", "ios": "https://dc.lft.to/lastmile_qr_scan"}, "name": "6667de1f19e2ac87886011c05eb69a18", "fusion_lat": 0.0, "lon": -76.99001366666667, "is_disabled": 0, "is_reserved": 0, "fusion_lon": 0.0, "lat": 38.865065666666666, "type": "electric_scooter", "bike_id": "6667de1f19e2ac87886011c05eb69a18"}, {"rental_uris": {"android": "https://dc.lft.to/lastmile_qr_scan", "ios": "https://dc.lft.to/lastmile_qr_scan"}, "name": "a95797eb02fd3a3514f593197ac3551f", "fusion_lat": 0.0, "lon": -76.934329, "is_disabled": 0, "is_reserved": 0, "fusion_lon": 0.0, "lat": 38.89965933333333, "type": "electric_scooter", "bike_id": "a95797eb02fd3a3514f593197ac3551f"}, {"rental_uris": {"android": "https://dc.lft.to/lastmile_qr_scan", "ios": "https://dc.lft.to/lastmile_qr_scan"}, "name": "dfa4a51e755c40eab4704683f5c6b8d7", "fusion_lat": 0.0, "lon": -77.036967, "is_disabled": 0, "is_reserved": 0, "fusion_lon": 0.0, "lat": 38.92652116666667, "type": "electric_scooter", "bike_id": "dfa4a51e755c40eab4704683f5c6b8d7"}, {"rental_uris": {"android": "https://dc.lft.to/lastmile_qr_scan", "ios": "https://dc.lft.to/lastmile_qr_scan"}, "name": "699d7035c1ac19c8a7f09cb1183e9057", "fusion_lat": 0.0, "lon": -77.0229025, "is_disabled": 0, "is_reserved": 0, "fusion_lon": 0.0, "lat": 38.9169, "type": "electric_scooter", "bike_id": "699d7035c1ac19c8a7f09cb1183e9057"}, {"rental_uris": {"android": "https://dc.lft.to/lastmile_qr_scan", "ios": "https://dc.lft.to/lastmile_qr_scan"}, "name": "678b4627d15b3f170490be11751c3903", "fusion_lat": 0.0, "lon": -77.05299316666667, "is_disabled": 0, "is_reserved": 0, "fusion_lon": 0.0, "lat": 38.9278625, "type": "electric_scooter", "bike_id": "678b4627d15b3f170490be11751c3903"}, {"rental_uris": {"android": "https://dc.lft.to/lastmile_qr_scan", "ios": "https://dc.lft.to/lastmile_qr_scan"}, "name": "744361b1662da6ab2fbf5fe417abbe27", "fusion_lat": 0.0, "lon": -77.02860833333334, "is_disabled": 0, "is_reserved": 0, "fusion_lon": 0.0, "lat": 38.922339, "type": "electric_scooter", "bike_id": "744361b1662da6ab2fbf5fe417abbe27"}, {"rental_uris": {"android": "https://dc.lft.to/lastmile_qr_scan", "ios": "https://dc.lft.to/lastmile_qr_scan"}, "name": "11985988ee3d9c55ee110b599c2554cb", "fusion_lat": 0.0, "lon": -77.03216716666667, "is_disabled": 0, "is_reserved": 0, "fusion_lon": 0.0, "lat": 38.9077345, "type": "electric_scooter", "bike_id": "11985988ee3d9c55ee110b599c2554cb"}, {"rental_uris": {"android": "https://dc.lft.to/lastmile_qr_scan", "ios": "https://dc.lft.to/lastmile_qr_scan"}, "name": "a14c4079f35908d0075da32c27b23620", "fusion_lat": 0.0, "lon": -77.04000233333333, "is_disabled": 0, "is_reserved": 0, "fusion_lon": 0.0, "lat": 38.932541, "type": "electric_scooter", "bike_id": "a14c4079f35908d0075da32c27b23620"}, {"rental_uris": {"android": "https://dc.lft.to/lastmile_qr_scan", "ios": "https://dc.lft.to/lastmile_qr_scan"}, "name": "806e494c660dc60313e7c7b33989b731", "fusion_lat": 0.0, "lon": -76.99628366666667, "is_disabled": 0, "is_reserved": 0, "fusion_lon": 0.0, "lat": 38.846206, "type": "electric_scooter", "bike_id": "806e494c660dc60313e7c7b33989b731"}, {"rental_uris": {"android": "https://dc.lft.to/lastmile_qr_scan", "ios": "https://dc.lft.to/lastmile_qr_scan"}, "name": "452b1c487f9eea6df441927c4b4ecc56", "fusion_lat": 0.0, "lon": -77.0321485, "is_disabled": 0, "is_reserved": 0, "fusion_lon": 0.0, "lat": 38.92875883333333, "type": "electric_scooter", "bike_id": "452b1c487f9eea6df441927c4b4ecc56"}, {"rental_uris": {"android": "https://dc.lft.to/lastmile_qr_scan", "ios": "https://dc.lft.to/lastmile_qr_scan"}, "name": "2908ed2a7abe5c37f5171ce5c851733d", "fusion_lat": 0.0, "lon": -77.05021033333334, "is_disabled": 0, "is_reserved": 0, "fusion_lon": 0.0, "lat": 38.89549, "type": "electric_scooter", "bike_id": "2908ed2a7abe5c37f5171ce5c851733d"}, {"rental_uris": {"android": "https://dc.lft.to/lastmile_qr_scan", "ios": "https://dc.lft.to/lastmile_qr_scan"}, "name": "66b38b8d8f05d89a6a8621be4c53cd7b", "fusion_lat": 0.0, "lon": -77.02110466666667, "is_disabled": 0, "is_reserved": 0, "fusion_lon": 0.0, "lat": 38.94100233333333, "type": "electric_scooter", "bike_id": "66b38b8d8f05d89a6a8621be4c53cd7b"}, {"rental_uris": {"android": "https://dc.lft.to/lastmile_qr_scan", "ios": "https://dc.lft.to/lastmile_qr_scan"}, "name": "777c715041b9b1f5dd86a986e8d0b2e4", "fusion_lat": 0.0, "lon": -76.96508133333333, "is_disabled": 0, "is_reserved": 0, "fusion_lon": 0.0, "lat": 38.876496, "type": "electric_scooter", "bike_id": "777c715041b9b1f5dd86a986e8d0b2e4"}, {"rental_uris": {"android": "https://dc.lft.to/lastmile_qr_scan", "ios": "https://dc.lft.to/lastmile_qr_scan"}, "name": "2c0f53b25a4036f57c7f32a9b2cf90d0", "fusion_lat": 0.0, "lon": -77.02493016666666, "is_disabled": 0, "is_reserved": 0, "fusion_lon": 0.0, "lat": 38.899652333333336, "type": "electric_scooter", "bike_id": "2c0f53b25a4036f57c7f32a9b2cf90d0"}, {"rental_uris": {"android": "https://dc.lft.to/lastmile_qr_scan", "ios": "https://dc.lft.to/lastmile_qr_scan"}, "name": "52f389e0377fdec592e11fd4c2b32668", "fusion_lat": 0.0, "lon": -77.037651, "is_disabled": 0, "is_reserved": 0, "fusion_lon": 0.0, "lat": 38.916931, "type": "electric_scooter", "bike_id": "52f389e0377fdec592e11fd4c2b32668"}, {"rental_uris": {"android": "https://dc.lft.to/lastmile_qr_scan", "ios": "https://dc.lft.to/lastmile_qr_scan"}, "name": "37088cf7e3cfade3cb231385a0df3080", "fusion_lat": 0.0, "lon": -76.93675916666666, "is_disabled": 0, "is_reserved": 0, "fusion_lon": 0.0, "lat": 38.88754616666667, "type": "electric_scooter", "bike_id": "37088cf7e3cfade3cb231385a0df3080"}, {"rental_uris": {"android": "https://dc.lft.to/lastmile_qr_scan", "ios": "https://dc.lft.to/lastmile_qr_scan"}, "name": "fa2cb3b797c0751e20dc837b9d08bf49", "fusion_lat": 0.0, "lon": -76.99025266666666, "is_disabled": 0, "is_reserved": 0, "fusion_lon": 0.0, "lat": 38.864018333333334, "type": "electric_scooter", "bike_id": "fa2cb3b797c0751e20dc837b9d08bf49"}, {"rental_uris": {"android": "https://dc.lft.to/lastmile_qr_scan", "ios": "https://dc.lft.to/lastmile_qr_scan"}, "name": "96ce819cd25fd77365da4b16aefa4540", "fusion_lat": 0.0, "lon": -77.00404683333333, "is_disabled": 0, "is_reserved": 0, "fusion_lon": 0.0, "lat": 38.906061, "type": "electric_scooter", "bike_id": "96ce819cd25fd77365da4b16aefa4540"}, {"rental_uris": {"android": "https://dc.lft.to/lastmile_qr_scan", "ios": "https://dc.lft.to/lastmile_qr_scan"}, "name": "a569edd0c570ce387b0022f907e3ad45", "fusion_lat": 0.0, "lon": -77.0342825, "is_disabled": 0, "is_reserved": 0, "fusion_lon": 0.0, "lat": 38.9050155, "type": "electric_scooter", "bike_id": "a569edd0c570ce387b0022f907e3ad45"}, {"rental_uris": {"android": "https://dc.lft.to/lastmile_qr_scan", "ios": "https://dc.lft.to/lastmile_qr_scan"}, "name": "d06137b037d82b69ca13531113aa1f51", "fusion_lat": 0.0, "lon": -77.03201416666667, "is_disabled": 0, "is_reserved": 0, "fusion_lon": 0.0, "lat": 38.92331166666666, "type": "electric_scooter", "bike_id": "d06137b037d82b69ca13531113aa1f51"}, {"rental_uris": {"android": "https://dc.lft.to/lastmile_qr_scan", "ios": "https://dc.lft.to/lastmile_qr_scan"}, "name": "1788f75402676acaf4f276c8bdff93b1", "fusion_lat": 0.0, "lon": -76.92340266666666, "is_disabled": 0, "is_reserved": 0, "fusion_lon": 0.0, "lat": 38.887880833333334, "type": "electric_bike", "bike_id": "1788f75402676acaf4f276c8bdff93b1"}, {"rental_uris": {"android": "https://dc.lft.to/lastmile_qr_scan", "ios": "https://dc.lft.to/lastmile_qr_scan"}, "name": "84eeed719a5048810b765387f7e240b4", "fusion_lat": 0.0, "lon": -77.01100916666667, "is_disabled": 0, "is_reserved": 0, "fusion_lon": 0.0, "lat": 38.8961305, "type": "electric_scooter", "bike_id": "84eeed719a5048810b765387f7e240b4"}, {"rental_uris": {"android": "https://dc.lft.to/lastmile_qr_scan", "ios": "https://dc.lft.to/lastmile_qr_scan"}, "name": "c2aaaf5d2b46fdf65fb33a43fcd698d4", "fusion_lat": 0.0, "lon": -77.00210666666666, "is_disabled": 0, "is_reserved": 0, "fusion_lon": 0.0, "lat": 38.8938705, "type": "electric_scooter", "bike_id": "c2aaaf5d2b46fdf65fb33a43fcd698d4"}, {"rental_uris": {"android": "https://dc.lft.to/lastmile_qr_scan", "ios": "https://dc.lft.to/lastmile_qr_scan"}, "name": "b5e52a1c5fe10c739b145d6a4b494a6b", "fusion_lat": 0.0, "lon": -77.032642, "is_disabled": 0, "is_reserved": 0, "fusion_lon": 0.0, "lat": 38.93522466666667, "type": "electric_scooter", "bike_id": "b5e52a1c5fe10c739b145d6a4b494a6b"}, {"rental_uris": {"android": "https://dc.lft.to/lastmile_qr_scan", "ios": "https://dc.lft.to/lastmile_qr_scan"}, "name": "7b2b2fc050e5609166fc97c246f4c01c", "fusion_lat": 0.0, "lon": -77.032851, "is_disabled": 0, "is_reserved": 0, "fusion_lon": 0.0, "lat": 38.898869, "type": "electric_scooter", "bike_id": "7b2b2fc050e5609166fc97c246f4c01c"}, {"rental_uris": {"android": "https://dc.lft.to/lastmile_qr_scan", "ios": "https://dc.lft.to/lastmile_qr_scan"}, "name": "469141fd750cadbd4ae9cebe5b1c5552", "fusion_lat": 0.0, "lon": -76.87769733333333, "is_disabled": 0, "is_reserved": 0, "fusion_lon": 0.0, "lat": 38.9922885, "type": "electric_bike", "bike_id": "469141fd750cadbd4ae9cebe5b1c5552"}, {"rental_uris": {"android": "https://dc.lft.to/lastmile_qr_scan", "ios": "https://dc.lft.to/lastmile_qr_scan"}, "name": "f9de0edaecd73f54ac2131a731719133", "fusion_lat": 0.0, "lon": -77.03305533333334, "is_disabled": 0, "is_reserved": 0, "fusion_lon": 0.0, "lat": 38.896422333333334, "type": "electric_scooter", "bike_id": "f9de0edaecd73f54ac2131a731719133"}, {"rental_uris": {"android": "https://dc.lft.to/lastmile_qr_scan", "ios": "https://dc.lft.to/lastmile_qr_scan"}, "name": "0975a3a916cf1a6fc0f22257eb9f6dd0", "fusion_lat": 0.0, "lon": -76.96388933333333, "is_disabled": 0, "is_reserved": 0, "fusion_lon": 0.0, "lat": 38.975785333333334, "type": "electric_bike", "bike_id": "0975a3a916cf1a6fc0f22257eb9f6dd0"}, {"rental_uris": {"android": "https://dc.lft.to/lastmile_qr_scan", "ios": "https://dc.lft.to/lastmile_qr_scan"}, "name": "01b27641a891a3dc101892e694881cbd", "fusion_lat": 0.0, "lon": -77.02944933333333, "is_disabled": 0, "is_reserved": 0, "fusion_lon": 0.0, "lat": 38.9324345, "type": "electric_scooter", "bike_id": "01b27641a891a3dc101892e694881cbd"}, {"rental_uris": {"android": "https://dc.lft.to/lastmile_qr_scan", "ios": "https://dc.lft.to/lastmile_qr_scan"}, "name": "c0a6566f2f7d8f17086bab95ee46b08a", "fusion_lat": 0.0, "lon": -77.041739, "is_disabled": 0, "is_reserved": 0, "fusion_lon": 0.0, "lat": 38.914633333333335, "type": "electric_scooter", "bike_id": "c0a6566f2f7d8f17086bab95ee46b08a"}, {"rental_uris": {"android": "https://dc.lft.to/lastmile_qr_scan", "ios": "https://dc.lft.to/lastmile_qr_scan"}, "name": "43c563f522889ba042ecf4bde2e5d05d", "fusion_lat": 0.0, "lon": -77.02367716666667, "is_disabled": 0, "is_reserved": 0, "fusion_lon": 0.0, "lat": 38.90436483333333, "type": "electric_scooter", "bike_id": "43c563f522889ba042ecf4bde2e5d05d"}, {"rental_uris": {"android": "https://dc.lft.to/lastmile_qr_scan", "ios": "https://dc.lft.to/lastmile_qr_scan"}, "name": "88fc19ac682783cca9135fc945a4282d", "fusion_lat": 0.0, "lon": -76.9486725, "is_disabled": 0, "is_reserved": 0, "fusion_lon": 0.0, "lat": 38.88966116666667, "type": "electric_bike", "bike_id": "88fc19ac682783cca9135fc945a4282d"}, {"rental_uris": {"android": "https://dc.lft.to/lastmile_qr_scan", "ios": "https://dc.lft.to/lastmile_qr_scan"}, "name": "72563083d3c7f9c795c2b0243f53a75f", "fusion_lat": 0.0, "lon": -76.99263, "is_disabled": 0, "is_reserved": 0, "fusion_lon": 0.0, "lat": 38.92657, "type": "electric_bike", "bike_id": "72563083d3c7f9c795c2b0243f53a75f"}, {"rental_uris": {"android": "https://dc.lft.to/lastmile_qr_scan", "ios": "https://dc.lft.to/lastmile_qr_scan"}, "name": "f95fab52f73397a1b2bf97aa9f5f4454", "fusion_lat": 0.0, "lon": -76.98530916666667, "is_disabled": 0, "is_reserved": 0, "fusion_lon": 0.0, "lat": 38.920011, "type": "electric_bike", "bike_id": "f95fab52f73397a1b2bf97aa9f5f4454"}, {"rental_uris": {"android": "https://dc.lft.to/lastmile_qr_scan", "ios": "https://dc.lft.to/lastmile_qr_scan"}, "name": "92f2bd7bb0deb173f581ff200fe389c0", "fusion_lat": 0.0, "lon": -77.107126, "is_disabled": 0, "is_reserved": 0, "fusion_lon": 0.0, "lat": 38.85539583333333, "type": "electric_bike", "bike_id": "92f2bd7bb0deb173f581ff200fe389c0"}, {"rental_uris": {"android": "https://dc.lft.to/lastmile_qr_scan", "ios": "https://dc.lft.to/lastmile_qr_scan"}, "name": "78f297417d4344e0b8bb77617cde4e42", "fusion_lat": 0.0, "lon": -77.06524083333333, "is_disabled": 0, "is_reserved": 0, "fusion_lon": 0.0, "lat": 38.90552266666667, "type": "electric_bike", "bike_id": "78f297417d4344e0b8bb77617cde4e42"}, {"rental_uris": {"android": "https://dc.lft.to/lastmile_qr_scan", "ios": "https://dc.lft.to/lastmile_qr_scan"}, "name": "e105b33da8e058c5eeff68936370af8c", "fusion_lat": 0.0, "lon": -76.94841666666667, "is_disabled": 0, "is_reserved": 0, "fusion_lon": 0.0, "lat": 38.89486, "type": "electric_scooter", "bike_id": "e105b33da8e058c5eeff68936370af8c"}, {"rental_uris": {"android": "https://dc.lft.to/lastmile_qr_scan", "ios": "https://dc.lft.to/lastmile_qr_scan"}, "name": "f299a45b7c1eccb3e284e53f9b9ffb77", "fusion_lat": 0.0, "lon": -77.00597716666667, "is_disabled": 0, "is_reserved": 0, "fusion_lon": 0.0, "lat": 38.87730466666667, "type": "electric_scooter", "bike_id": "f299a45b7c1eccb3e284e53f9b9ffb77"}, {"rental_uris": {"android": "https://dc.lft.to/lastmile_qr_scan", "ios": "https://dc.lft.to/lastmile_qr_scan"}, "name": "e2c62c20dfe419154c1a1430553369fd", "fusion_lat": 0.0, "lon": -77.0483945, "is_disabled": 0, "is_reserved": 0, "fusion_lon": 0.0, "lat": 38.91331, "type": "electric_scooter", "bike_id": "e2c62c20dfe419154c1a1430553369fd"}, {"rental_uris": {"android": "https://dc.lft.to/lastmile_qr_scan", "ios": "https://dc.lft.to/lastmile_qr_scan"}, "name": "403d8ef5c089305d266039368fb24040", "fusion_lat": 0.0, "lon": -77.037067, "is_disabled": 0, "is_reserved": 0, "fusion_lon": 0.0, "lat": 38.92647783333334, "type": "electric_scooter", "bike_id": "403d8ef5c089305d266039368fb24040"}, {"rental_uris": {"android": "https://dc.lft.to/lastmile_qr_scan", "ios": "https://dc.lft.to/lastmile_qr_scan"}, "name": "1e0591d81ffdf52ffd69d6a98e09d2c3", "fusion_lat": 0.0, "lon": -77.08529333333334, "is_disabled": 0, "is_reserved": 0, "fusion_lon": 0.0, "lat": 38.856489, "type": "electric_bike", "bike_id": "1e0591d81ffdf52ffd69d6a98e09d2c3"}, {"rental_uris": {"android": "https://dc.lft.to/lastmile_qr_scan", "ios": "https://dc.lft.to/lastmile_qr_scan"}, "name": "2f05c15bdb47ce5aa6bdad9985a199dd", "fusion_lat": 0.0, "lon": -77.003374, "is_disabled": 0, "is_reserved": 0, "fusion_lon": 0.0, "lat": 38.8935455, "type": "electric_scooter", "bike_id": "2f05c15bdb47ce5aa6bdad9985a199dd"}, {"rental_uris": {"android": "https://dc.lft.to/lastmile_qr_scan", "ios": "https://dc.lft.to/lastmile_qr_scan"}, "name": "d8cf941983aa3a5b93e8419bc0278eaf", "fusion_lat": 0.0, "lon": -77.011116, "is_disabled": 0, "is_reserved": 0, "fusion_lon": 0.0, "lat": 38.903631, "type": "electric_scooter", "bike_id": "d8cf941983aa3a5b93e8419bc0278eaf"}, {"rental_uris": {"android": "https://dc.lft.to/lastmile_qr_scan", "ios": "https://dc.lft.to/lastmile_qr_scan"}, "name": "1f1ec2744deaa00355d18e2d2c439245", "fusion_lat": 0.0, "lon": -77.02755766666667, "is_disabled": 0, "is_reserved": 0, "fusion_lon": 0.0, "lat": 38.9538185, "type": "electric_bike", "bike_id": "1f1ec2744deaa00355d18e2d2c439245"}, {"rental_uris": {"android": "https://dc.lft.to/lastmile_qr_scan", "ios": "https://dc.lft.to/lastmile_qr_scan"}, "name": "8c95c9f97b4683f90b5b521b2da1af00", "fusion_lat": 0.0, "lon": -77.0249695, "is_disabled": 0, "is_reserved": 0, "fusion_lon": 0.0, "lat": 38.97396716666667, "type": "electric_bike", "bike_id": "8c95c9f97b4683f90b5b521b2da1af00"}, {"rental_uris": {"android": "https://dc.lft.to/lastmile_qr_scan", "ios": "https://dc.lft.to/lastmile_qr_scan"}, "name": "17b66e38b5a1d870d2873aded7d25cc8", "fusion_lat": 0.0, "lon": -77.00608266666667, "is_disabled": 0, "is_reserved": 0, "fusion_lon": 0.0, "lat": 38.87181233333333, "type": "electric_scooter", "bike_id": "17b66e38b5a1d870d2873aded7d25cc8"}, {"rental_uris": {"android": "https://dc.lft.to/lastmile_qr_scan", "ios": "https://dc.lft.to/lastmile_qr_scan"}, "name": "1e6006bfe79cdc0231b0974c5d7d9f60", "fusion_lat": 0.0, "lon": -77.02396833333333, "is_disabled": 0, "is_reserved": 0, "fusion_lon": 0.0, "lat": 38.9310265, "type": "electric_scooter", "bike_id": "1e6006bfe79cdc0231b0974c5d7d9f60"}, {"rental_uris": {"android": "https://dc.lft.to/lastmile_qr_scan", "ios": "https://dc.lft.to/lastmile_qr_scan"}, "name": "3cc25706c7cf4af6e45eec7fedca7fb8", "fusion_lat": 0.0, "lon": -76.980412, "is_disabled": 0, "is_reserved": 0, "fusion_lon": 0.0, "lat": 38.91676833333333, "type": "electric_scooter", "bike_id": "3cc25706c7cf4af6e45eec7fedca7fb8"}, {"rental_uris": {"android": "https://dc.lft.to/lastmile_qr_scan", "ios": "https://dc.lft.to/lastmile_qr_scan"}, "name": "41932bba8c5d2b4e7caaf425d4714e6e", "fusion_lat": 0.0, "lon": -77.01236133333333, "is_disabled": 0, "is_reserved": 0, "fusion_lon": 0.0, "lat": 38.9003795, "type": "electric_scooter", "bike_id": "41932bba8c5d2b4e7caaf425d4714e6e"}, {"rental_uris": {"android": "https://dc.lft.to/lastmile_qr_scan", "ios": "https://dc.lft.to/lastmile_qr_scan"}, "name": "6b4b4a95f49d72219473d7f624a5d31d", "fusion_lat": 0.0, "lon": -77.033349, "is_disabled": 0, "is_reserved": 0, "fusion_lon": 0.0, "lat": 38.89829233333333, "type": "electric_scooter", "bike_id": "6b4b4a95f49d72219473d7f624a5d31d"}, {"rental_uris": {"android": "https://dc.lft.to/lastmile_qr_scan", "ios": "https://dc.lft.to/lastmile_qr_scan"}, "name": "04fd10b171ec2753512f94fef1288b7a", "fusion_lat": 0.0, "lon": -77.00876333333333, "is_disabled": 0, "is_reserved": 0, "fusion_lon": 0.0, "lat": 38.905061833333335, "type": "electric_scooter", "bike_id": "04fd10b171ec2753512f94fef1288b7a"}, {"rental_uris": {"android": "https://dc.lft.to/lastmile_qr_scan", "ios": "https://dc.lft.to/lastmile_qr_scan"}, "name": "aad5a12562285eb1118fd8934d8250d1", "fusion_lat": 0.0, "lon": -77.033618, "is_disabled": 0, "is_reserved": 0, "fusion_lon": 0.0, "lat": 38.9119385, "type": "electric_scooter", "bike_id": "aad5a12562285eb1118fd8934d8250d1"}, {"rental_uris": {"android": "https://dc.lft.to/lastmile_qr_scan", "ios": "https://dc.lft.to/lastmile_qr_scan"}, "name": "f8e74013b92cfad0de1c5f251a1472fa", "fusion_lat": 0.0, "lon": -77.054378, "is_disabled": 0, "is_reserved": 0, "fusion_lon": 0.0, "lat": 38.89603966666667, "type": "electric_scooter", "bike_id": "f8e74013b92cfad0de1c5f251a1472fa"}, {"rental_uris": {"android": "https://dc.lft.to/lastmile_qr_scan", "ios": "https://dc.lft.to/lastmile_qr_scan"}, "name": "26974a0f998f2e7b372b9bd273f15b8d", "fusion_lat": 0.0, "lon": -77.03634583333333, "is_disabled": 0, "is_reserved": 0, "fusion_lon": 0.0, "lat": 38.93169916666667, "type": "electric_scooter", "bike_id": "26974a0f998f2e7b372b9bd273f15b8d"}, {"rental_uris": {"android": "https://dc.lft.to/lastmile_qr_scan", "ios": "https://dc.lft.to/lastmile_qr_scan"}, "name": "c3be7844aa5bb1f0b58b7f911a01e69c", "fusion_lat": 0.0, "lon": -77.085762, "is_disabled": 0, "is_reserved": 0, "fusion_lon": 0.0, "lat": 38.874232166666665, "type": "electric_bike", "bike_id": "c3be7844aa5bb1f0b58b7f911a01e69c"}, {"rental_uris": {"android": "https://dc.lft.to/lastmile_qr_scan", "ios": "https://dc.lft.to/lastmile_qr_scan"}, "name": "d8003e87443654ceb2340f5bf896eccf", "fusion_lat": 0.0, "lon": -76.96552683333333, "is_disabled": 0, "is_reserved": 0, "fusion_lon": 0.0, "lat": 38.9185005, "type": "electric_scooter", "bike_id": "d8003e87443654ceb2340f5bf896eccf"}, {"rental_uris": {"android": "https://dc.lft.to/lastmile_qr_scan", "ios": "https://dc.lft.to/lastmile_qr_scan"}, "name": "62c0244ebd29e92bd1d22a88e872ff77", "fusion_lat": 0.0, "lon": -77.04228483333333, "is_disabled": 0, "is_reserved": 0, "fusion_lon": 0.0, "lat": 38.897498666666664, "type": "electric_scooter", "bike_id": "62c0244ebd29e92bd1d22a88e872ff77"}, {"rental_uris": {"android": "https://dc.lft.to/lastmile_qr_scan", "ios": "https://dc.lft.to/lastmile_qr_scan"}, "name": "94de0384dca2f59f3b4464b2fe0ef5b7", "fusion_lat": 0.0, "lon": -77.02956033333334, "is_disabled": 0, "is_reserved": 0, "fusion_lon": 0.0, "lat": 38.89636766666667, "type": "electric_scooter", "bike_id": "94de0384dca2f59f3b4464b2fe0ef5b7"}, {"rental_uris": {"android": "https://dc.lft.to/lastmile_qr_scan", "ios": "https://dc.lft.to/lastmile_qr_scan"}, "name": "76223b371c8e4e56a3293ed4e165d9f5", "fusion_lat": 0.0, "lon": -77.0217735, "is_disabled": 0, "is_reserved": 0, "fusion_lon": 0.0, "lat": 38.9431275, "type": "electric_scooter", "bike_id": "76223b371c8e4e56a3293ed4e165d9f5"}, {"rental_uris": {"android": "https://dc.lft.to/lastmile_qr_scan", "ios": "https://dc.lft.to/lastmile_qr_scan"}, "name": "b624011c9666647495b6de9ceaead3b4", "fusion_lat": 0.0, "lon": -77.02392716666667, "is_disabled": 0, "is_reserved": 0, "fusion_lon": 0.0, "lat": 38.937055666666666, "type": "electric_scooter", "bike_id": "b624011c9666647495b6de9ceaead3b4"}, {"rental_uris": {"android": "https://dc.lft.to/lastmile_qr_scan", "ios": "https://dc.lft.to/lastmile_qr_scan"}, "name": "1b1ad624af2396888eb9bc86183dcb89", "fusion_lat": 0.0, "lon": -77.095248, "is_disabled": 0, "is_reserved": 0, "fusion_lon": 0.0, "lat": 38.838114166666664, "type": "electric_bike", "bike_id": "1b1ad624af2396888eb9bc86183dcb89"}, {"rental_uris": {"android": "https://dc.lft.to/lastmile_qr_scan", "ios": "https://dc.lft.to/lastmile_qr_scan"}, "name": "1c3490e6766d6f3fe906c49f36d61f62", "fusion_lat": 0.0, "lon": -77.05043266666667, "is_disabled": 0, "is_reserved": 0, "fusion_lon": 0.0, "lat": 38.89659483333333, "type": "electric_scooter", "bike_id": "1c3490e6766d6f3fe906c49f36d61f62"}, {"rental_uris": {"android": "https://dc.lft.to/lastmile_qr_scan", "ios": "https://dc.lft.to/lastmile_qr_scan"}, "name": "eed083682c6f74864c56b335225e17d4", "fusion_lat": 0.0, "lon": -77.02958616666666, "is_disabled": 0, "is_reserved": 0, "fusion_lon": 0.0, "lat": 38.921452333333335, "type": "electric_scooter", "bike_id": "eed083682c6f74864c56b335225e17d4"}, {"rental_uris": {"android": "https://dc.lft.to/lastmile_qr_scan", "ios": "https://dc.lft.to/lastmile_qr_scan"}, "name": "9333f3c3ce1a00ab8b12cb52a307e364", "fusion_lat": 0.0, "lon": -77.06289983333333, "is_disabled": 0, "is_reserved": 0, "fusion_lon": 0.0, "lat": 38.90581783333333, "type": "electric_scooter", "bike_id": "9333f3c3ce1a00ab8b12cb52a307e364"}, {"rental_uris": {"android": "https://dc.lft.to/lastmile_qr_scan", "ios": "https://dc.lft.to/lastmile_qr_scan"}, "name": "0337b3eac96b5abf82f7ae5cde3fadc8", "fusion_lat": 0.0, "lon": -76.98018083333334, "is_disabled": 0, "is_reserved": 0, "fusion_lon": 0.0, "lat": 38.86405716666667, "type": "electric_scooter", "bike_id": "0337b3eac96b5abf82f7ae5cde3fadc8"}, {"rental_uris": {"android": "https://dc.lft.to/lastmile_qr_scan", "ios": "https://dc.lft.to/lastmile_qr_scan"}, "name": "8d0ea18d57732973eb41e86e1e183732", "fusion_lat": 0.0, "lon": -76.965402, "is_disabled": 0, "is_reserved": 0, "fusion_lon": 0.0, "lat": 38.9184745, "type": "electric_scooter", "bike_id": "8d0ea18d57732973eb41e86e1e183732"}, {"rental_uris": {"android": "https://dc.lft.to/lastmile_qr_scan", "ios": "https://dc.lft.to/lastmile_qr_scan"}, "name": "11d3458927a94d15212b86548910aeb8", "fusion_lat": 0.0, "lon": -77.0247315, "is_disabled": 0, "is_reserved": 0, "fusion_lon": 0.0, "lat": 38.93100916666667, "type": "electric_scooter", "bike_id": "11d3458927a94d15212b86548910aeb8"}, {"rental_uris": {"android": "https://dc.lft.to/lastmile_qr_scan", "ios": "https://dc.lft.to/lastmile_qr_scan"}, "name": "19469ca50b7d251644ac8be34f06592b", "fusion_lat": 0.0, "lon": -77.0635025, "is_disabled": 0, "is_reserved": 0, "fusion_lon": 0.0, "lat": 38.90856316666667, "type": "electric_scooter", "bike_id": "19469ca50b7d251644ac8be34f06592b"}, {"rental_uris": {"android": "https://dc.lft.to/lastmile_qr_scan", "ios": "https://dc.lft.to/lastmile_qr_scan"}, "name": "9106e2b7371b790e6b770f08dde11cee", "fusion_lat": 0.0, "lon": -77.0628115, "is_disabled": 0, "is_reserved": 0, "fusion_lon": 0.0, "lat": 38.9036635, "type": "electric_scooter", "bike_id": "9106e2b7371b790e6b770f08dde11cee"}, {"rental_uris": {"android": "https://dc.lft.to/lastmile_qr_scan", "ios": "https://dc.lft.to/lastmile_qr_scan"}, "name": "e8ef5b7373213105d3bc56d77ee304b5", "fusion_lat": 0.0, "lon": -77.03441933333333, "is_disabled": 0, "is_reserved": 0, "fusion_lon": 0.0, "lat": 38.91036183333333, "type": "electric_scooter", "bike_id": "e8ef5b7373213105d3bc56d77ee304b5"}, {"rental_uris": {"android": "https://dc.lft.to/lastmile_qr_scan", "ios": "https://dc.lft.to/lastmile_qr_scan"}, "name": "a11d41780d2444114ab208766ad2a508", "fusion_lat": 0.0, "lon": -77.04492233333333, "is_disabled": 0, "is_reserved": 0, "fusion_lon": 0.0, "lat": 38.909301166666665, "type": "electric_scooter", "bike_id": "a11d41780d2444114ab208766ad2a508"}, {"rental_uris": {"android": "https://dc.lft.to/lastmile_qr_scan", "ios": "https://dc.lft.to/lastmile_qr_scan"}, "name": "420ca07780c187f71b2c5ed3e9740887", "fusion_lat": 0.0, "lon": -77.04049766666667, "is_disabled": 0, "is_reserved": 0, "fusion_lon": 0.0, "lat": 38.904998, "type": "electric_scooter", "bike_id": "420ca07780c187f71b2c5ed3e9740887"}, {"rental_uris": {"android": "https://dc.lft.to/lastmile_qr_scan", "ios": "https://dc.lft.to/lastmile_qr_scan"}, "name": "9c0079d76d3f9381d2b84cb41887fba4", "fusion_lat": 0.0, "lon": -77.00064816666666, "is_disabled": 0, "is_reserved": 0, "fusion_lon": 0.0, "lat": 38.892938, "type": "electric_scooter", "bike_id": "9c0079d76d3f9381d2b84cb41887fba4"}, {"rental_uris": {"android": "https://dc.lft.to/lastmile_qr_scan", "ios": "https://dc.lft.to/lastmile_qr_scan"}, "name": "50558a09e7a69d02035b3462bf82c846", "fusion_lat": 0.0, "lon": -77.00599216666667, "is_disabled": 0, "is_reserved": 0, "fusion_lon": 0.0, "lat": 38.87551333333333, "type": "electric_scooter", "bike_id": "50558a09e7a69d02035b3462bf82c846"}, {"rental_uris": {"android": "https://dc.lft.to/lastmile_qr_scan", "ios": "https://dc.lft.to/lastmile_qr_scan"}, "name": "e5dcaf7bd33cf845cce649f4f794b024", "fusion_lat": 0.0, "lon": -77.03319633333334, "is_disabled": 0, "is_reserved": 0, "fusion_lon": 0.0, "lat": 38.96016933333333, "type": "electric_scooter", "bike_id": "e5dcaf7bd33cf845cce649f4f794b024"}, {"rental_uris": {"android": "https://dc.lft.to/lastmile_qr_scan", "ios": "https://dc.lft.to/lastmile_qr_scan"}, "name": "f9207df54959c7ada6b36a384a0d83c2", "fusion_lat": 0.0, "lon": -77.015257, "is_disabled": 0, "is_reserved": 0, "fusion_lon": 0.0, "lat": 38.884925333333335, "type": "electric_scooter", "bike_id": "f9207df54959c7ada6b36a384a0d83c2"}, {"rental_uris": {"android": "https://dc.lft.to/lastmile_qr_scan", "ios": "https://dc.lft.to/lastmile_qr_scan"}, "name": "14a8e700719b5cc8c9f695d34d3836cd", "fusion_lat": 0.0, "lon": -77.04181766666666, "is_disabled": 0, "is_reserved": 0, "fusion_lon": 0.0, "lat": 38.9125975, "type": "electric_scooter", "bike_id": "14a8e700719b5cc8c9f695d34d3836cd"}, {"rental_uris": {"android": "https://dc.lft.to/lastmile_qr_scan", "ios": "https://dc.lft.to/lastmile_qr_scan"}, "name": "2d794c4076b6d0058babe14a0ae2c5b5", "fusion_lat": 0.0, "lon": -76.96838833333334, "is_disabled": 0, "is_reserved": 0, "fusion_lon": 0.0, "lat": 38.9244295, "type": "electric_bike", "bike_id": "2d794c4076b6d0058babe14a0ae2c5b5"}, {"rental_uris": {"android": "https://dc.lft.to/lastmile_qr_scan", "ios": "https://dc.lft.to/lastmile_qr_scan"}, "name": "c92a69a0826e06e3ed00506a1d664272", "fusion_lat": 0.0, "lon": -77.04719483333334, "is_disabled": 0, "is_reserved": 0, "fusion_lon": 0.0, "lat": 38.89966016666666, "type": "electric_scooter", "bike_id": "c92a69a0826e06e3ed00506a1d664272"}, {"rental_uris": {"android": "https://dc.lft.to/lastmile_qr_scan", "ios": "https://dc.lft.to/lastmile_qr_scan"}, "name": "6a628771bf3aa41dcc89f96ef7f30d95", "fusion_lat": 0.0, "lon": -77.0363485, "is_disabled": 0, "is_reserved": 0, "fusion_lon": 0.0, "lat": 38.931680666666665, "type": "electric_scooter", "bike_id": "6a628771bf3aa41dcc89f96ef7f30d95"}, {"rental_uris": {"android": "https://dc.lft.to/lastmile_qr_scan", "ios": "https://dc.lft.to/lastmile_qr_scan"}, "name": "537a60f5dc55d947c31e2224b5a751fe", "fusion_lat": 0.0, "lon": -76.96552666666666, "is_disabled": 0, "is_reserved": 0, "fusion_lon": 0.0, "lat": 38.918427, "type": "electric_scooter", "bike_id": "537a60f5dc55d947c31e2224b5a751fe"}, {"rental_uris": {"android": "https://dc.lft.to/lastmile_qr_scan", "ios": "https://dc.lft.to/lastmile_qr_scan"}, "name": "bbf75c3c24f1c8f004e16850bb85cebd", "fusion_lat": 0.0, "lon": -76.96504516666667, "is_disabled": 0, "is_reserved": 0, "fusion_lon": 0.0, "lat": 38.8764735, "type": "electric_scooter", "bike_id": "bbf75c3c24f1c8f004e16850bb85cebd"}, {"rental_uris": {"android": "https://dc.lft.to/lastmile_qr_scan", "ios": "https://dc.lft.to/lastmile_qr_scan"}, "name": "78affc753ef10251f3883c664fc5ab38", "fusion_lat": 0.0, "lon": -76.98326633333333, "is_disabled": 0, "is_reserved": 0, "fusion_lon": 0.0, "lat": 38.861716333333334, "type": "electric_scooter", "bike_id": "78affc753ef10251f3883c664fc5ab38"}, {"rental_uris": {"android": "https://dc.lft.to/lastmile_qr_scan", "ios": "https://dc.lft.to/lastmile_qr_scan"}, "name": "b0f97c672afebf08676e72959d48d67a", "fusion_lat": 0.0, "lon": -77.15267, "is_disabled": 0, "is_reserved": 0, "fusion_lon": 0.0, "lat": 39.1056365, "type": "electric_bike", "bike_id": "b0f97c672afebf08676e72959d48d67a"}, {"rental_uris": {"android": "https://dc.lft.to/lastmile_qr_scan", "ios": "https://dc.lft.to/lastmile_qr_scan"}, "name": "b3d0d062e701b5905e881a36b27a2117", "fusion_lat": 0.0, "lon": -77.05197216666667, "is_disabled": 0, "is_reserved": 0, "fusion_lon": 0.0, "lat": 38.924328333333335, "type": "electric_scooter", "bike_id": "b3d0d062e701b5905e881a36b27a2117"}, {"rental_uris": {"android": "https://dc.lft.to/lastmile_qr_scan", "ios": "https://dc.lft.to/lastmile_qr_scan"}, "name": "ebb509495a1612efe2f93cc2ec4a05e9", "fusion_lat": 0.0, "lon": -77.042468, "is_disabled": 0, "is_reserved": 0, "fusion_lon": 0.0, "lat": 38.917826, "type": "electric_scooter", "bike_id": "ebb509495a1612efe2f93cc2ec4a05e9"}, {"rental_uris": {"android": "https://dc.lft.to/lastmile_qr_scan", "ios": "https://dc.lft.to/lastmile_qr_scan"}, "name": "0f9f4240eaf78965e3abca64154bdf17", "fusion_lat": 0.0, "lon": -77.00731783333333, "is_disabled": 0, "is_reserved": 0, "fusion_lon": 0.0, "lat": 38.87689616666667, "type": "electric_scooter", "bike_id": "0f9f4240eaf78965e3abca64154bdf17"}, {"rental_uris": {"android": "https://dc.lft.to/lastmile_qr_scan", "ios": "https://dc.lft.to/lastmile_qr_scan"}, "name": "a6daf58b421705a9c294ff1ae7555102", "fusion_lat": 0.0, "lon": -77.02900916666667, "is_disabled": 0, "is_reserved": 0, "fusion_lon": 0.0, "lat": 38.901471666666666, "type": "electric_scooter", "bike_id": "a6daf58b421705a9c294ff1ae7555102"}, {"rental_uris": {"android": "https://dc.lft.to/lastmile_qr_scan", "ios": "https://dc.lft.to/lastmile_qr_scan"}, "name": "dbdb39d122ec2f634210c841a78e0b9b", "fusion_lat": 0.0, "lon": -77.02852116666666, "is_disabled": 0, "is_reserved": 0, "fusion_lon": 0.0, "lat": 38.932761666666664, "type": "electric_scooter", "bike_id": "dbdb39d122ec2f634210c841a78e0b9b"}, {"rental_uris": {"android": "https://dc.lft.to/lastmile_qr_scan", "ios": "https://dc.lft.to/lastmile_qr_scan"}, "name": "b1b78714f629b954be7e1bd66eb67e57", "fusion_lat": 0.0, "lon": -77.043375, "is_disabled": 0, "is_reserved": 0, "fusion_lon": 0.0, "lat": 38.898486, "type": "electric_scooter", "bike_id": "b1b78714f629b954be7e1bd66eb67e57"}, {"rental_uris": {"android": "https://dc.lft.to/lastmile_qr_scan", "ios": "https://dc.lft.to/lastmile_qr_scan"}, "name": "ef0f828db3934f96817ee97953b11627", "fusion_lat": 0.0, "lon": -77.03962283333334, "is_disabled": 0, "is_reserved": 0, "fusion_lon": 0.0, "lat": 38.901471666666666, "type": "electric_scooter", "bike_id": "ef0f828db3934f96817ee97953b11627"}, {"rental_uris": {"android": "https://dc.lft.to/lastmile_qr_scan", "ios": "https://dc.lft.to/lastmile_qr_scan"}, "name": "2b832425012fa18d71e500c9971947cd", "fusion_lat": 0.0, "lon": -77.0658295, "is_disabled": 0, "is_reserved": 0, "fusion_lon": 0.0, "lat": 38.903528, "type": "electric_scooter", "bike_id": "2b832425012fa18d71e500c9971947cd"}, {"rental_uris": {"android": "https://dc.lft.to/lastmile_qr_scan", "ios": "https://dc.lft.to/lastmile_qr_scan"}, "name": "36062730fbb96199f6b3bd4dc39d8dc3", "fusion_lat": 0.0, "lon": -76.95210433333334, "is_disabled": 0, "is_reserved": 0, "fusion_lon": 0.0, "lat": 38.892524, "type": "electric_scooter", "bike_id": "36062730fbb96199f6b3bd4dc39d8dc3"}, {"rental_uris": {"android": "https://dc.lft.to/lastmile_qr_scan", "ios": "https://dc.lft.to/lastmile_qr_scan"}, "name": "f80f58dd08b8cf3fafbfb8594c1427c8", "fusion_lat": 0.0, "lon": -77.040878, "is_disabled": 0, "is_reserved": 0, "fusion_lon": 0.0, "lat": 38.92306266666667, "type": "electric_scooter", "bike_id": "f80f58dd08b8cf3fafbfb8594c1427c8"}, {"rental_uris": {"android": "https://dc.lft.to/lastmile_qr_scan", "ios": "https://dc.lft.to/lastmile_qr_scan"}, "name": "bcbdd74f789009e7331727c60bfc70a0", "fusion_lat": 0.0, "lon": -77.03345633333333, "is_disabled": 0, "is_reserved": 0, "fusion_lon": 0.0, "lat": 38.900213, "type": "electric_scooter", "bike_id": "bcbdd74f789009e7331727c60bfc70a0"}, {"rental_uris": {"android": "https://dc.lft.to/lastmile_qr_scan", "ios": "https://dc.lft.to/lastmile_qr_scan"}, "name": "871a0ea27c55e5b9781c07c3a2eb0b04", "fusion_lat": 0.0, "lon": -77.04341083333334, "is_disabled": 0, "is_reserved": 0, "fusion_lon": 0.0, "lat": 38.91058733333333, "type": "electric_scooter", "bike_id": "871a0ea27c55e5b9781c07c3a2eb0b04"}, {"rental_uris": {"android": "https://dc.lft.to/lastmile_qr_scan", "ios": "https://dc.lft.to/lastmile_qr_scan"}, "name": "4131fefeedcd9b4d174c2ef97f0b6bc6", "fusion_lat": 0.0, "lon": -77.01578416666666, "is_disabled": 0, "is_reserved": 0, "fusion_lon": 0.0, "lat": 38.876928, "type": "electric_scooter", "bike_id": "4131fefeedcd9b4d174c2ef97f0b6bc6"}, {"rental_uris": {"android": "https://dc.lft.to/lastmile_qr_scan", "ios": "https://dc.lft.to/lastmile_qr_scan"}, "name": "e00aaea0481640a9dbad81f7a7cb514a", "fusion_lat": 0.0, "lon": -77.09574616666667, "is_disabled": 0, "is_reserved": 0, "fusion_lon": 0.0, "lat": 38.8379505, "type": "electric_bike", "bike_id": "e00aaea0481640a9dbad81f7a7cb514a"}, {"rental_uris": {"android": "https://dc.lft.to/lastmile_qr_scan", "ios": "https://dc.lft.to/lastmile_qr_scan"}, "name": "2a65097a0a767d5733d858e907c04495", "fusion_lat": 0.0, "lon": -77.105051, "is_disabled": 0, "is_reserved": 0, "fusion_lon": 0.0, "lat": 38.92845966666667, "type": "electric_bike", "bike_id": "2a65097a0a767d5733d858e907c04495"}, {"rental_uris": {"android": "https://dc.lft.to/lastmile_qr_scan", "ios": "https://dc.lft.to/lastmile_qr_scan"}, "name": "563fb041aead806e91933e01dbbe0337", "fusion_lat": 0.0, "lon": -77.03847133333333, "is_disabled": 0, "is_reserved": 0, "fusion_lon": 0.0, "lat": 38.9099155, "type": "electric_scooter", "bike_id": "563fb041aead806e91933e01dbbe0337"}, {"rental_uris": {"android": "https://dc.lft.to/lastmile_qr_scan", "ios": "https://dc.lft.to/lastmile_qr_scan"}, "name": "a2f31defd3ef72b1a0f4477285f56f7c", "fusion_lat": 0.0, "lon": -77.0394375, "is_disabled": 0, "is_reserved": 0, "fusion_lon": 0.0, "lat": 38.9169525, "type": "electric_scooter", "bike_id": "a2f31defd3ef72b1a0f4477285f56f7c"}, {"rental_uris": {"android": "https://dc.lft.to/lastmile_qr_scan", "ios": "https://dc.lft.to/lastmile_qr_scan"}, "name": "28f7488005324ce53bf26b55b1475ed2", "fusion_lat": 0.0, "lon": -77.037879, "is_disabled": 0, "is_reserved": 0, "fusion_lon": 0.0, "lat": 38.926322166666665, "type": "electric_scooter", "bike_id": "28f7488005324ce53bf26b55b1475ed2"}, {"rental_uris": {"android": "https://dc.lft.to/lastmile_qr_scan", "ios": "https://dc.lft.to/lastmile_qr_scan"}, "name": "80bcd902c45fb5c8784285f5a47fcd33", "fusion_lat": 0.0, "lon": -77.015815, "is_disabled": 0, "is_reserved": 0, "fusion_lon": 0.0, "lat": 38.92982, "type": "electric_bike", "bike_id": "80bcd902c45fb5c8784285f5a47fcd33"}, {"rental_uris": {"android": "https://dc.lft.to/lastmile_qr_scan", "ios": "https://dc.lft.to/lastmile_qr_scan"}, "name": "4b071fdfc41ae337e844be0370598c1c", "fusion_lat": 0.0, "lon": -77.01478466666667, "is_disabled": 0, "is_reserved": 0, "fusion_lon": 0.0, "lat": 38.926837166666665, "type": "electric_scooter", "bike_id": "4b071fdfc41ae337e844be0370598c1c"}, {"rental_uris": {"android": "https://dc.lft.to/lastmile_qr_scan", "ios": "https://dc.lft.to/lastmile_qr_scan"}, "name": "2d5924969a45cc507d7336288821930e", "fusion_lat": 0.0, "lon": -77.36084666666666, "is_disabled": 0, "is_reserved": 0, "fusion_lon": 0.0, "lat": 38.9396305, "type": "electric_bike", "bike_id": "2d5924969a45cc507d7336288821930e"}, {"rental_uris": {"android": "https://dc.lft.to/lastmile_qr_scan", "ios": "https://dc.lft.to/lastmile_qr_scan"}, "name": "4050c1ba7a74140bdf055811002b1063", "fusion_lat": 0.0, "lon": -77.02167766666666, "is_disabled": 0, "is_reserved": 0, "fusion_lon": 0.0, "lat": 38.942952, "type": "electric_scooter", "bike_id": "4050c1ba7a74140bdf055811002b1063"}, {"rental_uris": {"android": "https://dc.lft.to/lastmile_qr_scan", "ios": "https://dc.lft.to/lastmile_qr_scan"}, "name": "e771109a5294d09bbb41a45ce431cb29", "fusion_lat": 0.0, "lon": -77.03151633333333, "is_disabled": 0, "is_reserved": 0, "fusion_lon": 0.0, "lat": 38.899874833333335, "type": "electric_scooter", "bike_id": "e771109a5294d09bbb41a45ce431cb29"}, {"rental_uris": {"android": "https://dc.lft.to/lastmile_qr_scan", "ios": "https://dc.lft.to/lastmile_qr_scan"}, "name": "7f053ef7616bafe74b4b6e7e738b0e3c", "fusion_lat": 0.0, "lon": -77.03867116666666, "is_disabled": 0, "is_reserved": 0, "fusion_lon": 0.0, "lat": 38.903095666666665, "type": "electric_scooter", "bike_id": "7f053ef7616bafe74b4b6e7e738b0e3c"}, {"rental_uris": {"android": "https://dc.lft.to/lastmile_qr_scan", "ios": "https://dc.lft.to/lastmile_qr_scan"}, "name": "2e13e9f8a641335b75ab1c9b263503fc", "fusion_lat": 0.0, "lon": -77.02575, "is_disabled": 0, "is_reserved": 0, "fusion_lon": 0.0, "lat": 38.890445, "type": "electric_scooter", "bike_id": "2e13e9f8a641335b75ab1c9b263503fc"}, {"rental_uris": {"android": "https://dc.lft.to/lastmile_qr_scan", "ios": "https://dc.lft.to/lastmile_qr_scan"}, "name": "461c427f9ba4c4b32a049f9be0d5a315", "fusion_lat": 0.0, "lon": -77.04188883333333, "is_disabled": 0, "is_reserved": 0, "fusion_lon": 0.0, "lat": 38.91133033333333, "type": "electric_scooter", "bike_id": "461c427f9ba4c4b32a049f9be0d5a315"}, {"rental_uris": {"android": "https://dc.lft.to/lastmile_qr_scan", "ios": "https://dc.lft.to/lastmile_qr_scan"}, "name": "5ee05f929b6cd2bbfad1b4f93b370050", "fusion_lat": 0.0, "lon": -77.01408066666667, "is_disabled": 0, "is_reserved": 0, "fusion_lon": 0.0, "lat": 38.879088, "type": "electric_scooter", "bike_id": "5ee05f929b6cd2bbfad1b4f93b370050"}, {"rental_uris": {"android": "https://dc.lft.to/lastmile_qr_scan", "ios": "https://dc.lft.to/lastmile_qr_scan"}, "name": "21a0ae54d31d93b5718a64d2bab9b016", "fusion_lat": 0.0, "lon": -76.99510433333333, "is_disabled": 0, "is_reserved": 0, "fusion_lon": 0.0, "lat": 38.88089316666667, "type": "electric_scooter", "bike_id": "21a0ae54d31d93b5718a64d2bab9b016"}, {"rental_uris": {"android": "https://dc.lft.to/lastmile_qr_scan", "ios": "https://dc.lft.to/lastmile_qr_scan"}, "name": "e42d94be5f04d35dc9899838a2bf0be5", "fusion_lat": 0.0, "lon": -77.02116033333333, "is_disabled": 0, "is_reserved": 0, "fusion_lon": 0.0, "lat": 38.917393, "type": "electric_scooter", "bike_id": "e42d94be5f04d35dc9899838a2bf0be5"}, {"rental_uris": {"android": "https://dc.lft.to/lastmile_qr_scan", "ios": "https://dc.lft.to/lastmile_qr_scan"}, "name": "5d2a10bbe8a14264b80cd2b956b9ed36", "fusion_lat": 0.0, "lon": -77.04354, "is_disabled": 0, "is_reserved": 0, "fusion_lon": 0.0, "lat": 38.910731, "type": "electric_scooter", "bike_id": "5d2a10bbe8a14264b80cd2b956b9ed36"}, {"rental_uris": {"android": "https://dc.lft.to/lastmile_qr_scan", "ios": "https://dc.lft.to/lastmile_qr_scan"}, "name": "10ae316de6e88d16c364d5216f0d8b49", "fusion_lat": 0.0, "lon": -76.9996225, "is_disabled": 0, "is_reserved": 0, "fusion_lon": 0.0, "lat": 38.89319233333333, "type": "electric_scooter", "bike_id": "10ae316de6e88d16c364d5216f0d8b49"}, {"rental_uris": {"android": "https://dc.lft.to/lastmile_qr_scan", "ios": "https://dc.lft.to/lastmile_qr_scan"}, "name": "6dc7c15f589871414da3256b047109d3", "fusion_lat": 0.0, "lon": -77.02339516666666, "is_disabled": 0, "is_reserved": 0, "fusion_lon": 0.0, "lat": 38.915552, "type": "electric_scooter", "bike_id": "6dc7c15f589871414da3256b047109d3"}, {"rental_uris": {"android": "https://dc.lft.to/lastmile_qr_scan", "ios": "https://dc.lft.to/lastmile_qr_scan"}, "name": "3615573c532ba698cde5eeaba0512403", "fusion_lat": 0.0, "lon": -76.99480416666667, "is_disabled": 0, "is_reserved": 0, "fusion_lon": 0.0, "lat": 38.86216616666667, "type": "electric_scooter", "bike_id": "3615573c532ba698cde5eeaba0512403"}, {"rental_uris": {"android": "https://dc.lft.to/lastmile_qr_scan", "ios": "https://dc.lft.to/lastmile_qr_scan"}, "name": "77f9c07658010163ab37fff9471bb190", "fusion_lat": 0.0, "lon": -77.07228483333333, "is_disabled": 0, "is_reserved": 0, "fusion_lon": 0.0, "lat": 38.93458033333334, "type": "electric_scooter", "bike_id": "77f9c07658010163ab37fff9471bb190"}, {"rental_uris": {"android": "https://dc.lft.to/lastmile_qr_scan", "ios": "https://dc.lft.to/lastmile_qr_scan"}, "name": "b91f16c0751d4acccefc66ba51ec764e", "fusion_lat": 0.0, "lon": -77.00311316666667, "is_disabled": 0, "is_reserved": 0, "fusion_lon": 0.0, "lat": 38.89479133333333, "type": "electric_scooter", "bike_id": "b91f16c0751d4acccefc66ba51ec764e"}, {"rental_uris": {"android": "https://dc.lft.to/lastmile_qr_scan", "ios": "https://dc.lft.to/lastmile_qr_scan"}, "name": "c331470a61ca0c5943daab39be4d8883", "fusion_lat": 0.0, "lon": -77.02697783333333, "is_disabled": 0, "is_reserved": 0, "fusion_lon": 0.0, "lat": 38.90359683333333, "type": "electric_scooter", "bike_id": "c331470a61ca0c5943daab39be4d8883"}, {"rental_uris": {"android": "https://dc.lft.to/lastmile_qr_scan", "ios": "https://dc.lft.to/lastmile_qr_scan"}, "name": "274f8dfcbf2a7f9b14757ba4ac09b59f", "fusion_lat": 0.0, "lon": -77.0174605, "is_disabled": 0, "is_reserved": 0, "fusion_lon": 0.0, "lat": 38.878022, "type": "electric_scooter", "bike_id": "274f8dfcbf2a7f9b14757ba4ac09b59f"}, {"rental_uris": {"android": "https://dc.lft.to/lastmile_qr_scan", "ios": "https://dc.lft.to/lastmile_qr_scan"}, "name": "1c7606bd6a1a513780f52d7dd2ea3752", "fusion_lat": 0.0, "lon": -77.02000516666666, "is_disabled": 0, "is_reserved": 0, "fusion_lon": 0.0, "lat": 38.8836905, "type": "electric_scooter", "bike_id": "1c7606bd6a1a513780f52d7dd2ea3752"}, {"rental_uris": {"android": "https://dc.lft.to/lastmile_qr_scan", "ios": "https://dc.lft.to/lastmile_qr_scan"}, "name": "bb185fd9bc85916f6cddef08b477bc0b", "fusion_lat": 0.0, "lon": -76.97619466666667, "is_disabled": 0, "is_reserved": 0, "fusion_lon": 0.0, "lat": 38.931440333333335, "type": "electric_scooter", "bike_id": "bb185fd9bc85916f6cddef08b477bc0b"}, {"rental_uris": {"android": "https://dc.lft.to/lastmile_qr_scan", "ios": "https://dc.lft.to/lastmile_qr_scan"}, "name": "37c2cf98863107cfb4f79240dc9fcb2f", "fusion_lat": 0.0, "lon": -76.954758, "is_disabled": 0, "is_reserved": 0, "fusion_lon": 0.0, "lat": 38.93573583333333, "type": "electric_bike", "bike_id": "37c2cf98863107cfb4f79240dc9fcb2f"}, {"rental_uris": {"android": "https://dc.lft.to/lastmile_qr_scan", "ios": "https://dc.lft.to/lastmile_qr_scan"}, "name": "6d2f0a248b8cd03279e46b745fdfa289", "fusion_lat": 0.0, "lon": -76.99055316666667, "is_disabled": 0, "is_reserved": 0, "fusion_lon": 0.0, "lat": 38.858997, "type": "electric_scooter", "bike_id": "6d2f0a248b8cd03279e46b745fdfa289"}, {"rental_uris": {"android": "https://dc.lft.to/lastmile_qr_scan", "ios": "https://dc.lft.to/lastmile_qr_scan"}, "name": "7319c5f6d44c1c53c314b09b505e8c45", "fusion_lat": 0.0, "lon": -77.041027, "is_disabled": 0, "is_reserved": 0, "fusion_lon": 0.0, "lat": 38.9185415, "type": "electric_scooter", "bike_id": "7319c5f6d44c1c53c314b09b505e8c45"}, {"rental_uris": {"android": "https://dc.lft.to/lastmile_qr_scan", "ios": "https://dc.lft.to/lastmile_qr_scan"}, "name": "998a6fe41eaa674a880de047ae743db8", "fusion_lat": 0.0, "lon": -76.9819855, "is_disabled": 0, "is_reserved": 0, "fusion_lon": 0.0, "lat": 38.985073, "type": "electric_bike", "bike_id": "998a6fe41eaa674a880de047ae743db8"}, {"rental_uris": {"android": "https://dc.lft.to/lastmile_qr_scan", "ios": "https://dc.lft.to/lastmile_qr_scan"}, "name": "5a45015d00faaab3d636ef9c7c02507a", "fusion_lat": 0.0, "lon": -77.0173625, "is_disabled": 0, "is_reserved": 0, "fusion_lon": 0.0, "lat": 38.902701, "type": "electric_scooter", "bike_id": "5a45015d00faaab3d636ef9c7c02507a"}, {"rental_uris": {"android": "https://dc.lft.to/lastmile_qr_scan", "ios": "https://dc.lft.to/lastmile_qr_scan"}, "name": "2123f55c7ed94f02958de37affa7e9ae", "fusion_lat": 0.0, "lon": -76.99793416666667, "is_disabled": 0, "is_reserved": 0, "fusion_lon": 0.0, "lat": 38.95332916666667, "type": "electric_scooter", "bike_id": "2123f55c7ed94f02958de37affa7e9ae"}, {"rental_uris": {"android": "https://dc.lft.to/lastmile_qr_scan", "ios": "https://dc.lft.to/lastmile_qr_scan"}, "name": "02f07b117292246d05721f142cb8f346", "fusion_lat": 0.0, "lon": -77.02686016666667, "is_disabled": 0, "is_reserved": 0, "fusion_lon": 0.0, "lat": 38.90971, "type": "electric_scooter", "bike_id": "02f07b117292246d05721f142cb8f346"}, {"rental_uris": {"android": "https://dc.lft.to/lastmile_qr_scan", "ios": "https://dc.lft.to/lastmile_qr_scan"}, "name": "643bd72c32464f4e8c4d53cc2b98825f", "fusion_lat": 0.0, "lon": -77.0386145, "is_disabled": 0, "is_reserved": 0, "fusion_lon": 0.0, "lat": 38.918072, "type": "electric_scooter", "bike_id": "643bd72c32464f4e8c4d53cc2b98825f"}, {"rental_uris": {"android": "https://dc.lft.to/lastmile_qr_scan", "ios": "https://dc.lft.to/lastmile_qr_scan"}, "name": "e31c27b1b439c922cc6a878713d742b6", "fusion_lat": 0.0, "lon": -77.03263583333333, "is_disabled": 0, "is_reserved": 0, "fusion_lon": 0.0, "lat": 38.93210883333333, "type": "electric_scooter", "bike_id": "e31c27b1b439c922cc6a878713d742b6"}, {"rental_uris": {"android": "https://dc.lft.to/lastmile_qr_scan", "ios": "https://dc.lft.to/lastmile_qr_scan"}, "name": "4ffdd6b249b9487ed9dad6cd0c5ede88", "fusion_lat": 0.0, "lon": -77.00607216666667, "is_disabled": 0, "is_reserved": 0, "fusion_lon": 0.0, "lat": 38.905951333333334, "type": "electric_scooter", "bike_id": "4ffdd6b249b9487ed9dad6cd0c5ede88"}, {"rental_uris": {"android": "https://dc.lft.to/lastmile_qr_scan", "ios": "https://dc.lft.to/lastmile_qr_scan"}, "name": "203af8e129957a7840465f29ff1a0a0d", "fusion_lat": 0.0, "lon": -77.04344816666666, "is_disabled": 0, "is_reserved": 0, "fusion_lon": 0.0, "lat": 38.923164, "type": "electric_scooter", "bike_id": "203af8e129957a7840465f29ff1a0a0d"}, {"rental_uris": {"android": "https://dc.lft.to/lastmile_qr_scan", "ios": "https://dc.lft.to/lastmile_qr_scan"}, "name": "024b4ca2a0c2acb12825c5bd615c2a59", "fusion_lat": 0.0, "lon": -77.03149433333333, "is_disabled": 0, "is_reserved": 0, "fusion_lon": 0.0, "lat": 38.92725516666667, "type": "electric_scooter", "bike_id": "024b4ca2a0c2acb12825c5bd615c2a59"}, {"rental_uris": {"android": "https://dc.lft.to/lastmile_qr_scan", "ios": "https://dc.lft.to/lastmile_qr_scan"}, "name": "8d6cc4d3650825b4573361e58155744a", "fusion_lat": 0.0, "lon": -77.02553683333333, "is_disabled": 0, "is_reserved": 0, "fusion_lon": 0.0, "lat": 38.92400683333334, "type": "electric_scooter", "bike_id": "8d6cc4d3650825b4573361e58155744a"}, {"rental_uris": {"android": "https://dc.lft.to/lastmile_qr_scan", "ios": "https://dc.lft.to/lastmile_qr_scan"}, "name": "6af929ccc1ba541fc5a447d5dba3d8cd", "fusion_lat": 0.0, "lon": -77.0074415, "is_disabled": 0, "is_reserved": 0, "fusion_lon": 0.0, "lat": 38.87658616666667, "type": "electric_scooter", "bike_id": "6af929ccc1ba541fc5a447d5dba3d8cd"}, {"rental_uris": {"android": "https://dc.lft.to/lastmile_qr_scan", "ios": "https://dc.lft.to/lastmile_qr_scan"}, "name": "0afb99953a78998e0d90e9481e555636", "fusion_lat": 0.0, "lon": -77.0379395, "is_disabled": 0, "is_reserved": 0, "fusion_lon": 0.0, "lat": 38.93323633333333, "type": "electric_scooter", "bike_id": "0afb99953a78998e0d90e9481e555636"}, {"rental_uris": {"android": "https://dc.lft.to/lastmile_qr_scan", "ios": "https://dc.lft.to/lastmile_qr_scan"}, "name": "8e97fc465fa6b5c434184dafc2c836fd", "fusion_lat": 0.0, "lon": -77.0250445, "is_disabled": 0, "is_reserved": 0, "fusion_lon": 0.0, "lat": 38.91951366666667, "type": "electric_scooter", "bike_id": "8e97fc465fa6b5c434184dafc2c836fd"}, {"rental_uris": {"android": "https://dc.lft.to/lastmile_qr_scan", "ios": "https://dc.lft.to/lastmile_qr_scan"}, "name": "9e0ebe82dab233f55dbb6b5563934905", "fusion_lat": 0.0, "lon": -77.00029833333333, "is_disabled": 0, "is_reserved": 0, "fusion_lon": 0.0, "lat": 38.87391783333333, "type": "electric_scooter", "bike_id": "9e0ebe82dab233f55dbb6b5563934905"}, {"rental_uris": {"android": "https://dc.lft.to/lastmile_qr_scan", "ios": "https://dc.lft.to/lastmile_qr_scan"}, "name": "190125ec6075208d070134f59379faba", "fusion_lat": 0.0, "lon": -77.03193316666666, "is_disabled": 0, "is_reserved": 0, "fusion_lon": 0.0, "lat": 38.9192425, "type": "electric_scooter", "bike_id": "190125ec6075208d070134f59379faba"}, {"rental_uris": {"android": "https://dc.lft.to/lastmile_qr_scan", "ios": "https://dc.lft.to/lastmile_qr_scan"}, "name": "edf82a88640b3ca96d9d3498645004fa", "fusion_lat": 0.0, "lon": -76.99027383333333, "is_disabled": 0, "is_reserved": 0, "fusion_lon": 0.0, "lat": 38.9286925, "type": "electric_scooter", "bike_id": "edf82a88640b3ca96d9d3498645004fa"}, {"rental_uris": {"android": "https://dc.lft.to/lastmile_qr_scan", "ios": "https://dc.lft.to/lastmile_qr_scan"}, "name": "6fa2d89815db8cad899c7bf6a10ec55f", "fusion_lat": 0.0, "lon": -77.04332233333334, "is_disabled": 0, "is_reserved": 0, "fusion_lon": 0.0, "lat": 38.9084285, "type": "electric_scooter", "bike_id": "6fa2d89815db8cad899c7bf6a10ec55f"}, {"rental_uris": {"android": "https://dc.lft.to/lastmile_qr_scan", "ios": "https://dc.lft.to/lastmile_qr_scan"}, "name": "ce5fa9032374ecd73040a9965c482569", "fusion_lat": 0.0, "lon": -76.98770166666667, "is_disabled": 0, "is_reserved": 0, "fusion_lon": 0.0, "lat": 38.883184666666665, "type": "electric_scooter", "bike_id": "ce5fa9032374ecd73040a9965c482569"}, {"rental_uris": {"android": "https://dc.lft.to/lastmile_qr_scan", "ios": "https://dc.lft.to/lastmile_qr_scan"}, "name": "2fe0f3cd5e5679fb6efb849ae9630e15", "fusion_lat": 0.0, "lon": -77.02573583333333, "is_disabled": 0, "is_reserved": 0, "fusion_lon": 0.0, "lat": 38.925088333333335, "type": "electric_scooter", "bike_id": "2fe0f3cd5e5679fb6efb849ae9630e15"}, {"rental_uris": {"android": "https://dc.lft.to/lastmile_qr_scan", "ios": "https://dc.lft.to/lastmile_qr_scan"}, "name": "e745a9e91ebcd5d7ae9c23514f75d008", "fusion_lat": 0.0, "lon": -76.94612366666667, "is_disabled": 0, "is_reserved": 0, "fusion_lon": 0.0, "lat": 38.832370166666664, "type": "electric_bike", "bike_id": "e745a9e91ebcd5d7ae9c23514f75d008"}, {"rental_uris": {"android": "https://dc.lft.to/lastmile_qr_scan", "ios": "https://dc.lft.to/lastmile_qr_scan"}, "name": "232afcca9ce5421704af4bac6290dad4", "fusion_lat": 0.0, "lon": -77.0652125, "is_disabled": 0, "is_reserved": 0, "fusion_lon": 0.0, "lat": 38.90533216666667, "type": "electric_scooter", "bike_id": "232afcca9ce5421704af4bac6290dad4"}, {"rental_uris": {"android": "https://dc.lft.to/lastmile_qr_scan", "ios": "https://dc.lft.to/lastmile_qr_scan"}, "name": "77791c32860a4cc46ea13c3a4c2106e0", "fusion_lat": 0.0, "lon": -77.07265483333333, "is_disabled": 0, "is_reserved": 0, "fusion_lon": 0.0, "lat": 38.913006333333335, "type": "electric_scooter", "bike_id": "77791c32860a4cc46ea13c3a4c2106e0"}, {"rental_uris": {"android": "https://dc.lft.to/lastmile_qr_scan", "ios": "https://dc.lft.to/lastmile_qr_scan"}, "name": "85a82b63eb59cc381f1f625d5bf6c430", "fusion_lat": 0.0, "lon": -77.04673766666667, "is_disabled": 0, "is_reserved": 0, "fusion_lon": 0.0, "lat": 38.90725883333333, "type": "electric_scooter", "bike_id": "85a82b63eb59cc381f1f625d5bf6c430"}, {"rental_uris": {"android": "https://dc.lft.to/lastmile_qr_scan", "ios": "https://dc.lft.to/lastmile_qr_scan"}, "name": "0f1495890693490bd9d6efe84de0f073", "fusion_lat": 0.0, "lon": -77.0383435, "is_disabled": 0, "is_reserved": 0, "fusion_lon": 0.0, "lat": 38.9039595, "type": "electric_scooter", "bike_id": "0f1495890693490bd9d6efe84de0f073"}, {"rental_uris": {"android": "https://dc.lft.to/lastmile_qr_scan", "ios": "https://dc.lft.to/lastmile_qr_scan"}, "name": "55b6633343c6f1ec7e53db5a1fcb56c3", "fusion_lat": 0.0, "lon": -77.046864, "is_disabled": 0, "is_reserved": 0, "fusion_lon": 0.0, "lat": 38.9158425, "type": "electric_scooter", "bike_id": "55b6633343c6f1ec7e53db5a1fcb56c3"}, {"rental_uris": {"android": "https://dc.lft.to/lastmile_qr_scan", "ios": "https://dc.lft.to/lastmile_qr_scan"}, "name": "e131b5051c8609e2c6f0f60f497e5f26", "fusion_lat": 0.0, "lon": -77.013186, "is_disabled": 0, "is_reserved": 0, "fusion_lon": 0.0, "lat": 38.90140783333333, "type": "electric_scooter", "bike_id": "e131b5051c8609e2c6f0f60f497e5f26"}, {"rental_uris": {"android": "https://dc.lft.to/lastmile_qr_scan", "ios": "https://dc.lft.to/lastmile_qr_scan"}, "name": "f4702143da952c64f321415a920abc97", "fusion_lat": 0.0, "lon": -77.02148766666667, "is_disabled": 0, "is_reserved": 0, "fusion_lon": 0.0, "lat": 38.899645166666666, "type": "electric_scooter", "bike_id": "f4702143da952c64f321415a920abc97"}, {"rental_uris": {"android": "https://dc.lft.to/lastmile_qr_scan", "ios": "https://dc.lft.to/lastmile_qr_scan"}, "name": "e60297a85824a293af72173cd3100253", "fusion_lat": 0.0, "lon": -77.03164333333334, "is_disabled": 0, "is_reserved": 0, "fusion_lon": 0.0, "lat": 38.89341916666667, "type": "electric_scooter", "bike_id": "e60297a85824a293af72173cd3100253"}, {"rental_uris": {"android": "https://dc.lft.to/lastmile_qr_scan", "ios": "https://dc.lft.to/lastmile_qr_scan"}, "name": "5e805052eac3201ced869de64d372c3e", "fusion_lat": 0.0, "lon": -77.03955233333333, "is_disabled": 0, "is_reserved": 0, "fusion_lon": 0.0, "lat": 38.9041, "type": "electric_scooter", "bike_id": "5e805052eac3201ced869de64d372c3e"}, {"rental_uris": {"android": "https://dc.lft.to/lastmile_qr_scan", "ios": "https://dc.lft.to/lastmile_qr_scan"}, "name": "250b3849b7b8cf095bb6465ba22deef2", "fusion_lat": 0.0, "lon": -77.03015033333334, "is_disabled": 0, "is_reserved": 0, "fusion_lon": 0.0, "lat": 38.8961175, "type": "electric_scooter", "bike_id": "250b3849b7b8cf095bb6465ba22deef2"}, {"rental_uris": {"android": "https://dc.lft.to/lastmile_qr_scan", "ios": "https://dc.lft.to/lastmile_qr_scan"}, "name": "fa628f5f3e936cfb5867109107ccd319", "fusion_lat": 0.0, "lon": -77.0242945, "is_disabled": 0, "is_reserved": 0, "fusion_lon": 0.0, "lat": 38.927556333333335, "type": "electric_scooter", "bike_id": "fa628f5f3e936cfb5867109107ccd319"}, {"rental_uris": {"android": "https://dc.lft.to/lastmile_qr_scan", "ios": "https://dc.lft.to/lastmile_qr_scan"}, "name": "5c3ab457d66fa50659045d837bae0750", "fusion_lat": 0.0, "lon": -77.02845933333333, "is_disabled": 0, "is_reserved": 0, "fusion_lon": 0.0, "lat": 38.922357833333336, "type": "electric_scooter", "bike_id": "5c3ab457d66fa50659045d837bae0750"},