{"data": {"bikes": [{"fusion_lat": 0.0, "fusion_lon": 0.0, "rental_uris": {"android": "https://dc.lft.to/lastmile_qr_scan", "ios": "https://dc.lft.to/lastmile_qr_scan"}, "lon": -77.0971845, "name": "e6cbd68cfdca1717f1e6d5e8ff85f13f", "is_disabled": 0, "is_reserved": 0, "bike_id": "e6cbd68cfdca1717f1e6d5e8ff85f13f", "lat": 38.95094116666667, "type": "electric_scooter"}, {"fusion_lat": 0.0, "fusion_lon": 0.0, "rental_uris": {"android": "https://dc.lft.to/lastmile_qr_scan", "ios": "https://dc.lft.to/lastmile_qr_scan"}, "lon": -77.04419233333333, "name": "dd954058097310f4d7860b2b65ae104f", "is_disabled": 0, "is_reserved": 0, "bike_id": "dd954058097310f4d7860b2b65ae104f", "lat": 38.91008083333333, "type": "electric_scooter"}, {"fusion_lat": 0.0, "fusion_lon": 0.0, "rental_uris": {"android": "https://dc.lft.to/lastmile_qr_scan", "ios": "https://dc.lft.to/lastmile_qr_scan"}, "lon": -77.035906, "name": "794fda032230b3ee6dc8320fc02651e8", "is_disabled": 0, "is_reserved": 0, "bike_id": "794fda032230b3ee6dc8320fc02651e8", "lat": 38.931438666666665, "type": "electric_scooter"}, {"fusion_lat": 0.0, "fusion_lon": 0.0, "rental_uris": {"android": "https://dc.lft.to/lastmile_qr_scan", "ios": "https://dc.lft.to/lastmile_qr_scan"}, "lon": -77.0271515, "name": "9b4c84976e24fab8db5ba3e0017c8d0a", "is_disabled": 0, "is_reserved": 0, "bike_id": "9b4c84976e24fab8db5ba3e0017c8d0a", "lat": 38.90779666666667, "type": "electric_scooter"}, {"fusion_lat": 0.0, "fusion_lon": 0.0, "rental_uris": {"android": "https://dc.lft.to/lastmile_qr_scan", "ios": "https://dc.lft.to/lastmile_qr_scan"}, "lon": -76.96704616666666, "name": "02ed4da474334de679c01ecc25164e65", "is_disabled": 0, "is_reserved": 0, "bike_id": "02ed4da474334de679c01ecc25164e65", "lat": 38.860337666666666, "type": "electric_scooter"}, {"fusion_lat": 0.0, "fusion_lon": 0.0, "rental_uris": {"android": "https://dc.lft.to/lastmile_qr_scan", "ios": "https://dc.lft.to/lastmile_qr_scan"}, "lon": -77.035565, "name": "1cb39493e4268ede2863bb9519a2e285", "is_disabled": 0, "is_reserved": 0, "bike_id": "1cb39493e4268ede2863bb9519a2e285", "lat": 38.90739633333333, "type": "electric_scooter"}, {"fusion_lat": 0.0, "fusion_lon": 0.0, "rental_uris": {"android": "https://dc.lft.to/lastmile_qr_scan", "ios": "https://dc.lft.to/lastmile_qr_scan"}, "lon": -77.02383666666667, "name": "f55e92a5f353c874add3272d14295acb", "is_disabled": 0, "is_reserved": 0, "bike_id": "f55e92a5f353c874add3272d14295acb", "lat": 38.906892166666665, "type": "electric_scooter"}, {"fusion_lat": 0.0, "fusion_lon": 0.0, "rental_uris": {"android": "https://dc.lft.to/lastmile_qr_scan", "ios": "https://dc.lft.to/lastmile_qr_scan"}, "lon": -77.024384, "name": "648bd745ef63c01e6ec26b54b44a0bcd", "is_disabled": 0, "is_reserved": 0, "bike_id": "648bd745ef63c01e6ec26b54b44a0bcd", "lat": 38.92040033333333, "type": "electric_scooter"}, {"fusion_lat": 0.0, "fusion_lon": 0.0, "rental_uris": {"android": "https://dc.lft.to/lastmile_qr_scan", "ios": "https://dc.lft.to/lastmile_qr_scan"}, "lon": -77.00712316666667, "name": "e870399960cc3bb00d41feab7cd1d23c", "is_disabled": 0, "is_reserved": 0, "bike_id": "e870399960cc3bb00d41feab7cd1d23c", "lat": 38.884866333333335, "type": "electric_scooter"}, {"fusion_lat": 0.0, "fusion_lon": 0.0, "rental_uris": {"android": "https://dc.lft.to/lastmile_qr_scan", "ios": "https://dc.lft.to/lastmile_qr_scan"}, "lon": -77.04242033333334, "name": "a17c1fd9b67bcff724bd3fc0bcb0ab74", "is_disabled": 0, "is_reserved": 0, "bike_id": "a17c1fd9b67bcff724bd3fc0bcb0ab74", "lat": 38.922676833333334, "type": "electric_scooter"}, {"fusion_lat": 0.0, "fusion_lon": 0.0, "rental_uris": {"android": "https://dc.lft.to/lastmile_qr_scan", "ios": "https://dc.lft.to/lastmile_qr_scan"}, "lon": -77.0716635, "name": "ad40e37338bf6de6afb3edda4b9177d1", "is_disabled": 0, "is_reserved": 0, "bike_id": "ad40e37338bf6de6afb3edda4b9177d1", "lat": 38.9077445, "type": "electric_scooter"}, {"fusion_lat": 0.0, "fusion_lon": 0.0, "rental_uris": {"android": "https://dc.lft.to/lastmile_qr_scan", "ios": "https://dc.lft.to/lastmile_qr_scan"}, "lon": -77.0504215, "name": "4411bb0d8fc476ba88df0c25551ed8cc", "is_disabled": 0, "is_reserved": 0, "bike_id": "4411bb0d8fc476ba88df0c25551ed8cc", "lat": 38.923594, "type": "electric_scooter"}, {"fusion_lat": 0.0, "fusion_lon": 0.0, "rental_uris": {"android": "https://dc.lft.to/lastmile_qr_scan", "ios": "https://dc.lft.to/lastmile_qr_scan"}, "lon": -76.982, "name": "7dce0f9ef5581953a917c1480c587bf3", "is_disabled": 0, "is_reserved": 0, "bike_id": "7dce0f9ef5581953a917c1480c587bf3", "lat": 38.984981833333336, "type": "electric_bike"}, {"fusion_lat": 0.0, "fusion_lon": 0.0, "rental_uris": {"android": "https://dc.lft.to/lastmile_qr_scan", "ios": "https://dc.lft.to/lastmile_qr_scan"}, "lon": -77.003659, "name": "d3178b79de73305c4fbc9143e2cc5a75", "is_disabled": 0, "is_reserved": 0, "bike_id": "d3178b79de73305c4fbc9143e2cc5a75", "lat": 38.876419, "type": "electric_scooter"}, {"fusion_lat": 0.0, "fusion_lon": 0.0, "rental_uris": {"android": "https://dc.lft.to/lastmile_qr_scan", "ios": "https://dc.lft.to/lastmile_qr_scan"}, "lon": -77.04882583333334, "name": "988eceee6a0540ea92847e822dcc6e7d", "is_disabled": 0, "is_reserved": 0, "bike_id": "988eceee6a0540ea92847e822dcc6e7d", "lat": 38.90194183333333, "type": "electric_scooter"}, {"fusion_lat": 0.0, "fusion_lon": 0.0, "rental_uris": {"android": "https://dc.lft.to/lastmile_qr_scan", "ios": "https://dc.lft.to/lastmile_qr_scan"}, "lon": -77.0359175, "name": "745be2c173a1d492dee1cb7577ff7b20", "is_disabled": 0, "is_reserved": 0, "bike_id": "745be2c173a1d492dee1cb7577ff7b20", "lat": 38.931494666666666, "type": "electric_scooter"}, {"fusion_lat": 0.0, "fusion_lon": 0.0, "rental_uris": {"android": "https://dc.lft.to/lastmile_qr_scan", "ios": "https://dc.lft.to/lastmile_qr_scan"}, "lon": -77.04999183333334, "name": "7fb8c55574c71668be4a5627b0f7bb4e", "is_disabled": 0, "is_reserved": 0, "bike_id": "7fb8c55574c71668be4a5627b0f7bb4e", "lat": 38.904180333333336, "type": "electric_scooter"}, {"fusion_lat": 0.0, "fusion_lon": 0.0, "rental_uris": {"android": "https://dc.lft.to/lastmile_qr_scan", "ios": "https://dc.lft.to/lastmile_qr_scan"}, "lon": -77.02174466666666, "name": "61deedffa237c1a5c49029430b695c3f", "is_disabled": 0, "is_reserved": 0, "bike_id": "61deedffa237c1a5c49029430b695c3f", "lat": 38.90569383333333, "type": "electric_scooter"}, {"fusion_lat": 0.0, "fusion_lon": 0.0, "rental_uris": {"android": "https://dc.lft.to/lastmile_qr_scan", "ios": "https://dc.lft.to/lastmile_qr_scan"}, "lon": -77.00287416666667, "name": "a04b57f17f39c43754c4b52bf1d24401", "is_disabled": 0, "is_reserved": 0, "bike_id": "a04b57f17f39c43754c4b52bf1d24401", "lat": 38.918138666666664, "type": "electric_scooter"}, {"fusion_lat": 0.0, "fusion_lon": 0.0, "rental_uris": {"android": "https://dc.lft.to/lastmile_qr_scan", "ios": "https://dc.lft.to/lastmile_qr_scan"}, "lon": -77.0386875, "name": "fb6da9f4bb7acff1faf3fe988685fbd3", "is_disabled": 0, "is_reserved": 0, "bike_id": "fb6da9f4bb7acff1faf3fe988685fbd3", "lat": 38.906525333333335, "type": "electric_scooter"}, {"fusion_lat": 0.0, "fusion_lon": 0.0, "rental_uris": {"android": "https://dc.lft.to/lastmile_qr_scan", "ios": "https://dc.lft.to/lastmile_qr_scan"}, "lon": -76.99580233333333, "name": "277495c3b2ee546d76c23621560424a3", "is_disabled": 0, "is_reserved": 0, "bike_id": "277495c3b2ee546d76c23621560424a3", "lat": 38.85177633333333, "type": "electric_scooter"}, {"fusion_lat": 0.0, "fusion_lon": 0.0, "rental_uris": {"android": "https://dc.lft.to/lastmile_qr_scan", "ios": "https://dc.lft.to/lastmile_qr_scan"}, "lon": -76.98713866666667, "name": "45fad5eacb13576dc86a01fe69afbadd", "is_disabled": 0, "is_reserved": 0, "bike_id": "45fad5eacb13576dc86a01fe69afbadd", "lat": 38.866254, "type": "electric_scooter"}, {"fusion_lat": 0.0, "fusion_lon": 0.0, "rental_uris": {"android": "https://dc.lft.to/lastmile_qr_scan", "ios": "https://dc.lft.to/lastmile_qr_scan"}, "lon": -77.0094035, "name": "f491607ce8d73ca0766e698c2babe8c8", "is_disabled": 0, "is_reserved": 0, "bike_id": "f491607ce8d73ca0766e698c2babe8c8", "lat": 38.883206, "type": "electric_scooter"}, {"fusion_lat": 0.0, "fusion_lon": 0.0, "rental_uris": {"android": "https://dc.lft.to/lastmile_qr_scan", "ios": "https://dc.lft.to/lastmile_qr_scan"}, "lon": -76.99372866666667, "name": "bd2a45d67632a810ff6d2ac0d0729a24", "is_disabled": 0, "is_reserved": 0, "bike_id": "bd2a45d67632a810ff6d2ac0d0729a24", "lat": 38.990929333333334, "type": "electric_bike"}, {"fusion_lat": 0.0, "fusion_lon": 0.0, "rental_uris": {"android": "https://dc.lft.to/lastmile_qr_scan", "ios": "https://dc.lft.to/lastmile_qr_scan"}, "lon": -77.02811133333333, "name": "028910dd82c1c88305f531ea01215081", "is_disabled": 0, "is_reserved": 0, "bike_id": "028910dd82c1c88305f531ea01215081", "lat": 38.930798333333335, "type": "electric_scooter"}, {"fusion_lat": 0.0, "fusion_lon": 0.0, "rental_uris": {"android": "https://dc.lft.to/lastmile_qr_scan", "ios": "https://dc.lft.to/lastmile_qr_scan"}, "lon": -77.033187, "name": "94b830d2dac96ca7b9dd23e1f97f30a2", "is_disabled": 0, "is_reserved": 0, "bike_id": "94b830d2dac96ca7b9dd23e1f97f30a2", "lat": 38.89827566666666, "type": "electric_scooter"}, {"fusion_lat": 0.0, "fusion_lon": 0.0, "rental_uris": {"android": "https://dc.lft.to/lastmile_qr_scan", "ios": "https://dc.lft.to/lastmile_qr_scan"}, "lon": -76.9856225, "name": "771091f502b7db4707f053eacd202c96", "is_disabled": 0, "is_reserved": 0, "bike_id": "771091f502b7db4707f053eacd202c96", "lat": 38.866825166666665, "type": "electric_scooter"}, {"fusion_lat": 0.0, "fusion_lon": 0.0, "rental_uris": {"android": "https://dc.lft.to/lastmile_qr_scan", "ios": "https://dc.lft.to/lastmile_qr_scan"}, "lon": -76.98193033333334, "name": "9c7a28a6fc3b537e8b5e5c62703cd233", "is_disabled": 0, "is_reserved": 0, "bike_id": "9c7a28a6fc3b537e8b5e5c62703cd233", "lat": 38.92062116666666, "type": "electric_scooter"}, {"fusion_lat": 0.0, "fusion_lon": 0.0, "rental_uris": {"android": "https://dc.lft.to/lastmile_qr_scan", "ios": "https://dc.lft.to/lastmile_qr_scan"}, "lon": -77.04333116666666, "name": "67363ab3584707b482e3c49b51525e5e", "is_disabled": 0, "is_reserved": 0, "bike_id": "67363ab3584707b482e3c49b51525e5e", "lat": 38.90368016666667, "type": "electric_scooter"}, {"fusion_lat": 0.0, "fusion_lon": 0.0, "rental_uris": {"android": "https://dc.lft.to/lastmile_qr_scan", "ios": "https://dc.lft.to/lastmile_qr_scan"}, "lon": -77.03199316666667, "name": "1297df79c8b188f62fddb3ab54ffaffe", "is_disabled": 0, "is_reserved": 0, "bike_id": "1297df79c8b188f62fddb3ab54ffaffe", "lat": 38.91830383333333, "type": "electric_scooter"}, {"fusion_lat": 0.0, "fusion_lon": 0.0, "rental_uris": {"android": "https://dc.lft.to/lastmile_qr_scan", "ios": "https://dc.lft.to/lastmile_qr_scan"}, "lon": -77.028244, "name": "d59b9d04e100c4345b0b2b526b528891", "is_disabled": 0, "is_reserved": 0, "bike_id": "d59b9d04e100c4345b0b2b526b528891", "lat": 38.93882466666667, "type": "electric_bike"}, {"fusion_lat": 0.0, "fusion_lon": 0.0, "rental_uris": {"android": "https://dc.lft.to/lastmile_qr_scan", "ios": "https://dc.lft.to/lastmile_qr_scan"}, "lon": -77.007996, "name": "1abd4daa2371e53aa8a8bf5d9337b618", "is_disabled": 0, "is_reserved": 0, "bike_id": "1abd4daa2371e53aa8a8bf5d9337b618", "lat": 38.897162333333334, "type": "electric_scooter"}, {"fusion_lat": 0.0, "fusion_lon": 0.0, "rental_uris": {"android": "https://dc.lft.to/lastmile_qr_scan", "ios": "https://dc.lft.to/lastmile_qr_scan"}, "lon": -77.000523, "name": "a635db3639b21bedcc8851c033b47121", "is_disabled": 0, "is_reserved": 0, "bike_id": "a635db3639b21bedcc8851c033b47121", "lat": 38.894352833333336, "type": "electric_scooter"}, {"fusion_lat": 0.0, "fusion_lon": 0.0, "rental_uris": {"android": "https://dc.lft.to/lastmile_qr_scan", "ios": "https://dc.lft.to/lastmile_qr_scan"}, "lon": -76.93734266666667, "name": "2c03bfecb47ce1d1d5c1720ac873544e", "is_disabled": 0, "is_reserved": 0, "bike_id": "2c03bfecb47ce1d1d5c1720ac873544e", "lat": 38.890094, "type": "electric_scooter"}, {"fusion_lat": 0.0, "fusion_lon": 0.0, "rental_uris": {"android": "https://dc.lft.to/lastmile_qr_scan", "ios": "https://dc.lft.to/lastmile_qr_scan"}, "lon": -77.003026, "name": "a15d734ba4bebdbba63d37f4b8d10791", "is_disabled": 0, "is_reserved": 0, "bike_id": "a15d734ba4bebdbba63d37f4b8d10791", "lat": 38.920247, "type": "electric_scooter"}, {"fusion_lat": 0.0, "fusion_lon": 0.0, "rental_uris": {"android": "https://dc.lft.to/lastmile_qr_scan", "ios": "https://dc.lft.to/lastmile_qr_scan"}, "lon": -77.03181116666667, "name": "b432f16a8ed098bf9bff7d0f032e972e", "is_disabled": 0, "is_reserved": 0, "bike_id": "b432f16a8ed098bf9bff7d0f032e972e", "lat": 38.92480666666667, "type": "electric_scooter"}, {"fusion_lat": 0.0, "fusion_lon": 0.0, "rental_uris": {"android": "https://dc.lft.to/lastmile_qr_scan", "ios": "https://dc.lft.to/lastmile_qr_scan"}, "lon": -77.14056116666667, "name": "91732de81de2e671753486a6f5e3647d", "is_disabled": 0, "is_reserved": 0, "bike_id": "91732de81de2e671753486a6f5e3647d", "lat": 38.987626, "type": "electric_bike"}, {"fusion_lat": 0.0, "fusion_lon": 0.0, "rental_uris": {"android": "https://dc.lft.to/lastmile_qr_scan", "ios": "https://dc.lft.to/lastmile_qr_scan"}, "lon": -77.007072, "name": "9e0a052907e6761c1c3186ef3b43f1e5", "is_disabled": 0, "is_reserved": 0, "bike_id": "9e0a052907e6761c1c3186ef3b43f1e5", "lat": 38.884849833333334, "type": "electric_scooter"}, {"fusion_lat": 0.0, "fusion_lon": 0.0, "rental_uris": {"android": "https://dc.lft.to/lastmile_qr_scan", "ios": "https://dc.lft.to/lastmile_qr_scan"}, "lon": -77.03988466666667, "name": "507f61fe86aaf2965f3cd1714e107b82", "is_disabled": 0, "is_reserved": 0, "bike_id": "507f61fe86aaf2965f3cd1714e107b82", "lat": 38.9244345, "type": "electric_scooter"}, {"fusion_lat": 0.0, "fusion_lon": 0.0, "rental_uris": {"android": "https://dc.lft.to/lastmile_qr_scan", "ios": "https://dc.lft.to/lastmile_qr_scan"}, "lon": -76.98700716666667, "name": "963e515efee24bb99fc046ee6f8fbd13", "is_disabled": 0, "is_reserved": 0, "bike_id": "963e515efee24bb99fc046ee6f8fbd13", "lat": 38.86717733333333, "type": "electric_scooter"}, {"fusion_lat": 0.0, "fusion_lon": 0.0, "rental_uris": {"android": "https://dc.lft.to/lastmile_qr_scan", "ios": "https://dc.lft.to/lastmile_qr_scan"}, "lon": -77.01302566666666, "name": "2a1684dde222daf3cec08e31559aeb11", "is_disabled": 0, "is_reserved": 0, "bike_id": "2a1684dde222daf3cec08e31559aeb11", "lat": 38.9299915, "type": "electric_scooter"}, {"fusion_lat": 0.0, "fusion_lon": 0.0, "rental_uris": {"android": "https://dc.lft.to/lastmile_qr_scan", "ios": "https://dc.lft.to/lastmile_qr_scan"}, "lon": -77.04694516666666, "name": "78e0c8e22004b6ce46a20ce21fae05a3", "is_disabled": 0, "is_reserved": 0, "bike_id": "78e0c8e22004b6ce46a20ce21fae05a3", "lat": 38.921556, "type": "electric_scooter"}, {"fusion_lat": 0.0, "fusion_lon": 0.0, "rental_uris": {"android": "https://dc.lft.to/lastmile_qr_scan", "ios": "https://dc.lft.to/lastmile_qr_scan"}, "lon": -77.02034683333333, "name": "306248bc52f5c75563b284b43c6c0c89", "is_disabled": 0, "is_reserved": 0, "bike_id": "306248bc52f5c75563b284b43c6c0c89", "lat": 38.9241055, "type": "electric_scooter"}, {"fusion_lat": 0.0, "fusion_lon": 0.0, "rental_uris": {"android": "https://dc.lft.to/lastmile_qr_scan", "ios": "https://dc.lft.to/lastmile_qr_scan"}, "lon": -76.949835, "name": "f67185bab469404c43b0f9db46931a2b", "is_disabled": 0, "is_reserved": 0, "bike_id": "f67185bab469404c43b0f9db46931a2b", "lat": 38.884585333333334, "type": "electric_scooter"}, {"fusion_lat": 0.0, "fusion_lon": 0.0, "rental_uris": {"android": "https://dc.lft.to/lastmile_qr_scan", "ios": "https://dc.lft.to/lastmile_qr_scan"}, "lon": -77.03032183333333, "name": "61648fd64771a9197cf399fde5fd4f61", "is_disabled": 0, "is_reserved": 0, "bike_id": "61648fd64771a9197cf399fde5fd4f61", "lat": 38.9169125, "type": "electric_scooter"}, {"fusion_lat": 0.0, "fusion_lon": 0.0, "rental_uris": {"android": "https://dc.lft.to/lastmile_qr_scan", "ios": "https://dc.lft.to/lastmile_qr_scan"}, "lon": -77.07140183333334, "name": "1af7e73192c5fbc883546722349dca2f", "is_disabled": 0, "is_reserved": 0, "bike_id": "1af7e73192c5fbc883546722349dca2f", "lat": 38.907768833333336, "type": "electric_scooter"}, {"fusion_lat": 0.0, "fusion_lon": 0.0, "rental_uris": {"android": "https://dc.lft.to/lastmile_qr_scan", "ios": "https://dc.lft.to/lastmile_qr_scan"}, "lon": -77.03594633333333, "name": "6b54c34de811a2a02771ed356218e21d", "is_disabled": 0, "is_reserved": 0, "bike_id": "6b54c34de811a2a02771ed356218e21d", "lat": 38.931459833333335, "type": "electric_scooter"}, {"fusion_lat": 0.0, "fusion_lon": 0.0, "rental_uris": {"android": "https://dc.lft.to/lastmile_qr_scan", "ios": "https://dc.lft.to/lastmile_qr_scan"}, "lon": -76.96111083333334, "name": "788a5e94dcfb0f16e018603d79fa34f5", "is_disabled": 0, "is_reserved": 0, "bike_id": "788a5e94dcfb0f16e018603d79fa34f5", "lat": 38.884321166666666, "type": "electric_scooter"}, {"fusion_lat": 0.0, "fusion_lon": 0.0, "rental_uris": {"android": "https://dc.lft.to/lastmile_qr_scan", "ios": "https://dc.lft.to/lastmile_qr_scan"}, "lon": -77.00923316666666, "name": "7f3191c89719a1fc859bec84a90893f9", "is_disabled": 0, "is_reserved": 0, "bike_id": "7f3191c89719a1fc859bec84a90893f9", "lat": 38.896005333333335, "type": "electric_scooter"}, {"fusion_lat": 0.0, "fusion_lon": 0.0, "rental_uris": {"android": "https://dc.lft.to/lastmile_qr_scan", "ios": "https://dc.lft.to/lastmile_qr_scan"}, "lon": -77.0281695, "name": "0a4d88000fba24db06ca53a7f7745fdb", "is_disabled": 0, "is_reserved": 0, "bike_id": "0a4d88000fba24db06ca53a7f7745fdb", "lat": 38.899026, "type": "electric_scooter"}, {"fusion_lat": 0.0, "fusion_lon": 0.0, "rental_uris": {"android": "https://dc.lft.to/lastmile_qr_scan", "ios": "https://dc.lft.to/lastmile_qr_scan"}, "lon": -77.02205766666667, "name": "aa522df70e415388eac9473467cf7c88", "is_disabled": 0, "is_reserved": 0, "bike_id": "aa522df70e415388eac9473467cf7c88", "lat": 38.924564833333335, "type": "electric_scooter"}, {"fusion_lat": 0.0, "fusion_lon": 0.0, "rental_uris": {"android": "https://dc.lft.to/lastmile_qr_scan", "ios": "https://dc.lft.to/lastmile_qr_scan"}, "lon": -77.023301, "name": "eb788cadbfcfb9e2685dd90d62b97cbf", "is_disabled": 0, "is_reserved": 0, "bike_id": "eb788cadbfcfb9e2685dd90d62b97cbf", "lat": 38.9287205, "type": "electric_scooter"}, {"fusion_lat": 0.0, "fusion_lon": 0.0, "rental_uris": {"android": "https://dc.lft.to/lastmile_qr_scan", "ios": "https://dc.lft.to/lastmile_qr_scan"}, "lon": -77.0418775, "name": "5a38334e01428870c9a710ed194bb7b0", "is_disabled": 0, "is_reserved": 0, "bike_id": "5a38334e01428870c9a710ed194bb7b0", "lat": 38.92625566666667, "type": "electric_scooter"}, {"fusion_lat": 0.0, "fusion_lon": 0.0, "rental_uris": {"android": "https://dc.lft.to/lastmile_qr_scan", "ios": "https://dc.lft.to/lastmile_qr_scan"}, "lon": -76.93391683333333, "name": "a0de50120fc2d18c9ac6dc4faed90dcf", "is_disabled": 0, "is_reserved": 0, "bike_id": "a0de50120fc2d18c9ac6dc4faed90dcf", "lat": 38.898921666666666, "type": "electric_scooter"}, {"fusion_lat": 0.0, "fusion_lon": 0.0, "rental_uris": {"android": "https://dc.lft.to/lastmile_qr_scan", "ios": "https://dc.lft.to/lastmile_qr_scan"}, "lon": -77.034472, "name": "14b0d6b59d5560cfe103d18ac9afb9a4", "is_disabled": 0, "is_reserved": 0, "bike_id": "14b0d6b59d5560cfe103d18ac9afb9a4", "lat": 38.90394716666667, "type": "electric_scooter"}, {"fusion_lat": 0.0, "fusion_lon": 0.0, "rental_uris": {"android": "https://dc.lft.to/lastmile_qr_scan", "ios": "https://dc.lft.to/lastmile_qr_scan"}, "lon": -77.0339955, "name": "cf174a1fa25e9ce8aead6b057eec1030", "is_disabled": 0, "is_reserved": 0, "bike_id": "cf174a1fa25e9ce8aead6b057eec1030", "lat": 38.9038535, "type": "electric_scooter"}, {"fusion_lat": 0.0, "fusion_lon": 0.0, "rental_uris": {"android": "https://dc.lft.to/lastmile_qr_scan", "ios": "https://dc.lft.to/lastmile_qr_scan"}, "lon": -76.99778983333333, "name": "e9448a056a7885d7a800824e85ed96b8", "is_disabled": 0, "is_reserved": 0, "bike_id": "e9448a056a7885d7a800824e85ed96b8", "lat": 38.844350166666665, "type": "electric_scooter"}, {"fusion_lat": 0.0, "fusion_lon": 0.0, "rental_uris": {"android": "https://dc.lft.to/lastmile_qr_scan", "ios": "https://dc.lft.to/lastmile_qr_scan"}, "lon": -77.03822916666667, "name": "9b6762fdc071bcda59e518b6122aa836", "is_disabled": 0, "is_reserved": 0, "bike_id": "9b6762fdc071bcda59e518b6122aa836", "lat": 38.92165766666667, "type": "electric_scooter"}, {"fusion_lat": 0.0, "fusion_lon": 0.0, "rental_uris": {"android": "https://dc.lft.to/lastmile_qr_scan", "ios": "https://dc.lft.to/lastmile_qr_scan"}, "lon": -76.98767266666667, "name": "6403d07e253a030505a8543a60554b04", "is_disabled": 0, "is_reserved": 0, "bike_id": "6403d07e253a030505a8543a60554b04", "lat": 38.900208166666665, "type": "electric_scooter"}, {"fusion_lat": 0.0, "fusion_lon": 0.0, "rental_uris": {"android": "https://dc.lft.to/lastmile_qr_scan", "ios": "https://dc.lft.to/lastmile_qr_scan"}, "lon": -77.07695016666666, "name": "36c320d2ea1664a59595af0cc3d257b0", "is_disabled": 0, "is_reserved": 0, "bike_id": "36c320d2ea1664a59595af0cc3d257b0", "lat": 38.994170833333335, "type": "electric_bike"}, {"fusion_lat": 0.0, "fusion_lon": 0.0, "rental_uris": {"android": "https://dc.lft.to/lastmile_qr_scan", "ios": "https://dc.lft.to/lastmile_qr_scan"}, "lon": -77.05167983333334, "name": "378ae2059116f1f26e9178ca1127c349", "is_disabled": 0, "is_reserved": 0, "bike_id": "378ae2059116f1f26e9178ca1127c349", "lat": 38.9240115, "type": "electric_scooter"}, {"fusion_lat": 0.0, "fusion_lon": 0.0, "rental_uris": {"android": "https://dc.lft.to/lastmile_qr_scan", "ios": "https://dc.lft.to/lastmile_qr_scan"}, "lon": -77.027079, "name": "d10a4c970761fa0faeb3552c2651ef18", "is_disabled": 0, "is_reserved": 0, "bike_id": "d10a4c970761fa0faeb3552c2651ef18", "lat": 38.917143, "type": "electric_scooter"}, {"fusion_lat": 0.0, "fusion_lon": 0.0, "rental_uris": {"android": "https://dc.lft.to/lastmile_qr_scan", "ios": "https://dc.lft.to/lastmile_qr_scan"}, "lon": -77.022051, "name": "b9d351767646cbd721b1786a2497a2f4", "is_disabled": 0, "is_reserved": 0, "bike_id": "b9d351767646cbd721b1786a2497a2f4", "lat": 38.92467466666667, "type": "electric_scooter"}, {"fusion_lat": 0.0, "fusion_lon": 0.0, "rental_uris": {"android": "https://dc.lft.to/lastmile_qr_scan", "ios": "https://dc.lft.to/lastmile_qr_scan"}, "lon": -77.0466405, "name": "4e7c032216f6d20873d5ab23e730361b", "is_disabled": 0, "is_reserved": 0, "bike_id": "4e7c032216f6d20873d5ab23e730361b", "lat": 38.89875516666667, "type": "electric_scooter"}, {"fusion_lat": 0.0, "fusion_lon": 0.0, "rental_uris": {"android": "https://dc.lft.to/lastmile_qr_scan", "ios": "https://dc.lft.to/lastmile_qr_scan"}, "lon": -77.029691, "name": "1d1cb610a2d6d75b97ec7b87460cdeab", "is_disabled": 0, "is_reserved": 0, "bike_id": "1d1cb610a2d6d75b97ec7b87460cdeab", "lat": 38.91776083333333, "type": "electric_scooter"}, {"fusion_lat": 0.0, "fusion_lon": 0.0, "rental_uris": {"android": "https://dc.lft.to/lastmile_qr_scan", "ios": "https://dc.lft.to/lastmile_qr_scan"}, "lon": -77.04250533333334, "name": "7087cfc0c8283c19e9de6c2d183a57ad", "is_disabled": 0, "is_reserved": 0, "bike_id": "7087cfc0c8283c19e9de6c2d183a57ad", "lat": 38.9224405, "type": "electric_scooter"}, {"fusion_lat": 0.0, "fusion_lon": 0.0, "rental_uris": {"android": "https://dc.lft.to/lastmile_qr_scan", "ios": "https://dc.lft.to/lastmile_qr_scan"}, "lon": -77.02744533333333, "name": "22e39bb4a2762352401cc74e75bba624", "is_disabled": 0, "is_reserved": 0, "bike_id": "22e39bb4a2762352401cc74e75bba624", "lat": 38.94302416666667, "type": "electric_scooter"}, {"fusion_lat": 0.0, "fusion_lon": 0.0, "rental_uris": {"android": "https://dc.lft.to/lastmile_qr_scan", "ios": "https://dc.lft.to/lastmile_qr_scan"}, "lon": -76.93335733333333, "name": "8f7b7b13693a47993086a70b1d70f9dd", "is_disabled": 0, "is_reserved": 0, "bike_id": "8f7b7b13693a47993086a70b1d70f9dd", "lat": 38.90866233333333, "type": "electric_scooter"}, {"fusion_lat": 0.0, "fusion_lon": 0.0, "rental_uris": {"android": "https://dc.lft.to/lastmile_qr_scan", "ios": "https://dc.lft.to/lastmile_qr_scan"}, "lon": -77.02149616666667, "name": "fd9a3c93918bd46e49b36665a8ad6568", "is_disabled": 0, "is_reserved": 0, "bike_id": "fd9a3c93918bd46e49b36665a8ad6568", "lat": 38.91904233333333, "type": "electric_scooter"}, {"fusion_lat": 0.0, "fusion_lon": 0.0, "rental_uris": {"android": "https://dc.lft.to/lastmile_qr_scan", "ios": "https://dc.lft.to/lastmile_qr_scan"}, "lon": -77.040156, "name": "2276cadebe6a8cdffc7b23bb774b694b", "is_disabled": 0, "is_reserved": 0, "bike_id": "2276cadebe6a8cdffc7b23bb774b694b", "lat": 38.903727, "type": "electric_scooter"}, {"fusion_lat": 0.0, "fusion_lon": 0.0, "rental_uris": {"android": "https://dc.lft.to/lastmile_qr_scan", "ios": "https://dc.lft.to/lastmile_qr_scan"}, "lon": -77.06790416666666, "name": "b442542afe28365548f4b210fdc73add", "is_disabled": 0, "is_reserved": 0, "bike_id": "b442542afe28365548f4b210fdc73add", "lat": 38.912727, "type": "electric_scooter"}, {"fusion_lat": 0.0, "fusion_lon": 0.0, "rental_uris": {"android": "https://dc.lft.to/lastmile_qr_scan", "ios": "https://dc.lft.to/lastmile_qr_scan"}, "lon": -77.01857016666666, "name": "c1149d2eb2158c7e8c5f544b015aef83", "is_disabled": 0, "is_reserved": 0, "bike_id": "c1149d2eb2158c7e8c5f544b015aef83", "lat": 38.9492365, "type": "electric_scooter"}, {"fusion_lat": 0.0, "fusion_lon": 0.0, "rental_uris": {"android": "https://dc.lft.to/lastmile_qr_scan", "ios": "https://dc.lft.to/lastmile_qr_scan"}, "lon": -77.05069716666667, "name": "52c4492316bbc13164ae816ccafbcabb", "is_disabled": 0, "is_reserved": 0, "bike_id": "52c4492316bbc13164ae816ccafbcabb", "lat": 38.92534333333333, "type": "electric_scooter"}, {"fusion_lat": 0.0, "fusion_lon": 0.0, "rental_uris": {"android": "https://dc.lft.to/lastmile_qr_scan", "ios": "https://dc.lft.to/lastmile_qr_scan"}, "lon": -77.04500883333333, "name": "89e310b0c4b660451c8ecb4395730177", "is_disabled": 0, "is_reserved": 0, "bike_id": "89e310b0c4b660451c8ecb4395730177", "lat": 38.903704166666664, "type": "electric_scooter"}, {"fusion_lat": 0.0, "fusion_lon": 0.0, "rental_uris": {"android": "https://dc.lft.to/lastmile_qr_scan", "ios": "https://dc.lft.to/lastmile_qr_scan"}, "lon": -77.01824533333334, "name": "a29c509bb416a828102483728353ccff", "is_disabled": 0, "is_reserved": 0, "bike_id": "a29c509bb416a828102483728353ccff", "lat": 38.89975183333333, "type": "electric_scooter"}, {"fusion_lat": 0.0, "fusion_lon": 0.0, "rental_uris": {"android": "https://dc.lft.to/lastmile_qr_scan", "ios": "https://dc.lft.to/lastmile_qr_scan"}, "lon": -77.0333565, "name": "bf9c598d6e496f4c9d56440becf408ad", "is_disabled": 0, "is_reserved": 0, "bike_id": "bf9c598d6e496f4c9d56440becf408ad", "lat": 38.902415500000004, "type": "electric_scooter"}, {"fusion_lat": 0.0, "fusion_lon": 0.0, "rental_uris": {"android": "https://dc.lft.to/lastmile_qr_scan", "ios": "https://dc.lft.to/lastmile_qr_scan"}, "lon": -77.04543033333333, "name": "2769ebc3a6c853b39cbf31575171162f", "is_disabled": 0, "is_reserved": 0, "bike_id": "2769ebc3a6c853b39cbf31575171162f", "lat": 38.90963633333333, "type": "electric_scooter"}, {"fusion_lat": 0.0, "fusion_lon": 0.0, "rental_uris": {"android": "https://dc.lft.to/lastmile_qr_scan", "ios": "https://dc.lft.to/lastmile_qr_scan"}, "lon": -77.04210383333333, "name": "ed2b5e620463d0454e3a9bc9974a0063", "is_disabled": 0, "is_reserved": 0, "bike_id": "ed2b5e620463d0454e3a9bc9974a0063", "lat": 38.9036655, "type": "electric_scooter"}, {"fusion_lat": 0.0, "fusion_lon": 0.0, "rental_uris": {"android": "https://dc.lft.to/lastmile_qr_scan", "ios": "https://dc.lft.to/lastmile_qr_scan"}, "lon": -76.90733683333333, "name": "b0905660733675c90b5bee6352d40eab", "is_disabled": 0, "is_reserved": 0, "bike_id": "b0905660733675c90b5bee6352d40eab", "lat": 38.896102, "type": "electric_bike"}, {"fusion_lat": 0.0, "fusion_lon": 0.0, "rental_uris": {"android": "https://dc.lft.to/lastmile_qr_scan", "ios": "https://dc.lft.to/lastmile_qr_scan"}, "lon": -77.04989383333333, "name": "8d8939b1bfc003adbfc052274133ca24", "is_disabled": 0, "is_reserved": 0, "bike_id": "8d8939b1bfc003adbfc052274133ca24", "lat": 38.89228033333333, "type": "electric_scooter"}, {"fusion_lat": 0.0, "fusion_lon": 0.0, "rental_uris": {"android": "https://dc.lft.to/lastmile_qr_scan", "ios": "https://dc.lft.to/lastmile_qr_scan"}, "lon": -77.06350983333333, "name": "8edac5b40332619fbb2d82739a6cb7d2", "is_disabled": 0, "is_reserved": 0, "bike_id": "8edac5b40332619fbb2d82739a6cb7d2", "lat": 38.944359, "type": "electric_scooter"}, {"fusion_lat": 0.0, "fusion_lon": 0.0, "rental_uris": {"android": "https://dc.lft.to/lastmile_qr_scan", "ios": "https://dc.lft.to/lastmile_qr_scan"}, "lon": -77.22938933333333, "name": "2f7dd562e6099a1db87a62e24976a979", "is_disabled": 0, "is_reserved": 0, "bike_id": "2f7dd562e6099a1db87a62e24976a979", "lat": 38.872190833333335, "type": "electric_bike"}, {"fusion_lat": 0.0, "fusion_lon": 0.0, "rental_uris": {"android": "https://dc.lft.to/lastmile_qr_scan", "ios": "https://dc.lft.to/lastmile_qr_scan"}, "lon": -77.03266916666666, "name": "87d6b670bb89ecdfbe0ba9f325914b0d", "is_disabled": 0, "is_reserved": 0, "bike_id": "87d6b670bb89ecdfbe0ba9f325914b0d", "lat": 38.901324833333334, "type": "electric_scooter"}, {"fusion_lat": 0.0, "fusion_lon": 0.0, "rental_uris": {"android": "https://dc.lft.to/lastmile_qr_scan", "ios": "https://dc.lft.to/lastmile_qr_scan"}, "lon": -77.0258815, "name": "eaf85052b5aa71f59732a30c47031a15", "is_disabled": 0, "is_reserved": 0, "bike_id": "eaf85052b5aa71f59732a30c47031a15", "lat": 38.914122, "type": "electric_scooter"}, {"fusion_lat": 0.0, "fusion_lon": 0.0, "rental_uris": {"android": "https://dc.lft.to/lastmile_qr_scan", "ios": "https://dc.lft.to/lastmile_qr_scan"}, "lon": -76.990588, "name": "aa0577a8613e983e278cb1118ac5c81d", "is_disabled": 0, "is_reserved": 0, "bike_id": "aa0577a8613e983e278cb1118ac5c81d", "lat": 38.93684483333333, "type": "electric_bike"}, {"fusion_lat": 0.0, "fusion_lon": 0.0, "rental_uris": {"android": "https://dc.lft.to/lastmile_qr_scan", "ios": "https://dc.lft.to/lastmile_qr_scan"}, "lon": -76.9742435, "name": "6f080f5129f143502f9eac8e0c44636d", "is_disabled": 0, "is_reserved": 0, "bike_id": "6f080f5129f143502f9eac8e0c44636d", "lat": 38.932369, "type": "electric_bike"}, {"fusion_lat": 0.0, "fusion_lon": 0.0, "rental_uris": {"android": "https://dc.lft.to/lastmile_qr_scan", "ios": "https://dc.lft.to/lastmile_qr_scan"}, "lon": -77.031756, "name": "b77e87f9fd354963f2a3a314b9788774", "is_disabled": 0, "is_reserved": 0, "bike_id": "b77e87f9fd354963f2a3a314b9788774", "lat": 38.9155025, "type": "electric_scooter"}, {"fusion_lat": 0.0, "fusion_lon": 0.0, "rental_uris": {"android": "https://dc.lft.to/lastmile_qr_scan", "ios": "https://dc.lft.to/lastmile_qr_scan"}, "lon": -77.0611955, "name": "bd944f7830ed90c79ba3d8a8a1376b58", "is_disabled": 0, "is_reserved": 0, "bike_id": "bd944f7830ed90c79ba3d8a8a1376b58", "lat": 38.901981166666666, "type": "electric_scooter"}, {"fusion_lat": 0.0, "fusion_lon": 0.0, "rental_uris": {"android": "https://dc.lft.to/lastmile_qr_scan", "ios": "https://dc.lft.to/lastmile_qr_scan"}, "lon": -77.04133933333334, "name": "32d2391236c029960e2dc0ef6871330a", "is_disabled": 0, "is_reserved": 0, "bike_id": "32d2391236c029960e2dc0ef6871330a", "lat": 38.913788333333336, "type": "electric_scooter"}, {"fusion_lat": 0.0, "fusion_lon": 0.0, "rental_uris": {"android": "https://dc.lft.to/lastmile_qr_scan", "ios": "https://dc.lft.to/lastmile_qr_scan"}, "lon": -76.9962965, "name": "badcf9db2f92a82222102de0d2a368e0", "is_disabled": 0, "is_reserved": 0, "bike_id": "badcf9db2f92a82222102de0d2a368e0", "lat": 38.900603, "type": "electric_scooter"}, {"fusion_lat": 0.0, "fusion_lon": 0.0, "rental_uris": {"android": "https://dc.lft.to/lastmile_qr_scan", "ios": "https://dc.lft.to/lastmile_qr_scan"}, "lon": -77.0196015, "name": "8adda7c57435bcfbca9b86c10c2c7b29", "is_disabled": 0, "is_reserved": 0, "bike_id": "8adda7c57435bcfbca9b86c10c2c7b29", "lat": 38.92321366666667, "type": "electric_scooter"}, {"fusion_lat": 0.0, "fusion_lon": 0.0, "rental_uris": {"android": "https://dc.lft.to/lastmile_qr_scan", "ios": "https://dc.lft.to/lastmile_qr_scan"}, "lon": -76.9873645, "name": "d20b66bac3bb0950af404f1f4ef3ceaf", "is_disabled": 0, "is_reserved": 0, "bike_id": "d20b66bac3bb0950af404f1f4ef3ceaf", "lat": 38.900274833333334, "type": "electric_scooter"}, {"fusion_lat": 0.0, "fusion_lon": 0.0, "rental_uris": {"android": "https://dc.lft.to/lastmile_qr_scan", "ios": "https://dc.lft.to/lastmile_qr_scan"}, "lon": -77.04009733333334, "name": "0ecf3d7ad60cef88634e8032d7f3b962", "is_disabled": 0, "is_reserved": 0, "bike_id": "0ecf3d7ad60cef88634e8032d7f3b962", "lat": 38.9219595, "type": "electric_scooter"}, {"fusion_lat": 0.0, "fusion_lon": 0.0, "rental_uris": {"android": "https://dc.lft.to/lastmile_qr_scan", "ios": "https://dc.lft.to/lastmile_qr_scan"}, "lon": -77.034271, "name": "fdb8f839f2f13e63d9cd7d26574a0cfd", "is_disabled": 0, "is_reserved": 0, "bike_id": "fdb8f839f2f13e63d9cd7d26574a0cfd", "lat": 38.92733366666667, "type": "electric_scooter"}, {"fusion_lat": 0.0, "fusion_lon": 0.0, "rental_uris": {"android": "https://dc.lft.to/lastmile_qr_scan", "ios": "https://dc.lft.to/lastmile_qr_scan"}, "lon": -77.0426055, "name": "a14d03ecef8879c7075729f57b6d1a3d", "is_disabled": 0, "is_reserved": 0, "bike_id": "a14d03ecef8879c7075729f57b6d1a3d", "lat": 38.907156, "type": "electric_scooter"}, {"fusion_lat": 0.0, "fusion_lon": 0.0, "rental_uris": {"android": "https://dc.lft.to/lastmile_qr_scan", "ios": "https://dc.lft.to/lastmile_qr_scan"}, "lon": -77.03358066666667, "name": "177446992883e9d077a6dcbd4f42d3e7", "is_disabled": 0, "is_reserved": 0, "bike_id": "177446992883e9d077a6dcbd4f42d3e7", "lat": 38.8869245, "type": "electric_scooter"}, {"fusion_lat": 0.0, "fusion_lon": 0.0, "rental_uris": {"android": "https://dc.lft.to/lastmile_qr_scan", "ios": "https://dc.lft.to/lastmile_qr_scan"}, "lon": -77.0247605, "name": "30effbae25d6f57bbff917e6c845d9f9", "is_disabled": 0, "is_reserved": 0, "bike_id": "30effbae25d6f57bbff917e6c845d9f9", "lat": 38.938460166666665, "type": "electric_scooter"}, {"fusion_lat": 0.0, "fusion_lon": 0.0, "rental_uris": {"android": "https://dc.lft.to/lastmile_qr_scan", "ios": "https://dc.lft.to/lastmile_qr_scan"}, "lon": -77.04727433333333, "name": "d168e1daaf41248ba74a8a60ed2d59a4", "is_disabled": 0, "is_reserved": 0, "bike_id": "d168e1daaf41248ba74a8a60ed2d59a4", "lat": 38.90174183333333, "type": "electric_scooter"}, {"fusion_lat": 0.0, "fusion_lon": 0.0, "rental_uris": {"android": "https://dc.lft.to/lastmile_qr_scan", "ios": "https://dc.lft.to/lastmile_qr_scan"}, "lon": -77.025086, "name": "f126ca588f09a31e8523e933a9a08eaf", "is_disabled": 0, "is_reserved": 0, "bike_id": "f126ca588f09a31e8523e933a9a08eaf", "lat": 38.91808283333334, "type": "electric_scooter"}, {"fusion_lat": 0.0, "fusion_lon": 0.0, "rental_uris": {"android": "https://dc.lft.to/lastmile_qr_scan", "ios": "https://dc.lft.to/lastmile_qr_scan"}, "lon": -76.9320905, "name": "95377ec2bfb8ef13a684e7e95acb614a", "is_disabled": 0, "is_reserved": 0, "bike_id": "95377ec2bfb8ef13a684e7e95acb614a", "lat": 38.896638, "type": "electric_scooter"}, {"fusion_lat": 0.0, "fusion_lon": 0.0, "rental_uris": {"android": "https://dc.lft.to/lastmile_qr_scan", "ios": "https://dc.lft.to/lastmile_qr_scan"}, "lon": -76.985069, "name": "b4bc04b0b3c22bedfd85ddcd33a64b29", "is_disabled": 0, "is_reserved": 0, "bike_id": "b4bc04b0b3c22bedfd85ddcd33a64b29", "lat": 38.86061133333333, "type": "electric_scooter"}, {"fusion_lat": 0.0, "fusion_lon": 0.0, "rental_uris": {"android": "https://dc.lft.to/lastmile_qr_scan", "ios": "https://dc.lft.to/lastmile_qr_scan"}, "lon": -77.03002016666667, "name": "f96dfcf70f1813668e760ac497eaf135", "is_disabled": 0, "is_reserved": 0, "bike_id": "f96dfcf70f1813668e760ac497eaf135", "lat": 38.90276683333333, "type": "electric_scooter"}, {"fusion_lat": 0.0, "fusion_lon": 0.0, "rental_uris": {"android": "https://dc.lft.to/lastmile_qr_scan", "ios": "https://dc.lft.to/lastmile_qr_scan"}, "lon": -77.03572633333333, "name": "610e7b1f121f9d1343eb7ab8ee47f37d", "is_disabled": 0, "is_reserved": 0, "bike_id": "610e7b1f121f9d1343eb7ab8ee47f37d", "lat": 38.904759, "type": "electric_scooter"}, {"fusion_lat": 0.0, "fusion_lon": 0.0, "rental_uris": {"android": "https://dc.lft.to/lastmile_qr_scan", "ios": "https://dc.lft.to/lastmile_qr_scan"}, "lon": -77.04333233333334, "name": "64ded77120ef19fe2e2bf863b6708ae6", "is_disabled": 0, "is_reserved": 0, "bike_id": "64ded77120ef19fe2e2bf863b6708ae6", "lat": 38.92612416666667, "type": "electric_scooter"}, {"fusion_lat": 0.0, "fusion_lon": 0.0, "rental_uris": {"android": "https://dc.lft.to/lastmile_qr_scan", "ios": "https://dc.lft.to/lastmile_qr_scan"}, "lon": -77.009835, "name": "1c0d644854e3893cdf743bd5eb684aac", "is_disabled": 0, "is_reserved": 0, "bike_id": "1c0d644854e3893cdf743bd5eb684aac", "lat": 38.87283633333333, "type": "electric_scooter"}, {"fusion_lat": 0.0, "fusion_lon": 0.0, "rental_uris": {"android": "https://dc.lft.to/lastmile_qr_scan", "ios": "https://dc.lft.to/lastmile_qr_scan"}, "lon": -76.98278983333333, "name": "ddea574f1f231edfb5123c5d83614680", "is_disabled": 0, "is_reserved": 0, "bike_id": "ddea574f1f231edfb5123c5d83614680", "lat": 38.88536666666667, "type": "electric_scooter"}, {"fusion_lat": 0.0, "fusion_lon": 0.0, "rental_uris": {"android": "https://dc.lft.to/lastmile_qr_scan", "ios": "https://dc.lft.to/lastmile_qr_scan"}, "lon": -77.2341065, "name": "c84732e819fc47e07dadad090cfe92fa", "is_disabled": 0, "is_reserved": 0, "bike_id": "c84732e819fc47e07dadad090cfe92fa", "lat": 38.87574766666667, "type": "electric_bike"}, {"fusion_lat": 0.0, "fusion_lon": 0.0, "rental_uris": {"android": "https://dc.lft.to/lastmile_qr_scan", "ios": "https://dc.lft.to/lastmile_qr_scan"}, "lon": -77.00136033333334, "name": "081a1cf2e63f0509aa2beb1c4d18a0dd", "is_disabled": 0, "is_reserved": 0, "bike_id": "081a1cf2e63f0509aa2beb1c4d18a0dd", "lat": 38.874936, "type": "electric_scooter"}, {"fusion_lat": 0.0, "fusion_lon": 0.0, "rental_uris": {"android": "https://dc.lft.to/lastmile_qr_scan", "ios": "https://dc.lft.to/lastmile_qr_scan"}, "lon": -77.0434715, "name": "23db0981a842cbb8d32e1abb4d85b7df", "is_disabled": 0, "is_reserved": 0, "bike_id": "23db0981a842cbb8d32e1abb4d85b7df", "lat": 38.910463, "type": "electric_scooter"}, {"fusion_lat": 0.0, "fusion_lon": 0.0, "rental_uris": {"android": "https://dc.lft.to/lastmile_qr_scan", "ios": "https://dc.lft.to/lastmile_qr_scan"}, "lon": -77.0312795, "name": "e759d023d9adfb070cdc54281ee28cd0", "is_disabled": 0, "is_reserved": 0, "bike_id": "e759d023d9adfb070cdc54281ee28cd0", "lat": 38.9160335, "type": "electric_scooter"}, {"fusion_lat": 0.0, "fusion_lon": 0.0, "rental_uris": {"android": "https://dc.lft.to/lastmile_qr_scan", "ios": "https://dc.lft.to/lastmile_qr_scan"}, "lon": -76.947035, "name": "7e84e6398c492362bc5dd0ffc81e6023", "is_disabled": 0, "is_reserved": 0, "bike_id": "7e84e6398c492362bc5dd0ffc81e6023", "lat": 38.8936485, "type": "electric_scooter"}, {"fusion_lat": 0.0, "fusion_lon": 0.0, "rental_uris": {"android": "https://dc.lft.to/lastmile_qr_scan", "ios": "https://dc.lft.to/lastmile_qr_scan"}, "lon": -77.029713, "name": "b37b2db45fd91808768025210629cf19", "is_disabled": 0, "is_reserved": 0, "bike_id": "b37b2db45fd91808768025210629cf19", "lat": 38.89750633333333, "type": "electric_scooter"}, {"fusion_lat": 0.0, "fusion_lon": 0.0, "rental_uris": {"android": "https://dc.lft.to/lastmile_qr_scan", "ios": "https://dc.lft.to/lastmile_qr_scan"}, "lon": -77.042894, "name": "cf28d7363e53dcaa68cdbc40314e2124", "is_disabled": 0, "is_reserved": 0, "bike_id": "cf28d7363e53dcaa68cdbc40314e2124", "lat": 38.83094083333334, "type": "electric_bike"}, {"fusion_lat": 0.0, "fusion_lon": 0.0, "rental_uris": {"android": "https://dc.lft.to/lastmile_qr_scan", "ios": "https://dc.lft.to/lastmile_qr_scan"}, "lon": -77.02749816666666, "name": "05b2c9946c3f7e685f083a28e9c9dc96", "is_disabled": 0, "is_reserved": 0, "bike_id": "05b2c9946c3f7e685f083a28e9c9dc96", "lat": 38.934597833333335, "type": "electric_scooter"}, {"fusion_lat": 0.0, "fusion_lon": 0.0, "rental_uris": {"android": "https://dc.lft.to/lastmile_qr_scan", "ios": "https://dc.lft.to/lastmile_qr_scan"}, "lon": -77.02109466666667, "name": "2c18daab6aca4cd5e4ae2b23af04c164", "is_disabled": 0, "is_reserved": 0, "bike_id": "2c18daab6aca4cd5e4ae2b23af04c164", "lat": 38.927472333333334, "type": "electric_scooter"}, {"fusion_lat": 0.0, "fusion_lon": 0.0, "rental_uris": {"android": "https://dc.lft.to/lastmile_qr_scan", "ios": "https://dc.lft.to/lastmile_qr_scan"}, "lon": -77.02388116666667, "name": "79fc52bd5b1e50ca36c2a40a77461f4d", "is_disabled": 0, "is_reserved": 0, "bike_id": "79fc52bd5b1e50ca36c2a40a77461f4d", "lat": 38.906852, "type": "electric_scooter"}, {"fusion_lat": 0.0, "fusion_lon": 0.0, "rental_uris": {"android": "https://dc.lft.to/lastmile_qr_scan", "ios": "https://dc.lft.to/lastmile_qr_scan"}, "lon": -76.928927, "name": "fa7f9336c7def43f1a83bf99ea4ca2e3", "is_disabled": 0, "is_reserved": 0, "bike_id": "fa7f9336c7def43f1a83bf99ea4ca2e3", "lat": 38.901848, "type": "electric_scooter"}, {"fusion_lat": 0.0, "fusion_lon": 0.0, "rental_uris": {"android": "https://dc.lft.to/lastmile_qr_scan", "ios": "https://dc.lft.to/lastmile_qr_scan"}, "lon": -77.03193216666666, "name": "42136c83062f46333ed7320c066b343d", "is_disabled": 0, "is_reserved": 0, "bike_id": "42136c83062f46333ed7320c066b343d", "lat": 38.89767233333333, "type": "electric_scooter"}, {"fusion_lat": 0.0, "fusion_lon": 0.0, "rental_uris": {"android": "https://dc.lft.to/lastmile_qr_scan", "ios": "https://dc.lft.to/lastmile_qr_scan"}, "lon": -77.02115033333334, "name": "c4eee2b7032dfd15cf6c4bbf65fb7c6a", "is_disabled": 0, "is_reserved": 0, "bike_id": "c4eee2b7032dfd15cf6c4bbf65fb7c6a", "lat": 38.93698966666667, "type": "electric_bike"}, {"fusion_lat": 0.0, "fusion_lon": 0.0, "rental_uris": {"android": "https://dc.lft.to/lastmile_qr_scan", "ios": "https://dc.lft.to/lastmile_qr_scan"}, "lon": -77.02018366666667, "name": "45132266c7f681ae77a7fe33088535c8", "is_disabled": 0, "is_reserved": 0, "bike_id": "45132266c7f681ae77a7fe33088535c8", "lat": 38.901632666666664, "type": "electric_scooter"}, {"fusion_lat": 0.0, "fusion_lon": 0.0, "rental_uris": {"android": "https://dc.lft.to/lastmile_qr_scan", "ios": "https://dc.lft.to/lastmile_qr_scan"}, "lon": -77.02378816666666, "name": "4feac4bfe44bc63f1ed7d62a3510accf", "is_disabled": 0, "is_reserved": 0, "bike_id": "4feac4bfe44bc63f1ed7d62a3510accf", "lat": 38.891915833333336, "type": "electric_scooter"}, {"fusion_lat": 0.0, "fusion_lon": 0.0, "rental_uris": {"android": "https://dc.lft.to/lastmile_qr_scan", "ios": "https://dc.lft.to/lastmile_qr_scan"}, "lon": -76.948307, "name": "c416b73c5112c6533c66e6a6031214a4", "is_disabled": 0, "is_reserved": 0, "bike_id": "c416b73c5112c6533c66e6a6031214a4", "lat": 38.88406716666667, "type": "electric_scooter"}, {"fusion_lat": 0.0, "fusion_lon": 0.0, "rental_uris": {"android": "https://dc.lft.to/lastmile_qr_scan", "ios": "https://dc.lft.to/lastmile_qr_scan"}, "lon": -77.02383666666667, "name": "0024ed0eb3216f20fc4bdc3497292d7e", "is_disabled": 0, "is_reserved": 0, "bike_id": "0024ed0eb3216f20fc4bdc3497292d7e", "lat": 38.8922455, "type": "electric_scooter"}, {"fusion_lat": 0.0, "fusion_lon": 0.0, "rental_uris": {"android": "https://dc.lft.to/lastmile_qr_scan", "ios": "https://dc.lft.to/lastmile_qr_scan"}, "lon": -77.05270616666667, "name": "f440564a95aa39fdb4c1d8ccfb948293", "is_disabled": 0, "is_reserved": 0, "bike_id": "f440564a95aa39fdb4c1d8ccfb948293", "lat": 38.92564933333333, "type": "electric_scooter"}, {"fusion_lat": 0.0, "fusion_lon": 0.0, "rental_uris": {"android": "https://dc.lft.to/lastmile_qr_scan", "ios": "https://dc.lft.to/lastmile_qr_scan"}, "lon": -77.02380383333333, "name": "422fc77fef5b13cae0664786fd2a3e55", "is_disabled": 0, "is_reserved": 0, "bike_id": "422fc77fef5b13cae0664786fd2a3e55", "lat": 38.900324833333336, "type": "electric_scooter"}, {"fusion_lat": 0.0, "fusion_lon": 0.0, "rental_uris": {"android": "https://dc.lft.to/lastmile_qr_scan", "ios": "https://dc.lft.to/lastmile_qr_scan"}, "lon": -77.0334775, "name": "41ac34869d1a7ba25263709a244c2297", "is_disabled": 0, "is_reserved": 0, "bike_id": "41ac34869d1a7ba25263709a244c2297", "lat": 38.93579783333333, "type": "electric_scooter"}, {"fusion_lat": 0.0, "fusion_lon": 0.0, "rental_uris": {"android": "https://dc.lft.to/lastmile_qr_scan", "ios": "https://dc.lft.to/lastmile_qr_scan"}, "lon": -77.045035, "name": "d29b55f83190f7ea762d828d09822ccc", "is_disabled": 0, "is_reserved": 0, "bike_id": "d29b55f83190f7ea762d828d09822ccc", "lat": 38.91411566666667, "type": "electric_scooter"}, {"fusion_lat": 0.0, "fusion_lon": 0.0, "rental_uris": {"android": "https://dc.lft.to/lastmile_qr_scan", "ios": "https://dc.lft.to/lastmile_qr_scan"}, "lon": -77.04372483333333, "name": "33bc070d64109b65ad857ef6e2043193", "is_disabled": 0, "is_reserved": 0, "bike_id": "33bc070d64109b65ad857ef6e2043193", "lat": 38.902626833333336, "type": "electric_scooter"}, {"fusion_lat": 0.0, "fusion_lon": 0.0, "rental_uris": {"android": "https://dc.lft.to/lastmile_qr_scan", "ios": "https://dc.lft.to/lastmile_qr_scan"}, "lon": -76.99032416666667, "name": "1b0f022324d377f485cf40a36dec46e0", "is_disabled": 0, "is_reserved": 0, "bike_id": "1b0f022324d377f485cf40a36dec46e0", "lat": 38.8985065, "type": "electric_scooter"}, {"fusion_lat": 0.0, "fusion_lon": 0.0, "rental_uris": {"android": "https://dc.lft.to/lastmile_qr_scan", "ios": "https://dc.lft.to/lastmile_qr_scan"}, "lon": -77.05341183333333, "name": "16c25e7206e3069a83a9e98a16d4dac5", "is_disabled": 0, "is_reserved": 0, "bike_id": "16c25e7206e3069a83a9e98a16d4dac5", "lat": 39.040820833333335, "type": "electric_bike"}, {"fusion_lat": 0.0, "fusion_lon": 0.0, "rental_uris": {"android": "https://dc.lft.to/lastmile_qr_scan", "ios": "https://dc.lft.to/lastmile_qr_scan"}, "lon": -77.03265216666667, "name": "f14f45c71f9d2d9beedf217b5cae1568", "is_disabled": 0, "is_reserved": 0, "bike_id": "f14f45c71f9d2d9beedf217b5cae1568", "lat": 38.929602, "type": "electric_scooter"}, {"fusion_lat": 0.0, "fusion_lon": 0.0, "rental_uris": {"android": "https://dc.lft.to/lastmile_qr_scan", "ios": "https://dc.lft.to/lastmile_qr_scan"}, "lon": -77.03241183333333, "name": "d50a8fc55f44bde4815de5e88d4dcf60", "is_disabled": 0, "is_reserved": 0, "bike_id": "d50a8fc55f44bde4815de5e88d4dcf60", "lat": 38.9272285, "type": "electric_scooter"}, {"fusion_lat": 0.0, "fusion_lon": 0.0, "rental_uris": {"android": "https://dc.lft.to/lastmile_qr_scan", "ios": "https://dc.lft.to/lastmile_qr_scan"}, "lon": -76.96108316666667, "name": "2a3bbf4d6b3b54298cf2280673cf09f7", "is_disabled": 0, "is_reserved": 0, "bike_id": "2a3bbf4d6b3b54298cf2280673cf09f7", "lat": 38.92860533333333, "type": "electric_bike"}, {"fusion_lat": 0.0, "fusion_lon": 0.0, "rental_uris": {"android": "https://dc.lft.to/lastmile_qr_scan", "ios": "https://dc.lft.to/lastmile_qr_scan"}, "lon": -76.9990875, "name": "31dc15501bd22a9329ba85f914affaff", "is_disabled": 0, "is_reserved": 0, "bike_id": "31dc15501bd22a9329ba85f914affaff", "lat": 38.93209316666667, "type": "electric_scooter"}, {"fusion_lat": 0.0, "fusion_lon": 0.0, "rental_uris": {"android": "https://dc.lft.to/lastmile_qr_scan", "ios": "https://dc.lft.to/lastmile_qr_scan"}, "lon": -77.04230816666667, "name": "f904a1b2d9a7323994cb8f270452c888", "is_disabled": 0, "is_reserved": 0, "bike_id": "f904a1b2d9a7323994cb8f270452c888", "lat": 38.91104983333334, "type": "electric_scooter"}, {"fusion_lat": 0.0, "fusion_lon": 0.0, "rental_uris": {"android": "https://dc.lft.to/lastmile_qr_scan", "ios": "https://dc.lft.to/lastmile_qr_scan"}, "lon": -77.04672333333333, "name": "6143de99dd626c8099ee90cc25aabebb", "is_disabled": 0, "is_reserved": 0, "bike_id": "6143de99dd626c8099ee90cc25aabebb", "lat": 38.895555333333334, "type": "electric_scooter"}, {"fusion_lat": 0.0, "fusion_lon": 0.0, "rental_uris": {"android": "https://dc.lft.to/lastmile_qr_scan", "ios": "https://dc.lft.to/lastmile_qr_scan"}, "lon": -77.0384195, "name": "2bd37223045558bd889f8c5962022363", "is_disabled": 0, "is_reserved": 0, "bike_id": "2bd37223045558bd889f8c5962022363", "lat": 38.902873, "type": "electric_scooter"}, {"fusion_lat": 0.0, "fusion_lon": 0.0, "rental_uris": {"android": "https://dc.lft.to/lastmile_qr_scan", "ios": "https://dc.lft.to/lastmile_qr_scan"}, "lon": -77.02947833333333, "name": "865f902664d453c443dc6efec89d72aa", "is_disabled": 0, "is_reserved": 0, "bike_id": "865f902664d453c443dc6efec89d72aa", "lat": 38.90355183333333, "type": "electric_scooter"}, {"fusion_lat": 0.0, "fusion_lon": 0.0, "rental_uris": {"android": "https://dc.lft.to/lastmile_qr_scan", "ios": "https://dc.lft.to/lastmile_qr_scan"}, "lon": -77.04348183333333, "name": "b1f1d15adfb8d5ca1e790171aa67a158", "is_disabled": 0, "is_reserved": 0, "bike_id": "b1f1d15adfb8d5ca1e790171aa67a158", "lat": 38.904185, "type": "electric_scooter"}, {"fusion_lat": 0.0, "fusion_lon": 0.0, "rental_uris": {"android": "https://dc.lft.to/lastmile_qr_scan", "ios": "https://dc.lft.to/lastmile_qr_scan"}, "lon": -77.00233016666667, "name": "e684c371fa3886df409aac435b9ac0ef", "is_disabled": 0, "is_reserved": 0, "bike_id": "e684c371fa3886df409aac435b9ac0ef", "lat": 38.885108833333334, "type": "electric_scooter"}, {"fusion_lat": 0.0, "fusion_lon": 0.0, "rental_uris": {"android": "https://dc.lft.to/lastmile_qr_scan", "ios": "https://dc.lft.to/lastmile_qr_scan"}, "lon": -77.04022816666667, "name": "7b9eb61e3f9986444b2e906060eb39a3", "is_disabled": 0, "is_reserved": 0, "bike_id": "7b9eb61e3f9986444b2e906060eb39a3", "lat": 38.92154, "type": "electric_bike"}, {"fusion_lat": 0.0, "fusion_lon": 0.0, "rental_uris": {"android": "https://dc.lft.to/lastmile_qr_scan", "ios": "https://dc.lft.to/lastmile_qr_scan"}, "lon": -77.03124916666667, "name": "9cff507904535c09844c2d24a82b7161", "is_disabled": 0, "is_reserved": 0, "bike_id": "9cff507904535c09844c2d24a82b7161", "lat": 38.904469666666664, "type": "electric_scooter"}, {"fusion_lat": 0.0, "fusion_lon": 0.0, "rental_uris": {"android": "https://dc.lft.to/lastmile_qr_scan", "ios": "https://dc.lft.to/lastmile_qr_scan"}, "lon": -77.00948866666667, "name": "ee3a5cef5201810ff230b360286f35f7", "is_disabled": 0, "is_reserved": 0, "bike_id": "ee3a5cef5201810ff230b360286f35f7", "lat": 38.897318, "type": "electric_scooter"}, {"fusion_lat": 0.0, "fusion_lon": 0.0, "rental_uris": {"android": "https://dc.lft.to/lastmile_qr_scan", "ios": "https://dc.lft.to/lastmile_qr_scan"}, "lon": -77.08484716666666, "name": "308db136050a6daf98d91e36f4a29e65", "is_disabled": 0, "is_reserved": 0, "bike_id": "308db136050a6daf98d91e36f4a29e65", "lat": 38.93903816666667, "type": "electric_scooter"}, {"fusion_lat": 0.0, "fusion_lon": 0.0, "rental_uris": {"android": "https://dc.lft.to/lastmile_qr_scan", "ios": "https://dc.lft.to/lastmile_qr_scan"}, "lon": -77.02041616666666, "name": "65eff9351413d9bd534968b061b56181", "is_disabled": 0, "is_reserved": 0, "bike_id": "65eff9351413d9bd534968b061b56181", "lat": 38.920857833333336, "type": "electric_scooter"}, {"fusion_lat": 0.0, "fusion_lon": 0.0, "rental_uris": {"android": "https://dc.lft.to/lastmile_qr_scan", "ios": "https://dc.lft.to/lastmile_qr_scan"}, "lon": -77.00487233333334, "name": "b6aad51b50ef985e6f58d041f91f5711", "is_disabled": 0, "is_reserved": 0, "bike_id": "b6aad51b50ef985e6f58d041f91f5711", "lat": 38.8746465, "type": "electric_scooter"}, {"fusion_lat": 0.0, "fusion_lon": 0.0, "rental_uris": {"android": "https://dc.lft.to/lastmile_qr_scan", "ios": "https://dc.lft.to/lastmile_qr_scan"}, "lon": -77.06196, "name": "91e1a8e0bf8b275c63ef48838827cdf0", "is_disabled": 0, "is_reserved": 0, "bike_id": "91e1a8e0bf8b275c63ef48838827cdf0", "lat": 38.9184415, "type": "electric_scooter"}, {"fusion_lat": 0.0, "fusion_lon": 0.0, "rental_uris": {"android": "https://dc.lft.to/lastmile_qr_scan", "ios": "https://dc.lft.to/lastmile_qr_scan"}, "lon": -77.026896, "name": "c3f39f379dfe93b751356a40f1b83c3a", "is_disabled": 0, "is_reserved": 0, "bike_id": "c3f39f379dfe93b751356a40f1b83c3a", "lat": 38.92673166666667, "type": "electric_scooter"}, {"fusion_lat": 0.0, "fusion_lon": 0.0, "rental_uris": {"android": "https://dc.lft.to/lastmile_qr_scan", "ios": "https://dc.lft.to/lastmile_qr_scan"}, "lon": -77.01798916666667, "name": "e14612905899ad889729ffbc6ad7b037", "is_disabled": 0, "is_reserved": 0, "bike_id": "e14612905899ad889729ffbc6ad7b037", "lat": 38.92136033333333, "type": "electric_scooter"}, {"fusion_lat": 0.0, "fusion_lon": 0.0, "rental_uris": {"android": "https://dc.lft.to/lastmile_qr_scan", "ios": "https://dc.lft.to/lastmile_qr_scan"}, "lon": -76.98542483333334, "name": "9ef5226babccca14e057b10d074fc8ec", "is_disabled": 0, "is_reserved": 0, "bike_id": "9ef5226babccca14e057b10d074fc8ec", "lat": 38.866865, "type": "electric_scooter"}, {"fusion_lat": 0.0, "fusion_lon": 0.0, "rental_uris": {"android": "https://dc.lft.to/lastmile_qr_scan", "ios": "https://dc.lft.to/lastmile_qr_scan"}, "lon": -77.0215265, "name": "74f4c3db38338a066bef1b2255db1664", "is_disabled": 0, "is_reserved": 0, "bike_id": "74f4c3db38338a066bef1b2255db1664", "lat": 38.926011, "type": "electric_scooter"}, {"fusion_lat": 0.0, "fusion_lon": 0.0, "rental_uris": {"android": "https://dc.lft.to/lastmile_qr_scan", "ios": "https://dc.lft.to/lastmile_qr_scan"}, "lon": -77.04182783333333, "name": "75d893e566c6d4e933b8cf269897e4d4", "is_disabled": 0, "is_reserved": 0, "bike_id": "75d893e566c6d4e933b8cf269897e4d4", "lat": 38.920484, "type": "electric_scooter"}, {"fusion_lat": 0.0, "fusion_lon": 0.0, "rental_uris": {"android": "https://dc.lft.to/lastmile_qr_scan", "ios": "https://dc.lft.to/lastmile_qr_scan"}, "lon": -77.03358383333334, "name": "6becc7c2c06bfa1decfc3fe402f2f30c", "is_disabled": 0, "is_reserved": 0, "bike_id": "6becc7c2c06bfa1decfc3fe402f2f30c", "lat": 38.927572833333336, "type": "electric_scooter"}, {"fusion_lat": 0.0, "fusion_lon": 0.0, "rental_uris": {"android": "https://dc.lft.to/lastmile_qr_scan", "ios": "https://dc.lft.to/lastmile_qr_scan"}, "lon": -77.046855, "name": "46f5d79dbc0ccad37c388026172a359c", "is_disabled": 0, "is_reserved": 0, "bike_id": "46f5d79dbc0ccad37c388026172a359c", "lat": 38.892207, "type": "electric_scooter"}, {"fusion_lat": 0.0, "fusion_lon": 0.0, "rental_uris": {"android": "https://dc.lft.to/lastmile_qr_scan", "ios": "https://dc.lft.to/lastmile_qr_scan"}, "lon": -77.0220455, "name": "cc97196eaa09769a43a267a3968692cf", "is_disabled": 0, "is_reserved": 0, "bike_id": "cc97196eaa09769a43a267a3968692cf", "lat": 38.8957865, "type": "electric_scooter"}, {"fusion_lat": 0.0, "fusion_lon": 0.0, "rental_uris": {"android": "https://dc.lft.to/lastmile_qr_scan", "ios": "https://dc.lft.to/lastmile_qr_scan"}, "lon": -76.9473295, "name": "b608e373619d477da7db8b73c48da03d", "is_disabled": 0, "is_reserved": 0, "bike_id": "b608e373619d477da7db8b73c48da03d", "lat": 38.897322333333335, "type": "electric_scooter"}, {"fusion_lat": 0.0, "fusion_lon": 0.0, "rental_uris": {"android": "https://dc.lft.to/lastmile_qr_scan", "ios": "https://dc.lft.to/lastmile_qr_scan"}, "lon": -77.046773, "name": "2de5394e0838b71db281bf071c278a8e", "is_disabled": 0, "is_reserved": 0, "bike_id": "2de5394e0838b71db281bf071c278a8e", "lat": 38.90597183333333, "type": "electric_scooter"}, {"fusion_lat": 0.0, "fusion_lon": 0.0, "rental_uris": {"android": "https://dc.lft.to/lastmile_qr_scan", "ios": "https://dc.lft.to/lastmile_qr_scan"}, "lon": -77.0323875, "name": "2ba25ced75212db15c581cffeb28a6c8", "is_disabled": 0, "is_reserved": 0, "bike_id": "2ba25ced75212db15c581cffeb28a6c8", "lat": 38.92723633333333, "type": "electric_scooter"}, {"fusion_lat": 0.0, "fusion_lon": 0.0, "rental_uris": {"android": "https://dc.lft.to/lastmile_qr_scan", "ios": "https://dc.lft.to/lastmile_qr_scan"}, "lon": -77.031424, "name": "be4e46d7dffe1f73eb8a57c3a15c43f0", "is_disabled": 0, "is_reserved": 0, "bike_id": "be4e46d7dffe1f73eb8a57c3a15c43f0", "lat": 38.941763333333334, "type": "electric_scooter"}, {"fusion_lat": 0.0, "fusion_lon": 0.0, "rental_uris": {"android": "https://dc.lft.to/lastmile_qr_scan", "ios": "https://dc.lft.to/lastmile_qr_scan"}, "lon": -77.01476616666666, "name": "91849d67c077cab3b824ca44dbb2f654", "is_disabled": 0, "is_reserved": 0, "bike_id": "91849d67c077cab3b824ca44dbb2f654", "lat": 38.9187595, "type": "electric_scooter"}, {"fusion_lat": 0.0, "fusion_lon": 0.0, "rental_uris": {"android": "https://dc.lft.to/lastmile_qr_scan", "ios": "https://dc.lft.to/lastmile_qr_scan"}, "lon": -77.03171566666667, "name": "c867c652904e2b74eccaa3a8c23afaff", "is_disabled": 0, "is_reserved": 0, "bike_id": "c867c652904e2b74eccaa3a8c23afaff", "lat": 38.91414866666667, "type": "electric_scooter"}, {"fusion_lat": 0.0, "fusion_lon": 0.0, "rental_uris": {"android": "https://dc.lft.to/lastmile_qr_scan", "ios": "https://dc.lft.to/lastmile_qr_scan"}, "lon": -77.034613, "name": "e461c6b453842a20bb224922f8726bcb", "is_disabled": 0, "is_reserved": 0, "bike_id": "e461c6b453842a20bb224922f8726bcb", "lat": 38.90162, "type": "electric_scooter"}, {"fusion_lat": 0.0, "fusion_lon": 0.0, "rental_uris": {"android": "https://dc.lft.to/lastmile_qr_scan", "ios": "https://dc.lft.to/lastmile_qr_scan"}, "lon": -77.041919, "name": "ee9c444f0c05eb1ad70c198ed4a1f036", "is_disabled": 0, "is_reserved": 0, "bike_id": "ee9c444f0c05eb1ad70c198ed4a1f036", "lat": 38.920580666666666, "type": "electric_scooter"}, {"fusion_lat": 0.0, "fusion_lon": 0.0, "rental_uris": {"android": "https://dc.lft.to/lastmile_qr_scan", "ios": "https://dc.lft.to/lastmile_qr_scan"}, "lon": -77.003432, "name": "84d16e177af7171f3e7e27b77f7737ca", "is_disabled": 0, "is_reserved": 0, "bike_id": "84d16e177af7171f3e7e27b77f7737ca", "lat": 38.897436666666664, "type": "electric_scooter"}, {"fusion_lat": 0.0, "fusion_lon": 0.0, "rental_uris": {"android": "https://dc.lft.to/lastmile_qr_scan", "ios": "https://dc.lft.to/lastmile_qr_scan"}, "lon": -77.02889433333333, "name": "6d727ec991054402c1f5d483753bb7cf", "is_disabled": 0, "is_reserved": 0, "bike_id": "6d727ec991054402c1f5d483753bb7cf", "lat": 38.90125066666667, "type": "electric_scooter"}, {"fusion_lat": 0.0, "fusion_lon": 0.0, "rental_uris": {"android": "https://dc.lft.to/lastmile_qr_scan", "ios": "https://dc.lft.to/lastmile_qr_scan"}, "lon": -77.0640105, "name": "327596f0db4b8095dc66602c9f954462", "is_disabled": 0, "is_reserved": 0, "bike_id": "327596f0db4b8095dc66602c9f954462", "lat": 38.9441135, "type": "electric_scooter"}, {"fusion_lat": 0.0, "fusion_lon": 0.0, "rental_uris": {"android": "https://dc.lft.to/lastmile_qr_scan", "ios": "https://dc.lft.to/lastmile_qr_scan"}, "lon": -77.02694716666667, "name": "5db9f88fc909c2f1943c4881c11a4479", "is_disabled": 0, "is_reserved": 0, "bike_id": "5db9f88fc909c2f1943c4881c11a4479", "lat": 38.908437166666666, "type": "electric_scooter"}, {"fusion_lat": 0.0, "fusion_lon": 0.0, "rental_uris": {"android": "https://dc.lft.to/lastmile_qr_scan", "ios": "https://dc.lft.to/lastmile_qr_scan"}, "lon": -77.02234716666666, "name": "635ee90153149940a63c86c6b797dee3", "is_disabled": 0, "is_reserved": 0, "bike_id": "635ee90153149940a63c86c6b797dee3", "lat": 38.92218866666666, "type": "electric_scooter"}, {"fusion_lat": 0.0, "fusion_lon": 0.0, "rental_uris": {"android": "https://dc.lft.to/lastmile_qr_scan", "ios": "https://dc.lft.to/lastmile_qr_scan"}, "lon": -77.04336866666667, "name": "7531cee32155b822d6615331b197b480", "is_disabled": 0, "is_reserved": 0, "bike_id": "7531cee32155b822d6615331b197b480", "lat": 38.90832666666667, "type": "electric_scooter"}, {"fusion_lat": 0.0, "fusion_lon": 0.0, "rental_uris": {"android": "https://dc.lft.to/lastmile_qr_scan", "ios": "https://dc.lft.to/lastmile_qr_scan"}, "lon": -77.04223333333333, "name": "a333ade6eb43d1f8ce9ee6ec4f972739", "is_disabled": 0, "is_reserved": 0, "bike_id": "a333ade6eb43d1f8ce9ee6ec4f972739", "lat": 38.920545, "type": "electric_scooter"}, {"fusion_lat": 0.0, "fusion_lon": 0.0, "rental_uris": {"android": "https://dc.lft.to/lastmile_qr_scan", "ios": "https://dc.lft.to/lastmile_qr_scan"}, "lon": -77.0141655, "name": "db9027ddf1401d39cad19a1f1dcc2714", "is_disabled": 0, "is_reserved": 0, "bike_id": "db9027ddf1401d39cad19a1f1dcc2714", "lat": 38.8922235, "type": "electric_scooter"}, {"fusion_lat": 0.0, "fusion_lon": 0.0, "rental_uris": {"android": "https://dc.lft.to/lastmile_qr_scan", "ios": "https://dc.lft.to/lastmile_qr_scan"}, "lon": -77.072334, "name": "df61185e2b4fb97445f0fafab59a64c7", "is_disabled": 0, "is_reserved": 0, "bike_id": "df61185e2b4fb97445f0fafab59a64c7", "lat": 38.93188383333333, "type": "electric_scooter"}, {"fusion_lat": 0.0, "fusion_lon": 0.0, "rental_uris": {"android": "https://dc.lft.to/lastmile_qr_scan", "ios": "https://dc.lft.to/lastmile_qr_scan"}, "lon": -77.00216233333333, "name": "e1e8658694a5724607fddd512f00c226", "is_disabled": 0, "is_reserved": 0, "bike_id": "e1e8658694a5724607fddd512f00c226", "lat": 38.91102983333333, "type": "electric_scooter"}, {"fusion_lat": 0.0, "fusion_lon": 0.0, "rental_uris": {"android": "https://dc.lft.to/lastmile_qr_scan", "ios": "https://dc.lft.to/lastmile_qr_scan"}, "lon": -77.0486135, "name": "66f7a96dc5d242dea448732e869b0835", "is_disabled": 0, "is_reserved": 0, "bike_id": "66f7a96dc5d242dea448732e869b0835", "lat": 38.913251333333335, "type": "electric_scooter"}, {"fusion_lat": 0.0, "fusion_lon": 0.0, "rental_uris": {"android": "https://dc.lft.to/lastmile_qr_scan", "ios": "https://dc.lft.to/lastmile_qr_scan"}, "lon": -77.04437316666667, "name": "f587251a3a5f16a0401f897ea7adafc0", "is_disabled": 0, "is_reserved": 0, "bike_id": "f587251a3a5f16a0401f897ea7adafc0", "lat": 38.896129, "type": "electric_scooter"}, {"fusion_lat": 0.0, "fusion_lon": 0.0, "rental_uris": {"android": "https://dc.lft.to/lastmile_qr_scan", "ios": "https://dc.lft.to/lastmile_qr_scan"}, "lon": -77.0330135, "name": "a53d0b4247183b1d435abece9b59bd2f", "is_disabled": 0, "is_reserved": 0, "bike_id": "a53d0b4247183b1d435abece9b59bd2f", "lat": 38.92447116666666, "type": "electric_scooter"}, {"fusion_lat": 0.0, "fusion_lon": 0.0, "rental_uris": {"android": "https://dc.lft.to/lastmile_qr_scan", "ios": "https://dc.lft.to/lastmile_qr_scan"}, "lon": -77.0380055, "name": "c73011f5dfd440d52c24d89e992ef8de", "is_disabled": 0, "is_reserved": 0, "bike_id": "c73011f5dfd440d52c24d89e992ef8de", "lat": 38.9966295, "type": "electric_bike"}, {"fusion_lat": 0.0, "fusion_lon": 0.0, "rental_uris": {"android": "https://dc.lft.to/lastmile_qr_scan", "ios": "https://dc.lft.to/lastmile_qr_scan"}, "lon": -77.0415665, "name": "4c3826ac00912f9716f1cf658b7db77b", "is_disabled": 0, "is_reserved": 0, "bike_id": "4c3826ac00912f9716f1cf658b7db77b", "lat": 38.901186833333334, "type": "electric_scooter"}, {"fusion_lat": 0.0, "fusion_lon": 0.0, "rental_uris": {"android": "https://dc.lft.to/lastmile_qr_scan", "ios": "https://dc.lft.to/lastmile_qr_scan"}, "lon": -77.0270395, "name": "a8bc6e466fd4822962548ced91d1ed7e", "is_disabled": 0, "is_reserved": 0, "bike_id": "a8bc6e466fd4822962548ced91d1ed7e", "lat": 38.9067025, "type": "electric_scooter"}, {"fusion_lat": 0.0, "fusion_lon": 0.0, "rental_uris": {"android": "https://dc.lft.to/lastmile_qr_scan", "ios": "https://dc.lft.to/lastmile_qr_scan"}, "lon": -77.05020583333334, "name": "52146a1808449bf4b0e068830ede5e54", "is_disabled": 0, "is_reserved": 0, "bike_id": "52146a1808449bf4b0e068830ede5e54", "lat": 38.8964975, "type": "electric_scooter"}, {"fusion_lat": 0.0, "fusion_lon": 0.0, "rental_uris": {"android": "https://dc.lft.to/lastmile_qr_scan", "ios": "https://dc.lft.to/lastmile_qr_scan"}, "lon": -77.03356683333334, "name": "98827a21d7bb6d44e5b536c243ee5b53", "is_disabled": 0, "is_reserved": 0, "bike_id": "98827a21d7bb6d44e5b536c243ee5b53", "lat": 38.9170345, "type": "electric_scooter"}, {"fusion_lat": 0.0, "fusion_lon": 0.0, "rental_uris": {"android": "https://dc.lft.to/lastmile_qr_scan", "ios": "https://dc.lft.to/lastmile_qr_scan"}, "lon": -77.031945, "name": "48504d9c6b569aa895a26b3e4ae4855b", "is_disabled": 0, "is_reserved": 0, "bike_id": "48504d9c6b569aa895a26b3e4ae4855b", "lat": 38.902210333333336, "type": "electric_scooter"}, {"fusion_lat": 0.0, "fusion_lon": 0.0, "rental_uris": {"android": "https://dc.lft.to/lastmile_qr_scan", "ios": "https://dc.lft.to/lastmile_qr_scan"}, "lon": -77.02698383333333, "name": "601798586d120dcb8f51fc444b54fad1", "is_disabled": 0, "is_reserved": 0, "bike_id": "601798586d120dcb8f51fc444b54fad1", "lat": 38.92581416666667, "type": "electric_scooter"}, {"fusion_lat": 0.0, "fusion_lon": 0.0, "rental_uris": {"android": "https://dc.lft.to/lastmile_qr_scan", "ios": "https://dc.lft.to/lastmile_qr_scan"}, "lon": -76.95412016666667, "name": "9337c3ed5c99dc6e2e5f0c76851b0f12", "is_disabled": 0, "is_reserved": 0, "bike_id": "9337c3ed5c99dc6e2e5f0c76851b0f12", "lat": 38.88997633333334, "type": "electric_scooter"}, {"fusion_lat": 0.0, "fusion_lon": 0.0, "rental_uris": {"android": "https://dc.lft.to/lastmile_qr_scan", "ios": "https://dc.lft.to/lastmile_qr_scan"}, "lon": -77.02350583333333, "name": "c6001972018f1bf2850ea44adc8487e9", "is_disabled": 0, "is_reserved": 0, "bike_id": "c6001972018f1bf2850ea44adc8487e9", "lat": 38.9304325, "type": "electric_scooter"}, {"fusion_lat": 0.0, "fusion_lon": 0.0, "rental_uris": {"android": "https://dc.lft.to/lastmile_qr_scan", "ios": "https://dc.lft.to/lastmile_qr_scan"}, "lon": -77.04472333333334, "name": "a14e3ccdadd310f8de514bfcf412fb59", "is_disabled": 0, "is_reserved": 0, "bike_id": "a14e3ccdadd310f8de514bfcf412fb59", "lat": 38.90877966666667, "type": "electric_scooter"}, {"fusion_lat": 0.0, "fusion_lon": 0.0, "rental_uris": {"android": "https://dc.lft.to/lastmile_qr_scan", "ios": "https://dc.lft.to/lastmile_qr_scan"}, "lon": -77.0228385, "name": "de7ed7320b75869c0ec083308821a5f2", "is_disabled": 0, "is_reserved": 0, "bike_id": "de7ed7320b75869c0ec083308821a5f2", "lat": 38.925188166666665, "type": "electric_scooter"}, {"fusion_lat": 0.0, "fusion_lon": 0.0, "rental_uris": {"android": "https://dc.lft.to/lastmile_qr_scan", "ios": "https://dc.lft.to/lastmile_qr_scan"}, "lon": -77.04829533333333, "name": "222dbc891f7106499240bae124f8e574", "is_disabled": 0, "is_reserved": 0, "bike_id": "222dbc891f7106499240bae124f8e574", "lat": 38.91840466666667, "type": "electric_scooter"}, {"fusion_lat": 0.0, "fusion_lon": 0.0, "rental_uris": {"android": "https://dc.lft.to/lastmile_qr_scan", "ios": "https://dc.lft.to/lastmile_qr_scan"}, "lon": -77.01390933333333, "name": "347c0f67ad862a35eb3840ad2ff097d5", "is_disabled": 0, "is_reserved": 0, "bike_id": "347c0f67ad862a35eb3840ad2ff097d5", "lat": 38.942232833333335, "type": "electric_scooter"}, {"fusion_lat": 0.0, "fusion_lon": 0.0, "rental_uris": {"android": "https://dc.lft.to/lastmile_qr_scan", "ios": "https://dc.lft.to/lastmile_qr_scan"}, "lon": -77.04215483333333, "name": "a80a1b76a6212e2e5350585d3c53d010", "is_disabled": 0, "is_reserved": 0, "bike_id": "a80a1b76a6212e2e5350585d3c53d010", "lat": 38.923085666666665, "type": "electric_scooter"}, {"fusion_lat": 0.0, "fusion_lon": 0.0, "rental_uris": {"android": "https://dc.lft.to/lastmile_qr_scan", "ios": "https://dc.lft.to/lastmile_qr_scan"}, "lon": -77.04673966666667, "name": "d4dfc9c32324da2bb79b62c337d558e5", "is_disabled": 0, "is_reserved": 0, "bike_id": "d4dfc9c32324da2bb79b62c337d558e5", "lat": 38.89563016666666, "type": "electric_scooter"}, {"fusion_lat": 0.0, "fusion_lon": 0.0, "rental_uris": {"android": "https://dc.lft.to/lastmile_qr_scan", "ios": "https://dc.lft.to/lastmile_qr_scan"}, "lon": -76.96371733333334, "name": "ad552083f2bf28df6114520d592ec4f6", "is_disabled": 0, "is_reserved": 0, "bike_id": "ad552083f2bf28df6114520d592ec4f6", "lat": 38.948896166666664, "type": "electric_bike"}, {"fusion_lat": 0.0, "fusion_lon": 0.0, "rental_uris": {"android": "https://dc.lft.to/lastmile_qr_scan", "ios": "https://dc.lft.to/lastmile_qr_scan"}, "lon": -77.03193766666666, "name": "d5761f7e30736282434ac81798534ad6", "is_disabled": 0, "is_reserved": 0, "bike_id": "d5761f7e30736282434ac81798534ad6", "lat": 38.913243, "type": "electric_scooter"}, {"fusion_lat": 0.0, "fusion_lon": 0.0, "rental_uris": {"android": "https://dc.lft.to/lastmile_qr_scan", "ios": "https://dc.lft.to/lastmile_qr_scan"}, "lon": -77.00276616666666, "name": "5c9e18efd538cbf2c0376cbebe4f6304", "is_disabled": 0, "is_reserved": 0, "bike_id": "5c9e18efd538cbf2c0376cbebe4f6304", "lat": 38.911683833333335, "type": "electric_bike"}, {"fusion_lat": 0.0, "fusion_lon": 0.0, "rental_uris": {"android": "https://dc.lft.to/lastmile_qr_scan", "ios": "https://dc.lft.to/lastmile_qr_scan"}, "lon": -77.035964, "name": "8d472183600afe8c0b81f8c4b3277bc8", "is_disabled": 0, "is_reserved": 0, "bike_id": "8d472183600afe8c0b81f8c4b3277bc8", "lat": 38.9286225, "type": "electric_scooter"}, {"fusion_lat": 0.0, "fusion_lon": 0.0, "rental_uris": {"android": "https://dc.lft.to/lastmile_qr_scan", "ios": "https://dc.lft.to/lastmile_qr_scan"}, "lon": -77.02759533333334, "name": "ad6cf3cbbe6deab45dd4b7302ac7a4f8", "is_disabled": 0, "is_reserved": 0, "bike_id": "ad6cf3cbbe6deab45dd4b7302ac7a4f8", "lat": 38.89595966666667, "type": "electric_scooter"}, {"fusion_lat": 0.0, "fusion_lon": 0.0, "rental_uris": {"android": "https://dc.lft.to/lastmile_qr_scan", "ios": "https://dc.lft.to/lastmile_qr_scan"}, "lon": -77.0419075, "name": "b3786ad7b0691d0276a95e599b8603dc", "is_disabled": 0, "is_reserved": 0, "bike_id": "b3786ad7b0691d0276a95e599b8603dc", "lat": 38.90374383333333, "type": "electric_scooter"}, {"fusion_lat": 0.0, "fusion_lon": 0.0, "rental_uris": {"android": "https://dc.lft.to/lastmile_qr_scan", "ios": "https://dc.lft.to/lastmile_qr_scan"}, "lon": -77.0364835, "name": "e29cd592823e902aabed8cea37382c69", "is_disabled": 0, "is_reserved": 0, "bike_id": "e29cd592823e902aabed8cea37382c69", "lat": 38.928135833333336, "type": "electric_scooter"}, {"fusion_lat": 0.0, "fusion_lon": 0.0, "rental_uris": {"android": "https://dc.lft.to/lastmile_qr_scan", "ios": "https://dc.lft.to/lastmile_qr_scan"}, "lon": -76.96818933333333, "name": "be15cecee12f7d5378859ca95ae106e5", "is_disabled": 0, "is_reserved": 0, "bike_id": "be15cecee12f7d5378859ca95ae106e5", "lat": 38.95524133333333, "type": "electric_bike"}, {"fusion_lat": 0.0, "fusion_lon": 0.0, "rental_uris": {"android": "https://dc.lft.to/lastmile_qr_scan", "ios": "https://dc.lft.to/lastmile_qr_scan"}, "lon": -76.939241, "name": "5f67cf3719a9107f1259acc846b273d8", "is_disabled": 0, "is_reserved": 0, "bike_id": "5f67cf3719a9107f1259acc846b273d8", "lat": 38.8932675, "type": "electric_scooter"}, {"fusion_lat": 0.0, "fusion_lon": 0.0, "rental_uris": {"android": "https://dc.lft.to/lastmile_qr_scan", "ios": "https://dc.lft.to/lastmile_qr_scan"}, "lon": -77.0453125, "name": "254e0347420943f5d6e34ad9bbab982c", "is_disabled": 0, "is_reserved": 0, "bike_id": "254e0347420943f5d6e34ad9bbab982c", "lat": 38.934567333333334, "type": "electric_scooter"}, {"fusion_lat": 0.0, "fusion_lon": 0.0, "rental_uris": {"android": "https://dc.lft.to/lastmile_qr_scan", "ios": "https://dc.lft.to/lastmile_qr_scan"}, "lon": -77.01437583333333, "name": "917ff518258e6513b082834271617f21", "is_disabled": 0, "is_reserved": 0, "bike_id": "917ff518258e6513b082834271617f21", "lat": 38.913069, "type": "electric_scooter"}, {"fusion_lat": 0.0, "fusion_lon": 0.0, "rental_uris": {"android": "https://dc.lft.to/lastmile_qr_scan", "ios": "https://dc.lft.to/lastmile_qr_scan"}, "lon": -76.97224483333333, "name": "df01574ebed769e71fc489d01fda8a38", "is_disabled": 0, "is_reserved": 0, "bike_id": "df01574ebed769e71fc489d01fda8a38", "lat": 38.900297, "type": "electric_bike"}, {"fusion_lat": 0.0, "fusion_lon": 0.0, "rental_uris": {"android": "https://dc.lft.to/lastmile_qr_scan", "ios": "https://dc.lft.to/lastmile_qr_scan"}, "lon": -77.0564455, "name": "f486c1a4e1faca23bb8f4d5a82bc6cb3", "is_disabled": 0, "is_reserved": 0, "bike_id": "f486c1a4e1faca23bb8f4d5a82bc6cb3", "lat": 38.92341066666667, "type": "electric_scooter"}, {"fusion_lat": 0.0, "fusion_lon": 0.0, "rental_uris": {"android": "https://dc.lft.to/lastmile_qr_scan", "ios": "https://dc.lft.to/lastmile_qr_scan"}, "lon": -77.044325, "name": "cd1d0891632eb8821b0978b48357f60e", "is_disabled": 0, "is_reserved": 0, "bike_id": "cd1d0891632eb8821b0978b48357f60e", "lat": 38.91076183333333, "type": "electric_scooter"}, {"fusion_lat": 0.0, "fusion_lon": 0.0, "rental_uris": {"android": "https://dc.lft.to/lastmile_qr_scan", "ios": "https://dc.lft.to/lastmile_qr_scan"}, "lon": -77.0249945, "name": "011c86c24368d40ac6de3a03e8f5c2fd", "is_disabled": 0, "is_reserved": 0, "bike_id": "011c86c24368d40ac6de3a03e8f5c2fd", "lat": 38.907225333333336, "type": "electric_scooter"}, {"fusion_lat": 0.0, "fusion_lon": 0.0, "rental_uris": {"android": "https://dc.lft.to/lastmile_qr_scan", "ios": "https://dc.lft.to/lastmile_qr_scan"}, "lon": -76.985458, "name": "2d750873e82cc3a0cf115ce5a8cfbb51", "is_disabled": 0, "is_reserved": 0, "bike_id": "2d750873e82cc3a0cf115ce5a8cfbb51", "lat": 38.8799525, "type": "electric_scooter"}, {"fusion_lat": 0.0, "fusion_lon": 0.0, "rental_uris": {"android": "https://dc.lft.to/lastmile_qr_scan", "ios": "https://dc.lft.to/lastmile_qr_scan"}, "lon": -77.0382545, "name": "167cd246b3f4f7a8f38ae7460ef38385", "is_disabled": 0, "is_reserved": 0, "bike_id": "167cd246b3f4f7a8f38ae7460ef38385", "lat": 38.912664166666666, "type": "electric_scooter"}, {"fusion_lat": 0.0, "fusion_lon": 0.0, "rental_uris": {"android": "https://dc.lft.to/lastmile_qr_scan", "ios": "https://dc.lft.to/lastmile_qr_scan"}, "lon": -77.01859366666666, "name": "97eb036c07f3b5839ad6e0966b6dfa1a", "is_disabled": 0, "is_reserved": 0, "bike_id": "97eb036c07f3b5839ad6e0966b6dfa1a", "lat": 38.914951, "type": "electric_scooter"}, {"fusion_lat": 0.0, "fusion_lon": 0.0, "rental_uris": {"android": "https://dc.lft.to/lastmile_qr_scan", "ios": "https://dc.lft.to/lastmile_qr_scan"}, "lon": -77.055071, "name": "10ce93330c863c7bd817822640aacd95", "is_disabled": 0, "is_reserved": 0, "bike_id": "10ce93330c863c7bd817822640aacd95", "lat": 38.9294385, "type": "electric_scooter"}, {"fusion_lat": 0.0, "fusion_lon": 0.0, "rental_uris": {"android": "https://dc.lft.to/lastmile_qr_scan", "ios": "https://dc.lft.to/lastmile_qr_scan"}, "lon": -77.002269, "name": "dd7e5dc0fe1bb928ee162a0243839693", "is_disabled": 0, "is_reserved": 0, "bike_id": "dd7e5dc0fe1bb928ee162a0243839693", "lat": 38.87486716666667, "type": "electric_scooter"}, {"fusion_lat": 0.0, "fusion_lon": 0.0, "rental_uris": {"android": "https://dc.lft.to/lastmile_qr_scan", "ios": "https://dc.lft.to/lastmile_qr_scan"}, "lon": -77.03945516666667, "name": "66684e54ef0a791a6bbc34a343330b10", "is_disabled": 0, "is_reserved": 0, "bike_id": "66684e54ef0a791a6bbc34a343330b10", "lat": 38.902924166666665, "type": "electric_scooter"}, {"fusion_lat": 0.0, "fusion_lon": 0.0, "rental_uris": {"android": "https://dc.lft.to/lastmile_qr_scan", "ios": "https://dc.lft.to/lastmile_qr_scan"}, "lon": -77.02395016666667, "name": "24d077ab396017ef3ccca6617e7573ae", "is_disabled": 0, "is_reserved": 0, "bike_id": "24d077ab396017ef3ccca6617e7573ae", "lat": 38.905703833333334, "type": "electric_scooter"}, {"fusion_lat": 0.0, "fusion_lon": 0.0, "rental_uris": {"android": "https://dc.lft.to/lastmile_qr_scan", "ios": "https://dc.lft.to/lastmile_qr_scan"}, "lon": -77.00577416666667, "name": "7c5445cd68af82f411e2b20d13fd7675", "is_disabled": 0, "is_reserved": 0, "bike_id": "7c5445cd68af82f411e2b20d13fd7675", "lat": 38.87553616666667, "type": "electric_scooter"}, {"fusion_lat": 0.0, "fusion_lon": 0.0, "rental_uris": {"android": "https://dc.lft.to/lastmile_qr_scan", "ios": "https://dc.lft.to/lastmile_qr_scan"}, "lon": -77.03633866666667, "name": "e1179ce7c0dab4ae552f908047be9de7", "is_disabled": 0, "is_reserved": 0, "bike_id": "e1179ce7c0dab4ae552f908047be9de7", "lat": 38.9273515, "type": "electric_scooter"}, {"fusion_lat": 0.0, "fusion_lon": 0.0, "rental_uris": {"android": "https://dc.lft.to/lastmile_qr_scan", "ios": "https://dc.lft.to/lastmile_qr_scan"}, "lon": -77.03397866666667, "name": "eb843ad808b2decbaac69864f429ad62", "is_disabled": 0, "is_reserved": 0, "bike_id": "eb843ad808b2decbaac69864f429ad62", "lat": 38.922061, "type": "electric_scooter"}, {"fusion_lat": 0.0, "fusion_lon": 0.0, "rental_uris": {"android": "https://dc.lft.to/lastmile_qr_scan", "ios": "https://dc.lft.to/lastmile_qr_scan"}, "lon": -77.020945, "name": "ee16043f35c9c161234415051547a729", "is_disabled": 0, "is_reserved": 0, "bike_id": "ee16043f35c9c161234415051547a729", "lat": 38.92106616666667, "type": "electric_scooter"}, {"fusion_lat": 0.0, "fusion_lon": 0.0, "rental_uris": {"android": "https://dc.lft.to/lastmile_qr_scan", "ios": "https://dc.lft.to/lastmile_qr_scan"}, "lon": -77.04254933333333, "name": "fdf80fdebfb61eb40d8c237bcc51a73f", "is_disabled": 0, "is_reserved": 0, "bike_id": "fdf80fdebfb61eb40d8c237bcc51a73f", "lat": 38.922439833333335, "type": "electric_scooter"}, {"fusion_lat": 0.0, "fusion_lon": 0.0, "rental_uris": {"android": "https://dc.lft.to/lastmile_qr_scan", "ios": "https://dc.lft.to/lastmile_qr_scan"}, "lon": -77.043675, "name": "bce03a31fce6ff461bb144c7d5dc7860", "is_disabled": 0, "is_reserved": 0, "bike_id": "bce03a31fce6ff461bb144c7d5dc7860", "lat": 38.908302666666664, "type": "electric_scooter"}, {"fusion_lat": 0.0, "fusion_lon": 0.0, "rental_uris": {"android": "https://dc.lft.to/lastmile_qr_scan", "ios": "https://dc.lft.to/lastmile_qr_scan"}, "lon": -77.0247975, "name": "be0c9f10cf7c59b13fb1e89bd5d3a8c6", "is_disabled": 0, "is_reserved": 0, "bike_id": "be0c9f10cf7c59b13fb1e89bd5d3a8c6", "lat": 38.91694, "type": "electric_scooter"}, {"fusion_lat": 0.0, "fusion_lon": 0.0, "rental_uris": {"android": "https://dc.lft.to/lastmile_qr_scan", "ios": "https://dc.lft.to/lastmile_qr_scan"}, "lon": -77.04577583333334, "name": "c91e56c863428c97baebb884cbcc4417", "is_disabled": 0, "is_reserved": 0, "bike_id": "c91e56c863428c97baebb884cbcc4417", "lat": 38.92125383333333, "type": "electric_scooter"}, {"fusion_lat": 0.0, "fusion_lon": 0.0, "rental_uris": {"android": "https://dc.lft.to/lastmile_qr_scan", "ios": "https://dc.lft.to/lastmile_qr_scan"}, "lon": -77.04335833333333, "name": "40586512fb290a77fe76b1e88a164e20", "is_disabled": 0, "is_reserved": 0, "bike_id": "40586512fb290a77fe76b1e88a164e20", "lat": 38.90565016666667, "type": "electric_scooter"}, {"fusion_lat": 0.0, "fusion_lon": 0.0, "rental_uris": {"android": "https://dc.lft.to/lastmile_qr_scan", "ios": "https://dc.lft.to/lastmile_qr_scan"}, "lon": -77.04948033333334, "name": "63ea082e014a55530f92b25bc1ef2292", "is_disabled": 0, "is_reserved": 0, "bike_id": "63ea082e014a55530f92b25bc1ef2292", "lat": 38.854715666666664, "type": "electric_bike"}, {"fusion_lat": 0.0, "fusion_lon": 0.0, "rental_uris": {"android": "https://dc.lft.to/lastmile_qr_scan", "ios": "https://dc.lft.to/lastmile_qr_scan"}, "lon": -77.02372166666666, "name": "5a3ba5b6e91b0efaca02f15d288adb8b", "is_disabled": 0, "is_reserved": 0, "bike_id": "5a3ba5b6e91b0efaca02f15d288adb8b", "lat": 38.907266666666665, "type": "electric_scooter"}, {"fusion_lat": 0.0, "fusion_lon": 0.0, "rental_uris": {"android": "https://dc.lft.to/lastmile_qr_scan", "ios": "https://dc.lft.to/lastmile_qr_scan"}, "lon": -77.02495316666666, "name": "f886d442a2e1b952e7432db084811c10", "is_disabled": 0, "is_reserved": 0, "bike_id": "f886d442a2e1b952e7432db084811c10", "lat": 38.940867, "type": "electric_scooter"}, {"fusion_lat": 0.0, "fusion_lon": 0.0, "rental_uris": {"android": "https://dc.lft.to/lastmile_qr_scan", "ios": "https://dc.lft.to/lastmile_qr_scan"}, "lon": -77.03211033333334, "name": "0b2e11ff88b1f69ba4e1bc844503891f", "is_disabled": 0, "is_reserved": 0, "bike_id": "0b2e11ff88b1f69ba4e1bc844503891f", "lat": 38.9278615, "type": "electric_scooter"}, {"fusion_lat": 0.0, "fusion_lon": 0.0, "rental_uris": {"android": "https://dc.lft.to/lastmile_qr_scan", "ios": "https://dc.lft.to/lastmile_qr_scan"}, "lon": -77.02361983333333, "name": "dff2ed8b197f4c446247d8c0d58ad279", "is_disabled": 0, "is_reserved": 0, "bike_id": "dff2ed8b197f4c446247d8c0d58ad279", "lat": 38.937358333333336, "type": "electric_scooter"}, {"fusion_lat": 0.0, "fusion_lon": 0.0, "rental_uris": {"android": "https://dc.lft.to/lastmile_qr_scan", "ios": "https://dc.lft.to/lastmile_qr_scan"}, "lon": -77.0389745, "name": "7b11ae0e910804c99e78dffe458d9ce6", "is_disabled": 0, "is_reserved": 0, "bike_id": "7b11ae0e910804c99e78dffe458d9ce6", "lat": 38.9047355, "type": "electric_scooter"}, {"fusion_lat": 0.0, "fusion_lon": 0.0, "rental_uris": {"android": "https://dc.lft.to/lastmile_qr_scan", "ios": "https://dc.lft.to/lastmile_qr_scan"}, "lon": -77.03276916666667, "name": "741109b77857c1bfee42d4cfd89d370a", "is_disabled": 0, "is_reserved": 0, "bike_id": "741109b77857c1bfee42d4cfd89d370a", "lat": 38.9343925, "type": "electric_scooter"}, {"fusion_lat": 0.0, "fusion_lon": 0.0, "rental_uris": {"android": "https://dc.lft.to/lastmile_qr_scan", "ios": "https://dc.lft.to/lastmile_qr_scan"}, "lon": -77.0166505, "name": "576276813b1f9f5063422f15001d152d", "is_disabled": 0, "is_reserved": 0, "bike_id": "576276813b1f9f5063422f15001d152d", "lat": 38.881299, "type": "electric_scooter"}, {"fusion_lat": 0.0, "fusion_lon": 0.0, "rental_uris": {"android": "https://dc.lft.to/lastmile_qr_scan", "ios": "https://dc.lft.to/lastmile_qr_scan"}, "lon": -77.02410916666666, "name": "8f2dd4387a2ec58caad6377c1bab615c", "is_disabled": 0, "is_reserved": 0, "bike_id": "8f2dd4387a2ec58caad6377c1bab615c", "lat": 38.941787, "type": "electric_scooter"}, {"fusion_lat": 0.0, "fusion_lon": 0.0, "rental_uris": {"android": "https://dc.lft.to/lastmile_qr_scan", "ios": "https://dc.lft.to/lastmile_qr_scan"}, "lon": -77.04157983333333, "name": "009cde480896f8a9bbc9ae36cecf0727", "is_disabled": 0, "is_reserved": 0, "bike_id": "009cde480896f8a9bbc9ae36cecf0727", "lat": 38.8953975, "type": "electric_scooter"}, {"fusion_lat": 0.0, "fusion_lon": 0.0, "rental_uris": {"android": "https://dc.lft.to/lastmile_qr_scan", "ios": "https://dc.lft.to/lastmile_qr_scan"}, "lon": -77.027191, "name": "be7cdb8d0368dfb3d6391dd3a44b58cd", "is_disabled": 0, "is_reserved": 0, "bike_id": "be7cdb8d0368dfb3d6391dd3a44b58cd", "lat": 38.89803366666666, "type": "electric_scooter"}, {"fusion_lat": 0.0, "fusion_lon": 0.0, "rental_uris": {"android": "https://dc.lft.to/lastmile_qr_scan", "ios": "https://dc.lft.to/lastmile_qr_scan"}, "lon": -77.05176733333333, "name": "55db1b93a89ec5f7c8b32b57e7294a73", "is_disabled": 0, "is_reserved": 0, "bike_id": "55db1b93a89ec5f7c8b32b57e7294a73", "lat": 38.924210333333335, "type": "electric_scooter"}, {"fusion_lat": 0.0, "fusion_lon": 0.0, "rental_uris": {"android": "https://dc.lft.to/lastmile_qr_scan", "ios": "https://dc.lft.to/lastmile_qr_scan"}, "lon": -77.02156033333333, "name": "b1c971838929bd2de5e221aaa6af4efa", "is_disabled": 0, "is_reserved": 0, "bike_id": "b1c971838929bd2de5e221aaa6af4efa", "lat": 38.897138, "type": "electric_scooter"}, {"fusion_lat": 0.0, "fusion_lon": 0.0, "rental_uris": {"android": "https://dc.lft.to/lastmile_qr_scan", "ios": "https://dc.lft.to/lastmile_qr_scan"}, "lon": -77.03919316666666, "name": "ad33f0ca953262783bc3175f991084fe", "is_disabled": 0, "is_reserved": 0, "bike_id": "ad33f0ca953262783bc3175f991084fe", "lat": 38.89851133333333, "type": "electric_scooter"}, {"fusion_lat": 0.0, "fusion_lon": 0.0, "rental_uris": {"android": "https://dc.lft.to/lastmile_qr_scan", "ios": "https://dc.lft.to/lastmile_qr_scan"}, "lon": -77.0321195, "name": "452b47c8ba1b1b71dee146ff809b86a0", "is_disabled": 0, "is_reserved": 0, "bike_id": "452b47c8ba1b1b71dee146ff809b86a0", "lat": 38.89888783333333, "type": "electric_scooter"}, {"fusion_lat": 0.0, "fusion_lon": 0.0, "rental_uris": {"android": "https://dc.lft.to/lastmile_qr_scan", "ios": "https://dc.lft.to/lastmile_qr_scan"}, "lon": -77.02205666666667, "name": "060ed20389f0c05a977e010de3413fe2", "is_disabled": 0, "is_reserved": 0, "bike_id": "060ed20389f0c05a977e010de3413fe2", "lat": 38.8958335, "type": "electric_scooter"}, {"fusion_lat": 0.0, "fusion_lon": 0.0, "rental_uris": {"android": "https://dc.lft.to/lastmile_qr_scan", "ios": "https://dc.lft.to/lastmile_qr_scan"}, "lon": -77.07279683333333, "name": "b4a401eb47c4463b597f93d07d60c171", "is_disabled": 0, "is_reserved": 0, "bike_id": "b4a401eb47c4463b597f93d07d60c171", "lat": 38.909019, "type": "electric_scooter"}, {"fusion_lat": 0.0, "fusion_lon": 0.0, "rental_uris": {"android": "https://dc.lft.to/lastmile_qr_scan", "ios": "https://dc.lft.to/lastmile_qr_scan"}, "lon": -77.03194583333334, "name": "bfa6541a90646cd66264728da18f497a", "is_disabled": 0, "is_reserved": 0, "bike_id": "bfa6541a90646cd66264728da18f497a", "lat": 38.91322666666667, "type": "electric_scooter"}, {"fusion_lat": 0.0, "fusion_lon": 0.0, "rental_uris": {"android": "https://dc.lft.to/lastmile_qr_scan", "ios": "https://dc.lft.to/lastmile_qr_scan"}, "lon": -77.02644933333333, "name": "4172595bec4d67f5119b5aa8d44dcef8", "is_disabled": 0, "is_reserved": 0, "bike_id": "4172595bec4d67f5119b5aa8d44dcef8", "lat": 38.99427716666667, "type": "electric_bike"}, {"fusion_lat": 0.0, "fusion_lon": 0.0, "rental_uris": {"android": "https://dc.lft.to/lastmile_qr_scan", "ios": "https://dc.lft.to/lastmile_qr_scan"}, "lon": -77.0419365, "name": "d1787b70522387b46caa5ee06e0d96d1", "is_disabled": 0, "is_reserved": 0, "bike_id": "d1787b70522387b46caa5ee06e0d96d1", "lat": 38.920969166666666, "type": "electric_scooter"}, {"fusion_lat": 0.0, "fusion_lon": 0.0, "rental_uris": {"android": "https://dc.lft.to/lastmile_qr_scan", "ios": "https://dc.lft.to/lastmile_qr_scan"}, "lon": -77.02490533333334, "name": "a96949b1a7685b3f1f5a459590fb3dc4", "is_disabled": 0, "is_reserved": 0, "bike_id": "a96949b1a7685b3f1f5a459590fb3dc4", "lat": 38.949427666666665, "type": "electric_scooter"}, {"fusion_lat": 0.0, "fusion_lon": 0.0, "rental_uris": {"android": "https://dc.lft.to/lastmile_qr_scan", "ios": "https://dc.lft.to/lastmile_qr_scan"}, "lon": -77.03236516666666, "name": "59beafdb2fda87b3090e659237da14f9", "is_disabled": 0, "is_reserved": 0, "bike_id": "59beafdb2fda87b3090e659237da14f9", "lat": 38.9274145, "type": "electric_scooter"}, {"fusion_lat": 0.0, "fusion_lon": 0.0, "rental_uris": {"android": "https://dc.lft.to/lastmile_qr_scan", "ios": "https://dc.lft.to/lastmile_qr_scan"}, "lon": -76.92048816666667, "name": "5c744a45251ef05d8201b054b97ae0ba", "is_disabled": 0, "is_reserved": 0, "bike_id": "5c744a45251ef05d8201b054b97ae0ba", "lat": 38.89733966666667, "type": "electric_bike"}, {"fusion_lat": 0.0, "fusion_lon": 0.0, "rental_uris": {"android": "https://dc.lft.to/lastmile_qr_scan", "ios": "https://dc.lft.to/lastmile_qr_scan"}, "lon": -77.03186333333333, "name": "e1dd4b8d70832f0aec0c1cc5398a70c7", "is_disabled": 0, "is_reserved": 0, "bike_id": "e1dd4b8d70832f0aec0c1cc5398a70c7", "lat": 38.90080183333333, "type": "electric_scooter"}, {"fusion_lat": 0.0, "fusion_lon": 0.0, "rental_uris": {"android": "https://dc.lft.to/lastmile_qr_scan", "ios": "https://dc.lft.to/lastmile_qr_scan"}, "lon": -76.93186333333334, "name": "aea05f6b6beb8dcef2978a0d5c391efe", "is_disabled": 0, "is_reserved": 0, "bike_id": "aea05f6b6beb8dcef2978a0d5c391efe", "lat": 38.89873683333333, "type": "electric_scooter"}, {"fusion_lat": 0.0, "fusion_lon": 0.0, "rental_uris": {"android": "https://dc.lft.to/lastmile_qr_scan", "ios": "https://dc.lft.to/lastmile_qr_scan"}, "lon": -77.027714, "name": "a8a557d41996814138aeb6053aa51a19", "is_disabled": 0, "is_reserved": 0, "bike_id": "a8a557d41996814138aeb6053aa51a19", "lat": 38.89609766666667, "type": "electric_scooter"}, {"fusion_lat": 0.0, "fusion_lon": 0.0, "rental_uris": {"android": "https://dc.lft.to/lastmile_qr_scan", "ios": "https://dc.lft.to/lastmile_qr_scan"}, "lon": -77.03279266666667, "name": "68bb8f0bd22d550ce349f9562b53c32a", "is_disabled": 0, "is_reserved": 0, "bike_id": "68bb8f0bd22d550ce349f9562b53c32a", "lat": 38.919807, "type": "electric_scooter"}, {"fusion_lat": 0.0, "fusion_lon": 0.0, "rental_uris": {"android": "https://dc.lft.to/lastmile_qr_scan", "ios": "https://dc.lft.to/lastmile_qr_scan"}, "lon": -77.00937183333333, "name": "b41ce12b5d8b95d0149c1202b9e6be3a", "is_disabled": 0, "is_reserved": 0, "bike_id": "b41ce12b5d8b95d0149c1202b9e6be3a", "lat": 38.899798, "type": "electric_scooter"}, {"fusion_lat": 0.0, "fusion_lon": 0.0, "rental_uris": {"android": "https://dc.lft.to/lastmile_qr_scan", "ios": "https://dc.lft.to/lastmile_qr_scan"}, "lon": -77.02292916666667, "name": "9365d57e411a3dcbc4d4513b67f0f47c", "is_disabled": 0, "is_reserved": 0, "bike_id": "9365d57e411a3dcbc4d4513b67f0f47c", "lat": 38.908565333333335, "type": "electric_scooter"}, {"fusion_lat": 0.0, "fusion_lon": 0.0, "rental_uris": {"android": "https://dc.lft.to/lastmile_qr_scan", "ios": "https://dc.lft.to/lastmile_qr_scan"}, "lon": -77.03512416666666, "name": "84b7545fb7154d5d3e895568574957f3", "is_disabled": 0, "is_reserved": 0, "bike_id": "84b7545fb7154d5d3e895568574957f3", "lat": 38.921953333333335, "type": "electric_scooter"}, {"fusion_lat": 0.0, "fusion_lon": 0.0, "rental_uris": {"android": "https://dc.lft.to/lastmile_qr_scan", "ios": "https://dc.lft.to/lastmile_qr_scan"}, "lon": -77.03479316666666, "name": "cccf47dd82a3bb4af3f01f0bfa7b2178", "is_disabled": 0, "is_reserved": 0, "bike_id": "cccf47dd82a3bb4af3f01f0bfa7b2178", "lat": 38.903099833333336, "type": "electric_scooter"}, {"fusion_lat": 0.0, "fusion_lon": 0.0, "rental_uris": {"android": "https://dc.lft.to/lastmile_qr_scan", "ios": "https://dc.lft.to/lastmile_qr_scan"}, "lon": -77.00564416666667, "name": "5164e07381cf872dd299a95d28e13ae9", "is_disabled": 0, "is_reserved": 0, "bike_id": "5164e07381cf872dd299a95d28e13ae9", "lat": 38.874698333333335, "type": "electric_scooter"}, {"fusion_lat": 0.0, "fusion_lon": 0.0, "rental_uris": {"android": "https://dc.lft.to/lastmile_qr_scan", "ios": "https://dc.lft.to/lastmile_qr_scan"}, "lon": -77.02204666666667, "name": "4c56605d68e0fbbf34c223fcde5dbb52", "is_disabled": 0, "is_reserved": 0, "bike_id": "4c56605d68e0fbbf34c223fcde5dbb52", "lat": 38.91871583333333, "type": "electric_scooter"}, {"fusion_lat": 0.0, "fusion_lon": 0.0, "rental_uris": {"android": "https://dc.lft.to/lastmile_qr_scan", "ios": "https://dc.lft.to/lastmile_qr_scan"}, "lon": -77.02611583333334, "name": "0d4b258e27c76355ea976aa02853069f", "is_disabled": 0, "is_reserved": 0, "bike_id": "0d4b258e27c76355ea976aa02853069f", "lat": 38.951823, "type": "electric_scooter"}, {"fusion_lat": 0.0, "fusion_lon": 0.0, "rental_uris": {"android": "https://dc.lft.to/lastmile_qr_scan", "ios": "https://dc.lft.to/lastmile_qr_scan"}, "lon": -76.98110066666666, "name": "209fd0bfe75e67c6212952d1b7562fef", "is_disabled": 0, "is_reserved": 0, "bike_id": "209fd0bfe75e67c6212952d1b7562fef", "lat": 38.9147, "type": "electric_scooter"}, {"fusion_lat": 0.0, "fusion_lon": 0.0, "rental_uris": {"android": "https://dc.lft.to/lastmile_qr_scan", "ios": "https://dc.lft.to/lastmile_qr_scan"}, "lon": -76.99569366666667, "name": "8820fba95b2b02a4d39b9eba8b599d3e", "is_disabled": 0, "is_reserved": 0, "bike_id": "8820fba95b2b02a4d39b9eba8b599d3e", "lat": 38.92021116666667, "type": "electric_scooter"}, {"fusion_lat": 0.0, "fusion_lon": 0.0, "rental_uris": {"android": "https://dc.lft.to/lastmile_qr_scan", "ios": "https://dc.lft.to/lastmile_qr_scan"}, "lon": -77.0156555, "name": "56de571b29d8d533c39f90b27449dcc4", "is_disabled": 0, "is_reserved": 0, "bike_id": "56de571b29d8d533c39f90b27449dcc4", "lat": 38.91366383333333, "type": "electric_scooter"}, {"fusion_lat": 0.0, "fusion_lon": 0.0, "rental_uris": {"android": "https://dc.lft.to/lastmile_qr_scan", "ios": "https://dc.lft.to/lastmile_qr_scan"}, "lon": -77.02587166666666, "name": "9ffe8a68a0f00f4ea8df47a12100a0e7", "is_disabled": 0, "is_reserved": 0, "bike_id": "9ffe8a68a0f00f4ea8df47a12100a0e7", "lat": 38.89233183333333, "type": "electric_scooter"}, {"fusion_lat": 0.0, "fusion_lon": 0.0, "rental_uris": {"android": "https://dc.lft.to/lastmile_qr_scan", "ios": "https://dc.lft.to/lastmile_qr_scan"}, "lon": -77.02306516666667, "name": "d39639419ec9a58f38a2f3dd4c0ffb90", "is_disabled": 0, "is_reserved": 0, "bike_id": "d39639419ec9a58f38a2f3dd4c0ffb90", "lat": 38.90129966666667, "type": "electric_scooter"}, {"fusion_lat": 0.0, "fusion_lon": 0.0, "rental_uris": {"android": "https://dc.lft.to/lastmile_qr_scan", "ios": "https://dc.lft.to/lastmile_qr_scan"}, "lon": -77.01349333333333, "name": "4ae8f6e8805977b30085c78a8937ec53", "is_disabled": 0, "is_reserved": 0, "bike_id": "4ae8f6e8805977b30085c78a8937ec53", "lat": 38.91911783333333, "type": "electric_scooter"}, {"fusion_lat": 0.0, "fusion_lon": 0.0, "rental_uris": {"android": "https://dc.lft.to/lastmile_qr_scan", "ios": "https://dc.lft.to/lastmile_qr_scan"}, "lon": -77.02650516666667, "name": "85798a1219d7fcc51b8bf0f4f89619b2", "is_disabled": 0, "is_reserved": 0, "bike_id": "85798a1219d7fcc51b8bf0f4f89619b2", "lat": 38.9761195, "type": "electric_bike"}, {"fusion_lat": 0.0, "fusion_lon": 0.0, "rental_uris": {"android": "https://dc.lft.to/lastmile_qr_scan", "ios": "https://dc.lft.to/lastmile_qr_scan"}, "lon": -77.0466455, "name": "eece17e2381b1691ebee40afeb35b645", "is_disabled": 0, "is_reserved": 0, "bike_id": "eece17e2381b1691ebee40afeb35b645", "lat": 38.91412483333333, "type": "electric_scooter"}, {"fusion_lat": 0.0, "fusion_lon": 0.0, "rental_uris": {"android": "https://dc.lft.to/lastmile_qr_scan", "ios": "https://dc.lft.to/lastmile_qr_scan"}, "lon": -77.02015566666667, "name": "e784e149b4835863ebcadc3acf256f98", "is_disabled": 0, "is_reserved": 0, "bike_id": "e784e149b4835863ebcadc3acf256f98", "lat": 38.8979405, "type": "electric_scooter"}, {"fusion_lat": 0.0, "fusion_lon": 0.0, "rental_uris": {"android": "https://dc.lft.to/lastmile_qr_scan", "ios": "https://dc.lft.to/lastmile_qr_scan"}, "lon": -77.0349675, "name": "efaa4ac30c3ef510534b2da46a8b72f3", "is_disabled": 0, "is_reserved": 0, "bike_id": "efaa4ac30c3ef510534b2da46a8b72f3", "lat": 38.931581, "type": "electric_scooter"}, {"fusion_lat": 0.0, "fusion_lon": 0.0, "rental_uris": {"android": "https://dc.lft.to/lastmile_qr_scan", "ios": "https://dc.lft.to/lastmile_qr_scan"}, "lon": -77.02607166666667, "name": "ed446b020b3555d0d23cf4fa8f4cef23", "is_disabled": 0, "is_reserved": 0, "bike_id": "ed446b020b3555d0d23cf4fa8f4cef23", "lat": 38.917188, "type": "electric_scooter"}, {"fusion_lat": 0.0, "fusion_lon": 0.0, "rental_uris": {"android": "https://dc.lft.to/lastmile_qr_scan", "ios": "https://dc.lft.to/lastmile_qr_scan"}, "lon": -76.99346483333333, "name": "12ded8e4678aab417886942e0edeb78c", "is_disabled": 0, "is_reserved": 0, "bike_id": "12ded8e4678aab417886942e0edeb78c", "lat": 38.91029616666667, "type": "electric_scooter"}, {"fusion_lat": 0.0, "fusion_lon": 0.0, "rental_uris": {"android": "https://dc.lft.to/lastmile_qr_scan", "ios": "https://dc.lft.to/lastmile_qr_scan"}, "lon": -77.028132, "name": "78887994b9e6bdbcc7f1376e2e876897", "is_disabled": 0, "is_reserved": 0, "bike_id": "78887994b9e6bdbcc7f1376e2e876897", "lat": 38.89917583333333, "type": "electric_scooter"}, {"fusion_lat": 0.0, "fusion_lon": 0.0, "rental_uris": {"android": "https://dc.lft.to/lastmile_qr_scan", "ios": "https://dc.lft.to/lastmile_qr_scan"}, "lon": -77.05010516666667, "name": "6ac1cfeed6fbaeb2444d84b5defdc74f", "is_disabled": 0, "is_reserved": 0, "bike_id": "6ac1cfeed6fbaeb2444d84b5defdc74f", "lat": 38.89782183333333, "type": "electric_scooter"}, {"fusion_lat": 0.0, "fusion_lon": 0.0, "rental_uris": {"android": "https://dc.lft.to/lastmile_qr_scan", "ios": "https://dc.lft.to/lastmile_qr_scan"}, "lon": -76.98556366666666, "name": "439fec596080062a5f2dbc1d53c01170", "is_disabled": 0, "is_reserved": 0, "bike_id": "439fec596080062a5f2dbc1d53c01170", "lat": 38.883562166666664, "type": "electric_scooter"}, {"fusion_lat": 0.0, "fusion_lon": 0.0, "rental_uris": {"android": "https://dc.lft.to/lastmile_qr_scan", "ios": "https://dc.lft.to/lastmile_qr_scan"}, "lon": -77.04348483333334, "name": "b3677d490f48c971af0e095b69ba514b", "is_disabled": 0, "is_reserved": 0, "bike_id": "b3677d490f48c971af0e095b69ba514b", "lat": 38.905695, "type": "electric_scooter"}, {"fusion_lat": 0.0, "fusion_lon": 0.0, "rental_uris": {"android": "https://dc.lft.to/lastmile_qr_scan", "ios": "https://dc.lft.to/lastmile_qr_scan"}, "lon": -76.994099, "name": "885a62fa1e11a4806a182ce5993475dd", "is_disabled": 0, "is_reserved": 0, "bike_id": "885a62fa1e11a4806a182ce5993475dd", "lat": 38.877787, "type": "electric_scooter"}, {"fusion_lat": 0.0, "fusion_lon": 0.0, "rental_uris": {"android": "https://dc.lft.to/lastmile_qr_scan", "ios": "https://dc.lft.to/lastmile_qr_scan"}, "lon": -77.032403, "name": "37e56d8da254f99f25dbe1e9f245e148", "is_disabled": 0, "is_reserved": 0, "bike_id": "37e56d8da254f99f25dbe1e9f245e148", "lat": 38.92724333333334, "type": "electric_scooter"}, {"fusion_lat": 0.0, "fusion_lon": 0.0, "rental_uris": {"android": "https://dc.lft.to/lastmile_qr_scan", "ios": "https://dc.lft.to/lastmile_qr_scan"}, "lon": -77.03233533333334, "name": "badbd036293743e42de45b9806e7a307", "is_disabled": 0, "is_reserved": 0, "bike_id": "badbd036293743e42de45b9806e7a307", "lat": 38.92385783333334, "type": "electric_scooter"}, {"fusion_lat": 0.0, "fusion_lon": 0.0, "rental_uris": {"android": "https://dc.lft.to/lastmile_qr_scan", "ios": "https://dc.lft.to/lastmile_qr_scan"}, "lon": -77.05738466666666, "name": "9efe1578b5f23ef00323569c5754e346", "is_disabled": 0, "is_reserved": 0, "bike_id": "9efe1578b5f23ef00323569c5754e346", "lat": 38.9338705, "type": "electric_scooter"}, {"fusion_lat": 0.0, "fusion_lon": 0.0, "rental_uris": {"android": "https://dc.lft.to/lastmile_qr_scan", "ios": "https://dc.lft.to/lastmile_qr_scan"}, "lon": -77.04337416666667, "name": "63b406019e84871198ba5c3bfd74487b", "is_disabled": 0, "is_reserved": 0, "bike_id": "63b406019e84871198ba5c3bfd74487b", "lat": 38.90045516666667, "type": "electric_scooter"}, {"fusion_lat": 0.0, "fusion_lon": 0.0, "rental_uris": {"android": "https://dc.lft.to/lastmile_qr_scan", "ios": "https://dc.lft.to/lastmile_qr_scan"}, "lon": -77.048042, "name": "93197e8c5cb814fd175a5197656e955c", "is_disabled": 0, "is_reserved": 0, "bike_id": "93197e8c5cb814fd175a5197656e955c", "lat": 38.8961975, "type": "electric_scooter"}, {"fusion_lat": 0.0, "fusion_lon": 0.0, "rental_uris": {"android": "https://dc.lft.to/lastmile_qr_scan", "ios": "https://dc.lft.to/lastmile_qr_scan"}, "lon": -77.02789033333333, "name": "cf6927e6864e3e4ca0d07e7f15a41b7a", "is_disabled": 0, "is_reserved": 0, "bike_id": "cf6927e6864e3e4ca0d07e7f15a41b7a", "lat": 38.91709316666667, "type": "electric_scooter"}, {"fusion_lat": 0.0, "fusion_lon": 0.0, "rental_uris": {"android": "https://dc.lft.to/lastmile_qr_scan", "ios": "https://dc.lft.to/lastmile_qr_scan"}, "lon": -77.03184133333333, "name": "14c24c362f64b226dab98ea736c651bd", "is_disabled": 0, "is_reserved": 0, "bike_id": "14c24c362f64b226dab98ea736c651bd", "lat": 38.892490333333335, "type": "electric_scooter"}, {"fusion_lat": 0.0, "fusion_lon": 0.0, "rental_uris": {"android": "https://dc.lft.to/lastmile_qr_scan", "ios": "https://dc.lft.to/lastmile_qr_scan"}, "lon": -76.9485535, "name": "f51e8278d7ca4553f9f71de46fff2e2b", "is_disabled": 0, "is_reserved": 0, "bike_id": "f51e8278d7ca4553f9f71de46fff2e2b", "lat": 38.8829715, "type": "electric_scooter"}, {"fusion_lat": 0.0, "fusion_lon": 0.0, "rental_uris": {"android": "https://dc.lft.to/lastmile_qr_scan", "ios": "https://dc.lft.to/lastmile_qr_scan"}, "lon": -77.03806583333333, "name": "399707d74961da5f42f8f3008ef7e75b", "is_disabled": 0, "is_reserved": 0, "bike_id": "399707d74961da5f42f8f3008ef7e75b", "lat": 38.90672816666667, "type": "electric_scooter"}, {"fusion_lat": 0.0, "fusion_lon": 0.0, "rental_uris": {"android": "https://dc.lft.to/lastmile_qr_scan", "ios": "https://dc.lft.to/lastmile_qr_scan"},