{"data": {"bikes": [{"lat": 38.930172, "fusion_lon": 0.0, "fusion_lat": 0.0, "is_disabled": 0, "type": "electric_scooter", "lon": -77.03801533333333, "rental_uris": {"android": "https://dc.lft.to/lastmile_qr_scan", "ios": "https://dc.lft.to/lastmile_qr_scan"}, "is_reserved": 0, "bike_id": "aad74716470dd0e7b197ab8c6755a65e", "name": "aad74716470dd0e7b197ab8c6755a65e"}, {"lat": 38.909597, "fusion_lon": 0.0, "fusion_lat": 0.0, "is_disabled": 0, "type": "electric_scooter", "lon": -77.0347715, "rental_uris": {"android": "https://dc.lft.to/lastmile_qr_scan", "ios": "https://dc.lft.to/lastmile_qr_scan"}, "is_reserved": 0, "bike_id": "8cded59c8edeb6103a5387704442c30b", "name": "8cded59c8edeb6103a5387704442c30b"}, {"lat": 38.9077625, "fusion_lon": 0.0, "fusion_lat": 0.0, "is_disabled": 0, "type": "electric_scooter", "lon": -77.03201566666667, "rental_uris": {"android": "https://dc.lft.to/lastmile_qr_scan", "ios": "https://dc.lft.to/lastmile_qr_scan"}, "is_reserved": 0, "bike_id": "2b1038745102ee867ea99c9cfd0cea42", "name": "2b1038745102ee867ea99c9cfd0cea42"}, {"lat": 38.88772316666667, "fusion_lon": 0.0, "fusion_lat": 0.0, "is_disabled": 0, "type": "electric_scooter", "lon": -77.02172, "rental_uris": {"android": "https://dc.lft.to/lastmile_qr_scan", "ios": "https://dc.lft.to/lastmile_qr_scan"}, "is_reserved": 0, "bike_id": "13bc43bb85e0e1b9b9cd1b7681d57ea4", "name": "13bc43bb85e0e1b9b9cd1b7681d57ea4"}, {"lat": 38.86170966666667, "fusion_lon": 0.0, "fusion_lat": 0.0, "is_disabled": 0, "type": "electric_scooter", "lon": -76.983265, "rental_uris": {"android": "https://dc.lft.to/lastmile_qr_scan", "ios": "https://dc.lft.to/lastmile_qr_scan"}, "is_reserved": 0, "bike_id": "f4bd50a3197285231213c39d59035741", "name": "f4bd50a3197285231213c39d59035741"}, {"lat": 38.9244815, "fusion_lon": 0.0, "fusion_lat": 0.0, "is_disabled": 0, "type": "electric_bike", "lon": -76.96834716666666, "rental_uris": {"android": "https://dc.lft.to/lastmile_qr_scan", "ios": "https://dc.lft.to/lastmile_qr_scan"}, "is_reserved": 0, "bike_id": "6862ea7084d79adc81794eee4496dfaa", "name": "6862ea7084d79adc81794eee4496dfaa"}, {"lat": 38.87648133333333, "fusion_lon": 0.0, "fusion_lat": 0.0, "is_disabled": 0, "type": "electric_scooter", "lon": -76.96504933333334, "rental_uris": {"android": "https://dc.lft.to/lastmile_qr_scan", "ios": "https://dc.lft.to/lastmile_qr_scan"}, "is_reserved": 0, "bike_id": "ef2cde86e3daa3648f445299551fd6ba", "name": "ef2cde86e3daa3648f445299551fd6ba"}, {"lat": 39.10567483333333, "fusion_lon": 0.0, "fusion_lat": 0.0, "is_disabled": 0, "type": "electric_bike", "lon": -77.15266016666666, "rental_uris": {"android": "https://dc.lft.to/lastmile_qr_scan", "ios": "https://dc.lft.to/lastmile_qr_scan"}, "is_reserved": 0, "bike_id": "c1c5d7bc992f2bcd2fc267162c3132fe", "name": "c1c5d7bc992f2bcd2fc267162c3132fe"}, {"lat": 38.91788966666667, "fusion_lon": 0.0, "fusion_lat": 0.0, "is_disabled": 0, "type": "electric_scooter", "lon": -77.02286083333334, "rental_uris": {"android": "https://dc.lft.to/lastmile_qr_scan", "ios": "https://dc.lft.to/lastmile_qr_scan"}, "is_reserved": 0, "bike_id": "8bc04d9874fdcd61b6f1899a2fde0b90", "name": "8bc04d9874fdcd61b6f1899a2fde0b90"}, {"lat": 38.92935766666667, "fusion_lon": 0.0, "fusion_lat": 0.0, "is_disabled": 0, "type": "electric_scooter", "lon": -77.037474, "rental_uris": {"android": "https://dc.lft.to/lastmile_qr_scan", "ios": "https://dc.lft.to/lastmile_qr_scan"}, "is_reserved": 0, "bike_id": "4b547bf6cfc4a6c26404bc9621371c55", "name": "4b547bf6cfc4a6c26404bc9621371c55"}, {"lat": 38.896709666666666, "fusion_lon": 0.0, "fusion_lat": 0.0, "is_disabled": 0, "type": "electric_bike", "lon": -76.98121016666667, "rental_uris": {"android": "https://dc.lft.to/lastmile_qr_scan", "ios": "https://dc.lft.to/lastmile_qr_scan"}, "is_reserved": 0, "bike_id": "e05d77d945e6265481250f82fab02367", "name": "e05d77d945e6265481250f82fab02367"}, {"lat": 38.898954833333335, "fusion_lon": 0.0, "fusion_lat": 0.0, "is_disabled": 0, "type": "electric_scooter", "lon": -77.0398155, "rental_uris": {"android": "https://dc.lft.to/lastmile_qr_scan", "ios": "https://dc.lft.to/lastmile_qr_scan"}, "is_reserved": 0, "bike_id": "970f804817a25b0c050ec597cbd854f2", "name": "970f804817a25b0c050ec597cbd854f2"}, {"lat": 38.887207833333335, "fusion_lon": 0.0, "fusion_lat": 0.0, "is_disabled": 0, "type": "electric_scooter", "lon": -77.02207616666666, "rental_uris": {"android": "https://dc.lft.to/lastmile_qr_scan", "ios": "https://dc.lft.to/lastmile_qr_scan"}, "is_reserved": 0, "bike_id": "c2d53d10800da421f489fa3a8044ccec", "name": "c2d53d10800da421f489fa3a8044ccec"}, {"lat": 38.81238916666667, "fusion_lon": 0.0, "fusion_lat": 0.0, "is_disabled": 0, "type": "electric_bike", "lon": -77.11231766666667, "rental_uris": {"android": "https://dc.lft.to/lastmile_qr_scan", "ios": "https://dc.lft.to/lastmile_qr_scan"}, "is_reserved": 0, "bike_id": "726bcb0de20906338080fceac4e20ae6", "name": "726bcb0de20906338080fceac4e20ae6"}, {"lat": 38.88503383333333, "fusion_lon": 0.0, "fusion_lat": 0.0, "is_disabled": 0, "type": "electric_scooter", "lon": -77.00614433333334, "rental_uris": {"android": "https://dc.lft.to/lastmile_qr_scan", "ios": "https://dc.lft.to/lastmile_qr_scan"}, "is_reserved": 0, "bike_id": "aa89bd64c393121fa9fcbe9d73c593ec", "name": "aa89bd64c393121fa9fcbe9d73c593ec"}, {"lat": 38.926052166666665, "fusion_lon": 0.0, "fusion_lat": 0.0, "is_disabled": 0, "type": "electric_scooter", "lon": -77.02157716666666, "rental_uris": {"android": "https://dc.lft.to/lastmile_qr_scan", "ios": "https://dc.lft.to/lastmile_qr_scan"}, "is_reserved": 0, "bike_id": "49f7993ef4661433ae2bbc208dcfac2d", "name": "49f7993ef4661433ae2bbc208dcfac2d"}, {"lat": 38.96609566666667, "fusion_lon": 0.0, "fusion_lat": 0.0, "is_disabled": 0, "type": "electric_bike", "lon": -76.9832695, "rental_uris": {"android": "https://dc.lft.to/lastmile_qr_scan", "ios": "https://dc.lft.to/lastmile_qr_scan"}, "is_reserved": 0, "bike_id": "8b40ccabd9773b954ba6243fb7e4adf2", "name": "8b40ccabd9773b954ba6243fb7e4adf2"}, {"lat": 38.931025166666664, "fusion_lon": 0.0, "fusion_lat": 0.0, "is_disabled": 0, "type": "electric_scooter", "lon": -77.026644, "rental_uris": {"android": "https://dc.lft.to/lastmile_qr_scan", "ios": "https://dc.lft.to/lastmile_qr_scan"}, "is_reserved": 0, "bike_id": "81ac75b5f44615235dc8cb160322beda", "name": "81ac75b5f44615235dc8cb160322beda"}, {"lat": 38.936854833333335, "fusion_lon": 0.0, "fusion_lat": 0.0, "is_disabled": 0, "type": "electric_scooter", "lon": -77.03286983333334, "rental_uris": {"android": "https://dc.lft.to/lastmile_qr_scan", "ios": "https://dc.lft.to/lastmile_qr_scan"}, "is_reserved": 0, "bike_id": "39e89962547e15290a4a1b17e4174cca", "name": "39e89962547e15290a4a1b17e4174cca"}, {"lat": 38.91812383333333, "fusion_lon": 0.0, "fusion_lat": 0.0, "is_disabled": 0, "type": "electric_bike", "lon": -77.10179433333333, "rental_uris": {"android": "https://dc.lft.to/lastmile_qr_scan", "ios": "https://dc.lft.to/lastmile_qr_scan"}, "is_reserved": 0, "bike_id": "121ceb32089f48668b5813fae52c2a4a", "name": "121ceb32089f48668b5813fae52c2a4a"}, {"lat": 38.9213785, "fusion_lon": 0.0, "fusion_lat": 0.0, "is_disabled": 0, "type": "electric_scooter", "lon": -77.0095925, "rental_uris": {"android": "https://dc.lft.to/lastmile_qr_scan", "ios": "https://dc.lft.to/lastmile_qr_scan"}, "is_reserved": 0, "bike_id": "c8d2223011c4ab21463aa84d1650624c", "name": "c8d2223011c4ab21463aa84d1650624c"}, {"lat": 38.9051075, "fusion_lon": 0.0, "fusion_lat": 0.0, "is_disabled": 0, "type": "electric_scooter", "lon": -77.03441633333334, "rental_uris": {"android": "https://dc.lft.to/lastmile_qr_scan", "ios": "https://dc.lft.to/lastmile_qr_scan"}, "is_reserved": 0, "bike_id": "ebf0a9dca94fc7635507a77589891342", "name": "ebf0a9dca94fc7635507a77589891342"}, {"lat": 38.8287515, "fusion_lon": 0.0, "fusion_lat": 0.0, "is_disabled": 0, "type": "electric_bike", "lon": -77.11217883333333, "rental_uris": {"android": "https://dc.lft.to/lastmile_qr_scan", "ios": "https://dc.lft.to/lastmile_qr_scan"}, "is_reserved": 0, "bike_id": "d058ec7487c3ffd689fb838030876405", "name": "d058ec7487c3ffd689fb838030876405"}, {"lat": 38.9057305, "fusion_lon": 0.0, "fusion_lat": 0.0, "is_disabled": 0, "type": "electric_scooter", "lon": -77.02163216666666, "rental_uris": {"android": "https://dc.lft.to/lastmile_qr_scan", "ios": "https://dc.lft.to/lastmile_qr_scan"}, "is_reserved": 0, "bike_id": "cf86424f9ce28cbbcd0bf117b2652622", "name": "cf86424f9ce28cbbcd0bf117b2652622"}, {"lat": 38.990915333333334, "fusion_lon": 0.0, "fusion_lat": 0.0, "is_disabled": 0, "type": "electric_bike", "lon": -76.87493716666667, "rental_uris": {"android": "https://dc.lft.to/lastmile_qr_scan", "ios": "https://dc.lft.to/lastmile_qr_scan"}, "is_reserved": 0, "bike_id": "b72c403e7f630720b10468ad07370a13", "name": "b72c403e7f630720b10468ad07370a13"}, {"lat": 38.89883433333333, "fusion_lon": 0.0, "fusion_lat": 0.0, "is_disabled": 0, "type": "electric_scooter", "lon": -76.93158616666666, "rental_uris": {"android": "https://dc.lft.to/lastmile_qr_scan", "ios": "https://dc.lft.to/lastmile_qr_scan"}, "is_reserved": 0, "bike_id": "8cc6260c2cc53420a6d21878df7c63b3", "name": "8cc6260c2cc53420a6d21878df7c63b3"}, {"lat": 38.898462333333335, "fusion_lon": 0.0, "fusion_lat": 0.0, "is_disabled": 0, "type": "electric_scooter", "lon": -77.0331875, "rental_uris": {"android": "https://dc.lft.to/lastmile_qr_scan", "ios": "https://dc.lft.to/lastmile_qr_scan"}, "is_reserved": 0, "bike_id": "4eeecb09c9ee48b6762a8fc6ebec2d00", "name": "4eeecb09c9ee48b6762a8fc6ebec2d00"}, {"lat": 38.876535, "fusion_lon": 0.0, "fusion_lat": 0.0, "is_disabled": 0, "type": "electric_scooter", "lon": -77.015799, "rental_uris": {"android": "https://dc.lft.to/lastmile_qr_scan", "ios": "https://dc.lft.to/lastmile_qr_scan"}, "is_reserved": 0, "bike_id": "62e49c4514a93e2bdc4bdc7d765cabe4", "name": "62e49c4514a93e2bdc4bdc7d765cabe4"}, {"lat": 38.862407166666664, "fusion_lon": 0.0, "fusion_lat": 0.0, "is_disabled": 0, "type": "electric_scooter", "lon": -76.99481, "rental_uris": {"android": "https://dc.lft.to/lastmile_qr_scan", "ios": "https://dc.lft.to/lastmile_qr_scan"}, "is_reserved": 0, "bike_id": "e140f833fab12ecca84f551abd6f76c9", "name": "e140f833fab12ecca84f551abd6f76c9"}, {"lat": 38.91564266666666, "fusion_lon": 0.0, "fusion_lat": 0.0, "is_disabled": 0, "type": "electric_scooter", "lon": -77.00590783333334, "rental_uris": {"android": "https://dc.lft.to/lastmile_qr_scan", "ios": "https://dc.lft.to/lastmile_qr_scan"}, "is_reserved": 0, "bike_id": "2fe60e500d6b1ca6bbf300b0dd2cee98", "name": "2fe60e500d6b1ca6bbf300b0dd2cee98"}, {"lat": 39.024237166666666, "fusion_lon": 0.0, "fusion_lat": 0.0, "is_disabled": 0, "type": "electric_bike", "lon": -77.12504283333334, "rental_uris": {"android": "https://dc.lft.to/lastmile_qr_scan", "ios": "https://dc.lft.to/lastmile_qr_scan"}, "is_reserved": 0, "bike_id": "974c4643fbf9550f09f48d312b5dd223", "name": "974c4643fbf9550f09f48d312b5dd223"}, {"lat": 38.89011033333333, "fusion_lon": 0.0, "fusion_lat": 0.0, "is_disabled": 0, "type": "electric_scooter", "lon": -76.9384225, "rental_uris": {"android": "https://dc.lft.to/lastmile_qr_scan", "ios": "https://dc.lft.to/lastmile_qr_scan"}, "is_reserved": 0, "bike_id": "f87c7e34f94880a090d53d24c3889319", "name": "f87c7e34f94880a090d53d24c3889319"}, {"lat": 38.90450033333333, "fusion_lon": 0.0, "fusion_lat": 0.0, "is_disabled": 0, "type": "electric_scooter", "lon": -77.02001316666667, "rental_uris": {"android": "https://dc.lft.to/lastmile_qr_scan", "ios": "https://dc.lft.to/lastmile_qr_scan"}, "is_reserved": 0, "bike_id": "811283dd8956bab442c0d9004590e360", "name": "811283dd8956bab442c0d9004590e360"}, {"lat": 38.926448666666666, "fusion_lon": 0.0, "fusion_lat": 0.0, "is_disabled": 0, "type": "electric_scooter", "lon": -77.03700416666666, "rental_uris": {"android": "https://dc.lft.to/lastmile_qr_scan", "ios": "https://dc.lft.to/lastmile_qr_scan"}, "is_reserved": 0, "bike_id": "9389c1e747d5c9cd6d1efc69f8a82735", "name": "9389c1e747d5c9cd6d1efc69f8a82735"}, {"lat": 38.929881333333334, "fusion_lon": 0.0, "fusion_lat": 0.0, "is_disabled": 0, "type": "electric_scooter", "lon": -77.023469, "rental_uris": {"android": "https://dc.lft.to/lastmile_qr_scan", "ios": "https://dc.lft.to/lastmile_qr_scan"}, "is_reserved": 0, "bike_id": "0e3e874dcd3466fd3b2c1c2c3dba260a", "name": "0e3e874dcd3466fd3b2c1c2c3dba260a"}, {"lat": 38.96207116666667, "fusion_lon": 0.0, "fusion_lat": 0.0, "is_disabled": 0, "type": "electric_scooter", "lon": -77.02343666666667, "rental_uris": {"android": "https://dc.lft.to/lastmile_qr_scan", "ios": "https://dc.lft.to/lastmile_qr_scan"}, "is_reserved": 0, "bike_id": "d76003fae8ebbe1accf02f8160eec5d8", "name": "d76003fae8ebbe1accf02f8160eec5d8"}, {"lat": 38.919159, "fusion_lon": 0.0, "fusion_lat": 0.0, "is_disabled": 0, "type": "electric_scooter", "lon": -77.0786165, "rental_uris": {"android": "https://dc.lft.to/lastmile_qr_scan", "ios": "https://dc.lft.to/lastmile_qr_scan"}, "is_reserved": 0, "bike_id": "2af03147e0c9b81634a87f05b9a17b10", "name": "2af03147e0c9b81634a87f05b9a17b10"}, {"lat": 38.923209666666665, "fusion_lon": 0.0, "fusion_lat": 0.0, "is_disabled": 0, "type": "electric_scooter", "lon": -77.02956233333333, "rental_uris": {"android": "https://dc.lft.to/lastmile_qr_scan", "ios": "https://dc.lft.to/lastmile_qr_scan"}, "is_reserved": 0, "bike_id": "e9afb8b49f6fe172d1c8dd8612ce31a8", "name": "e9afb8b49f6fe172d1c8dd8612ce31a8"}, {"lat": 38.904080666666665, "fusion_lon": 0.0, "fusion_lat": 0.0, "is_disabled": 0, "type": "electric_scooter", "lon": -77.04351083333333, "rental_uris": {"android": "https://dc.lft.to/lastmile_qr_scan", "ios": "https://dc.lft.to/lastmile_qr_scan"}, "is_reserved": 0, "bike_id": "8c379348ed6a8bde6b48dc6ae4370892", "name": "8c379348ed6a8bde6b48dc6ae4370892"}, {"lat": 38.92139, "fusion_lon": 0.0, "fusion_lat": 0.0, "is_disabled": 0, "type": "electric_scooter", "lon": -77.043602, "rental_uris": {"android": "https://dc.lft.to/lastmile_qr_scan", "ios": "https://dc.lft.to/lastmile_qr_scan"}, "is_reserved": 0, "bike_id": "2abc26d31dc7bc4c7200d4c9f68e91a2", "name": "2abc26d31dc7bc4c7200d4c9f68e91a2"}, {"lat": 38.903708333333334, "fusion_lon": 0.0, "fusion_lat": 0.0, "is_disabled": 0, "type": "electric_scooter", "lon": -77.03563033333333, "rental_uris": {"android": "https://dc.lft.to/lastmile_qr_scan", "ios": "https://dc.lft.to/lastmile_qr_scan"}, "is_reserved": 0, "bike_id": "cfa72c3d1df4bbb4cd655293385ee100", "name": "cfa72c3d1df4bbb4cd655293385ee100"}, {"lat": 38.921508333333335, "fusion_lon": 0.0, "fusion_lat": 0.0, "is_disabled": 0, "type": "electric_scooter", "lon": -77.03507916666666, "rental_uris": {"android": "https://dc.lft.to/lastmile_qr_scan", "ios": "https://dc.lft.to/lastmile_qr_scan"}, "is_reserved": 0, "bike_id": "a4e4bddbe08f64b2515dd37d3c40aa1c", "name": "a4e4bddbe08f64b2515dd37d3c40aa1c"}, {"lat": 39.05348383333333, "fusion_lon": 0.0, "fusion_lat": 0.0, "is_disabled": 0, "type": "electric_bike", "lon": -77.13591833333334, "rental_uris": {"android": "https://dc.lft.to/lastmile_qr_scan", "ios": "https://dc.lft.to/lastmile_qr_scan"}, "is_reserved": 0, "bike_id": "3671fde04c4e4abdde5cdbb4755f0ee6", "name": "3671fde04c4e4abdde5cdbb4755f0ee6"}, {"lat": 38.8830255, "fusion_lon": 0.0, "fusion_lat": 0.0, "is_disabled": 0, "type": "electric_scooter", "lon": -76.94852866666666, "rental_uris": {"android": "https://dc.lft.to/lastmile_qr_scan", "ios": "https://dc.lft.to/lastmile_qr_scan"}, "is_reserved": 0, "bike_id": "47a81fb742b9ee9a132c0055375651ec", "name": "47a81fb742b9ee9a132c0055375651ec"}, {"lat": 38.91302316666667, "fusion_lon": 0.0, "fusion_lat": 0.0, "is_disabled": 0, "type": "electric_scooter", "lon": -77.03656666666667, "rental_uris": {"android": "https://dc.lft.to/lastmile_qr_scan", "ios": "https://dc.lft.to/lastmile_qr_scan"}, "is_reserved": 0, "bike_id": "2d4ab38374662eefdf28bbcafac31723", "name": "2d4ab38374662eefdf28bbcafac31723"}, {"lat": 38.903081, "fusion_lon": 0.0, "fusion_lat": 0.0, "is_disabled": 0, "type": "electric_scooter", "lon": -77.01159416666667, "rental_uris": {"android": "https://dc.lft.to/lastmile_qr_scan", "ios": "https://dc.lft.to/lastmile_qr_scan"}, "is_reserved": 0, "bike_id": "5b12718b8a410ce762e4b4a822e43b89", "name": "5b12718b8a410ce762e4b4a822e43b89"}, {"lat": 38.87780133333333, "fusion_lon": 0.0, "fusion_lat": 0.0, "is_disabled": 0, "type": "electric_scooter", "lon": -77.01441216666667, "rental_uris": {"android": "https://dc.lft.to/lastmile_qr_scan", "ios": "https://dc.lft.to/lastmile_qr_scan"}, "is_reserved": 0, "bike_id": "b5a489de005a66fe44665114aa5f65c9", "name": "b5a489de005a66fe44665114aa5f65c9"}, {"lat": 38.84503, "fusion_lon": 0.0, "fusion_lat": 0.0, "is_disabled": 0, "type": "electric_scooter", "lon": -76.98757116666667, "rental_uris": {"android": "https://dc.lft.to/lastmile_qr_scan", "ios": "https://dc.lft.to/lastmile_qr_scan"}, "is_reserved": 0, "bike_id": "ba684addaf84e843cda0f400f31dcbc8", "name": "ba684addaf84e843cda0f400f31dcbc8"}, {"lat": 38.9211085, "fusion_lon": 0.0, "fusion_lat": 0.0, "is_disabled": 0, "type": "electric_scooter", "lon": -77.01767316666667, "rental_uris": {"android": "https://dc.lft.to/lastmile_qr_scan", "ios": "https://dc.lft.to/lastmile_qr_scan"}, "is_reserved": 0, "bike_id": "b9882028ec0ef0022c7668347b2bf9bd", "name": "b9882028ec0ef0022c7668347b2bf9bd"}, {"lat": 38.9053215, "fusion_lon": 0.0, "fusion_lat": 0.0, "is_disabled": 0, "type": "electric_scooter", "lon": -77.03452216666666, "rental_uris": {"android": "https://dc.lft.to/lastmile_qr_scan", "ios": "https://dc.lft.to/lastmile_qr_scan"}, "is_reserved": 0, "bike_id": "31b5c1ee04ba6c21b4fb17412843e1ca", "name": "31b5c1ee04ba6c21b4fb17412843e1ca"}, {"lat": 38.860715666666664, "fusion_lon": 0.0, "fusion_lat": 0.0, "is_disabled": 0, "type": "electric_scooter", "lon": -76.9902775, "rental_uris": {"android": "https://dc.lft.to/lastmile_qr_scan", "ios": "https://dc.lft.to/lastmile_qr_scan"}, "is_reserved": 0, "bike_id": "91500df9546cc54a0f2de1ba151b3971", "name": "91500df9546cc54a0f2de1ba151b3971"}, {"lat": 38.930194666666665, "fusion_lon": 0.0, "fusion_lat": 0.0, "is_disabled": 0, "type": "electric_scooter", "lon": -77.06189933333333, "rental_uris": {"android": "https://dc.lft.to/lastmile_qr_scan", "ios": "https://dc.lft.to/lastmile_qr_scan"}, "is_reserved": 0, "bike_id": "159fd8c16046bade895c926d52e9c123", "name": "159fd8c16046bade895c926d52e9c123"}, {"lat": 38.8922185, "fusion_lon": 0.0, "fusion_lat": 0.0, "is_disabled": 0, "type": "electric_scooter", "lon": -77.0263065, "rental_uris": {"android": "https://dc.lft.to/lastmile_qr_scan", "ios": "https://dc.lft.to/lastmile_qr_scan"}, "is_reserved": 0, "bike_id": "e9dbe9219cea516bf5a627cbdd8b2241", "name": "e9dbe9219cea516bf5a627cbdd8b2241"}, {"lat": 38.92866566666667, "fusion_lon": 0.0, "fusion_lat": 0.0, "is_disabled": 0, "type": "electric_scooter", "lon": -77.034812, "rental_uris": {"android": "https://dc.lft.to/lastmile_qr_scan", "ios": "https://dc.lft.to/lastmile_qr_scan"}, "is_reserved": 0, "bike_id": "fd70e0ee5a28b60a7e64044b5cd7b152", "name": "fd70e0ee5a28b60a7e64044b5cd7b152"}, {"lat": 38.91431933333333, "fusion_lon": 0.0, "fusion_lat": 0.0, "is_disabled": 0, "type": "electric_scooter", "lon": -77.00211033333333, "rental_uris": {"android": "https://dc.lft.to/lastmile_qr_scan", "ios": "https://dc.lft.to/lastmile_qr_scan"}, "is_reserved": 0, "bike_id": "dcfb021b719950dd1d174ae3e32546b6", "name": "dcfb021b719950dd1d174ae3e32546b6"}, {"lat": 38.908152333333334, "fusion_lon": 0.0, "fusion_lat": 0.0, "is_disabled": 0, "type": "electric_scooter", "lon": -77.03943416666667, "rental_uris": {"android": "https://dc.lft.to/lastmile_qr_scan", "ios": "https://dc.lft.to/lastmile_qr_scan"}, "is_reserved": 0, "bike_id": "a6a5ddff11a7671eacc5fe7bfaf353fd", "name": "a6a5ddff11a7671eacc5fe7bfaf353fd"}, {"lat": 38.89615583333333, "fusion_lon": 0.0, "fusion_lat": 0.0, "is_disabled": 0, "type": "electric_scooter", "lon": -77.0115815, "rental_uris": {"android": "https://dc.lft.to/lastmile_qr_scan", "ios": "https://dc.lft.to/lastmile_qr_scan"}, "is_reserved": 0, "bike_id": "ae96a5bc1274cbb0bd2988e3cb440194", "name": "ae96a5bc1274cbb0bd2988e3cb440194"}, {"lat": 38.9345845, "fusion_lon": 0.0, "fusion_lat": 0.0, "is_disabled": 0, "type": "electric_bike", "lon": -77.08946516666667, "rental_uris": {"android": "https://dc.lft.to/lastmile_qr_scan", "ios": "https://dc.lft.to/lastmile_qr_scan"}, "is_reserved": 0, "bike_id": "dd3987602df078adf07ee6fee8153f6c", "name": "dd3987602df078adf07ee6fee8153f6c"}, {"lat": 38.89872366666667, "fusion_lon": 0.0, "fusion_lat": 0.0, "is_disabled": 0, "type": "electric_scooter", "lon": -76.946675, "rental_uris": {"android": "https://dc.lft.to/lastmile_qr_scan", "ios": "https://dc.lft.to/lastmile_qr_scan"}, "is_reserved": 0, "bike_id": "7745d8c691e790751e97c68195f045cf", "name": "7745d8c691e790751e97c68195f045cf"}, {"lat": 38.91265716666667, "fusion_lon": 0.0, "fusion_lat": 0.0, "is_disabled": 0, "type": "electric_scooter", "lon": -77.04554666666667, "rental_uris": {"android": "https://dc.lft.to/lastmile_qr_scan", "ios": "https://dc.lft.to/lastmile_qr_scan"}, "is_reserved": 0, "bike_id": "380fdfc43329fdae473c91c85747e67d", "name": "380fdfc43329fdae473c91c85747e67d"}, {"lat": 38.8998885, "fusion_lon": 0.0, "fusion_lat": 0.0, "is_disabled": 0, "type": "electric_scooter", "lon": -77.03163316666667, "rental_uris": {"android": "https://dc.lft.to/lastmile_qr_scan", "ios": "https://dc.lft.to/lastmile_qr_scan"}, "is_reserved": 0, "bike_id": "e46767035404ed35f47c4f6c1512df75", "name": "e46767035404ed35f47c4f6c1512df75"}, {"lat": 38.9196365, "fusion_lon": 0.0, "fusion_lat": 0.0, "is_disabled": 0, "type": "electric_bike", "lon": -77.03194566666667, "rental_uris": {"android": "https://dc.lft.to/lastmile_qr_scan", "ios": "https://dc.lft.to/lastmile_qr_scan"}, "is_reserved": 0, "bike_id": "e9c29a51ee1cf08a829d2e9bbac4d325", "name": "e9c29a51ee1cf08a829d2e9bbac4d325"}, {"lat": 38.920638333333336, "fusion_lon": 0.0, "fusion_lat": 0.0, "is_disabled": 0, "type": "electric_scooter", "lon": -77.04249183333333, "rental_uris": {"android": "https://dc.lft.to/lastmile_qr_scan", "ios": "https://dc.lft.to/lastmile_qr_scan"}, "is_reserved": 0, "bike_id": "9872619d1553288c4a16248c3aed1eb4", "name": "9872619d1553288c4a16248c3aed1eb4"}, {"lat": 38.90058466666667, "fusion_lon": 0.0, "fusion_lat": 0.0, "is_disabled": 0, "type": "electric_scooter", "lon": -77.0317255, "rental_uris": {"android": "https://dc.lft.to/lastmile_qr_scan", "ios": "https://dc.lft.to/lastmile_qr_scan"}, "is_reserved": 0, "bike_id": "566a497970901ab67b60475fb7d1e881", "name": "566a497970901ab67b60475fb7d1e881"}, {"lat": 38.91582183333333, "fusion_lon": 0.0, "fusion_lat": 0.0, "is_disabled": 0, "type": "electric_scooter", "lon": -77.04679516666667, "rental_uris": {"android": "https://dc.lft.to/lastmile_qr_scan", "ios": "https://dc.lft.to/lastmile_qr_scan"}, "is_reserved": 0, "bike_id": "042cdf5981cc7bfc17e571e15bc9576d", "name": "042cdf5981cc7bfc17e571e15bc9576d"}, {"lat": 38.905748, "fusion_lon": 0.0, "fusion_lat": 0.0, "is_disabled": 0, "type": "electric_scooter", "lon": -77.03478283333334, "rental_uris": {"android": "https://dc.lft.to/lastmile_qr_scan", "ios": "https://dc.lft.to/lastmile_qr_scan"}, "is_reserved": 0, "bike_id": "d03db9afb1666e7d44327de6f92a0157", "name": "d03db9afb1666e7d44327de6f92a0157"}, {"lat": 38.90047966666667, "fusion_lon": 0.0, "fusion_lat": 0.0, "is_disabled": 0, "type": "electric_scooter", "lon": -77.01689866666666, "rental_uris": {"android": "https://dc.lft.to/lastmile_qr_scan", "ios": "https://dc.lft.to/lastmile_qr_scan"}, "is_reserved": 0, "bike_id": "b57504cc87763c3b5df7d3c3e12cda50", "name": "b57504cc87763c3b5df7d3c3e12cda50"}, {"lat": 38.89332916666667, "fusion_lon": 0.0, "fusion_lat": 0.0, "is_disabled": 0, "type": "electric_scooter", "lon": -77.01208483333333, "rental_uris": {"android": "https://dc.lft.to/lastmile_qr_scan", "ios": "https://dc.lft.to/lastmile_qr_scan"}, "is_reserved": 0, "bike_id": "eb45b6f2fc878f07bbccadcb5ec2d97f", "name": "eb45b6f2fc878f07bbccadcb5ec2d97f"}, {"lat": 38.89887366666667, "fusion_lon": 0.0, "fusion_lat": 0.0, "is_disabled": 0, "type": "electric_bike", "lon": -76.98384583333333, "rental_uris": {"android": "https://dc.lft.to/lastmile_qr_scan", "ios": "https://dc.lft.to/lastmile_qr_scan"}, "is_reserved": 0, "bike_id": "fb11ec57f5af4e32e675428549f9d2ad", "name": "fb11ec57f5af4e32e675428549f9d2ad"}, {"lat": 38.86902766666667, "fusion_lon": 0.0, "fusion_lat": 0.0, "is_disabled": 0, "type": "electric_bike", "lon": -77.1317565, "rental_uris": {"android": "https://dc.lft.to/lastmile_qr_scan", "ios": "https://dc.lft.to/lastmile_qr_scan"}, "is_reserved": 0, "bike_id": "8413627be9c3986049a7da3beafcfd2a", "name": "8413627be9c3986049a7da3beafcfd2a"}, {"lat": 38.91676566666667, "fusion_lon": 0.0, "fusion_lat": 0.0, "is_disabled": 0, "type": "electric_scooter", "lon": -77.0238115, "rental_uris": {"android": "https://dc.lft.to/lastmile_qr_scan", "ios": "https://dc.lft.to/lastmile_qr_scan"}, "is_reserved": 0, "bike_id": "d41fe9e2e330560bd7ba96b49a8542f5", "name": "d41fe9e2e330560bd7ba96b49a8542f5"}, {"lat": 38.9051175, "fusion_lon": 0.0, "fusion_lat": 0.0, "is_disabled": 0, "type": "electric_scooter", "lon": -77.04784083333334, "rental_uris": {"android": "https://dc.lft.to/lastmile_qr_scan", "ios": "https://dc.lft.to/lastmile_qr_scan"}, "is_reserved": 0, "bike_id": "a466498a0feab913fbfa15a7eaef2b69", "name": "a466498a0feab913fbfa15a7eaef2b69"}, {"lat": 38.88047266666667, "fusion_lon": 0.0, "fusion_lat": 0.0, "is_disabled": 0, "type": "electric_scooter", "lon": -77.030671, "rental_uris": {"android": "https://dc.lft.to/lastmile_qr_scan", "ios": "https://dc.lft.to/lastmile_qr_scan"}, "is_reserved": 0, "bike_id": "3855355c4595d74abcedc5f825f4ad6f", "name": "3855355c4595d74abcedc5f825f4ad6f"}, {"lat": 38.9110135, "fusion_lon": 0.0, "fusion_lat": 0.0, "is_disabled": 0, "type": "electric_scooter", "lon": -77.02801383333333, "rental_uris": {"android": "https://dc.lft.to/lastmile_qr_scan", "ios": "https://dc.lft.to/lastmile_qr_scan"}, "is_reserved": 0, "bike_id": "de35567fdb59a86b50a876375151ab83", "name": "de35567fdb59a86b50a876375151ab83"}, {"lat": 38.87909033333333, "fusion_lon": 0.0, "fusion_lat": 0.0, "is_disabled": 0, "type": "electric_scooter", "lon": -76.99161366666667, "rental_uris": {"android": "https://dc.lft.to/lastmile_qr_scan", "ios": "https://dc.lft.to/lastmile_qr_scan"}, "is_reserved": 0, "bike_id": "6cf36511626a7bd563bb398eb932a353", "name": "6cf36511626a7bd563bb398eb932a353"}, {"lat": 38.912356333333335, "fusion_lon": 0.0, "fusion_lat": 0.0, "is_disabled": 0, "type": "electric_scooter", "lon": -77.04511166666667, "rental_uris": {"android": "https://dc.lft.to/lastmile_qr_scan", "ios": "https://dc.lft.to/lastmile_qr_scan"}, "is_reserved": 0, "bike_id": "dd9d5bed38fbcf7c34fe4b5658201a25", "name": "dd9d5bed38fbcf7c34fe4b5658201a25"}, {"lat": 38.898781166666666, "fusion_lon": 0.0, "fusion_lat": 0.0, "is_disabled": 0, "type": "electric_scooter", "lon": -76.92951766666667, "rental_uris": {"android": "https://dc.lft.to/lastmile_qr_scan", "ios": "https://dc.lft.to/lastmile_qr_scan"}, "is_reserved": 0, "bike_id": "1c87f24b7694ae01d207f4ff1100272d", "name": "1c87f24b7694ae01d207f4ff1100272d"}, {"lat": 38.929459666666666, "fusion_lon": 0.0, "fusion_lat": 0.0, "is_disabled": 0, "type": "electric_scooter", "lon": -77.03418916666666, "rental_uris": {"android": "https://dc.lft.to/lastmile_qr_scan", "ios": "https://dc.lft.to/lastmile_qr_scan"}, "is_reserved": 0, "bike_id": "50126b0777248407d489ba5d5256284d", "name": "50126b0777248407d489ba5d5256284d"}, {"lat": 38.891916333333334, "fusion_lon": 0.0, "fusion_lat": 0.0, "is_disabled": 0, "type": "electric_scooter", "lon": -77.00336866666666, "rental_uris": {"android": "https://dc.lft.to/lastmile_qr_scan", "ios": "https://dc.lft.to/lastmile_qr_scan"}, "is_reserved": 0, "bike_id": "08994d35dd0a01f02c2d4f6fe1743ba7", "name": "08994d35dd0a01f02c2d4f6fe1743ba7"}, {"lat": 38.89730933333333, "fusion_lon": 0.0, "fusion_lat": 0.0, "is_disabled": 0, "type": "electric_scooter", "lon": -77.00382133333333, "rental_uris": {"android": "https://dc.lft.to/lastmile_qr_scan", "ios": "https://dc.lft.to/lastmile_qr_scan"}, "is_reserved": 0, "bike_id": "19cdefc9610303f46b811461fd24f2a8", "name": "19cdefc9610303f46b811461fd24f2a8"}, {"lat": 38.91115816666667, "fusion_lon": 0.0, "fusion_lat": 0.0, "is_disabled": 0, "type": "electric_scooter", "lon": -77.04217716666666, "rental_uris": {"android": "https://dc.lft.to/lastmile_qr_scan", "ios": "https://dc.lft.to/lastmile_qr_scan"}, "is_reserved": 0, "bike_id": "678d4851beb99b96048166e3af4da420", "name": "678d4851beb99b96048166e3af4da420"}, {"lat": 38.90514483333333, "fusion_lon": 0.0, "fusion_lat": 0.0, "is_disabled": 0, "type": "electric_scooter", "lon": -77.0448785, "rental_uris": {"android": "https://dc.lft.to/lastmile_qr_scan", "ios": "https://dc.lft.to/lastmile_qr_scan"}, "is_reserved": 0, "bike_id": "dd344e063a57fc8bb0f3008851196b33", "name": "dd344e063a57fc8bb0f3008851196b33"}, {"lat": 38.895332333333336, "fusion_lon": 0.0, "fusion_lat": 0.0, "is_disabled": 0, "type": "electric_scooter", "lon": -77.0111855, "rental_uris": {"android": "https://dc.lft.to/lastmile_qr_scan", "ios": "https://dc.lft.to/lastmile_qr_scan"}, "is_reserved": 0, "bike_id": "f40bdfba2d3f3f0b2d0dffd20746eafc", "name": "f40bdfba2d3f3f0b2d0dffd20746eafc"}, {"lat": 38.97061333333333, "fusion_lon": 0.0, "fusion_lat": 0.0, "is_disabled": 0, "type": "electric_bike", "lon": -76.9600775, "rental_uris": {"android": "https://dc.lft.to/lastmile_qr_scan", "ios": "https://dc.lft.to/lastmile_qr_scan"}, "is_reserved": 0, "bike_id": "e074ca9095d79c32e46aba69792c94f1", "name": "e074ca9095d79c32e46aba69792c94f1"}, {"lat": 38.92843666666667, "fusion_lon": 0.0, "fusion_lat": 0.0, "is_disabled": 0, "type": "electric_scooter", "lon": -76.99363883333334, "rental_uris": {"android": "https://dc.lft.to/lastmile_qr_scan", "ios": "https://dc.lft.to/lastmile_qr_scan"}, "is_reserved": 0, "bike_id": "68fd5d7fe67b640bf1790c4129359e2d", "name": "68fd5d7fe67b640bf1790c4129359e2d"}, {"lat": 38.86052983333333, "fusion_lon": 0.0, "fusion_lat": 0.0, "is_disabled": 0, "type": "electric_scooter", "lon": -76.99076033333333, "rental_uris": {"android": "https://dc.lft.to/lastmile_qr_scan", "ios": "https://dc.lft.to/lastmile_qr_scan"}, "is_reserved": 0, "bike_id": "16a12fa3bebbcb77852134d10b50092e", "name": "16a12fa3bebbcb77852134d10b50092e"}, {"lat": 38.922874, "fusion_lon": 0.0, "fusion_lat": 0.0, "is_disabled": 0, "type": "electric_scooter", "lon": -76.99397, "rental_uris": {"android": "https://dc.lft.to/lastmile_qr_scan", "ios": "https://dc.lft.to/lastmile_qr_scan"}, "is_reserved": 0, "bike_id": "706da5c96a05d9769b48eb0d0a308e1a", "name": "706da5c96a05d9769b48eb0d0a308e1a"}, {"lat": 38.91850866666667, "fusion_lon": 0.0, "fusion_lat": 0.0, "is_disabled": 0, "type": "electric_scooter", "lon": -77.04503983333333, "rental_uris": {"android": "https://dc.lft.to/lastmile_qr_scan", "ios": "https://dc.lft.to/lastmile_qr_scan"}, "is_reserved": 0, "bike_id": "9ac55711502407790572526de278175c", "name": "9ac55711502407790572526de278175c"}, {"lat": 38.86507666666667, "fusion_lon": 0.0, "fusion_lat": 0.0, "is_disabled": 0, "type": "electric_scooter", "lon": -76.99005266666667, "rental_uris": {"android": "https://dc.lft.to/lastmile_qr_scan", "ios": "https://dc.lft.to/lastmile_qr_scan"}, "is_reserved": 0, "bike_id": "dc73dd6c74f7c4bf502c0b7a80c1daec", "name": "dc73dd6c74f7c4bf502c0b7a80c1daec"}, {"lat": 38.90013783333333, "fusion_lon": 0.0, "fusion_lat": 0.0, "is_disabled": 0, "type": "electric_scooter", "lon": -77.04656383333334, "rental_uris": {"android": "https://dc.lft.to/lastmile_qr_scan", "ios": "https://dc.lft.to/lastmile_qr_scan"}, "is_reserved": 0, "bike_id": "def099b348c217b30ad7f38d084b88d6", "name": "def099b348c217b30ad7f38d084b88d6"}, {"lat": 38.83843366666667, "fusion_lon": 0.0, "fusion_lat": 0.0, "is_disabled": 0, "type": "electric_scooter", "lon": -76.99975033333334, "rental_uris": {"android": "https://dc.lft.to/lastmile_qr_scan", "ios": "https://dc.lft.to/lastmile_qr_scan"}, "is_reserved": 0, "bike_id": "448a2ba6d1c82b407f2b2f6641a42056", "name": "448a2ba6d1c82b407f2b2f6641a42056"}, {"lat": 38.887352666666665, "fusion_lon": 0.0, "fusion_lat": 0.0, "is_disabled": 0, "type": "electric_scooter", "lon": -77.03181433333333, "rental_uris": {"android": "https://dc.lft.to/lastmile_qr_scan", "ios": "https://dc.lft.to/lastmile_qr_scan"}, "is_reserved": 0, "bike_id": "fd4c57b980821441a861c0f96c7d29e3", "name": "fd4c57b980821441a861c0f96c7d29e3"}, {"lat": 38.9220005, "fusion_lon": 0.0, "fusion_lat": 0.0, "is_disabled": 0, "type": "electric_scooter", "lon": -77.04257433333333, "rental_uris": {"android": "https://dc.lft.to/lastmile_qr_scan", "ios": "https://dc.lft.to/lastmile_qr_scan"}, "is_reserved": 0, "bike_id": "98e2956eca4c645b078e011c85f05eb2", "name": "98e2956eca4c645b078e011c85f05eb2"}, {"lat": 38.921502, "fusion_lon": 0.0, "fusion_lat": 0.0, "is_disabled": 0, "type": "electric_scooter", "lon": -77.03508433333333, "rental_uris": {"android": "https://dc.lft.to/lastmile_qr_scan", "ios": "https://dc.lft.to/lastmile_qr_scan"}, "is_reserved": 0, "bike_id": "37f3e9b07e373204c9eeaa4701f2a826", "name": "37f3e9b07e373204c9eeaa4701f2a826"}, {"lat": 38.9384585, "fusion_lon": 0.0, "fusion_lat": 0.0, "is_disabled": 0, "type": "electric_scooter", "lon": -77.02455966666666, "rental_uris": {"android": "https://dc.lft.to/lastmile_qr_scan", "ios": "https://dc.lft.to/lastmile_qr_scan"}, "is_reserved": 0, "bike_id": "3af2cf9f8550167dfa64d8c42feaa985", "name": "3af2cf9f8550167dfa64d8c42feaa985"}, {"lat": 38.93293533333333, "fusion_lon": 0.0, "fusion_lat": 0.0, "is_disabled": 0, "type": "electric_scooter", "lon": -77.02441166666667, "rental_uris": {"android": "https://dc.lft.to/lastmile_qr_scan", "ios": "https://dc.lft.to/lastmile_qr_scan"}, "is_reserved": 0, "bike_id": "27380781727a5e3ccfa51218ac270766", "name": "27380781727a5e3ccfa51218ac270766"}, {"lat": 38.86245816666667, "fusion_lon": 0.0, "fusion_lat": 0.0, "is_disabled": 0, "type": "electric_scooter", "lon": -76.99493816666667, "rental_uris": {"android": "https://dc.lft.to/lastmile_qr_scan", "ios": "https://dc.lft.to/lastmile_qr_scan"}, "is_reserved": 0, "bike_id": "cdbcd34b9bd3bc40b80353f65ceb1d41", "name": "cdbcd34b9bd3bc40b80353f65ceb1d41"}, {"lat": 38.900151, "fusion_lon": 0.0, "fusion_lat": 0.0, "is_disabled": 0, "type": "electric_scooter", "lon": -77.04652833333333, "rental_uris": {"android": "https://dc.lft.to/lastmile_qr_scan", "ios": "https://dc.lft.to/lastmile_qr_scan"}, "is_reserved": 0, "bike_id": "b5652045d362f130c8f564ad313ed084", "name": "b5652045d362f130c8f564ad313ed084"}, {"lat": 38.908855333333335, "fusion_lon": 0.0, "fusion_lat": 0.0, "is_disabled": 0, "type": "electric_scooter", "lon": -77.043649, "rental_uris": {"android": "https://dc.lft.to/lastmile_qr_scan", "ios": "https://dc.lft.to/lastmile_qr_scan"}, "is_reserved": 0, "bike_id": "35818478c93ebc3b444d3e453197ece4", "name": "35818478c93ebc3b444d3e453197ece4"}, {"lat": 38.877082333333334, "fusion_lon": 0.0, "fusion_lat": 0.0, "is_disabled": 0, "type": "electric_scooter", "lon": -77.00665883333333, "rental_uris": {"android": "https://dc.lft.to/lastmile_qr_scan", "ios": "https://dc.lft.to/lastmile_qr_scan"}, "is_reserved": 0, "bike_id": "78e1845e47d4a83e9e344edd1d1f0bf0", "name": "78e1845e47d4a83e9e344edd1d1f0bf0"}, {"lat": 38.91658783333333, "fusion_lon": 0.0, "fusion_lat": 0.0, "is_disabled": 0, "type": "electric_scooter", "lon": -77.025431, "rental_uris": {"android": "https://dc.lft.to/lastmile_qr_scan", "ios": "https://dc.lft.to/lastmile_qr_scan"}, "is_reserved": 0, "bike_id": "e568b24af2890be5abd92b39e8cb19f0", "name": "e568b24af2890be5abd92b39e8cb19f0"}, {"lat": 38.86165583333333, "fusion_lon": 0.0, "fusion_lat": 0.0, "is_disabled": 0, "type": "electric_bike", "lon": -77.130948, "rental_uris": {"android": "https://dc.lft.to/lastmile_qr_scan", "ios": "https://dc.lft.to/lastmile_qr_scan"}, "is_reserved": 0, "bike_id": "c37141f35a3c7c150efd08596ac94aad", "name": "c37141f35a3c7c150efd08596ac94aad"}, {"lat": 38.909398333333336, "fusion_lon": 0.0, "fusion_lat": 0.0, "is_disabled": 0, "type": "electric_scooter", "lon": -76.9992855, "rental_uris": {"android": "https://dc.lft.to/lastmile_qr_scan", "ios": "https://dc.lft.to/lastmile_qr_scan"}, "is_reserved": 0, "bike_id": "3f99456ee29fcf086ba6a2ba88c5f0be", "name": "3f99456ee29fcf086ba6a2ba88c5f0be"}, {"lat": 38.8974985, "fusion_lon": 0.0, "fusion_lat": 0.0, "is_disabled": 0, "type": "electric_scooter", "lon": -77.03159116666667, "rental_uris": {"android": "https://dc.lft.to/lastmile_qr_scan", "ios": "https://dc.lft.to/lastmile_qr_scan"}, "is_reserved": 0, "bike_id": "bf05cf9ed772f5c3dc502dfcad7f6a26", "name": "bf05cf9ed772f5c3dc502dfcad7f6a26"}, {"lat": 38.88385816666667, "fusion_lon": 0.0, "fusion_lat": 0.0, "is_disabled": 0, "type": "electric_scooter", "lon": -76.9854125, "rental_uris": {"android": "https://dc.lft.to/lastmile_qr_scan", "ios": "https://dc.lft.to/lastmile_qr_scan"}, "is_reserved": 0, "bike_id": "849a105f97ddf87b485daf13e19a0323", "name": "849a105f97ddf87b485daf13e19a0323"}, {"lat": 38.92234916666666, "fusion_lon": 0.0, "fusion_lat": 0.0, "is_disabled": 0, "type": "electric_scooter", "lon": -77.04247116666667, "rental_uris": {"android": "https://dc.lft.to/lastmile_qr_scan", "ios": "https://dc.lft.to/lastmile_qr_scan"}, "is_reserved": 0, "bike_id": "dd1ab66948c3087a8ab012b2987a02a9", "name": "dd1ab66948c3087a8ab012b2987a02a9"}, {"lat": 38.903811, "fusion_lon": 0.0, "fusion_lat": 0.0, "is_disabled": 0, "type": "electric_scooter", "lon": -77.05801766666667, "rental_uris": {"android": "https://dc.lft.to/lastmile_qr_scan", "ios": "https://dc.lft.to/lastmile_qr_scan"}, "is_reserved": 0, "bike_id": "6398ede8b58cd5ef99e58ced6090b18e", "name": "6398ede8b58cd5ef99e58ced6090b18e"}, {"lat": 38.91103716666667, "fusion_lon": 0.0, "fusion_lat": 0.0, "is_disabled": 0, "type": "electric_scooter", "lon": -77.0209805, "rental_uris": {"android": "https://dc.lft.to/lastmile_qr_scan", "ios": "https://dc.lft.to/lastmile_qr_scan"}, "is_reserved": 0, "bike_id": "399cc532025d699e18a1fbc6202db936", "name": "399cc532025d699e18a1fbc6202db936"}, {"lat": 38.911949, "fusion_lon": 0.0, "fusion_lat": 0.0, "is_disabled": 0, "type": "electric_scooter", "lon": -77.01880716666666, "rental_uris": {"android": "https://dc.lft.to/lastmile_qr_scan", "ios": "https://dc.lft.to/lastmile_qr_scan"}, "is_reserved": 0, "bike_id": "14bc37fc21686b85b1d58d60aeb5bf6f", "name": "14bc37fc21686b85b1d58d60aeb5bf6f"}, {"lat": 38.9038565, "fusion_lon": 0.0, "fusion_lat": 0.0, "is_disabled": 0, "type": "electric_scooter", "lon": -77.02972566666666, "rental_uris": {"android": "https://dc.lft.to/lastmile_qr_scan", "ios": "https://dc.lft.to/lastmile_qr_scan"}, "is_reserved": 0, "bike_id": "4d5b8e6db1c6ba2592c8793f2f2229fa", "name": "4d5b8e6db1c6ba2592c8793f2f2229fa"}, {"lat": 38.86975316666667, "fusion_lon": 0.0, "fusion_lat": 0.0, "is_disabled": 0, "type": "electric_bike", "lon": -77.1323195, "rental_uris": {"android": "https://dc.lft.to/lastmile_qr_scan", "ios": "https://dc.lft.to/lastmile_qr_scan"}, "is_reserved": 0, "bike_id": "a68da22ad5030094503309ddad115846", "name": "a68da22ad5030094503309ddad115846"}, {"lat": 38.947859666666666, "fusion_lon": 0.0, "fusion_lat": 0.0, "is_disabled": 0, "type": "electric_scooter", "lon": -77.0675775, "rental_uris": {"android": "https://dc.lft.to/lastmile_qr_scan", "ios": "https://dc.lft.to/lastmile_qr_scan"}, "is_reserved": 0, "bike_id": "90701efe88b7216097718fc3570bd6aa", "name": "90701efe88b7216097718fc3570bd6aa"}, {"lat": 38.90102516666666, "fusion_lon": 0.0, "fusion_lat": 0.0, "is_disabled": 0, "type": "electric_scooter", "lon": -77.039346, "rental_uris": {"android": "https://dc.lft.to/lastmile_qr_scan", "ios": "https://dc.lft.to/lastmile_qr_scan"}, "is_reserved": 0, "bike_id": "6baa3c454f6f4e74574bacf44f5e9960", "name": "6baa3c454f6f4e74574bacf44f5e9960"}, {"lat": 38.876554666666664, "fusion_lon": 0.0, "fusion_lat": 0.0, "is_disabled": 0, "type": "electric_scooter", "lon": -77.00581333333334, "rental_uris": {"android": "https://dc.lft.to/lastmile_qr_scan", "ios": "https://dc.lft.to/lastmile_qr_scan"}, "is_reserved": 0, "bike_id": "f4714d3cc81a7cfd064e6e617ff92e99", "name": "f4714d3cc81a7cfd064e6e617ff92e99"}, {"lat": 38.8980725, "fusion_lon": 0.0, "fusion_lat": 0.0, "is_disabled": 0, "type": "electric_scooter", "lon": -77.028091, "rental_uris": {"android": "https://dc.lft.to/lastmile_qr_scan", "ios": "https://dc.lft.to/lastmile_qr_scan"}, "is_reserved": 0, "bike_id": "3d48b149df5c863662d6f68ca1ec4197", "name": "3d48b149df5c863662d6f68ca1ec4197"}, {"lat": 38.9009675, "fusion_lon": 0.0, "fusion_lat": 0.0, "is_disabled": 0, "type": "electric_scooter", "lon": -76.9947995, "rental_uris": {"android": "https://dc.lft.to/lastmile_qr_scan", "ios": "https://dc.lft.to/lastmile_qr_scan"}, "is_reserved": 0, "bike_id": "ad781900973708f056b9d9a2175160bd", "name": "ad781900973708f056b9d9a2175160bd"}, {"lat": 38.909294, "fusion_lon": 0.0, "fusion_lat": 0.0, "is_disabled": 0, "type": "electric_scooter", "lon": -77.0396935, "rental_uris": {"android": "https://dc.lft.to/lastmile_qr_scan", "ios": "https://dc.lft.to/lastmile_qr_scan"}, "is_reserved": 0, "bike_id": "e1a5417159130e8d78b4c14c74269b42", "name": "e1a5417159130e8d78b4c14c74269b42"}, {"lat": 38.9242445, "fusion_lon": 0.0, "fusion_lat": 0.0, "is_disabled": 0, "type": "electric_scooter", "lon": -77.0404235, "rental_uris": {"android": "https://dc.lft.to/lastmile_qr_scan", "ios": "https://dc.lft.to/lastmile_qr_scan"}, "is_reserved": 0, "bike_id": "215956ee5a8679354176fe9bc9acb4f3", "name": "215956ee5a8679354176fe9bc9acb4f3"}, {"lat": 38.89554233333333, "fusion_lon": 0.0, "fusion_lat": 0.0, "is_disabled": 0, "type": "electric_scooter", "lon": -77.04674616666667, "rental_uris": {"android": "https://dc.lft.to/lastmile_qr_scan", "ios": "https://dc.lft.to/lastmile_qr_scan"}, "is_reserved": 0, "bike_id": "1d081f0e43fe44f6fa3eaf976f628e9b", "name": "1d081f0e43fe44f6fa3eaf976f628e9b"}, {"lat": 38.905825166666666, "fusion_lon": 0.0, "fusion_lat": 0.0, "is_disabled": 0, "type": "electric_scooter", "lon": -77.0466795, "rental_uris": {"android": "https://dc.lft.to/lastmile_qr_scan", "ios": "https://dc.lft.to/lastmile_qr_scan"}, "is_reserved": 0, "bike_id": "c9cab94f0e94bbe91fde73fd254a26b9", "name": "c9cab94f0e94bbe91fde73fd254a26b9"}, {"lat": 38.936681166666666, "fusion_lon": 0.0, "fusion_lat": 0.0, "is_disabled": 0, "type": "electric_scooter", "lon": -77.03264016666667, "rental_uris": {"android": "https://dc.lft.to/lastmile_qr_scan", "ios": "https://dc.lft.to/lastmile_qr_scan"}, "is_reserved": 0, "bike_id": "19ea08db34ec48043f8114dfec2e0927", "name": "19ea08db34ec48043f8114dfec2e0927"}, {"lat": 38.9091425, "fusion_lon": 0.0, "fusion_lat": 0.0, "is_disabled": 0, "type": "electric_scooter", "lon": -77.00301083333333, "rental_uris": {"android": "https://dc.lft.to/lastmile_qr_scan", "ios": "https://dc.lft.to/lastmile_qr_scan"}, "is_reserved": 0, "bike_id": "2209765e23222176c7a742b7525f19a4", "name": "2209765e23222176c7a742b7525f19a4"}, {"lat": 38.9392985, "fusion_lon": 0.0, "fusion_lat": 0.0, "is_disabled": 0, "type": "electric_scooter", "lon": -77.06028333333333, "rental_uris": {"android": "https://dc.lft.to/lastmile_qr_scan", "ios": "https://dc.lft.to/lastmile_qr_scan"}, "is_reserved": 0, "bike_id": "974cd83b95603fa03c7dea5e92ec794d", "name": "974cd83b95603fa03c7dea5e92ec794d"}, {"lat": 38.90782466666667, "fusion_lon": 0.0, "fusion_lat": 0.0, "is_disabled": 0, "type": "electric_scooter", "lon": -77.06404166666667, "rental_uris": {"android": "https://dc.lft.to/lastmile_qr_scan", "ios": "https://dc.lft.to/lastmile_qr_scan"}, "is_reserved": 0, "bike_id": "8ad73a6ef3accedfa17dc1ceafc22d92", "name": "8ad73a6ef3accedfa17dc1ceafc22d92"}, {"lat": 38.87535583333333, "fusion_lon": 0.0, "fusion_lat": 0.0, "is_disabled": 0, "type": "electric_scooter", "lon": -77.00555916666667, "rental_uris": {"android": "https://dc.lft.to/lastmile_qr_scan", "ios": "https://dc.lft.to/lastmile_qr_scan"}, "is_reserved": 0, "bike_id": "0a8b496420bf41e167282e8b5d441c46", "name": "0a8b496420bf41e167282e8b5d441c46"}, {"lat": 38.90986016666667, "fusion_lon": 0.0, "fusion_lat": 0.0, "is_disabled": 0, "type": "electric_scooter", "lon": -77.04260216666667, "rental_uris": {"android": "https://dc.lft.to/lastmile_qr_scan", "ios": "https://dc.lft.to/lastmile_qr_scan"}, "is_reserved": 0, "bike_id": "cdbb86d8965bd54f747777fe3eb8c478", "name": "cdbb86d8965bd54f747777fe3eb8c478"}, {"lat": 38.897572333333336, "fusion_lon": 0.0, "fusion_lat": 0.0, "is_disabled": 0, "type": "electric_scooter", "lon": -77.02988433333333, "rental_uris": {"android": "https://dc.lft.to/lastmile_qr_scan", "ios": "https://dc.lft.to/lastmile_qr_scan"}, "is_reserved": 0, "bike_id": "66b8d7ef7f5b898d67f51bb554c3a396", "name": "66b8d7ef7f5b898d67f51bb554c3a396"}, {"lat": 39.023, "fusion_lon": 0.0, "fusion_lat": 0.0, "is_disabled": 0, "type": "electric_bike", "lon": -77.021045, "rental_uris": {"android": "https://dc.lft.to/lastmile_qr_scan", "ios": "https://dc.lft.to/lastmile_qr_scan"}, "is_reserved": 0, "bike_id": "68bca6168aa09ed796de16e973aa87ff", "name": "68bca6168aa09ed796de16e973aa87ff"}, {"lat": 38.86380883333333, "fusion_lon": 0.0, "fusion_lat": 0.0, "is_disabled": 0, "type": "electric_bike", "lon": -77.129003, "rental_uris": {"android": "https://dc.lft.to/lastmile_qr_scan", "ios": "https://dc.lft.to/lastmile_qr_scan"}, "is_reserved": 0, "bike_id": "d5999b6dcf257533285ab84508c87bd7", "name": "d5999b6dcf257533285ab84508c87bd7"}, {"lat": 38.942778, "fusion_lon": 0.0, "fusion_lat": 0.0, "is_disabled": 0, "type": "electric_scooter", "lon": -77.0293625, "rental_uris": {"android": "https://dc.lft.to/lastmile_qr_scan", "ios": "https://dc.lft.to/lastmile_qr_scan"}, "is_reserved": 0, "bike_id": "1d985bc3cda8f1b30c83ec6156f6a762", "name": "1d985bc3cda8f1b30c83ec6156f6a762"}, {"lat": 38.8922285, "fusion_lon": 0.0, "fusion_lat": 0.0, "is_disabled": 0, "type": "electric_scooter", "lon": -77.032194, "rental_uris": {"android": "https://dc.lft.to/lastmile_qr_scan", "ios": "https://dc.lft.to/lastmile_qr_scan"}, "is_reserved": 0, "bike_id": "1ff413f32aacc78afc8e76a33aa1467d", "name": "1ff413f32aacc78afc8e76a33aa1467d"}, {"lat": 38.905219833333334, "fusion_lon": 0.0, "fusion_lat": 0.0, "is_disabled": 0, "type": "electric_scooter", "lon": -77.05112066666666, "rental_uris": {"android": "https://dc.lft.to/lastmile_qr_scan", "ios": "https://dc.lft.to/lastmile_qr_scan"}, "is_reserved": 0, "bike_id": "377bbe394382937de0e389cd84b3fa56", "name": "377bbe394382937de0e389cd84b3fa56"}, {"lat": 38.88450366666667, "fusion_lon": 0.0, "fusion_lat": 0.0, "is_disabled": 0, "type": "electric_scooter", "lon": -76.99387466666667, "rental_uris": {"android": "https://dc.lft.to/lastmile_qr_scan", "ios": "https://dc.lft.to/lastmile_qr_scan"}, "is_reserved": 0, "bike_id": "f81153594d57d2505261e0bb49bb3ea6", "name": "f81153594d57d2505261e0bb49bb3ea6"}, {"lat": 38.90263783333333, "fusion_lon": 0.0, "fusion_lat": 0.0, "is_disabled": 0, "type": "electric_scooter", "lon": -77.04603533333334, "rental_uris": {"android": "https://dc.lft.to/lastmile_qr_scan", "ios": "https://dc.lft.to/lastmile_qr_scan"}, "is_reserved": 0, "bike_id": "cb390f114b395866aa06a86eff8613d4", "name": "cb390f114b395866aa06a86eff8613d4"}, {"lat": 38.88597083333333, "fusion_lon": 0.0, "fusion_lat": 0.0, "is_disabled": 0, "type": "electric_scooter", "lon": -76.95267016666666, "rental_uris": {"android": "https://dc.lft.to/lastmile_qr_scan", "ios": "https://dc.lft.to/lastmile_qr_scan"}, "is_reserved": 0, "bike_id": "13b125adb37ce3abe54755d9feba54d8", "name": "13b125adb37ce3abe54755d9feba54d8"}, {"lat": 38.90387116666667, "fusion_lon": 0.0, "fusion_lat": 0.0, "is_disabled": 0, "type": "electric_scooter", "lon": -77.01355516666666, "rental_uris": {"android": "https://dc.lft.to/lastmile_qr_scan", "ios": "https://dc.lft.to/lastmile_qr_scan"}, "is_reserved": 0, "bike_id": "2ac40c0e57010563c45fe0f5d90231ed", "name": "2ac40c0e57010563c45fe0f5d90231ed"}, {"lat": 38.903884166666664, "fusion_lon": 0.0, "fusion_lat": 0.0, "is_disabled": 0, "type": "electric_scooter", "lon": -76.9790885, "rental_uris": {"android": "https://dc.lft.to/lastmile_qr_scan", "ios": "https://dc.lft.to/lastmile_qr_scan"}, "is_reserved": 0, "bike_id": "f63d96dceb744735bf9862a3d27a73d1", "name": "f63d96dceb744735bf9862a3d27a73d1"}, {"lat": 38.88989383333333, "fusion_lon": 0.0, "fusion_lat": 0.0, "is_disabled": 0, "type": "electric_scooter", "lon": -76.9982285, "rental_uris": {"android": "https://dc.lft.to/lastmile_qr_scan", "ios": "https://dc.lft.to/lastmile_qr_scan"}, "is_reserved": 0, "bike_id": "d517ef254e73c926909c3910a477b547", "name": "d517ef254e73c926909c3910a477b547"}, {"lat": 38.911946666666665, "fusion_lon": 0.0, "fusion_lat": 0.0, "is_disabled": 0, "type": "electric_scooter", "lon": -77.03857016666667, "rental_uris": {"android": "https://dc.lft.to/lastmile_qr_scan", "ios": "https://dc.lft.to/lastmile_qr_scan"}, "is_reserved": 0, "bike_id": "fec42c5031a1370500670759033f1266", "name": "fec42c5031a1370500670759033f1266"}, {"lat": 38.90058033333333, "fusion_lon": 0.0, "fusion_lat": 0.0, "is_disabled": 0, "type": "electric_scooter", "lon": -77.02965333333333, "rental_uris": {"android": "https://dc.lft.to/lastmile_qr_scan", "ios": "https://dc.lft.to/lastmile_qr_scan"}, "is_reserved": 0, "bike_id": "83f07ea3233178e983de821db6b291de", "name": "83f07ea3233178e983de821db6b291de"}, {"lat": 38.92375116666667, "fusion_lon": 0.0, "fusion_lat": 0.0, "is_disabled": 0, "type": "electric_scooter", "lon": -77.03127616666667, "rental_uris": {"android": "https://dc.lft.to/lastmile_qr_scan", "ios": "https://dc.lft.to/lastmile_qr_scan"}, "is_reserved": 0, "bike_id": "0b71b0469d4db984241ada6fc0a05798", "name": "0b71b0469d4db984241ada6fc0a05798"}, {"lat": 38.89368833333333, "fusion_lon": 0.0, "fusion_lat": 0.0, "is_disabled": 0, "type": "electric_scooter", "lon": -77.047918, "rental_uris": {"android": "https://dc.lft.to/lastmile_qr_scan", "ios": "https://dc.lft.to/lastmile_qr_scan"}, "is_reserved": 0, "bike_id": "a250a2fd72b5e19fdb194ddd1100ee0b", "name": "a250a2fd72b5e19fdb194ddd1100ee0b"}, {"lat": 39.01038833333333, "fusion_lon": 0.0, "fusion_lat": 0.0, "is_disabled": 0, "type": "electric_bike", "lon": -76.911231, "rental_uris": {"android": "https://dc.lft.to/lastmile_qr_scan", "ios": "https://dc.lft.to/lastmile_qr_scan"}, "is_reserved": 0, "bike_id": "d9e389efc19a0136c399dd2bdccc712d", "name": "d9e389efc19a0136c399dd2bdccc712d"}, {"lat": 38.88448783333333, "fusion_lon": 0.0, "fusion_lat": 0.0, "is_disabled": 0, "type": "electric_scooter", "lon": -77.01043533333333, "rental_uris": {"android": "https://dc.lft.to/lastmile_qr_scan", "ios": "https://dc.lft.to/lastmile_qr_scan"}, "is_reserved": 0, "bike_id": "5aed441b5ead0d1c2a1ef8673b3d47a1", "name": "5aed441b5ead0d1c2a1ef8673b3d47a1"}, {"lat": 38.90147866666667, "fusion_lon": 0.0, "fusion_lat": 0.0, "is_disabled": 0, "type": "electric_bike", "lon": -77.0403195, "rental_uris": {"android": "https://dc.lft.to/lastmile_qr_scan", "ios": "https://dc.lft.to/lastmile_qr_scan"}, "is_reserved": 0, "bike_id": "dfb4db266b4a1ecf3f794dd175817b3e", "name": "dfb4db266b4a1ecf3f794dd175817b3e"}, {"lat": 38.90966133333333, "fusion_lon": 0.0, "fusion_lat": 0.0, "is_disabled": 0, "type": "electric_scooter", "lon": -77.03886266666666, "rental_uris": {"android": "https://dc.lft.to/lastmile_qr_scan", "ios": "https://dc.lft.to/lastmile_qr_scan"}, "is_reserved": 0, "bike_id": "0035c839085d16ac3965bfa55e6ec7ba", "name": "0035c839085d16ac3965bfa55e6ec7ba"}, {"lat": 38.90579116666667, "fusion_lon": 0.0, "fusion_lat": 0.0, "is_disabled": 0, "type": "electric_scooter", "lon": -77.04667316666666, "rental_uris": {"android": "https://dc.lft.to/lastmile_qr_scan", "ios": "https://dc.lft.to/lastmile_qr_scan"}, "is_reserved": 0, "bike_id": "1507efaa36c35e8b6cc4f0800482e783", "name": "1507efaa36c35e8b6cc4f0800482e783"}, {"lat": 38.911379833333335, "fusion_lon": 0.0, "fusion_lat": 0.0, "is_disabled": 0, "type": "electric_scooter", "lon": -76.99010833333334, "rental_uris": {"android": "https://dc.lft.to/lastmile_qr_scan", "ios": "https://dc.lft.to/lastmile_qr_scan"}, "is_reserved": 0, "bike_id": "df358933da0ba2644577b8853f2cf935", "name": "df358933da0ba2644577b8853f2cf935"}, {"lat": 38.90390416666666, "fusion_lon": 0.0, "fusion_lat": 0.0, "is_disabled": 0, "type": "electric_scooter", "lon": -77.04478533333334, "rental_uris": {"android": "https://dc.lft.to/lastmile_qr_scan", "ios": "https://dc.lft.to/lastmile_qr_scan"}, "is_reserved": 0, "bike_id": "4b705be074f1ffd54f404a6d627f207d", "name": "4b705be074f1ffd54f404a6d627f207d"}, {"lat": 38.86510066666666, "fusion_lon": 0.0, "fusion_lat": 0.0, "is_disabled": 0, "type": "electric_scooter", "lon": -76.97348316666667, "rental_uris": {"android": "https://dc.lft.to/lastmile_qr_scan", "ios": "https://dc.lft.to/lastmile_qr_scan"}, "is_reserved": 0, "bike_id": "300e86b4c364cd734c7caf62a8344ac0", "name": "300e86b4c364cd734c7caf62a8344ac0"}, {"lat": 38.90782933333333, "fusion_lon": 0.0, "fusion_lat": 0.0, "is_disabled": 0, "type": "electric_scooter", "lon": -77.04506266666667, "rental_uris": {"android": "https://dc.lft.to/lastmile_qr_scan", "ios": "https://dc.lft.to/lastmile_qr_scan"}, "is_reserved": 0, "bike_id": "4bce652c67a418fbd8823544d9dce9aa", "name": "4bce652c67a418fbd8823544d9dce9aa"}, {"lat": 38.902449833333336, "fusion_lon": 0.0, "fusion_lat": 0.0, "is_disabled": 0, "type": "electric_scooter", "lon": -77.00199916666666, "rental_uris": {"android": "https://dc.lft.to/lastmile_qr_scan", "ios": "https://dc.lft.to/lastmile_qr_scan"}, "is_reserved": 0, "bike_id": "784b553c8d2b18ee7ee19ff2ca6e3736", "name": "784b553c8d2b18ee7ee19ff2ca6e3736"}, {"lat": 38.892533666666665, "fusion_lon": 0.0, "fusion_lat": 0.0, "is_disabled": 0, "type": "electric_scooter", "lon": -77.02173883333333, "rental_uris": {"android": "https://dc.lft.to/lastmile_qr_scan", "ios": "https://dc.lft.to/lastmile_qr_scan"}, "is_reserved": 0, "bike_id": "f3e753acbd696f5c4253e43bdbe51c69", "name": "f3e753acbd696f5c4253e43bdbe51c69"}, {"lat": 38.928921333333335, "fusion_lon": 0.0, "fusion_lat": 0.0, "is_disabled": 0, "type": "electric_scooter", "lon": -77.02311016666667, "rental_uris": {"android": "https://dc.lft.to/lastmile_qr_scan", "ios": "https://dc.lft.to/lastmile_qr_scan"}, "is_reserved": 0, "bike_id": "9ea52f703ff93250442dd7035f1663d8", "name": "9ea52f703ff93250442dd7035f1663d8"}, {"lat": 38.900176333333334, "fusion_lon": 0.0, "fusion_lat": 0.0, "is_disabled": 0, "type": "electric_scooter", "lon": -77.0403425, "rental_uris": {"android": "https://dc.lft.to/lastmile_qr_scan", "ios": "https://dc.lft.to/lastmile_qr_scan"}, "is_reserved": 0, "bike_id": "1235f6872216d6b53b457a0a94d82f3f", "name": "1235f6872216d6b53b457a0a94d82f3f"}, {"lat": 38.89326766666667, "fusion_lon": 0.0, "fusion_lat": 0.0, "is_disabled": 0, "type": "electric_scooter", "lon": -77.02973866666666, "rental_uris": {"android": "https://dc.lft.to/lastmile_qr_scan", "ios": "https://dc.lft.to/lastmile_qr_scan"}, "is_reserved": 0, "bike_id": "b2367542538e1de878dc705bf522dee6", "name": "b2367542538e1de878dc705bf522dee6"}, {"lat": 38.889901, "fusion_lon": 0.0, "fusion_lat": 0.0, "is_disabled": 0, "type": "electric_scooter", "lon": -76.92405583333333, "rental_uris": {"android": "https://dc.lft.to/lastmile_qr_scan", "ios": "https://dc.lft.to/lastmile_qr_scan"}, "is_reserved": 0, "bike_id": "6e55df82117f7a19b656f60ce87f1a50", "name": "6e55df82117f7a19b656f60ce87f1a50"}, {"lat": 38.8791775, "fusion_lon": 0.0, "fusion_lat": 0.0, "is_disabled": 0, "type": "electric_scooter", "lon": -76.9916295, "rental_uris": {"android": "https://dc.lft.to/lastmile_qr_scan", "ios": "https://dc.lft.to/lastmile_qr_scan"}, "is_reserved": 0, "bike_id": "542509dac16a8874b4857512d72becb5", "name": "542509dac16a8874b4857512d72becb5"}, {"lat": 38.91502416666667, "fusion_lon": 0.0, "fusion_lat": 0.0, "is_disabled": 0, "type": "electric_scooter", "lon": -77.01378833333334, "rental_uris": {"android": "https://dc.lft.to/lastmile_qr_scan", "ios": "https://dc.lft.to/lastmile_qr_scan"}, "is_reserved": 0, "bike_id": "428f99bc8cb888ef0f42a6f73ec1536b", "name": "428f99bc8cb888ef0f42a6f73ec1536b"}, {"lat": 38.93059316666667, "fusion_lon": 0.0, "fusion_lat": 0.0, "is_disabled": 0, "type": "electric_scooter", "lon": -77.04175233333333, "rental_uris": {"android": "https://dc.lft.to/lastmile_qr_scan", "ios": "https://dc.lft.to/lastmile_qr_scan"}, "is_reserved": 0, "bike_id": "3b4d75810b201ad9f7a70cfe55ac6fdb", "name": "3b4d75810b201ad9f7a70cfe55ac6fdb"}, {"lat": 38.89903916666667, "fusion_lon": 0.0, "fusion_lat": 0.0, "is_disabled": 0, "type": "electric_scooter", "lon": -77.01051933333333, "rental_uris": {"android": "https://dc.lft.to/lastmile_qr_scan", "ios": "https://dc.lft.to/lastmile_qr_scan"}, "is_reserved": 0, "bike_id": "44a4c64297aec212fa4b5df4a288d958", "name": "44a4c64297aec212fa4b5df4a288d958"}, {"lat": 38.85440916666667, "fusion_lon": 0.0, "fusion_lat": 0.0, "is_disabled": 0, "type": "electric_bike", "lon": -76.90979033333333, "rental_uris": {"android": "https://dc.lft.to/lastmile_qr_scan", "ios": "https://dc.lft.to/lastmile_qr_scan"}, "is_reserved": 0, "bike_id": "56e64e3fd89fe05538478e2d6f009a49", "name": "56e64e3fd89fe05538478e2d6f009a49"}, {"lat": 38.90959516666667, "fusion_lon": 0.0, "fusion_lat": 0.0, "is_disabled": 0, "type": "electric_scooter", "lon": -77.02379866666666, "rental_uris": {"android": "https://dc.lft.to/lastmile_qr_scan", "ios": "https://dc.lft.to/lastmile_qr_scan"}, "is_reserved": 0, "bike_id": "440d1de4f9856909e8392f6b201f7714", "name": "440d1de4f9856909e8392f6b201f7714"}, {"lat": 38.8922155, "fusion_lon": 0.0, "fusion_lat": 0.0, "is_disabled": 0, "type": "electric_scooter", "lon": -77.032288, "rental_uris": {"android": "https://dc.lft.to/lastmile_qr_scan", "ios": "https://dc.lft.to/lastmile_qr_scan"}, "is_reserved": 0, "bike_id": "115ab8372654fbc9bf8c0d4d18819736", "name": "115ab8372654fbc9bf8c0d4d18819736"}, {"lat": 38.915989333333336, "fusion_lon": 0.0, "fusion_lat": 0.0, "is_disabled": 0, "type": "electric_scooter", "lon": -77.03210166666666, "rental_uris": {"android": "https://dc.lft.to/lastmile_qr_scan", "ios": "https://dc.lft.to/lastmile_qr_scan"}, "is_reserved": 0, "bike_id": "53b2870451fa9e648a9e4fb2bac480e1", "name": "53b2870451fa9e648a9e4fb2bac480e1"}, {"lat": 38.907317166666665, "fusion_lon": 0.0, "fusion_lat": 0.0, "is_disabled": 0, "type": "electric_scooter", "lon": -77.03440733333333, "rental_uris": {"android": "https://dc.lft.to/lastmile_qr_scan", "ios": "https://dc.lft.to/lastmile_qr_scan"}, "is_reserved": 0, "bike_id": "e86a2316e8cf8e00430ddbff062a234a", "name": "e86a2316e8cf8e00430ddbff062a234a"}, {"lat": 38.903242166666665, "fusion_lon": 0.0, "fusion_lat": 0.0, "is_disabled": 0, "type": "electric_scooter", "lon": -77.03334683333334, "rental_uris": {"android": "https://dc.lft.to/lastmile_qr_scan", "ios": "https://dc.lft.to/lastmile_qr_scan"}, "is_reserved": 0, "bike_id": "2e0ce92b93ec37e1d41689e37c160057", "name": "2e0ce92b93ec37e1d41689e37c160057"}, {"lat": 38.90483316666667, "fusion_lon": 0.0, "fusion_lat": 0.0, "is_disabled": 0, "type": "electric_scooter", "lon": -77.038372, "rental_uris": {"android": "https://dc.lft.to/lastmile_qr_scan", "ios": "https://dc.lft.to/lastmile_qr_scan"}, "is_reserved": 0, "bike_id": "656b6bdfafce68db14046dff5cd63b3e", "name": "656b6bdfafce68db14046dff5cd63b3e"}, {"lat": 38.8124075, "fusion_lon": 0.0, "fusion_lat": 0.0, "is_disabled": 0, "type": "electric_bike", "lon": -77.040685, "rental_uris": {"android": "https://dc.lft.to/lastmile_qr_scan", "ios": "https://dc.lft.to/lastmile_qr_scan"}, "is_reserved": 0, "bike_id": "8394a33926007dc2a40c071b8d19605d", "name": "8394a33926007dc2a40c071b8d19605d"}, {"lat": 38.936881166666666, "fusion_lon": 0.0, "fusion_lat": 0.0, "is_disabled": 0, "type": "electric_scooter", "lon": -77.032841, "rental_uris": {"android": "https://dc.lft.to/lastmile_qr_scan", "ios": "https://dc.lft.to/lastmile_qr_scan"}, "is_reserved": 0, "bike_id": "d015707434617973761d59915d1851a5", "name": "d015707434617973761d59915d1851a5"}, {"lat": 38.956313, "fusion_lon": 0.0, "fusion_lat": 0.0, "is_disabled": 0, "type": "electric_scooter", "lon": -77.02984766666667, "rental_uris": {"android": "https://dc.lft.to/lastmile_qr_scan", "ios": "https://dc.lft.to/lastmile_qr_scan"}, "is_reserved": 0, "bike_id": "aaab96e46f7364718de1e9dc6d41c867", "name": "aaab96e46f7364718de1e9dc6d41c867"}, {"lat": 38.9024125, "fusion_lon": 0.0, "fusion_lat": 0.0, "is_disabled": 0, "type": "electric_scooter", "lon": -77.00199633333334, "rental_uris": {"android": "https://dc.lft.to/lastmile_qr_scan", "ios": "https://dc.lft.to/lastmile_qr_scan"}, "is_reserved": 0, "bike_id": "100b3a154d0c2f9a31f4e19de879bccd", "name": "100b3a154d0c2f9a31f4e19de879bccd"}, {"lat": 38.89728933333333, "fusion_lon": 0.0, "fusion_lat": 0.0, "is_disabled": 0, "type": "electric_scooter", "lon": -77.00882866666667, "rental_uris": {"android": "https://dc.lft.to/lastmile_qr_scan", "ios": "https://dc.lft.to/lastmile_qr_scan"}, "is_reserved": 0, "bike_id": "2016b3820cb42815b80ca94c204aaf12", "name": "2016b3820cb42815b80ca94c204aaf12"}, {"lat": 38.91621083333333, "fusion_lon": 0.0, "fusion_lat": 0.0, "is_disabled": 0, "type": "electric_scooter", "lon": -77.02605833333334, "rental_uris": {"android": "https://dc.lft.to/lastmile_qr_scan", "ios": "https://dc.lft.to/lastmile_qr_scan"}, "is_reserved": 0, "bike_id": "4ab9b6537c6f7162cfaf0463f8ebbc64", "name": "4ab9b6537c6f7162cfaf0463f8ebbc64"}, {"lat": 38.90388, "fusion_lon": 0.0, "fusion_lat": 0.0, "is_disabled": 0, "type": "electric_scooter", "lon": -77.0321565, "rental_uris": {"android": "https://dc.lft.to/lastmile_qr_scan", "ios": "https://dc.lft.to/lastmile_qr_scan"}, "is_reserved": 0, "bike_id": "2bd58e00d94ad8dab3149dd3f53c35f1", "name": "2bd58e00d94ad8dab3149dd3f53c35f1"}, {"lat": 38.902481, "fusion_lon": 0.0, "fusion_lat": 0.0, "is_disabled": 0, "type": "electric_scooter", "lon": -77.03947166666667, "rental_uris": {"android": "https://dc.lft.to/lastmile_qr_scan", "ios": "https://dc.lft.to/lastmile_qr_scan"}, "is_reserved": 0, "bike_id": "db8866a90bcfb4f0e777497b5932fcd5", "name": "db8866a90bcfb4f0e777497b5932fcd5"}, {"lat": 38.95646633333333, "fusion_lon": 0.0, "fusion_lat": 0.0, "is_disabled": 0, "type": "electric_scooter", "lon": -77.0328715, "rental_uris": {"android": "https://dc.lft.to/lastmile_qr_scan", "ios": "https://dc.lft.to/lastmile_qr_scan"}, "is_reserved": 0, "bike_id": "4ada4468eb70376295c95460ff8c8c51", "name": "4ada4468eb70376295c95460ff8c8c51"}, {"lat": 38.8723735, "fusion_lon": 0.0, "fusion_lat": 0.0, "is_disabled": 0, "type": "electric_bike", "lon": -76.93207983333333, "rental_uris": {"android": "https://dc.lft.to/lastmile_qr_scan", "ios": "https://dc.lft.to/lastmile_qr_scan"}, "is_reserved": 0, "bike_id": "c3b3a5725a2bec84589d8cb3ec95f728", "name": "c3b3a5725a2bec84589d8cb3ec95f728"}, {"lat": 38.8873915, "fusion_lon": 0.0, "fusion_lat": 0.0, "is_disabled": 0, "type": "electric_scooter", "lon": -77.02628233333333, "rental_uris": {"android": "https://dc.lft.to/lastmile_qr_scan", "ios": "https://dc.lft.to/lastmile_qr_scan"}, "is_reserved": 0, "bike_id": "41ddd49e43e6cf6e6775f156b1eb7f90", "name": "41ddd49e43e6cf6e6775f156b1eb7f90"}, {"lat": 38.88687483333333, "fusion_lon": 0.0, "fusion_lat": 0.0, "is_disabled": 0, "type": "electric_scooter", "lon": -76.95240666666666, "rental_uris": {"android": "https://dc.lft.to/lastmile_qr_scan", "ios": "https://dc.lft.to/lastmile_qr_scan"}, "is_reserved": 0, "bike_id": "8199fe1bbb2f84f02d6652594e0c21f0", "name": "8199fe1bbb2f84f02d6652594e0c21f0"}, {"lat": 38.924998333333335, "fusion_lon": 0.0, "fusion_lat": 0.0, "is_disabled": 0, "type": "electric_scooter", "lon": -77.0225445, "rental_uris": {"android": "https://dc.lft.to/lastmile_qr_scan", "ios": "https://dc.lft.to/lastmile_qr_scan"}, "is_reserved": 0, "bike_id": "7013cad428b54df1187f27b292350bb2", "name": "7013cad428b54df1187f27b292350bb2"}, {"lat": 38.857918166666664, "fusion_lon": 0.0, "fusion_lat": 0.0, "is_disabled": 0, "type": "electric_bike", "lon": -77.099628, "rental_uris": {"android": "https://dc.lft.to/lastmile_qr_scan", "ios": "https://dc.lft.to/lastmile_qr_scan"}, "is_reserved": 0, "bike_id": "e76f4c3ad3930e369ee29549ede86faf", "name": "e76f4c3ad3930e369ee29549ede86faf"}, {"lat": 38.919893, "fusion_lon": 0.0, "fusion_lat": 0.0, "is_disabled": 0, "type": "electric_scooter", "lon": -77.03312133333333, "rental_uris": {"android": "https://dc.lft.to/lastmile_qr_scan", "ios": "https://dc.lft.to/lastmile_qr_scan"}, "is_reserved": 0, "bike_id": "8a3eab2b6d4b9dd20c95b344dee5bfdf", "name": "8a3eab2b6d4b9dd20c95b344dee5bfdf"}, {"lat": 38.950026333333334, "fusion_lon": 0.0, "fusion_lat": 0.0, "is_disabled": 0, "type": "electric_scooter", "lon": -77.02705616666667, "rental_uris": {"android": "https://dc.lft.to/lastmile_qr_scan", "ios": "https://dc.lft.to/lastmile_qr_scan"}, "is_reserved": 0, "bike_id": "98127dbdadf3c44edbe0c42d78a45e08", "name": "98127dbdadf3c44edbe0c42d78a45e08"}, {"lat": 38.900189, "fusion_lon": 0.0, "fusion_lat": 0.0, "is_disabled": 0, "type": "electric_scooter", "lon": -77.00025166666667, "rental_uris": {"android": "https://dc.lft.to/lastmile_qr_scan", "ios": "https://dc.lft.to/lastmile_qr_scan"}, "is_reserved": 0, "bike_id": "efd37971234efc21e728b72572ad554d", "name": "efd37971234efc21e728b72572ad554d"}, {"lat": 38.914597, "fusion_lon": 0.0, "fusion_lat": 0.0, "is_disabled": 0, "type": "electric_scooter", "lon": -77.04151183333333, "rental_uris": {"android": "https://dc.lft.to/lastmile_qr_scan", "ios": "https://dc.lft.to/lastmile_qr_scan"}, "is_reserved": 0, "bike_id": "8026b3478ba47666b3de6fdfb55143fe", "name": "8026b3478ba47666b3de6fdfb55143fe"}, {"lat": 38.921724, "fusion_lon": 0.0, "fusion_lat": 0.0, "is_disabled": 0, "type": "electric_scooter", "lon": -77.03907483333333, "rental_uris": {"android": "https://dc.lft.to/lastmile_qr_scan", "ios": "https://dc.lft.to/lastmile_qr_scan"}, "is_reserved": 0, "bike_id": "b321a5e8dbb95f41b83362d24a59a249", "name": "b321a5e8dbb95f41b83362d24a59a249"}, {"lat": 38.91173166666667, "fusion_lon": 0.0, "fusion_lat": 0.0, "is_disabled": 0, "type": "electric_scooter", "lon": -77.08443166666666, "rental_uris": {"android": "https://dc.lft.to/lastmile_qr_scan", "ios": "https://dc.lft.to/lastmile_qr_scan"}, "is_reserved": 0, "bike_id": "7c01eaad7c5365dc540d5f3e11e4e461", "name": "7c01eaad7c5365dc540d5f3e11e4e461"}, {"lat": 38.900483666666666, "fusion_lon": 0.0, "fusion_lat": 0.0, "is_disabled": 0, "type": "electric_scooter", "lon": -77.0270355, "rental_uris": {"android": "https://dc.lft.to/lastmile_qr_scan", "ios": "https://dc.lft.to/lastmile_qr_scan"}, "is_reserved": 0, "bike_id": "60cd662d4716ca88f3142a9f6ff00d60", "name": "60cd662d4716ca88f3142a9f6ff00d60"}, {"lat": 38.93027166666667, "fusion_lon": 0.0, "fusion_lat": 0.0, "is_disabled": 0, "type": "electric_scooter", "lon": -77.01292616666667, "rental_uris": {"android": "https://dc.lft.to/lastmile_qr_scan", "ios": "https://dc.lft.to/lastmile_qr_scan"}, "is_reserved": 0, "bike_id": "dbc154c7bc25b4271406edfab7332168", "name": "dbc154c7bc25b4271406edfab7332168"}, {"lat": 38.9317565, "fusion_lon": 0.0, "fusion_lat": 0.0, "is_disabled": 0, "type": "electric_scooter", "lon": -77.03405283333333, "rental_uris": {"android": "https://dc.lft.to/lastmile_qr_scan", "ios": "https://dc.lft.to/lastmile_qr_scan"}, "is_reserved": 0, "bike_id": "f66b95a7414fadf62fa97840de3a5c37", "name": "f66b95a7414fadf62fa97840de3a5c37"}, {"lat": 38.92031516666667, "fusion_lon": 0.0, "fusion_lat": 0.0, "is_disabled": 0, "type": "electric_scooter", "lon": -77.0170205, "rental_uris": {"android": "https://dc.lft.to/lastmile_qr_scan", "ios": "https://dc.lft.to/lastmile_qr_scan"}, "is_reserved": 0, "bike_id": "4fdb7c0547d07117723ad215bf7842e0", "name": "4fdb7c0547d07117723ad215bf7842e0"}, {"lat": 38.909654833333335, "fusion_lon": 0.0, "fusion_lat": 0.0, "is_disabled": 0, "type": "electric_scooter", "lon": -77.03942116666667, "rental_uris": {"android": "https://dc.lft.to/lastmile_qr_scan", "ios": "https://dc.lft.to/lastmile_qr_scan"}, "is_reserved": 0, "bike_id": "ae806a5f99c43af35dd71c9be62bbd45", "name": "ae806a5f99c43af35dd71c9be62bbd45"}, {"lat": 38.9026765, "fusion_lon": 0.0, "fusion_lat": 0.0, "is_disabled": 0, "type": "electric_scooter", "lon": -77.002117, "rental_uris": {"android": "https://dc.lft.to/lastmile_qr_scan", "ios": "https://dc.lft.to/lastmile_qr_scan"}, "is_reserved": 0, "bike_id": "7d6634191584182889fe13eab06ee815", "name": "7d6634191584182889fe13eab06ee815"}, {"lat": 38.89377183333333, "fusion_lon": 0.0, "fusion_lat": 0.0, "is_disabled": 0, "type": "electric_scooter", "lon": -77.02415183333333, "rental_uris": {"android": "https://dc.lft.to/lastmile_qr_scan", "ios": "https://dc.lft.to/lastmile_qr_scan"}, "is_reserved": 0, "bike_id": "2cde301b1a23c5db6958f31a58adae0b", "name": "2cde301b1a23c5db6958f31a58adae0b"}, {"lat": 38.91776383333333, "fusion_lon": 0.0, "fusion_lat": 0.0, "is_disabled": 0, "type": "electric_scooter", "lon": -77.01451516666667, "rental_uris": {"android": "https://dc.lft.to/lastmile_qr_scan", "ios": "https://dc.lft.to/lastmile_qr_scan"}, "is_reserved": 0, "bike_id": "dd35b4e5e1f0dfe580f16d461fca1274", "name": "dd35b4e5e1f0dfe580f16d461fca1274"}, {"lat": 38.9225875, "fusion_lon": 0.0, "fusion_lat": 0.0, "is_disabled": 0, "type": "electric_bike", "lon": -76.993973, "rental_uris": {"android": "https://dc.lft.to/lastmile_qr_scan", "ios": "https://dc.lft.to/lastmile_qr_scan"}, "is_reserved": 0, "bike_id": "f5ce2c20ba42d7ca9d25db8240a25f3e", "name": "f5ce2c20ba42d7ca9d25db8240a25f3e"}, {"lat": 38.9441645, "fusion_lon": 0.0, "fusion_lat": 0.0, "is_disabled": 0, "type": "electric_scooter", "lon": -77.05519233333334, "rental_uris": {"android": "https://dc.lft.to/lastmile_qr_scan", "ios": "https://dc.lft.to/lastmile_qr_scan"}, "is_reserved": 0, "bike_id": "b6761231000fe4989a9f0203039ade1f", "name": "b6761231000fe4989a9f0203039ade1f"}, {"lat": 38.89532916666667, "fusion_lon": 0.0, "fusion_lat": 0.0, "is_disabled": 0, "type": "electric_scooter", "lon": -77.03175033333333, "rental_uris": {"android": "https://dc.lft.to/lastmile_qr_scan", "ios": "https://dc.lft.to/lastmile_qr_scan"}, "is_reserved": 0, "bike_id": "99a39f15c1def66b9784df3c329f8044", "name": "99a39f15c1def66b9784df3c329f8044"}, {"lat": 38.9027915, "fusion_lon": 0.0, "fusion_lat": 0.0, "is_disabled": 0, "type": "electric_scooter", "lon": -77.034318, "rental_uris": {"android": "https://dc.lft.to/lastmile_qr_scan", "ios": "https://dc.lft.to/lastmile_qr_scan"}, "is_reserved": 0, "bike_id": "dc09baa88a68eda363ed36fb46607fb5", "name": "dc09baa88a68eda363ed36fb46607fb5"}, {"lat": 38.926277666666664, "fusion_lon": 0.0, "fusion_lat": 0.0, "is_disabled": 0, "type": "electric_scooter", "lon": -77.05299016666666, "rental_uris": {"android": "https://dc.lft.to/lastmile_qr_scan", "ios": "https://dc.lft.to/lastmile_qr_scan"}, "is_reserved": 0, "bike_id": "a9961a9ed9006cc980e1ea50fa2b4ee7", "name": "a9961a9ed9006cc980e1ea50fa2b4ee7"}, {"lat": 38.89489716666667, "fusion_lon": 0.0, "fusion_lat": 0.0, "is_disabled": 0, "type": "electric_scooter", "lon": -76.94838316666667, "rental_uris": {"android": "https://dc.lft.to/lastmile_qr_scan", "ios": "https://dc.lft.to/lastmile_qr_scan"}, "is_reserved": 0, "bike_id": "c17ecfc51bbcae3d2eb646c85b823c22", "name": "c17ecfc51bbcae3d2eb646c85b823c22"}, {"lat": 38.90383583333333, "fusion_lon": 0.0, "fusion_lat": 0.0, "is_disabled": 0, "type": "electric_scooter", "lon": -77.03584733333334, "rental_uris": {"android": "https://dc.lft.to/lastmile_qr_scan", "ios": "https://dc.lft.to/lastmile_qr_scan"}, "is_reserved": 0, "bike_id": "b4c5fd0be5f7c281d9f18821f76f2689", "name": "b4c5fd0be5f7c281d9f18821f76f2689"}, {"lat": 38.92669733333334, "fusion_lon": 0.0, "fusion_lat": 0.0, "is_disabled": 0, "type": "electric_bike", "lon": -77.00805633333333, "rental_uris": {"android": "https://dc.lft.to/lastmile_qr_scan", "ios": "https://dc.lft.to/lastmile_qr_scan"}, "is_reserved": 0, "bike_id": "497ef33867250ab45dc31735d85f3950", "name": "497ef33867250ab45dc31735d85f3950"}, {"lat": 38.902782333333334, "fusion_lon": 0.0, "fusion_lat": 0.0, "is_disabled": 0, "type": "electric_scooter", "lon": -77.0342435, "rental_uris": {"android": "https://dc.lft.to/lastmile_qr_scan", "ios": "https://dc.lft.to/lastmile_qr_scan"}, "is_reserved": 0, "bike_id": "0fbc36d266f6e9e266756e7c8a25501c", "name": "0fbc36d266f6e9e266756e7c8a25501c"}, {"lat": 38.91632283333333, "fusion_lon": 0.0, "fusion_lat": 0.0, "is_disabled": 0, "type": "electric_scooter", "lon": -77.00109166666667, "rental_uris": {"android": "https://dc.lft.to/lastmile_qr_scan", "ios": "https://dc.lft.to/lastmile_qr_scan"}, "is_reserved": 0, "bike_id": "2b62a7735dd373896dc7e3f8f73cbdba", "name": "2b62a7735dd373896dc7e3f8f73cbdba"}, {"lat": 38.906872, "fusion_lon": 0.0, "fusion_lat": 0.0, "is_disabled": 0, "type": "electric_scooter", "lon": -77.0381055, "rental_uris": {"android": "https://dc.lft.to/lastmile_qr_scan", "ios": "https://dc.lft.to/lastmile_qr_scan"}, "is_reserved": 0, "bike_id": "4e589b4f7d20833d16459ecad713a3cb", "name": "4e589b4f7d20833d16459ecad713a3cb"}, {"lat": 38.92128233333333, "fusion_lon": 0.0, "fusion_lat": 0.0, "is_disabled": 0, "type": "electric_scooter", "lon": -77.0458785, "rental_uris": {"android": "https://dc.lft.to/lastmile_qr_scan", "ios": "https://dc.lft.to/lastmile_qr_scan"}, "is_reserved": 0, "bike_id": "58c04f3e7c5ced745462674bf61421f6", "name": "58c04f3e7c5ced745462674bf61421f6"}, {"lat": 38.88301166666667, "fusion_lon": 0.0, "fusion_lat": 0.0, "is_disabled": 0, "type": "electric_scooter", "lon": -76.948566, "rental_uris": {"android": "https://dc.lft.to/lastmile_qr_scan", "ios": "https://dc.lft.to/lastmile_qr_scan"}, "is_reserved": 0, "bike_id": "086e6b7ac72297d827b6705f08cd9618", "name": "086e6b7ac72297d827b6705f08cd9618"}, {"lat": 38.89484916666667, "fusion_lon": 0.0, "fusion_lat": 0.0, "is_disabled": 0, "type": "electric_scooter", "lon": -76.99514966666666, "rental_uris": {"android": "https://dc.lft.to/lastmile_qr_scan", "ios": "https://dc.lft.to/lastmile_qr_scan"}, "is_reserved": 0, "bike_id": "e353ab7379c5cf491e27d4d549c90324", "name": "e353ab7379c5cf491e27d4d549c90324"}, {"lat": 38.8543945, "fusion_lon": 0.0, "fusion_lat": 0.0, "is_disabled": 0, "type": "electric_scooter", "lon": -76.98605716666667, "rental_uris": {"android": "https://dc.lft.to/lastmile_qr_scan", "ios": "https://dc.lft.to/lastmile_qr_scan"}, "is_reserved": 0, "bike_id": "f11b7bf1e20b1da83bf6fc926edfb825", "name": "f11b7bf1e20b1da83bf6fc926edfb825"}, {"lat": 38.8988665, "fusion_lon": 0.0, "fusion_lat": 0.0, "is_disabled": 0, "type": "electric_scooter", "lon": -76.99660316666667, "rental_uris": {"android": "https://dc.lft.to/lastmile_qr_scan", "ios": "https://dc.lft.to/lastmile_qr_scan"}, "is_reserved": 0, "bike_id": "f1975c1db54b13db0734d8a8b55fb1eb", "name": "f1975c1db54b13db0734d8a8b55fb1eb"}, {"lat": 38.93694966666666, "fusion_lon": 0.0, "fusion_lat": 0.0, "is_disabled": 0, "type": "electric_bike", "lon": -76.990601, "rental_uris": {"android": "https://dc.lft.to/lastmile_qr_scan", "ios": "https://dc.lft.to/lastmile_qr_scan"}, "is_reserved": 0, "bike_id": "9d05e0661ecf8c469b2fc8202e4acdeb", "name": "9d05e0661ecf8c469b2fc8202e4acdeb"}, {"lat": 38.90415766666667, "fusion_lon": 0.0, "fusion_lat": 0.0, "is_disabled": 0, "type": "electric_scooter", "lon": -77.04877783333333, "rental_uris": {"android": "https://dc.lft.to/lastmile_qr_scan", "ios": "https://dc.lft.to/lastmile_qr_scan"}, "is_reserved": 0, "bike_id": "ba6d699987d56a52e9177cc7c9d32c79", "name": "ba6d699987d56a52e9177cc7c9d32c79"}, {"lat": 38.916988833333335, "fusion_lon": 0.0, "fusion_lat": 0.0, "is_disabled": 0, "type": "electric_scooter", "lon": -77.05305, "rental_uris": {"android": "https://dc.lft.to/lastmile_qr_scan", "ios": "https://dc.lft.to/lastmile_qr_scan"}, "is_reserved": 0, "bike_id": "2f1fc7372e5be75c76d0a0b851a25aec", "name": "2f1fc7372e5be75c76d0a0b851a25aec"}, {"lat": 38.89811916666667, "fusion_lon": 0.0, "fusion_lat": 0.0, "is_disabled": 0, "type": "electric_bike", "lon": -77.005968, "rental_uris": {"android": "https://dc.lft.to/lastmile_qr_scan", "ios": "https://dc.lft.to/lastmile_qr_scan"}, "is_reserved": 0, "bike_id": "963a3a40bd36b76111d2cab215eeb97c", "name": "963a3a40bd36b76111d2cab215eeb97c"}, {"lat": 38.91929433333333, "fusion_lon": 0.0, "fusion_lat": 0.0, "is_disabled": 0, "type": "electric_scooter", "lon": -77.03128866666667, "rental_uris": {"android": "https://dc.lft.to/lastmile_qr_scan", "ios": "https://dc.lft.to/lastmile_qr_scan"}, "is_reserved": 0, "bike_id": "df5c219ffc4e6a559758a527229c5153", "name": "df5c219ffc4e6a559758a527229c5153"}, {"lat": 38.896961, "fusion_lon": 0.0, "fusion_lat": 0.0, "is_disabled": 0, "type": "electric_bike", "lon": -77.08866233333333, "rental_uris": {"android": "https://dc.lft.to/lastmile_qr_scan", "ios": "https://dc.lft.to/lastmile_qr_scan"}, "is_reserved": 0, "bike_id": "252de3b784a9656391d33effcf7cb845", "name": "252de3b784a9656391d33effcf7cb845"}, {"lat": 38.877215, "fusion_lon": 0.0, "fusion_lat": 0.0, "is_disabled": 0, "type": "electric_scooter", "lon": -77.01635433333334, "rental_uris": {"android": "https://dc.lft.to/lastmile_qr_scan", "ios": "https://dc.lft.to/lastmile_qr_scan"}, "is_reserved": 0, "bike_id": "99ca5886bf42211722d9e3256466141b", "name": "99ca5886bf42211722d9e3256466141b"}, {"lat": 38.90400366666667, "fusion_lon": 0.0, "fusion_lat": 0.0, "is_disabled": 0, "type": "electric_scooter", "lon": -77.03367816666666, "rental_uris": {"android": "https://dc.lft.to/lastmile_qr_scan", "ios": "https://dc.lft.to/lastmile_qr_scan"}, "is_reserved": 0, "bike_id": "104de2fa66f33830e0dba6ca3d8e1417", "name": "104de2fa66f33830e0dba6ca3d8e1417"}, {"lat": 38.9007295, "fusion_lon": 0.0, "fusion_lat": 0.0, "is_disabled": 0, "type": "electric_scooter", "lon": -77.002099, "rental_uris": {"android": "https://dc.lft.to/lastmile_qr_scan", "ios": "https://dc.lft.to/lastmile_qr_scan"}, "is_reserved": 0, "bike_id": "dfd1e66c11e487c03211b05f17386807", "name": "dfd1e66c11e487c03211b05f17386807"}, {"lat": 38.9062835, "fusion_lon": 0.0, "fusion_lat": 0.0, "is_disabled": 0, "type": "electric_scooter", "lon": -77.03449166666667, "rental_uris": {"android": "https://dc.lft.to/lastmile_qr_scan", "ios": "https://dc.lft.to/lastmile_qr_scan"}, "is_reserved": 0, "bike_id": "874993e96bbbaccb00b485fe6e952d0b", "name": "874993e96bbbaccb00b485fe6e952d0b"}, {"lat": 38.92066666666667, "fusion_lon": 0.0, "fusion_lat": 0.0, "is_disabled": 0, "type": "electric_scooter", "lon": -77.03819733333333, "rental_uris": {"android": "https://dc.lft.to/lastmile_qr_scan", "ios": "https://dc.lft.to/lastmile_qr_scan"}, "is_reserved": 0, "bike_id": "93eed71a34f469dcabd9b6d4270a3fc6", "name": "93eed71a34f469dcabd9b6d4270a3fc6"}, {"lat": 38.952002, "fusion_lon": 0.0, "fusion_lat": 0.0, "is_disabled": 0, "type": "electric_scooter", "lon": -77.02788133333334, "rental_uris": {"android": "https://dc.lft.to/lastmile_qr_scan", "ios": "https://dc.lft.to/lastmile_qr_scan"}, "is_reserved": 0, "bike_id": "f1d062000650605ca36668d96fdaf4f5", "name": "f1d062000650605ca36668d96fdaf4f5"}, {"lat": 38.938619333333335, "fusion_lon": 0.0, "fusion_lat": 0.0, "is_disabled": 0, "type": "electric_scooter", "lon": -77.02457966666667, "rental_uris": {"android": "https://dc.lft.to/lastmile_qr_scan", "ios": "https://dc.lft.to/lastmile_qr_scan"}, "is_reserved": 0, "bike_id": "195507a3ec519f9b430733e6082b2c77", "name": "195507a3ec519f9b430733e6082b2c77"}, {"lat": 38.911447333333335, "fusion_lon": 0.0, "fusion_lat": 0.0, "is_disabled": 0, "type": "electric_scooter", "lon": -77.04833466666666, "rental_uris": {"android": "https://dc.lft.to/lastmile_qr_scan", "ios": "https://dc.lft.to/lastmile_qr_scan"}, "is_reserved": 0, "bike_id": "f68f53f111e594d7c4fd2f579cc1edec", "name": "f68f53f111e594d7c4fd2f579cc1edec"}, {"lat": 38.873514166666666, "fusion_lon": 0.0, "fusion_lat": 0.0, "is_disabled": 0, "type": "electric_scooter", "lon": -77.0087745, "rental_uris": {"android": "https://dc.lft.to/lastmile_qr_scan", "ios": "https://dc.lft.to/lastmile_qr_scan"}, "is_reserved": 0, "bike_id": "6cb81e12ff0c5aa9fbda9d286453ddd8", "name": "6cb81e12ff0c5aa9fbda9d286453ddd8"}, {"lat": 38.89641816666666, "fusion_lon": 0.0, "fusion_lat": 0.0, "is_disabled": 0, "type": "electric_scooter", "lon": -77.01196366666667, "rental_uris": {"android": "https://dc.lft.to/lastmile_qr_scan", "ios": "https://dc.lft.to/lastmile_qr_scan"}, "is_reserved": 0, "bike_id": "dbabac1e42e873284c38cf27f88a3d25", "name": "dbabac1e42e873284c38cf27f88a3d25"}, {"lat": 38.905239333333334, "fusion_lon": 0.0, "fusion_lat": 0.0, "is_disabled": 0, "type": "electric_scooter", "lon": -77.06143683333333, "rental_uris": {"android": "https://dc.lft.to/lastmile_qr_scan", "ios": "https://dc.lft.to/lastmile_qr_scan"}, "is_reserved": 0, "bike_id": "8725eac4b80083756dcf67abfedec1eb", "name": "8725eac4b80083756dcf67abfedec1eb"}, {"lat": 38.892205833333335, "fusion_lon": 0.0, "fusion_lat": 0.0, "is_disabled": 0, "type": "electric_scooter", "lon": -77.0272005, "rental_uris": {"android": "https://dc.lft.to/lastmile_qr_scan", "ios": "https://dc.lft.to/lastmile_qr_scan"}, "is_reserved": 0, "bike_id": "48e552e21dbd23c343f69894464b033e", "name": "48e552e21dbd23c343f69894464b033e"}, {"lat": 38.92411533333333, "fusion_lon": 0.0, "fusion_lat": 0.0, "is_disabled": 0, "type": "electric_scooter", "lon": -77.04035433333334, "rental_uris": {"android": "https://dc.lft.to/lastmile_qr_scan", "ios": "https://dc.lft.to/lastmile_qr_scan"}, "is_reserved": 0, "bike_id": "e7686cc7bc6082f233cbc1ba57bd721f", "name": "e7686cc7bc6082f233cbc1ba57bd721f"}, {"lat": 38.93065133333333, "fusion_lon": 0.0, "fusion_lat": 0.0, "is_disabled": 0, "type": "electric_scooter", "lon": -77.02807616666666, "rental_uris": {"android": "https://dc.lft.to/lastmile_qr_scan", "ios": "https://dc.lft.to/lastmile_qr_scan"}, "is_reserved": 0, "bike_id": "0e9df64b8515b24c9e4e2cff24fd86f8", "name": "0e9df64b8515b24c9e4e2cff24fd86f8"}, {"lat": 38.890819, "fusion_lon": 0.0, "fusion_lat": 0.0, "is_disabled": 0, "type": "electric_scooter", "lon": -76.91916033333334, "rental_uris": {"android": "https://dc.lft.to/lastmile_qr_scan", "ios": "https://dc.lft.to/lastmile_qr_scan"}, "is_reserved": 0, "bike_id": "4d35f4ba19b27ec47780114aa9a15c91", "name": "4d35f4ba19b27ec47780114aa9a15c91"}, {"lat": 38.900808, "fusion_lon": 0.0, "fusion_lat": 0.0, "is_disabled": 0, "type": "electric_scooter", "lon": -77.04840633333333, "rental_uris": {"android": "https://dc.lft.to/lastmile_qr_scan", "ios": "https://dc.lft.to/lastmile_qr_scan"}, "is_reserved": 0, "bike_id": "be0828afdd696d58145935e0ceec0992", "name": "be0828afdd696d58145935e0ceec0992"}, {"lat": 38.8922685, "fusion_lon": 0.0, "fusion_lat": 0.0, "is_disabled": 0, "type": "electric_scooter", "lon": -77.02770866666667, "rental_uris": {"android": "https://dc.lft.to/lastmile_qr_scan", "ios": "https://dc.lft.to/lastmile_qr_scan"}, "is_reserved": 0, "bike_id": "cb682311e73f927ae824eb09070fb99b", "name": "cb682311e73f927ae824eb09070fb99b"}, {"lat": 38.93063466666667, "fusion_lon": 0.0, "fusion_lat": 0.0, "is_disabled": 0, "type": "electric_scooter", "lon": -77.02806983333333, "rental_uris": {"android": "https://dc.lft.to/lastmile_qr_scan", "ios": "https://dc.lft.to/lastmile_qr_scan"}, "is_reserved": 0, "bike_id": "89a079cf31abb8660cfb050e9c121011", "name": "89a079cf31abb8660cfb050e9c121011"}, {"lat": 38.91405, "fusion_lon": 0.0, "fusion_lat": 0.0, "is_disabled": 0, "type": "electric_scooter", "lon": -77.04180316666667, "rental_uris": {"android": "https://dc.lft.to/lastmile_qr_scan", "ios": "https://dc.lft.to/lastmile_qr_scan"}, "is_reserved": 0, "bike_id": "a920003da5f9e7f8fce27ed25c8be413", "name": "a920003da5f9e7f8fce27ed25c8be413"}, {"lat": 38.87665466666667, "fusion_lon": 0.0, "fusion_lat": 0.0, "is_disabled": 0, "type": "electric_scooter", "lon": -77.0119845, "rental_uris": {"android": "https://dc.lft.to/lastmile_qr_scan", "ios": "https://dc.lft.to/lastmile_qr_scan"}, "is_reserved": 0, "bike_id": "c558d257699ae411975c2a6c4b230edd", "name": "c558d257699ae411975c2a6c4b230edd"}, {"lat": 38.91699366666667, "fusion_lon": 0.0, "fusion_lat": 0.0, "is_disabled": 0, "type": "electric_scooter", "lon": -77.031925, "rental_uris": {"android": "https://dc.lft.to/lastmile_qr_scan", "ios": "https://dc.lft.to/lastmile_qr_scan"}, "is_reserved": 0, "bike_id": "664a0d09c7ae04bcb3eb3be479da890b", "name": "664a0d09c7ae04bcb3eb3be479da890b"}, {"lat": 38.935791, "fusion_lon": 0.0, "fusion_lat": 0.0, "is_disabled": 0, "type": "electric_scooter", "lon": -77.032564, "rental_uris": {"android": "https://dc.lft.to/lastmile_qr_scan", "ios": "https://dc.lft.to/lastmile_qr_scan"}, "is_reserved": 0, "bike_id": "b0b7d5cbeee0bc6fae87806c7711fae7", "name": "b0b7d5cbeee0bc6fae87806c7711fae7"}, {"lat": 38.90343566666667, "fusion_lon": 0.0, "fusion_lat": 0.0, "is_disabled": 0, "type": "electric_scooter", "lon": -76.988538, "rental_uris": {"android": "https://dc.lft.to/lastmile_qr_scan", "ios": "https://dc.lft.to/lastmile_qr_scan"}, "is_reserved": 0, "bike_id": "86881a6f868caad64ac3eb75230cd710", "name": "86881a6f868caad64ac3eb75230cd710"}, {"lat": 38.89607866666667, "fusion_lon": 0.0, "fusion_lat": 0.0, "is_disabled": 0, "type": "electric_scooter", "lon": -76.97822083333334, "rental_uris": {"android": "https://dc.lft.to/lastmile_qr_scan", "ios": "https://dc.lft.to/lastmile_qr_scan"}, "is_reserved": 0, "bike_id": "134357a562783a07433711ef4c46867b", "name": "134357a562783a07433711ef4c46867b"}, {"lat": 38.91627483333333, "fusion_lon": 0.0, "fusion_lat": 0.0, "is_disabled": 0, "type": "electric_scooter", "lon": -77.03977016666667, "rental_uris": {"android": "https://dc.lft.to/lastmile_qr_scan", "ios": "https://dc.lft.to/lastmile_qr_scan"}, "is_reserved": 0, "bike_id": "381fa05fab840050d6ef297bd7c0440f", "name": "381fa05fab840050d6ef297bd7c0440f"}, {"lat": 38.900554666666665, "fusion_lon": 0.0, "fusion_lat": 0.0, "is_disabled": 0, "type": "electric_scooter", "lon": -76.99369266666666, "rental_uris": {"android": "https://dc.lft.to/lastmile_qr_scan", "ios": "https://dc.lft.to/lastmile_qr_scan"}, "is_reserved": 0, "bike_id": "7765d8c4ffb08f9186caa130cb7e6277", "name": "7765d8c4ffb08f9186caa130cb7e6277"}, {"lat": 38.921512666666665, "fusion_lon": 0.0, "fusion_lat": 0.0, "is_disabled": 0, "type": "electric_scooter", "lon": -77.038691, "rental_uris": {"android": "https://dc.lft.to/lastmile_qr_scan", "ios": "https://dc.lft.to/lastmile_qr_scan"}, "is_reserved": 0, "bike_id": "925caa9add79d86eab4e8daa3f230d2a", "name": "925caa9add79d86eab4e8daa3f230d2a"}, {"lat": 38.902701666666665, "fusion_lon": 0.0, "fusion_lat": 0.0, "is_disabled": 0, "type": "electric_scooter", "lon": -77.03266433333333, "rental_uris": {"android": "https://dc.lft.to/lastmile_qr_scan", "ios": "https://dc.lft.to/lastmile_qr_scan"}, "is_reserved": 0, "bike_id": "2e312121bd24ac0c19c4c389fb365250", "name": "2e312121bd24ac0c19c4c389fb365250"}, {"lat": 38.955347, "fusion_lon": 0.0, "fusion_lat": 0.0, "is_disabled": 0, "type": "electric_bike", "lon": -77.02383516666667, "rental_uris": {"android": "https://dc.lft.to/lastmile_qr_scan", "ios": "https://dc.lft.to/lastmile_qr_scan"}, "is_reserved": 0, "bike_id": "b4c9496abfad55a6418ad502575e4e88", "name": "b4c9496abfad55a6418ad502575e4e88"}, {"lat": 38.93324116666667, "fusion_lon": 0.0, "fusion_lat": 0.0, "is_disabled": 0, "type": "electric_scooter", "lon": -77.03788966666667, "rental_uris": {"android": "https://dc.lft.to/lastmile_qr_scan", "ios": "https://dc.lft.to/lastmile_qr_scan"}, "is_reserved": 0, "bike_id": "f517b56002c8f7a5ae6612997862b3bb", "name": "f517b56002c8f7a5ae6612997862b3bb"}, {"lat": 38.8831595, "fusion_lon": 0.0, "fusion_lat": 0.0, "is_disabled": 0, "type": "electric_scooter", "lon": -76.98768166666666, "rental_uris": {"android": "https://dc.lft.to/lastmile_qr_scan", "ios": "https://dc.lft.to/lastmile_qr_scan"}, "is_reserved": 0, "bike_id": "5bd6c2761b7e984cdfaf314617aead58", "name": "5bd6c2761b7e984cdfaf314617aead58"}, {"lat": 38.90428933333333, "fusion_lon": 0.0, "fusion_lat": 0.0, "is_disabled": 0, "type": "electric_scooter", "lon": -77.02878466666667, "rental_uris": {"android": "https://dc.lft.to/lastmile_qr_scan", "ios": "https://dc.lft.to/lastmile_qr_scan"}, "is_reserved": 0, "bike_id": "c3d3ce0c05c8ceaca6bdfbdbfcadd5cf", "name": "c3d3ce0c05c8ceaca6bdfbdbfcadd5cf"}, {"lat": 38.90309366666666, "fusion_lon": 0.0, "fusion_lat": 0.0, "is_disabled": 0, "type": "electric_scooter", "lon": -77.048811, "rental_uris": {"android": "https://dc.lft.to/lastmile_qr_scan", "ios": "https://dc.lft.to/lastmile_qr_scan"}, "is_reserved": 0, "bike_id": "a23db7c06e030835102c721e42121033", "name": "a23db7c06e030835102c721e42121033"}, {"lat": 38.92510033333333, "fusion_lon": 0.0, "fusion_lat": 0.0, "is_disabled": 0, "type": "electric_scooter", "lon": -77.02571933333333, "rental_uris": {"android": "https://dc.lft.to/lastmile_qr_scan", "ios": "https://dc.lft.to/lastmile_qr_scan"}, "is_reserved": 0, "bike_id": "dae747f89ee70db08ccfec5f063e0c37", "name": "dae747f89ee70db08ccfec5f063e0c37"}, {"lat": 38.923537833333334, "fusion_lon": 0.0, "fusion_lat": 0.0, "is_disabled": 0, "type": "electric_scooter", "lon": -77.04152483333333, "rental_uris": {"android": "https://dc.lft.to/lastmile_qr_scan", "ios": "https://dc.lft.to/lastmile_qr_scan"}, "is_reserved": 0, "bike_id": "07ad882e9da31d8d8da75f2de43ff3f4", "name": "07ad882e9da31d8d8da75f2de43ff3f4"}, {"lat": 38.9285905, "fusion_lon": 0.0, "fusion_lat": 0.0, "is_disabled": 0, "type": "electric_scooter", "lon": -77.01398283333333, "rental_uris": {"android": "https://dc.lft.to/lastmile_qr_scan", "ios": "https://dc.lft.to/lastmile_qr_scan"}, "is_reserved": 0, "bike_id": "11934fead9cbcb3c46ab1983632645b7", "name": "11934fead9cbcb3c46ab1983632645b7"}, {"lat": 38.935919, "fusion_lon": 0.0, "fusion_lat": 0.0, "is_disabled": 0, "type": "electric_scooter", "lon": -77.03367766666666, "rental_uris": {"android": "https://dc.lft.to/lastmile_qr_scan", "ios": "https://dc.lft.to/lastmile_qr_scan"}, "is_reserved": 0, "bike_id": "b272f30e4e111da39fdd95abe7aed8e0", "name": "b272f30e4e111da39fdd95abe7aed8e0"}, {"lat": 38.895086, "fusion_lon": 0.0, "fusion_lat": 0.0, "is_disabled": 0, "type": "electric_scooter", "lon": -77.04675633333333, "rental_uris": {"android": "https://dc.lft.to/lastmile_qr_scan", "ios": "https://dc.lft.to/lastmile_qr_scan"}, "is_reserved": 0, "bike_id": "3f4710bfc43706c9a56d2dbbb9bf1c78", "name": "3f4710bfc43706c9a56d2dbbb9bf1c78"}, {"lat": 38.95130966666667, "fusion_lon": 0.0, "fusion_lat": 0.0, "is_disabled": 0, "type": "electric_scooter", "lon": -77.0272625, "rental_uris": {"android": "https://dc.lft.to/lastmile_qr_scan", "ios": "https://dc.lft.to/lastmile_qr_scan"}, "is_reserved": 0, "bike_id": "f7a18f13074350b495f37722859984b2", "name": "f7a18f13074350b495f37722859984b2"}, {"lat": 38.896193, "fusion_lon": 0.0, "fusion_lat": 0.0, "is_disabled": 0, "type": "electric_scooter", "lon": -76.99932683333333, "rental_uris": {"android": "https://dc.lft.to/lastmile_qr_scan", "ios": "https://dc.lft.to/lastmile_qr_scan"}, "is_reserved": 0, "bike_id": "808dbddee17f8ddb5a3bad12549e9f80", "name": "808dbddee17f8ddb5a3bad12549e9f80"}, {"lat": 38.901196666666664, "fusion_lon": 0.0, "fusion_lat": 0.0, "is_disabled": 0, "type": "electric_scooter", "lon": -77.0473335, "rental_uris": {"android": "https://dc.lft.to/lastmile_qr_scan", "ios": "https://dc.lft.to/lastmile_qr_scan"}, "is_reserved": 0, "bike_id": "c691c38f541f5708786807a3b26febf4", "name": "c691c38f541f5708786807a3b26febf4"}, {"lat": 38.9130735, "fusion_lon": 0.0, "fusion_lat": 0.0, "is_disabled": 0, "type": "electric_scooter", "lon": -77.04008833333333, "rental_uris": {"android": "https://dc.lft.to/lastmile_qr_scan", "ios": "https://dc.lft.to/lastmile_qr_scan"}, "is_reserved": 0, "bike_id": "ad0df36a12ce849c6b92de2455ea4027", "name": "ad0df36a12ce849c6b92de2455ea4027"}, {"lat": 38.89159083333333, "fusion_lon": 0.0, "fusion_lat": 0.0, "is_disabled": 0, "type": "electric_scooter", "lon": -76.954105, "rental_uris": {"android": "https://dc.lft.to/lastmile_qr_scan", "ios": "https://dc.lft.to/lastmile_qr_scan"}, "is_reserved": 0, "bike_id": "02064482cd2e9387c98ef15e27dfa6a2", "name": "02064482cd2e9387c98ef15e27dfa6a2"}, {"lat": 38.91660533333334, "fusion_lon": 0.0, "fusion_lat": 0.0, "is_disabled": 0, "type": "electric_scooter", "lon": -77.038572, "rental_uris": {"android": "https://dc.lft.to/lastmile_qr_scan", "ios": "https://dc.lft.to/lastmile_qr_scan"}, "is_reserved": 0, "bike_id": "031180702ed92b4225dc4daf74ec3a6b", "name": "031180702ed92b4225dc4daf74ec3a6b"}, {"lat": 38.8973475, "fusion_lon": 0.0, "fusion_lat": 0.0, "is_disabled": 0, "type": "electric_bike", "lon": -77.122708, "rental_uris": {"android": "https://dc.lft.to/lastmile_qr_scan", "ios": "https://dc.lft.to/lastmile_qr_scan"}, "is_reserved": 0, "bike_id": "7b8fb2284a392ee6cc7b622e87fd7979", "name": "7b8fb2284a392ee6cc7b622e87fd7979"}, {"lat": 38.911050333333336, "fusion_lon": 0.0, "fusion_lat": 0.0, "is_disabled": 0, "type": "electric_scooter", "lon": -77.07347783333333, "rental_uris": {"android": "https://dc.lft.to/lastmile_qr_scan", "ios": "https://dc.lft.to/lastmile_qr_scan"}, "is_reserved": 0, "bike_id": "6cfd318439bff9cfa91426257b5548ec", "name": "6cfd318439bff9cfa91426257b5548ec"}, {"lat": 38.90075983333333, "fusion_lon": 0.0, "fusion_lat": 0.0, "is_disabled": 0, "type": "electric_bike", "lon": -77.05053666666667, "rental_uris": {"android": "https://dc.lft.to/lastmile_qr_scan", "ios": "https://dc.lft.to/lastmile_qr_scan"}, "is_reserved": 0, "bike_id": "2065fc8fbfb96681515e36de8cb85242", "name": "2065fc8fbfb96681515e36de8cb85242"}, {"lat": 38.9015535, "fusion_lon": 0.0, "fusion_lat": 0.0, "is_disabled": 0, "type": "electric_scooter", "lon": -77.033076, "rental_uris": {"android": "https://dc.lft.to/lastmile_qr_scan", "ios": "https://dc.lft.to/lastmile_qr_scan"}, "is_reserved": 0, "bike_id": "55d0c9360c11520dd2f2c89a2c7f73b5", "name": "55d0c9360c11520dd2f2c89a2c7f73b5"}, {"lat": 38.868604833333336, "fusion_lon": 0.0, "fusion_lat": 0.0, "is_disabled": 0, "type": "electric_bike", "lon": -76.91655716666666, "rental_uris": {"android": "https://dc.lft.to/lastmile_qr_scan", "ios": "https://dc.lft.to/lastmile_qr_scan"}, "is_reserved": 0, "bike_id": "a56812ecea6a6d5901cc5d248c92323b", "name": "a56812ecea6a6d5901cc5d248c92323b"}, {"lat": 38.903969333333336, "fusion_lon": 0.0, "fusion_lat": 0.0, "is_disabled": 0, "type": "electric_scooter", "lon": -77.04386583333333, "rental_uris": {"android": "https://dc.lft.to/lastmile_qr_scan", "ios": "https://dc.lft.to/lastmile_qr_scan"}, "is_reserved": 0, "bike_id": "b442f771bb392555e410981e31b7443f", "name": "b442f771bb392555e410981e31b7443f"}, {"lat": 38.911439, "fusion_lon": 0.0, "fusion_lat": 0.0, "is_disabled": 0, "type": "electric_scooter", "lon": -77.02805966666666, "rental_uris": {"android": "https://dc.lft.to/lastmile_qr_scan", "ios": "https://dc.lft.to/lastmile_qr_scan"}, "is_reserved": 0, "bike_id": "2f2615d277112963e3c8dca2e131ad18", "name": "2f2615d277112963e3c8dca2e131ad18"}, {"lat": 38.9037455, "fusion_lon": 0.0, "fusion_lat": 0.0, "is_disabled": 0, "type": "electric_scooter", "lon": -77.03339016666666, "rental_uris": {"android": "https://dc.lft.to/lastmile_qr_scan", "ios": "https://dc.lft.to/lastmile_qr_scan"}, "is_reserved": 0, "bike_id": "ef5034a0e22159cb53c8bdae9fac2c50", "name": "ef5034a0e22159cb53c8bdae9fac2c50"}, {"lat": 38.93255416666667, "fusion_lon": 0.0, "fusion_lat": 0.0, "is_disabled": 0, "type": "electric_scooter", "lon": -77.03284966666666, "rental_uris": {"android": "https://dc.lft.to/lastmile_qr_scan", "ios": "https://dc.lft.to/lastmile_qr_scan"}, "is_reserved": 0, "bike_id": "51cb8df0a8c199d1c415543318baaa08", "name": "51cb8df0a8c199d1c415543318baaa08"}, {"lat": 38.90759666666667, "fusion_lon": 0.0, "fusion_lat": 0.0, "is_disabled": 0, "type": "electric_scooter", "lon": -77.0386545, "rental_uris": {"android": "https://dc.lft.to/lastmile_qr_scan", "ios": "https://dc.lft.to/lastmile_qr_scan"}, "is_reserved": 0, "bike_id": "00b5229d3c69f7c1cd0e646174c0e160", "name": "00b5229d3c69f7c1cd0e646174c0e160"}, {"lat": 38.90305566666667, "fusion_lon": 0.0, "fusion_lat": 0.0, "is_disabled": 0, "type": "electric_scooter", "lon": -77.04336433333333, "rental_uris": {"android": "https://dc.lft.to/lastmile_qr_scan", "ios": "https://dc.lft.to/lastmile_qr_scan"}, "is_reserved": 0, "bike_id": "2144a503be62935080510b18beca7bbd", "name": "2144a503be62935080510b18beca7bbd"}, {"lat": 38.85068483333333, "fusion_lon": 0.0, "fusion_lat": 0.0, "is_disabled": 0, "type": "electric_bike", "lon": -76.97332066666667, "rental_uris": {"android": "https://dc.lft.to/lastmile_qr_scan", "ios": "https://dc.lft.to/lastmile_qr_scan"}, "is_reserved": 0, "bike_id": "c102ac55ec5fec61f7ac435a2dae07e7", "name": "c102ac55ec5fec61f7ac435a2dae07e7"}, {"lat": 38.906073666666664, "fusion_lon": 0.0, "fusion_lat": 0.0, "is_disabled": 0, "type": "electric_scooter", "lon": -77.03951383333333, "rental_uris": {"android": "https://dc.lft.to/lastmile_qr_scan", "ios": "https://dc.lft.to/lastmile_qr_scan"}, "is_reserved": 0, "bike_id": "f09aa66da643b49b1d88b9b44dc8a212", "name": "f09aa66da643b49b1d88b9b44dc8a212"}, {"lat": 38.92872966666667, "fusion_lon": 0.0, "fusion_lat": 0.0, "is_disabled": 0, "type": "electric_scooter", "lon": -77.03444766666667, "rental_uris": {"android": "https://dc.lft.to/lastmile_qr_scan", "ios": "https://dc.lft.to/lastmile_qr_scan"}, "is_reserved": 0, "bike_id": "5f63d690b747e5b0018b5152484b8f2e", "name": "5f63d690b747e5b0018b5152484b8f2e"}, {"lat": 38.90837583333333, "fusion_lon": 0.0, "fusion_lat": 0.0, "is_disabled": 0, "type": "electric_scooter", "lon": -77.04667016666667, "rental_uris": {"android": "https://dc.lft.to/lastmile_qr_scan", "ios": "https://dc.lft.to/lastmile_qr_scan"}, "is_reserved": 0, "bike_id": "12621b913d4947ed61388c9483d5b508", "name": "12621b913d4947ed61388c9483d5b508"}, {"lat": 38.918819166666665, "fusion_lon": 0.0, "fusion_lat": 0.0, "is_disabled": 0, "type": "electric_scooter", "lon": -77.03766683333333, "rental_uris": {"android": "https://dc.lft.to/lastmile_qr_scan", "ios": "https://dc.lft.to/lastmile_qr_scan"}, "is_reserved": 0, "bike_id": "5c8a526b92ff8b3883c4c70726a412b5", "name": "5c8a526b92ff8b3883c4c70726a412b5"}, {"lat": 38.9420305, "fusion_lon": 0.0, "fusion_lat": 0.0, "is_disabled": 0, "type": "electric_scooter", "lon": -77.025014, "rental_uris": {"android": "https://dc.lft.to/lastmile_qr_scan", "ios": "https://dc.lft.to/lastmile_qr_scan"}, "is_reserved": 0, "bike_id": "e678689f204f29cdaf87756fed3cd07e", "name": "e678689f204f29cdaf87756fed3cd07e"}, {"lat": 38.89607633333333, "fusion_lon": 0.0, "fusion_lat": 0.0, "is_disabled": 0, "type": "electric_scooter", "lon": -77.04716733333333, "rental_uris": {"android": "https://dc.lft.to/lastmile_qr_scan", "ios": "https://dc.lft.to/lastmile_qr_scan"}, "is_reserved": 0, "bike_id": "4a05efb49c636825e21b6dedb6a985ce", "name": "4a05efb49c636825e21b6dedb6a985ce"}, {"lat": 38.903430166666666, "fusion_lon": 0.0, "fusion_lat": 0.0, "is_disabled": 0, "type": "electric_scooter", "lon": -77.04656116666666, "rental_uris": {"android": "https://dc.lft.to/lastmile_qr_scan", "ios": "https://dc.lft.to/lastmile_qr_scan"}, "is_reserved": 0, "bike_id": "65944e831f22fc98bd6911791bb7066b", "name": "65944e831f22fc98bd6911791bb7066b"}, {"lat": 38.897253666666664, "fusion_lon": 0.0, "fusion_lat": 0.0, "is_disabled": 0, "type": "electric_scooter", "lon": -77.02699, "rental_uris": {"android": "https://dc.lft.to/lastmile_qr_scan", "ios": "https://dc.lft.to/lastmile_qr_scan"}, "is_reserved": 0, "bike_id": "5dbefa4edc9df76b85d5ddb781414b1d", "name": "5dbefa4edc9df76b85d5ddb781414b1d"},