{"data": {"bikes": [{"fusion_lat": 0.0, "type": "electric_scooter", "name": "a62990914ac0c00ecda4302171c29815", "fusion_lon": 0.0, "bike_id": "a62990914ac0c00ecda4302171c29815", "is_reserved": 0, "rental_uris": {"android": "https://dc.lft.to/lastmile_qr_scan", "ios": "https://dc.lft.to/lastmile_qr_scan"}, "lat": 38.929891, "is_disabled": 0, "lon": -77.0347045}, {"fusion_lat": 0.0, "type": "electric_bike", "name": "41eeff84965082d00be292d3e413e1b6", "fusion_lon": 0.0, "bike_id": "41eeff84965082d00be292d3e413e1b6", "is_reserved": 0, "rental_uris": {"android": "https://dc.lft.to/lastmile_qr_scan", "ios": "https://dc.lft.to/lastmile_qr_scan"}, "lat": 38.879818, "is_disabled": 0, "lon": -76.98478483333334}, {"fusion_lat": 0.0, "type": "electric_scooter", "name": "e6323010e40aaa071db7a0978867824a", "fusion_lon": 0.0, "bike_id": "e6323010e40aaa071db7a0978867824a", "is_reserved": 0, "rental_uris": {"android": "https://dc.lft.to/lastmile_qr_scan", "ios": "https://dc.lft.to/lastmile_qr_scan"}, "lat": 38.9285615, "is_disabled": 0, "lon": -77.03278133333333}, {"fusion_lat": 0.0, "type": "electric_scooter", "name": "55918d7701fefae1f541fc4d8463b11e", "fusion_lon": 0.0, "bike_id": "55918d7701fefae1f541fc4d8463b11e", "is_reserved": 0, "rental_uris": {"android": "https://dc.lft.to/lastmile_qr_scan", "ios": "https://dc.lft.to/lastmile_qr_scan"}, "lat": 38.88990416666667, "is_disabled": 0, "lon": -76.98331933333333}, {"fusion_lat": 0.0, "type": "electric_scooter", "name": "f890538ea857c1c6813e85151ec8ca6e", "fusion_lon": 0.0, "bike_id": "f890538ea857c1c6813e85151ec8ca6e", "is_reserved": 0, "rental_uris": {"android": "https://dc.lft.to/lastmile_qr_scan", "ios": "https://dc.lft.to/lastmile_qr_scan"}, "lat": 38.920617666666665, "is_disabled": 0, "lon": -77.004942}, {"fusion_lat": 0.0, "type": "electric_scooter", "name": "744a61b7f2846b3a9bedbb9549990e19", "fusion_lon": 0.0, "bike_id": "744a61b7f2846b3a9bedbb9549990e19", "is_reserved": 0, "rental_uris": {"android": "https://dc.lft.to/lastmile_qr_scan", "ios": "https://dc.lft.to/lastmile_qr_scan"}, "lat": 38.913282833333334, "is_disabled": 0, "lon": -77.04535516666667}, {"fusion_lat": 0.0, "type": "electric_scooter", "name": "4608adde768dd89f413b8d80ed138b91", "fusion_lon": 0.0, "bike_id": "4608adde768dd89f413b8d80ed138b91", "is_reserved": 0, "rental_uris": {"android": "https://dc.lft.to/lastmile_qr_scan", "ios": "https://dc.lft.to/lastmile_qr_scan"}, "lat": 38.928230666666664, "is_disabled": 0, "lon": -77.05522966666666}, {"fusion_lat": 0.0, "type": "electric_scooter", "name": "4aad114f751be1f52faea473ff2a23c4", "fusion_lon": 0.0, "bike_id": "4aad114f751be1f52faea473ff2a23c4", "is_reserved": 0, "rental_uris": {"android": "https://dc.lft.to/lastmile_qr_scan", "ios": "https://dc.lft.to/lastmile_qr_scan"}, "lat": 38.927162833333334, "is_disabled": 0, "lon": -77.04133566666667}, {"fusion_lat": 0.0, "type": "electric_scooter", "name": "4ef5d886299d97e123fa62222645cc91", "fusion_lon": 0.0, "bike_id": "4ef5d886299d97e123fa62222645cc91", "is_reserved": 0, "rental_uris": {"android": "https://dc.lft.to/lastmile_qr_scan", "ios": "https://dc.lft.to/lastmile_qr_scan"}, "lat": 38.900201833333334, "is_disabled": 0, "lon": -77.04506816666667}, {"fusion_lat": 0.0, "type": "electric_scooter", "name": "2980f82a8c1e0f76ccda5a6008231e07", "fusion_lon": 0.0, "bike_id": "2980f82a8c1e0f76ccda5a6008231e07", "is_reserved": 0, "rental_uris": {"android": "https://dc.lft.to/lastmile_qr_scan", "ios": "https://dc.lft.to/lastmile_qr_scan"}, "lat": 38.95232716666666, "is_disabled": 0, "lon": -77.014293}, {"fusion_lat": 0.0, "type": "electric_scooter", "name": "022a1a72d0c9166bb087383eef65bdb3", "fusion_lon": 0.0, "bike_id": "022a1a72d0c9166bb087383eef65bdb3", "is_reserved": 0, "rental_uris": {"android": "https://dc.lft.to/lastmile_qr_scan", "ios": "https://dc.lft.to/lastmile_qr_scan"}, "lat": 38.93090216666667, "is_disabled": 0, "lon": -77.00412216666666}, {"fusion_lat": 0.0, "type": "electric_scooter", "name": "d322aa94594298caad082530404fcf42", "fusion_lon": 0.0, "bike_id": "d322aa94594298caad082530404fcf42", "is_reserved": 0, "rental_uris": {"android": "https://dc.lft.to/lastmile_qr_scan", "ios": "https://dc.lft.to/lastmile_qr_scan"}, "lat": 38.885865833333334, "is_disabled": 0, "lon": -77.01762}, {"fusion_lat": 0.0, "type": "electric_scooter", "name": "a86c2b52027aeac92da24851bf581aab", "fusion_lon": 0.0, "bike_id": "a86c2b52027aeac92da24851bf581aab", "is_reserved": 0, "rental_uris": {"android": "https://dc.lft.to/lastmile_qr_scan", "ios": "https://dc.lft.to/lastmile_qr_scan"}, "lat": 38.9584565, "is_disabled": 0, "lon": -77.06852616666667}, {"fusion_lat": 0.0, "type": "electric_scooter", "name": "c714e2401af6fc33860f66f35614b3ac", "fusion_lon": 0.0, "bike_id": "c714e2401af6fc33860f66f35614b3ac", "is_reserved": 0, "rental_uris": {"android": "https://dc.lft.to/lastmile_qr_scan", "ios": "https://dc.lft.to/lastmile_qr_scan"}, "lat": 38.90679633333333, "is_disabled": 0, "lon": -77.00580666666667}, {"fusion_lat": 0.0, "type": "electric_scooter", "name": "6f7668fcb6ac37238ce1b75f4e0b036c", "fusion_lon": 0.0, "bike_id": "6f7668fcb6ac37238ce1b75f4e0b036c", "is_reserved": 0, "rental_uris": {"android": "https://dc.lft.to/lastmile_qr_scan", "ios": "https://dc.lft.to/lastmile_qr_scan"}, "lat": 38.928625333333336, "is_disabled": 0, "lon": -77.030947}, {"fusion_lat": 0.0, "type": "electric_scooter", "name": "d7e1f744d10598329098c7d7941c1bc5", "fusion_lon": 0.0, "bike_id": "d7e1f744d10598329098c7d7941c1bc5", "is_reserved": 0, "rental_uris": {"android": "https://dc.lft.to/lastmile_qr_scan", "ios": "https://dc.lft.to/lastmile_qr_scan"}, "lat": 38.914762, "is_disabled": 0, "lon": -77.02577133333334}, {"fusion_lat": 0.0, "type": "electric_bike", "name": "2d9c9d7a27e25c46e50ac355743b60bd", "fusion_lon": 0.0, "bike_id": "2d9c9d7a27e25c46e50ac355743b60bd", "is_reserved": 0, "rental_uris": {"android": "https://dc.lft.to/lastmile_qr_scan", "ios": "https://dc.lft.to/lastmile_qr_scan"}, "lat": 38.933979, "is_disabled": 0, "lon": -77.035442}, {"fusion_lat": 0.0, "type": "electric_scooter", "name": "8d6f21225ce9d45030a29b91399d45f7", "fusion_lon": 0.0, "bike_id": "8d6f21225ce9d45030a29b91399d45f7", "is_reserved": 0, "rental_uris": {"android": "https://dc.lft.to/lastmile_qr_scan", "ios": "https://dc.lft.to/lastmile_qr_scan"}, "lat": 38.92492466666667, "is_disabled": 0, "lon": -77.021382}, {"fusion_lat": 0.0, "type": "electric_scooter", "name": "588689b72563ff5849689e9522bbf893", "fusion_lon": 0.0, "bike_id": "588689b72563ff5849689e9522bbf893", "is_reserved": 0, "rental_uris": {"android": "https://dc.lft.to/lastmile_qr_scan", "ios": "https://dc.lft.to/lastmile_qr_scan"}, "lat": 38.907438666666664, "is_disabled": 0, "lon": -77.00137116666667}, {"fusion_lat": 0.0, "type": "electric_scooter", "name": "a3ea37b98c62de3193dd45c468ef4adf", "fusion_lon": 0.0, "bike_id": "a3ea37b98c62de3193dd45c468ef4adf", "is_reserved": 0, "rental_uris": {"android": "https://dc.lft.to/lastmile_qr_scan", "ios": "https://dc.lft.to/lastmile_qr_scan"}, "lat": 38.92028883333333, "is_disabled": 0, "lon": -77.011154}, {"fusion_lat": 0.0, "type": "electric_scooter", "name": "afee13247f59136785cdb7f529508353", "fusion_lon": 0.0, "bike_id": "afee13247f59136785cdb7f529508353", "is_reserved": 0, "rental_uris": {"android": "https://dc.lft.to/lastmile_qr_scan", "ios": "https://dc.lft.to/lastmile_qr_scan"}, "lat": 38.928018333333334, "is_disabled": 0, "lon": -77.02480783333333}, {"fusion_lat": 0.0, "type": "electric_scooter", "name": "d3c44a0da294a50232fe7bbffa787eea", "fusion_lon": 0.0, "bike_id": "d3c44a0da294a50232fe7bbffa787eea", "is_reserved": 0, "rental_uris": {"android": "https://dc.lft.to/lastmile_qr_scan", "ios": "https://dc.lft.to/lastmile_qr_scan"}, "lat": 38.933079666666664, "is_disabled": 0, "lon": -77.0307975}, {"fusion_lat": 0.0, "type": "electric_scooter", "name": "528c1714bd382592a6614aa3dc366e08", "fusion_lon": 0.0, "bike_id": "528c1714bd382592a6614aa3dc366e08", "is_reserved": 0, "rental_uris": {"android": "https://dc.lft.to/lastmile_qr_scan", "ios": "https://dc.lft.to/lastmile_qr_scan"}, "lat": 38.92065133333333, "is_disabled": 0, "lon": -77.0399305}, {"fusion_lat": 0.0, "type": "electric_scooter", "name": "dbc792addc24036b5d601b55016b3149", "fusion_lon": 0.0, "bike_id": "dbc792addc24036b5d601b55016b3149", "is_reserved": 0, "rental_uris": {"android": "https://dc.lft.to/lastmile_qr_scan", "ios": "https://dc.lft.to/lastmile_qr_scan"}, "lat": 38.973690500000004, "is_disabled": 0, "lon": -77.01864433333333}, {"fusion_lat": 0.0, "type": "electric_scooter", "name": "d01fd67c4e182bfc1e7d673e5240ff7d", "fusion_lon": 0.0, "bike_id": "d01fd67c4e182bfc1e7d673e5240ff7d", "is_reserved": 0, "rental_uris": {"android": "https://dc.lft.to/lastmile_qr_scan", "ios": "https://dc.lft.to/lastmile_qr_scan"}, "lat": 38.90112033333333, "is_disabled": 0, "lon": -77.0433855}, {"fusion_lat": 0.0, "type": "electric_scooter", "name": "49d0dae82c5e384f697123bbf189ebdc", "fusion_lon": 0.0, "bike_id": "49d0dae82c5e384f697123bbf189ebdc", "is_reserved": 0, "rental_uris": {"android": "https://dc.lft.to/lastmile_qr_scan", "ios": "https://dc.lft.to/lastmile_qr_scan"}, "lat": 38.933456166666666, "is_disabled": 0, "lon": -77.0571045}, {"fusion_lat": 0.0, "type": "electric_scooter", "name": "a67f33f2d0ba63d570df5fd02b7d4eec", "fusion_lon": 0.0, "bike_id": "a67f33f2d0ba63d570df5fd02b7d4eec", "is_reserved": 0, "rental_uris": {"android": "https://dc.lft.to/lastmile_qr_scan", "ios": "https://dc.lft.to/lastmile_qr_scan"}, "lat": 38.870925166666666, "is_disabled": 0, "lon": -76.9890895}, {"fusion_lat": 0.0, "type": "electric_bike", "name": "de5baae5e04e9fd835347e222c296e31", "fusion_lon": 0.0, "bike_id": "de5baae5e04e9fd835347e222c296e31", "is_reserved": 0, "rental_uris": {"android": "https://dc.lft.to/lastmile_qr_scan", "ios": "https://dc.lft.to/lastmile_qr_scan"}, "lat": 38.93656766666667, "is_disabled": 0, "lon": -77.036908}, {"fusion_lat": 0.0, "type": "electric_bike", "name": "45992b120d6fc1a948b0fc22535bce51", "fusion_lon": 0.0, "bike_id": "45992b120d6fc1a948b0fc22535bce51", "is_reserved": 0, "rental_uris": {"android": "https://dc.lft.to/lastmile_qr_scan", "ios": "https://dc.lft.to/lastmile_qr_scan"}, "lat": 38.878406, "is_disabled": 0, "lon": -76.983758}, {"fusion_lat": 0.0, "type": "electric_scooter", "name": "382ea99041427bfdb0e3cfcdf31a0c51", "fusion_lon": 0.0, "bike_id": "382ea99041427bfdb0e3cfcdf31a0c51", "is_reserved": 0, "rental_uris": {"android": "https://dc.lft.to/lastmile_qr_scan", "ios": "https://dc.lft.to/lastmile_qr_scan"}, "lat": 38.87713466666666, "is_disabled": 0, "lon": -76.99385183333334}, {"fusion_lat": 0.0, "type": "electric_scooter", "name": "6b91100e387f9fcb5323d429552a0477", "fusion_lon": 0.0, "bike_id": "6b91100e387f9fcb5323d429552a0477", "is_reserved": 0, "rental_uris": {"android": "https://dc.lft.to/lastmile_qr_scan", "ios": "https://dc.lft.to/lastmile_qr_scan"}, "lat": 38.8716535, "is_disabled": 0, "lon": -76.977424}, {"fusion_lat": 0.0, "type": "electric_scooter", "name": "fa48b5bbd95b3de072a9b8aac73d802c", "fusion_lon": 0.0, "bike_id": "fa48b5bbd95b3de072a9b8aac73d802c", "is_reserved": 0, "rental_uris": {"android": "https://dc.lft.to/lastmile_qr_scan", "ios": "https://dc.lft.to/lastmile_qr_scan"}, "lat": 38.931022166666665, "is_disabled": 0, "lon": -77.0247795}, {"fusion_lat": 0.0, "type": "electric_scooter", "name": "81c964fbd2a9254e5d6d43af942fefb7", "fusion_lon": 0.0, "bike_id": "81c964fbd2a9254e5d6d43af942fefb7", "is_reserved": 0, "rental_uris": {"android": "https://dc.lft.to/lastmile_qr_scan", "ios": "https://dc.lft.to/lastmile_qr_scan"}, "lat": 38.91710033333333, "is_disabled": 0, "lon": -77.0086675}, {"fusion_lat": 0.0, "type": "electric_scooter", "name": "259ee8d52d2d454440a911d39f1edf3f", "fusion_lon": 0.0, "bike_id": "259ee8d52d2d454440a911d39f1edf3f", "is_reserved": 0, "rental_uris": {"android": "https://dc.lft.to/lastmile_qr_scan", "ios": "https://dc.lft.to/lastmile_qr_scan"}, "lat": 38.955567, "is_disabled": 0, "lon": -77.07003133333333}, {"fusion_lat": 0.0, "type": "electric_scooter", "name": "c238f07b71f91d14b99571ff2c2856c5", "fusion_lon": 0.0, "bike_id": "c238f07b71f91d14b99571ff2c2856c5", "is_reserved": 0, "rental_uris": {"android": "https://dc.lft.to/lastmile_qr_scan", "ios": "https://dc.lft.to/lastmile_qr_scan"}, "lat": 38.913927666666666, "is_disabled": 0, "lon": -77.03325366666667}, {"fusion_lat": 0.0, "type": "electric_scooter", "name": "26fd8853b5ba9c5276791203ea38aca1", "fusion_lon": 0.0, "bike_id": "26fd8853b5ba9c5276791203ea38aca1", "is_reserved": 0, "rental_uris": {"android": "https://dc.lft.to/lastmile_qr_scan", "ios": "https://dc.lft.to/lastmile_qr_scan"}, "lat": 38.9501105, "is_disabled": 0, "lon": -77.06703316666666}, {"fusion_lat": 0.0, "type": "electric_scooter", "name": "2bbbd933940a7858220bbf2ccd3f9eb7", "fusion_lon": 0.0, "bike_id": "2bbbd933940a7858220bbf2ccd3f9eb7", "is_reserved": 0, "rental_uris": {"android": "https://dc.lft.to/lastmile_qr_scan", "ios": "https://dc.lft.to/lastmile_qr_scan"}, "lat": 38.922735, "is_disabled": 0, "lon": -77.036719}, {"fusion_lat": 0.0, "type": "electric_scooter", "name": "7b47bd951cde5092df62e6fc28709163", "fusion_lon": 0.0, "bike_id": "7b47bd951cde5092df62e6fc28709163", "is_reserved": 0, "rental_uris": {"android": "https://dc.lft.to/lastmile_qr_scan", "ios": "https://dc.lft.to/lastmile_qr_scan"}, "lat": 38.933264333333334, "is_disabled": 0, "lon": -77.044044}, {"fusion_lat": 0.0, "type": "electric_scooter", "name": "e13ab12c0df297f3765dde6f4b8824d7", "fusion_lon": 0.0, "bike_id": "e13ab12c0df297f3765dde6f4b8824d7", "is_reserved": 0, "rental_uris": {"android": "https://dc.lft.to/lastmile_qr_scan", "ios": "https://dc.lft.to/lastmile_qr_scan"}, "lat": 38.9163415, "is_disabled": 0, "lon": -77.01079283333333}, {"fusion_lat": 0.0, "type": "electric_scooter", "name": "f5a1da660ae1fcb24b146a5a8c70248e", "fusion_lon": 0.0, "bike_id": "f5a1da660ae1fcb24b146a5a8c70248e", "is_reserved": 0, "rental_uris": {"android": "https://dc.lft.to/lastmile_qr_scan", "ios": "https://dc.lft.to/lastmile_qr_scan"}, "lat": 38.89369, "is_disabled": 0, "lon": -76.94997566666666}, {"fusion_lat": 0.0, "type": "electric_bike", "name": "6d91bde6d66d0e3649bea7c6a548194e", "fusion_lon": 0.0, "bike_id": "6d91bde6d66d0e3649bea7c6a548194e", "is_reserved": 0, "rental_uris": {"android": "https://dc.lft.to/lastmile_qr_scan", "ios": "https://dc.lft.to/lastmile_qr_scan"}, "lat": 38.8674545, "is_disabled": 0, "lon": -77.11708366666667}, {"fusion_lat": 0.0, "type": "electric_scooter", "name": "be9083477c1a00ce30126d9014f53f29", "fusion_lon": 0.0, "bike_id": "be9083477c1a00ce30126d9014f53f29", "is_reserved": 0, "rental_uris": {"android": "https://dc.lft.to/lastmile_qr_scan", "ios": "https://dc.lft.to/lastmile_qr_scan"}, "lat": 38.8884325, "is_disabled": 0, "lon": -77.049039}, {"fusion_lat": 0.0, "type": "electric_scooter", "name": "a146c04624ffd655d60f1be1d54169b8", "fusion_lon": 0.0, "bike_id": "a146c04624ffd655d60f1be1d54169b8", "is_reserved": 0, "rental_uris": {"android": "https://dc.lft.to/lastmile_qr_scan", "ios": "https://dc.lft.to/lastmile_qr_scan"}, "lat": 38.8990025, "is_disabled": 0, "lon": -77.0393145}, {"fusion_lat": 0.0, "type": "electric_scooter", "name": "ff38c587f35202531c5780c0bcec803d", "fusion_lon": 0.0, "bike_id": "ff38c587f35202531c5780c0bcec803d", "is_reserved": 0, "rental_uris": {"android": "https://dc.lft.to/lastmile_qr_scan", "ios": "https://dc.lft.to/lastmile_qr_scan"}, "lat": 38.91783483333333, "is_disabled": 0, "lon": -77.032298}, {"fusion_lat": 0.0, "type": "electric_scooter", "name": "e74ff4617c647d48828c8b0e8eac12f0", "fusion_lon": 0.0, "bike_id": "e74ff4617c647d48828c8b0e8eac12f0", "is_reserved": 0, "rental_uris": {"android": "https://dc.lft.to/lastmile_qr_scan", "ios": "https://dc.lft.to/lastmile_qr_scan"}, "lat": 38.91281816666667, "is_disabled": 0, "lon": -77.03854116666666}, {"fusion_lat": 0.0, "type": "electric_scooter", "name": "61b37bfafff5719dac9f703047489629", "fusion_lon": 0.0, "bike_id": "61b37bfafff5719dac9f703047489629", "is_reserved": 0, "rental_uris": {"android": "https://dc.lft.to/lastmile_qr_scan", "ios": "https://dc.lft.to/lastmile_qr_scan"}, "lat": 38.9273725, "is_disabled": 0, "lon": -77.022649}, {"fusion_lat": 0.0, "type": "electric_scooter", "name": "2b0d27a353288de53da92fe6c6c14760", "fusion_lon": 0.0, "bike_id": "2b0d27a353288de53da92fe6c6c14760", "is_reserved": 0, "rental_uris": {"android": "https://dc.lft.to/lastmile_qr_scan", "ios": "https://dc.lft.to/lastmile_qr_scan"}, "lat": 38.917066, "is_disabled": 0, "lon": -77.03343516666666}, {"fusion_lat": 0.0, "type": "electric_scooter", "name": "9509ceaed24bb5d6e351cc416362264c", "fusion_lon": 0.0, "bike_id": "9509ceaed24bb5d6e351cc416362264c", "is_reserved": 0, "rental_uris": {"android": "https://dc.lft.to/lastmile_qr_scan", "ios": "https://dc.lft.to/lastmile_qr_scan"}, "lat": 38.918106333333334, "is_disabled": 0, "lon": -77.0343715}, {"fusion_lat": 0.0, "type": "electric_scooter", "name": "7ea84dbecb297b1197d043f5e0489722", "fusion_lon": 0.0, "bike_id": "7ea84dbecb297b1197d043f5e0489722", "is_reserved": 0, "rental_uris": {"android": "https://dc.lft.to/lastmile_qr_scan", "ios": "https://dc.lft.to/lastmile_qr_scan"}, "lat": 38.93885066666667, "is_disabled": 0, "lon": -77.02483116666667}, {"fusion_lat": 0.0, "type": "electric_bike", "name": "3e7707664d2fc1a8dcf282f608ebeb5a", "fusion_lon": 0.0, "bike_id": "3e7707664d2fc1a8dcf282f608ebeb5a", "is_reserved": 0, "rental_uris": {"android": "https://dc.lft.to/lastmile_qr_scan", "ios": "https://dc.lft.to/lastmile_qr_scan"}, "lat": 38.829103, "is_disabled": 0, "lon": -76.99779816666667}, {"fusion_lat": 0.0, "type": "electric_scooter", "name": "957dee516ce26cbecb3ada5f31c2e280", "fusion_lon": 0.0, "bike_id": "957dee516ce26cbecb3ada5f31c2e280", "is_reserved": 0, "rental_uris": {"android": "https://dc.lft.to/lastmile_qr_scan", "ios": "https://dc.lft.to/lastmile_qr_scan"}, "lat": 38.90205183333333, "is_disabled": 0, "lon": -76.97855433333334}, {"fusion_lat": 0.0, "type": "electric_scooter", "name": "a780a4f5e555985eb0e4d4794c30299d", "fusion_lon": 0.0, "bike_id": "a780a4f5e555985eb0e4d4794c30299d", "is_reserved": 0, "rental_uris": {"android": "https://dc.lft.to/lastmile_qr_scan", "ios": "https://dc.lft.to/lastmile_qr_scan"}, "lat": 38.934266666666666, "is_disabled": 0, "lon": -77.04406983333334}, {"fusion_lat": 0.0, "type": "electric_scooter", "name": "05ce9eaa1faa8bf108d57ad53d1e2e0c", "fusion_lon": 0.0, "bike_id": "05ce9eaa1faa8bf108d57ad53d1e2e0c", "is_reserved": 0, "rental_uris": {"android": "https://dc.lft.to/lastmile_qr_scan", "ios": "https://dc.lft.to/lastmile_qr_scan"}, "lat": 38.92105883333333, "is_disabled": 0, "lon": -77.07191366666666}, {"fusion_lat": 0.0, "type": "electric_scooter", "name": "b72f6f2efc650b71463bd786483e9e0c", "fusion_lon": 0.0, "bike_id": "b72f6f2efc650b71463bd786483e9e0c", "is_reserved": 0, "rental_uris": {"android": "https://dc.lft.to/lastmile_qr_scan", "ios": "https://dc.lft.to/lastmile_qr_scan"}, "lat": 38.92534233333333, "is_disabled": 0, "lon": -77.05133333333333}, {"fusion_lat": 0.0, "type": "electric_scooter", "name": "d582d7261ec40d1494cd1fc4347a744f", "fusion_lon": 0.0, "bike_id": "d582d7261ec40d1494cd1fc4347a744f", "is_reserved": 0, "rental_uris": {"android": "https://dc.lft.to/lastmile_qr_scan", "ios": "https://dc.lft.to/lastmile_qr_scan"}, "lat": 38.90638283333333, "is_disabled": 0, "lon": -77.0058365}, {"fusion_lat": 0.0, "type": "electric_bike", "name": "024190d42d51a8b11095d4d8c3556ec7", "fusion_lon": 0.0, "bike_id": "024190d42d51a8b11095d4d8c3556ec7", "is_reserved": 0, "rental_uris": {"android": "https://dc.lft.to/lastmile_qr_scan", "ios": "https://dc.lft.to/lastmile_qr_scan"}, "lat": 38.954956, "is_disabled": 0, "lon": -76.96443733333334}, {"fusion_lat": 0.0, "type": "electric_scooter", "name": "5e049deb451a853ec99fe3ddee5d2e78", "fusion_lon": 0.0, "bike_id": "5e049deb451a853ec99fe3ddee5d2e78", "is_reserved": 0, "rental_uris": {"android": "https://dc.lft.to/lastmile_qr_scan", "ios": "https://dc.lft.to/lastmile_qr_scan"}, "lat": 38.910715833333335, "is_disabled": 0, "lon": -77.027118}, {"fusion_lat": 0.0, "type": "electric_scooter", "name": "61ad2a83402b034e49b60709197e7472", "fusion_lon": 0.0, "bike_id": "61ad2a83402b034e49b60709197e7472", "is_reserved": 0, "rental_uris": {"android": "https://dc.lft.to/lastmile_qr_scan", "ios": "https://dc.lft.to/lastmile_qr_scan"}, "lat": 38.87637383333333, "is_disabled": 0, "lon": -77.000763}, {"fusion_lat": 0.0, "type": "electric_bike", "name": "e9b783e206f90f0c69d61a8fd316f5d0", "fusion_lon": 0.0, "bike_id": "e9b783e206f90f0c69d61a8fd316f5d0", "is_reserved": 0, "rental_uris": {"android": "https://dc.lft.to/lastmile_qr_scan", "ios": "https://dc.lft.to/lastmile_qr_scan"}, "lat": 38.888198833333334, "is_disabled": 0, "lon": -77.03841766666666}, {"fusion_lat": 0.0, "type": "electric_scooter", "name": "b4d84b7ff403e27a0130e2e9bdf563aa", "fusion_lon": 0.0, "bike_id": "b4d84b7ff403e27a0130e2e9bdf563aa", "is_reserved": 0, "rental_uris": {"android": "https://dc.lft.to/lastmile_qr_scan", "ios": "https://dc.lft.to/lastmile_qr_scan"}, "lat": 38.90087533333333, "is_disabled": 0, "lon": -77.04757883333333}, {"fusion_lat": 0.0, "type": "electric_scooter", "name": "3b999b8770409c94da781dcfb9dc4a1f", "fusion_lon": 0.0, "bike_id": "3b999b8770409c94da781dcfb9dc4a1f", "is_reserved": 0, "rental_uris": {"android": "https://dc.lft.to/lastmile_qr_scan", "ios": "https://dc.lft.to/lastmile_qr_scan"}, "lat": 38.88872633333333, "is_disabled": 0, "lon": -77.03996066666667}, {"fusion_lat": 0.0, "type": "electric_scooter", "name": "fa536ec30cf2c0fc2cd17e84938f9450", "fusion_lon": 0.0, "bike_id": "fa536ec30cf2c0fc2cd17e84938f9450", "is_reserved": 0, "rental_uris": {"android": "https://dc.lft.to/lastmile_qr_scan", "ios": "https://dc.lft.to/lastmile_qr_scan"}, "lat": 38.892405833333335, "is_disabled": 0, "lon": -77.04161316666666}, {"fusion_lat": 0.0, "type": "electric_scooter", "name": "b7922b2863d23594824f9ccc04eb814a", "fusion_lon": 0.0, "bike_id": "b7922b2863d23594824f9ccc04eb814a", "is_reserved": 0, "rental_uris": {"android": "https://dc.lft.to/lastmile_qr_scan", "ios": "https://dc.lft.to/lastmile_qr_scan"}, "lat": 38.927308833333335, "is_disabled": 0, "lon": -77.03521}, {"fusion_lat": 0.0, "type": "electric_scooter", "name": "cdd15aece1c1e38d2c9d80f7ac90e0a3", "fusion_lon": 0.0, "bike_id": "cdd15aece1c1e38d2c9d80f7ac90e0a3", "is_reserved": 0, "rental_uris": {"android": "https://dc.lft.to/lastmile_qr_scan", "ios": "https://dc.lft.to/lastmile_qr_scan"}, "lat": 38.9096245, "is_disabled": 0, "lon": -77.02379783333333}, {"fusion_lat": 0.0, "type": "electric_scooter", "name": "2028a35afe73a2adfa2f59a6e46ab56a", "fusion_lon": 0.0, "bike_id": "2028a35afe73a2adfa2f59a6e46ab56a", "is_reserved": 0, "rental_uris": {"android": "https://dc.lft.to/lastmile_qr_scan", "ios": "https://dc.lft.to/lastmile_qr_scan"}, "lat": 38.939088, "is_disabled": 0, "lon": -77.02495683333333}, {"fusion_lat": 0.0, "type": "electric_scooter", "name": "1b9b91141320017755e3dd78d70eeb6e", "fusion_lon": 0.0, "bike_id": "1b9b91141320017755e3dd78d70eeb6e", "is_reserved": 0, "rental_uris": {"android": "https://dc.lft.to/lastmile_qr_scan", "ios": "https://dc.lft.to/lastmile_qr_scan"}, "lat": 38.90145916666667, "is_disabled": 0, "lon": -77.03319283333333}, {"fusion_lat": 0.0, "type": "electric_scooter", "name": "2d92686c23a807bebee4f9f47de68c7c", "fusion_lon": 0.0, "bike_id": "2d92686c23a807bebee4f9f47de68c7c", "is_reserved": 0, "rental_uris": {"android": "https://dc.lft.to/lastmile_qr_scan", "ios": "https://dc.lft.to/lastmile_qr_scan"}, "lat": 38.92342583333333, "is_disabled": 0, "lon": -77.0350605}, {"fusion_lat": 0.0, "type": "electric_scooter", "name": "759de26e50194fd678a1c3b1032ee081", "fusion_lon": 0.0, "bike_id": "759de26e50194fd678a1c3b1032ee081", "is_reserved": 0, "rental_uris": {"android": "https://dc.lft.to/lastmile_qr_scan", "ios": "https://dc.lft.to/lastmile_qr_scan"}, "lat": 38.91553183333333, "is_disabled": 0, "lon": -77.031318}, {"fusion_lat": 0.0, "type": "electric_scooter", "name": "72397d8742fa1e8f89a7abfa40049559", "fusion_lon": 0.0, "bike_id": "72397d8742fa1e8f89a7abfa40049559", "is_reserved": 0, "rental_uris": {"android": "https://dc.lft.to/lastmile_qr_scan", "ios": "https://dc.lft.to/lastmile_qr_scan"}, "lat": 38.9000405, "is_disabled": 0, "lon": -76.95195616666666}, {"fusion_lat": 0.0, "type": "electric_scooter", "name": "3727d5fd0ba5a312447ee091e1191744", "fusion_lon": 0.0, "bike_id": "3727d5fd0ba5a312447ee091e1191744", "is_reserved": 0, "rental_uris": {"android": "https://dc.lft.to/lastmile_qr_scan", "ios": "https://dc.lft.to/lastmile_qr_scan"}, "lat": 38.900672, "is_disabled": 0, "lon": -77.012213}, {"fusion_lat": 0.0, "type": "electric_scooter", "name": "8b3a963d55b99b1fc4479d95453108cb", "fusion_lon": 0.0, "bike_id": "8b3a963d55b99b1fc4479d95453108cb", "is_reserved": 0, "rental_uris": {"android": "https://dc.lft.to/lastmile_qr_scan", "ios": "https://dc.lft.to/lastmile_qr_scan"}, "lat": 38.8940765, "is_disabled": 0, "lon": -77.04421416666666}, {"fusion_lat": 0.0, "type": "electric_scooter", "name": "ab066dcd70b39413b645e2c5b67568d7", "fusion_lon": 0.0, "bike_id": "ab066dcd70b39413b645e2c5b67568d7", "is_reserved": 0, "rental_uris": {"android": "https://dc.lft.to/lastmile_qr_scan", "ios": "https://dc.lft.to/lastmile_qr_scan"}, "lat": 38.8936095, "is_disabled": 0, "lon": -77.022159}, {"fusion_lat": 0.0, "type": "electric_scooter", "name": "2301ee2c975a36b072b1d86f89f93a23", "fusion_lon": 0.0, "bike_id": "2301ee2c975a36b072b1d86f89f93a23", "is_reserved": 0, "rental_uris": {"android": "https://dc.lft.to/lastmile_qr_scan", "ios": "https://dc.lft.to/lastmile_qr_scan"}, "lat": 38.91502933333334, "is_disabled": 0, "lon": -77.01223133333333}, {"fusion_lat": 0.0, "type": "electric_scooter", "name": "9599375bd7fcfabf7c804e4eadaa66b4", "fusion_lon": 0.0, "bike_id": "9599375bd7fcfabf7c804e4eadaa66b4", "is_reserved": 0, "rental_uris": {"android": "https://dc.lft.to/lastmile_qr_scan", "ios": "https://dc.lft.to/lastmile_qr_scan"}, "lat": 38.871892, "is_disabled": 0, "lon": -77.0059075}, {"fusion_lat": 0.0, "type": "electric_scooter", "name": "9ce3514cb7a6f5ea65b369f26f6d836b", "fusion_lon": 0.0, "bike_id": "9ce3514cb7a6f5ea65b369f26f6d836b", "is_reserved": 0, "rental_uris": {"android": "https://dc.lft.to/lastmile_qr_scan", "ios": "https://dc.lft.to/lastmile_qr_scan"}, "lat": 38.909107666666664, "is_disabled": 0, "lon": -77.02717833333334}, {"fusion_lat": 0.0, "type": "electric_scooter", "name": "b7f22cc23d0f6d41f2b3be147ea64d72", "fusion_lon": 0.0, "bike_id": "b7f22cc23d0f6d41f2b3be147ea64d72", "is_reserved": 0, "rental_uris": {"android": "https://dc.lft.to/lastmile_qr_scan", "ios": "https://dc.lft.to/lastmile_qr_scan"}, "lat": 38.91829033333333, "is_disabled": 0, "lon": -77.03442566666666}, {"fusion_lat": 0.0, "type": "electric_scooter", "name": "e7b1e9efec44f700b5b18999dbaf1011", "fusion_lon": 0.0, "bike_id": "e7b1e9efec44f700b5b18999dbaf1011", "is_reserved": 0, "rental_uris": {"android": "https://dc.lft.to/lastmile_qr_scan", "ios": "https://dc.lft.to/lastmile_qr_scan"}, "lat": 38.924227333333334, "is_disabled": 0, "lon": -77.03548333333333}, {"fusion_lat": 0.0, "type": "electric_scooter", "name": "873c622c95ec09f5a6be4c039f51e90f", "fusion_lon": 0.0, "bike_id": "873c622c95ec09f5a6be4c039f51e90f", "is_reserved": 0, "rental_uris": {"android": "https://dc.lft.to/lastmile_qr_scan", "ios": "https://dc.lft.to/lastmile_qr_scan"}, "lat": 38.9235205, "is_disabled": 0, "lon": -77.0329165}, {"fusion_lat": 0.0, "type": "electric_scooter", "name": "6b45a72aa45227261e53fc4fd2a85610", "fusion_lon": 0.0, "bike_id": "6b45a72aa45227261e53fc4fd2a85610", "is_reserved": 0, "rental_uris": {"android": "https://dc.lft.to/lastmile_qr_scan", "ios": "https://dc.lft.to/lastmile_qr_scan"}, "lat": 38.9226295, "is_disabled": 0, "lon": -77.0305745}, {"fusion_lat": 0.0, "type": "electric_scooter", "name": "4e5be11b2446c7602b2bdc49a8f006b0", "fusion_lon": 0.0, "bike_id": "4e5be11b2446c7602b2bdc49a8f006b0", "is_reserved": 0, "rental_uris": {"android": "https://dc.lft.to/lastmile_qr_scan", "ios": "https://dc.lft.to/lastmile_qr_scan"}, "lat": 38.894892, "is_disabled": 0, "lon": -77.0109515}, {"fusion_lat": 0.0, "type": "electric_scooter", "name": "476ac3e197f3d118eee887d365ae5e77", "fusion_lon": 0.0, "bike_id": "476ac3e197f3d118eee887d365ae5e77", "is_reserved": 0, "rental_uris": {"android": "https://dc.lft.to/lastmile_qr_scan", "ios": "https://dc.lft.to/lastmile_qr_scan"}, "lat": 38.890206, "is_disabled": 0, "lon": -76.93734233333333}, {"fusion_lat": 0.0, "type": "electric_scooter", "name": "380d229a44e41a07c7e4e3a90e321b89", "fusion_lon": 0.0, "bike_id": "380d229a44e41a07c7e4e3a90e321b89", "is_reserved": 0, "rental_uris": {"android": "https://dc.lft.to/lastmile_qr_scan", "ios": "https://dc.lft.to/lastmile_qr_scan"}, "lat": 38.8767585, "is_disabled": 0, "lon": -77.007353}, {"fusion_lat": 0.0, "type": "electric_scooter", "name": "2ca88ea9dd8ade68ac07aae3097ad1cb", "fusion_lon": 0.0, "bike_id": "2ca88ea9dd8ade68ac07aae3097ad1cb", "is_reserved": 0, "rental_uris": {"android": "https://dc.lft.to/lastmile_qr_scan", "ios": "https://dc.lft.to/lastmile_qr_scan"}, "lat": 38.918719, "is_disabled": 0, "lon": -77.0417255}, {"fusion_lat": 0.0, "type": "electric_bike", "name": "39b65813e09c8a8c5cd19c43ee1f246b", "fusion_lon": 0.0, "bike_id": "39b65813e09c8a8c5cd19c43ee1f246b", "is_reserved": 0, "rental_uris": {"android": "https://dc.lft.to/lastmile_qr_scan", "ios": "https://dc.lft.to/lastmile_qr_scan"}, "lat": 38.976975333333336, "is_disabled": 0, "lon": -77.09293866666667}, {"fusion_lat": 0.0, "type": "electric_scooter", "name": "abbae449e454da4f48639906ac3f247b", "fusion_lon": 0.0, "bike_id": "abbae449e454da4f48639906ac3f247b", "is_reserved": 0, "rental_uris": {"android": "https://dc.lft.to/lastmile_qr_scan", "ios": "https://dc.lft.to/lastmile_qr_scan"}, "lat": 38.9004615, "is_disabled": 0, "lon": -77.032097}, {"fusion_lat": 0.0, "type": "electric_bike", "name": "2f2d0b32348f5fe9cc7bdca4bccd5735", "fusion_lon": 0.0, "bike_id": "2f2d0b32348f5fe9cc7bdca4bccd5735", "is_reserved": 0, "rental_uris": {"android": "https://dc.lft.to/lastmile_qr_scan", "ios": "https://dc.lft.to/lastmile_qr_scan"}, "lat": 38.93682333333334, "is_disabled": 0, "lon": -77.03329266666667}, {"fusion_lat": 0.0, "type": "electric_bike", "name": "3391d97032a88a4f8c004d3878068f33", "fusion_lon": 0.0, "bike_id": "3391d97032a88a4f8c004d3878068f33", "is_reserved": 0, "rental_uris": {"android": "https://dc.lft.to/lastmile_qr_scan", "ios": "https://dc.lft.to/lastmile_qr_scan"}, "lat": 38.842720666666665, "is_disabled": 0, "lon": -76.9884585}, {"fusion_lat": 0.0, "type": "electric_scooter", "name": "6d5227e5688841ab96afcacf894589ba", "fusion_lon": 0.0, "bike_id": "6d5227e5688841ab96afcacf894589ba", "is_reserved": 0, "rental_uris": {"android": "https://dc.lft.to/lastmile_qr_scan", "ios": "https://dc.lft.to/lastmile_qr_scan"}, "lat": 38.83498266666667, "is_disabled": 0, "lon": -77.006741}, {"fusion_lat": 0.0, "type": "electric_bike", "name": "2d926077040c30b389fb88a8466d5b2f", "fusion_lon": 0.0, "bike_id": "2d926077040c30b389fb88a8466d5b2f", "is_reserved": 0, "rental_uris": {"android": "https://dc.lft.to/lastmile_qr_scan", "ios": "https://dc.lft.to/lastmile_qr_scan"}, "lat": 38.91178883333333, "is_disabled": 0, "lon": -77.08811883333334}, {"fusion_lat": 0.0, "type": "electric_scooter", "name": "516a9f261a7a2fbff93391b6c1984be0", "fusion_lon": 0.0, "bike_id": "516a9f261a7a2fbff93391b6c1984be0", "is_reserved": 0, "rental_uris": {"android": "https://dc.lft.to/lastmile_qr_scan", "ios": "https://dc.lft.to/lastmile_qr_scan"}, "lat": 38.892498, "is_disabled": 0, "lon": -77.0220425}, {"fusion_lat": 0.0, "type": "electric_scooter", "name": "c43a019cbbb74d1942e87c3bb96da5a6", "fusion_lon": 0.0, "bike_id": "c43a019cbbb74d1942e87c3bb96da5a6", "is_reserved": 0, "rental_uris": {"android": "https://dc.lft.to/lastmile_qr_scan", "ios": "https://dc.lft.to/lastmile_qr_scan"}, "lat": 38.899041, "is_disabled": 0, "lon": -77.0393025}, {"fusion_lat": 0.0, "type": "electric_scooter", "name": "6dc2ec6cb38320c6b735b24eeb92ddb9", "fusion_lon": 0.0, "bike_id": "6dc2ec6cb38320c6b735b24eeb92ddb9", "is_reserved": 0, "rental_uris": {"android": "https://dc.lft.to/lastmile_qr_scan", "ios": "https://dc.lft.to/lastmile_qr_scan"}, "lat": 38.90736883333334, "is_disabled": 0, "lon": -77.0269495}, {"fusion_lat": 0.0, "type": "electric_scooter", "name": "8d4cc801ea1cfaeda7e1d3604cd045a2", "fusion_lon": 0.0, "bike_id": "8d4cc801ea1cfaeda7e1d3604cd045a2", "is_reserved": 0, "rental_uris": {"android": "https://dc.lft.to/lastmile_qr_scan", "ios": "https://dc.lft.to/lastmile_qr_scan"}, "lat": 38.9118815, "is_disabled": 0, "lon": -77.03493233333333}, {"fusion_lat": 0.0, "type": "electric_scooter", "name": "13afa60b39127fe7f26497e68d567c41", "fusion_lon": 0.0, "bike_id": "13afa60b39127fe7f26497e68d567c41", "is_reserved": 0, "rental_uris": {"android": "https://dc.lft.to/lastmile_qr_scan", "ios": "https://dc.lft.to/lastmile_qr_scan"}, "lat": 38.922587, "is_disabled": 0, "lon": -77.02982066666667}, {"fusion_lat": 0.0, "type": "electric_scooter", "name": "78210e855ac46e67e6c810f14d28cf1c", "fusion_lon": 0.0, "bike_id": "78210e855ac46e67e6c810f14d28cf1c", "is_reserved": 0, "rental_uris": {"android": "https://dc.lft.to/lastmile_qr_scan", "ios": "https://dc.lft.to/lastmile_qr_scan"}, "lat": 38.8978665, "is_disabled": 0, "lon": -77.05013433333333}, {"fusion_lat": 0.0, "type": "electric_scooter", "name": "817bda06b443a9234b4f29db409e6c41", "fusion_lon": 0.0, "bike_id": "817bda06b443a9234b4f29db409e6c41", "is_reserved": 0, "rental_uris": {"android": "https://dc.lft.to/lastmile_qr_scan", "ios": "https://dc.lft.to/lastmile_qr_scan"}, "lat": 38.896078, "is_disabled": 0, "lon": -76.99973633333333}, {"fusion_lat": 0.0, "type": "electric_scooter", "name": "8cb39273eabf4e3ba73e1ed6a6d21af8", "fusion_lon": 0.0, "bike_id": "8cb39273eabf4e3ba73e1ed6a6d21af8", "is_reserved": 0, "rental_uris": {"android": "https://dc.lft.to/lastmile_qr_scan", "ios": "https://dc.lft.to/lastmile_qr_scan"}, "lat": 38.895129833333336, "is_disabled": 0, "lon": -76.948852}, {"fusion_lat": 0.0, "type": "electric_scooter", "name": "2c8105c1f915eabdb6b28d66a8344aa7", "fusion_lon": 0.0, "bike_id": "2c8105c1f915eabdb6b28d66a8344aa7", "is_reserved": 0, "rental_uris": {"android": "https://dc.lft.to/lastmile_qr_scan", "ios": "https://dc.lft.to/lastmile_qr_scan"}, "lat": 38.905129333333335, "is_disabled": 0, "lon": -76.99607883333333}, {"fusion_lat": 0.0, "type": "electric_bike", "name": "5a74e32d740c3ab2852a6212b7e01725", "fusion_lon": 0.0, "bike_id": "5a74e32d740c3ab2852a6212b7e01725", "is_reserved": 0, "rental_uris": {"android": "https://dc.lft.to/lastmile_qr_scan", "ios": "https://dc.lft.to/lastmile_qr_scan"}, "lat": 38.90627666666666, "is_disabled": 0, "lon": -76.9860305}, {"fusion_lat": 0.0, "type": "electric_scooter", "name": "a45d9f517812f1082768eaadbbe60602", "fusion_lon": 0.0, "bike_id": "a45d9f517812f1082768eaadbbe60602", "is_reserved": 0, "rental_uris": {"android": "https://dc.lft.to/lastmile_qr_scan", "ios": "https://dc.lft.to/lastmile_qr_scan"}, "lat": 38.920389, "is_disabled": 0, "lon": -77.012217}, {"fusion_lat": 0.0, "type": "electric_bike", "name": "a26a62953929ea70740932b31b7f6c5f", "fusion_lon": 0.0, "bike_id": "a26a62953929ea70740932b31b7f6c5f", "is_reserved": 0, "rental_uris": {"android": "https://dc.lft.to/lastmile_qr_scan", "ios": "https://dc.lft.to/lastmile_qr_scan"}, "lat": 39.04314516666667, "is_disabled": 0, "lon": -77.05161133333333}, {"fusion_lat": 0.0, "type": "electric_scooter", "name": "0e8463b53ec7bb3ed8881f28cc19f7d4", "fusion_lon": 0.0, "bike_id": "0e8463b53ec7bb3ed8881f28cc19f7d4", "is_reserved": 0, "rental_uris": {"android": "https://dc.lft.to/lastmile_qr_scan", "ios": "https://dc.lft.to/lastmile_qr_scan"}, "lat": 38.8734335, "is_disabled": 0, "lon": -76.9916305}, {"fusion_lat": 0.0, "type": "electric_scooter", "name": "fd6f3aaf8e8cae0df926ce1038b54a6b", "fusion_lon": 0.0, "bike_id": "fd6f3aaf8e8cae0df926ce1038b54a6b", "is_reserved": 0, "rental_uris": {"android": "https://dc.lft.to/lastmile_qr_scan", "ios": "https://dc.lft.to/lastmile_qr_scan"}, "lat": 38.93101816666667, "is_disabled": 0, "lon": -77.0253455}, {"fusion_lat": 0.0, "type": "electric_scooter", "name": "98c45f8d3910debfd37b0a29a8d7ddf0", "fusion_lon": 0.0, "bike_id": "98c45f8d3910debfd37b0a29a8d7ddf0", "is_reserved": 0, "rental_uris": {"android": "https://dc.lft.to/lastmile_qr_scan", "ios": "https://dc.lft.to/lastmile_qr_scan"}, "lat": 38.95400083333333, "is_disabled": 0, "lon": -77.02785033333333}, {"fusion_lat": 0.0, "type": "electric_scooter", "name": "f7c90fac6e582c2bcdba84c01f7f4e96", "fusion_lon": 0.0, "bike_id": "f7c90fac6e582c2bcdba84c01f7f4e96", "is_reserved": 0, "rental_uris": {"android": "https://dc.lft.to/lastmile_qr_scan", "ios": "https://dc.lft.to/lastmile_qr_scan"}, "lat": 38.911692333333335, "is_disabled": 0, "lon": -77.0045235}, {"fusion_lat": 0.0, "type": "electric_scooter", "name": "37cd0eee9495dd88d81b64919c7d27d9", "fusion_lon": 0.0, "bike_id": "37cd0eee9495dd88d81b64919c7d27d9", "is_reserved": 0, "rental_uris": {"android": "https://dc.lft.to/lastmile_qr_scan", "ios": "https://dc.lft.to/lastmile_qr_scan"}, "lat": 38.89196533333333, "is_disabled": 0, "lon": -76.93303883333333}, {"fusion_lat": 0.0, "type": "electric_scooter", "name": "6f6f73d5ff4a0ec4ea8846f12b71a1af", "fusion_lon": 0.0, "bike_id": "6f6f73d5ff4a0ec4ea8846f12b71a1af", "is_reserved": 0, "rental_uris": {"android": "https://dc.lft.to/lastmile_qr_scan", "ios": "https://dc.lft.to/lastmile_qr_scan"}, "lat": 38.900538166666664, "is_disabled": 0, "lon": -77.03190816666667}, {"fusion_lat": 0.0, "type": "electric_scooter", "name": "4580140b154244c43953a249c285de5c", "fusion_lon": 0.0, "bike_id": "4580140b154244c43953a249c285de5c", "is_reserved": 0, "rental_uris": {"android": "https://dc.lft.to/lastmile_qr_scan", "ios": "https://dc.lft.to/lastmile_qr_scan"}, "lat": 38.9265725, "is_disabled": 0, "lon": -77.02421733333334}, {"fusion_lat": 0.0, "type": "electric_scooter", "name": "5e4c8fb4fdcb995ecf8e74aa535cba91", "fusion_lon": 0.0, "bike_id": "5e4c8fb4fdcb995ecf8e74aa535cba91", "is_reserved": 0, "rental_uris": {"android": "https://dc.lft.to/lastmile_qr_scan", "ios": "https://dc.lft.to/lastmile_qr_scan"}, "lat": 38.90732783333333, "is_disabled": 0, "lon": -76.9869405}, {"fusion_lat": 0.0, "type": "electric_scooter", "name": "53b85619d9ced443b24271bc1eb01c48", "fusion_lon": 0.0, "bike_id": "53b85619d9ced443b24271bc1eb01c48", "is_reserved": 0, "rental_uris": {"android": "https://dc.lft.to/lastmile_qr_scan", "ios": "https://dc.lft.to/lastmile_qr_scan"}, "lat": 38.92375766666667, "is_disabled": 0, "lon": -77.0191585}, {"fusion_lat": 0.0, "type": "electric_scooter", "name": "fe40a7419ab48acdfb35eca5b933f2e7", "fusion_lon": 0.0, "bike_id": "fe40a7419ab48acdfb35eca5b933f2e7", "is_reserved": 0, "rental_uris": {"android": "https://dc.lft.to/lastmile_qr_scan", "ios": "https://dc.lft.to/lastmile_qr_scan"}, "lat": 38.909604333333334, "is_disabled": 0, "lon": -77.05478366666667}, {"fusion_lat": 0.0, "type": "electric_bike", "name": "c1909d6de93f2f59b6ed2c8b00486cc2", "fusion_lon": 0.0, "bike_id": "c1909d6de93f2f59b6ed2c8b00486cc2", "is_reserved": 0, "rental_uris": {"android": "https://dc.lft.to/lastmile_qr_scan", "ios": "https://dc.lft.to/lastmile_qr_scan"}, "lat": 39.0424015, "is_disabled": 0, "lon": -76.99735333333334}, {"fusion_lat": 0.0, "type": "electric_scooter", "name": "bb17675e2e60e1384f7048cfc5532673", "fusion_lon": 0.0, "bike_id": "bb17675e2e60e1384f7048cfc5532673", "is_reserved": 0, "rental_uris": {"android": "https://dc.lft.to/lastmile_qr_scan", "ios": "https://dc.lft.to/lastmile_qr_scan"}, "lat": 38.911804333333336, "is_disabled": 0, "lon": -77.02951333333333}, {"fusion_lat": 0.0, "type": "electric_scooter", "name": "23a1a624b7cdc0640412421c3e902757", "fusion_lon": 0.0, "bike_id": "23a1a624b7cdc0640412421c3e902757", "is_reserved": 0, "rental_uris": {"android": "https://dc.lft.to/lastmile_qr_scan", "ios": "https://dc.lft.to/lastmile_qr_scan"}, "lat": 38.909584833333334, "is_disabled": 0, "lon": -77.00813}, {"fusion_lat": 0.0, "type": "electric_scooter", "name": "6888946ebfdf1f383014e690100e6902", "fusion_lon": 0.0, "bike_id": "6888946ebfdf1f383014e690100e6902", "is_reserved": 0, "rental_uris": {"android": "https://dc.lft.to/lastmile_qr_scan", "ios": "https://dc.lft.to/lastmile_qr_scan"}, "lat": 38.91350833333333, "is_disabled": 0, "lon": -77.03188733333333}, {"fusion_lat": 0.0, "type": "electric_scooter", "name": "6b61f118efbda0024f649e689d4be97a", "fusion_lon": 0.0, "bike_id": "6b61f118efbda0024f649e689d4be97a", "is_reserved": 0, "rental_uris": {"android": "https://dc.lft.to/lastmile_qr_scan", "ios": "https://dc.lft.to/lastmile_qr_scan"}, "lat": 38.89224566666667, "is_disabled": 0, "lon": -77.0437115}, {"fusion_lat": 0.0, "type": "electric_scooter", "name": "7180dc4fcb61042c281157005a5e4672", "fusion_lon": 0.0, "bike_id": "7180dc4fcb61042c281157005a5e4672", "is_reserved": 0, "rental_uris": {"android": "https://dc.lft.to/lastmile_qr_scan", "ios": "https://dc.lft.to/lastmile_qr_scan"}, "lat": 38.87678483333333, "is_disabled": 0, "lon": -76.99826716666666}, {"fusion_lat": 0.0, "type": "electric_scooter", "name": "ca6a1a2e310cf4331fbff8ddd9fc60b1", "fusion_lon": 0.0, "bike_id": "ca6a1a2e310cf4331fbff8ddd9fc60b1", "is_reserved": 0, "rental_uris": {"android": "https://dc.lft.to/lastmile_qr_scan", "ios": "https://dc.lft.to/lastmile_qr_scan"}, "lat": 38.894309666666665, "is_disabled": 0, "lon": -76.91156566666666}, {"fusion_lat": 0.0, "type": "electric_scooter", "name": "61f972a4743f1f78ab4654f9784b0f2a", "fusion_lon": 0.0, "bike_id": "61f972a4743f1f78ab4654f9784b0f2a", "is_reserved": 0, "rental_uris": {"android": "https://dc.lft.to/lastmile_qr_scan", "ios": "https://dc.lft.to/lastmile_qr_scan"}, "lat": 38.900463333333335, "is_disabled": 0, "lon": -77.02951416666667}, {"fusion_lat": 0.0, "type": "electric_scooter", "name": "187e612ae7dc3bf3d7ef983e19275743", "fusion_lon": 0.0, "bike_id": "187e612ae7dc3bf3d7ef983e19275743", "is_reserved": 0, "rental_uris": {"android": "https://dc.lft.to/lastmile_qr_scan", "ios": "https://dc.lft.to/lastmile_qr_scan"}, "lat": 38.8711345, "is_disabled": 0, "lon": -76.96587983333333}, {"fusion_lat": 0.0, "type": "electric_scooter", "name": "e6d84401ad28a4ded5dfb4ec15a66af8", "fusion_lon": 0.0, "bike_id": "e6d84401ad28a4ded5dfb4ec15a66af8", "is_reserved": 0, "rental_uris": {"android": "https://dc.lft.to/lastmile_qr_scan", "ios": "https://dc.lft.to/lastmile_qr_scan"}, "lat": 38.89684483333333, "is_disabled": 0, "lon": -76.935364}, {"fusion_lat": 0.0, "type": "electric_scooter", "name": "4de1d7ce039f5532ab89ebc20acd26ac", "fusion_lon": 0.0, "bike_id": "4de1d7ce039f5532ab89ebc20acd26ac", "is_reserved": 0, "rental_uris": {"android": "https://dc.lft.to/lastmile_qr_scan", "ios": "https://dc.lft.to/lastmile_qr_scan"}, "lat": 38.91256216666667, "is_disabled": 0, "lon": -77.01437616666666}, {"fusion_lat": 0.0, "type": "electric_scooter", "name": "978bc487df14c4b44cfdf42920d5e74c", "fusion_lon": 0.0, "bike_id": "978bc487df14c4b44cfdf42920d5e74c", "is_reserved": 0, "rental_uris": {"android": "https://dc.lft.to/lastmile_qr_scan", "ios": "https://dc.lft.to/lastmile_qr_scan"}, "lat": 38.9418175, "is_disabled": 0, "lon": -77.0253145}, {"fusion_lat": 0.0, "type": "electric_scooter", "name": "4b49744480e72830c9ff3248d79ec2b1", "fusion_lon": 0.0, "bike_id": "4b49744480e72830c9ff3248d79ec2b1", "is_reserved": 0, "rental_uris": {"android": "https://dc.lft.to/lastmile_qr_scan", "ios": "https://dc.lft.to/lastmile_qr_scan"}, "lat": 38.916307333333336, "is_disabled": 0, "lon": -77.03141}, {"fusion_lat": 0.0, "type": "electric_bike", "name": "d9506ac7b3fc8fbc38230acb0b296ba7", "fusion_lon": 0.0, "bike_id": "d9506ac7b3fc8fbc38230acb0b296ba7", "is_reserved": 0, "rental_uris": {"android": "https://dc.lft.to/lastmile_qr_scan", "ios": "https://dc.lft.to/lastmile_qr_scan"}, "lat": 38.90269966666666, "is_disabled": 0, "lon": -76.9292745}, {"fusion_lat": 0.0, "type": "electric_scooter", "name": "b68b1936230f58eda04b04c9980c0992", "fusion_lon": 0.0, "bike_id": "b68b1936230f58eda04b04c9980c0992", "is_reserved": 0, "rental_uris": {"android": "https://dc.lft.to/lastmile_qr_scan", "ios": "https://dc.lft.to/lastmile_qr_scan"}, "lat": 38.9203865, "is_disabled": 0, "lon": -76.99556366666667}, {"fusion_lat": 0.0, "type": "electric_scooter", "name": "02a37a6cdc38275b827d913a507fe599", "fusion_lon": 0.0, "bike_id": "02a37a6cdc38275b827d913a507fe599", "is_reserved": 0, "rental_uris": {"android": "https://dc.lft.to/lastmile_qr_scan", "ios": "https://dc.lft.to/lastmile_qr_scan"}, "lat": 38.8731255, "is_disabled": 0, "lon": -77.00589216666667}, {"fusion_lat": 0.0, "type": "electric_scooter", "name": "c2ea5efb84c77e3171f598bdac7179bb", "fusion_lon": 0.0, "bike_id": "c2ea5efb84c77e3171f598bdac7179bb", "is_reserved": 0, "rental_uris": {"android": "https://dc.lft.to/lastmile_qr_scan", "ios": "https://dc.lft.to/lastmile_qr_scan"}, "lat": 38.893314833333335, "is_disabled": 0, "lon": -77.012018}, {"fusion_lat": 0.0, "type": "electric_scooter", "name": "971a24e2b2598793154f2b58a9a365ad", "fusion_lon": 0.0, "bike_id": "971a24e2b2598793154f2b58a9a365ad", "is_reserved": 0, "rental_uris": {"android": "https://dc.lft.to/lastmile_qr_scan", "ios": "https://dc.lft.to/lastmile_qr_scan"}, "lat": 38.888161, "is_disabled": 0, "lon": -76.93343816666666}, {"fusion_lat": 0.0, "type": "electric_scooter", "name": "a1d90bfb87fc02f133044e079dc421b4", "fusion_lon": 0.0, "bike_id": "a1d90bfb87fc02f133044e079dc421b4", "is_reserved": 0, "rental_uris": {"android": "https://dc.lft.to/lastmile_qr_scan", "ios": "https://dc.lft.to/lastmile_qr_scan"}, "lat": 38.89243583333333, "is_disabled": 0, "lon": -77.031809}, {"fusion_lat": 0.0, "type": "electric_scooter", "name": "e305e7f58d24981d542b11e91a96936e", "fusion_lon": 0.0, "bike_id": "e305e7f58d24981d542b11e91a96936e", "is_reserved": 0, "rental_uris": {"android": "https://dc.lft.to/lastmile_qr_scan", "ios": "https://dc.lft.to/lastmile_qr_scan"}, "lat": 38.915585, "is_disabled": 0, "lon": -77.0298615}, {"fusion_lat": 0.0, "type": "electric_scooter", "name": "7c986a5131d66320d7f86d4f69cc4f68", "fusion_lon": 0.0, "bike_id": "7c986a5131d66320d7f86d4f69cc4f68", "is_reserved": 0, "rental_uris": {"android": "https://dc.lft.to/lastmile_qr_scan", "ios": "https://dc.lft.to/lastmile_qr_scan"}, "lat": 38.897209333333336, "is_disabled": 0, "lon": -77.02718716666666}, {"fusion_lat": 0.0, "type": "electric_scooter", "name": "f54d1c87e1f58f84de3ef08ed738b070", "fusion_lon": 0.0, "bike_id": "f54d1c87e1f58f84de3ef08ed738b070", "is_reserved": 0, "rental_uris": {"android": "https://dc.lft.to/lastmile_qr_scan", "ios": "https://dc.lft.to/lastmile_qr_scan"}, "lat": 38.917226166666666, "is_disabled": 0, "lon": -77.02534466666667}, {"fusion_lat": 0.0, "type": "electric_scooter", "name": "ffefa957d75f11b6efec6da78296a863", "fusion_lon": 0.0, "bike_id": "ffefa957d75f11b6efec6da78296a863", "is_reserved": 0, "rental_uris": {"android": "https://dc.lft.to/lastmile_qr_scan", "ios": "https://dc.lft.to/lastmile_qr_scan"}, "lat": 38.909732, "is_disabled": 0, "lon": -77.02424}, {"fusion_lat": 0.0, "type": "electric_scooter", "name": "7d5136e491d89de150ead790a65f7069", "fusion_lon": 0.0, "bike_id": "7d5136e491d89de150ead790a65f7069", "is_reserved": 0, "rental_uris": {"android": "https://dc.lft.to/lastmile_qr_scan", "ios": "https://dc.lft.to/lastmile_qr_scan"}, "lat": 38.93383083333333, "is_disabled": 0, "lon": -77.023633}, {"fusion_lat": 0.0, "type": "electric_scooter", "name": "e829f38fa574973c285120e99090f372", "fusion_lon": 0.0, "bike_id": "e829f38fa574973c285120e99090f372", "is_reserved": 0, "rental_uris": {"android": "https://dc.lft.to/lastmile_qr_scan", "ios": "https://dc.lft.to/lastmile_qr_scan"}, "lat": 38.912716833333334, "is_disabled": 0, "lon": -77.03821783333333}, {"fusion_lat": 0.0, "type": "electric_scooter", "name": "57cec1ae42722351a89fe5cacd50db83", "fusion_lon": 0.0, "bike_id": "57cec1ae42722351a89fe5cacd50db83", "is_reserved": 0, "rental_uris": {"android": "https://dc.lft.to/lastmile_qr_scan", "ios": "https://dc.lft.to/lastmile_qr_scan"}, "lat": 38.933735166666665, "is_disabled": 0, "lon": -77.05719216666667}, {"fusion_lat": 0.0, "type": "electric_scooter", "name": "80e00972f7d7f6c5c0f1b1bbb7d70ede", "fusion_lon": 0.0, "bike_id": "80e00972f7d7f6c5c0f1b1bbb7d70ede", "is_reserved": 0, "rental_uris": {"android": "https://dc.lft.to/lastmile_qr_scan", "ios": "https://dc.lft.to/lastmile_qr_scan"}, "lat": 38.86647983333334, "is_disabled": 0, "lon": -76.98531366666667}, {"fusion_lat": 0.0, "type": "electric_scooter", "name": "45075decabddf83e9d129949446691de", "fusion_lon": 0.0, "bike_id": "45075decabddf83e9d129949446691de", "is_reserved": 0, "rental_uris": {"android": "https://dc.lft.to/lastmile_qr_scan", "ios": "https://dc.lft.to/lastmile_qr_scan"}, "lat": 38.9279795, "is_disabled": 0, "lon": -77.02599533333333}, {"fusion_lat": 0.0, "type": "electric_scooter", "name": "01564a0770aa7d535347ad9c2e70e295", "fusion_lon": 0.0, "bike_id": "01564a0770aa7d535347ad9c2e70e295", "is_reserved": 0, "rental_uris": {"android": "https://dc.lft.to/lastmile_qr_scan", "ios": "https://dc.lft.to/lastmile_qr_scan"}, "lat": 38.911762, "is_disabled": 0, "lon": -77.0609445}, {"fusion_lat": 0.0, "type": "electric_scooter", "name": "341be018029e685644c40ff78ed5e855", "fusion_lon": 0.0, "bike_id": "341be018029e685644c40ff78ed5e855", "is_reserved": 0, "rental_uris": {"android": "https://dc.lft.to/lastmile_qr_scan", "ios": "https://dc.lft.to/lastmile_qr_scan"}, "lat": 38.900316333333336, "is_disabled": 0, "lon": -76.9863005}, {"fusion_lat": 0.0, "type": "electric_scooter", "name": "b702ba3a3590fc9ab08a2fa2a2e21825", "fusion_lon": 0.0, "bike_id": "b702ba3a3590fc9ab08a2fa2a2e21825", "is_reserved": 0, "rental_uris": {"android": "https://dc.lft.to/lastmile_qr_scan", "ios": "https://dc.lft.to/lastmile_qr_scan"}, "lat": 38.90728883333333, "is_disabled": 0, "lon": -77.01100666666666}, {"fusion_lat": 0.0, "type": "electric_scooter", "name": "9a9fef63642c68077b023a050b8ea53a", "fusion_lon": 0.0, "bike_id": "9a9fef63642c68077b023a050b8ea53a", "is_reserved": 0, "rental_uris": {"android": "https://dc.lft.to/lastmile_qr_scan", "ios": "https://dc.lft.to/lastmile_qr_scan"}, "lat": 38.9231975, "is_disabled": 0, "lon": -77.044293}, {"fusion_lat": 0.0, "type": "electric_scooter", "name": "d4f706283255378fd082779894da73c4", "fusion_lon": 0.0, "bike_id": "d4f706283255378fd082779894da73c4", "is_reserved": 0, "rental_uris": {"android": "https://dc.lft.to/lastmile_qr_scan", "ios": "https://dc.lft.to/lastmile_qr_scan"}, "lat": 38.91918716666667, "is_disabled": 0, "lon": -77.02616883333333}, {"fusion_lat": 0.0, "type": "electric_bike", "name": "43ca6890e520eda270393d57c6465d74", "fusion_lon": 0.0, "bike_id": "43ca6890e520eda270393d57c6465d74", "is_reserved": 0, "rental_uris": {"android": "https://dc.lft.to/lastmile_qr_scan", "ios": "https://dc.lft.to/lastmile_qr_scan"}, "lat": 38.99946633333333, "is_disabled": 0, "lon": -77.07432716666666}, {"fusion_lat": 0.0, "type": "electric_scooter", "name": "17c2d721fdb7107d7c899d2d89dceb3c", "fusion_lon": 0.0, "bike_id": "17c2d721fdb7107d7c899d2d89dceb3c", "is_reserved": 0, "rental_uris": {"android": "https://dc.lft.to/lastmile_qr_scan", "ios": "https://dc.lft.to/lastmile_qr_scan"}, "lat": 38.9317775, "is_disabled": 0, "lon": -77.0341205}, {"fusion_lat": 0.0, "type": "electric_scooter", "name": "7ed0fd504a257326e7ac8ab81e3891d4", "fusion_lon": 0.0, "bike_id": "7ed0fd504a257326e7ac8ab81e3891d4", "is_reserved": 0, "rental_uris": {"android": "https://dc.lft.to/lastmile_qr_scan", "ios": "https://dc.lft.to/lastmile_qr_scan"}, "lat": 38.9362075, "is_disabled": 0, "lon": -77.03687483333333}, {"fusion_lat": 0.0, "type": "electric_scooter", "name": "ab6d5ffbeaa0c5d94856d7a6233bc604", "fusion_lon": 0.0, "bike_id": "ab6d5ffbeaa0c5d94856d7a6233bc604", "is_reserved": 0, "rental_uris": {"android": "https://dc.lft.to/lastmile_qr_scan", "ios": "https://dc.lft.to/lastmile_qr_scan"}, "lat": 38.8935825, "is_disabled": 0, "lon": -76.94924183333333}, {"fusion_lat": 0.0, "type": "electric_scooter", "name": "9ad11ffb85864086d07cbe296ff6dd61", "fusion_lon": 0.0, "bike_id": "9ad11ffb85864086d07cbe296ff6dd61", "is_reserved": 0, "rental_uris": {"android": "https://dc.lft.to/lastmile_qr_scan", "ios": "https://dc.lft.to/lastmile_qr_scan"}, "lat": 38.918834, "is_disabled": 0, "lon": -77.0260535}, {"fusion_lat": 0.0, "type": "electric_scooter", "name": "8fa6fbd37273bc58eb5ff471c2320967", "fusion_lon": 0.0, "bike_id": "8fa6fbd37273bc58eb5ff471c2320967", "is_reserved": 0, "rental_uris": {"android": "https://dc.lft.to/lastmile_qr_scan", "ios": "https://dc.lft.to/lastmile_qr_scan"}, "lat": 38.920680833333336, "is_disabled": 0, "lon": -77.0224465}, {"fusion_lat": 0.0, "type": "electric_scooter", "name": "7e3de787d478fcf5d26e36ecdf77794b", "fusion_lon": 0.0, "bike_id": "7e3de787d478fcf5d26e36ecdf77794b", "is_reserved": 0, "rental_uris": {"android": "https://dc.lft.to/lastmile_qr_scan", "ios": "https://dc.lft.to/lastmile_qr_scan"}, "lat": 38.917472833333335, "is_disabled": 0, "lon": -77.031827}, {"fusion_lat": 0.0, "type": "electric_scooter", "name": "178ba37a01c3ae3959377323af464874", "fusion_lon": 0.0, "bike_id": "178ba37a01c3ae3959377323af464874", "is_reserved": 0, "rental_uris": {"android": "https://dc.lft.to/lastmile_qr_scan", "ios": "https://dc.lft.to/lastmile_qr_scan"}, "lat": 38.89227966666667, "is_disabled": 0, "lon": -77.04506283333333}, {"fusion_lat": 0.0, "type": "electric_bike", "name": "b4e5fcaed56f9106abe74bd9854906a6", "fusion_lon": 0.0, "bike_id": "b4e5fcaed56f9106abe74bd9854906a6", "is_reserved": 0, "rental_uris": {"android": "https://dc.lft.to/lastmile_qr_scan", "ios": "https://dc.lft.to/lastmile_qr_scan"}, "lat": 38.8071435, "is_disabled": 0, "lon": -77.061725}, {"fusion_lat": 0.0, "type": "electric_scooter", "name": "f3b4c59a974206048d3ceb2be989707e", "fusion_lon": 0.0, "bike_id": "f3b4c59a974206048d3ceb2be989707e", "is_reserved": 0, "rental_uris": {"android": "https://dc.lft.to/lastmile_qr_scan", "ios": "https://dc.lft.to/lastmile_qr_scan"}, "lat": 38.8668555, "is_disabled": 0, "lon": -76.98594216666666}, {"fusion_lat": 0.0, "type": "electric_bike", "name": "5c922f4851fe9c82a2c5d42e55aeb369", "fusion_lon": 0.0, "bike_id": "5c922f4851fe9c82a2c5d42e55aeb369", "is_reserved": 0, "rental_uris": {"android": "https://dc.lft.to/lastmile_qr_scan", "ios": "https://dc.lft.to/lastmile_qr_scan"}, "lat": 38.96229366666667, "is_disabled": 0, "lon": -77.026376}, {"fusion_lat": 0.0, "type": "electric_scooter", "name": "3175414550f5204192714e1de6d335cf", "fusion_lon": 0.0, "bike_id": "3175414550f5204192714e1de6d335cf", "is_reserved": 0, "rental_uris": {"android": "https://dc.lft.to/lastmile_qr_scan", "ios": "https://dc.lft.to/lastmile_qr_scan"}, "lat": 38.908612833333336, "is_disabled": 0, "lon": -77.04274916666667}, {"fusion_lat": 0.0, "type": "electric_scooter", "name": "1373945b708223a2a9e78b661a1c04b3", "fusion_lon": 0.0, "bike_id": "1373945b708223a2a9e78b661a1c04b3", "is_reserved": 0, "rental_uris": {"android": "https://dc.lft.to/lastmile_qr_scan", "ios": "https://dc.lft.to/lastmile_qr_scan"}, "lat": 38.9275025, "is_disabled": 0, "lon": -77.02534566666667}, {"fusion_lat": 0.0, "type": "electric_scooter", "name": "df71c6b2db518ee2737b37b95734d4ba", "fusion_lon": 0.0, "bike_id": "df71c6b2db518ee2737b37b95734d4ba", "is_reserved": 0, "rental_uris": {"android": "https://dc.lft.to/lastmile_qr_scan", "ios": "https://dc.lft.to/lastmile_qr_scan"}, "lat": 38.9238025, "is_disabled": 0, "lon": -77.028067}, {"fusion_lat": 0.0, "type": "electric_scooter", "name": "33517fda1bd95a247e8f00af29dd7a9a", "fusion_lon": 0.0, "bike_id": "33517fda1bd95a247e8f00af29dd7a9a", "is_reserved": 0, "rental_uris": {"android": "https://dc.lft.to/lastmile_qr_scan", "ios": "https://dc.lft.to/lastmile_qr_scan"}, "lat": 38.90011666666667, "is_disabled": 0, "lon": -76.9930685}, {"fusion_lat": 0.0, "type": "electric_scooter", "name": "564a57a9faebfa7dd92d3bd8b90355bd", "fusion_lon": 0.0, "bike_id": "564a57a9faebfa7dd92d3bd8b90355bd", "is_reserved": 0, "rental_uris": {"android": "https://dc.lft.to/lastmile_qr_scan", "ios": "https://dc.lft.to/lastmile_qr_scan"}, "lat": 38.93707666666667, "is_disabled": 0, "lon": -77.06102266666667}, {"fusion_lat": 0.0, "type": "electric_scooter", "name": "d8f6e76319d6e2a7de72def40697c710", "fusion_lon": 0.0, "bike_id": "d8f6e76319d6e2a7de72def40697c710", "is_reserved": 0, "rental_uris": {"android": "https://dc.lft.to/lastmile_qr_scan", "ios": "https://dc.lft.to/lastmile_qr_scan"}, "lat": 38.8973865, "is_disabled": 0, "lon": -77.01316016666667}, {"fusion_lat": 0.0, "type": "electric_scooter", "name": "b219644f529a16708d02f7a5303e2609", "fusion_lon": 0.0, "bike_id": "b219644f529a16708d02f7a5303e2609", "is_reserved": 0, "rental_uris": {"android": "https://dc.lft.to/lastmile_qr_scan", "ios": "https://dc.lft.to/lastmile_qr_scan"}, "lat": 38.88828083333333, "is_disabled": 0, "lon": -76.99373016666667}, {"fusion_lat": 0.0, "type": "electric_scooter", "name": "471e65b92c373fc6e64322012c47030b", "fusion_lon": 0.0, "bike_id": "471e65b92c373fc6e64322012c47030b", "is_reserved": 0, "rental_uris": {"android": "https://dc.lft.to/lastmile_qr_scan", "ios": "https://dc.lft.to/lastmile_qr_scan"}, "lat": 38.892921666666666, "is_disabled": 0, "lon": -77.0321475}, {"fusion_lat": 0.0, "type": "electric_scooter", "name": "5f6da28142ca0c3dd3e3ba7bd508e87c", "fusion_lon": 0.0, "bike_id": "5f6da28142ca0c3dd3e3ba7bd508e87c", "is_reserved": 0, "rental_uris": {"android": "https://dc.lft.to/lastmile_qr_scan", "ios": "https://dc.lft.to/lastmile_qr_scan"}, "lat": 38.885924333333335, "is_disabled": 0, "lon": -77.01231733333333}, {"fusion_lat": 0.0, "type": "electric_scooter", "name": "b7c56b0eabc240171f4c2454dd8d0393", "fusion_lon": 0.0, "bike_id": "b7c56b0eabc240171f4c2454dd8d0393", "is_reserved": 0, "rental_uris": {"android": "https://dc.lft.to/lastmile_qr_scan", "ios": "https://dc.lft.to/lastmile_qr_scan"}, "lat": 38.931036, "is_disabled": 0, "lon": -77.03270466666666}, {"fusion_lat": 0.0, "type": "electric_bike", "name": "080451733e24724c55f5ca17f7a8d068", "fusion_lon": 0.0, "bike_id": "080451733e24724c55f5ca17f7a8d068", "is_reserved": 0, "rental_uris": {"android": "https://dc.lft.to/lastmile_qr_scan", "ios": "https://dc.lft.to/lastmile_qr_scan"}, "lat": 38.869421, "is_disabled": 0, "lon": -77.09465133333333}, {"fusion_lat": 0.0, "type": "electric_scooter", "name": "857462621a4ff5b065a5caea34708717", "fusion_lon": 0.0, "bike_id": "857462621a4ff5b065a5caea34708717", "is_reserved": 0, "rental_uris": {"android": "https://dc.lft.to/lastmile_qr_scan", "ios": "https://dc.lft.to/lastmile_qr_scan"}, "lat": 38.905153, "is_disabled": 0, "lon": -77.0686185}, {"fusion_lat": 0.0, "type": "electric_scooter", "name": "5d5d2ab1b8e84592806e5f5ebb80ce2a", "fusion_lon": 0.0, "bike_id": "5d5d2ab1b8e84592806e5f5ebb80ce2a", "is_reserved": 0, "rental_uris": {"android": "https://dc.lft.to/lastmile_qr_scan", "ios": "https://dc.lft.to/lastmile_qr_scan"}, "lat": 38.91961533333333, "is_disabled": 0, "lon": -77.04512816666667}, {"fusion_lat": 0.0, "type": "electric_scooter", "name": "8e702cda00c45a9996e862d97ccf0119", "fusion_lon": 0.0, "bike_id": "8e702cda00c45a9996e862d97ccf0119", "is_reserved": 0, "rental_uris": {"android": "https://dc.lft.to/lastmile_qr_scan", "ios": "https://dc.lft.to/lastmile_qr_scan"}, "lat": 38.872363166666666, "is_disabled": 0, "lon": -77.011583}, {"fusion_lat": 0.0, "type": "electric_scooter", "name": "989baebdb6b617d2e75051ed88611307", "fusion_lon": 0.0, "bike_id": "989baebdb6b617d2e75051ed88611307", "is_reserved": 0, "rental_uris": {"android": "https://dc.lft.to/lastmile_qr_scan", "ios": "https://dc.lft.to/lastmile_qr_scan"}, "lat": 38.88850216666667, "is_disabled": 0, "lon": -76.92675416666667}, {"fusion_lat": 0.0, "type": "electric_scooter", "name": "7bd993b520956c351d320a26e3bfb556", "fusion_lon": 0.0, "bike_id": "7bd993b520956c351d320a26e3bfb556", "is_reserved": 0, "rental_uris": {"android": "https://dc.lft.to/lastmile_qr_scan", "ios": "https://dc.lft.to/lastmile_qr_scan"}, "lat": 38.918263833333334, "is_disabled": 0, "lon": -77.03361066666666}, {"fusion_lat": 0.0, "type": "electric_bike", "name": "ad8830daed9be7a9f8cc11e9cb23afe1", "fusion_lon": 0.0, "bike_id": "ad8830daed9be7a9f8cc11e9cb23afe1", "is_reserved": 0, "rental_uris": {"android": "https://dc.lft.to/lastmile_qr_scan", "ios": "https://dc.lft.to/lastmile_qr_scan"}, "lat": 38.98551033333333, "is_disabled": 0, "lon": -77.0040025}, {"fusion_lat": 0.0, "type": "electric_scooter", "name": "d3dcfb52ddfcac7689d9b6a1e6df119f", "fusion_lon": 0.0, "bike_id": "d3dcfb52ddfcac7689d9b6a1e6df119f", "is_reserved": 0, "rental_uris": {"android": "https://dc.lft.to/lastmile_qr_scan", "ios": "https://dc.lft.to/lastmile_qr_scan"}, "lat": 38.91648966666666, "is_disabled": 0, "lon": -77.03651033333334}, {"fusion_lat": 0.0, "type": "electric_scooter", "name": "d06bbf3168c589b758079255cef73466", "fusion_lon": 0.0, "bike_id": "d06bbf3168c589b758079255cef73466", "is_reserved": 0, "rental_uris": {"android": "https://dc.lft.to/lastmile_qr_scan", "ios": "https://dc.lft.to/lastmile_qr_scan"}, "lat": 38.87201616666667, "is_disabled": 0, "lon": -77.005715}, {"fusion_lat": 0.0, "type": "electric_scooter", "name": "5f9d4c3ef5d6135b1f206a0a1087d521", "fusion_lon": 0.0, "bike_id": "5f9d4c3ef5d6135b1f206a0a1087d521", "is_reserved": 0, "rental_uris": {"android": "https://dc.lft.to/lastmile_qr_scan", "ios": "https://dc.lft.to/lastmile_qr_scan"}, "lat": 38.90736116666667, "is_disabled": 0, "lon": -77.00772033333334}, {"fusion_lat": 0.0, "type": "electric_scooter", "name": "469dcd631f2731d686441ceae5cdde8e", "fusion_lon": 0.0, "bike_id": "469dcd631f2731d686441ceae5cdde8e", "is_reserved": 0, "rental_uris": {"android": "https://dc.lft.to/lastmile_qr_scan", "ios": "https://dc.lft.to/lastmile_qr_scan"}, "lat": 38.93566416666667, "is_disabled": 0, "lon": -77.0819915}, {"fusion_lat": 0.0, "type": "electric_scooter", "name": "9820eb89e057733298630a79718df7e7", "fusion_lon": 0.0, "bike_id": "9820eb89e057733298630a79718df7e7", "is_reserved": 0, "rental_uris": {"android": "https://dc.lft.to/lastmile_qr_scan", "ios": "https://dc.lft.to/lastmile_qr_scan"}, "lat": 38.9000195, "is_disabled": 0, "lon": -77.02626566666666}, {"fusion_lat": 0.0, "type": "electric_scooter", "name": "eaec4f3a95ff7371f18ac9cf97a292bc", "fusion_lon": 0.0, "bike_id": "eaec4f3a95ff7371f18ac9cf97a292bc", "is_reserved": 0, "rental_uris": {"android": "https://dc.lft.to/lastmile_qr_scan", "ios": "https://dc.lft.to/lastmile_qr_scan"}, "lat": 38.89223333333333, "is_disabled": 0, "lon": -77.023448}, {"fusion_lat": 0.0, "type": "electric_scooter", "name": "75521036d84a3a5c75c4537da30a3ddd", "fusion_lon": 0.0, "bike_id": "75521036d84a3a5c75c4537da30a3ddd", "is_reserved": 0, "rental_uris": {"android": "https://dc.lft.to/lastmile_qr_scan", "ios": "https://dc.lft.to/lastmile_qr_scan"}, "lat": 38.90515166666667, "is_disabled": 0, "lon": -77.04809666666667}, {"fusion_lat": 0.0, "type": "electric_scooter", "name": "28f76c30e2a1b116f51a03f38124e057", "fusion_lon": 0.0, "bike_id": "28f76c30e2a1b116f51a03f38124e057", "is_reserved": 0, "rental_uris": {"android": "https://dc.lft.to/lastmile_qr_scan", "ios": "https://dc.lft.to/lastmile_qr_scan"}, "lat": 38.92642816666667, "is_disabled": 0, "lon": -77.03470516666667}, {"fusion_lat": 0.0, "type": "electric_scooter", "name": "ad7e4d89dfffb2812a02f081447931ce", "fusion_lon": 0.0, "bike_id": "ad7e4d89dfffb2812a02f081447931ce", "is_reserved": 0, "rental_uris": {"android": "https://dc.lft.to/lastmile_qr_scan", "ios": "https://dc.lft.to/lastmile_qr_scan"}, "lat": 38.941275833333336, "is_disabled": 0, "lon": -77.01542733333334}, {"fusion_lat": 0.0, "type": "electric_bike", "name": "a209b2afa70e2ab022cf8f4f5fc1b349", "fusion_lon": 0.0, "bike_id": "a209b2afa70e2ab022cf8f4f5fc1b349", "is_reserved": 0, "rental_uris": {"android": "https://dc.lft.to/lastmile_qr_scan", "ios": "https://dc.lft.to/lastmile_qr_scan"}, "lat": 38.85442966666667, "is_disabled": 0, "lon": -77.08333933333333}, {"fusion_lat": 0.0, "type": "electric_scooter", "name": "2c2aeb194d517b212bfb4c301a018bae", "fusion_lon": 0.0, "bike_id": "2c2aeb194d517b212bfb4c301a018bae", "is_reserved": 0, "rental_uris": {"android": "https://dc.lft.to/lastmile_qr_scan", "ios": "https://dc.lft.to/lastmile_qr_scan"}, "lat": 38.89249616666667, "is_disabled": 0, "lon": -77.0466065}, {"fusion_lat": 0.0, "type": "electric_bike", "name": "6a7adf166d01eaa22c90622ace59fd73", "fusion_lon": 0.0, "bike_id": "6a7adf166d01eaa22c90622ace59fd73", "is_reserved": 0, "rental_uris": {"android": "https://dc.lft.to/lastmile_qr_scan", "ios": "https://dc.lft.to/lastmile_qr_scan"}, "lat": 38.857701666666664, "is_disabled": 0, "lon": -76.9876355}, {"fusion_lat": 0.0, "type": "electric_scooter", "name": "44c860881a3255a8bf3f3c01312de6c3", "fusion_lon": 0.0, "bike_id": "44c860881a3255a8bf3f3c01312de6c3", "is_reserved": 0, "rental_uris": {"android": "https://dc.lft.to/lastmile_qr_scan", "ios": "https://dc.lft.to/lastmile_qr_scan"}, "lat": 38.91892216666667, "is_disabled": 0, "lon": -77.04824066666667}, {"fusion_lat": 0.0, "type": "electric_scooter", "name": "10efe00164d8f520739f9de12f9a9c15", "fusion_lon": 0.0, "bike_id": "10efe00164d8f520739f9de12f9a9c15", "is_reserved": 0, "rental_uris": {"android": "https://dc.lft.to/lastmile_qr_scan", "ios": "https://dc.lft.to/lastmile_qr_scan"}, "lat": 38.91958266666666, "is_disabled": 0, "lon": -77.02395716666666}, {"fusion_lat": 0.0, "type": "electric_scooter", "name": "e35926a70b11316e4d36665741aeb451", "fusion_lon": 0.0, "bike_id": "e35926a70b11316e4d36665741aeb451", "is_reserved": 0, "rental_uris": {"android": "https://dc.lft.to/lastmile_qr_scan", "ios": "https://dc.lft.to/lastmile_qr_scan"}, "lat": 38.90582766666667, "is_disabled": 0, "lon": -77.02600183333334}, {"fusion_lat": 0.0, "type": "electric_scooter", "name": "02a1ebf4664ea4212180b5d9ac8884ac", "fusion_lon": 0.0, "bike_id": "02a1ebf4664ea4212180b5d9ac8884ac", "is_reserved": 0, "rental_uris": {"android": "https://dc.lft.to/lastmile_qr_scan", "ios": "https://dc.lft.to/lastmile_qr_scan"}, "lat": 38.966203666666665, "is_disabled": 0, "lon": -77.03507816666666}, {"fusion_lat": 0.0, "type": "electric_scooter", "name": "27519e50999888b324bcf51dfc0267b1", "fusion_lon": 0.0, "bike_id": "27519e50999888b324bcf51dfc0267b1", "is_reserved": 0, "rental_uris": {"android": "https://dc.lft.to/lastmile_qr_scan", "ios": "https://dc.lft.to/lastmile_qr_scan"}, "lat": 38.9279945, "is_disabled": 0, "lon": -77.02122733333333}, {"fusion_lat": 0.0, "type": "electric_scooter", "name": "01ccacba2c0775750ebe4cfcecc4c2db", "fusion_lon": 0.0, "bike_id": "01ccacba2c0775750ebe4cfcecc4c2db", "is_reserved": 0, "rental_uris": {"android": "https://dc.lft.to/lastmile_qr_scan", "ios": "https://dc.lft.to/lastmile_qr_scan"}, "lat": 38.921640833333335, "is_disabled": 0, "lon": -77.0338225}, {"fusion_lat": 0.0, "type": "electric_scooter", "name": "ee6622bd54bec9ca678f0dec2ba460c2", "fusion_lon": 0.0, "bike_id": "ee6622bd54bec9ca678f0dec2ba460c2", "is_reserved": 0, "rental_uris": {"android": "https://dc.lft.to/lastmile_qr_scan", "ios": "https://dc.lft.to/lastmile_qr_scan"}, "lat": 38.938793, "is_disabled": 0, "lon": -77.023768}, {"fusion_lat": 0.0, "type": "electric_scooter", "name": "47174c6370f71074e1d69ae8d779101d", "fusion_lon": 0.0, "bike_id": "47174c6370f71074e1d69ae8d779101d", "is_reserved": 0, "rental_uris": {"android": "https://dc.lft.to/lastmile_qr_scan", "ios": "https://dc.lft.to/lastmile_qr_scan"}, "lat": 38.90885566666667, "is_disabled": 0, "lon": -76.98542316666666}, {"fusion_lat": 0.0, "type": "electric_scooter", "name": "f31cd40353c909fc10095dda7eb16af7", "fusion_lon": 0.0, "bike_id": "f31cd40353c909fc10095dda7eb16af7", "is_reserved": 0, "rental_uris": {"android": "https://dc.lft.to/lastmile_qr_scan", "ios": "https://dc.lft.to/lastmile_qr_scan"}, "lat": 38.865077, "is_disabled": 0, "lon": -76.99003733333333}, {"fusion_lat": 0.0, "type": "electric_scooter", "name": "db87d7cb5e368b0fdbcfc57c9e17bf20", "fusion_lon": 0.0, "bike_id": "db87d7cb5e368b0fdbcfc57c9e17bf20", "is_reserved": 0, "rental_uris": {"android": "https://dc.lft.to/lastmile_qr_scan", "ios": "https://dc.lft.to/lastmile_qr_scan"}, "lat": 38.892278833333336, "is_disabled": 0, "lon": -77.03141116666667}, {"fusion_lat": 0.0, "type": "electric_scooter", "name": "7fe8b669aeed26009178c13cbdf55530", "fusion_lon": 0.0, "bike_id": "7fe8b669aeed26009178c13cbdf55530", "is_reserved": 0, "rental_uris": {"android": "https://dc.lft.to/lastmile_qr_scan", "ios": "https://dc.lft.to/lastmile_qr_scan"}, "lat": 38.92585783333333, "is_disabled": 0, "lon": -77.0261215}, {"fusion_lat": 0.0, "type": "electric_scooter", "name": "e891d0d04055600123998dfdbce9f3bd", "fusion_lon": 0.0, "bike_id": "e891d0d04055600123998dfdbce9f3bd", "is_reserved": 0, "rental_uris": {"android": "https://dc.lft.to/lastmile_qr_scan", "ios": "https://dc.lft.to/lastmile_qr_scan"}, "lat": 38.88745516666667, "is_disabled": 0, "lon": -77.027341}, {"fusion_lat": 0.0, "type": "electric_scooter", "name": "c5db0258637752cb671da8c74d3867e7", "fusion_lon": 0.0, "bike_id": "c5db0258637752cb671da8c74d3867e7", "is_reserved": 0, "rental_uris": {"android": "https://dc.lft.to/lastmile_qr_scan", "ios": "https://dc.lft.to/lastmile_qr_scan"}, "lat": 38.90736733333333, "is_disabled": 0, "lon": -77.03200366666667}, {"fusion_lat": 0.0, "type": "electric_scooter", "name": "db1dc140d4f3ac25abfe6279e0e363dd", "fusion_lon": 0.0, "bike_id": "db1dc140d4f3ac25abfe6279e0e363dd", "is_reserved": 0, "rental_uris": {"android": "https://dc.lft.to/lastmile_qr_scan", "ios": "https://dc.lft.to/lastmile_qr_scan"}, "lat": 38.910585833333336, "is_disabled": 0, "lon": -77.05320516666667}, {"fusion_lat": 0.0, "type": "electric_scooter", "name": "8a8a65e2d85bbe28012e9a5d35ad0081", "fusion_lon": 0.0, "bike_id": "8a8a65e2d85bbe28012e9a5d35ad0081", "is_reserved": 0, "rental_uris": {"android": "https://dc.lft.to/lastmile_qr_scan", "ios": "https://dc.lft.to/lastmile_qr_scan"}, "lat": 38.930906666666665, "is_disabled": 0, "lon": -77.03754566666667}, {"fusion_lat": 0.0, "type": "electric_scooter", "name": "f0cec4a09493fd401e1cd3aefc089902", "fusion_lon": 0.0, "bike_id": "f0cec4a09493fd401e1cd3aefc089902", "is_reserved": 0, "rental_uris": {"android": "https://dc.lft.to/lastmile_qr_scan", "ios": "https://dc.lft.to/lastmile_qr_scan"}, "lat": 38.9363155, "is_disabled": 0, "lon": -77.03665616666666}, {"fusion_lat": 0.0, "type": "electric_scooter", "name": "40072c78bee8dfd2213bd16fb3c26c3c", "fusion_lon": 0.0, "bike_id": "40072c78bee8dfd2213bd16fb3c26c3c", "is_reserved": 0, "rental_uris": {"android": "https://dc.lft.to/lastmile_qr_scan", "ios": "https://dc.lft.to/lastmile_qr_scan"}, "lat": 38.886830333333336, "is_disabled": 0, "lon": -76.95470783333333}, {"fusion_lat": 0.0, "type": "electric_scooter", "name": "9f70e4aa251ffe981fd7a5f5362f1372", "fusion_lon": 0.0, "bike_id": "9f70e4aa251ffe981fd7a5f5362f1372", "is_reserved": 0, "rental_uris": {"android": "https://dc.lft.to/lastmile_qr_scan", "ios": "https://dc.lft.to/lastmile_qr_scan"}, "lat": 38.8647475, "is_disabled": 0, "lon": -76.98229416666666}, {"fusion_lat": 0.0, "type": "electric_scooter", "name": "a0579dd360bf5a53478fb1f70dda3328", "fusion_lon": 0.0, "bike_id": "a0579dd360bf5a53478fb1f70dda3328", "is_reserved": 0, "rental_uris": {"android": "https://dc.lft.to/lastmile_qr_scan", "ios": "https://dc.lft.to/lastmile_qr_scan"}, "lat": 38.921612, "is_disabled": 0, "lon": -77.03382716666667}, {"fusion_lat": 0.0, "type": "electric_bike", "name": "e877137642122a1cb5d5dd8957987d14", "fusion_lon": 0.0, "bike_id": "e877137642122a1cb5d5dd8957987d14", "is_reserved": 0, "rental_uris": {"android": "https://dc.lft.to/lastmile_qr_scan", "ios": "https://dc.lft.to/lastmile_qr_scan"}, "lat": 38.874122, "is_disabled": 0, "lon": -76.971711}, {"fusion_lat": 0.0, "type": "electric_bike", "name": "abf1d14ca34a7e847db5c3b6ee79d1e8", "fusion_lon": 0.0, "bike_id": "abf1d14ca34a7e847db5c3b6ee79d1e8", "is_reserved": 0, "rental_uris": {"android": "https://dc.lft.to/lastmile_qr_scan", "ios": "https://dc.lft.to/lastmile_qr_scan"}, "lat": 38.98157633333334, "is_disabled": 0, "lon": -77.026418}, {"fusion_lat": 0.0, "type": "electric_bike", "name": "9e6b3504143cd3354656cd3aeadbb772", "fusion_lon": 0.0, "bike_id": "9e6b3504143cd3354656cd3aeadbb772", "is_reserved": 0, "rental_uris": {"android": "https://dc.lft.to/lastmile_qr_scan", "ios": "https://dc.lft.to/lastmile_qr_scan"}, "lat": 38.859395, "is_disabled": 0, "lon": -77.11831683333334}, {"fusion_lat": 0.0, "type": "electric_scooter", "name": "cfde108ae2297027898c34940f4e11f0", "fusion_lon": 0.0, "bike_id": "cfde108ae2297027898c34940f4e11f0", "is_reserved": 0, "rental_uris": {"android": "https://dc.lft.to/lastmile_qr_scan", "ios": "https://dc.lft.to/lastmile_qr_scan"}, "lat": 38.94993066666667, "is_disabled": 0, "lon": -77.02704016666667}, {"fusion_lat": 0.0, "type": "electric_scooter", "name": "276070ba77bd560386354c99bf93011a", "fusion_lon": 0.0, "bike_id": "276070ba77bd560386354c99bf93011a", "is_reserved": 0, "rental_uris": {"android": "https://dc.lft.to/lastmile_qr_scan", "ios": "https://dc.lft.to/lastmile_qr_scan"}, "lat": 38.887156, "is_disabled": 0, "lon": -77.02208566666667}, {"fusion_lat": 0.0, "type": "electric_scooter", "name": "b03aa34173591d5df6850021e2cf615d", "fusion_lon": 0.0, "bike_id": "b03aa34173591d5df6850021e2cf615d", "is_reserved": 0, "rental_uris": {"android": "https://dc.lft.to/lastmile_qr_scan", "ios": "https://dc.lft.to/lastmile_qr_scan"}, "lat": 38.91996733333333, "is_disabled": 0, "lon": -77.02407716666667}, {"fusion_lat": 0.0, "type": "electric_scooter", "name": "c133956cbf86002664005f75891ce218", "fusion_lon": 0.0, "bike_id": "c133956cbf86002664005f75891ce218", "is_reserved": 0, "rental_uris": {"android": "https://dc.lft.to/lastmile_qr_scan", "ios": "https://dc.lft.to/lastmile_qr_scan"}, "lat": 38.886124, "is_disabled": 0, "lon": -77.00136033333334}, {"fusion_lat": 0.0, "type": "electric_scooter", "name": "a3e6e97551e6e14152b567548744f785", "fusion_lon": 0.0, "bike_id": "a3e6e97551e6e14152b567548744f785", "is_reserved": 0, "rental_uris": {"android": "https://dc.lft.to/lastmile_qr_scan", "ios": "https://dc.lft.to/lastmile_qr_scan"}, "lat": 38.90012483333334, "is_disabled": 0, "lon": -77.006659}, {"fusion_lat": 0.0, "type": "electric_scooter", "name": "7afc722657c872b6942166cae9a4c2ac", "fusion_lon": 0.0, "bike_id": "7afc722657c872b6942166cae9a4c2ac", "is_reserved": 0, "rental_uris": {"android": "https://dc.lft.to/lastmile_qr_scan", "ios": "https://dc.lft.to/lastmile_qr_scan"}, "lat": 38.913712333333336, "is_disabled": 0, "lon": -77.0465365}, {"fusion_lat": 0.0, "type": "electric_scooter", "name": "adef18509fb581f02137d57f2a90ab73", "fusion_lon": 0.0, "bike_id": "adef18509fb581f02137d57f2a90ab73", "is_reserved": 0, "rental_uris": {"android": "https://dc.lft.to/lastmile_qr_scan", "ios": "https://dc.lft.to/lastmile_qr_scan"}, "lat": 38.860155, "is_disabled": 0, "lon": -76.98509483333333}, {"fusion_lat": 0.0, "type": "electric_scooter", "name": "b69bf06db42fc2e59b3691dfc226eaed", "fusion_lon": 0.0, "bike_id": "b69bf06db42fc2e59b3691dfc226eaed", "is_reserved": 0, "rental_uris": {"android": "https://dc.lft.to/lastmile_qr_scan", "ios": "https://dc.lft.to/lastmile_qr_scan"}, "lat": 38.8776535, "is_disabled": 0, "lon": -77.01808483333333}, {"fusion_lat": 0.0, "type": "electric_bike", "name": "4a60b00cae4c4120ab9feeea8517d94f", "fusion_lon": 0.0, "bike_id": "4a60b00cae4c4120ab9feeea8517d94f", "is_reserved": 0, "rental_uris": {"android": "https://dc.lft.to/lastmile_qr_scan", "ios": "https://dc.lft.to/lastmile_qr_scan"}, "lat": 38.96963266666667, "is_disabled": 0, "lon": -76.9575065}, {"fusion_lat": 0.0, "type": "electric_scooter", "name": "2c320d27a95a2f7c681045f452dd6276", "fusion_lon": 0.0, "bike_id": "2c320d27a95a2f7c681045f452dd6276", "is_reserved": 0, "rental_uris": {"android": "https://dc.lft.to/lastmile_qr_scan", "ios": "https://dc.lft.to/lastmile_qr_scan"}, "lat": 38.94388383333333, "is_disabled": 0, "lon": -77.02725933333333}, {"fusion_lat": 0.0, "type": "electric_scooter", "name": "b4ad8490b088b86ccdfac9a9ab5b43fc", "fusion_lon": 0.0, "bike_id": "b4ad8490b088b86ccdfac9a9ab5b43fc", "is_reserved": 0, "rental_uris": {"android": "https://dc.lft.to/lastmile_qr_scan", "ios": "https://dc.lft.to/lastmile_qr_scan"}, "lat": 38.90260816666667, "is_disabled": 0, "lon": -77.00226883333333}, {"fusion_lat": 0.0, "type": "electric_scooter", "name": "7576210d6205e654332aae274197eaa6", "fusion_lon": 0.0, "bike_id": "7576210d6205e654332aae274197eaa6", "is_reserved": 0, "rental_uris": {"android": "https://dc.lft.to/lastmile_qr_scan", "ios": "https://dc.lft.to/lastmile_qr_scan"}, "lat": 38.929758666666665, "is_disabled": 0, "lon": -77.03187533333333}, {"fusion_lat": 0.0, "type": "electric_scooter", "name": "35e5403dd88b7c805725bf45a3848c64", "fusion_lon": 0.0, "bike_id": "35e5403dd88b7c805725bf45a3848c64", "is_reserved": 0, "rental_uris": {"android": "https://dc.lft.to/lastmile_qr_scan", "ios": "https://dc.lft.to/lastmile_qr_scan"}, "lat": 38.907153, "is_disabled": 0, "lon": -77.02387033333333}, {"fusion_lat": 0.0, "type": "electric_scooter", "name": "144c615998f86362cc8e15faa2520753", "fusion_lon": 0.0, "bike_id": "144c615998f86362cc8e15faa2520753", "is_reserved": 0, "rental_uris": {"android": "https://dc.lft.to/lastmile_qr_scan", "ios": "https://dc.lft.to/lastmile_qr_scan"}, "lat": 38.93886116666667, "is_disabled": 0, "lon": -77.02461933333333}, {"fusion_lat": 0.0, "type": "electric_scooter", "name": "d66b94695960b119a7fc9fbf42cad276", "fusion_lon": 0.0, "bike_id": "d66b94695960b119a7fc9fbf42cad276", "is_reserved": 0, "rental_uris": {"android": "https://dc.lft.to/lastmile_qr_scan", "ios": "https://dc.lft.to/lastmile_qr_scan"}, "lat": 38.919907, "is_disabled": 0, "lon": -77.02395716666666}, {"fusion_lat": 0.0, "type": "electric_scooter", "name": "c0b3da0bd419a36707d03a376bdca4b5", "fusion_lon": 0.0, "bike_id": "c0b3da0bd419a36707d03a376bdca4b5", "is_reserved": 0, "rental_uris": {"android": "https://dc.lft.to/lastmile_qr_scan", "ios": "https://dc.lft.to/lastmile_qr_scan"}, "lat": 38.912502833333335, "is_disabled": 0, "lon": -77.044848}, {"fusion_lat": 0.0, "type": "electric_scooter", "name": "f674ce628becb47ad50bcc3b85a3f701", "fusion_lon": 0.0, "bike_id": "f674ce628becb47ad50bcc3b85a3f701", "is_reserved": 0, "rental_uris": {"android": "https://dc.lft.to/lastmile_qr_scan", "ios": "https://dc.lft.to/lastmile_qr_scan"}, "lat": 38.9132375, "is_disabled": 0, "lon": -77.01511866666667}, {"fusion_lat": 0.0, "type": "electric_scooter", "name": "e1c867b04d4adf8805058030b205c20e", "fusion_lon": 0.0, "bike_id": "e1c867b04d4adf8805058030b205c20e", "is_reserved": 0, "rental_uris": {"android": "https://dc.lft.to/lastmile_qr_scan", "ios": "https://dc.lft.to/lastmile_qr_scan"}, "lat": 38.9496025, "is_disabled": 0, "lon": -77.02723283333333}, {"fusion_lat": 0.0, "type": "electric_scooter", "name": "80228f9e19b3354e49663ada999264b3", "fusion_lon": 0.0, "bike_id": "80228f9e19b3354e49663ada999264b3", "is_reserved": 0, "rental_uris": {"android": "https://dc.lft.to/lastmile_qr_scan", "ios": "https://dc.lft.to/lastmile_qr_scan"}, "lat": 38.919431333333335, "is_disabled": 0, "lon": -77.04568883333333}, {"fusion_lat": 0.0, "type": "electric_scooter", "name": "c36f36cb97005d50533c199b62a41bb1", "fusion_lon": 0.0, "bike_id": "c36f36cb97005d50533c199b62a41bb1", "is_reserved": 0, "rental_uris": {"android": "https://dc.lft.to/lastmile_qr_scan", "ios": "https://dc.lft.to/lastmile_qr_scan"}, "lat": 38.918978333333335, "is_disabled": 0, "lon": -77.00312966666667}, {"fusion_lat": 0.0, "type": "electric_scooter", "name": "bb802efe9481592e4ef1c0f50aa45a6b", "fusion_lon": 0.0, "bike_id": "bb802efe9481592e4ef1c0f50aa45a6b", "is_reserved": 0, "rental_uris": {"android": "https://dc.lft.to/lastmile_qr_scan", "ios": "https://dc.lft.to/lastmile_qr_scan"}, "lat": 38.84428583333333, "is_disabled": 0, "lon": -76.9978385}, {"fusion_lat": 0.0, "type": "electric_scooter", "name": "d0fb5e0a190621e519e7778e424c0121", "fusion_lon": 0.0, "bike_id": "d0fb5e0a190621e519e7778e424c0121", "is_reserved": 0, "rental_uris": {"android": "https://dc.lft.to/lastmile_qr_scan", "ios": "https://dc.lft.to/lastmile_qr_scan"}, "lat": 38.87997283333333, "is_disabled": 0, "lon": -77.01370133333333}, {"fusion_lat": 0.0, "type": "electric_scooter", "name": "b3e8117547df057092a163781925a998", "fusion_lon": 0.0, "bike_id": "b3e8117547df057092a163781925a998", "is_reserved": 0, "rental_uris": {"android": "https://dc.lft.to/lastmile_qr_scan", "ios": "https://dc.lft.to/lastmile_qr_scan"}, "lat": 38.89746383333333, "is_disabled": 0, "lon": -76.94731116666667}, {"fusion_lat": 0.0, "type": "electric_scooter", "name": "407021128df9e4005eee29190174032d", "fusion_lon": 0.0, "bike_id": "407021128df9e4005eee29190174032d", "is_reserved": 0, "rental_uris": {"android": "https://dc.lft.to/lastmile_qr_scan", "ios": "https://dc.lft.to/lastmile_qr_scan"}, "lat": 38.948419666666666, "is_disabled": 0, "lon": -77.02544833333333}, {"fusion_lat": 0.0, "type": "electric_scooter", "name": "e43730245c0a60a780e8aae3531549c1", "fusion_lon": 0.0, "bike_id": "e43730245c0a60a780e8aae3531549c1", "is_reserved": 0, "rental_uris": {"android": "https://dc.lft.to/lastmile_qr_scan", "ios": "https://dc.lft.to/lastmile_qr_scan"}, "lat": 38.927639166666665, "is_disabled": 0, "lon": -77.02289166666667}, {"fusion_lat": 0.0, "type": "electric_scooter", "name": "e74874546a7cbcef39b480fde44a458b", "fusion_lon": 0.0, "bike_id": "e74874546a7cbcef39b480fde44a458b", "is_reserved": 0, "rental_uris": {"android": "https://dc.lft.to/lastmile_qr_scan", "ios": "https://dc.lft.to/lastmile_qr_scan"}, "lat": 38.9271945, "is_disabled": 0, "lon": -77.0208885}, {"fusion_lat": 0.0, "type": "electric_scooter", "name": "36a38979e49ec088406818d73789be79", "fusion_lon": 0.0, "bike_id": "36a38979e49ec088406818d73789be79", "is_reserved": 0, "rental_uris": {"android": "https://dc.lft.to/lastmile_qr_scan", "ios": "https://dc.lft.to/lastmile_qr_scan"}, "lat": 38.905069, "is_disabled": 0, "lon": -77.02597133333333}, {"fusion_lat": 0.0, "type": "electric_scooter", "name": "2b9697577cc104f6317ab6cbe5e2c8fa", "fusion_lon": 0.0, "bike_id": "2b9697577cc104f6317ab6cbe5e2c8fa", "is_reserved": 0, "rental_uris": {"android": "https://dc.lft.to/lastmile_qr_scan", "ios": "https://dc.lft.to/lastmile_qr_scan"}, "lat": 38.911109833333335, "is_disabled": 0, "lon": -77.04665866666667}, {"fusion_lat": 0.0, "type": "electric_scooter", "name": "8be8b916d501005f2be74542af4f5e0b", "fusion_lon": 0.0, "bike_id": "8be8b916d501005f2be74542af4f5e0b", "is_reserved": 0, "rental_uris": {"android": "https://dc.lft.to/lastmile_qr_scan", "ios": "https://dc.lft.to/lastmile_qr_scan"}, "lat": 38.89157066666667, "is_disabled": 0, "lon": -77.00569816666666}, {"fusion_lat": 0.0, "type": "electric_scooter", "name": "68edb11bd448a89cd6d7b00068a28e8b", "fusion_lon": 0.0, "bike_id": "68edb11bd448a89cd6d7b00068a28e8b", "is_reserved": 0, "rental_uris": {"android": "https://dc.lft.to/lastmile_qr_scan", "ios": "https://dc.lft.to/lastmile_qr_scan"}, "lat": 38.94418616666667, "is_disabled": 0, "lon": -77.01778666666667}, {"fusion_lat": 0.0, "type": "electric_scooter", "name": "5203f655c629298161701c6a1552b0ad", "fusion_lon": 0.0, "bike_id": "5203f655c629298161701c6a1552b0ad", "is_reserved": 0, "rental_uris": {"android": "https://dc.lft.to/lastmile_qr_scan", "ios": "https://dc.lft.to/lastmile_qr_scan"}, "lat": 38.864704833333334, "is_disabled": 0, "lon": -76.97748933333334}, {"fusion_lat": 0.0, "type": "electric_scooter", "name": "ce13f576b6bb2a15333b2cf53d238e2f", "fusion_lon": 0.0, "bike_id": "ce13f576b6bb2a15333b2cf53d238e2f", "is_reserved": 0, "rental_uris": {"android": "https://dc.lft.to/lastmile_qr_scan", "ios": "https://dc.lft.to/lastmile_qr_scan"}, "lat": 38.876462, "is_disabled": 0, "lon": -76.9650735}, {"fusion_lat": 0.0, "type": "electric_scooter", "name": "befd8494010545fcb52843d6b6d1e823", "fusion_lon": 0.0, "bike_id": "befd8494010545fcb52843d6b6d1e823", "is_reserved": 0, "rental_uris": {"android": "https://dc.lft.to/lastmile_qr_scan", "ios": "https://dc.lft.to/lastmile_qr_scan"}, "lat": 38.9267585, "is_disabled": 0, "lon": -77.0230565}, {"fusion_lat": 0.0, "type": "electric_scooter", "name": "12283536b014b9d0c8541c751465c9d6", "fusion_lon": 0.0, "bike_id": "12283536b014b9d0c8541c751465c9d6", "is_reserved": 0, "rental_uris": {"android": "https://dc.lft.to/lastmile_qr_scan", "ios": "https://dc.lft.to/lastmile_qr_scan"}, "lat": 38.929117833333336, "is_disabled": 0, "lon": -77.03755866666667}, {"fusion_lat": 0.0, "type": "electric_scooter", "name": "1e593c6dc2ae6a18bfede1abb05c9c7b", "fusion_lon": 0.0, "bike_id": "1e593c6dc2ae6a18bfede1abb05c9c7b", "is_reserved": 0, "rental_uris": {"android": "https://dc.lft.to/lastmile_qr_scan", "ios": "https://dc.lft.to/lastmile_qr_scan"}, "lat": 38.924081666666666, "is_disabled": 0, "lon": -77.02536883333333}, {"fusion_lat": 0.0, "type": "electric_bike", "name": "575acd9d593511e37f92644e9736a5e3", "fusion_lon": 0.0, "bike_id": "575acd9d593511e37f92644e9736a5e3", "is_reserved": 0, "rental_uris": {"android": "https://dc.lft.to/lastmile_qr_scan", "ios": "https://dc.lft.to/lastmile_qr_scan"}, "lat": 38.90315616666667, "is_disabled": 0, "lon": -76.91218966666666}, {"fusion_lat": 0.0, "type": "electric_scooter", "name": "bb2d1f8c4084822e47c4273ec5626dcd", "fusion_lon": 0.0, "bike_id": "bb2d1f8c4084822e47c4273ec5626dcd", "is_reserved": 0, "rental_uris": {"android": "https://dc.lft.to/lastmile_qr_scan", "ios": "https://dc.lft.to/lastmile_qr_scan"}, "lat": 38.932139666666664, "is_disabled": 0, "lon": -77.02837316666667}, {"fusion_lat": 0.0, "type": "electric_scooter", "name": "4beb0530c7d854e8e77a4d17d89b088f", "fusion_lon": 0.0, "bike_id": "4beb0530c7d854e8e77a4d17d89b088f", "is_reserved": 0, "rental_uris": {"android": "https://dc.lft.to/lastmile_qr_scan", "ios": "https://dc.lft.to/lastmile_qr_scan"}, "lat": 38.93984, "is_disabled": 0, "lon": -77.032612}, {"fusion_lat": 0.0, "type": "electric_scooter", "name": "71b3c41e104b6cdf0ee0ed32b0086d89", "fusion_lon": 0.0, "bike_id": "71b3c41e104b6cdf0ee0ed32b0086d89", "is_reserved": 0, "rental_uris": {"android": "https://dc.lft.to/lastmile_qr_scan", "ios": "https://dc.lft.to/lastmile_qr_scan"}, "lat": 38.86705366666666, "is_disabled": 0, "lon": -76.98709866666667}, {"fusion_lat": 0.0, "type": "electric_scooter", "name": "0017d548dc44f7d0cced8ae6be0eb466", "fusion_lon": 0.0, "bike_id": "0017d548dc44f7d0cced8ae6be0eb466", "is_reserved": 0, "rental_uris": {"android": "https://dc.lft.to/lastmile_qr_scan", "ios": "https://dc.lft.to/lastmile_qr_scan"}, "lat": 38.90723333333333, "is_disabled": 0, "lon": -77.03259016666667}, {"fusion_lat": 0.0, "type": "electric_scooter", "name": "aa0d0b4cb33f53515e69c1180981ef6f", "fusion_lon": 0.0, "bike_id": "aa0d0b4cb33f53515e69c1180981ef6f", "is_reserved": 0, "rental_uris": {"android": "https://dc.lft.to/lastmile_qr_scan", "ios": "https://dc.lft.to/lastmile_qr_scan"}, "lat": 38.926237, "is_disabled": 0, "lon": -77.04335083333334}, {"fusion_lat": 0.0, "type": "electric_scooter", "name": "ec5705a1efa8bde860729131ecbbf780", "fusion_lon": 0.0, "bike_id": "ec5705a1efa8bde860729131ecbbf780", "is_reserved": 0, "rental_uris": {"android": "https://dc.lft.to/lastmile_qr_scan", "ios": "https://dc.lft.to/lastmile_qr_scan"}, "lat": 38.92480616666667, "is_disabled": 0, "lon": -77.02669016666667}, {"fusion_lat": 0.0, "type": "electric_scooter", "name": "7454992953cbb14c80a4110f54863f4d", "fusion_lon": 0.0, "bike_id": "7454992953cbb14c80a4110f54863f4d", "is_reserved": 0, "rental_uris": {"android": "https://dc.lft.to/lastmile_qr_scan", "ios": "https://dc.lft.to/lastmile_qr_scan"}, "lat": 38.924612333333336, "is_disabled": 0, "lon": -77.02979816666667}, {"fusion_lat": 0.0, "type": "electric_scooter", "name": "a3a524804f139633e7e12015670ae9b0", "fusion_lon": 0.0, "bike_id": "a3a524804f139633e7e12015670ae9b0", "is_reserved": 0, "rental_uris": {"android": "https://dc.lft.to/lastmile_qr_scan", "ios": "https://dc.lft.to/lastmile_qr_scan"}, "lat": 38.921634166666664, "is_disabled": 0, "lon": -77.03376366666667}, {"fusion_lat": 0.0, "type": "electric_scooter", "name": "8189073d14e69565cbcd5d9ae7b439fc", "fusion_lon": 0.0, "bike_id": "8189073d14e69565cbcd5d9ae7b439fc", "is_reserved": 0, "rental_uris": {"android": "https://dc.lft.to/lastmile_qr_scan", "ios": "https://dc.lft.to/lastmile_qr_scan"}, "lat": 38.89631333333333, "is_disabled": 0, "lon": -77.03202}, {"fusion_lat": 0.0, "type": "electric_scooter", "name": "d37f4d33b25bb983178a5daee6f2965e", "fusion_lon": 0.0, "bike_id": "d37f4d33b25bb983178a5daee6f2965e", "is_reserved": 0, "rental_uris": {"android": "https://dc.lft.to/lastmile_qr_scan", "ios": "https://dc.lft.to/lastmile_qr_scan"}, "lat": 38.951881666666665, "is_disabled": 0, "lon": -77.02610333333334}, {"fusion_lat": 0.0, "type": "electric_bike", "name": "07f197b39d7c6c27dfa2142307421844", "fusion_lon": 0.0, "bike_id": "07f197b39d7c6c27dfa2142307421844", "is_reserved": 0, "rental_uris": {"android": "https://dc.lft.to/lastmile_qr_scan", "ios": "https://dc.lft.to/lastmile_qr_scan"}, "lat": 38.932301333333335, "is_disabled": 0, "lon": -77.18124166666666}, {"fusion_lat": 0.0, "type": "electric_scooter", "name": "706d63c0975962c98aca92cd2e5e9aba", "fusion_lon": 0.0, "bike_id": "706d63c0975962c98aca92cd2e5e9aba", "is_reserved": 0, "rental_uris": {"android": "https://dc.lft.to/lastmile_qr_scan", "ios": "https://dc.lft.to/lastmile_qr_scan"}, "lat": 38.916796166666664, "is_disabled": 0, "lon": -77.03691466666666}, {"fusion_lat": 0.0, "type": "electric_scooter", "name": "55c74e6d8f5171766aeaaa3ac600f9f0", "fusion_lon": 0.0, "bike_id": "55c74e6d8f5171766aeaaa3ac600f9f0", "is_reserved": 0, "rental_uris": {"android": "https://dc.lft.to/lastmile_qr_scan", "ios": "https://dc.lft.to/lastmile_qr_scan"}, "lat": 38.909771166666665, "is_disabled": 0, "lon": -77.03433466666667}, {"fusion_lat": 0.0, "type": "electric_scooter", "name": "4a339b219881f4b73d64a5c3e860f24a", "fusion_lon": 0.0, "bike_id": "4a339b219881f4b73d64a5c3e860f24a", "is_reserved": 0, "rental_uris": {"android": "https://dc.lft.to/lastmile_qr_scan", "ios": "https://dc.lft.to/lastmile_qr_scan"}, "lat": 38.88917383333333, "is_disabled": 0, "lon": -77.0490915}, {"fusion_lat": 0.0, "type": "electric_scooter", "name": "131c01bdb47cefe8e15069c3bea56947", "fusion_lon": 0.0, "bike_id": "131c01bdb47cefe8e15069c3bea56947", "is_reserved": 0, "rental_uris": {"android": "https://dc.lft.to/lastmile_qr_scan", "ios": "https://dc.lft.to/lastmile_qr_scan"}, "lat": 38.90312, "is_disabled": 0, "lon": -77.050451}, {"fusion_lat": 0.0, "type": "electric_bike", "name": "b1b7d175d53726a39758ef77264ffa22", "fusion_lon": 0.0, "bike_id": "b1b7d175d53726a39758ef77264ffa22", "is_reserved": 0, "rental_uris": {"android": "https://dc.lft.to/lastmile_qr_scan", "ios": "https://dc.lft.to/lastmile_qr_scan"}, "lat": 38.953316666666666, "is_disabled": 0, "lon": -76.95437533333333}, {"fusion_lat": 0.0, "type": "electric_scooter", "name": "b2b8f57b08b4e2575a807e0487134666", "fusion_lon": 0.0, "bike_id": "b2b8f57b08b4e2575a807e0487134666", "is_reserved": 0, "rental_uris": {"android": "https://dc.lft.to/lastmile_qr_scan", "ios": "https://dc.lft.to/lastmile_qr_scan"}, "lat": 38.91374716666667, "is_disabled": 0, "lon": -77.03141633333334}, {"fusion_lat": 0.0, "type": "electric_scooter", "name": "4d2a0b43d2d0dfd9e1688c85b18ec966", "fusion_lon": 0.0, "bike_id": "4d2a0b43d2d0dfd9e1688c85b18ec966", "is_reserved": 0, "rental_uris": {"android": "https://dc.lft.to/lastmile_qr_scan", "ios": "https://dc.lft.to/lastmile_qr_scan"}, "lat": 38.918444666666666, "is_disabled": 0, "lon": -77.05950633333333}, {"fusion_lat": 0.0, "type": "electric_scooter", "name": "6920683fc7a61a3a9e4f6a5b39b0092a", "fusion_lon": 0.0, "bike_id": "6920683fc7a61a3a9e4f6a5b39b0092a", "is_reserved": 0, "rental_uris": {"android": "https://dc.lft.to/lastmile_qr_scan", "ios": "https://dc.lft.to/lastmile_qr_scan"}, "lat": 38.899067, "is_disabled": 0, "lon": -76.99382216666666}, {"fusion_lat": 0.0, "type": "electric_scooter", "name": "5fa7e0ac4f2dfdcc063c2f6c02bfb6c0", "fusion_lon": 0.0, "bike_id": "5fa7e0ac4f2dfdcc063c2f6c02bfb6c0", "is_reserved": 0, "rental_uris": {"android": "https://dc.lft.to/lastmile_qr_scan", "ios": "https://dc.lft.to/lastmile_qr_scan"}, "lat": 38.91637583333333, "is_disabled": 0, "lon": -77.04800766666666}, {"fusion_lat": 0.0, "type": "electric_scooter", "name": "a6137efc69fca5b48b68825bd20ce416", "fusion_lon": 0.0, "bike_id": "a6137efc69fca5b48b68825bd20ce416", "is_reserved": 0, "rental_uris": {"android": "https://dc.lft.to/lastmile_qr_scan", "ios": "https://dc.lft.to/lastmile_qr_scan"}, "lat": 38.892277666666665, "is_disabled": 0, "lon": -77.0499925}, {"fusion_lat": 0.0, "type": "electric_scooter", "name": "4d52b1349b87d619dfda79f248763bd1", "fusion_lon": 0.0, "bike_id": "4d52b1349b87d619dfda79f248763bd1", "is_reserved": 0, "rental_uris": {"android": "https://dc.lft.to/lastmile_qr_scan", "ios": "https://dc.lft.to/lastmile_qr_scan"}, "lat": 38.91128416666667, "is_disabled": 0, "lon": -77.02201883333333}, {"fusion_lat": 0.0, "type": "electric_scooter", "name": "e5e6524a72dfc20b7936062f9619f979", "fusion_lon": 0.0, "bike_id": "e5e6524a72dfc20b7936062f9619f979", "is_reserved": 0, "rental_uris": {"android": "https://dc.lft.to/lastmile_qr_scan", "ios": "https://dc.lft.to/lastmile_qr_scan"}, "lat": 38.95277516666667, "is_disabled": 0, "lon": -77.06863133333333}, {"fusion_lat": 0.0, "type": "electric_scooter", "name": "faddcbc5ba0b4e168a02d6e3e9ff7012", "fusion_lon": 0.0, "bike_id": "faddcbc5ba0b4e168a02d6e3e9ff7012", "is_reserved": 0, "rental_uris": {"android": "https://dc.lft.to/lastmile_qr_scan", "ios": "https://dc.lft.to/lastmile_qr_scan"}, "lat": 38.90576316666667, "is_disabled": 0, "lon": -76.97630966666667}, {"fusion_lat": 0.0, "type": "electric_scooter", "name": "05c5008115f0a5a5a90df98827d98985", "fusion_lon": 0.0, "bike_id": "05c5008115f0a5a5a90df98827d98985", "is_reserved": 0, "rental_uris": {"android": "https://dc.lft.to/lastmile_qr_scan", "ios": "https://dc.lft.to/lastmile_qr_scan"}, "lat": 38.909562666666666, "is_disabled": 0, "lon": -77.02200033333334}, {"fusion_lat": 0.0, "type": "electric_scooter", "name": "5ce083505e81c7f723459ae4aafc8570", "fusion_lon": 0.0, "bike_id": "5ce083505e81c7f723459ae4aafc8570", "is_reserved": 0, "rental_uris": {"android": "https://dc.lft.to/lastmile_qr_scan", "ios": "https://dc.lft.to/lastmile_qr_scan"}, "lat": 38.88675383333333, "is_disabled": 0, "lon": -76.936112}, {"fusion_lat": 0.0, "type": "electric_scooter", "name": "199284abee7b595094f6a0892cafee5b", "fusion_lon": 0.0, "bike_id": "199284abee7b595094f6a0892cafee5b", "is_reserved": 0, "rental_uris": {"android": "https://dc.lft.to/lastmile_qr_scan", "ios": "https://dc.lft.to/lastmile_qr_scan"}, "lat": 38.92496916666666, "is_disabled": 0, "lon": -77.02438616666667}, {"fusion_lat": 0.0, "type": "electric_scooter", "name": "712dc5d54dfc8cd47a5c15e671bbc6ce", "fusion_lon": 0.0, "bike_id": "712dc5d54dfc8cd47a5c15e671bbc6ce", "is_reserved": 0, "rental_uris": {"android": "https://dc.lft.to/lastmile_qr_scan", "ios": "https://dc.lft.to/lastmile_qr_scan"}, "lat": 38.920669333333336, "is_disabled": 0, "lon": -77.034583}, {"fusion_lat": 0.0, "type": "electric_scooter", "name": "3952943ee0a60bc54e78c148473c7429", "fusion_lon": 0.0, "bike_id": "3952943ee0a60bc54e78c148473c7429", "is_reserved": 0, "rental_uris": {"android": "https://dc.lft.to/lastmile_qr_scan", "ios": "https://dc.lft.to/lastmile_qr_scan"}, "lat": 38.924777666666664, "is_disabled": 0, "lon": -77.02838216666666}, {"fusion_lat": 0.0, "type": "electric_scooter", "name": "9fa30877def2019007398c5d018f5dce", "fusion_lon": 0.0, "bike_id": "9fa30877def2019007398c5d018f5dce", "is_reserved": 0, "rental_uris": {"android": "https://dc.lft.to/lastmile_qr_scan", "ios": "https://dc.lft.to/lastmile_qr_scan"}, "lat": 38.908910166666665, "is_disabled": 0, "lon": -77.00412433333334}, {"fusion_lat": 0.0, "type": "electric_scooter", "name": "10f58bc3aa55042a190a18beaae4f298", "fusion_lon": 0.0, "bike_id": "10f58bc3aa55042a190a18beaae4f298", "is_reserved": 0, "rental_uris": {"android": "https://dc.lft.to/lastmile_qr_scan", "ios": "https://dc.lft.to/lastmile_qr_scan"}, "lat": 38.915949833333336, "is_disabled": 0, "lon": -77.04479366666666}, {"fusion_lat": 0.0, "type": "electric_scooter", "name": "b8eef024a4b4761d3650559931d200ae", "fusion_lon": 0.0, "bike_id": "b8eef024a4b4761d3650559931d200ae", "is_reserved": 0, "rental_uris": {"android": "https://dc.lft.to/lastmile_qr_scan", "ios": "https://dc.lft.to/lastmile_qr_scan"}, "lat": 38.88516033333333, "is_disabled": 0, "lon": -77.01592466666666}, {"fusion_lat": 0.0, "type": "electric_scooter", "name": "c92d76b111f28baeae70f2b0ba0a9e69", "fusion_lon": 0.0, "bike_id": "c92d76b111f28baeae70f2b0ba0a9e69", "is_reserved": 0, "rental_uris": {"android": "https://dc.lft.to/lastmile_qr_scan", "ios": "https://dc.lft.to/lastmile_qr_scan"}, "lat": 38.888773666666665, "is_disabled": 0, "lon": -76.99031666666667}, {"fusion_lat": 0.0, "type": "electric_scooter", "name": "2cc5aadd16c46a6bc9bf076cbc6e9946", "fusion_lon": 0.0, "bike_id": "2cc5aadd16c46a6bc9bf076cbc6e9946", "is_reserved": 0, "rental_uris": {"android": "https://dc.lft.to/lastmile_qr_scan", "ios": "https://dc.lft.to/lastmile_qr_scan"}, "lat": 38.95209916666667, "is_disabled": 0, "lon": -77.02731983333334}, {"fusion_lat": 0.0, "type": "electric_scooter", "name": "409e344d1d2973ebe928e01d68ba08b1", "fusion_lon": 0.0, "bike_id": "409e344d1d2973ebe928e01d68ba08b1", "is_reserved": 0, "rental_uris": {"android": "https://dc.lft.to/lastmile_qr_scan", "ios": "https://dc.lft.to/lastmile_qr_scan"}, "lat": 38.8812965, "is_disabled": 0, "lon": -77.0262795}, {"fusion_lat": 0.0, "type": "electric_scooter", "name": "b339f4efeac83eabe4c73ba8511a6500", "fusion_lon": 0.0, "bike_id": "b339f4efeac83eabe4c73ba8511a6500", "is_reserved": 0, "rental_uris": {"android": "https://dc.lft.to/lastmile_qr_scan", "ios": "https://dc.lft.to/lastmile_qr_scan"}, "lat": 38.9337255, "is_disabled": 0, "lon": -77.05727616666667}, {"fusion_lat": 0.0, "type": "electric_scooter", "name": "d06a7b4da6b8fd2cfbc2c226417f35b3", "fusion_lon": 0.0, "bike_id": "d06a7b4da6b8fd2cfbc2c226417f35b3", "is_reserved": 0, "rental_uris": {"android": "https://dc.lft.to/lastmile_qr_scan", "ios": "https://dc.lft.to/lastmile_qr_scan"}, "lat": 38.92794633333333, "is_disabled": 0, "lon": -77.052588}, {"fusion_lat": 0.0, "type": "electric_scooter", "name": "4e5a2affc61c0312dc562d2c03a64fe1", "fusion_lon": 0.0, "bike_id": "4e5a2affc61c0312dc562d2c03a64fe1", "is_reserved": 0, "rental_uris": {"android": "https://dc.lft.to/lastmile_qr_scan", "ios": "https://dc.lft.to/lastmile_qr_scan"}, "lat": 38.90739266666667, "is_disabled": 0, "lon": -77.026916}, {"fusion_lat": 0.0, "type": "electric_scooter", "name": "bd70007c2970d8e34f67ba0ecb25cb0c", "fusion_lon": 0.0, "bike_id": "bd70007c2970d8e34f67ba0ecb25cb0c", "is_reserved": 0, "rental_uris": {"android": "https://dc.lft.to/lastmile_qr_scan", "ios": "https://dc.lft.to/lastmile_qr_scan"}, "lat": 38.91877933333333, "is_disabled": 0, "lon": -77.034817}, {"fusion_lat": 0.0, "type": "electric_scooter", "name": "d4ddd1159a9b6ad0004df317b06f05f3", "fusion_lon": 0.0, "bike_id": "d4ddd1159a9b6ad0004df317b06f05f3", "is_reserved": 0, "rental_uris": {"android": "https://dc.lft.to/lastmile_qr_scan", "ios": "https://dc.lft.to/lastmile_qr_scan"}, "lat": 38.90414283333333, "is_disabled": 0, "lon": -77.0295255},