{"data": {"bikes": [{"lon": -77.0633645, "bike_id": "5fc0a85aa429008367a6ac5571aa7a5e", "lat": 38.90765533333333, "fusion_lon": 0.0, "fusion_lat": 0.0, "type": "electric_scooter", "name": "5fc0a85aa429008367a6ac5571aa7a5e", "is_disabled": 0, "rental_uris": {"ios": "https://dc.lft.to/lastmile_qr_scan", "android": "https://dc.lft.to/lastmile_qr_scan"}, "is_reserved": 0}, {"lon": -77.06863083333333, "bike_id": "f4f3bddbae9ddff65ec20ecead6da5b4", "lat": 38.80578083333333, "fusion_lon": 0.0, "fusion_lat": 0.0, "type": "electric_bike", "name": "f4f3bddbae9ddff65ec20ecead6da5b4", "is_disabled": 0, "rental_uris": {"ios": "https://dc.lft.to/lastmile_qr_scan", "android": "https://dc.lft.to/lastmile_qr_scan"}, "is_reserved": 0}, {"lon": -76.976237, "bike_id": "acbfde7423decc0971be84f94be87b40", "lat": 38.926469, "fusion_lon": 0.0, "fusion_lat": 0.0, "type": "electric_scooter", "name": "acbfde7423decc0971be84f94be87b40", "is_disabled": 0, "rental_uris": {"ios": "https://dc.lft.to/lastmile_qr_scan", "android": "https://dc.lft.to/lastmile_qr_scan"}, "is_reserved": 0}, {"lon": -77.088134, "bike_id": "7449ada3905cdbc65016fb1839022756", "lat": 38.91173416666667, "fusion_lon": 0.0, "fusion_lat": 0.0, "type": "electric_bike", "name": "7449ada3905cdbc65016fb1839022756", "is_disabled": 0, "rental_uris": {"ios": "https://dc.lft.to/lastmile_qr_scan", "android": "https://dc.lft.to/lastmile_qr_scan"}, "is_reserved": 0}, {"lon": -76.95237316666666, "bike_id": "23294ffb3897d67bedaa0349b7cfd7bc", "lat": 38.891001, "fusion_lon": 0.0, "fusion_lat": 0.0, "type": "electric_scooter", "name": "23294ffb3897d67bedaa0349b7cfd7bc", "is_disabled": 0, "rental_uris": {"ios": "https://dc.lft.to/lastmile_qr_scan", "android": "https://dc.lft.to/lastmile_qr_scan"}, "is_reserved": 0}, {"lon": -77.03929866666667, "bike_id": "5194c51c566d373d536aa12e402b5a77", "lat": 38.927942333333334, "fusion_lon": 0.0, "fusion_lat": 0.0, "type": "electric_scooter", "name": "5194c51c566d373d536aa12e402b5a77", "is_disabled": 0, "rental_uris": {"ios": "https://dc.lft.to/lastmile_qr_scan", "android": "https://dc.lft.to/lastmile_qr_scan"}, "is_reserved": 0}, {"lon": -77.01871083333333, "bike_id": "0522d1fc82ba8fdfa2c844f340a3364d", "lat": 38.951471, "fusion_lon": 0.0, "fusion_lat": 0.0, "type": "electric_scooter", "name": "0522d1fc82ba8fdfa2c844f340a3364d", "is_disabled": 0, "rental_uris": {"ios": "https://dc.lft.to/lastmile_qr_scan", "android": "https://dc.lft.to/lastmile_qr_scan"}, "is_reserved": 0}, {"lon": -76.9978325, "bike_id": "13c0b2f59fe4885229a80b2ef3a11971", "lat": 38.844232, "fusion_lon": 0.0, "fusion_lat": 0.0, "type": "electric_scooter", "name": "13c0b2f59fe4885229a80b2ef3a11971", "is_disabled": 0, "rental_uris": {"ios": "https://dc.lft.to/lastmile_qr_scan", "android": "https://dc.lft.to/lastmile_qr_scan"}, "is_reserved": 0}, {"lon": -76.9910005, "bike_id": "6772d5e9199796aaec4d8441bc1a338e", "lat": 38.903158, "fusion_lon": 0.0, "fusion_lat": 0.0, "type": "electric_scooter", "name": "6772d5e9199796aaec4d8441bc1a338e", "is_disabled": 0, "rental_uris": {"ios": "https://dc.lft.to/lastmile_qr_scan", "android": "https://dc.lft.to/lastmile_qr_scan"}, "is_reserved": 0}, {"lon": -77.05732383333333, "bike_id": "6bb20c254ecc6958d14be38dd35eed65", "lat": 38.93363933333333, "fusion_lon": 0.0, "fusion_lat": 0.0, "type": "electric_scooter", "name": "6bb20c254ecc6958d14be38dd35eed65", "is_disabled": 0, "rental_uris": {"ios": "https://dc.lft.to/lastmile_qr_scan", "android": "https://dc.lft.to/lastmile_qr_scan"}, "is_reserved": 0}, {"lon": -77.01879983333333, "bike_id": "33ba389086c976d2bb73f189c1c54033", "lat": 38.9182915, "fusion_lon": 0.0, "fusion_lat": 0.0, "type": "electric_scooter", "name": "33ba389086c976d2bb73f189c1c54033", "is_disabled": 0, "rental_uris": {"ios": "https://dc.lft.to/lastmile_qr_scan", "android": "https://dc.lft.to/lastmile_qr_scan"}, "is_reserved": 0}, {"lon": -77.04270766666667, "bike_id": "f1f23d22b781003ceb18922888ea8570", "lat": 38.907423333333334, "fusion_lon": 0.0, "fusion_lat": 0.0, "type": "electric_scooter", "name": "f1f23d22b781003ceb18922888ea8570", "is_disabled": 0, "rental_uris": {"ios": "https://dc.lft.to/lastmile_qr_scan", "android": "https://dc.lft.to/lastmile_qr_scan"}, "is_reserved": 0}, {"lon": -77.000716, "bike_id": "8f2a1979562f427025fad9add0d8e595", "lat": 38.894892, "fusion_lon": 0.0, "fusion_lat": 0.0, "type": "electric_scooter", "name": "8f2a1979562f427025fad9add0d8e595", "is_disabled": 0, "rental_uris": {"ios": "https://dc.lft.to/lastmile_qr_scan", "android": "https://dc.lft.to/lastmile_qr_scan"}, "is_reserved": 0}, {"lon": -76.982324, "bike_id": "4184985b344fbfc8e3cf956a5da69e86", "lat": 38.8864395, "fusion_lon": 0.0, "fusion_lat": 0.0, "type": "electric_scooter", "name": "4184985b344fbfc8e3cf956a5da69e86", "is_disabled": 0, "rental_uris": {"ios": "https://dc.lft.to/lastmile_qr_scan", "android": "https://dc.lft.to/lastmile_qr_scan"}, "is_reserved": 0}, {"lon": -77.10488533333333, "bike_id": "16189e18fbff961dc6804d1cc1c937cb", "lat": 38.856070333333335, "fusion_lon": 0.0, "fusion_lat": 0.0, "type": "electric_bike", "name": "16189e18fbff961dc6804d1cc1c937cb", "is_disabled": 0, "rental_uris": {"ios": "https://dc.lft.to/lastmile_qr_scan", "android": "https://dc.lft.to/lastmile_qr_scan"}, "is_reserved": 0}, {"lon": -77.041564, "bike_id": "1a1040a5058ae08f1bdb0b5739db7dee", "lat": 38.91420433333333, "fusion_lon": 0.0, "fusion_lat": 0.0, "type": "electric_scooter", "name": "1a1040a5058ae08f1bdb0b5739db7dee", "is_disabled": 0, "rental_uris": {"ios": "https://dc.lft.to/lastmile_qr_scan", "android": "https://dc.lft.to/lastmile_qr_scan"}, "is_reserved": 0}, {"lon": -77.03181033333334, "bike_id": "79911d3625a9401d3570d09c9a91f6c3", "lat": 38.9368295, "fusion_lon": 0.0, "fusion_lat": 0.0, "type": "electric_scooter", "name": "79911d3625a9401d3570d09c9a91f6c3", "is_disabled": 0, "rental_uris": {"ios": "https://dc.lft.to/lastmile_qr_scan", "android": "https://dc.lft.to/lastmile_qr_scan"}, "is_reserved": 0}, {"lon": -77.01209633333333, "bike_id": "e4320a7f393710de661f5d73075e5374", "lat": 38.921195, "fusion_lon": 0.0, "fusion_lat": 0.0, "type": "electric_scooter", "name": "e4320a7f393710de661f5d73075e5374", "is_disabled": 0, "rental_uris": {"ios": "https://dc.lft.to/lastmile_qr_scan", "android": "https://dc.lft.to/lastmile_qr_scan"}, "is_reserved": 0}, {"lon": -77.0334865, "bike_id": "867c37a659a5d520cec85f5b933ba080", "lat": 38.892467, "fusion_lon": 0.0, "fusion_lat": 0.0, "type": "electric_scooter", "name": "867c37a659a5d520cec85f5b933ba080", "is_disabled": 0, "rental_uris": {"ios": "https://dc.lft.to/lastmile_qr_scan", "android": "https://dc.lft.to/lastmile_qr_scan"}, "is_reserved": 0}, {"lon": -76.975411, "bike_id": "b7643e134b37bf385ff4a96401e8f69e", "lat": 38.864208, "fusion_lon": 0.0, "fusion_lat": 0.0, "type": "electric_scooter", "name": "b7643e134b37bf385ff4a96401e8f69e", "is_disabled": 0, "rental_uris": {"ios": "https://dc.lft.to/lastmile_qr_scan", "android": "https://dc.lft.to/lastmile_qr_scan"}, "is_reserved": 0}, {"lon": -76.9299765, "bike_id": "0be4b3f96ef9eb3e85817c6ce00b6a7f", "lat": 38.89191833333334, "fusion_lon": 0.0, "fusion_lat": 0.0, "type": "electric_scooter", "name": "0be4b3f96ef9eb3e85817c6ce00b6a7f", "is_disabled": 0, "rental_uris": {"ios": "https://dc.lft.to/lastmile_qr_scan", "android": "https://dc.lft.to/lastmile_qr_scan"}, "is_reserved": 0}, {"lon": -77.00628833333333, "bike_id": "51bd988e7dba2933600f2be53918a3da", "lat": 38.9126115, "fusion_lon": 0.0, "fusion_lat": 0.0, "type": "electric_scooter", "name": "51bd988e7dba2933600f2be53918a3da", "is_disabled": 0, "rental_uris": {"ios": "https://dc.lft.to/lastmile_qr_scan", "android": "https://dc.lft.to/lastmile_qr_scan"}, "is_reserved": 0}, {"lon": -77.05165516666666, "bike_id": "2dd6a39aea66d00fb2f87fcaeff86b18", "lat": 39.0431055, "fusion_lon": 0.0, "fusion_lat": 0.0, "type": "electric_bike", "name": "2dd6a39aea66d00fb2f87fcaeff86b18", "is_disabled": 0, "rental_uris": {"ios": "https://dc.lft.to/lastmile_qr_scan", "android": "https://dc.lft.to/lastmile_qr_scan"}, "is_reserved": 0}, {"lon": -77.05696216666666, "bike_id": "15add9aa2727acfd1a3c8d204074d154", "lat": 38.937144, "fusion_lon": 0.0, "fusion_lat": 0.0, "type": "electric_scooter", "name": "15add9aa2727acfd1a3c8d204074d154", "is_disabled": 0, "rental_uris": {"ios": "https://dc.lft.to/lastmile_qr_scan", "android": "https://dc.lft.to/lastmile_qr_scan"}, "is_reserved": 0}, {"lon": -76.99536016666667, "bike_id": "7428f599bb3c2d3d1bcd1056dfe633c6", "lat": 38.8836405, "fusion_lon": 0.0, "fusion_lat": 0.0, "type": "electric_scooter", "name": "7428f599bb3c2d3d1bcd1056dfe633c6", "is_disabled": 0, "rental_uris": {"ios": "https://dc.lft.to/lastmile_qr_scan", "android": "https://dc.lft.to/lastmile_qr_scan"}, "is_reserved": 0}, {"lon": -77.04337183333334, "bike_id": "e030a91658be53bbb1eca444953dea34", "lat": 38.922239166666664, "fusion_lon": 0.0, "fusion_lat": 0.0, "type": "electric_scooter", "name": "e030a91658be53bbb1eca444953dea34", "is_disabled": 0, "rental_uris": {"ios": "https://dc.lft.to/lastmile_qr_scan", "android": "https://dc.lft.to/lastmile_qr_scan"}, "is_reserved": 0}, {"lon": -77.0251775, "bike_id": "627599ab6792d731f012fc72ee4ff0fd", "lat": 38.91686083333333, "fusion_lon": 0.0, "fusion_lat": 0.0, "type": "electric_scooter", "name": "627599ab6792d731f012fc72ee4ff0fd", "is_disabled": 0, "rental_uris": {"ios": "https://dc.lft.to/lastmile_qr_scan", "android": "https://dc.lft.to/lastmile_qr_scan"}, "is_reserved": 0}, {"lon": -76.99535283333333, "bike_id": "67341c132c50fcfba5f1ebf7494ceeb3", "lat": 38.883626, "fusion_lon": 0.0, "fusion_lat": 0.0, "type": "electric_scooter", "name": "67341c132c50fcfba5f1ebf7494ceeb3", "is_disabled": 0, "rental_uris": {"ios": "https://dc.lft.to/lastmile_qr_scan", "android": "https://dc.lft.to/lastmile_qr_scan"}, "is_reserved": 0}, {"lon": -76.9330895, "bike_id": "6f45fe9f05e4d81ccf4a523ff9e0ffa3", "lat": 38.8946935, "fusion_lon": 0.0, "fusion_lat": 0.0, "type": "electric_scooter", "name": "6f45fe9f05e4d81ccf4a523ff9e0ffa3", "is_disabled": 0, "rental_uris": {"ios": "https://dc.lft.to/lastmile_qr_scan", "android": "https://dc.lft.to/lastmile_qr_scan"}, "is_reserved": 0}, {"lon": -77.04767366666667, "bike_id": "63de2d643594cbbe26463238d1742812", "lat": 38.921361166666664, "fusion_lon": 0.0, "fusion_lat": 0.0, "type": "electric_scooter", "name": "63de2d643594cbbe26463238d1742812", "is_disabled": 0, "rental_uris": {"ios": "https://dc.lft.to/lastmile_qr_scan", "android": "https://dc.lft.to/lastmile_qr_scan"}, "is_reserved": 0}, {"lon": -77.03865883333333, "bike_id": "e31533bed320e62f3dd01c10d2dba265", "lat": 38.9178095, "fusion_lon": 0.0, "fusion_lat": 0.0, "type": "electric_scooter", "name": "e31533bed320e62f3dd01c10d2dba265", "is_disabled": 0, "rental_uris": {"ios": "https://dc.lft.to/lastmile_qr_scan", "android": "https://dc.lft.to/lastmile_qr_scan"}, "is_reserved": 0}, {"lon": -76.99491433333333, "bike_id": "d56d2e7fcd6d1d6fa852e352336d9fa1", "lat": 38.862408333333335, "fusion_lon": 0.0, "fusion_lat": 0.0, "type": "electric_scooter", "name": "d56d2e7fcd6d1d6fa852e352336d9fa1", "is_disabled": 0, "rental_uris": {"ios": "https://dc.lft.to/lastmile_qr_scan", "android": "https://dc.lft.to/lastmile_qr_scan"}, "is_reserved": 0}, {"lon": -77.0322135, "bike_id": "4b891c37b46ddb23f208ae4cb66dc7ac", "lat": 38.91402216666667, "fusion_lon": 0.0, "fusion_lat": 0.0, "type": "electric_scooter", "name": "4b891c37b46ddb23f208ae4cb66dc7ac", "is_disabled": 0, "rental_uris": {"ios": "https://dc.lft.to/lastmile_qr_scan", "android": "https://dc.lft.to/lastmile_qr_scan"}, "is_reserved": 0}, {"lon": -77.01941733333334, "bike_id": "71a46619066296c4b74ff4bc4b534e8c", "lat": 38.93681383333333, "fusion_lon": 0.0, "fusion_lat": 0.0, "type": "electric_scooter", "name": "71a46619066296c4b74ff4bc4b534e8c", "is_disabled": 0, "rental_uris": {"ios": "https://dc.lft.to/lastmile_qr_scan", "android": "https://dc.lft.to/lastmile_qr_scan"}, "is_reserved": 0}, {"lon": -77.05269166666666, "bike_id": "f497427b5d8187b52804bfa4ee4c8a09", "lat": 38.89967133333333, "fusion_lon": 0.0, "fusion_lat": 0.0, "type": "electric_scooter", "name": "f497427b5d8187b52804bfa4ee4c8a09", "is_disabled": 0, "rental_uris": {"ios": "https://dc.lft.to/lastmile_qr_scan", "android": "https://dc.lft.to/lastmile_qr_scan"}, "is_reserved": 0}, {"lon": -76.98533333333333, "bike_id": "4e1ffc14bb8e980c6f4fdeea3bcbc62e", "lat": 38.89652533333334, "fusion_lon": 0.0, "fusion_lat": 0.0, "type": "electric_scooter", "name": "4e1ffc14bb8e980c6f4fdeea3bcbc62e", "is_disabled": 0, "rental_uris": {"ios": "https://dc.lft.to/lastmile_qr_scan", "android": "https://dc.lft.to/lastmile_qr_scan"}, "is_reserved": 0}, {"lon": -77.026362, "bike_id": "731775de60e2a29fc2723379e7988e65", "lat": 38.917047333333336, "fusion_lon": 0.0, "fusion_lat": 0.0, "type": "electric_scooter", "name": "731775de60e2a29fc2723379e7988e65", "is_disabled": 0, "rental_uris": {"ios": "https://dc.lft.to/lastmile_qr_scan", "android": "https://dc.lft.to/lastmile_qr_scan"}, "is_reserved": 0}, {"lon": -77.03308683333333, "bike_id": "f3b4d0680657a6ba19ed218d782a05b7", "lat": 38.925495166666664, "fusion_lon": 0.0, "fusion_lat": 0.0, "type": "electric_scooter", "name": "f3b4d0680657a6ba19ed218d782a05b7", "is_disabled": 0, "rental_uris": {"ios": "https://dc.lft.to/lastmile_qr_scan", "android": "https://dc.lft.to/lastmile_qr_scan"}, "is_reserved": 0}, {"lon": -77.05366116666667, "bike_id": "96a0b3870c0c73962fb9adcee6553a05", "lat": 38.927225, "fusion_lon": 0.0, "fusion_lat": 0.0, "type": "electric_scooter", "name": "96a0b3870c0c73962fb9adcee6553a05", "is_disabled": 0, "rental_uris": {"ios": "https://dc.lft.to/lastmile_qr_scan", "android": "https://dc.lft.to/lastmile_qr_scan"}, "is_reserved": 0}, {"lon": -77.04784683333334, "bike_id": "0042b5a9e38f2fa699763f211e6a9384", "lat": 38.905085666666665, "fusion_lon": 0.0, "fusion_lat": 0.0, "type": "electric_bike", "name": "0042b5a9e38f2fa699763f211e6a9384", "is_disabled": 0, "rental_uris": {"ios": "https://dc.lft.to/lastmile_qr_scan", "android": "https://dc.lft.to/lastmile_qr_scan"}, "is_reserved": 0}, {"lon": -77.04165483333334, "bike_id": "32747b4c95871b7f7831029191d7a185", "lat": 38.912454333333336, "fusion_lon": 0.0, "fusion_lat": 0.0, "type": "electric_scooter", "name": "32747b4c95871b7f7831029191d7a185", "is_disabled": 0, "rental_uris": {"ios": "https://dc.lft.to/lastmile_qr_scan", "android": "https://dc.lft.to/lastmile_qr_scan"}, "is_reserved": 0}, {"lon": -76.98585283333334, "bike_id": "2845d208b24ee41c92aa3062839c564b", "lat": 38.86684983333333, "fusion_lon": 0.0, "fusion_lat": 0.0, "type": "electric_scooter", "name": "2845d208b24ee41c92aa3062839c564b", "is_disabled": 0, "rental_uris": {"ios": "https://dc.lft.to/lastmile_qr_scan", "android": "https://dc.lft.to/lastmile_qr_scan"}, "is_reserved": 0}, {"lon": -77.05448683333333, "bike_id": "5a535568507ba07bd39ff274ae3c258b", "lat": 38.9035725, "fusion_lon": 0.0, "fusion_lat": 0.0, "type": "electric_scooter", "name": "5a535568507ba07bd39ff274ae3c258b", "is_disabled": 0, "rental_uris": {"ios": "https://dc.lft.to/lastmile_qr_scan", "android": "https://dc.lft.to/lastmile_qr_scan"}, "is_reserved": 0}, {"lon": -77.04172, "bike_id": "f61a9e8e8376f2229652e9fc7e61bf2b", "lat": 38.91976533333333, "fusion_lon": 0.0, "fusion_lat": 0.0, "type": "electric_scooter", "name": "f61a9e8e8376f2229652e9fc7e61bf2b", "is_disabled": 0, "rental_uris": {"ios": "https://dc.lft.to/lastmile_qr_scan", "android": "https://dc.lft.to/lastmile_qr_scan"}, "is_reserved": 0}, {"lon": -77.0007745, "bike_id": "c6aa3bde73ef3e9c17999f3cc7dc1ce9", "lat": 38.873839333333336, "fusion_lon": 0.0, "fusion_lat": 0.0, "type": "electric_scooter", "name": "c6aa3bde73ef3e9c17999f3cc7dc1ce9", "is_disabled": 0, "rental_uris": {"ios": "https://dc.lft.to/lastmile_qr_scan", "android": "https://dc.lft.to/lastmile_qr_scan"}, "is_reserved": 0}, {"lon": -76.98948583333333, "bike_id": "6f1078d4138a2824159a11f5c9cf0c23", "lat": 38.867, "fusion_lon": 0.0, "fusion_lat": 0.0, "type": "electric_bike", "name": "6f1078d4138a2824159a11f5c9cf0c23", "is_disabled": 0, "rental_uris": {"ios": "https://dc.lft.to/lastmile_qr_scan", "android": "https://dc.lft.to/lastmile_qr_scan"}, "is_reserved": 0}, {"lon": -77.05306683333333, "bike_id": "d977bf54cc07e5980a9bec6cb46c5c9d", "lat": 38.925441166666666, "fusion_lon": 0.0, "fusion_lat": 0.0, "type": "electric_scooter", "name": "d977bf54cc07e5980a9bec6cb46c5c9d", "is_disabled": 0, "rental_uris": {"ios": "https://dc.lft.to/lastmile_qr_scan", "android": "https://dc.lft.to/lastmile_qr_scan"}, "is_reserved": 0}, {"lon": -77.044074, "bike_id": "264b84da9d4b16fdb595c75258aa286c", "lat": 38.92952066666667, "fusion_lon": 0.0, "fusion_lat": 0.0, "type": "electric_scooter", "name": "264b84da9d4b16fdb595c75258aa286c", "is_disabled": 0, "rental_uris": {"ios": "https://dc.lft.to/lastmile_qr_scan", "android": "https://dc.lft.to/lastmile_qr_scan"}, "is_reserved": 0}, {"lon": -77.04459983333334, "bike_id": "823f899954a9d7dda49e7660517b9006", "lat": 38.91933816666667, "fusion_lon": 0.0, "fusion_lat": 0.0, "type": "electric_scooter", "name": "823f899954a9d7dda49e7660517b9006", "is_disabled": 0, "rental_uris": {"ios": "https://dc.lft.to/lastmile_qr_scan", "android": "https://dc.lft.to/lastmile_qr_scan"}, "is_reserved": 0}, {"lon": -76.99573033333333, "bike_id": "a3c5d788385139dc15fd7b32702f1e59", "lat": 38.851767333333335, "fusion_lon": 0.0, "fusion_lat": 0.0, "type": "electric_bike", "name": "a3c5d788385139dc15fd7b32702f1e59", "is_disabled": 0, "rental_uris": {"ios": "https://dc.lft.to/lastmile_qr_scan", "android": "https://dc.lft.to/lastmile_qr_scan"}, "is_reserved": 0}, {"lon": -76.996172, "bike_id": "6bfec6f8b9b2c3c622a42b197ccbe1d6", "lat": 38.88309266666667, "fusion_lon": 0.0, "fusion_lat": 0.0, "type": "electric_scooter", "name": "6bfec6f8b9b2c3c622a42b197ccbe1d6", "is_disabled": 0, "rental_uris": {"ios": "https://dc.lft.to/lastmile_qr_scan", "android": "https://dc.lft.to/lastmile_qr_scan"}, "is_reserved": 0}, {"lon": -77.03351183333334, "bike_id": "31e13ed98bff3c132c1b6344df218fb3", "lat": 38.94712366666667, "fusion_lon": 0.0, "fusion_lat": 0.0, "type": "electric_scooter", "name": "31e13ed98bff3c132c1b6344df218fb3", "is_disabled": 0, "rental_uris": {"ios": "https://dc.lft.to/lastmile_qr_scan", "android": "https://dc.lft.to/lastmile_qr_scan"}, "is_reserved": 0}, {"lon": -77.0158015, "bike_id": "c54912f8ba55a507932d62da8669bf44", "lat": 38.89465166666667, "fusion_lon": 0.0, "fusion_lat": 0.0, "type": "electric_scooter", "name": "c54912f8ba55a507932d62da8669bf44", "is_disabled": 0, "rental_uris": {"ios": "https://dc.lft.to/lastmile_qr_scan", "android": "https://dc.lft.to/lastmile_qr_scan"}, "is_reserved": 0}, {"lon": -77.0321745, "bike_id": "e5ad4f9df01956aab4b80ae49b8885e5", "lat": 38.8922055, "fusion_lon": 0.0, "fusion_lat": 0.0, "type": "electric_scooter", "name": "e5ad4f9df01956aab4b80ae49b8885e5", "is_disabled": 0, "rental_uris": {"ios": "https://dc.lft.to/lastmile_qr_scan", "android": "https://dc.lft.to/lastmile_qr_scan"}, "is_reserved": 0}, {"lon": -77.03200366666667, "bike_id": "4dcd9943e59d4411b1eb32c2b46d166b", "lat": 38.91418216666667, "fusion_lon": 0.0, "fusion_lat": 0.0, "type": "electric_scooter", "name": "4dcd9943e59d4411b1eb32c2b46d166b", "is_disabled": 0, "rental_uris": {"ios": "https://dc.lft.to/lastmile_qr_scan", "android": "https://dc.lft.to/lastmile_qr_scan"}, "is_reserved": 0}, {"lon": -77.03890416666667, "bike_id": "d938b95effc3e893ea8758c996f38108", "lat": 38.911060166666665, "fusion_lon": 0.0, "fusion_lat": 0.0, "type": "electric_scooter", "name": "d938b95effc3e893ea8758c996f38108", "is_disabled": 0, "rental_uris": {"ios": "https://dc.lft.to/lastmile_qr_scan", "android": "https://dc.lft.to/lastmile_qr_scan"}, "is_reserved": 0}, {"lon": -77.0482435, "bike_id": "1c1705cf5a0d1a794661912115c1b6f6", "lat": 38.905103, "fusion_lon": 0.0, "fusion_lat": 0.0, "type": "electric_scooter", "name": "1c1705cf5a0d1a794661912115c1b6f6", "is_disabled": 0, "rental_uris": {"ios": "https://dc.lft.to/lastmile_qr_scan", "android": "https://dc.lft.to/lastmile_qr_scan"}, "is_reserved": 0}, {"lon": -76.93373833333334, "bike_id": "defc434e536e9ed80f8fde1bfeb98b4b", "lat": 38.899097, "fusion_lon": 0.0, "fusion_lat": 0.0, "type": "electric_scooter", "name": "defc434e536e9ed80f8fde1bfeb98b4b", "is_disabled": 0, "rental_uris": {"ios": "https://dc.lft.to/lastmile_qr_scan", "android": "https://dc.lft.to/lastmile_qr_scan"}, "is_reserved": 0}, {"lon": -77.02877683333334, "bike_id": "aae6083ba5666a7c79227eb35e636b99", "lat": 38.932611, "fusion_lon": 0.0, "fusion_lat": 0.0, "type": "electric_scooter", "name": "aae6083ba5666a7c79227eb35e636b99", "is_disabled": 0, "rental_uris": {"ios": "https://dc.lft.to/lastmile_qr_scan", "android": "https://dc.lft.to/lastmile_qr_scan"}, "is_reserved": 0}, {"lon": -76.98365916666667, "bike_id": "edbd4f8dd39fe9204fee4be3c156c9f1", "lat": 38.861123, "fusion_lon": 0.0, "fusion_lat": 0.0, "type": "electric_scooter", "name": "edbd4f8dd39fe9204fee4be3c156c9f1", "is_disabled": 0, "rental_uris": {"ios": "https://dc.lft.to/lastmile_qr_scan", "android": "https://dc.lft.to/lastmile_qr_scan"}, "is_reserved": 0}, {"lon": -77.0338775, "bike_id": "e461ed145e8b29a2916ab9123f30d625", "lat": 38.92051583333333, "fusion_lon": 0.0, "fusion_lat": 0.0, "type": "electric_scooter", "name": "e461ed145e8b29a2916ab9123f30d625", "is_disabled": 0, "rental_uris": {"ios": "https://dc.lft.to/lastmile_qr_scan", "android": "https://dc.lft.to/lastmile_qr_scan"}, "is_reserved": 0}, {"lon": -77.0376595, "bike_id": "c54f936304dd179a48a8e64c9011acce", "lat": 38.90774483333333, "fusion_lon": 0.0, "fusion_lat": 0.0, "type": "electric_scooter", "name": "c54f936304dd179a48a8e64c9011acce", "is_disabled": 0, "rental_uris": {"ios": "https://dc.lft.to/lastmile_qr_scan", "android": "https://dc.lft.to/lastmile_qr_scan"}, "is_reserved": 0}, {"lon": -76.93175533333333, "bike_id": "2cc4e20b211f5484f67246e3884a70c6", "lat": 38.898823166666666, "fusion_lon": 0.0, "fusion_lat": 0.0, "type": "electric_scooter", "name": "2cc4e20b211f5484f67246e3884a70c6", "is_disabled": 0, "rental_uris": {"ios": "https://dc.lft.to/lastmile_qr_scan", "android": "https://dc.lft.to/lastmile_qr_scan"}, "is_reserved": 0}, {"lon": -77.02388483333333, "bike_id": "cdd48be2d97ec1460ed54643e3ca7486", "lat": 38.900149, "fusion_lon": 0.0, "fusion_lat": 0.0, "type": "electric_scooter", "name": "cdd48be2d97ec1460ed54643e3ca7486", "is_disabled": 0, "rental_uris": {"ios": "https://dc.lft.to/lastmile_qr_scan", "android": "https://dc.lft.to/lastmile_qr_scan"}, "is_reserved": 0}, {"lon": -77.048711, "bike_id": "8f0f65e25f01a56b89fa34884eec3962", "lat": 38.89840016666667, "fusion_lon": 0.0, "fusion_lat": 0.0, "type": "electric_scooter", "name": "8f0f65e25f01a56b89fa34884eec3962", "is_disabled": 0, "rental_uris": {"ios": "https://dc.lft.to/lastmile_qr_scan", "android": "https://dc.lft.to/lastmile_qr_scan"}, "is_reserved": 0}, {"lon": -77.02176616666667, "bike_id": "32112dd12e889e09010944d3722aab1e", "lat": 38.910815, "fusion_lon": 0.0, "fusion_lat": 0.0, "type": "electric_scooter", "name": "32112dd12e889e09010944d3722aab1e", "is_disabled": 0, "rental_uris": {"ios": "https://dc.lft.to/lastmile_qr_scan", "android": "https://dc.lft.to/lastmile_qr_scan"}, "is_reserved": 0}, {"lon": -77.02446833333333, "bike_id": "f36dd0f1dede4cea6ebf0ba3fa3def58", "lat": 38.91409383333333, "fusion_lon": 0.0, "fusion_lat": 0.0, "type": "electric_scooter", "name": "f36dd0f1dede4cea6ebf0ba3fa3def58", "is_disabled": 0, "rental_uris": {"ios": "https://dc.lft.to/lastmile_qr_scan", "android": "https://dc.lft.to/lastmile_qr_scan"}, "is_reserved": 0}, {"lon": -77.0599025, "bike_id": "bea50c8c1459863182d8c82dc71d05fe", "lat": 38.90238866666667, "fusion_lon": 0.0, "fusion_lat": 0.0, "type": "electric_scooter", "name": "bea50c8c1459863182d8c82dc71d05fe", "is_disabled": 0, "rental_uris": {"ios": "https://dc.lft.to/lastmile_qr_scan", "android": "https://dc.lft.to/lastmile_qr_scan"}, "is_reserved": 0}, {"lon": -77.04631233333333, "bike_id": "90c5ed8eb0cf681a4e44c8c444acf132", "lat": 38.915644, "fusion_lon": 0.0, "fusion_lat": 0.0, "type": "electric_scooter", "name": "90c5ed8eb0cf681a4e44c8c444acf132", "is_disabled": 0, "rental_uris": {"ios": "https://dc.lft.to/lastmile_qr_scan", "android": "https://dc.lft.to/lastmile_qr_scan"}, "is_reserved": 0}, {"lon": -77.03917483333333, "bike_id": "ba83d7f52adb4c040f6379950c4346d2", "lat": 38.923175666666666, "fusion_lon": 0.0, "fusion_lat": 0.0, "type": "electric_scooter", "name": "ba83d7f52adb4c040f6379950c4346d2", "is_disabled": 0, "rental_uris": {"ios": "https://dc.lft.to/lastmile_qr_scan", "android": "https://dc.lft.to/lastmile_qr_scan"}, "is_reserved": 0}, {"lon": -77.0240725, "bike_id": "459206f2ee546df073991e9a0ce7b052", "lat": 38.9198075, "fusion_lon": 0.0, "fusion_lat": 0.0, "type": "electric_scooter", "name": "459206f2ee546df073991e9a0ce7b052", "is_disabled": 0, "rental_uris": {"ios": "https://dc.lft.to/lastmile_qr_scan", "android": "https://dc.lft.to/lastmile_qr_scan"}, "is_reserved": 0}, {"lon": -77.01632466666666, "bike_id": "8382e0b0b8fc02d99b5da04789d1098c", "lat": 38.90343, "fusion_lon": 0.0, "fusion_lat": 0.0, "type": "electric_scooter", "name": "8382e0b0b8fc02d99b5da04789d1098c", "is_disabled": 0, "rental_uris": {"ios": "https://dc.lft.to/lastmile_qr_scan", "android": "https://dc.lft.to/lastmile_qr_scan"}, "is_reserved": 0}, {"lon": -77.0296385, "bike_id": "1b5567efa8101e48dd72a9f8f9fb90a6", "lat": 38.9238045, "fusion_lon": 0.0, "fusion_lat": 0.0, "type": "electric_scooter", "name": "1b5567efa8101e48dd72a9f8f9fb90a6", "is_disabled": 0, "rental_uris": {"ios": "https://dc.lft.to/lastmile_qr_scan", "android": "https://dc.lft.to/lastmile_qr_scan"}, "is_reserved": 0}, {"lon": -77.02118833333333, "bike_id": "00575bdb72a7e30d6ad04317931e3abc", "lat": 38.9369915, "fusion_lon": 0.0, "fusion_lat": 0.0, "type": "electric_scooter", "name": "00575bdb72a7e30d6ad04317931e3abc", "is_disabled": 0, "rental_uris": {"ios": "https://dc.lft.to/lastmile_qr_scan", "android": "https://dc.lft.to/lastmile_qr_scan"}, "is_reserved": 0}, {"lon": -77.02205966666666, "bike_id": "ee75e22451335c5c21480bd388ac3704", "lat": 38.90121716666667, "fusion_lon": 0.0, "fusion_lat": 0.0, "type": "electric_scooter", "name": "ee75e22451335c5c21480bd388ac3704", "is_disabled": 0, "rental_uris": {"ios": "https://dc.lft.to/lastmile_qr_scan", "android": "https://dc.lft.to/lastmile_qr_scan"}, "is_reserved": 0}, {"lon": -77.048795, "bike_id": "804baf2e0d08c5172b8badc754e7ac6c", "lat": 38.89230116666667, "fusion_lon": 0.0, "fusion_lat": 0.0, "type": "electric_scooter", "name": "804baf2e0d08c5172b8badc754e7ac6c", "is_disabled": 0, "rental_uris": {"ios": "https://dc.lft.to/lastmile_qr_scan", "android": "https://dc.lft.to/lastmile_qr_scan"}, "is_reserved": 0}, {"lon": -77.02531383333333, "bike_id": "f4e305fee7c0fc15744bd0b19d475b76", "lat": 38.905656666666665, "fusion_lon": 0.0, "fusion_lat": 0.0, "type": "electric_scooter", "name": "f4e305fee7c0fc15744bd0b19d475b76", "is_disabled": 0, "rental_uris": {"ios": "https://dc.lft.to/lastmile_qr_scan", "android": "https://dc.lft.to/lastmile_qr_scan"}, "is_reserved": 0}, {"lon": -77.029355, "bike_id": "17029bbba1478b6ef0f621b8399cf0e5", "lat": 38.91690416666667, "fusion_lon": 0.0, "fusion_lat": 0.0, "type": "electric_scooter", "name": "17029bbba1478b6ef0f621b8399cf0e5", "is_disabled": 0, "rental_uris": {"ios": "https://dc.lft.to/lastmile_qr_scan", "android": "https://dc.lft.to/lastmile_qr_scan"}, "is_reserved": 0}, {"lon": -77.02811066666666, "bike_id": "6352d3accb872e50c198c844bae31885", "lat": 38.89519666666666, "fusion_lon": 0.0, "fusion_lat": 0.0, "type": "electric_scooter", "name": "6352d3accb872e50c198c844bae31885", "is_disabled": 0, "rental_uris": {"ios": "https://dc.lft.to/lastmile_qr_scan", "android": "https://dc.lft.to/lastmile_qr_scan"}, "is_reserved": 0}, {"lon": -77.02241783333334, "bike_id": "e528a33dfef00afc12aeabc6019ab3f3", "lat": 38.962040333333334, "fusion_lon": 0.0, "fusion_lat": 0.0, "type": "electric_scooter", "name": "e528a33dfef00afc12aeabc6019ab3f3", "is_disabled": 0, "rental_uris": {"ios": "https://dc.lft.to/lastmile_qr_scan", "android": "https://dc.lft.to/lastmile_qr_scan"}, "is_reserved": 0}, {"lon": -77.06015266666667, "bike_id": "28905280de0d3fbdd90509a045d094ee", "lat": 38.901194, "fusion_lon": 0.0, "fusion_lat": 0.0, "type": "electric_scooter", "name": "28905280de0d3fbdd90509a045d094ee", "is_disabled": 0, "rental_uris": {"ios": "https://dc.lft.to/lastmile_qr_scan", "android": "https://dc.lft.to/lastmile_qr_scan"}, "is_reserved": 0}, {"lon": -77.02497183333334, "bike_id": "1dfbe1347c4f3ab9e2b5e1adaf120484", "lat": 38.91919516666667, "fusion_lon": 0.0, "fusion_lat": 0.0, "type": "electric_scooter", "name": "1dfbe1347c4f3ab9e2b5e1adaf120484", "is_disabled": 0, "rental_uris": {"ios": "https://dc.lft.to/lastmile_qr_scan", "android": "https://dc.lft.to/lastmile_qr_scan"}, "is_reserved": 0}, {"lon": -77.04166016666667, "bike_id": "20e5af2a83a59c709abb0ff541dc0499", "lat": 38.912442666666664, "fusion_lon": 0.0, "fusion_lat": 0.0, "type": "electric_scooter", "name": "20e5af2a83a59c709abb0ff541dc0499", "is_disabled": 0, "rental_uris": {"ios": "https://dc.lft.to/lastmile_qr_scan", "android": "https://dc.lft.to/lastmile_qr_scan"}, "is_reserved": 0}, {"lon": -77.03346316666666, "bike_id": "3d3411d01d655c3f4e29f4c1b455cd16", "lat": 38.89900466666667, "fusion_lon": 0.0, "fusion_lat": 0.0, "type": "electric_scooter", "name": "3d3411d01d655c3f4e29f4c1b455cd16", "is_disabled": 0, "rental_uris": {"ios": "https://dc.lft.to/lastmile_qr_scan", "android": "https://dc.lft.to/lastmile_qr_scan"}, "is_reserved": 0}, {"lon": -76.93738033333334, "bike_id": "d620fd626fc2a6cd943c772b0a0103f3", "lat": 38.89003833333334, "fusion_lon": 0.0, "fusion_lat": 0.0, "type": "electric_scooter", "name": "d620fd626fc2a6cd943c772b0a0103f3", "is_disabled": 0, "rental_uris": {"ios": "https://dc.lft.to/lastmile_qr_scan", "android": "https://dc.lft.to/lastmile_qr_scan"}, "is_reserved": 0}, {"lon": -77.02491816666667, "bike_id": "84f343adb45ebc04cc635caa9615f1c9", "lat": 38.93087, "fusion_lon": 0.0, "fusion_lat": 0.0, "type": "electric_scooter", "name": "84f343adb45ebc04cc635caa9615f1c9", "is_disabled": 0, "rental_uris": {"ios": "https://dc.lft.to/lastmile_qr_scan", "android": "https://dc.lft.to/lastmile_qr_scan"}, "is_reserved": 0}, {"lon": -77.05813533333334, "bike_id": "90df8e1615757b1c8747dc6e910fe90d", "lat": 38.935066666666664, "fusion_lon": 0.0, "fusion_lat": 0.0, "type": "electric_scooter", "name": "90df8e1615757b1c8747dc6e910fe90d", "is_disabled": 0, "rental_uris": {"ios": "https://dc.lft.to/lastmile_qr_scan", "android": "https://dc.lft.to/lastmile_qr_scan"}, "is_reserved": 0}, {"lon": -77.02348216666667, "bike_id": "3a946dd3e7bc0d164af75cc16d1ded38", "lat": 38.902896, "fusion_lon": 0.0, "fusion_lat": 0.0, "type": "electric_scooter", "name": "3a946dd3e7bc0d164af75cc16d1ded38", "is_disabled": 0, "rental_uris": {"ios": "https://dc.lft.to/lastmile_qr_scan", "android": "https://dc.lft.to/lastmile_qr_scan"}, "is_reserved": 0}, {"lon": -77.04384533333334, "bike_id": "c820323cb87c169f51941af0d0f0f32e", "lat": 38.9206815, "fusion_lon": 0.0, "fusion_lat": 0.0, "type": "electric_scooter", "name": "c820323cb87c169f51941af0d0f0f32e", "is_disabled": 0, "rental_uris": {"ios": "https://dc.lft.to/lastmile_qr_scan", "android": "https://dc.lft.to/lastmile_qr_scan"}, "is_reserved": 0}, {"lon": -77.04427, "bike_id": "7a6a6cf8c7e6b8422a474aa7d0c102eb", "lat": 38.9212615, "fusion_lon": 0.0, "fusion_lat": 0.0, "type": "electric_scooter", "name": "7a6a6cf8c7e6b8422a474aa7d0c102eb", "is_disabled": 0, "rental_uris": {"ios": "https://dc.lft.to/lastmile_qr_scan", "android": "https://dc.lft.to/lastmile_qr_scan"}, "is_reserved": 0}, {"lon": -77.07764483333334, "bike_id": "23464653b12829d49a1833dc740c3991", "lat": 38.9255235, "fusion_lon": 0.0, "fusion_lat": 0.0, "type": "electric_scooter", "name": "23464653b12829d49a1833dc740c3991", "is_disabled": 0, "rental_uris": {"ios": "https://dc.lft.to/lastmile_qr_scan", "android": "https://dc.lft.to/lastmile_qr_scan"}, "is_reserved": 0}, {"lon": -77.016311, "bike_id": "c4b4831efd65124142899f81f4737788", "lat": 38.9289585, "fusion_lon": 0.0, "fusion_lat": 0.0, "type": "electric_scooter", "name": "c4b4831efd65124142899f81f4737788", "is_disabled": 0, "rental_uris": {"ios": "https://dc.lft.to/lastmile_qr_scan", "android": "https://dc.lft.to/lastmile_qr_scan"}, "is_reserved": 0}, {"lon": -77.02800533333334, "bike_id": "2816b6c0260ab142ff42357e106aeca4", "lat": 38.93016333333333, "fusion_lon": 0.0, "fusion_lat": 0.0, "type": "electric_scooter", "name": "2816b6c0260ab142ff42357e106aeca4", "is_disabled": 0, "rental_uris": {"ios": "https://dc.lft.to/lastmile_qr_scan", "android": "https://dc.lft.to/lastmile_qr_scan"}, "is_reserved": 0}, {"lon": -77.0219605, "bike_id": "b7ec906d4e45416589447a2c4cf77957", "lat": 38.901881, "fusion_lon": 0.0, "fusion_lat": 0.0, "type": "electric_scooter", "name": "b7ec906d4e45416589447a2c4cf77957", "is_disabled": 0, "rental_uris": {"ios": "https://dc.lft.to/lastmile_qr_scan", "android": "https://dc.lft.to/lastmile_qr_scan"}, "is_reserved": 0}, {"lon": -77.06273816666666, "bike_id": "9a9f28e2884f02590dacd88f053ca868", "lat": 38.905367, "fusion_lon": 0.0, "fusion_lat": 0.0, "type": "electric_scooter", "name": "9a9f28e2884f02590dacd88f053ca868", "is_disabled": 0, "rental_uris": {"ios": "https://dc.lft.to/lastmile_qr_scan", "android": "https://dc.lft.to/lastmile_qr_scan"}, "is_reserved": 0}, {"lon": -77.0151765, "bike_id": "0bd38bdea525746e79e3e23ed93bf6b1", "lat": 38.926700333333336, "fusion_lon": 0.0, "fusion_lat": 0.0, "type": "electric_bike", "name": "0bd38bdea525746e79e3e23ed93bf6b1", "is_disabled": 0, "rental_uris": {"ios": "https://dc.lft.to/lastmile_qr_scan", "android": "https://dc.lft.to/lastmile_qr_scan"}, "is_reserved": 0}, {"lon": -76.95760983333334, "bike_id": "74841d43e7c1dc8c0b02fbf01c3ca07f", "lat": 38.88427633333333, "fusion_lon": 0.0, "fusion_lat": 0.0, "type": "electric_scooter", "name": "74841d43e7c1dc8c0b02fbf01c3ca07f", "is_disabled": 0, "rental_uris": {"ios": "https://dc.lft.to/lastmile_qr_scan", "android": "https://dc.lft.to/lastmile_qr_scan"}, "is_reserved": 0}, {"lon": -77.02847833333334, "bike_id": "1751f0b4f65450aca41305c65f4c8b54", "lat": 38.92574416666667, "fusion_lon": 0.0, "fusion_lat": 0.0, "type": "electric_scooter", "name": "1751f0b4f65450aca41305c65f4c8b54", "is_disabled": 0, "rental_uris": {"ios": "https://dc.lft.to/lastmile_qr_scan", "android": "https://dc.lft.to/lastmile_qr_scan"}, "is_reserved": 0}, {"lon": -76.990927, "bike_id": "9d18c7279d203a55898be55bd3742a0e", "lat": 38.90016883333333, "fusion_lon": 0.0, "fusion_lat": 0.0, "type": "electric_scooter", "name": "9d18c7279d203a55898be55bd3742a0e", "is_disabled": 0, "rental_uris": {"ios": "https://dc.lft.to/lastmile_qr_scan", "android": "https://dc.lft.to/lastmile_qr_scan"}, "is_reserved": 0}, {"lon": -77.1013645, "bike_id": "618b5a3bc33150ab3065b78ecb242ae6", "lat": 38.85201966666666, "fusion_lon": 0.0, "fusion_lat": 0.0, "type": "electric_bike", "name": "618b5a3bc33150ab3065b78ecb242ae6", "is_disabled": 0, "rental_uris": {"ios": "https://dc.lft.to/lastmile_qr_scan", "android": "https://dc.lft.to/lastmile_qr_scan"}, "is_reserved": 0}, {"lon": -77.02767016666667, "bike_id": "fc1ffe4a37ac4175495fb9c8d817a911", "lat": 38.9345565, "fusion_lon": 0.0, "fusion_lat": 0.0, "type": "electric_scooter", "name": "fc1ffe4a37ac4175495fb9c8d817a911", "is_disabled": 0, "rental_uris": {"ios": "https://dc.lft.to/lastmile_qr_scan", "android": "https://dc.lft.to/lastmile_qr_scan"}, "is_reserved": 0}, {"lon": -77.031422, "bike_id": "9c64dc1c934c86a366a3f38d497f8f30", "lat": 38.9148705, "fusion_lon": 0.0, "fusion_lat": 0.0, "type": "electric_scooter", "name": "9c64dc1c934c86a366a3f38d497f8f30", "is_disabled": 0, "rental_uris": {"ios": "https://dc.lft.to/lastmile_qr_scan", "android": "https://dc.lft.to/lastmile_qr_scan"}, "is_reserved": 0}, {"lon": -77.04861266666667, "bike_id": "e10ce09a029e15376bde5f4de6d042c0", "lat": 38.9095475, "fusion_lon": 0.0, "fusion_lat": 0.0, "type": "electric_scooter", "name": "e10ce09a029e15376bde5f4de6d042c0", "is_disabled": 0, "rental_uris": {"ios": "https://dc.lft.to/lastmile_qr_scan", "android": "https://dc.lft.to/lastmile_qr_scan"}, "is_reserved": 0}, {"lon": -77.086805, "bike_id": "886290d08a16522fbd295e0dfc483577", "lat": 38.87393316666667, "fusion_lon": 0.0, "fusion_lat": 0.0, "type": "electric_bike", "name": "886290d08a16522fbd295e0dfc483577", "is_disabled": 0, "rental_uris": {"ios": "https://dc.lft.to/lastmile_qr_scan", "android": "https://dc.lft.to/lastmile_qr_scan"}, "is_reserved": 0}, {"lon": -77.05234333333334, "bike_id": "4a6a46cf05235bc2f6a8e7534a5df2e2", "lat": 38.924620833333336, "fusion_lon": 0.0, "fusion_lat": 0.0, "type": "electric_scooter", "name": "4a6a46cf05235bc2f6a8e7534a5df2e2", "is_disabled": 0, "rental_uris": {"ios": "https://dc.lft.to/lastmile_qr_scan", "android": "https://dc.lft.to/lastmile_qr_scan"}, "is_reserved": 0}, {"lon": -77.025007, "bike_id": "46fc1f51c43da601588649d1e7e445ae", "lat": 38.919509, "fusion_lon": 0.0, "fusion_lat": 0.0, "type": "electric_scooter", "name": "46fc1f51c43da601588649d1e7e445ae", "is_disabled": 0, "rental_uris": {"ios": "https://dc.lft.to/lastmile_qr_scan", "android": "https://dc.lft.to/lastmile_qr_scan"}, "is_reserved": 0}, {"lon": -77.0392245, "bike_id": "4b649964a60b23425f5b478b4c6e2402", "lat": 38.92576566666666, "fusion_lon": 0.0, "fusion_lat": 0.0, "type": "electric_scooter", "name": "4b649964a60b23425f5b478b4c6e2402", "is_disabled": 0, "rental_uris": {"ios": "https://dc.lft.to/lastmile_qr_scan", "android": "https://dc.lft.to/lastmile_qr_scan"}, "is_reserved": 0}, {"lon": -77.017199, "bike_id": "be51c8cc3bb0b443a6b199ed03cad1ea", "lat": 38.909673, "fusion_lon": 0.0, "fusion_lat": 0.0, "type": "electric_scooter", "name": "be51c8cc3bb0b443a6b199ed03cad1ea", "is_disabled": 0, "rental_uris": {"ios": "https://dc.lft.to/lastmile_qr_scan", "android": "https://dc.lft.to/lastmile_qr_scan"}, "is_reserved": 0}, {"lon": -77.08826616666667, "bike_id": "583dc27224a2b3fc2caf1e0d1d7d4e2f", "lat": 38.909747833333334, "fusion_lon": 0.0, "fusion_lat": 0.0, "type": "electric_scooter", "name": "583dc27224a2b3fc2caf1e0d1d7d4e2f", "is_disabled": 0, "rental_uris": {"ios": "https://dc.lft.to/lastmile_qr_scan", "android": "https://dc.lft.to/lastmile_qr_scan"}, "is_reserved": 0}, {"lon": -76.93733683333333, "bike_id": "c5503dbf6b0fcebf602c60388f30dc5b", "lat": 38.89012433333333, "fusion_lon": 0.0, "fusion_lat": 0.0, "type": "electric_scooter", "name": "c5503dbf6b0fcebf602c60388f30dc5b", "is_disabled": 0, "rental_uris": {"ios": "https://dc.lft.to/lastmile_qr_scan", "android": "https://dc.lft.to/lastmile_qr_scan"}, "is_reserved": 0}, {"lon": -77.001455, "bike_id": "28616a7ee90506d35b2d34f7ab3a0e6b", "lat": 38.89470266666667, "fusion_lon": 0.0, "fusion_lat": 0.0, "type": "electric_scooter", "name": "28616a7ee90506d35b2d34f7ab3a0e6b", "is_disabled": 0, "rental_uris": {"ios": "https://dc.lft.to/lastmile_qr_scan", "android": "https://dc.lft.to/lastmile_qr_scan"}, "is_reserved": 0}, {"lon": -77.03455466666666, "bike_id": "7062b451b9b112566b3c5f4c42e1fb3b", "lat": 38.92069333333333, "fusion_lon": 0.0, "fusion_lat": 0.0, "type": "electric_scooter", "name": "7062b451b9b112566b3c5f4c42e1fb3b", "is_disabled": 0, "rental_uris": {"ios": "https://dc.lft.to/lastmile_qr_scan", "android": "https://dc.lft.to/lastmile_qr_scan"}, "is_reserved": 0}, {"lon": -77.002031, "bike_id": "ab059fdc919d75d5648dd098b0bb31cf", "lat": 38.900352833333336, "fusion_lon": 0.0, "fusion_lat": 0.0, "type": "electric_scooter", "name": "ab059fdc919d75d5648dd098b0bb31cf", "is_disabled": 0, "rental_uris": {"ios": "https://dc.lft.to/lastmile_qr_scan", "android": "https://dc.lft.to/lastmile_qr_scan"}, "is_reserved": 0}, {"lon": -76.937553, "bike_id": "30c0c6347dc5f26a619d7d43c64c6126", "lat": 38.89041866666667, "fusion_lon": 0.0, "fusion_lat": 0.0, "type": "electric_scooter", "name": "30c0c6347dc5f26a619d7d43c64c6126", "is_disabled": 0, "rental_uris": {"ios": "https://dc.lft.to/lastmile_qr_scan", "android": "https://dc.lft.to/lastmile_qr_scan"}, "is_reserved": 0}, {"lon": -77.0217615, "bike_id": "58809bfb4e4c701057c1d4c47538a3c0", "lat": 38.91562666666667, "fusion_lon": 0.0, "fusion_lat": 0.0, "type": "electric_scooter", "name": "58809bfb4e4c701057c1d4c47538a3c0", "is_disabled": 0, "rental_uris": {"ios": "https://dc.lft.to/lastmile_qr_scan", "android": "https://dc.lft.to/lastmile_qr_scan"}, "is_reserved": 0}, {"lon": -76.99274833333334, "bike_id": "2bcb0341d3c6a53b3d75cc7060698b8a", "lat": 38.89761883333333, "fusion_lon": 0.0, "fusion_lat": 0.0, "type": "electric_scooter", "name": "2bcb0341d3c6a53b3d75cc7060698b8a", "is_disabled": 0, "rental_uris": {"ios": "https://dc.lft.to/lastmile_qr_scan", "android": "https://dc.lft.to/lastmile_qr_scan"}, "is_reserved": 0}, {"lon": -77.01799716666666, "bike_id": "546c75e135e4990e747f6c92456deb68", "lat": 38.973432333333335, "fusion_lon": 0.0, "fusion_lat": 0.0, "type": "electric_bike", "name": "546c75e135e4990e747f6c92456deb68", "is_disabled": 0, "rental_uris": {"ios": "https://dc.lft.to/lastmile_qr_scan", "android": "https://dc.lft.to/lastmile_qr_scan"}, "is_reserved": 0}, {"lon": -76.99683566666667, "bike_id": "053b45e9ac50ed815ca11112f7d20352", "lat": 38.86017666666667, "fusion_lon": 0.0, "fusion_lat": 0.0, "type": "electric_scooter", "name": "053b45e9ac50ed815ca11112f7d20352", "is_disabled": 0, "rental_uris": {"ios": "https://dc.lft.to/lastmile_qr_scan", "android": "https://dc.lft.to/lastmile_qr_scan"}, "is_reserved": 0}, {"lon": -77.0353775, "bike_id": "898c4b7cc13c8e0e67981794fb935e57", "lat": 38.918420166666664, "fusion_lon": 0.0, "fusion_lat": 0.0, "type": "electric_scooter", "name": "898c4b7cc13c8e0e67981794fb935e57", "is_disabled": 0, "rental_uris": {"ios": "https://dc.lft.to/lastmile_qr_scan", "android": "https://dc.lft.to/lastmile_qr_scan"}, "is_reserved": 0}, {"lon": -77.07274666666666, "bike_id": "a425b539fbdcf209845e07e2e9f392c2", "lat": 38.93185166666667, "fusion_lon": 0.0, "fusion_lat": 0.0, "type": "electric_scooter", "name": "a425b539fbdcf209845e07e2e9f392c2", "is_disabled": 0, "rental_uris": {"ios": "https://dc.lft.to/lastmile_qr_scan", "android": "https://dc.lft.to/lastmile_qr_scan"}, "is_reserved": 0}, {"lon": -77.04159166666666, "bike_id": "c8d2684a825180e54b6b176d8d6f8f99", "lat": 38.899335666666666, "fusion_lon": 0.0, "fusion_lat": 0.0, "type": "electric_scooter", "name": "c8d2684a825180e54b6b176d8d6f8f99", "is_disabled": 0, "rental_uris": {"ios": "https://dc.lft.to/lastmile_qr_scan", "android": "https://dc.lft.to/lastmile_qr_scan"}, "is_reserved": 0}, {"lon": -76.97522066666667, "bike_id": "25f2f37a33138b7c62407841721d8127", "lat": 38.966958, "fusion_lon": 0.0, "fusion_lat": 0.0, "type": "electric_bike", "name": "25f2f37a33138b7c62407841721d8127", "is_disabled": 0, "rental_uris": {"ios": "https://dc.lft.to/lastmile_qr_scan", "android": "https://dc.lft.to/lastmile_qr_scan"}, "is_reserved": 0}, {"lon": -77.05070483333333, "bike_id": "60f8a3f74d4a1ec19ad20cdbba1be0e2", "lat": 38.90724016666667, "fusion_lon": 0.0, "fusion_lat": 0.0, "type": "electric_scooter", "name": "60f8a3f74d4a1ec19ad20cdbba1be0e2", "is_disabled": 0, "rental_uris": {"ios": "https://dc.lft.to/lastmile_qr_scan", "android": "https://dc.lft.to/lastmile_qr_scan"}, "is_reserved": 0}, {"lon": -77.02368483333333, "bike_id": "23f66ada9216e1bb85ddd5e337723fbf", "lat": 38.89214366666667, "fusion_lon": 0.0, "fusion_lat": 0.0, "type": "electric_scooter", "name": "23f66ada9216e1bb85ddd5e337723fbf", "is_disabled": 0, "rental_uris": {"ios": "https://dc.lft.to/lastmile_qr_scan", "android": "https://dc.lft.to/lastmile_qr_scan"}, "is_reserved": 0}, {"lon": -77.0293285, "bike_id": "490eef4c9929995a7e938f67ab4eefd2", "lat": 38.90464016666667, "fusion_lon": 0.0, "fusion_lat": 0.0, "type": "electric_scooter", "name": "490eef4c9929995a7e938f67ab4eefd2", "is_disabled": 0, "rental_uris": {"ios": "https://dc.lft.to/lastmile_qr_scan", "android": "https://dc.lft.to/lastmile_qr_scan"}, "is_reserved": 0}, {"lon": -77.0531395, "bike_id": "72f553457d6a35fc84dc668c1b7d460a", "lat": 38.90071716666667, "fusion_lon": 0.0, "fusion_lat": 0.0, "type": "electric_scooter", "name": "72f553457d6a35fc84dc668c1b7d460a", "is_disabled": 0, "rental_uris": {"ios": "https://dc.lft.to/lastmile_qr_scan", "android": "https://dc.lft.to/lastmile_qr_scan"}, "is_reserved": 0}, {"lon": -77.0209065, "bike_id": "41edff7ec0509ac394d2ea289b61c951", "lat": 38.957410333333335, "fusion_lon": 0.0, "fusion_lat": 0.0, "type": "electric_scooter", "name": "41edff7ec0509ac394d2ea289b61c951", "is_disabled": 0, "rental_uris": {"ios": "https://dc.lft.to/lastmile_qr_scan", "android": "https://dc.lft.to/lastmile_qr_scan"}, "is_reserved": 0}, {"lon": -77.03392983333333, "bike_id": "93d725af7cda1ce7a9361cfc7042cdae", "lat": 38.9097385, "fusion_lon": 0.0, "fusion_lat": 0.0, "type": "electric_scooter", "name": "93d725af7cda1ce7a9361cfc7042cdae", "is_disabled": 0, "rental_uris": {"ios": "https://dc.lft.to/lastmile_qr_scan", "android": "https://dc.lft.to/lastmile_qr_scan"}, "is_reserved": 0}, {"lon": -77.03865083333334, "bike_id": "1e85f4ad10c0959f1b5abfb3844d6a9b", "lat": 38.911682166666665, "fusion_lon": 0.0, "fusion_lat": 0.0, "type": "electric_scooter", "name": "1e85f4ad10c0959f1b5abfb3844d6a9b", "is_disabled": 0, "rental_uris": {"ios": "https://dc.lft.to/lastmile_qr_scan", "android": "https://dc.lft.to/lastmile_qr_scan"}, "is_reserved": 0}, {"lon": -77.013744, "bike_id": "c0d0b4883bf3e95529bcdc85306576b0", "lat": 38.8921985, "fusion_lon": 0.0, "fusion_lat": 0.0, "type": "electric_scooter", "name": "c0d0b4883bf3e95529bcdc85306576b0", "is_disabled": 0, "rental_uris": {"ios": "https://dc.lft.to/lastmile_qr_scan", "android": "https://dc.lft.to/lastmile_qr_scan"}, "is_reserved": 0}, {"lon": -77.05141233333333, "bike_id": "83efcb4ad3521921c31ae165673837a4", "lat": 38.90554916666667, "fusion_lon": 0.0, "fusion_lat": 0.0, "type": "electric_scooter", "name": "83efcb4ad3521921c31ae165673837a4", "is_disabled": 0, "rental_uris": {"ios": "https://dc.lft.to/lastmile_qr_scan", "android": "https://dc.lft.to/lastmile_qr_scan"}, "is_reserved": 0}, {"lon": -77.0398565, "bike_id": "a511a8151c8b755bd518b4e5a44adda8", "lat": 38.93340116666667, "fusion_lon": 0.0, "fusion_lat": 0.0, "type": "electric_scooter", "name": "a511a8151c8b755bd518b4e5a44adda8", "is_disabled": 0, "rental_uris": {"ios": "https://dc.lft.to/lastmile_qr_scan", "android": "https://dc.lft.to/lastmile_qr_scan"}, "is_reserved": 0}, {"lon": -77.04446466666667, "bike_id": "1c344052dfd692dc702d359dd1083551", "lat": 38.9216585, "fusion_lon": 0.0, "fusion_lat": 0.0, "type": "electric_scooter", "name": "1c344052dfd692dc702d359dd1083551", "is_disabled": 0, "rental_uris": {"ios": "https://dc.lft.to/lastmile_qr_scan", "android": "https://dc.lft.to/lastmile_qr_scan"}, "is_reserved": 0}, {"lon": -77.00612733333334, "bike_id": "23757ecda6ccc1bb680d7625703504b9", "lat": 38.906444666666665, "fusion_lon": 0.0, "fusion_lat": 0.0, "type": "electric_scooter", "name": "23757ecda6ccc1bb680d7625703504b9", "is_disabled": 0, "rental_uris": {"ios": "https://dc.lft.to/lastmile_qr_scan", "android": "https://dc.lft.to/lastmile_qr_scan"}, "is_reserved": 0}, {"lon": -76.99493733333334, "bike_id": "e798b63660caa1c52e8e88f8980049f2", "lat": 38.86244683333334, "fusion_lon": 0.0, "fusion_lat": 0.0, "type": "electric_scooter", "name": "e798b63660caa1c52e8e88f8980049f2", "is_disabled": 0, "rental_uris": {"ios": "https://dc.lft.to/lastmile_qr_scan", "android": "https://dc.lft.to/lastmile_qr_scan"}, "is_reserved": 0}, {"lon": -77.03171416666666, "bike_id": "be07075e98d814c8dd62f9a9d4b0a025", "lat": 38.920898, "fusion_lon": 0.0, "fusion_lat": 0.0, "type": "electric_scooter", "name": "be07075e98d814c8dd62f9a9d4b0a025", "is_disabled": 0, "rental_uris": {"ios": "https://dc.lft.to/lastmile_qr_scan", "android": "https://dc.lft.to/lastmile_qr_scan"}, "is_reserved": 0}, {"lon": -77.039823, "bike_id": "ad2128d150f15570466350cd5c0f9771", "lat": 38.89219, "fusion_lon": 0.0, "fusion_lat": 0.0, "type": "electric_scooter", "name": "ad2128d150f15570466350cd5c0f9771", "is_disabled": 0, "rental_uris": {"ios": "https://dc.lft.to/lastmile_qr_scan", "android": "https://dc.lft.to/lastmile_qr_scan"}, "is_reserved": 0}, {"lon": -77.02701416666666, "bike_id": "eb347bc0010577c1051dc153a82d9163", "lat": 38.906227666666666, "fusion_lon": 0.0, "fusion_lat": 0.0, "type": "electric_scooter", "name": "eb347bc0010577c1051dc153a82d9163", "is_disabled": 0, "rental_uris": {"ios": "https://dc.lft.to/lastmile_qr_scan", "android": "https://dc.lft.to/lastmile_qr_scan"}, "is_reserved": 0}, {"lon": -77.18562733333333, "bike_id": "4c9ff0bae3abf12b40fe77de21a9f7f8", "lat": 39.099744, "fusion_lon": 0.0, "fusion_lat": 0.0, "type": "electric_bike", "name": "4c9ff0bae3abf12b40fe77de21a9f7f8", "is_disabled": 0, "rental_uris": {"ios": "https://dc.lft.to/lastmile_qr_scan", "android": "https://dc.lft.to/lastmile_qr_scan"}, "is_reserved": 0}, {"lon": -76.977261, "bike_id": "6405e35d92b954220fab9e2517a5a71c", "lat": 38.86487616666667, "fusion_lon": 0.0, "fusion_lat": 0.0, "type": "electric_bike", "name": "6405e35d92b954220fab9e2517a5a71c", "is_disabled": 0, "rental_uris": {"ios": "https://dc.lft.to/lastmile_qr_scan", "android": "https://dc.lft.to/lastmile_qr_scan"}, "is_reserved": 0}, {"lon": -77.007197, "bike_id": "19cda8c11f8c56112171203f7bcba1c4", "lat": 38.94599433333333, "fusion_lon": 0.0, "fusion_lat": 0.0, "type": "electric_bike", "name": "19cda8c11f8c56112171203f7bcba1c4", "is_disabled": 0, "rental_uris": {"ios": "https://dc.lft.to/lastmile_qr_scan", "android": "https://dc.lft.to/lastmile_qr_scan"}, "is_reserved": 0}, {"lon": -77.039151, "bike_id": "55e1ce671fa4ab28c32b40a1e204ec72", "lat": 38.9184285, "fusion_lon": 0.0, "fusion_lat": 0.0, "type": "electric_scooter", "name": "55e1ce671fa4ab28c32b40a1e204ec72", "is_disabled": 0, "rental_uris": {"ios": "https://dc.lft.to/lastmile_qr_scan", "android": "https://dc.lft.to/lastmile_qr_scan"}, "is_reserved": 0}, {"lon": -77.00658966666667, "bike_id": "503f0bf2e5ca6e38af73dd56d17eb381", "lat": 38.94463316666667, "fusion_lon": 0.0, "fusion_lat": 0.0, "type": "electric_scooter", "name": "503f0bf2e5ca6e38af73dd56d17eb381", "is_disabled": 0, "rental_uris": {"ios": "https://dc.lft.to/lastmile_qr_scan", "android": "https://dc.lft.to/lastmile_qr_scan"}, "is_reserved": 0}, {"lon": -76.96265216666667, "bike_id": "831c412a5a01f527cce05f2a91be64d9", "lat": 38.88240583333334, "fusion_lon": 0.0, "fusion_lat": 0.0, "type": "electric_bike", "name": "831c412a5a01f527cce05f2a91be64d9", "is_disabled": 0, "rental_uris": {"ios": "https://dc.lft.to/lastmile_qr_scan", "android": "https://dc.lft.to/lastmile_qr_scan"}, "is_reserved": 0}, {"lon": -77.0345085, "bike_id": "fcdf3cee92e887cabf816587c3cd513a", "lat": 38.91007183333333, "fusion_lon": 0.0, "fusion_lat": 0.0, "type": "electric_scooter", "name": "fcdf3cee92e887cabf816587c3cd513a", "is_disabled": 0, "rental_uris": {"ios": "https://dc.lft.to/lastmile_qr_scan", "android": "https://dc.lft.to/lastmile_qr_scan"}, "is_reserved": 0}, {"lon": -76.98362366666667, "bike_id": "5a0d33f1f3d031fdacd988077691b2b5", "lat": 38.8920105, "fusion_lon": 0.0, "fusion_lat": 0.0, "type": "electric_bike", "name": "5a0d33f1f3d031fdacd988077691b2b5", "is_disabled": 0, "rental_uris": {"ios": "https://dc.lft.to/lastmile_qr_scan", "android": "https://dc.lft.to/lastmile_qr_scan"}, "is_reserved": 0}, {"lon": -77.03176616666667, "bike_id": "1091bbdbbfeb2041f0599d4279e41bac", "lat": 38.9360345, "fusion_lon": 0.0, "fusion_lat": 0.0, "type": "electric_scooter", "name": "1091bbdbbfeb2041f0599d4279e41bac", "is_disabled": 0, "rental_uris": {"ios": "https://dc.lft.to/lastmile_qr_scan", "android": "https://dc.lft.to/lastmile_qr_scan"}, "is_reserved": 0}, {"lon": -77.04581116666667, "bike_id": "7f7107f366124166eb32fd24e46620c7", "lat": 38.91618733333333, "fusion_lon": 0.0, "fusion_lat": 0.0, "type": "electric_scooter", "name": "7f7107f366124166eb32fd24e46620c7", "is_disabled": 0, "rental_uris": {"ios": "https://dc.lft.to/lastmile_qr_scan", "android": "https://dc.lft.to/lastmile_qr_scan"}, "is_reserved": 0}, {"lon": -77.02165466666666, "bike_id": "34676712d34172a57cde7a2b9ff9456c", "lat": 38.92612483333333, "fusion_lon": 0.0, "fusion_lat": 0.0, "type": "electric_scooter", "name": "34676712d34172a57cde7a2b9ff9456c", "is_disabled": 0, "rental_uris": {"ios": "https://dc.lft.to/lastmile_qr_scan", "android": "https://dc.lft.to/lastmile_qr_scan"}, "is_reserved": 0}, {"lon": -77.05079566666667, "bike_id": "70a4f993cac4cf700fa36fbebaafcc79", "lat": 38.900782666666665, "fusion_lon": 0.0, "fusion_lat": 0.0, "type": "electric_scooter", "name": "70a4f993cac4cf700fa36fbebaafcc79", "is_disabled": 0, "rental_uris": {"ios": "https://dc.lft.to/lastmile_qr_scan", "android": "https://dc.lft.to/lastmile_qr_scan"}, "is_reserved": 0}, {"lon": -76.98383033333333, "bike_id": "c4ae60dcb6258fe6c30d901b5376ec69", "lat": 38.899694, "fusion_lon": 0.0, "fusion_lat": 0.0, "type": "electric_scooter", "name": "c4ae60dcb6258fe6c30d901b5376ec69", "is_disabled": 0, "rental_uris": {"ios": "https://dc.lft.to/lastmile_qr_scan", "android": "https://dc.lft.to/lastmile_qr_scan"}, "is_reserved": 0}, {"lon": -77.0221335, "bike_id": "b1647555b6d4ec4b5961a4776d591e46", "lat": 38.90186716666667, "fusion_lon": 0.0, "fusion_lat": 0.0, "type": "electric_scooter", "name": "b1647555b6d4ec4b5961a4776d591e46", "is_disabled": 0, "rental_uris": {"ios": "https://dc.lft.to/lastmile_qr_scan", "android": "https://dc.lft.to/lastmile_qr_scan"}, "is_reserved": 0}, {"lon": -77.00371683333333, "bike_id": "15b3d4b89220bbadfe704f0981954263", "lat": 38.897285, "fusion_lon": 0.0, "fusion_lat": 0.0, "type": "electric_scooter", "name": "15b3d4b89220bbadfe704f0981954263", "is_disabled": 0, "rental_uris": {"ios": "https://dc.lft.to/lastmile_qr_scan", "android": "https://dc.lft.to/lastmile_qr_scan"}, "is_reserved": 0}, {"lon": -77.02428983333333, "bike_id": "1817d83daa7341f0f176ed4ba82a2ffb", "lat": 38.92652966666667, "fusion_lon": 0.0, "fusion_lat": 0.0, "type": "electric_scooter", "name": "1817d83daa7341f0f176ed4ba82a2ffb", "is_disabled": 0, "rental_uris": {"ios": "https://dc.lft.to/lastmile_qr_scan", "android": "https://dc.lft.to/lastmile_qr_scan"}, "is_reserved": 0}, {"lon": -77.02172516666667, "bike_id": "de4e021ca60f599a4e468eab1bbd4b5c", "lat": 38.899449833333335, "fusion_lon": 0.0, "fusion_lat": 0.0, "type": "electric_scooter", "name": "de4e021ca60f599a4e468eab1bbd4b5c", "is_disabled": 0, "rental_uris": {"ios": "https://dc.lft.to/lastmile_qr_scan", "android": "https://dc.lft.to/lastmile_qr_scan"}, "is_reserved": 0}, {"lon": -77.0272275, "bike_id": "4a4e03a35f4b94d32c6261a74473b567", "lat": 38.9167385, "fusion_lon": 0.0, "fusion_lat": 0.0, "type": "electric_scooter", "name": "4a4e03a35f4b94d32c6261a74473b567", "is_disabled": 0, "rental_uris": {"ios": "https://dc.lft.to/lastmile_qr_scan", "android": "https://dc.lft.to/lastmile_qr_scan"}, "is_reserved": 0}, {"lon": -77.13105933333334, "bike_id": "7b5c7d96022e6e162bd1209d212b4f01", "lat": 39.02428233333333, "fusion_lon": 0.0, "fusion_lat": 0.0, "type": "electric_bike", "name": "7b5c7d96022e6e162bd1209d212b4f01", "is_disabled": 0, "rental_uris": {"ios": "https://dc.lft.to/lastmile_qr_scan", "android": "https://dc.lft.to/lastmile_qr_scan"}, "is_reserved": 0}, {"lon": -77.03263733333333, "bike_id": "1ca2f51e4486044e9491756b79ad9f4a", "lat": 38.9253385, "fusion_lon": 0.0, "fusion_lat": 0.0, "type": "electric_scooter", "name": "1ca2f51e4486044e9491756b79ad9f4a", "is_disabled": 0, "rental_uris": {"ios": "https://dc.lft.to/lastmile_qr_scan", "android": "https://dc.lft.to/lastmile_qr_scan"}, "is_reserved": 0}, {"lon": -77.019246, "bike_id": "4d216cf277485500215bde14e5831da9", "lat": 38.92218066666667, "fusion_lon": 0.0, "fusion_lat": 0.0, "type": "electric_scooter", "name": "4d216cf277485500215bde14e5831da9", "is_disabled": 0, "rental_uris": {"ios": "https://dc.lft.to/lastmile_qr_scan", "android": "https://dc.lft.to/lastmile_qr_scan"}, "is_reserved": 0}, {"lon": -77.06371383333334, "bike_id": "68cc8334cd461a37aec033a56317f57a", "lat": 38.9082675, "fusion_lon": 0.0, "fusion_lat": 0.0, "type": "electric_scooter", "name": "68cc8334cd461a37aec033a56317f57a", "is_disabled": 0, "rental_uris": {"ios": "https://dc.lft.to/lastmile_qr_scan", "android": "https://dc.lft.to/lastmile_qr_scan"}, "is_reserved": 0}, {"lon": -76.97552466666667, "bike_id": "123d7f734f2c69a47c71a708d528cb63", "lat": 38.903207, "fusion_lon": 0.0, "fusion_lat": 0.0, "type": "electric_scooter", "name": "123d7f734f2c69a47c71a708d528cb63", "is_disabled": 0, "rental_uris": {"ios": "https://dc.lft.to/lastmile_qr_scan", "android": "https://dc.lft.to/lastmile_qr_scan"}, "is_reserved": 0}, {"lon": -76.946405, "bike_id": "ac31a4e0af7596eeff5e377df8059c42", "lat": 38.89829566666667, "fusion_lon": 0.0, "fusion_lat": 0.0, "type": "electric_scooter", "name": "ac31a4e0af7596eeff5e377df8059c42", "is_disabled": 0, "rental_uris": {"ios": "https://dc.lft.to/lastmile_qr_scan", "android": "https://dc.lft.to/lastmile_qr_scan"}, "is_reserved": 0}, {"lon": -77.0342025, "bike_id": "b6461a59f6346ed9130a5d62ae73f46b", "lat": 38.922424, "fusion_lon": 0.0, "fusion_lat": 0.0, "type": "electric_scooter", "name": "b6461a59f6346ed9130a5d62ae73f46b", "is_disabled": 0, "rental_uris": {"ios": "https://dc.lft.to/lastmile_qr_scan", "android": "https://dc.lft.to/lastmile_qr_scan"}, "is_reserved": 0}, {"lon": -77.02293416666667, "bike_id": "50d96614ec467e28e695b4f022c19afb", "lat": 38.9166485, "fusion_lon": 0.0, "fusion_lat": 0.0, "type": "electric_scooter", "name": "50d96614ec467e28e695b4f022c19afb", "is_disabled": 0, "rental_uris": {"ios": "https://dc.lft.to/lastmile_qr_scan", "android": "https://dc.lft.to/lastmile_qr_scan"}, "is_reserved": 0}, {"lon": -77.06345183333333, "bike_id": "3698a72ff1f21e1ae97b088e4296a796", "lat": 38.9067905, "fusion_lon": 0.0, "fusion_lat": 0.0, "type": "electric_scooter", "name": "3698a72ff1f21e1ae97b088e4296a796", "is_disabled": 0, "rental_uris": {"ios": "https://dc.lft.to/lastmile_qr_scan", "android": "https://dc.lft.to/lastmile_qr_scan"}, "is_reserved": 0}, {"lon": -77.05543083333333, "bike_id": "237333de06f491d8a54636bdc59e5e7d", "lat": 38.9342435, "fusion_lon": 0.0, "fusion_lat": 0.0, "type": "electric_scooter", "name": "237333de06f491d8a54636bdc59e5e7d", "is_disabled": 0, "rental_uris": {"ios": "https://dc.lft.to/lastmile_qr_scan", "android": "https://dc.lft.to/lastmile_qr_scan"}, "is_reserved": 0}, {"lon": -77.01745266666667, "bike_id": "c16164121125ac7898f05e955ca79cfe", "lat": 38.90387966666667, "fusion_lon": 0.0, "fusion_lat": 0.0, "type": "electric_scooter", "name": "c16164121125ac7898f05e955ca79cfe", "is_disabled": 0, "rental_uris": {"ios": "https://dc.lft.to/lastmile_qr_scan", "android": "https://dc.lft.to/lastmile_qr_scan"}, "is_reserved": 0}, {"lon": -77.026838, "bike_id": "79a2bfcf001a6fbb12b980598f8bb6bd", "lat": 38.89700666666667, "fusion_lon": 0.0, "fusion_lat": 0.0, "type": "electric_scooter", "name": "79a2bfcf001a6fbb12b980598f8bb6bd", "is_disabled": 0, "rental_uris": {"ios": "https://dc.lft.to/lastmile_qr_scan", "android": "https://dc.lft.to/lastmile_qr_scan"}, "is_reserved": 0}, {"lon": -77.03395716666667, "bike_id": "ce58cad38ab566dd12a8b2f2234d697d", "lat": 38.909718166666664, "fusion_lon": 0.0, "fusion_lat": 0.0, "type": "electric_scooter", "name": "ce58cad38ab566dd12a8b2f2234d697d", "is_disabled": 0, "rental_uris": {"ios": "https://dc.lft.to/lastmile_qr_scan", "android": "https://dc.lft.to/lastmile_qr_scan"}, "is_reserved": 0}, {"lon": -77.03504666666667, "bike_id": "c23ffc2f1b320aba3a092f5c912c400d", "lat": 38.93748266666667, "fusion_lon": 0.0, "fusion_lat": 0.0, "type": "electric_scooter", "name": "c23ffc2f1b320aba3a092f5c912c400d", "is_disabled": 0, "rental_uris": {"ios": "https://dc.lft.to/lastmile_qr_scan", "android": "https://dc.lft.to/lastmile_qr_scan"}, "is_reserved": 0}, {"lon": -77.03901333333333, "bike_id": "06efbed23b0787ab8f637276631a96d8", "lat": 38.923626666666664, "fusion_lon": 0.0, "fusion_lat": 0.0, "type": "electric_scooter", "name": "06efbed23b0787ab8f637276631a96d8", "is_disabled": 0, "rental_uris": {"ios": "https://dc.lft.to/lastmile_qr_scan", "android": "https://dc.lft.to/lastmile_qr_scan"}, "is_reserved": 0}, {"lon": -76.97393266666667, "bike_id": "eda8c097859f4f384d61928c6b832a4e", "lat": 38.9055605, "fusion_lon": 0.0, "fusion_lat": 0.0, "type": "electric_scooter", "name": "eda8c097859f4f384d61928c6b832a4e", "is_disabled": 0, "rental_uris": {"ios": "https://dc.lft.to/lastmile_qr_scan", "android": "https://dc.lft.to/lastmile_qr_scan"}, "is_reserved": 0}, {"lon": -77.08462916666667, "bike_id": "fd106094180d5a89c291fd03caec0eac", "lat": 38.84815566666666, "fusion_lon": 0.0, "fusion_lat": 0.0, "type": "electric_bike", "name": "fd106094180d5a89c291fd03caec0eac", "is_disabled": 0, "rental_uris": {"ios": "https://dc.lft.to/lastmile_qr_scan", "android": "https://dc.lft.to/lastmile_qr_scan"}, "is_reserved": 0}, {"lon": -77.03386183333333, "bike_id": "4971c7c1d7d891aac8a254f76ec7ed31", "lat": 38.90963833333333, "fusion_lon": 0.0, "fusion_lat": 0.0, "type": "electric_scooter", "name": "4971c7c1d7d891aac8a254f76ec7ed31", "is_disabled": 0, "rental_uris": {"ios": "https://dc.lft.to/lastmile_qr_scan", "android": "https://dc.lft.to/lastmile_qr_scan"}, "is_reserved": 0}, {"lon": -77.02194366666667, "bike_id": "956074cc44810c85e51350e6edb30bd4", "lat": 38.909433666666665, "fusion_lon": 0.0, "fusion_lat": 0.0, "type": "electric_scooter", "name": "956074cc44810c85e51350e6edb30bd4", "is_disabled": 0, "rental_uris": {"ios": "https://dc.lft.to/lastmile_qr_scan", "android": "https://dc.lft.to/lastmile_qr_scan"}, "is_reserved": 0}, {"lon": -77.024016, "bike_id": "a3333f7cc1e9ae0822d9340a798fd90f", "lat": 38.8828285, "fusion_lon": 0.0, "fusion_lat": 0.0, "type": "electric_scooter", "name": "a3333f7cc1e9ae0822d9340a798fd90f", "is_disabled": 0, "rental_uris": {"ios": "https://dc.lft.to/lastmile_qr_scan", "android": "https://dc.lft.to/lastmile_qr_scan"}, "is_reserved": 0}, {"lon": -77.05954983333334, "bike_id": "648d7d89ff8a764a6f731a8d00793b6e", "lat": 38.91838416666667, "fusion_lon": 0.0, "fusion_lat": 0.0, "type": "electric_scooter", "name": "648d7d89ff8a764a6f731a8d00793b6e", "is_disabled": 0, "rental_uris": {"ios": "https://dc.lft.to/lastmile_qr_scan", "android": "https://dc.lft.to/lastmile_qr_scan"}, "is_reserved": 0}, {"lon": -77.036648, "bike_id": "2a8d11bfe7413655e033b904761e01ed", "lat": 38.91815883333334, "fusion_lon": 0.0, "fusion_lat": 0.0, "type": "electric_scooter", "name": "2a8d11bfe7413655e033b904761e01ed", "is_disabled": 0, "rental_uris": {"ios": "https://dc.lft.to/lastmile_qr_scan", "android": "https://dc.lft.to/lastmile_qr_scan"}, "is_reserved": 0}, {"lon": -77.036713, "bike_id": "b21d5f9c6d493398d77dccb4a541f07a", "lat": 38.9082665, "fusion_lon": 0.0, "fusion_lat": 0.0, "type": "electric_scooter", "name": "b21d5f9c6d493398d77dccb4a541f07a", "is_disabled": 0, "rental_uris": {"ios": "https://dc.lft.to/lastmile_qr_scan", "android": "https://dc.lft.to/lastmile_qr_scan"}, "is_reserved": 0}, {"lon": -77.023078, "bike_id": "6cec59d38e5662bd7fe67e3e844db6a4", "lat": 38.902893666666664, "fusion_lon": 0.0, "fusion_lat": 0.0, "type": "electric_scooter", "name": "6cec59d38e5662bd7fe67e3e844db6a4", "is_disabled": 0, "rental_uris": {"ios": "https://dc.lft.to/lastmile_qr_scan", "android": "https://dc.lft.to/lastmile_qr_scan"}, "is_reserved": 0}, {"lon": -76.98987033333333, "bike_id": "1d41d3790522b106f17627f722e76f7a", "lat": 38.93361683333333, "fusion_lon": 0.0, "fusion_lat": 0.0, "type": "electric_scooter", "name": "1d41d3790522b106f17627f722e76f7a", "is_disabled": 0, "rental_uris": {"ios": "https://dc.lft.to/lastmile_qr_scan", "android": "https://dc.lft.to/lastmile_qr_scan"}, "is_reserved": 0}, {"lon": -77.03340216666666, "bike_id": "f4ac17d413da4a0d645903c2672a81cc", "lat": 38.901259, "fusion_lon": 0.0, "fusion_lat": 0.0, "type": "electric_scooter", "name": "f4ac17d413da4a0d645903c2672a81cc", "is_disabled": 0, "rental_uris": {"ios": "https://dc.lft.to/lastmile_qr_scan", "android": "https://dc.lft.to/lastmile_qr_scan"}, "is_reserved": 0}, {"lon": -76.99039516666667, "bike_id": "834c07e0de33e315b5498b048a81192d", "lat": 38.88867316666666, "fusion_lon": 0.0, "fusion_lat": 0.0, "type": "electric_scooter", "name": "834c07e0de33e315b5498b048a81192d", "is_disabled": 0, "rental_uris": {"ios": "https://dc.lft.to/lastmile_qr_scan", "android": "https://dc.lft.to/lastmile_qr_scan"}, "is_reserved": 0}, {"lon": -77.04153216666667, "bike_id": "eb4d9525819e5e61cd4a05bd65991a04", "lat": 38.91980316666667, "fusion_lon": 0.0, "fusion_lat": 0.0, "type": "electric_scooter", "name": "eb4d9525819e5e61cd4a05bd65991a04", "is_disabled": 0, "rental_uris": {"ios": "https://dc.lft.to/lastmile_qr_scan", "android": "https://dc.lft.to/lastmile_qr_scan"}, "is_reserved": 0}, {"lon": -76.99523, "bike_id": "24bc8e70ecd188ed8d4ca08c9381f82a", "lat": 38.862604, "fusion_lon": 0.0, "fusion_lat": 0.0, "type": "electric_scooter", "name": "24bc8e70ecd188ed8d4ca08c9381f82a", "is_disabled": 0, "rental_uris": {"ios": "https://dc.lft.to/lastmile_qr_scan", "android": "https://dc.lft.to/lastmile_qr_scan"}, "is_reserved": 0}, {"lon": -76.94890883333333, "bike_id": "e0c4a4562d498f97a0e71613877581de", "lat": 38.89503833333333, "fusion_lon": 0.0, "fusion_lat": 0.0, "type": "electric_scooter", "name": "e0c4a4562d498f97a0e71613877581de", "is_disabled": 0, "rental_uris": {"ios": "https://dc.lft.to/lastmile_qr_scan", "android": "https://dc.lft.to/lastmile_qr_scan"}, "is_reserved": 0}, {"lon": -77.04180766666667, "bike_id": "08070fe573de23206957c60c43b8e4d2", "lat": 38.91978983333333, "fusion_lon": 0.0, "fusion_lat": 0.0, "type": "electric_scooter", "name": "08070fe573de23206957c60c43b8e4d2", "is_disabled": 0, "rental_uris": {"ios": "https://dc.lft.to/lastmile_qr_scan", "android": "https://dc.lft.to/lastmile_qr_scan"}, "is_reserved": 0}, {"lon": -77.03116333333334, "bike_id": "703d4b2e0ada511ea552959a1d1ad918", "lat": 38.91561333333333, "fusion_lon": 0.0, "fusion_lat": 0.0, "type": "electric_scooter", "name": "703d4b2e0ada511ea552959a1d1ad918", "is_disabled": 0, "rental_uris": {"ios": "https://dc.lft.to/lastmile_qr_scan", "android": "https://dc.lft.to/lastmile_qr_scan"}, "is_reserved": 0}, {"lon": -77.07972, "bike_id": "16410726d3b3b33255c5bc7080e21b7d", "lat": 38.85723016666667, "fusion_lon": 0.0, "fusion_lat": 0.0, "type": "electric_bike", "name": "16410726d3b3b33255c5bc7080e21b7d", "is_disabled": 0, "rental_uris": {"ios": "https://dc.lft.to/lastmile_qr_scan", "android": "https://dc.lft.to/lastmile_qr_scan"}, "is_reserved": 0}, {"lon": -76.98026366666667, "bike_id": "864a21e07103cfdf5fd103c10ed7dbca", "lat": 38.85317416666667, "fusion_lon": 0.0, "fusion_lat": 0.0, "type": "electric_bike", "name": "864a21e07103cfdf5fd103c10ed7dbca", "is_disabled": 0, "rental_uris": {"ios": "https://dc.lft.to/lastmile_qr_scan", "android": "https://dc.lft.to/lastmile_qr_scan"}, "is_reserved": 0}, {"lon": -77.02012133333334, "bike_id": "a111af055dc88362380529c480b479ba", "lat": 38.924122833333335, "fusion_lon": 0.0, "fusion_lat": 0.0, "type": "electric_scooter", "name": "a111af055dc88362380529c480b479ba", "is_disabled": 0, "rental_uris": {"ios": "https://dc.lft.to/lastmile_qr_scan", "android": "https://dc.lft.to/lastmile_qr_scan"}, "is_reserved": 0}, {"lon": -76.99078016666667, "bike_id": "d9bc6e56af64d4434c918651332e619b", "lat": 38.89809916666667, "fusion_lon": 0.0, "fusion_lat": 0.0, "type": "electric_bike", "name": "d9bc6e56af64d4434c918651332e619b", "is_disabled": 0, "rental_uris": {"ios": "https://dc.lft.to/lastmile_qr_scan", "android": "https://dc.lft.to/lastmile_qr_scan"}, "is_reserved": 0}, {"lon": -77.057527, "bike_id": "27f1c470dcffc313ad2c0d6f0d9e7ecf", "lat": 38.9333885, "fusion_lon": 0.0, "fusion_lat": 0.0, "type": "electric_scooter", "name": "27f1c470dcffc313ad2c0d6f0d9e7ecf", "is_disabled": 0, "rental_uris": {"ios": "https://dc.lft.to/lastmile_qr_scan", "android": "https://dc.lft.to/lastmile_qr_scan"}, "is_reserved": 0}, {"lon": -77.022621, "bike_id": "11795a4d7d4a0f50b82b54d12e373101", "lat": 38.9666935, "fusion_lon": 0.0, "fusion_lat": 0.0, "type": "electric_bike", "name": "11795a4d7d4a0f50b82b54d12e373101", "is_disabled": 0, "rental_uris": {"ios": "https://dc.lft.to/lastmile_qr_scan", "android": "https://dc.lft.to/lastmile_qr_scan"}, "is_reserved": 0}, {"lon": -77.03451033333333, "bike_id": "902bb257ab6985edd1b6d03c0c612725", "lat": 38.9097205, "fusion_lon": 0.0, "fusion_lat": 0.0, "type": "electric_scooter", "name": "902bb257ab6985edd1b6d03c0c612725", "is_disabled": 0, "rental_uris": {"ios": "https://dc.lft.to/lastmile_qr_scan", "android": "https://dc.lft.to/lastmile_qr_scan"}, "is_reserved": 0}, {"lon": -77.03668983333333, "bike_id": "aa060642c0eb1ffa9351be74e858a608", "lat": 38.92113766666667, "fusion_lon": 0.0, "fusion_lat": 0.0, "type": "electric_scooter", "name": "aa060642c0eb1ffa9351be74e858a608", "is_disabled": 0, "rental_uris": {"ios": "https://dc.lft.to/lastmile_qr_scan", "android": "https://dc.lft.to/lastmile_qr_scan"}, "is_reserved": 0}, {"lon": -77.02197866666667, "bike_id": "085243ec82555ae37f2a8050107af43d", "lat": 38.89836, "fusion_lon": 0.0, "fusion_lat": 0.0, "type": "electric_scooter", "name": "085243ec82555ae37f2a8050107af43d", "is_disabled": 0, "rental_uris": {"ios": "https://dc.lft.to/lastmile_qr_scan", "android": "https://dc.lft.to/lastmile_qr_scan"}, "is_reserved": 0}, {"lon": -77.02630666666667, "bike_id": "9a92ca7b67bcd842da021277c348945b", "lat": 38.96214483333333, "fusion_lon": 0.0, "fusion_lat": 0.0, "type": "electric_bike", "name": "9a92ca7b67bcd842da021277c348945b", "is_disabled": 0, "rental_uris": {"ios": "https://dc.lft.to/lastmile_qr_scan", "android": "https://dc.lft.to/lastmile_qr_scan"}, "is_reserved": 0}, {"lon": -76.9819465, "bike_id": "cb7734ff9d38f6d9cb3840844bbf9273", "lat": 38.92598183333333, "fusion_lon": 0.0, "fusion_lat": 0.0, "type": "electric_scooter", "name": "cb7734ff9d38f6d9cb3840844bbf9273", "is_disabled": 0, "rental_uris": {"ios": "https://dc.lft.to/lastmile_qr_scan", "android": "https://dc.lft.to/lastmile_qr_scan"}, "is_reserved": 0}, {"lon": -76.94295083333333, "bike_id": "5abe478b7db15fef1329daeb58cb80d5", "lat": 38.938635, "fusion_lon": 0.0, "fusion_lat": 0.0, "type": "electric_bike", "name": "5abe478b7db15fef1329daeb58cb80d5", "is_disabled": 0, "rental_uris": {"ios": "https://dc.lft.to/lastmile_qr_scan", "android": "https://dc.lft.to/lastmile_qr_scan"}, "is_reserved": 0}, {"lon": -77.03207533333334, "bike_id": "54781725f63cca10d3b15283a2d31986", "lat": 38.918154666666666, "fusion_lon": 0.0, "fusion_lat": 0.0, "type": "electric_scooter", "name": "54781725f63cca10d3b15283a2d31986", "is_disabled": 0, "rental_uris": {"ios": "https://dc.lft.to/lastmile_qr_scan", "android": "https://dc.lft.to/lastmile_qr_scan"}, "is_reserved": 0}, {"lon": -77.03538083333333, "bike_id": "5e1485e85d2a8ee96b368154356efdff", "lat": 38.92632366666667, "fusion_lon": 0.0, "fusion_lat": 0.0, "type": "electric_scooter", "name": "5e1485e85d2a8ee96b368154356efdff", "is_disabled": 0, "rental_uris": {"ios": "https://dc.lft.to/lastmile_qr_scan", "android": "https://dc.lft.to/lastmile_qr_scan"}, "is_reserved": 0}, {"lon": -77.0020675, "bike_id": "6686b9ad0829aa883e118c722d51cf7e", "lat": 38.90028483333333, "fusion_lon": 0.0, "fusion_lat": 0.0, "type": "electric_scooter", "name": "6686b9ad0829aa883e118c722d51cf7e", "is_disabled": 0, "rental_uris": {"ios": "https://dc.lft.to/lastmile_qr_scan", "android": "https://dc.lft.to/lastmile_qr_scan"}, "is_reserved": 0}, {"lon": -76.95479716666667, "bike_id": "af9019449bddcd3934edb7f8da3fb6c8", "lat": 38.88460716666667, "fusion_lon": 0.0, "fusion_lat": 0.0, "type": "electric_scooter", "name": "af9019449bddcd3934edb7f8da3fb6c8", "is_disabled": 0, "rental_uris": {"ios": "https://dc.lft.to/lastmile_qr_scan", "android": "https://dc.lft.to/lastmile_qr_scan"}, "is_reserved": 0}, {"lon": -76.9918925, "bike_id": "cf54d8c5ece2e8247a5167b69d0d00fc", "lat": 38.88973416666666, "fusion_lon": 0.0, "fusion_lat": 0.0, "type": "electric_scooter", "name": "cf54d8c5ece2e8247a5167b69d0d00fc", "is_disabled": 0, "rental_uris": {"ios": "https://dc.lft.to/lastmile_qr_scan", "android": "https://dc.lft.to/lastmile_qr_scan"}, "is_reserved": 0}, {"lon": -77.02294233333333, "bike_id": "bd0f966471fce0f0fd6d0363c343e266", "lat": 38.89056133333333, "fusion_lon": 0.0, "fusion_lat": 0.0, "type": "electric_scooter", "name": "bd0f966471fce0f0fd6d0363c343e266", "is_disabled": 0, "rental_uris": {"ios": "https://dc.lft.to/lastmile_qr_scan", "android": "https://dc.lft.to/lastmile_qr_scan"}, "is_reserved": 0}, {"lon": -76.98886016666667, "bike_id": "ffd10af3876f21bbedb79fa8363be8df", "lat": 38.866537666666666, "fusion_lon": 0.0, "fusion_lat": 0.0, "type": "electric_scooter", "name": "ffd10af3876f21bbedb79fa8363be8df", "is_disabled": 0, "rental_uris": {"ios": "https://dc.lft.to/lastmile_qr_scan", "android": "https://dc.lft.to/lastmile_qr_scan"}, "is_reserved": 0}, {"lon": -77.06256433333333, "bike_id": "04e2201b89cbfd2452128cb877b420b1", "lat": 38.944108666666665, "fusion_lon": 0.0, "fusion_lat": 0.0, "type": "electric_scooter", "name": "04e2201b89cbfd2452128cb877b420b1", "is_disabled": 0, "rental_uris": {"ios": "https://dc.lft.to/lastmile_qr_scan", "android": "https://dc.lft.to/lastmile_qr_scan"}, "is_reserved": 0}, {"lon": -76.98264233333333, "bike_id": "05da4ebbb55972039566e96c1784eafd", "lat": 38.9085345, "fusion_lon": 0.0, "fusion_lat": 0.0, "type": "electric_scooter", "name": "05da4ebbb55972039566e96c1784eafd", "is_disabled": 0, "rental_uris": {"ios": "https://dc.lft.to/lastmile_qr_scan", "android": "https://dc.lft.to/lastmile_qr_scan"}, "is_reserved": 0}, {"lon": -77.036588, "bike_id": "d8cf1b8032def8369e1035cc489dc1ee", "lat": 38.94168916666667, "fusion_lon": 0.0, "fusion_lat": 0.0, "type": "electric_scooter", "name": "d8cf1b8032def8369e1035cc489dc1ee", "is_disabled": 0, "rental_uris": {"ios": "https://dc.lft.to/lastmile_qr_scan", "android": "https://dc.lft.to/lastmile_qr_scan"}, "is_reserved": 0}, {"lon": -77.0118045, "bike_id": "e7780b317dafd3ab999d896377fbca1b", "lat": 38.872307166666666, "fusion_lon": 0.0, "fusion_lat": 0.0, "type": "electric_bike", "name": "e7780b317dafd3ab999d896377fbca1b", "is_disabled": 0, "rental_uris": {"ios": "https://dc.lft.to/lastmile_qr_scan", "android": "https://dc.lft.to/lastmile_qr_scan"}, "is_reserved": 0}, {"lon": -76.989027, "bike_id": "3492a3f016b13d7067627a00494a92b0", "lat": 38.91339766666667, "fusion_lon": 0.0, "fusion_lat": 0.0, "type": "electric_scooter", "name": "3492a3f016b13d7067627a00494a92b0", "is_disabled": 0, "rental_uris": {"ios": "https://dc.lft.to/lastmile_qr_scan", "android": "https://dc.lft.to/lastmile_qr_scan"}, "is_reserved": 0}, {"lon": -77.10090283333334, "bike_id": "0373a96fafe3a5f2421b9b7603c190d2", "lat": 38.959546, "fusion_lon": 0.0, "fusion_lat": 0.0, "type": "electric_bike", "name": "0373a96fafe3a5f2421b9b7603c190d2", "is_disabled": 0, "rental_uris": {"ios": "https://dc.lft.to/lastmile_qr_scan", "android": "https://dc.lft.to/lastmile_qr_scan"}, "is_reserved": 0}, {"lon": -76.98710633333333, "bike_id": "a7b0ffb480ca6886fae74f8196f7071e", "lat": 38.9070475, "fusion_lon": 0.0, "fusion_lat": 0.0, "type": "electric_scooter", "name": "a7b0ffb480ca6886fae74f8196f7071e", "is_disabled": 0, "rental_uris": {"ios": "https://dc.lft.to/lastmile_qr_scan", "android": "https://dc.lft.to/lastmile_qr_scan"}, "is_reserved": 0}, {"lon": -76.99484666666666, "bike_id": "e48d1714e4419536ca8386bf81c513c5", "lat": 38.9157085, "fusion_lon": 0.0, "fusion_lat": 0.0, "type": "electric_scooter", "name": "e48d1714e4419536ca8386bf81c513c5", "is_disabled": 0, "rental_uris": {"ios": "https://dc.lft.to/lastmile_qr_scan", "android": "https://dc.lft.to/lastmile_qr_scan"}, "is_reserved": 0}, {"lon": -76.93370666666667, "bike_id": "b0447abb054845b56b3f44b2994554bc", "lat": 38.899081333333335, "fusion_lon": 0.0, "fusion_lat": 0.0, "type": "electric_scooter", "name": "b0447abb054845b56b3f44b2994554bc", "is_disabled": 0, "rental_uris": {"ios": "https://dc.lft.to/lastmile_qr_scan", "android": "https://dc.lft.to/lastmile_qr_scan"}, "is_reserved": 0}, {"lon": -77.033415, "bike_id": "02623f031cd4bebcfe39c93586a9ff8d", "lat": 38.919087166666664, "fusion_lon": 0.0, "fusion_lat": 0.0, "type": "electric_scooter", "name": "02623f031cd4bebcfe39c93586a9ff8d", "is_disabled": 0, "rental_uris": {"ios": "https://dc.lft.to/lastmile_qr_scan", "android": "https://dc.lft.to/lastmile_qr_scan"}, "is_reserved": 0}, {"lon": -76.9784745, "bike_id": "d85c58557831e87844c0eccc956d0315", "lat": 38.8656605, "fusion_lon": 0.0, "fusion_lat": 0.0, "type": "electric_scooter", "name": "d85c58557831e87844c0eccc956d0315", "is_disabled": 0, "rental_uris": {"ios": "https://dc.lft.to/lastmile_qr_scan", "android": "https://dc.lft.to/lastmile_qr_scan"}, "is_reserved": 0}, {"lon": -77.03866066666667, "bike_id": "b293cd3e3053ccd6a02f282a4f49b257", "lat": 38.9096555, "fusion_lon": 0.0, "fusion_lat": 0.0, "type": "electric_scooter", "name": "b293cd3e3053ccd6a02f282a4f49b257", "is_disabled": 0, "rental_uris": {"ios": "https://dc.lft.to/lastmile_qr_scan", "android": "https://dc.lft.to/lastmile_qr_scan"}, "is_reserved": 0}, {"lon": -77.0381135, "bike_id": "fe5003921a35c8dd5ea1f203fef996e7", "lat": 38.931127833333335, "fusion_lon": 0.0, "fusion_lat": 0.0, "type": "electric_scooter", "name": "fe5003921a35c8dd5ea1f203fef996e7", "is_disabled": 0, "rental_uris": {"ios": "https://dc.lft.to/lastmile_qr_scan", "android": "https://dc.lft.to/lastmile_qr_scan"}, "is_reserved": 0}, {"lon": -77.02382933333334, "bike_id": "9919684838869bcfaddcdbb2238ce65c", "lat": 38.91510783333333, "fusion_lon": 0.0, "fusion_lat": 0.0, "type": "electric_scooter", "name": "9919684838869bcfaddcdbb2238ce65c", "is_disabled": 0, "rental_uris": {"ios": "https://dc.lft.to/lastmile_qr_scan", "android": "https://dc.lft.to/lastmile_qr_scan"}, "is_reserved": 0}, {"lon": -77.02697316666666, "bike_id": "2354c3059c22b1602f701fd5de5ebe1d", "lat": 38.897285833333335, "fusion_lon": 0.0, "fusion_lat": 0.0, "type": "electric_scooter", "name": "2354c3059c22b1602f701fd5de5ebe1d", "is_disabled": 0, "rental_uris": {"ios": "https://dc.lft.to/lastmile_qr_scan", "android": "https://dc.lft.to/lastmile_qr_scan"}, "is_reserved": 0}, {"lon": -77.0389945, "bike_id": "bbc88f192ba316eef70238d87979842d", "lat": 38.92341566666666, "fusion_lon": 0.0, "fusion_lat": 0.0, "type": "electric_scooter", "name": "bbc88f192ba316eef70238d87979842d", "is_disabled": 0, "rental_uris": {"ios": "https://dc.lft.to/lastmile_qr_scan", "android": "https://dc.lft.to/lastmile_qr_scan"}, "is_reserved": 0}, {"lon": -77.02203566666667, "bike_id": "fa5a1d29b1041dba7a6b22a1d4d9c3c7", "lat": 38.91644433333333, "fusion_lon": 0.0, "fusion_lat": 0.0, "type": "electric_scooter", "name": "fa5a1d29b1041dba7a6b22a1d4d9c3c7", "is_disabled": 0, "rental_uris": {"ios": "https://dc.lft.to/lastmile_qr_scan", "android": "https://dc.lft.to/lastmile_qr_scan"}, "is_reserved": 0}, {"lon": -77.03277633333333, "bike_id": "717229dbcdd192d3dc4203d05bfa04ed", "lat": 38.9286515, "fusion_lon": 0.0, "fusion_lat": 0.0, "type": "electric_scooter", "name": "717229dbcdd192d3dc4203d05bfa04ed", "is_disabled": 0, "rental_uris": {"ios": "https://dc.lft.to/lastmile_qr_scan", "android": "https://dc.lft.to/lastmile_qr_scan"}, "is_reserved": 0}, {"lon": -77.014053, "bike_id": "3ad632581d39e25d2aabbd758380d60f", "lat": 38.92801883333333, "fusion_lon": 0.0, "fusion_lat": 0.0, "type": "electric_scooter", "name": "3ad632581d39e25d2aabbd758380d60f", "is_disabled": 0, "rental_uris": {"ios": "https://dc.lft.to/lastmile_qr_scan", "android": "https://dc.lft.to/lastmile_qr_scan"}, "is_reserved": 0}, {"lon": -76.98719383333334, "bike_id": "5432e638b20a2de87957eb031e51d6f6", "lat": 38.86696633333333, "fusion_lon": 0.0, "fusion_lat": 0.0, "type": "electric_scooter", "name": "5432e638b20a2de87957eb031e51d6f6", "is_disabled": 0, "rental_uris": {"ios": "https://dc.lft.to/lastmile_qr_scan", "android": "https://dc.lft.to/lastmile_qr_scan"}, "is_reserved": 0}, {"lon": -77.03078216666667, "bike_id": "3f0570bb27803d242fb33c485874a3a8", "lat": 38.935239833333334, "fusion_lon": 0.0, "fusion_lat": 0.0, "type": "electric_scooter", "name": "3f0570bb27803d242fb33c485874a3a8", "is_disabled": 0, "rental_uris": {"ios": "https://dc.lft.to/lastmile_qr_scan", "android": "https://dc.lft.to/lastmile_qr_scan"}, "is_reserved": 0}, {"lon": -77.03179783333333, "bike_id": "5ac46f3e7b1d2e02a88fb0c224951af3", "lat": 38.887352, "fusion_lon": 0.0, "fusion_lat": 0.0, "type": "electric_scooter", "name": "5ac46f3e7b1d2e02a88fb0c224951af3", "is_disabled": 0, "rental_uris": {"ios": "https://dc.lft.to/lastmile_qr_scan", "android": "https://dc.lft.to/lastmile_qr_scan"}, "is_reserved": 0}, {"lon": -77.019753, "bike_id": "e3dfa07e3c25832490ba8abf0e07e313", "lat": 38.921268166666664, "fusion_lon": 0.0, "fusion_lat": 0.0, "type": "electric_scooter", "name": "e3dfa07e3c25832490ba8abf0e07e313", "is_disabled": 0, "rental_uris": {"ios": "https://dc.lft.to/lastmile_qr_scan", "android": "https://dc.lft.to/lastmile_qr_scan"}, "is_reserved": 0}, {"lon": -77.06030033333333, "bike_id": "57ef3e35c9028e74fc1fa67cb1e301c0", "lat": 38.904940833333335, "fusion_lon": 0.0, "fusion_lat": 0.0, "type": "electric_scooter", "name": "57ef3e35c9028e74fc1fa67cb1e301c0", "is_disabled": 0, "rental_uris": {"ios": "https://dc.lft.to/lastmile_qr_scan", "android": "https://dc.lft.to/lastmile_qr_scan"}, "is_reserved": 0}, {"lon": -77.00154416666666, "bike_id": "26268970d11c30dd5243439cad55efd1", "lat": 38.8427715, "fusion_lon": 0.0, "fusion_lat": 0.0, "type": "electric_scooter", "name": "26268970d11c30dd5243439cad55efd1", "is_disabled": 0, "rental_uris": {"ios": "https://dc.lft.to/lastmile_qr_scan", "android": "https://dc.lft.to/lastmile_qr_scan"}, "is_reserved": 0}, {"lon": -77.05483966666667, "bike_id": "d79c9a8fed5f94a09be491c6bfb3dc7c", "lat": 38.935471, "fusion_lon": 0.0, "fusion_lat": 0.0, "type": "electric_scooter", "name": "d79c9a8fed5f94a09be491c6bfb3dc7c", "is_disabled": 0, "rental_uris": {"ios": "https://dc.lft.to/lastmile_qr_scan", "android": "https://dc.lft.to/lastmile_qr_scan"}, "is_reserved": 0}, {"lon": -77.02149616666667, "bike_id": "cc71edf63fbecc1984d5fb86cadce0ae", "lat": 38.89497266666667, "fusion_lon": 0.0, "fusion_lat": 0.0, "type": "electric_scooter", "name": "cc71edf63fbecc1984d5fb86cadce0ae", "is_disabled": 0, "rental_uris": {"ios": "https://dc.lft.to/lastmile_qr_scan", "android": "https://dc.lft.to/lastmile_qr_scan"}, "is_reserved": 0}, {"lon": -77.02213833333333, "bike_id": "82d923096d968571dec86edded0e52b2", "lat": 38.901959833333336, "fusion_lon": 0.0, "fusion_lat": 0.0, "type": "electric_scooter", "name": "82d923096d968571dec86edded0e52b2", "is_disabled": 0, "rental_uris": {"ios": "https://dc.lft.to/lastmile_qr_scan", "android": "https://dc.lft.to/lastmile_qr_scan"}, "is_reserved": 0}, {"lon": -77.0269785, "bike_id": "d0feb9d59645b7cf552821fc97e7acc0", "lat": 38.90840466666667, "fusion_lon": 0.0, "fusion_lat": 0.0, "type": "electric_scooter", "name": "d0feb9d59645b7cf552821fc97e7acc0", "is_disabled": 0, "rental_uris": {"ios": "https://dc.lft.to/lastmile_qr_scan", "android": "https://dc.lft.to/lastmile_qr_scan"}, "is_reserved": 0}, {"lon": -76.99189566666666, "bike_id": "22a3ab1550ff8b0f7b12debfb9acc725", "lat": 38.90837966666667, "fusion_lon": 0.0, "fusion_lat": 0.0, "type": "electric_scooter", "name": "22a3ab1550ff8b0f7b12debfb9acc725", "is_disabled": 0, "rental_uris": {"ios": "https://dc.lft.to/lastmile_qr_scan", "android": "https://dc.lft.to/lastmile_qr_scan"}, "is_reserved": 0}, {"lon": -77.01982983333333, "bike_id": "eabac7d48605b50a3ac0052f8036f53b", "lat": 38.96028883333334, "fusion_lon": 0.0, "fusion_lat": 0.0, "type": "electric_scooter", "name": "eabac7d48605b50a3ac0052f8036f53b", "is_disabled": 0, "rental_uris": {"ios": "https://dc.lft.to/lastmile_qr_scan", "android": "https://dc.lft.to/lastmile_qr_scan"}, "is_reserved": 0}, {"lon": -77.0198835, "bike_id": "57a0b181855db67b3f8c229531787fd5", "lat": 38.930423, "fusion_lon": 0.0, "fusion_lat": 0.0, "type": "electric_bike", "name": "57a0b181855db67b3f8c229531787fd5", "is_disabled": 0, "rental_uris": {"ios": "https://dc.lft.to/lastmile_qr_scan", "android": "https://dc.lft.to/lastmile_qr_scan"}, "is_reserved": 0}, {"lon": -76.987152, "bike_id": "5132125b93038fa7ce9a93046d5a2a3d", "lat": 38.866946666666664, "fusion_lon": 0.0, "fusion_lat": 0.0, "type": "electric_scooter", "name": "5132125b93038fa7ce9a93046d5a2a3d", "is_disabled": 0, "rental_uris": {"ios": "https://dc.lft.to/lastmile_qr_scan", "android": "https://dc.lft.to/lastmile_qr_scan"}, "is_reserved": 0}, {"lon": -77.00886383333334, "bike_id": "71726d4faf1da39fb1cc89ec00c7882e", "lat": 38.91790016666667, "fusion_lon": 0.0, "fusion_lat": 0.0, "type": "electric_scooter", "name": "71726d4faf1da39fb1cc89ec00c7882e", "is_disabled": 0, "rental_uris": {"ios": "https://dc.lft.to/lastmile_qr_scan", "android": "https://dc.lft.to/lastmile_qr_scan"}, "is_reserved": 0}, {"lon": -76.93181083333333, "bike_id": "8bbdea21ab41eb2ccc19d9b3e2ab163a", "lat": 38.89879666666667, "fusion_lon": 0.0, "fusion_lat": 0.0, "type": "electric_scooter", "name": "8bbdea21ab41eb2ccc19d9b3e2ab163a", "is_disabled": 0, "rental_uris": {"ios": "https://dc.lft.to/lastmile_qr_scan", "android": "https://dc.lft.to/lastmile_qr_scan"}, "is_reserved": 0}, {"lon": -77.03205583333333, "bike_id": "51a397a4561ffabc764211f33e29a9c5", "lat": 38.93866166666667, "fusion_lon": 0.0, "fusion_lat": 0.0, "type": "electric_scooter", "name": "51a397a4561ffabc764211f33e29a9c5", "is_disabled": 0, "rental_uris": {"ios": "https://dc.lft.to/lastmile_qr_scan", "android": "https://dc.lft.to/lastmile_qr_scan"}, "is_reserved": 0}, {"lon": -77.03284716666667, "bike_id": "1cacea60821bf490a9dedc26e4a7aa08", "lat": 38.940931166666665, "fusion_lon": 0.0, "fusion_lat": 0.0, "type": "electric_scooter", "name": "1cacea60821bf490a9dedc26e4a7aa08", "is_disabled": 0, "rental_uris": {"ios": "https://dc.lft.to/lastmile_qr_scan", "android": "https://dc.lft.to/lastmile_qr_scan"}, "is_reserved": 0}, {"lon": -77.017866, "bike_id": "72351b5b1bbbe16b3b6c41cfe09674d6", "lat": 38.900723, "fusion_lon": 0.0, "fusion_lat": 0.0, "type": "electric_scooter", "name": "72351b5b1bbbe16b3b6c41cfe09674d6", "is_disabled": 0, "rental_uris": {"ios": "https://dc.lft.to/lastmile_qr_scan", "android": "https://dc.lft.to/lastmile_qr_scan"}, "is_reserved": 0}, {"lon": -77.166296, "bike_id": "4f524360a81c7c0b2a0f63bcfc2abc0f", "lat": 38.88833416666667, "fusion_lon": 0.0, "fusion_lat": 0.0, "type": "electric_bike", "name": "4f524360a81c7c0b2a0f63bcfc2abc0f", "is_disabled": 0, "rental_uris": {"ios": "https://dc.lft.to/lastmile_qr_scan", "android": "https://dc.lft.to/lastmile_qr_scan"}, "is_reserved": 0}, {"lon": -77.03456883333334, "bike_id": "93cc38bcdef677d6e41d82bea41790dc", "lat": 38.934279833333335, "fusion_lon": 0.0, "fusion_lat": 0.0, "type": "electric_scooter", "name": "93cc38bcdef677d6e41d82bea41790dc", "is_disabled": 0, "rental_uris": {"ios": "https://dc.lft.to/lastmile_qr_scan", "android": "https://dc.lft.to/lastmile_qr_scan"}, "is_reserved": 0}, {"lon": -77.0326625, "bike_id": "c390f801988424bedfcb88842973dd48", "lat": 38.938900333333336, "fusion_lon": 0.0, "fusion_lat": 0.0, "type": "electric_scooter", "name": "c390f801988424bedfcb88842973dd48", "is_disabled": 0, "rental_uris": {"ios": "https://dc.lft.to/lastmile_qr_scan", "android": "https://dc.lft.to/lastmile_qr_scan"}, "is_reserved": 0}, {"lon": -77.03016183333334, "bike_id": "bf96bae3905e4f22424eb1652c717621", "lat": 38.92567016666667, "fusion_lon": 0.0, "fusion_lat": 0.0, "type": "electric_scooter", "name": "bf96bae3905e4f22424eb1652c717621", "is_disabled": 0, "rental_uris": {"ios": "https://dc.lft.to/lastmile_qr_scan", "android": "https://dc.lft.to/lastmile_qr_scan"}, "is_reserved": 0}, {"lon": -77.020495, "bike_id": "66050ecfdfcb08c06907621156771d3d", "lat": 38.92328966666667, "fusion_lon": 0.0, "fusion_lat": 0.0, "type": "electric_scooter", "name": "66050ecfdfcb08c06907621156771d3d", "is_disabled": 0, "rental_uris": {"ios": "https://dc.lft.to/lastmile_qr_scan", "android": "https://dc.lft.to/lastmile_qr_scan"}, "is_reserved": 0}, {"lon": -77.03873316666666, "bike_id": "b0f687ec3b5f6a8da766c1c30266cefb", "lat": 38.908078333333336, "fusion_lon": 0.0, "fusion_lat": 0.0, "type": "electric_scooter", "name": "b0f687ec3b5f6a8da766c1c30266cefb", "is_disabled": 0, "rental_uris": {"ios": "https://dc.lft.to/lastmile_qr_scan", "android": "https://dc.lft.to/lastmile_qr_scan"}, "is_reserved": 0}, {"lon": -77.03183333333334, "bike_id": "410cdc9a64d000a83db6ea833ad2a73e", "lat": 38.91819733333333, "fusion_lon": 0.0, "fusion_lat": 0.0, "type": "electric_scooter", "name": "410cdc9a64d000a83db6ea833ad2a73e", "is_disabled": 0, "rental_uris": {"ios": "https://dc.lft.to/lastmile_qr_scan", "android": "https://dc.lft.to/lastmile_qr_scan"}, "is_reserved": 0}, {"lon": -76.99613483333333, "bike_id": "420a757653c64c7b8b872a445c618504", "lat": 38.930872, "fusion_lon": 0.0, "fusion_lat": 0.0, "type": "electric_scooter", "name": "420a757653c64c7b8b872a445c618504", "is_disabled": 0, "rental_uris": {"ios": "https://dc.lft.to/lastmile_qr_scan", "android": "https://dc.lft.to/lastmile_qr_scan"}, "is_reserved": 0}, {"lon": -77.0334665, "bike_id": "0e4304486f1ee93578b6f3a0122b4cff", "lat": 38.892411, "fusion_lon": 0.0, "fusion_lat": 0.0, "type": "electric_scooter", "name": "0e4304486f1ee93578b6f3a0122b4cff", "is_disabled": 0, "rental_uris": {"ios": "https://dc.lft.to/lastmile_qr_scan", "android": "https://dc.lft.to/lastmile_qr_scan"}, "is_reserved": 0}, {"lon": -77.046689, "bike_id": "c9ff3d4e6ffcb78a29d648d89c400d60", "lat": 38.907824833333336, "fusion_lon": 0.0, "fusion_lat": 0.0, "type": "electric_scooter", "name": "c9ff3d4e6ffcb78a29d648d89c400d60", "is_disabled": 0, "rental_uris": {"ios": "https://dc.lft.to/lastmile_qr_scan", "android": "https://dc.lft.to/lastmile_qr_scan"}, "is_reserved": 0}, {"lon": -76.9866555, "bike_id": "dd792179e6dccd80c99fbfe1974421a9", "lat": 38.86731783333333, "fusion_lon": 0.0, "fusion_lat": 0.0, "type": "electric_scooter", "name": "dd792179e6dccd80c99fbfe1974421a9", "is_disabled": 0, "rental_uris": {"ios": "https://dc.lft.to/lastmile_qr_scan", "android": "https://dc.lft.to/lastmile_qr_scan"}, "is_reserved": 0}, {"lon": -77.03758066666667, "bike_id": "1cc44c0952b34303b73a49c88761531e", "lat": 38.929133, "fusion_lon": 0.0, "fusion_lat": 0.0, "type": "electric_scooter", "name": "1cc44c0952b34303b73a49c88761531e", "is_disabled": 0, "rental_uris": {"ios": "https://dc.lft.to/lastmile_qr_scan", "android": "https://dc.lft.to/lastmile_qr_scan"}, "is_reserved": 0}, {"lon": -77.046596, "bike_id": "e491581b77779f60f223dfbbb6d5079a", "lat": 38.91358683333333, "fusion_lon": 0.0, "fusion_lat": 0.0, "type": "electric_scooter", "name": "e491581b77779f60f223dfbbb6d5079a", "is_disabled": 0, "rental_uris": {"ios": "https://dc.lft.to/lastmile_qr_scan", "android": "https://dc.lft.to/lastmile_qr_scan"}, "is_reserved": 0}, {"lon": -76.99523266666667, "bike_id": "7968b2622a1c33c00639cdbb1cce785c", "lat": 38.89170466666667, "fusion_lon": 0.0, "fusion_lat": 0.0, "type": "electric_scooter", "name": "7968b2622a1c33c00639cdbb1cce785c", "is_disabled": 0, "rental_uris": {"ios": "https://dc.lft.to/lastmile_qr_scan", "android": "https://dc.lft.to/lastmile_qr_scan"}, "is_reserved": 0}, {"lon": -77.03184483333334, "bike_id": "8016d4c4cd47c1850657075ed08e5ac1", "lat": 38.91998666666667, "fusion_lon": 0.0, "fusion_lat": 0.0, "type": "electric_scooter", "name": "8016d4c4cd47c1850657075ed08e5ac1", "is_disabled": 0, "rental_uris": {"ios": "https://dc.lft.to/lastmile_qr_scan", "android": "https://dc.lft.to/lastmile_qr_scan"}, "is_reserved": 0}, {"lon": -77.025967, "bike_id": "cdea7881d894dd4191ef450974e856b5", "lat": 38.90492716666667, "fusion_lon": 0.0, "fusion_lat": 0.0, "type": "electric_scooter", "name": "cdea7881d894dd4191ef450974e856b5", "is_disabled": 0, "rental_uris": {"ios": "https://dc.lft.to/lastmile_qr_scan", "android": "https://dc.lft.to/lastmile_qr_scan"}, "is_reserved": 0}, {"lon": -76.99492133333334, "bike_id": "ed7421539fb267642e25d35edb46cb2f", "lat": 38.897362333333334, "fusion_lon": 0.0, "fusion_lat": 0.0, "type": "electric_scooter", "name": "ed7421539fb267642e25d35edb46cb2f", "is_disabled": 0, "rental_uris": {"ios": "https://dc.lft.to/lastmile_qr_scan", "android": "https://dc.lft.to/lastmile_qr_scan"}, "is_reserved": 0}, {"lon": -77.02168783333333, "bike_id": "39eb525e82b7e52c80fdaf22be17aa1a", "lat": 38.89728683333333, "fusion_lon": 0.0, "fusion_lat": 0.0, "type": "electric_scooter", "name": "39eb525e82b7e52c80fdaf22be17aa1a", "is_disabled": 0, "rental_uris": {"ios": "https://dc.lft.to/lastmile_qr_scan", "android": "https://dc.lft.to/lastmile_qr_scan"}, "is_reserved": 0}, {"lon": -77.0524295, "bike_id": "c11a84bd56ff756036d5a54714097ff8", "lat": 38.92455233333333, "fusion_lon": 0.0, "fusion_lat": 0.0, "type": "electric_scooter", "name": "c11a84bd56ff756036d5a54714097ff8", "is_disabled": 0, "rental_uris": {"ios": "https://dc.lft.to/lastmile_qr_scan", "android": "https://dc.lft.to/lastmile_qr_scan"}, "is_reserved": 0}, {"lon": -77.029317, "bike_id": "e2c359d17c4a91c216a42437138ef2a2", "lat": 38.940310833333335, "fusion_lon": 0.0, "fusion_lat": 0.0, "type": "electric_scooter", "name": "e2c359d17c4a91c216a42437138ef2a2", "is_disabled": 0, "rental_uris": {"ios": "https://dc.lft.to/lastmile_qr_scan", "android": "https://dc.lft.to/lastmile_qr_scan"}, "is_reserved": 0}, {"lon": -77.01783866666666, "bike_id": "f96132ee17e014364b9a7f1f00b1d265", "lat": 38.887353166666664, "fusion_lon": 0.0, "fusion_lat": 0.0, "type": "electric_scooter", "name": "f96132ee17e014364b9a7f1f00b1d265", "is_disabled": 0, "rental_uris": {"ios": "https://dc.lft.to/lastmile_qr_scan", "android": "https://dc.lft.to/lastmile_qr_scan"}, "is_reserved": 0}, {"lon": -77.04538283333333, "bike_id": "c2a60ee6b39fd71d8983067e3dfa8390", "lat": 38.913288, "fusion_lon": 0.0, "fusion_lat": 0.0, "type": "electric_scooter", "name": "c2a60ee6b39fd71d8983067e3dfa8390", "is_disabled": 0, "rental_uris": {"ios": "https://dc.lft.to/lastmile_qr_scan", "android": "https://dc.lft.to/lastmile_qr_scan"}, "is_reserved": 0}, {"lon": -77.03181366666666, "bike_id": "dab88e56c65142dce93cacba6e5c76d0", "lat": 38.88692916666667, "fusion_lon": 0.0, "fusion_lat": 0.0, "type": "electric_scooter", "name": "dab88e56c65142dce93cacba6e5c76d0", "is_disabled": 0, "rental_uris": {"ios": "https://dc.lft.to/lastmile_qr_scan", "android": "https://dc.lft.to/lastmile_qr_scan"}, "is_reserved": 0}, {"lon": -77.02902983333334, "bike_id": "659a3ee616ebb85d85b1d44aa8b68a06", "lat": 38.92816416666667, "fusion_lon": 0.0, "fusion_lat": 0.0, "type": "electric_scooter", "name": "659a3ee616ebb85d85b1d44aa8b68a06", "is_disabled": 0, "rental_uris": {"ios": "https://dc.lft.to/lastmile_qr_scan", "android": "https://dc.lft.to/lastmile_qr_scan"}, "is_reserved": 0}, {"lon": -77.0377315, "bike_id": "71d3da86c5db4c0dcc6021e4b9ced353", "lat": 38.929395666666665, "fusion_lon": 0.0, "fusion_lat": 0.0, "type": "electric_scooter", "name": "71d3da86c5db4c0dcc6021e4b9ced353", "is_disabled": 0, "rental_uris": {"ios": "https://dc.lft.to/lastmile_qr_scan", "android": "https://dc.lft.to/lastmile_qr_scan"}, "is_reserved": 0}, {"lon": -77.00548733333333, "bike_id": "a72a0dba5638c386e6d81cb99cde7ade", "lat": 38.874565833333335, "fusion_lon": 0.0, "fusion_lat": 0.0, "type": "electric_scooter", "name": "a72a0dba5638c386e6d81cb99cde7ade", "is_disabled": 0, "rental_uris": {"ios": "https://dc.lft.to/lastmile_qr_scan", "android": "https://dc.lft.to/lastmile_qr_scan"}, "is_reserved": 0}, {"lon": -77.03806983333334, "bike_id": "6c37d3d947066b9c1c67c588f173aebd", "lat": 38.91032966666667, "fusion_lon": 0.0, "fusion_lat": 0.0, "type": "electric_scooter", "name": "6c37d3d947066b9c1c67c588f173aebd", "is_disabled": 0, "rental_uris": {"ios": "https://dc.lft.to/lastmile_qr_scan", "android": "https://dc.lft.to/lastmile_qr_scan"}, "is_reserved": 0}, {"lon": -77.027798, "bike_id": "87261db4ecc34527157f43366aafd8ba", "lat": 38.92768383333333, "fusion_lon": 0.0, "fusion_lat": 0.0, "type": "electric_scooter", "name": "87261db4ecc34527157f43366aafd8ba", "is_disabled": 0, "rental_uris": {"ios": "https://dc.lft.to/lastmile_qr_scan", "android": "https://dc.lft.to/lastmile_qr_scan"}, "is_reserved": 0}, {"lon": -77.024543, "bike_id": "5e00f194ec870af1334b331a12b7940f", "lat": 38.91407933333333, "fusion_lon": 0.0, "fusion_lat": 0.0, "type": "electric_scooter", "name": "5e00f194ec870af1334b331a12b7940f", "is_disabled": 0, "rental_uris": {"ios": "https://dc.lft.to/lastmile_qr_scan", "android": "https://dc.lft.to/lastmile_qr_scan"}, "is_reserved": 0}, {"lon": -77.00045866666666, "bike_id": "991bfc392fd800943f8b3e524738ef49", "lat": 38.9680575, "fusion_lon": 0.0, "fusion_lat": 0.0, "type": "electric_bike", "name": "991bfc392fd800943f8b3e524738ef49", "is_disabled": 0, "rental_uris": {"ios": "https://dc.lft.to/lastmile_qr_scan", "android": "https://dc.lft.to/lastmile_qr_scan"}, "is_reserved": 0}, {"lon": -77.05036616666666, "bike_id": "9d958e5130e6dce869f90bcc19b502d5", "lat": 38.900560166666665, "fusion_lon": 0.0, "fusion_lat": 0.0, "type": "electric_scooter", "name": "9d958e5130e6dce869f90bcc19b502d5", "is_disabled": 0, "rental_uris": {"ios": "https://dc.lft.to/lastmile_qr_scan", "android": "https://dc.lft.to/lastmile_qr_scan"}, "is_reserved": 0}, {"lon": -77.03326266666667, "bike_id": "85674ee5d35fab6216ddc3cc34a13382", "lat": 38.901402833333336, "fusion_lon": 0.0, "fusion_lat": 0.0, "type": "electric_scooter", "name": "85674ee5d35fab6216ddc3cc34a13382", "is_disabled": 0, "rental_uris": {"ios": "https://dc.lft.to/lastmile_qr_scan", "android": "https://dc.lft.to/lastmile_qr_scan"}, "is_reserved": 0}, {"lon": -77.03205183333333, "bike_id": "b6c5b67826d2dd8521a98018c6fbec1c", "lat": 38.944063166666666, "fusion_lon": 0.0, "fusion_lat": 0.0, "type": "electric_scooter", "name": "b6c5b67826d2dd8521a98018c6fbec1c", "is_disabled": 0, "rental_uris": {"ios": "https://dc.lft.to/lastmile_qr_scan", "android": "https://dc.lft.to/lastmile_qr_scan"}, "is_reserved": 0}, {"lon": -77.023448, "bike_id": "2a30af6b10f6997e9234f3d0a3c474b7", "lat": 38.940787, "fusion_lon": 0.0, "fusion_lat": 0.0, "type": "electric_scooter", "name": "2a30af6b10f6997e9234f3d0a3c474b7", "is_disabled": 0, "rental_uris": {"ios": "https://dc.lft.to/lastmile_qr_scan", "android": "https://dc.lft.to/lastmile_qr_scan"}, "is_reserved": 0}, {"lon": -77.06065633333333, "bike_id": "a96a6ce847683277d641287600754bcb", "lat": 38.808545333333335, "fusion_lon": 0.0, "fusion_lat": 0.0, "type": "electric_bike", "name": "a96a6ce847683277d641287600754bcb", "is_disabled": 0, "rental_uris": {"ios": "https://dc.lft.to/lastmile_qr_scan", "android": "https://dc.lft.to/lastmile_qr_scan"}, "is_reserved": 0}, {"lon": -77.0455855, "bike_id": "24e68a58163cca9413483cc95e965265", "lat": 38.8960655, "fusion_lon": 0.0, "fusion_lat": 0.0, "type": "electric_scooter", "name": "24e68a58163cca9413483cc95e965265", "is_disabled": 0, "rental_uris": {"ios": "https://dc.lft.to/lastmile_qr_scan", "android": "https://dc.lft.to/lastmile_qr_scan"}, "is_reserved": 0}, {"lon": -77.034528, "bike_id": "dad0497ee5fb078c65f45848265a844d", "lat": 38.90964266666667, "fusion_lon": 0.0, "fusion_lat": 0.0, "type": "electric_scooter", "name": "dad0497ee5fb078c65f45848265a844d", "is_disabled": 0, "rental_uris": {"ios": "https://dc.lft.to/lastmile_qr_scan", "android": "https://dc.lft.to/lastmile_qr_scan"}, "is_reserved": 0},