{"data": {"bikes": [{"name": "f4146593f2f54d4c860116ced148a1f6", "lon": -76.980744, "lat": 38.901756166666665, "type": "electric_scooter", "fusion_lon": 0.0, "is_reserved": 0, "bike_id": "f4146593f2f54d4c860116ced148a1f6", "fusion_lat": 0.0, "is_disabled": 0, "rental_uris": {"ios": "https://dc.lft.to/lastmile_qr_scan", "android": "https://dc.lft.to/lastmile_qr_scan"}}, {"name": "4bb3c1b71fcb262c5160c3df551baef1", "lon": -77.05300816666667, "lat": 38.927969833333336, "type": "electric_scooter", "fusion_lon": 0.0, "is_reserved": 0, "bike_id": "4bb3c1b71fcb262c5160c3df551baef1", "fusion_lat": 0.0, "is_disabled": 0, "rental_uris": {"ios": "https://dc.lft.to/lastmile_qr_scan", "android": "https://dc.lft.to/lastmile_qr_scan"}}, {"name": "97388d581ea3dfe0210d9eda32ffde06", "lon": -77.05512166666666, "lat": 38.90932466666667, "type": "electric_scooter", "fusion_lon": 0.0, "is_reserved": 0, "bike_id": "97388d581ea3dfe0210d9eda32ffde06", "fusion_lat": 0.0, "is_disabled": 0, "rental_uris": {"ios": "https://dc.lft.to/lastmile_qr_scan", "android": "https://dc.lft.to/lastmile_qr_scan"}}, {"name": "b1bb5a03a18e89bd944e8c8270efe12e", "lon": -77.00973833333333, "lat": 38.9141435, "type": "electric_scooter", "fusion_lon": 0.0, "is_reserved": 0, "bike_id": "b1bb5a03a18e89bd944e8c8270efe12e", "fusion_lat": 0.0, "is_disabled": 0, "rental_uris": {"ios": "https://dc.lft.to/lastmile_qr_scan", "android": "https://dc.lft.to/lastmile_qr_scan"}}, {"name": "1206ad114a26f481ba7c608e5ed92628", "lon": -77.034697, "lat": 38.92260866666667, "type": "electric_scooter", "fusion_lon": 0.0, "is_reserved": 0, "bike_id": "1206ad114a26f481ba7c608e5ed92628", "fusion_lat": 0.0, "is_disabled": 0, "rental_uris": {"ios": "https://dc.lft.to/lastmile_qr_scan", "android": "https://dc.lft.to/lastmile_qr_scan"}}, {"name": "059ae46b2584c86c8d89835f2d8614d5", "lon": -76.93752316666667, "lat": 38.890516, "type": "electric_scooter", "fusion_lon": 0.0, "is_reserved": 0, "bike_id": "059ae46b2584c86c8d89835f2d8614d5", "fusion_lat": 0.0, "is_disabled": 0, "rental_uris": {"ios": "https://dc.lft.to/lastmile_qr_scan", "android": "https://dc.lft.to/lastmile_qr_scan"}}, {"name": "4d709969076e42db18e68eba3dd26a91", "lon": -77.02846383333333, "lat": 38.934201333333334, "type": "electric_scooter", "fusion_lon": 0.0, "is_reserved": 0, "bike_id": "4d709969076e42db18e68eba3dd26a91", "fusion_lat": 0.0, "is_disabled": 0, "rental_uris": {"ios": "https://dc.lft.to/lastmile_qr_scan", "android": "https://dc.lft.to/lastmile_qr_scan"}}, {"name": "908c8f3da691e603d6033f45dcb383e6", "lon": -77.04428816666666, "lat": 38.92134166666666, "type": "electric_scooter", "fusion_lon": 0.0, "is_reserved": 0, "bike_id": "908c8f3da691e603d6033f45dcb383e6", "fusion_lat": 0.0, "is_disabled": 0, "rental_uris": {"ios": "https://dc.lft.to/lastmile_qr_scan", "android": "https://dc.lft.to/lastmile_qr_scan"}}, {"name": "a86535435564c5111369288eb56e2ff2", "lon": -77.055867, "lat": 38.900176, "type": "electric_scooter", "fusion_lon": 0.0, "is_reserved": 0, "bike_id": "a86535435564c5111369288eb56e2ff2", "fusion_lat": 0.0, "is_disabled": 0, "rental_uris": {"ios": "https://dc.lft.to/lastmile_qr_scan", "android": "https://dc.lft.to/lastmile_qr_scan"}}, {"name": "e10061dfda8048a618aea10318444de9", "lon": -77.02729183333334, "lat": 38.915632, "type": "electric_scooter", "fusion_lon": 0.0, "is_reserved": 0, "bike_id": "e10061dfda8048a618aea10318444de9", "fusion_lat": 0.0, "is_disabled": 0, "rental_uris": {"ios": "https://dc.lft.to/lastmile_qr_scan", "android": "https://dc.lft.to/lastmile_qr_scan"}}, {"name": "73a5787234296b44c6af963181804258", "lon": -76.99451066666667, "lat": 38.908273333333334, "type": "electric_scooter", "fusion_lon": 0.0, "is_reserved": 0, "bike_id": "73a5787234296b44c6af963181804258", "fusion_lat": 0.0, "is_disabled": 0, "rental_uris": {"ios": "https://dc.lft.to/lastmile_qr_scan", "android": "https://dc.lft.to/lastmile_qr_scan"}}, {"name": "ab1e97826b13dd417e2cdd177bd193a0", "lon": -77.030278, "lat": 38.93110516666667, "type": "electric_scooter", "fusion_lon": 0.0, "is_reserved": 0, "bike_id": "ab1e97826b13dd417e2cdd177bd193a0", "fusion_lat": 0.0, "is_disabled": 0, "rental_uris": {"ios": "https://dc.lft.to/lastmile_qr_scan", "android": "https://dc.lft.to/lastmile_qr_scan"}}, {"name": "5fc5ece54a48608f05fac986fc46d9f4", "lon": -76.9815485, "lat": 38.92262266666667, "type": "electric_bike", "fusion_lon": 0.0, "is_reserved": 0, "bike_id": "5fc5ece54a48608f05fac986fc46d9f4", "fusion_lat": 0.0, "is_disabled": 0, "rental_uris": {"ios": "https://dc.lft.to/lastmile_qr_scan", "android": "https://dc.lft.to/lastmile_qr_scan"}}, {"name": "a3c65ac4d50086c039d11a9241e08415", "lon": -77.04337033333333, "lat": 38.895249166666666, "type": "electric_scooter", "fusion_lon": 0.0, "is_reserved": 0, "bike_id": "a3c65ac4d50086c039d11a9241e08415", "fusion_lat": 0.0, "is_disabled": 0, "rental_uris": {"ios": "https://dc.lft.to/lastmile_qr_scan", "android": "https://dc.lft.to/lastmile_qr_scan"}}, {"name": "471f94ad2c2fd049118ba62fa4420ad9", "lon": -76.9980565, "lat": 38.908509, "type": "electric_scooter", "fusion_lon": 0.0, "is_reserved": 0, "bike_id": "471f94ad2c2fd049118ba62fa4420ad9", "fusion_lat": 0.0, "is_disabled": 0, "rental_uris": {"ios": "https://dc.lft.to/lastmile_qr_scan", "android": "https://dc.lft.to/lastmile_qr_scan"}}, {"name": "b2c493fd4c511adb22281bbd5d4dc055", "lon": -77.04931666666667, "lat": 39.029326, "type": "electric_bike", "fusion_lon": 0.0, "is_reserved": 0, "bike_id": "b2c493fd4c511adb22281bbd5d4dc055", "fusion_lat": 0.0, "is_disabled": 0, "rental_uris": {"ios": "https://dc.lft.to/lastmile_qr_scan", "android": "https://dc.lft.to/lastmile_qr_scan"}}, {"name": "0b9f31b24b9283a4e7f37811144c76e0", "lon": -77.039958, "lat": 38.9141465, "type": "electric_scooter", "fusion_lon": 0.0, "is_reserved": 0, "bike_id": "0b9f31b24b9283a4e7f37811144c76e0", "fusion_lat": 0.0, "is_disabled": 0, "rental_uris": {"ios": "https://dc.lft.to/lastmile_qr_scan", "android": "https://dc.lft.to/lastmile_qr_scan"}}, {"name": "36067321622aa5e1048b85ba6919c5b8", "lon": -77.0378085, "lat": 38.91689816666667, "type": "electric_scooter", "fusion_lon": 0.0, "is_reserved": 0, "bike_id": "36067321622aa5e1048b85ba6919c5b8", "fusion_lat": 0.0, "is_disabled": 0, "rental_uris": {"ios": "https://dc.lft.to/lastmile_qr_scan", "android": "https://dc.lft.to/lastmile_qr_scan"}}, {"name": "43ba0b2ae4a1a9632316fe2bd8171aab", "lon": -77.02229433333333, "lat": 38.89222516666667, "type": "electric_scooter", "fusion_lon": 0.0, "is_reserved": 0, "bike_id": "43ba0b2ae4a1a9632316fe2bd8171aab", "fusion_lat": 0.0, "is_disabled": 0, "rental_uris": {"ios": "https://dc.lft.to/lastmile_qr_scan", "android": "https://dc.lft.to/lastmile_qr_scan"}}, {"name": "20ad45bf3b6941712ec98ec6603ca9b4", "lon": -77.01789666666667, "lat": 38.90114716666667, "type": "electric_scooter", "fusion_lon": 0.0, "is_reserved": 0, "bike_id": "20ad45bf3b6941712ec98ec6603ca9b4", "fusion_lat": 0.0, "is_disabled": 0, "rental_uris": {"ios": "https://dc.lft.to/lastmile_qr_scan", "android": "https://dc.lft.to/lastmile_qr_scan"}}, {"name": "4dad3e3cfc11289742262f82d23bb070", "lon": -77.01575066666666, "lat": 38.91675016666667, "type": "electric_scooter", "fusion_lon": 0.0, "is_reserved": 0, "bike_id": "4dad3e3cfc11289742262f82d23bb070", "fusion_lat": 0.0, "is_disabled": 0, "rental_uris": {"ios": "https://dc.lft.to/lastmile_qr_scan", "android": "https://dc.lft.to/lastmile_qr_scan"}}, {"name": "5e6d808e71ac3a9177c8a77351506223", "lon": -77.02251833333334, "lat": 38.92739733333333, "type": "electric_scooter", "fusion_lon": 0.0, "is_reserved": 0, "bike_id": "5e6d808e71ac3a9177c8a77351506223", "fusion_lat": 0.0, "is_disabled": 0, "rental_uris": {"ios": "https://dc.lft.to/lastmile_qr_scan", "android": "https://dc.lft.to/lastmile_qr_scan"}}, {"name": "652136d621d647745e63e65a243595ef", "lon": -77.00086333333333, "lat": 38.91636883333334, "type": "electric_scooter", "fusion_lon": 0.0, "is_reserved": 0, "bike_id": "652136d621d647745e63e65a243595ef", "fusion_lat": 0.0, "is_disabled": 0, "rental_uris": {"ios": "https://dc.lft.to/lastmile_qr_scan", "android": "https://dc.lft.to/lastmile_qr_scan"}}, {"name": "9acb68f94aef1ad593290114b2bece23", "lon": -77.0384965, "lat": 38.91214883333333, "type": "electric_scooter", "fusion_lon": 0.0, "is_reserved": 0, "bike_id": "9acb68f94aef1ad593290114b2bece23", "fusion_lat": 0.0, "is_disabled": 0, "rental_uris": {"ios": "https://dc.lft.to/lastmile_qr_scan", "android": "https://dc.lft.to/lastmile_qr_scan"}}, {"name": "ec9675d1f95d70bf58dd74b6e1bfc827", "lon": -77.02599716666667, "lat": 38.8836, "type": "electric_scooter", "fusion_lon": 0.0, "is_reserved": 0, "bike_id": "ec9675d1f95d70bf58dd74b6e1bfc827", "fusion_lat": 0.0, "is_disabled": 0, "rental_uris": {"ios": "https://dc.lft.to/lastmile_qr_scan", "android": "https://dc.lft.to/lastmile_qr_scan"}}, {"name": "965cc6147b917c34ce6bbed4642bab78", "lon": -77.04035416666666, "lat": 38.91291066666667, "type": "electric_scooter", "fusion_lon": 0.0, "is_reserved": 0, "bike_id": "965cc6147b917c34ce6bbed4642bab78", "fusion_lat": 0.0, "is_disabled": 0, "rental_uris": {"ios": "https://dc.lft.to/lastmile_qr_scan", "android": "https://dc.lft.to/lastmile_qr_scan"}}, {"name": "df82b3dbf33f35df16748717905ad323", "lon": -76.996443, "lat": 38.925694166666666, "type": "electric_scooter", "fusion_lon": 0.0, "is_reserved": 0, "bike_id": "df82b3dbf33f35df16748717905ad323", "fusion_lat": 0.0, "is_disabled": 0, "rental_uris": {"ios": "https://dc.lft.to/lastmile_qr_scan", "android": "https://dc.lft.to/lastmile_qr_scan"}}, {"name": "f51fd637ac876e10e59bf0f730edd038", "lon": -77.02535666666667, "lat": 38.931851, "type": "electric_scooter", "fusion_lon": 0.0, "is_reserved": 0, "bike_id": "f51fd637ac876e10e59bf0f730edd038", "fusion_lat": 0.0, "is_disabled": 0, "rental_uris": {"ios": "https://dc.lft.to/lastmile_qr_scan", "android": "https://dc.lft.to/lastmile_qr_scan"}}, {"name": "571056ba9fd4102369ff710094ab6802", "lon": -77.05098283333334, "lat": 38.81333083333333, "type": "electric_bike", "fusion_lon": 0.0, "is_reserved": 0, "bike_id": "571056ba9fd4102369ff710094ab6802", "fusion_lat": 0.0, "is_disabled": 0, "rental_uris": {"ios": "https://dc.lft.to/lastmile_qr_scan", "android": "https://dc.lft.to/lastmile_qr_scan"}}, {"name": "c0845299dcaa41a3f2d085ed98754dc0", "lon": -77.03859366666667, "lat": 38.9078485, "type": "electric_scooter", "fusion_lon": 0.0, "is_reserved": 0, "bike_id": "c0845299dcaa41a3f2d085ed98754dc0", "fusion_lat": 0.0, "is_disabled": 0, "rental_uris": {"ios": "https://dc.lft.to/lastmile_qr_scan", "android": "https://dc.lft.to/lastmile_qr_scan"}}, {"name": "a74b19e395fa1072ca27833aabe4843b", "lon": -77.07354433333333, "lat": 38.930567, "type": "electric_bike", "fusion_lon": 0.0, "is_reserved": 0, "bike_id": "a74b19e395fa1072ca27833aabe4843b", "fusion_lat": 0.0, "is_disabled": 0, "rental_uris": {"ios": "https://dc.lft.to/lastmile_qr_scan", "android": "https://dc.lft.to/lastmile_qr_scan"}}, {"name": "d32631280254802804937bb69f427ad5", "lon": -77.047385, "lat": 38.905294166666664, "type": "electric_scooter", "fusion_lon": 0.0, "is_reserved": 0, "bike_id": "d32631280254802804937bb69f427ad5", "fusion_lat": 0.0, "is_disabled": 0, "rental_uris": {"ios": "https://dc.lft.to/lastmile_qr_scan", "android": "https://dc.lft.to/lastmile_qr_scan"}}, {"name": "300f92344bfc3a471b32e540946954c2", "lon": -77.1160225, "lat": 39.07495083333333, "type": "electric_bike", "fusion_lon": 0.0, "is_reserved": 0, "bike_id": "300f92344bfc3a471b32e540946954c2", "fusion_lat": 0.0, "is_disabled": 0, "rental_uris": {"ios": "https://dc.lft.to/lastmile_qr_scan", "android": "https://dc.lft.to/lastmile_qr_scan"}}, {"name": "7f3d3e4c59f0724c606a9b1b48c64626", "lon": -77.022065, "lat": 38.910171, "type": "electric_scooter", "fusion_lon": 0.0, "is_reserved": 0, "bike_id": "7f3d3e4c59f0724c606a9b1b48c64626", "fusion_lat": 0.0, "is_disabled": 0, "rental_uris": {"ios": "https://dc.lft.to/lastmile_qr_scan", "android": "https://dc.lft.to/lastmile_qr_scan"}}, {"name": "c420538d3032702481cbae8a930aedc4", "lon": -77.02497816666667, "lat": 38.906324166666664, "type": "electric_scooter", "fusion_lon": 0.0, "is_reserved": 0, "bike_id": "c420538d3032702481cbae8a930aedc4", "fusion_lat": 0.0, "is_disabled": 0, "rental_uris": {"ios": "https://dc.lft.to/lastmile_qr_scan", "android": "https://dc.lft.to/lastmile_qr_scan"}}, {"name": "882a28250aa21a6267384f6f60f748bb", "lon": -77.03179716666666, "lat": 38.9135275, "type": "electric_scooter", "fusion_lon": 0.0, "is_reserved": 0, "bike_id": "882a28250aa21a6267384f6f60f748bb", "fusion_lat": 0.0, "is_disabled": 0, "rental_uris": {"ios": "https://dc.lft.to/lastmile_qr_scan", "android": "https://dc.lft.to/lastmile_qr_scan"}}, {"name": "b37257f51729127868c4d57e11ed0ab5", "lon": -76.9978185, "lat": 38.90908533333333, "type": "electric_scooter", "fusion_lon": 0.0, "is_reserved": 0, "bike_id": "b37257f51729127868c4d57e11ed0ab5", "fusion_lat": 0.0, "is_disabled": 0, "rental_uris": {"ios": "https://dc.lft.to/lastmile_qr_scan", "android": "https://dc.lft.to/lastmile_qr_scan"}}, {"name": "8b051e02ae600f46db52b8bc0819b116", "lon": -77.02181066666667, "lat": 38.93478366666667, "type": "electric_scooter", "fusion_lon": 0.0, "is_reserved": 0, "bike_id": "8b051e02ae600f46db52b8bc0819b116", "fusion_lat": 0.0, "is_disabled": 0, "rental_uris": {"ios": "https://dc.lft.to/lastmile_qr_scan", "android": "https://dc.lft.to/lastmile_qr_scan"}}, {"name": "10ec9ed9e6a38ff583b3ce6a50b15c40", "lon": -77.01514333333333, "lat": 38.886328166666665, "type": "electric_scooter", "fusion_lon": 0.0, "is_reserved": 0, "bike_id": "10ec9ed9e6a38ff583b3ce6a50b15c40", "fusion_lat": 0.0, "is_disabled": 0, "rental_uris": {"ios": "https://dc.lft.to/lastmile_qr_scan", "android": "https://dc.lft.to/lastmile_qr_scan"}}, {"name": "c4acc486ad6d6ee0411d9fc00451b090", "lon": -77.01661766666666, "lat": 38.88121966666667, "type": "electric_scooter", "fusion_lon": 0.0, "is_reserved": 0, "bike_id": "c4acc486ad6d6ee0411d9fc00451b090", "fusion_lat": 0.0, "is_disabled": 0, "rental_uris": {"ios": "https://dc.lft.to/lastmile_qr_scan", "android": "https://dc.lft.to/lastmile_qr_scan"}}, {"name": "18270bd94569fba5e464c6bb89f539bf", "lon": -77.02832983333333, "lat": 38.9508565, "type": "electric_scooter", "fusion_lon": 0.0, "is_reserved": 0, "bike_id": "18270bd94569fba5e464c6bb89f539bf", "fusion_lat": 0.0, "is_disabled": 0, "rental_uris": {"ios": "https://dc.lft.to/lastmile_qr_scan", "android": "https://dc.lft.to/lastmile_qr_scan"}}, {"name": "5a8d009082f806ff285e6fe46ccf751a", "lon": -77.01827183333333, "lat": 38.922276833333335, "type": "electric_scooter", "fusion_lon": 0.0, "is_reserved": 0, "bike_id": "5a8d009082f806ff285e6fe46ccf751a", "fusion_lat": 0.0, "is_disabled": 0, "rental_uris": {"ios": "https://dc.lft.to/lastmile_qr_scan", "android": "https://dc.lft.to/lastmile_qr_scan"}}, {"name": "0410129896ccf83b91fbae5a315d510a", "lon": -77.00509316666667, "lat": 38.91192483333333, "type": "electric_scooter", "fusion_lon": 0.0, "is_reserved": 0, "bike_id": "0410129896ccf83b91fbae5a315d510a", "fusion_lat": 0.0, "is_disabled": 0, "rental_uris": {"ios": "https://dc.lft.to/lastmile_qr_scan", "android": "https://dc.lft.to/lastmile_qr_scan"}}, {"name": "4a6b59b771eff7f9b6910e1bbbd06771", "lon": -76.99001633333333, "lat": 38.864224166666666, "type": "electric_scooter", "fusion_lon": 0.0, "is_reserved": 0, "bike_id": "4a6b59b771eff7f9b6910e1bbbd06771", "fusion_lat": 0.0, "is_disabled": 0, "rental_uris": {"ios": "https://dc.lft.to/lastmile_qr_scan", "android": "https://dc.lft.to/lastmile_qr_scan"}}, {"name": "921965a6cec8e25216e1dcd33af8f92f", "lon": -77.20838366666666, "lat": 38.92456283333333, "type": "electric_bike", "fusion_lon": 0.0, "is_reserved": 0, "bike_id": "921965a6cec8e25216e1dcd33af8f92f", "fusion_lat": 0.0, "is_disabled": 0, "rental_uris": {"ios": "https://dc.lft.to/lastmile_qr_scan", "android": "https://dc.lft.to/lastmile_qr_scan"}}, {"name": "95e9389862363dbc8abdd1c1ef927795", "lon": -77.0142525, "lat": 38.928506, "type": "electric_scooter", "fusion_lon": 0.0, "is_reserved": 0, "bike_id": "95e9389862363dbc8abdd1c1ef927795", "fusion_lat": 0.0, "is_disabled": 0, "rental_uris": {"ios": "https://dc.lft.to/lastmile_qr_scan", "android": "https://dc.lft.to/lastmile_qr_scan"}}, {"name": "3f620be4276d68996eec89685ccfaf9a", "lon": -77.0588975, "lat": 38.903130166666664, "type": "electric_scooter", "fusion_lon": 0.0, "is_reserved": 0, "bike_id": "3f620be4276d68996eec89685ccfaf9a", "fusion_lat": 0.0, "is_disabled": 0, "rental_uris": {"ios": "https://dc.lft.to/lastmile_qr_scan", "android": "https://dc.lft.to/lastmile_qr_scan"}}, {"name": "bd386cb176212dc664e67d02b3b47840", "lon": -77.124864, "lat": 38.827836166666664, "type": "electric_bike", "fusion_lon": 0.0, "is_reserved": 0, "bike_id": "bd386cb176212dc664e67d02b3b47840", "fusion_lat": 0.0, "is_disabled": 0, "rental_uris": {"ios": "https://dc.lft.to/lastmile_qr_scan", "android": "https://dc.lft.to/lastmile_qr_scan"}}, {"name": "650f0197a0fc7be960639cd7d8223a98", "lon": -77.02219, "lat": 38.90573783333333, "type": "electric_scooter", "fusion_lon": 0.0, "is_reserved": 0, "bike_id": "650f0197a0fc7be960639cd7d8223a98", "fusion_lat": 0.0, "is_disabled": 0, "rental_uris": {"ios": "https://dc.lft.to/lastmile_qr_scan", "android": "https://dc.lft.to/lastmile_qr_scan"}}, {"name": "27f922a411a71fa22b389906eaf7aaa9", "lon": -77.0373365, "lat": 38.93574016666667, "type": "electric_scooter", "fusion_lon": 0.0, "is_reserved": 0, "bike_id": "27f922a411a71fa22b389906eaf7aaa9", "fusion_lat": 0.0, "is_disabled": 0, "rental_uris": {"ios": "https://dc.lft.to/lastmile_qr_scan", "android": "https://dc.lft.to/lastmile_qr_scan"}}, {"name": "37ef0c6079c440870d783b57dd146e02", "lon": -77.0321945, "lat": 38.8922565, "type": "electric_scooter", "fusion_lon": 0.0, "is_reserved": 0, "bike_id": "37ef0c6079c440870d783b57dd146e02", "fusion_lat": 0.0, "is_disabled": 0, "rental_uris": {"ios": "https://dc.lft.to/lastmile_qr_scan", "android": "https://dc.lft.to/lastmile_qr_scan"}}, {"name": "b560955ae9f43d9fe9358366ab13d263", "lon": -77.02443233333334, "lat": 38.92499383333333, "type": "electric_scooter", "fusion_lon": 0.0, "is_reserved": 0, "bike_id": "b560955ae9f43d9fe9358366ab13d263", "fusion_lat": 0.0, "is_disabled": 0, "rental_uris": {"ios": "https://dc.lft.to/lastmile_qr_scan", "android": "https://dc.lft.to/lastmile_qr_scan"}}, {"name": "aa8017061413a8caf9d13e74da3320e4", "lon": -77.05843333333333, "lat": 38.9105005, "type": "electric_scooter", "fusion_lon": 0.0, "is_reserved": 0, "bike_id": "aa8017061413a8caf9d13e74da3320e4", "fusion_lat": 0.0, "is_disabled": 0, "rental_uris": {"ios": "https://dc.lft.to/lastmile_qr_scan", "android": "https://dc.lft.to/lastmile_qr_scan"}}, {"name": "d78157571d85f7c20938352feadbfaba", "lon": -77.04940816666667, "lat": 38.9052185, "type": "electric_scooter", "fusion_lon": 0.0, "is_reserved": 0, "bike_id": "d78157571d85f7c20938352feadbfaba", "fusion_lat": 0.0, "is_disabled": 0, "rental_uris": {"ios": "https://dc.lft.to/lastmile_qr_scan", "android": "https://dc.lft.to/lastmile_qr_scan"}}, {"name": "e13139638a829a896c3a151ce002040d", "lon": -77.0230135, "lat": 38.920872333333335, "type": "electric_scooter", "fusion_lon": 0.0, "is_reserved": 0, "bike_id": "e13139638a829a896c3a151ce002040d", "fusion_lat": 0.0, "is_disabled": 0, "rental_uris": {"ios": "https://dc.lft.to/lastmile_qr_scan", "android": "https://dc.lft.to/lastmile_qr_scan"}}, {"name": "e5a10e729ce1fb0ca3f7a7aa69db5e6c", "lon": -77.04328666666666, "lat": 38.90557716666667, "type": "electric_scooter", "fusion_lon": 0.0, "is_reserved": 0, "bike_id": "e5a10e729ce1fb0ca3f7a7aa69db5e6c", "fusion_lat": 0.0, "is_disabled": 0, "rental_uris": {"ios": "https://dc.lft.to/lastmile_qr_scan", "android": "https://dc.lft.to/lastmile_qr_scan"}}, {"name": "badf5301495a29704640bcdc2f47b3f6", "lon": -77.0319945, "lat": 38.9157805, "type": "electric_scooter", "fusion_lon": 0.0, "is_reserved": 0, "bike_id": "badf5301495a29704640bcdc2f47b3f6", "fusion_lat": 0.0, "is_disabled": 0, "rental_uris": {"ios": "https://dc.lft.to/lastmile_qr_scan", "android": "https://dc.lft.to/lastmile_qr_scan"}}, {"name": "fcea8a5c865f431b1e836c244feed1dd", "lon": -76.98236466666667, "lat": 38.86469116666667, "type": "electric_scooter", "fusion_lon": 0.0, "is_reserved": 0, "bike_id": "fcea8a5c865f431b1e836c244feed1dd", "fusion_lat": 0.0, "is_disabled": 0, "rental_uris": {"ios": "https://dc.lft.to/lastmile_qr_scan", "android": "https://dc.lft.to/lastmile_qr_scan"}}, {"name": "41ea9a22edeb3d69414743f0d23e46d1", "lon": -77.023228, "lat": 38.87893, "type": "electric_scooter", "fusion_lon": 0.0, "is_reserved": 0, "bike_id": "41ea9a22edeb3d69414743f0d23e46d1", "fusion_lat": 0.0, "is_disabled": 0, "rental_uris": {"ios": "https://dc.lft.to/lastmile_qr_scan", "android": "https://dc.lft.to/lastmile_qr_scan"}}, {"name": "970cabf613365ea8ff95cb91d9a84646", "lon": -77.0219785, "lat": 38.905858333333335, "type": "electric_scooter", "fusion_lon": 0.0, "is_reserved": 0, "bike_id": "970cabf613365ea8ff95cb91d9a84646", "fusion_lat": 0.0, "is_disabled": 0, "rental_uris": {"ios": "https://dc.lft.to/lastmile_qr_scan", "android": "https://dc.lft.to/lastmile_qr_scan"}}, {"name": "4edacf83a305136ea7230745b2cb5eb9", "lon": -77.02166433333333, "lat": 38.913014833333335, "type": "electric_scooter", "fusion_lon": 0.0, "is_reserved": 0, "bike_id": "4edacf83a305136ea7230745b2cb5eb9", "fusion_lat": 0.0, "is_disabled": 0, "rental_uris": {"ios": "https://dc.lft.to/lastmile_qr_scan", "android": "https://dc.lft.to/lastmile_qr_scan"}}, {"name": "9842bd9f41041007bb6ec328c220ac21", "lon": -77.03289933333333, "lat": 38.928739666666665, "type": "electric_scooter", "fusion_lon": 0.0, "is_reserved": 0, "bike_id": "9842bd9f41041007bb6ec328c220ac21", "fusion_lat": 0.0, "is_disabled": 0, "rental_uris": {"ios": "https://dc.lft.to/lastmile_qr_scan", "android": "https://dc.lft.to/lastmile_qr_scan"}}, {"name": "335a85eb3a3584c3e626fd30d342c577", "lon": -77.06116016666667, "lat": 38.939926166666666, "type": "electric_scooter", "fusion_lon": 0.0, "is_reserved": 0, "bike_id": "335a85eb3a3584c3e626fd30d342c577", "fusion_lat": 0.0, "is_disabled": 0, "rental_uris": {"ios": "https://dc.lft.to/lastmile_qr_scan", "android": "https://dc.lft.to/lastmile_qr_scan"}}, {"name": "da1a16e53128c6f48fb82c9b15b9fae8", "lon": -77.02534866666667, "lat": 38.9426075, "type": "electric_scooter", "fusion_lon": 0.0, "is_reserved": 0, "bike_id": "da1a16e53128c6f48fb82c9b15b9fae8", "fusion_lat": 0.0, "is_disabled": 0, "rental_uris": {"ios": "https://dc.lft.to/lastmile_qr_scan", "android": "https://dc.lft.to/lastmile_qr_scan"}}, {"name": "8043a351269df2b04bad8cefb3da33e5", "lon": -77.0259355, "lat": 38.92097566666666, "type": "electric_scooter", "fusion_lon": 0.0, "is_reserved": 0, "bike_id": "8043a351269df2b04bad8cefb3da33e5", "fusion_lat": 0.0, "is_disabled": 0, "rental_uris": {"ios": "https://dc.lft.to/lastmile_qr_scan", "android": "https://dc.lft.to/lastmile_qr_scan"}}, {"name": "2610dfe0f05e126d5a89b34193eb78d6", "lon": -77.0327495, "lat": 38.927504, "type": "electric_scooter", "fusion_lon": 0.0, "is_reserved": 0, "bike_id": "2610dfe0f05e126d5a89b34193eb78d6", "fusion_lat": 0.0, "is_disabled": 0, "rental_uris": {"ios": "https://dc.lft.to/lastmile_qr_scan", "android": "https://dc.lft.to/lastmile_qr_scan"}}, {"name": "634f94f39ef7d88cc15015d65f1674a3", "lon": -77.01525316666667, "lat": 38.8865785, "type": "electric_scooter", "fusion_lon": 0.0, "is_reserved": 0, "bike_id": "634f94f39ef7d88cc15015d65f1674a3", "fusion_lat": 0.0, "is_disabled": 0, "rental_uris": {"ios": "https://dc.lft.to/lastmile_qr_scan", "android": "https://dc.lft.to/lastmile_qr_scan"}}, {"name": "4e13ac0c75d14fcd28ee768c19c80502", "lon": -76.98654083333334, "lat": 38.90012183333333, "type": "electric_scooter", "fusion_lon": 0.0, "is_reserved": 0, "bike_id": "4e13ac0c75d14fcd28ee768c19c80502", "fusion_lat": 0.0, "is_disabled": 0, "rental_uris": {"ios": "https://dc.lft.to/lastmile_qr_scan", "android": "https://dc.lft.to/lastmile_qr_scan"}}, {"name": "618df9d961f259b671ec36b9f01ffdfc", "lon": -77.04392966666667, "lat": 38.91421183333333, "type": "electric_scooter", "fusion_lon": 0.0, "is_reserved": 0, "bike_id": "618df9d961f259b671ec36b9f01ffdfc", "fusion_lat": 0.0, "is_disabled": 0, "rental_uris": {"ios": "https://dc.lft.to/lastmile_qr_scan", "android": "https://dc.lft.to/lastmile_qr_scan"}}, {"name": "a0de2565131b6f902b11e319242c7781", "lon": -76.98362366666667, "lat": 38.915493, "type": "electric_scooter", "fusion_lon": 0.0, "is_reserved": 0, "bike_id": "a0de2565131b6f902b11e319242c7781", "fusion_lat": 0.0, "is_disabled": 0, "rental_uris": {"ios": "https://dc.lft.to/lastmile_qr_scan", "android": "https://dc.lft.to/lastmile_qr_scan"}}, {"name": "a466348e559e14528c9604975941bb50", "lon": -77.03054733333333, "lat": 38.92673583333333, "type": "electric_scooter", "fusion_lon": 0.0, "is_reserved": 0, "bike_id": "a466348e559e14528c9604975941bb50", "fusion_lat": 0.0, "is_disabled": 0, "rental_uris": {"ios": "https://dc.lft.to/lastmile_qr_scan", "android": "https://dc.lft.to/lastmile_qr_scan"}}, {"name": "8f077fdca79f0d9b1690626f61dbfb27", "lon": -77.05241116666667, "lat": 38.923577333333334, "type": "electric_scooter", "fusion_lon": 0.0, "is_reserved": 0, "bike_id": "8f077fdca79f0d9b1690626f61dbfb27", "fusion_lat": 0.0, "is_disabled": 0, "rental_uris": {"ios": "https://dc.lft.to/lastmile_qr_scan", "android": "https://dc.lft.to/lastmile_qr_scan"}}, {"name": "bc21f147b8d8bfaf038bf674055b76a0", "lon": -77.027978, "lat": 38.954047, "type": "electric_scooter", "fusion_lon": 0.0, "is_reserved": 0, "bike_id": "bc21f147b8d8bfaf038bf674055b76a0", "fusion_lat": 0.0, "is_disabled": 0, "rental_uris": {"ios": "https://dc.lft.to/lastmile_qr_scan", "android": "https://dc.lft.to/lastmile_qr_scan"}}, {"name": "051cce48b6d8b216088dfbd0292c2b83", "lon": -77.03970816666667, "lat": 38.893515, "type": "electric_scooter", "fusion_lon": 0.0, "is_reserved": 0, "bike_id": "051cce48b6d8b216088dfbd0292c2b83", "fusion_lat": 0.0, "is_disabled": 0, "rental_uris": {"ios": "https://dc.lft.to/lastmile_qr_scan", "android": "https://dc.lft.to/lastmile_qr_scan"}}, {"name": "603273cc2cd48a17351374513840b7e6", "lon": -77.021105, "lat": 38.9217455, "type": "electric_scooter", "fusion_lon": 0.0, "is_reserved": 0, "bike_id": "603273cc2cd48a17351374513840b7e6", "fusion_lat": 0.0, "is_disabled": 0, "rental_uris": {"ios": "https://dc.lft.to/lastmile_qr_scan", "android": "https://dc.lft.to/lastmile_qr_scan"}}, {"name": "535bb3ea96ac75ff1c4a518545164dd9", "lon": -77.05127483333334, "lat": 38.923466833333336, "type": "electric_scooter", "fusion_lon": 0.0, "is_reserved": 0, "bike_id": "535bb3ea96ac75ff1c4a518545164dd9", "fusion_lat": 0.0, "is_disabled": 0, "rental_uris": {"ios": "https://dc.lft.to/lastmile_qr_scan", "android": "https://dc.lft.to/lastmile_qr_scan"}}, {"name": "139b29404e1b50b0db7b2cb5675ccb81", "lon": -77.00345666666666, "lat": 38.88706, "type": "electric_scooter", "fusion_lon": 0.0, "is_reserved": 0, "bike_id": "139b29404e1b50b0db7b2cb5675ccb81", "fusion_lat": 0.0, "is_disabled": 0, "rental_uris": {"ios": "https://dc.lft.to/lastmile_qr_scan", "android": "https://dc.lft.to/lastmile_qr_scan"}}, {"name": "c8c5e318b822df3fca1fb65cba55629f", "lon": -76.97792916666667, "lat": 38.88865883333333, "type": "electric_bike", "fusion_lon": 0.0, "is_reserved": 0, "bike_id": "c8c5e318b822df3fca1fb65cba55629f", "fusion_lat": 0.0, "is_disabled": 0, "rental_uris": {"ios": "https://dc.lft.to/lastmile_qr_scan", "android": "https://dc.lft.to/lastmile_qr_scan"}}, {"name": "875f922c7049a74876c1b19af5ab8a01", "lon": -76.98977816666667, "lat": 38.865156666666664, "type": "electric_scooter", "fusion_lon": 0.0, "is_reserved": 0, "bike_id": "875f922c7049a74876c1b19af5ab8a01", "fusion_lat": 0.0, "is_disabled": 0, "rental_uris": {"ios": "https://dc.lft.to/lastmile_qr_scan", "android": "https://dc.lft.to/lastmile_qr_scan"}}, {"name": "67acc17c1ec3418894f16cc204891f01", "lon": -77.023841, "lat": 38.92906883333333, "type": "electric_bike", "fusion_lon": 0.0, "is_reserved": 0, "bike_id": "67acc17c1ec3418894f16cc204891f01", "fusion_lat": 0.0, "is_disabled": 0, "rental_uris": {"ios": "https://dc.lft.to/lastmile_qr_scan", "android": "https://dc.lft.to/lastmile_qr_scan"}}, {"name": "d41fac9314a121a9aec1bc76661639a5", "lon": -77.02363866666667, "lat": 38.9251575, "type": "electric_scooter", "fusion_lon": 0.0, "is_reserved": 0, "bike_id": "d41fac9314a121a9aec1bc76661639a5", "fusion_lat": 0.0, "is_disabled": 0, "rental_uris": {"ios": "https://dc.lft.to/lastmile_qr_scan", "android": "https://dc.lft.to/lastmile_qr_scan"}}, {"name": "1eaa4389124c2f76fe7231bc2dfc89a2", "lon": -77.0359675, "lat": 38.912591666666664, "type": "electric_scooter", "fusion_lon": 0.0, "is_reserved": 0, "bike_id": "1eaa4389124c2f76fe7231bc2dfc89a2", "fusion_lat": 0.0, "is_disabled": 0, "rental_uris": {"ios": "https://dc.lft.to/lastmile_qr_scan", "android": "https://dc.lft.to/lastmile_qr_scan"}}, {"name": "7170fc1a5e7f1f9541b689f1be8c2dfe", "lon": -76.951831, "lat": 38.90738783333333, "type": "electric_scooter", "fusion_lon": 0.0, "is_reserved": 0, "bike_id": "7170fc1a5e7f1f9541b689f1be8c2dfe", "fusion_lat": 0.0, "is_disabled": 0, "rental_uris": {"ios": "https://dc.lft.to/lastmile_qr_scan", "android": "https://dc.lft.to/lastmile_qr_scan"}}, {"name": "4963896a7c8ddab189e6dacbb07b203d", "lon": -77.0014145, "lat": 38.905206666666665, "type": "electric_scooter", "fusion_lon": 0.0, "is_reserved": 0, "bike_id": "4963896a7c8ddab189e6dacbb07b203d", "fusion_lat": 0.0, "is_disabled": 0, "rental_uris": {"ios": "https://dc.lft.to/lastmile_qr_scan", "android": "https://dc.lft.to/lastmile_qr_scan"}}, {"name": "05439b0c7a185ca58c78fe54533f741a", "lon": -77.08186683333334, "lat": 38.85567366666667, "type": "electric_bike", "fusion_lon": 0.0, "is_reserved": 0, "bike_id": "05439b0c7a185ca58c78fe54533f741a", "fusion_lat": 0.0, "is_disabled": 0, "rental_uris": {"ios": "https://dc.lft.to/lastmile_qr_scan", "android": "https://dc.lft.to/lastmile_qr_scan"}}, {"name": "e9a84d2be396a41d5092f7cfe3971612", "lon": -77.044009, "lat": 38.9206805, "type": "electric_scooter", "fusion_lon": 0.0, "is_reserved": 0, "bike_id": "e9a84d2be396a41d5092f7cfe3971612", "fusion_lat": 0.0, "is_disabled": 0, "rental_uris": {"ios": "https://dc.lft.to/lastmile_qr_scan", "android": "https://dc.lft.to/lastmile_qr_scan"}}, {"name": "08e59243dc3f2763aa82ed22cba53c30", "lon": -77.05143066666666, "lat": 38.905307, "type": "electric_scooter", "fusion_lon": 0.0, "is_reserved": 0, "bike_id": "08e59243dc3f2763aa82ed22cba53c30", "fusion_lat": 0.0, "is_disabled": 0, "rental_uris": {"ios": "https://dc.lft.to/lastmile_qr_scan", "android": "https://dc.lft.to/lastmile_qr_scan"}}, {"name": "a89c3fb0132d74fb37432ec1c2872ff1", "lon": -77.004917, "lat": 38.90554483333333, "type": "electric_scooter", "fusion_lon": 0.0, "is_reserved": 0, "bike_id": "a89c3fb0132d74fb37432ec1c2872ff1", "fusion_lat": 0.0, "is_disabled": 0, "rental_uris": {"ios": "https://dc.lft.to/lastmile_qr_scan", "android": "https://dc.lft.to/lastmile_qr_scan"}}, {"name": "512f471669aafa466a9de1088dbbf97e", "lon": -77.023032, "lat": 38.917923333333334, "type": "electric_scooter", "fusion_lon": 0.0, "is_reserved": 0, "bike_id": "512f471669aafa466a9de1088dbbf97e", "fusion_lat": 0.0, "is_disabled": 0, "rental_uris": {"ios": "https://dc.lft.to/lastmile_qr_scan", "android": "https://dc.lft.to/lastmile_qr_scan"}}, {"name": "9fb2da6552668bb0173eb952f903a5af", "lon": -76.99610833333334, "lat": 38.88578716666667, "type": "electric_scooter", "fusion_lon": 0.0, "is_reserved": 0, "bike_id": "9fb2da6552668bb0173eb952f903a5af", "fusion_lat": 0.0, "is_disabled": 0, "rental_uris": {"ios": "https://dc.lft.to/lastmile_qr_scan", "android": "https://dc.lft.to/lastmile_qr_scan"}}, {"name": "5abf66f3d5de56a248c2c50675e8aef9", "lon": -76.98836316666667, "lat": 38.900423, "type": "electric_scooter", "fusion_lon": 0.0, "is_reserved": 0, "bike_id": "5abf66f3d5de56a248c2c50675e8aef9", "fusion_lat": 0.0, "is_disabled": 0, "rental_uris": {"ios": "https://dc.lft.to/lastmile_qr_scan", "android": "https://dc.lft.to/lastmile_qr_scan"}}, {"name": "f57e058d47d4cff301f2f5d1c4e1cc54", "lon": -77.04756933333333, "lat": 38.9166905, "type": "electric_scooter", "fusion_lon": 0.0, "is_reserved": 0, "bike_id": "f57e058d47d4cff301f2f5d1c4e1cc54", "fusion_lat": 0.0, "is_disabled": 0, "rental_uris": {"ios": "https://dc.lft.to/lastmile_qr_scan", "android": "https://dc.lft.to/lastmile_qr_scan"}}, {"name": "382fe47de01df50e8579270f88af787a", "lon": -77.01818616666667, "lat": 38.92370233333333, "type": "electric_scooter", "fusion_lon": 0.0, "is_reserved": 0, "bike_id": "382fe47de01df50e8579270f88af787a", "fusion_lat": 0.0, "is_disabled": 0, "rental_uris": {"ios": "https://dc.lft.to/lastmile_qr_scan", "android": "https://dc.lft.to/lastmile_qr_scan"}}, {"name": "fb74936b7aca0449f6a26b49c87d6026", "lon": -77.001195, "lat": 38.907795, "type": "electric_scooter", "fusion_lon": 0.0, "is_reserved": 0, "bike_id": "fb74936b7aca0449f6a26b49c87d6026", "fusion_lat": 0.0, "is_disabled": 0, "rental_uris": {"ios": "https://dc.lft.to/lastmile_qr_scan", "android": "https://dc.lft.to/lastmile_qr_scan"}}, {"name": "57a79847981a9e3b8997d122792c361d", "lon": -77.04566416666667, "lat": 38.913384, "type": "electric_scooter", "fusion_lon": 0.0, "is_reserved": 0, "bike_id": "57a79847981a9e3b8997d122792c361d", "fusion_lat": 0.0, "is_disabled": 0, "rental_uris": {"ios": "https://dc.lft.to/lastmile_qr_scan", "android": "https://dc.lft.to/lastmile_qr_scan"}}, {"name": "ab33ac39064ec9e65f0a93ce6569b209", "lon": -77.015352, "lat": 38.887404333333336, "type": "electric_scooter", "fusion_lon": 0.0, "is_reserved": 0, "bike_id": "ab33ac39064ec9e65f0a93ce6569b209", "fusion_lat": 0.0, "is_disabled": 0, "rental_uris": {"ios": "https://dc.lft.to/lastmile_qr_scan", "android": "https://dc.lft.to/lastmile_qr_scan"}}, {"name": "0280b567af7ee66ae355321d6c575cbc", "lon": -77.00756616666666, "lat": 38.9102835, "type": "electric_scooter", "fusion_lon": 0.0, "is_reserved": 0, "bike_id": "0280b567af7ee66ae355321d6c575cbc", "fusion_lat": 0.0, "is_disabled": 0, "rental_uris": {"ios": "https://dc.lft.to/lastmile_qr_scan", "android": "https://dc.lft.to/lastmile_qr_scan"}}, {"name": "f62811ab84d8235d75af9c9b8749ae26", "lon": -77.00735166666666, "lat": 38.89842016666667, "type": "electric_scooter", "fusion_lon": 0.0, "is_reserved": 0, "bike_id": "f62811ab84d8235d75af9c9b8749ae26", "fusion_lat": 0.0, "is_disabled": 0, "rental_uris": {"ios": "https://dc.lft.to/lastmile_qr_scan", "android": "https://dc.lft.to/lastmile_qr_scan"}}, {"name": "ba281b26380ba6f6144d10f9b6a0e7dd", "lon": -77.03625916666667, "lat": 38.928594833333335, "type": "electric_scooter", "fusion_lon": 0.0, "is_reserved": 0, "bike_id": "ba281b26380ba6f6144d10f9b6a0e7dd", "fusion_lat": 0.0, "is_disabled": 0, "rental_uris": {"ios": "https://dc.lft.to/lastmile_qr_scan", "android": "https://dc.lft.to/lastmile_qr_scan"}}, {"name": "ace65a09e1946c347b2031773879344c", "lon": -77.05861033333333, "lat": 38.93608533333333, "type": "electric_scooter", "fusion_lon": 0.0, "is_reserved": 0, "bike_id": "ace65a09e1946c347b2031773879344c", "fusion_lat": 0.0, "is_disabled": 0, "rental_uris": {"ios": "https://dc.lft.to/lastmile_qr_scan", "android": "https://dc.lft.to/lastmile_qr_scan"}}, {"name": "abd851a19dcd6f80f93465cebac76abc", "lon": -77.04351216666667, "lat": 38.9135565, "type": "electric_scooter", "fusion_lon": 0.0, "is_reserved": 0, "bike_id": "abd851a19dcd6f80f93465cebac76abc", "fusion_lat": 0.0, "is_disabled": 0, "rental_uris": {"ios": "https://dc.lft.to/lastmile_qr_scan", "android": "https://dc.lft.to/lastmile_qr_scan"}}, {"name": "a3a64eaf48fffdcbf30782d0d7a6830b", "lon": -77.02406133333334, "lat": 38.91745016666667, "type": "electric_scooter", "fusion_lon": 0.0, "is_reserved": 0, "bike_id": "a3a64eaf48fffdcbf30782d0d7a6830b", "fusion_lat": 0.0, "is_disabled": 0, "rental_uris": {"ios": "https://dc.lft.to/lastmile_qr_scan", "android": "https://dc.lft.to/lastmile_qr_scan"}}, {"name": "b28c9342a4063a23c37aa1387828c220", "lon": -77.03513466666666, "lat": 38.96204766666666, "type": "electric_bike", "fusion_lon": 0.0, "is_reserved": 0, "bike_id": "b28c9342a4063a23c37aa1387828c220", "fusion_lat": 0.0, "is_disabled": 0, "rental_uris": {"ios": "https://dc.lft.to/lastmile_qr_scan", "android": "https://dc.lft.to/lastmile_qr_scan"}}, {"name": "a2f378ca9d38f0596a3c9dc7dde11f69", "lon": -77.045509, "lat": 38.934082, "type": "electric_scooter", "fusion_lon": 0.0, "is_reserved": 0, "bike_id": "a2f378ca9d38f0596a3c9dc7dde11f69", "fusion_lat": 0.0, "is_disabled": 0, "rental_uris": {"ios": "https://dc.lft.to/lastmile_qr_scan", "android": "https://dc.lft.to/lastmile_qr_scan"}}, {"name": "28a565329ba066bfff05a2bf2373af57", "lon": -77.01185383333333, "lat": 38.90007283333333, "type": "electric_scooter", "fusion_lon": 0.0, "is_reserved": 0, "bike_id": "28a565329ba066bfff05a2bf2373af57", "fusion_lat": 0.0, "is_disabled": 0, "rental_uris": {"ios": "https://dc.lft.to/lastmile_qr_scan", "android": "https://dc.lft.to/lastmile_qr_scan"}}, {"name": "53614a0977650156412b46272f22e2e8", "lon": -77.0414235, "lat": 38.922932833333334, "type": "electric_scooter", "fusion_lon": 0.0, "is_reserved": 0, "bike_id": "53614a0977650156412b46272f22e2e8", "fusion_lat": 0.0, "is_disabled": 0, "rental_uris": {"ios": "https://dc.lft.to/lastmile_qr_scan", "android": "https://dc.lft.to/lastmile_qr_scan"}}, {"name": "fb70e03525871c9ac934a667214755aa", "lon": -77.03512966666666, "lat": 38.900712, "type": "electric_scooter", "fusion_lon": 0.0, "is_reserved": 0, "bike_id": "fb70e03525871c9ac934a667214755aa", "fusion_lat": 0.0, "is_disabled": 0, "rental_uris": {"ios": "https://dc.lft.to/lastmile_qr_scan", "android": "https://dc.lft.to/lastmile_qr_scan"}}, {"name": "31cab099a431618748f42bd05057a82a", "lon": -77.04174466666667, "lat": 38.919894166666666, "type": "electric_scooter", "fusion_lon": 0.0, "is_reserved": 0, "bike_id": "31cab099a431618748f42bd05057a82a", "fusion_lat": 0.0, "is_disabled": 0, "rental_uris": {"ios": "https://dc.lft.to/lastmile_qr_scan", "android": "https://dc.lft.to/lastmile_qr_scan"}}, {"name": "ded7587e12c984c37b0fab47b7341ed7", "lon": -77.046568, "lat": 38.91365416666667, "type": "electric_scooter", "fusion_lon": 0.0, "is_reserved": 0, "bike_id": "ded7587e12c984c37b0fab47b7341ed7", "fusion_lat": 0.0, "is_disabled": 0, "rental_uris": {"ios": "https://dc.lft.to/lastmile_qr_scan", "android": "https://dc.lft.to/lastmile_qr_scan"}}, {"name": "a31124c3ad9e7d34da3ed638f69ee9a4", "lon": -77.0493245, "lat": 38.910003833333334, "type": "electric_scooter", "fusion_lon": 0.0, "is_reserved": 0, "bike_id": "a31124c3ad9e7d34da3ed638f69ee9a4", "fusion_lat": 0.0, "is_disabled": 0, "rental_uris": {"ios": "https://dc.lft.to/lastmile_qr_scan", "android": "https://dc.lft.to/lastmile_qr_scan"}}, {"name": "7fa74e7bdc1d1c1eac73d31bfce55428", "lon": -77.0196845, "lat": 38.95651866666667, "type": "electric_scooter", "fusion_lon": 0.0, "is_reserved": 0, "bike_id": "7fa74e7bdc1d1c1eac73d31bfce55428", "fusion_lat": 0.0, "is_disabled": 0, "rental_uris": {"ios": "https://dc.lft.to/lastmile_qr_scan", "android": "https://dc.lft.to/lastmile_qr_scan"}}, {"name": "83f97a3e9df6793bb1fc0785ca4744db", "lon": -77.01301783333334, "lat": 38.89487283333333, "type": "electric_scooter", "fusion_lon": 0.0, "is_reserved": 0, "bike_id": "83f97a3e9df6793bb1fc0785ca4744db", "fusion_lat": 0.0, "is_disabled": 0, "rental_uris": {"ios": "https://dc.lft.to/lastmile_qr_scan", "android": "https://dc.lft.to/lastmile_qr_scan"}}, {"name": "fe792c355e10da309bc1709461002272", "lon": -77.02905316666667, "lat": 38.917011333333335, "type": "electric_scooter", "fusion_lon": 0.0, "is_reserved": 0, "bike_id": "fe792c355e10da309bc1709461002272", "fusion_lat": 0.0, "is_disabled": 0, "rental_uris": {"ios": "https://dc.lft.to/lastmile_qr_scan", "android": "https://dc.lft.to/lastmile_qr_scan"}}, {"name": "4827619686b9dc9c3ad85066dce4d92d", "lon": -77.0300415, "lat": 38.897362666666666, "type": "electric_scooter", "fusion_lon": 0.0, "is_reserved": 0, "bike_id": "4827619686b9dc9c3ad85066dce4d92d", "fusion_lat": 0.0, "is_disabled": 0, "rental_uris": {"ios": "https://dc.lft.to/lastmile_qr_scan", "android": "https://dc.lft.to/lastmile_qr_scan"}}, {"name": "3ea7139875f592d67260ca8942f34a65", "lon": -77.04073166666667, "lat": 38.92545483333333, "type": "electric_scooter", "fusion_lon": 0.0, "is_reserved": 0, "bike_id": "3ea7139875f592d67260ca8942f34a65", "fusion_lat": 0.0, "is_disabled": 0, "rental_uris": {"ios": "https://dc.lft.to/lastmile_qr_scan", "android": "https://dc.lft.to/lastmile_qr_scan"}}, {"name": "32992a8f12d032efce929449d6bd7c7c", "lon": -77.04414616666666, "lat": 38.921326666666666, "type": "electric_scooter", "fusion_lon": 0.0, "is_reserved": 0, "bike_id": "32992a8f12d032efce929449d6bd7c7c", "fusion_lat": 0.0, "is_disabled": 0, "rental_uris": {"ios": "https://dc.lft.to/lastmile_qr_scan", "android": "https://dc.lft.to/lastmile_qr_scan"}}, {"name": "d7cf1b1a458139d79d6e72b3d1de5331", "lon": -77.02829716666666, "lat": 38.965021666666665, "type": "electric_bike", "fusion_lon": 0.0, "is_reserved": 0, "bike_id": "d7cf1b1a458139d79d6e72b3d1de5331", "fusion_lat": 0.0, "is_disabled": 0, "rental_uris": {"ios": "https://dc.lft.to/lastmile_qr_scan", "android": "https://dc.lft.to/lastmile_qr_scan"}}, {"name": "d3cfadd0eaad257603db17fa22fa654b", "lon": -77.048763, "lat": 38.892746333333335, "type": "electric_scooter", "fusion_lon": 0.0, "is_reserved": 0, "bike_id": "d3cfadd0eaad257603db17fa22fa654b", "fusion_lat": 0.0, "is_disabled": 0, "rental_uris": {"ios": "https://dc.lft.to/lastmile_qr_scan", "android": "https://dc.lft.to/lastmile_qr_scan"}}, {"name": "5a3f384a7837c92abe5238072ef03791", "lon": -77.11568633333333, "lat": 38.993300166666664, "type": "electric_bike", "fusion_lon": 0.0, "is_reserved": 0, "bike_id": "5a3f384a7837c92abe5238072ef03791", "fusion_lat": 0.0, "is_disabled": 0, "rental_uris": {"ios": "https://dc.lft.to/lastmile_qr_scan", "android": "https://dc.lft.to/lastmile_qr_scan"}}, {"name": "ca8e85d42b9827ea0bff262d03bfebb9", "lon": -77.046165, "lat": 38.92330366666667, "type": "electric_scooter", "fusion_lon": 0.0, "is_reserved": 0, "bike_id": "ca8e85d42b9827ea0bff262d03bfebb9", "fusion_lat": 0.0, "is_disabled": 0, "rental_uris": {"ios": "https://dc.lft.to/lastmile_qr_scan", "android": "https://dc.lft.to/lastmile_qr_scan"}}, {"name": "c11c9733d74ee4ffa92992ff00b03f64", "lon": -76.98880666666666, "lat": 38.866541833333336, "type": "electric_scooter", "fusion_lon": 0.0, "is_reserved": 0, "bike_id": "c11c9733d74ee4ffa92992ff00b03f64", "fusion_lat": 0.0, "is_disabled": 0, "rental_uris": {"ios": "https://dc.lft.to/lastmile_qr_scan", "android": "https://dc.lft.to/lastmile_qr_scan"}}, {"name": "bb32e3fbf38f97faf2c70c55f611389d", "lon": -77.04334933333334, "lat": 38.895229, "type": "electric_scooter", "fusion_lon": 0.0, "is_reserved": 0, "bike_id": "bb32e3fbf38f97faf2c70c55f611389d", "fusion_lat": 0.0, "is_disabled": 0, "rental_uris": {"ios": "https://dc.lft.to/lastmile_qr_scan", "android": "https://dc.lft.to/lastmile_qr_scan"}}, {"name": "569c165cf27947e3fae44d9d24c70b06", "lon": -76.98539283333334, "lat": 38.909581833333334, "type": "electric_scooter", "fusion_lon": 0.0, "is_reserved": 0, "bike_id": "569c165cf27947e3fae44d9d24c70b06", "fusion_lat": 0.0, "is_disabled": 0, "rental_uris": {"ios": "https://dc.lft.to/lastmile_qr_scan", "android": "https://dc.lft.to/lastmile_qr_scan"}}, {"name": "d359e7c9abe22995ea73c3cf6af96563", "lon": -76.95019566666667, "lat": 38.893896166666664, "type": "electric_scooter", "fusion_lon": 0.0, "is_reserved": 0, "bike_id": "d359e7c9abe22995ea73c3cf6af96563", "fusion_lat": 0.0, "is_disabled": 0, "rental_uris": {"ios": "https://dc.lft.to/lastmile_qr_scan", "android": "https://dc.lft.to/lastmile_qr_scan"}}, {"name": "708b7f779cf74c091db78c5b80d89f59", "lon": -77.033493, "lat": 38.88626333333333, "type": "electric_scooter", "fusion_lon": 0.0, "is_reserved": 0, "bike_id": "708b7f779cf74c091db78c5b80d89f59", "fusion_lat": 0.0, "is_disabled": 0, "rental_uris": {"ios": "https://dc.lft.to/lastmile_qr_scan", "android": "https://dc.lft.to/lastmile_qr_scan"}}, {"name": "975bb9dfad77b0271237e681952efcf5", "lon": -77.024303, "lat": 38.95627016666667, "type": "electric_scooter", "fusion_lon": 0.0, "is_reserved": 0, "bike_id": "975bb9dfad77b0271237e681952efcf5", "fusion_lat": 0.0, "is_disabled": 0, "rental_uris": {"ios": "https://dc.lft.to/lastmile_qr_scan", "android": "https://dc.lft.to/lastmile_qr_scan"}}, {"name": "fa3589141d969f3a824810ce79961895", "lon": -77.02501566666666, "lat": 38.919737833333336, "type": "electric_scooter", "fusion_lon": 0.0, "is_reserved": 0, "bike_id": "fa3589141d969f3a824810ce79961895", "fusion_lat": 0.0, "is_disabled": 0, "rental_uris": {"ios": "https://dc.lft.to/lastmile_qr_scan", "android": "https://dc.lft.to/lastmile_qr_scan"}}, {"name": "62b80b283ba8e5c5a4cf92898b0b47e0", "lon": -77.02734016666666, "lat": 38.92775316666667, "type": "electric_scooter", "fusion_lon": 0.0, "is_reserved": 0, "bike_id": "62b80b283ba8e5c5a4cf92898b0b47e0", "fusion_lat": 0.0, "is_disabled": 0, "rental_uris": {"ios": "https://dc.lft.to/lastmile_qr_scan", "android": "https://dc.lft.to/lastmile_qr_scan"}}, {"name": "7be0d197c75bf441b17d29d29d142ab5", "lon": -76.9646845, "lat": 38.93448816666667, "type": "electric_scooter", "fusion_lon": 0.0, "is_reserved": 0, "bike_id": "7be0d197c75bf441b17d29d29d142ab5", "fusion_lat": 0.0, "is_disabled": 0, "rental_uris": {"ios": "https://dc.lft.to/lastmile_qr_scan", "android": "https://dc.lft.to/lastmile_qr_scan"}}, {"name": "a8b3382c5fbfa72c407baedcebc37325", "lon": -77.02373416666667, "lat": 38.879329166666665, "type": "electric_scooter", "fusion_lon": 0.0, "is_reserved": 0, "bike_id": "a8b3382c5fbfa72c407baedcebc37325", "fusion_lat": 0.0, "is_disabled": 0, "rental_uris": {"ios": "https://dc.lft.to/lastmile_qr_scan", "android": "https://dc.lft.to/lastmile_qr_scan"}}, {"name": "d72c36c5e9fcc180693e5236b286de85", "lon": -77.02218066666667, "lat": 38.90574633333333, "type": "electric_scooter", "fusion_lon": 0.0, "is_reserved": 0, "bike_id": "d72c36c5e9fcc180693e5236b286de85", "fusion_lat": 0.0, "is_disabled": 0, "rental_uris": {"ios": "https://dc.lft.to/lastmile_qr_scan", "android": "https://dc.lft.to/lastmile_qr_scan"}}, {"name": "8af7c574e4a35809e46213929c2ef282", "lon": -77.02532316666667, "lat": 38.94262233333333, "type": "electric_scooter", "fusion_lon": 0.0, "is_reserved": 0, "bike_id": "8af7c574e4a35809e46213929c2ef282", "fusion_lat": 0.0, "is_disabled": 0, "rental_uris": {"ios": "https://dc.lft.to/lastmile_qr_scan", "android": "https://dc.lft.to/lastmile_qr_scan"}}, {"name": "b9217466c531b950b9233e6ad64cafca", "lon": -77.036427, "lat": 38.903866666666666, "type": "electric_scooter", "fusion_lon": 0.0, "is_reserved": 0, "bike_id": "b9217466c531b950b9233e6ad64cafca", "fusion_lat": 0.0, "is_disabled": 0, "rental_uris": {"ios": "https://dc.lft.to/lastmile_qr_scan", "android": "https://dc.lft.to/lastmile_qr_scan"}}, {"name": "c033ce59819252477d9951db060d1e0f", "lon": -77.08594166666667, "lat": 38.90872733333333, "type": "electric_scooter", "fusion_lon": 0.0, "is_reserved": 0, "bike_id": "c033ce59819252477d9951db060d1e0f", "fusion_lat": 0.0, "is_disabled": 0, "rental_uris": {"ios": "https://dc.lft.to/lastmile_qr_scan", "android": "https://dc.lft.to/lastmile_qr_scan"}}, {"name": "3eae5b581317b74b6dd738e960b1604e", "lon": -77.03379333333334, "lat": 38.91040016666667, "type": "electric_scooter", "fusion_lon": 0.0, "is_reserved": 0, "bike_id": "3eae5b581317b74b6dd738e960b1604e", "fusion_lat": 0.0, "is_disabled": 0, "rental_uris": {"ios": "https://dc.lft.to/lastmile_qr_scan", "android": "https://dc.lft.to/lastmile_qr_scan"}}, {"name": "6e07fd3fda36569fe7e972ea38756795", "lon": -77.02889016666667, "lat": 38.9133825, "type": "electric_scooter", "fusion_lon": 0.0, "is_reserved": 0, "bike_id": "6e07fd3fda36569fe7e972ea38756795", "fusion_lat": 0.0, "is_disabled": 0, "rental_uris": {"ios": "https://dc.lft.to/lastmile_qr_scan", "android": "https://dc.lft.to/lastmile_qr_scan"}}, {"name": "2c30b0599eea28de0cc015885608b1b8", "lon": -76.999491, "lat": 38.84295866666667, "type": "electric_scooter", "fusion_lon": 0.0, "is_reserved": 0, "bike_id": "2c30b0599eea28de0cc015885608b1b8", "fusion_lat": 0.0, "is_disabled": 0, "rental_uris": {"ios": "https://dc.lft.to/lastmile_qr_scan", "android": "https://dc.lft.to/lastmile_qr_scan"}}, {"name": "40472144b2e7cc9b85190e9a9f146f38", "lon": -77.04869616666667, "lat": 38.91565166666667, "type": "electric_scooter", "fusion_lon": 0.0, "is_reserved": 0, "bike_id": "40472144b2e7cc9b85190e9a9f146f38", "fusion_lat": 0.0, "is_disabled": 0, "rental_uris": {"ios": "https://dc.lft.to/lastmile_qr_scan", "android": "https://dc.lft.to/lastmile_qr_scan"}}, {"name": "86cfd59ec0b80f22950f6018046b9ba3", "lon": -77.04905366666667, "lat": 38.888405166666665, "type": "electric_scooter", "fusion_lon": 0.0, "is_reserved": 0, "bike_id": "86cfd59ec0b80f22950f6018046b9ba3", "fusion_lat": 0.0, "is_disabled": 0, "rental_uris": {"ios": "https://dc.lft.to/lastmile_qr_scan", "android": "https://dc.lft.to/lastmile_qr_scan"}}, {"name": "df6b6be801e6821596869aa9bb106a27", "lon": -76.974241, "lat": 38.90451066666667, "type": "electric_scooter", "fusion_lon": 0.0, "is_reserved": 0, "bike_id": "df6b6be801e6821596869aa9bb106a27", "fusion_lat": 0.0, "is_disabled": 0, "rental_uris": {"ios": "https://dc.lft.to/lastmile_qr_scan", "android": "https://dc.lft.to/lastmile_qr_scan"}}, {"name": "e3a0bdd7fad901ad01ba313aa99ae2ed", "lon": -77.026978, "lat": 38.90872533333334, "type": "electric_scooter", "fusion_lon": 0.0, "is_reserved": 0, "bike_id": "e3a0bdd7fad901ad01ba313aa99ae2ed", "fusion_lat": 0.0, "is_disabled": 0, "rental_uris": {"ios": "https://dc.lft.to/lastmile_qr_scan", "android": "https://dc.lft.to/lastmile_qr_scan"}}, {"name": "18ec8c7751e2846c86e680fe7ebc9e68", "lon": -76.99873283333334, "lat": 38.900301166666665, "type": "electric_scooter", "fusion_lon": 0.0, "is_reserved": 0, "bike_id": "18ec8c7751e2846c86e680fe7ebc9e68", "fusion_lat": 0.0, "is_disabled": 0, "rental_uris": {"ios": "https://dc.lft.to/lastmile_qr_scan", "android": "https://dc.lft.to/lastmile_qr_scan"}}, {"name": "303522a5ae1d640056bbeb3b28572070", "lon": -77.00541066666666, "lat": 38.91551833333333, "type": "electric_scooter", "fusion_lon": 0.0, "is_reserved": 0, "bike_id": "303522a5ae1d640056bbeb3b28572070", "fusion_lat": 0.0, "is_disabled": 0, "rental_uris": {"ios": "https://dc.lft.to/lastmile_qr_scan", "android": "https://dc.lft.to/lastmile_qr_scan"}}, {"name": "caede08676f85b5496391b37a686a192", "lon": -77.03719883333333, "lat": 38.91695683333333, "type": "electric_scooter", "fusion_lon": 0.0, "is_reserved": 0, "bike_id": "caede08676f85b5496391b37a686a192", "fusion_lat": 0.0, "is_disabled": 0, "rental_uris": {"ios": "https://dc.lft.to/lastmile_qr_scan", "android": "https://dc.lft.to/lastmile_qr_scan"}}, {"name": "06a444ee637613f20d57fabe6e51dae8", "lon": -77.0948725, "lat": 39.030509, "type": "electric_bike", "fusion_lon": 0.0, "is_reserved": 0, "bike_id": "06a444ee637613f20d57fabe6e51dae8", "fusion_lat": 0.0, "is_disabled": 0, "rental_uris": {"ios": "https://dc.lft.to/lastmile_qr_scan", "android": "https://dc.lft.to/lastmile_qr_scan"}}, {"name": "f2f644c8a80259f9e331ea293b546fa8", "lon": -76.97480816666666, "lat": 38.90351066666667, "type": "electric_scooter", "fusion_lon": 0.0, "is_reserved": 0, "bike_id": "f2f644c8a80259f9e331ea293b546fa8", "fusion_lat": 0.0, "is_disabled": 0, "rental_uris": {"ios": "https://dc.lft.to/lastmile_qr_scan", "android": "https://dc.lft.to/lastmile_qr_scan"}}, {"name": "f1117585f73c9cce07f7d402007f9b40", "lon": -77.0285035, "lat": 39.037575333333336, "type": "electric_scooter", "fusion_lon": 0.0, "is_reserved": 0, "bike_id": "f1117585f73c9cce07f7d402007f9b40", "fusion_lat": 0.0, "is_disabled": 0, "rental_uris": {"ios": "https://dc.lft.to/lastmile_qr_scan", "android": "https://dc.lft.to/lastmile_qr_scan"}}, {"name": "203e0838518f1e083d3e3bed7b9e7eb0", "lon": -77.020824, "lat": 38.87578416666667, "type": "electric_scooter", "fusion_lon": 0.0, "is_reserved": 0, "bike_id": "203e0838518f1e083d3e3bed7b9e7eb0", "fusion_lat": 0.0, "is_disabled": 0, "rental_uris": {"ios": "https://dc.lft.to/lastmile_qr_scan", "android": "https://dc.lft.to/lastmile_qr_scan"}}, {"name": "77c69bdb49fcd28c95614c4e86fb985f", "lon": -77.058103, "lat": 38.9350925, "type": "electric_scooter", "fusion_lon": 0.0, "is_reserved": 0, "bike_id": "77c69bdb49fcd28c95614c4e86fb985f", "fusion_lat": 0.0, "is_disabled": 0, "rental_uris": {"ios": "https://dc.lft.to/lastmile_qr_scan", "android": "https://dc.lft.to/lastmile_qr_scan"}}, {"name": "7b46553a5fc747ba84c4ea5bb935ad42", "lon": -77.02336683333333, "lat": 38.92480233333333, "type": "electric_scooter", "fusion_lon": 0.0, "is_reserved": 0, "bike_id": "7b46553a5fc747ba84c4ea5bb935ad42", "fusion_lat": 0.0, "is_disabled": 0, "rental_uris": {"ios": "https://dc.lft.to/lastmile_qr_scan", "android": "https://dc.lft.to/lastmile_qr_scan"}}, {"name": "0515c22ffb98ecf701c7f82d54b170a1", "lon": -76.98837933333333, "lat": 38.900412333333335, "type": "electric_scooter", "fusion_lon": 0.0, "is_reserved": 0, "bike_id": "0515c22ffb98ecf701c7f82d54b170a1", "fusion_lat": 0.0, "is_disabled": 0, "rental_uris": {"ios": "https://dc.lft.to/lastmile_qr_scan", "android": "https://dc.lft.to/lastmile_qr_scan"}}, {"name": "bf9aa085daee688c0fdbb33e71006a09", "lon": -77.01189933333333, "lat": 38.900216, "type": "electric_scooter", "fusion_lon": 0.0, "is_reserved": 0, "bike_id": "bf9aa085daee688c0fdbb33e71006a09", "fusion_lat": 0.0, "is_disabled": 0, "rental_uris": {"ios": "https://dc.lft.to/lastmile_qr_scan", "android": "https://dc.lft.to/lastmile_qr_scan"}}, {"name": "f57d7ee939b94cd13566029497debce3", "lon": -77.01943083333333, "lat": 38.94704383333333, "type": "electric_scooter", "fusion_lon": 0.0, "is_reserved": 0, "bike_id": "f57d7ee939b94cd13566029497debce3", "fusion_lat": 0.0, "is_disabled": 0, "rental_uris": {"ios": "https://dc.lft.to/lastmile_qr_scan", "android": "https://dc.lft.to/lastmile_qr_scan"}}, {"name": "0739a2f19211ebdb58311cfe7868a315", "lon": -76.98798833333333, "lat": 38.922130333333335, "type": "electric_bike", "fusion_lon": 0.0, "is_reserved": 0, "bike_id": "0739a2f19211ebdb58311cfe7868a315", "fusion_lat": 0.0, "is_disabled": 0, "rental_uris": {"ios": "https://dc.lft.to/lastmile_qr_scan", "android": "https://dc.lft.to/lastmile_qr_scan"}}, {"name": "94c5e02a67b80962a1b133a76e96b450", "lon": -77.0024825, "lat": 38.902597666666665, "type": "electric_scooter", "fusion_lon": 0.0, "is_reserved": 0, "bike_id": "94c5e02a67b80962a1b133a76e96b450", "fusion_lat": 0.0, "is_disabled": 0, "rental_uris": {"ios": "https://dc.lft.to/lastmile_qr_scan", "android": "https://dc.lft.to/lastmile_qr_scan"}}, {"name": "2a04e51f0f740b547a259d02a758795b", "lon": -76.92741733333334, "lat": 38.88965616666667, "type": "electric_scooter", "fusion_lon": 0.0, "is_reserved": 0, "bike_id": "2a04e51f0f740b547a259d02a758795b", "fusion_lat": 0.0, "is_disabled": 0, "rental_uris": {"ios": "https://dc.lft.to/lastmile_qr_scan", "android": "https://dc.lft.to/lastmile_qr_scan"}}, {"name": "8f5aa0091fa5f8cac6925f89203aa1dd", "lon": -77.03724783333334, "lat": 38.910636, "type": "electric_scooter", "fusion_lon": 0.0, "is_reserved": 0, "bike_id": "8f5aa0091fa5f8cac6925f89203aa1dd", "fusion_lat": 0.0, "is_disabled": 0, "rental_uris": {"ios": "https://dc.lft.to/lastmile_qr_scan", "android": "https://dc.lft.to/lastmile_qr_scan"}}, {"name": "52a3c6b42dc3da54f4d8630f033db082", "lon": -77.00874433333334, "lat": 38.9067895, "type": "electric_scooter", "fusion_lon": 0.0, "is_reserved": 0, "bike_id": "52a3c6b42dc3da54f4d8630f033db082", "fusion_lat": 0.0, "is_disabled": 0, "rental_uris": {"ios": "https://dc.lft.to/lastmile_qr_scan", "android": "https://dc.lft.to/lastmile_qr_scan"}}, {"name": "bb570b048ba82c312022e0fdaaa0c3ab", "lon": -77.03823283333334, "lat": 38.925386333333336, "type": "electric_scooter", "fusion_lon": 0.0, "is_reserved": 0, "bike_id": "bb570b048ba82c312022e0fdaaa0c3ab", "fusion_lat": 0.0, "is_disabled": 0, "rental_uris": {"ios": "https://dc.lft.to/lastmile_qr_scan", "android": "https://dc.lft.to/lastmile_qr_scan"}}, {"name": "a10163f74a4c4f01ac380cf99840531f", "lon": -76.93161683333334, "lat": 38.89878216666666, "type": "electric_scooter", "fusion_lon": 0.0, "is_reserved": 0, "bike_id": "a10163f74a4c4f01ac380cf99840531f", "fusion_lat": 0.0, "is_disabled": 0, "rental_uris": {"ios": "https://dc.lft.to/lastmile_qr_scan", "android": "https://dc.lft.to/lastmile_qr_scan"}}, {"name": "48161b0f0e3ad39eeb28674f008f3655", "lon": -77.03965233333334, "lat": 38.9026085, "type": "electric_scooter", "fusion_lon": 0.0, "is_reserved": 0, "bike_id": "48161b0f0e3ad39eeb28674f008f3655", "fusion_lat": 0.0, "is_disabled": 0, "rental_uris": {"ios": "https://dc.lft.to/lastmile_qr_scan", "android": "https://dc.lft.to/lastmile_qr_scan"}}, {"name": "58deb808ccb8e0904f2d9558718aba1b", "lon": -77.02334066666667, "lat": 38.928954166666664, "type": "electric_scooter", "fusion_lon": 0.0, "is_reserved": 0, "bike_id": "58deb808ccb8e0904f2d9558718aba1b", "fusion_lat": 0.0, "is_disabled": 0, "rental_uris": {"ios": "https://dc.lft.to/lastmile_qr_scan", "android": "https://dc.lft.to/lastmile_qr_scan"}}, {"name": "52d3159ed0bd55372a30c87ee846d3a0", "lon": -77.0292115, "lat": 38.904769333333334, "type": "electric_scooter", "fusion_lon": 0.0, "is_reserved": 0, "bike_id": "52d3159ed0bd55372a30c87ee846d3a0", "fusion_lat": 0.0, "is_disabled": 0, "rental_uris": {"ios": "https://dc.lft.to/lastmile_qr_scan", "android": "https://dc.lft.to/lastmile_qr_scan"}}, {"name": "2121e3cc7c2e8e374b88b53d2a797d46", "lon": -77.05663233333334, "lat": 38.905313666666665, "type": "electric_scooter", "fusion_lon": 0.0, "is_reserved": 0, "bike_id": "2121e3cc7c2e8e374b88b53d2a797d46", "fusion_lat": 0.0, "is_disabled": 0, "rental_uris": {"ios": "https://dc.lft.to/lastmile_qr_scan", "android": "https://dc.lft.to/lastmile_qr_scan"}}, {"name": "da785667b6ed63f7f92d878f91358453", "lon": -76.985193, "lat": 38.86660883333333, "type": "electric_scooter", "fusion_lon": 0.0, "is_reserved": 0, "bike_id": "da785667b6ed63f7f92d878f91358453", "fusion_lat": 0.0, "is_disabled": 0, "rental_uris": {"ios": "https://dc.lft.to/lastmile_qr_scan", "android": "https://dc.lft.to/lastmile_qr_scan"}}, {"name": "08dea35a6e6aed3d775e82d50a1a5d8c", "lon": -77.04271133333333, "lat": 38.9224365, "type": "electric_scooter", "fusion_lon": 0.0, "is_reserved": 0, "bike_id": "08dea35a6e6aed3d775e82d50a1a5d8c", "fusion_lat": 0.0, "is_disabled": 0, "rental_uris": {"ios": "https://dc.lft.to/lastmile_qr_scan", "android": "https://dc.lft.to/lastmile_qr_scan"}}, {"name": "3f94ca93744b563d0471a77d917ac54d", "lon": -77.06866683333334, "lat": 38.805761333333336, "type": "electric_bike", "fusion_lon": 0.0, "is_reserved": 0, "bike_id": "3f94ca93744b563d0471a77d917ac54d", "fusion_lat": 0.0, "is_disabled": 0, "rental_uris": {"ios": "https://dc.lft.to/lastmile_qr_scan", "android": "https://dc.lft.to/lastmile_qr_scan"}}, {"name": "b21add252b42c3c1fd123433890f4667", "lon": -77.01770466666666, "lat": 38.89078883333333, "type": "electric_scooter", "fusion_lon": 0.0, "is_reserved": 0, "bike_id": "b21add252b42c3c1fd123433890f4667", "fusion_lat": 0.0, "is_disabled": 0, "rental_uris": {"ios": "https://dc.lft.to/lastmile_qr_scan", "android": "https://dc.lft.to/lastmile_qr_scan"}}, {"name": "062e3026be39442ec3c1720b42875b89", "lon": -77.02879216666666, "lat": 38.928189833333334, "type": "electric_scooter", "fusion_lon": 0.0, "is_reserved": 0, "bike_id": "062e3026be39442ec3c1720b42875b89", "fusion_lat": 0.0, "is_disabled": 0, "rental_uris": {"ios": "https://dc.lft.to/lastmile_qr_scan", "android": "https://dc.lft.to/lastmile_qr_scan"}}, {"name": "18341052b717bdf9c2779759c19e563c", "lon": -77.03289433333333, "lat": 38.92051033333333, "type": "electric_scooter", "fusion_lon": 0.0, "is_reserved": 0, "bike_id": "18341052b717bdf9c2779759c19e563c", "fusion_lat": 0.0, "is_disabled": 0, "rental_uris": {"ios": "https://dc.lft.to/lastmile_qr_scan", "android": "https://dc.lft.to/lastmile_qr_scan"}}, {"name": "16794a419d1ceaa6736cd73b43107761", "lon": -77.041262, "lat": 38.934024666666666, "type": "electric_scooter", "fusion_lon": 0.0, "is_reserved": 0, "bike_id": "16794a419d1ceaa6736cd73b43107761", "fusion_lat": 0.0, "is_disabled": 0, "rental_uris": {"ios": "https://dc.lft.to/lastmile_qr_scan", "android": "https://dc.lft.to/lastmile_qr_scan"}}, {"name": "f1b19ac45d17a97995a18b84458fd20c", "lon": -77.0417365, "lat": 38.9183905, "type": "electric_scooter", "fusion_lon": 0.0, "is_reserved": 0, "bike_id": "f1b19ac45d17a97995a18b84458fd20c", "fusion_lat": 0.0, "is_disabled": 0, "rental_uris": {"ios": "https://dc.lft.to/lastmile_qr_scan", "android": "https://dc.lft.to/lastmile_qr_scan"}}, {"name": "bf38ddee286fbb00f694e3e51d5de4e1", "lon": -77.00143183333333, "lat": 38.925574833333336, "type": "electric_bike", "fusion_lon": 0.0, "is_reserved": 0, "bike_id": "bf38ddee286fbb00f694e3e51d5de4e1", "fusion_lat": 0.0, "is_disabled": 0, "rental_uris": {"ios": "https://dc.lft.to/lastmile_qr_scan", "android": "https://dc.lft.to/lastmile_qr_scan"}}, {"name": "bef772bfaddf8b610e9d57901fe38109", "lon": -77.03156416666667, "lat": 38.999482666666665, "type": "electric_bike", "fusion_lon": 0.0, "is_reserved": 0, "bike_id": "bef772bfaddf8b610e9d57901fe38109", "fusion_lat": 0.0, "is_disabled": 0, "rental_uris": {"ios": "https://dc.lft.to/lastmile_qr_scan", "android": "https://dc.lft.to/lastmile_qr_scan"}}, {"name": "b064dcf869b327c2c26d2cf06ba42a01", "lon": -77.00350383333334, "lat": 38.902415166666664, "type": "electric_scooter", "fusion_lon": 0.0, "is_reserved": 0, "bike_id": "b064dcf869b327c2c26d2cf06ba42a01", "fusion_lat": 0.0, "is_disabled": 0, "rental_uris": {"ios": "https://dc.lft.to/lastmile_qr_scan", "android": "https://dc.lft.to/lastmile_qr_scan"}}, {"name": "dde1885e001e5b8e1373223d687f8d7f", "lon": -77.04157416666666, "lat": 38.9183305, "type": "electric_scooter", "fusion_lon": 0.0, "is_reserved": 0, "bike_id": "dde1885e001e5b8e1373223d687f8d7f", "fusion_lat": 0.0, "is_disabled": 0, "rental_uris": {"ios": "https://dc.lft.to/lastmile_qr_scan", "android": "https://dc.lft.to/lastmile_qr_scan"}}, {"name": "2d29df3de329e8d18615a58f9dc96c75", "lon": -76.99850816666667, "lat": 38.880993333333336, "type": "electric_scooter", "fusion_lon": 0.0, "is_reserved": 0, "bike_id": "2d29df3de329e8d18615a58f9dc96c75", "fusion_lat": 0.0, "is_disabled": 0, "rental_uris": {"ios": "https://dc.lft.to/lastmile_qr_scan", "android": "https://dc.lft.to/lastmile_qr_scan"}}, {"name": "df3e9d389edd4651ccbbdf93f922cb0c", "lon": -77.0344585, "lat": 38.909556333333335, "type": "electric_scooter", "fusion_lon": 0.0, "is_reserved": 0, "bike_id": "df3e9d389edd4651ccbbdf93f922cb0c", "fusion_lat": 0.0, "is_disabled": 0, "rental_uris": {"ios": "https://dc.lft.to/lastmile_qr_scan", "android": "https://dc.lft.to/lastmile_qr_scan"}}, {"name": "7173a8431bcf236dc31d35c6eeda0cd6", "lon": -77.04130716666667, "lat": 38.9140435, "type": "electric_scooter", "fusion_lon": 0.0, "is_reserved": 0, "bike_id": "7173a8431bcf236dc31d35c6eeda0cd6", "fusion_lat": 0.0, "is_disabled": 0, "rental_uris": {"ios": "https://dc.lft.to/lastmile_qr_scan", "android": "https://dc.lft.to/lastmile_qr_scan"}}, {"name": "135d0cb183c85a7598b2db041c2c8ad6", "lon": -77.03352266666667, "lat": 38.920459666666666, "type": "electric_scooter", "fusion_lon": 0.0, "is_reserved": 0, "bike_id": "135d0cb183c85a7598b2db041c2c8ad6", "fusion_lat": 0.0, "is_disabled": 0, "rental_uris": {"ios": "https://dc.lft.to/lastmile_qr_scan", "android": "https://dc.lft.to/lastmile_qr_scan"}}, {"name": "e7afad09e54b7ba6e00e02a412f4cc3d", "lon": -77.038305, "lat": 38.866976666666666, "type": "electric_scooter", "fusion_lon": 0.0, "is_reserved": 0, "bike_id": "e7afad09e54b7ba6e00e02a412f4cc3d", "fusion_lat": 0.0, "is_disabled": 0, "rental_uris": {"ios": "https://dc.lft.to/lastmile_qr_scan", "android": "https://dc.lft.to/lastmile_qr_scan"}}, {"name": "2057a9f195e8c88097628186da5c93ef", "lon": -76.94806416666667, "lat": 38.89398383333333, "type": "electric_bike", "fusion_lon": 0.0, "is_reserved": 0, "bike_id": "2057a9f195e8c88097628186da5c93ef", "fusion_lat": 0.0, "is_disabled": 0, "rental_uris": {"ios": "https://dc.lft.to/lastmile_qr_scan", "android": "https://dc.lft.to/lastmile_qr_scan"}}, {"name": "f045ced569fac059fea06cb5e2459326", "lon": -77.0581905, "lat": 38.935634666666665, "type": "electric_scooter", "fusion_lon": 0.0, "is_reserved": 0, "bike_id": "f045ced569fac059fea06cb5e2459326", "fusion_lat": 0.0, "is_disabled": 0, "rental_uris": {"ios": "https://dc.lft.to/lastmile_qr_scan", "android": "https://dc.lft.to/lastmile_qr_scan"}}, {"name": "5115a29e604883d408d64540b8bd9bdc", "lon": -77.021725, "lat": 38.905618, "type": "electric_scooter", "fusion_lon": 0.0, "is_reserved": 0, "bike_id": "5115a29e604883d408d64540b8bd9bdc", "fusion_lat": 0.0, "is_disabled": 0, "rental_uris": {"ios": "https://dc.lft.to/lastmile_qr_scan", "android": "https://dc.lft.to/lastmile_qr_scan"}}, {"name": "626ce1f733d69efe988fee3a959ba5c6", "lon": -77.023074, "lat": 38.92751366666667, "type": "electric_scooter", "fusion_lon": 0.0, "is_reserved": 0, "bike_id": "626ce1f733d69efe988fee3a959ba5c6", "fusion_lat": 0.0, "is_disabled": 0, "rental_uris": {"ios": "https://dc.lft.to/lastmile_qr_scan", "android": "https://dc.lft.to/lastmile_qr_scan"}}, {"name": "5badd3afd04b420e0799486ab373b4af", "lon": -76.9933555, "lat": 38.87144883333333, "type": "electric_scooter", "fusion_lon": 0.0, "is_reserved": 0, "bike_id": "5badd3afd04b420e0799486ab373b4af", "fusion_lat": 0.0, "is_disabled": 0, "rental_uris": {"ios": "https://dc.lft.to/lastmile_qr_scan", "android": "https://dc.lft.to/lastmile_qr_scan"}}, {"name": "cce322141e94d7767b1c6a866f0a5ae3", "lon": -76.9292155, "lat": 38.892995666666664, "type": "electric_scooter", "fusion_lon": 0.0, "is_reserved": 0, "bike_id": "cce322141e94d7767b1c6a866f0a5ae3", "fusion_lat": 0.0, "is_disabled": 0, "rental_uris": {"ios": "https://dc.lft.to/lastmile_qr_scan", "android": "https://dc.lft.to/lastmile_qr_scan"}}, {"name": "6979bfa4662ed9fb5200d7deacd0a49a", "lon": -77.01695666666667, "lat": 38.975049166666665, "type": "electric_scooter", "fusion_lon": 0.0, "is_reserved": 0, "bike_id": "6979bfa4662ed9fb5200d7deacd0a49a", "fusion_lat": 0.0, "is_disabled": 0, "rental_uris": {"ios": "https://dc.lft.to/lastmile_qr_scan", "android": "https://dc.lft.to/lastmile_qr_scan"}}, {"name": "4c3e11a85003f15d63f673f797240420", "lon": -77.02604733333334, "lat": 38.93143766666667, "type": "electric_scooter", "fusion_lon": 0.0, "is_reserved": 0, "bike_id": "4c3e11a85003f15d63f673f797240420", "fusion_lat": 0.0, "is_disabled": 0, "rental_uris": {"ios": "https://dc.lft.to/lastmile_qr_scan", "android": "https://dc.lft.to/lastmile_qr_scan"}}, {"name": "4217150ed0845c2b2dd728bfad58668e", "lon": -76.960546, "lat": 38.884074166666664, "type": "electric_bike", "fusion_lon": 0.0, "is_reserved": 0, "bike_id": "4217150ed0845c2b2dd728bfad58668e", "fusion_lat": 0.0, "is_disabled": 0, "rental_uris": {"ios": "https://dc.lft.to/lastmile_qr_scan", "android": "https://dc.lft.to/lastmile_qr_scan"}}, {"name": "4f1381e54b14207b19360babd9931428", "lon": -76.9887115, "lat": 38.95488066666667, "type": "electric_bike", "fusion_lon": 0.0, "is_reserved": 0, "bike_id": "4f1381e54b14207b19360babd9931428", "fusion_lat": 0.0, "is_disabled": 0, "rental_uris": {"ios": "https://dc.lft.to/lastmile_qr_scan", "android": "https://dc.lft.to/lastmile_qr_scan"}}, {"name": "9134593d7ed2c499661f54a65a8243a9", "lon": -76.9836525, "lat": 38.89610916666667, "type": "electric_bike", "fusion_lon": 0.0, "is_reserved": 0, "bike_id": "9134593d7ed2c499661f54a65a8243a9", "fusion_lat": 0.0, "is_disabled": 0, "rental_uris": {"ios": "https://dc.lft.to/lastmile_qr_scan", "android": "https://dc.lft.to/lastmile_qr_scan"}}, {"name": "e4badc4d35ff5be9fe3cb0c75a80c2ea", "lon": -77.03128316666667, "lat": 38.91563033333333, "type": "electric_scooter", "fusion_lon": 0.0, "is_reserved": 0, "bike_id": "e4badc4d35ff5be9fe3cb0c75a80c2ea", "fusion_lat": 0.0, "is_disabled": 0, "rental_uris": {"ios": "https://dc.lft.to/lastmile_qr_scan", "android": "https://dc.lft.to/lastmile_qr_scan"}}, {"name": "cb87086ca20e9531320907f80e747be9", "lon": -76.997791, "lat": 38.844261333333336, "type": "electric_scooter", "fusion_lon": 0.0, "is_reserved": 0, "bike_id": "cb87086ca20e9531320907f80e747be9", "fusion_lat": 0.0, "is_disabled": 0, "rental_uris": {"ios": "https://dc.lft.to/lastmile_qr_scan", "android": "https://dc.lft.to/lastmile_qr_scan"}}, {"name": "19ca11398cd4011a8bdd60aa05f6ce42", "lon": -77.041545, "lat": 38.9192065, "type": "electric_scooter", "fusion_lon": 0.0, "is_reserved": 0, "bike_id": "19ca11398cd4011a8bdd60aa05f6ce42", "fusion_lat": 0.0, "is_disabled": 0, "rental_uris": {"ios": "https://dc.lft.to/lastmile_qr_scan", "android": "https://dc.lft.to/lastmile_qr_scan"}}, {"name": "951fc8e46405e5a54b942fff8851dcc1", "lon": -76.95757366666666, "lat": 38.88436166666666, "type": "electric_scooter", "fusion_lon": 0.0, "is_reserved": 0, "bike_id": "951fc8e46405e5a54b942fff8851dcc1", "fusion_lat": 0.0, "is_disabled": 0, "rental_uris": {"ios": "https://dc.lft.to/lastmile_qr_scan", "android": "https://dc.lft.to/lastmile_qr_scan"}}, {"name": "63a263d4ff5b34a5c0dceb597a1b905f", "lon": -77.106048, "lat": 38.928952333333335, "type": "electric_bike", "fusion_lon": 0.0, "is_reserved": 0, "bike_id": "63a263d4ff5b34a5c0dceb597a1b905f", "fusion_lat": 0.0, "is_disabled": 0, "rental_uris": {"ios": "https://dc.lft.to/lastmile_qr_scan", "android": "https://dc.lft.to/lastmile_qr_scan"}}, {"name": "d8d999587312065e7e79f56488c0e40f", "lon": -77.051031, "lat": 38.901833, "type": "electric_scooter", "fusion_lon": 0.0, "is_reserved": 0, "bike_id": "d8d999587312065e7e79f56488c0e40f", "fusion_lat": 0.0, "is_disabled": 0, "rental_uris": {"ios": "https://dc.lft.to/lastmile_qr_scan", "android": "https://dc.lft.to/lastmile_qr_scan"}}, {"name": "86f85f55c7324e98fa3c7b78ea337963", "lon": -77.029282, "lat": 38.92974933333333, "type": "electric_scooter", "fusion_lon": 0.0, "is_reserved": 0, "bike_id": "86f85f55c7324e98fa3c7b78ea337963", "fusion_lat": 0.0, "is_disabled": 0, "rental_uris": {"ios": "https://dc.lft.to/lastmile_qr_scan", "android": "https://dc.lft.to/lastmile_qr_scan"}}, {"name": "9e500624554a48c6b0fea116f262c85a", "lon": -77.02914416666667, "lat": 38.93333616666666, "type": "electric_scooter", "fusion_lon": 0.0, "is_reserved": 0, "bike_id": "9e500624554a48c6b0fea116f262c85a", "fusion_lat": 0.0, "is_disabled": 0, "rental_uris": {"ios": "https://dc.lft.to/lastmile_qr_scan", "android": "https://dc.lft.to/lastmile_qr_scan"}}, {"name": "35e3d8f63b3da4cb7832b33a980c58fd", "lon": -77.011945, "lat": 38.90302333333333, "type": "electric_scooter", "fusion_lon": 0.0, "is_reserved": 0, "bike_id": "35e3d8f63b3da4cb7832b33a980c58fd", "fusion_lat": 0.0, "is_disabled": 0, "rental_uris": {"ios": "https://dc.lft.to/lastmile_qr_scan", "android": "https://dc.lft.to/lastmile_qr_scan"}}, {"name": "2e29f205c53cafd36a1213514c073c15", "lon": -76.94966866666667, "lat": 38.893595, "type": "electric_scooter", "fusion_lon": 0.0, "is_reserved": 0, "bike_id": "2e29f205c53cafd36a1213514c073c15", "fusion_lat": 0.0, "is_disabled": 0, "rental_uris": {"ios": "https://dc.lft.to/lastmile_qr_scan", "android": "https://dc.lft.to/lastmile_qr_scan"}}, {"name": "2727220111ceb50a852a7f154ec6f7ff", "lon": -77.007733, "lat": 38.905767, "type": "electric_scooter", "fusion_lon": 0.0, "is_reserved": 0, "bike_id": "2727220111ceb50a852a7f154ec6f7ff", "fusion_lat": 0.0, "is_disabled": 0, "rental_uris": {"ios": "https://dc.lft.to/lastmile_qr_scan", "android": "https://dc.lft.to/lastmile_qr_scan"}}, {"name": "106119c8de7c41e66b933909ac77b7ce", "lon": -76.98881083333333, "lat": 38.890398166666664, "type": "electric_scooter", "fusion_lon": 0.0, "is_reserved": 0, "bike_id": "106119c8de7c41e66b933909ac77b7ce", "fusion_lat": 0.0, "is_disabled": 0, "rental_uris": {"ios": "https://dc.lft.to/lastmile_qr_scan", "android": "https://dc.lft.to/lastmile_qr_scan"}}, {"name": "c7093033dd050f8229c2cebc1c3e04e4", "lon": -77.048707, "lat": 38.91529933333333, "type": "electric_scooter", "fusion_lon": 0.0, "is_reserved": 0, "bike_id": "c7093033dd050f8229c2cebc1c3e04e4", "fusion_lat": 0.0, "is_disabled": 0, "rental_uris": {"ios": "https://dc.lft.to/lastmile_qr_scan", "android": "https://dc.lft.to/lastmile_qr_scan"}}, {"name": "8608ac84278acf151126f5ebb5e3bd18", "lon": -77.03292983333333, "lat": 38.932567, "type": "electric_scooter", "fusion_lon": 0.0, "is_reserved": 0, "bike_id": "8608ac84278acf151126f5ebb5e3bd18", "fusion_lat": 0.0, "is_disabled": 0, "rental_uris": {"ios": "https://dc.lft.to/lastmile_qr_scan", "android": "https://dc.lft.to/lastmile_qr_scan"}}, {"name": "f8b607cbaee5468de7b518763f5901b7", "lon": -77.03185766666667, "lat": 38.917921166666666, "type": "electric_scooter", "fusion_lon": 0.0, "is_reserved": 0, "bike_id": "f8b607cbaee5468de7b518763f5901b7", "fusion_lat": 0.0, "is_disabled": 0, "rental_uris": {"ios": "https://dc.lft.to/lastmile_qr_scan", "android": "https://dc.lft.to/lastmile_qr_scan"}}, {"name": "5729efd2cb192c7f4f9f7e930088465a", "lon": -77.02963216666667, "lat": 38.93986683333333, "type": "electric_scooter", "fusion_lon": 0.0, "is_reserved": 0, "bike_id": "5729efd2cb192c7f4f9f7e930088465a", "fusion_lat": 0.0, "is_disabled": 0, "rental_uris": {"ios": "https://dc.lft.to/lastmile_qr_scan", "android": "https://dc.lft.to/lastmile_qr_scan"}}, {"name": "dabc426eaf8271659a7808df539ffc0e", "lon": -77.02594583333334, "lat": 38.963967, "type": "electric_scooter", "fusion_lon": 0.0, "is_reserved": 0, "bike_id": "dabc426eaf8271659a7808df539ffc0e", "fusion_lat": 0.0, "is_disabled": 0, "rental_uris": {"ios": "https://dc.lft.to/lastmile_qr_scan", "android": "https://dc.lft.to/lastmile_qr_scan"}}, {"name": "2a4732d3152efd4e5e463f6ab8e38177", "lon": -77.01615283333334, "lat": 38.899656, "type": "electric_scooter", "fusion_lon": 0.0, "is_reserved": 0, "bike_id": "2a4732d3152efd4e5e463f6ab8e38177", "fusion_lat": 0.0, "is_disabled": 0, "rental_uris": {"ios": "https://dc.lft.to/lastmile_qr_scan", "android": "https://dc.lft.to/lastmile_qr_scan"}}, {"name": "0b070642f1f083e5d4a9643130f41428", "lon": -77.0007585, "lat": 38.9014395, "type": "electric_scooter", "fusion_lon": 0.0, "is_reserved": 0, "bike_id": "0b070642f1f083e5d4a9643130f41428", "fusion_lat": 0.0, "is_disabled": 0, "rental_uris": {"ios": "https://dc.lft.to/lastmile_qr_scan", "android": "https://dc.lft.to/lastmile_qr_scan"}}, {"name": "8993fb254e9e3d6b0e15b99727f24c8a", "lon": -77.13112016666666, "lat": 39.024409, "type": "electric_bike", "fusion_lon": 0.0, "is_reserved": 0, "bike_id": "8993fb254e9e3d6b0e15b99727f24c8a", "fusion_lat": 0.0, "is_disabled": 0, "rental_uris": {"ios": "https://dc.lft.to/lastmile_qr_scan", "android": "https://dc.lft.to/lastmile_qr_scan"}}, {"name": "1940a67a3dd51f9d2ef3afc5d42bebfd", "lon": -77.09480966666666, "lat": 39.030466833333335, "type": "electric_bike", "fusion_lon": 0.0, "is_reserved": 0, "bike_id": "1940a67a3dd51f9d2ef3afc5d42bebfd", "fusion_lat": 0.0, "is_disabled": 0, "rental_uris": {"ios": "https://dc.lft.to/lastmile_qr_scan", "android": "https://dc.lft.to/lastmile_qr_scan"}}, {"name": "a7057b6554539200de3cc8710137c8ac", "lon": -77.03712033333333, "lat": 38.92043233333333, "type": "electric_bike", "fusion_lon": 0.0, "is_reserved": 0, "bike_id": "a7057b6554539200de3cc8710137c8ac", "fusion_lat": 0.0, "is_disabled": 0, "rental_uris": {"ios": "https://dc.lft.to/lastmile_qr_scan", "android": "https://dc.lft.to/lastmile_qr_scan"}}, {"name": "a8aa8dd093b4dd1b9aab35c74555b891", "lon": -77.023927, "lat": 38.91655333333333, "type": "electric_scooter", "fusion_lon": 0.0, "is_reserved": 0, "bike_id": "a8aa8dd093b4dd1b9aab35c74555b891", "fusion_lat": 0.0, "is_disabled": 0, "rental_uris": {"ios": "https://dc.lft.to/lastmile_qr_scan", "android": "https://dc.lft.to/lastmile_qr_scan"}}, {"name": "a0f11c92718f8c6046389670f20beb92", "lon": -77.01187566666667, "lat": 38.900152166666665, "type": "electric_scooter", "fusion_lon": 0.0, "is_reserved": 0, "bike_id": "a0f11c92718f8c6046389670f20beb92", "fusion_lat": 0.0, "is_disabled": 0, "rental_uris": {"ios": "https://dc.lft.to/lastmile_qr_scan", "android": "https://dc.lft.to/lastmile_qr_scan"}}, {"name": "c95e6c36fe6a32a16a0354be6595c994", "lon": -77.027561, "lat": 38.951698666666665, "type": "electric_scooter", "fusion_lon": 0.0, "is_reserved": 0, "bike_id": "c95e6c36fe6a32a16a0354be6595c994", "fusion_lat": 0.0, "is_disabled": 0, "rental_uris": {"ios": "https://dc.lft.to/lastmile_qr_scan", "android": "https://dc.lft.to/lastmile_qr_scan"}}, {"name": "b13752ec9efedc2af3e8b3d66b4a8ac6", "lon": -77.03440933333333, "lat": 38.9100985, "type": "electric_scooter", "fusion_lon": 0.0, "is_reserved": 0, "bike_id": "b13752ec9efedc2af3e8b3d66b4a8ac6", "fusion_lat": 0.0, "is_disabled": 0, "rental_uris": {"ios": "https://dc.lft.to/lastmile_qr_scan", "android": "https://dc.lft.to/lastmile_qr_scan"}}, {"name": "b20f6365c3bb3201cd3016023deb0727", "lon": -77.06074416666667, "lat": 38.8858565, "type": "electric_bike", "fusion_lon": 0.0, "is_reserved": 0, "bike_id": "b20f6365c3bb3201cd3016023deb0727", "fusion_lat": 0.0, "is_disabled": 0, "rental_uris": {"ios": "https://dc.lft.to/lastmile_qr_scan", "android": "https://dc.lft.to/lastmile_qr_scan"}}, {"name": "e3d38d2826d5181fd201aeb0454433c2", "lon": -77.02131666666666, "lat": 38.89964616666666, "type": "electric_scooter", "fusion_lon": 0.0, "is_reserved": 0, "bike_id": "e3d38d2826d5181fd201aeb0454433c2", "fusion_lat": 0.0, "is_disabled": 0, "rental_uris": {"ios": "https://dc.lft.to/lastmile_qr_scan", "android": "https://dc.lft.to/lastmile_qr_scan"}}, {"name": "9834e67e36d7a21af6fa22afcea7c2c9", "lon": -77.0271465, "lat": 38.90081166666667, "type": "electric_scooter", "fusion_lon": 0.0, "is_reserved": 0, "bike_id": "9834e67e36d7a21af6fa22afcea7c2c9", "fusion_lat": 0.0, "is_disabled": 0, "rental_uris": {"ios": "https://dc.lft.to/lastmile_qr_scan", "android": "https://dc.lft.to/lastmile_qr_scan"}}, {"name": "e9532a1e04b1af4363ea863d0046e85c", "lon": -77.04243416666667, "lat": 38.9084235, "type": "electric_scooter", "fusion_lon": 0.0, "is_reserved": 0, "bike_id": "e9532a1e04b1af4363ea863d0046e85c", "fusion_lat": 0.0, "is_disabled": 0, "rental_uris": {"ios": "https://dc.lft.to/lastmile_qr_scan", "android": "https://dc.lft.to/lastmile_qr_scan"}}, {"name": "0ebf431b4d4d4473af5ef7eb71c79b93", "lon": -77.048568, "lat": 38.906432, "type": "electric_scooter", "fusion_lon": 0.0, "is_reserved": 0, "bike_id": "0ebf431b4d4d4473af5ef7eb71c79b93", "fusion_lat": 0.0, "is_disabled": 0, "rental_uris": {"ios": "https://dc.lft.to/lastmile_qr_scan", "android": "https://dc.lft.to/lastmile_qr_scan"}}, {"name": "be19ce4a05044ccb977c9138d29a74f2", "lon": -77.04329066666666, "lat": 38.8922605, "type": "electric_scooter", "fusion_lon": 0.0, "is_reserved": 0, "bike_id": "be19ce4a05044ccb977c9138d29a74f2", "fusion_lat": 0.0, "is_disabled": 0, "rental_uris": {"ios": "https://dc.lft.to/lastmile_qr_scan", "android": "https://dc.lft.to/lastmile_qr_scan"}}, {"name": "cbe804beeaa3d4bd3f8b74015d502cdf", "lon": -77.03662433333334, "lat": 38.9363155, "type": "electric_scooter", "fusion_lon": 0.0, "is_reserved": 0, "bike_id": "cbe804beeaa3d4bd3f8b74015d502cdf", "fusion_lat": 0.0, "is_disabled": 0, "rental_uris": {"ios": "https://dc.lft.to/lastmile_qr_scan", "android": "https://dc.lft.to/lastmile_qr_scan"}}, {"name": "587566aac3f38587eac1943046246468", "lon": -77.0019445, "lat": 38.900382666666665, "type": "electric_scooter", "fusion_lon": 0.0, "is_reserved": 0, "bike_id": "587566aac3f38587eac1943046246468", "fusion_lat": 0.0, "is_disabled": 0, "rental_uris": {"ios": "https://dc.lft.to/lastmile_qr_scan", "android": "https://dc.lft.to/lastmile_qr_scan"}}, {"name": "f1d3c30f8980711854532547cecd76d5", "lon": -77.0090195, "lat": 38.8819525, "type": "electric_scooter", "fusion_lon": 0.0, "is_reserved": 0, "bike_id": "f1d3c30f8980711854532547cecd76d5", "fusion_lat": 0.0, "is_disabled": 0, "rental_uris": {"ios": "https://dc.lft.to/lastmile_qr_scan", "android": "https://dc.lft.to/lastmile_qr_scan"}}, {"name": "b2c39b7f553fb49c557c062fd8f0b15a", "lon": -77.0493845, "lat": 38.90055616666667, "type": "electric_scooter", "fusion_lon": 0.0, "is_reserved": 0, "bike_id": "b2c39b7f553fb49c557c062fd8f0b15a", "fusion_lat": 0.0, "is_disabled": 0, "rental_uris": {"ios": "https://dc.lft.to/lastmile_qr_scan", "android": "https://dc.lft.to/lastmile_qr_scan"}}, {"name": "26e5851cbf47d053a45d874700ed2298", "lon": -77.02674066666667, "lat": 38.89614266666667, "type": "electric_scooter", "fusion_lon": 0.0, "is_reserved": 0, "bike_id": "26e5851cbf47d053a45d874700ed2298", "fusion_lat": 0.0, "is_disabled": 0, "rental_uris": {"ios": "https://dc.lft.to/lastmile_qr_scan", "android": "https://dc.lft.to/lastmile_qr_scan"}}, {"name": "49452364232e3eb38ad2b625453f2e27", "lon": -77.03374433333333, "lat": 38.93235766666667, "type": "electric_scooter", "fusion_lon": 0.0, "is_reserved": 0, "bike_id": "49452364232e3eb38ad2b625453f2e27", "fusion_lat": 0.0, "is_disabled": 0, "rental_uris": {"ios": "https://dc.lft.to/lastmile_qr_scan", "android": "https://dc.lft.to/lastmile_qr_scan"}}, {"name": "d0924db9d647792304ea7730c01b9df6", "lon": -77.04468083333333, "lat": 38.90574216666667, "type": "electric_scooter", "fusion_lon": 0.0, "is_reserved": 0, "bike_id": "d0924db9d647792304ea7730c01b9df6", "fusion_lat": 0.0, "is_disabled": 0, "rental_uris": {"ios": "https://dc.lft.to/lastmile_qr_scan", "android": "https://dc.lft.to/lastmile_qr_scan"}}, {"name": "87f84736484557a9c2d08628efb341b9", "lon": -76.98541333333333, "lat": 38.866522333333336, "type": "electric_scooter", "fusion_lon": 0.0, "is_reserved": 0, "bike_id": "87f84736484557a9c2d08628efb341b9", "fusion_lat": 0.0, "is_disabled": 0, "rental_uris": {"ios": "https://dc.lft.to/lastmile_qr_scan", "android": "https://dc.lft.to/lastmile_qr_scan"}}, {"name": "81cd3fa1f3e6c3b084e31430be2e0926", "lon": -77.04869333333333, "lat": 38.906368666666665, "type": "electric_scooter", "fusion_lon": 0.0, "is_reserved": 0, "bike_id": "81cd3fa1f3e6c3b084e31430be2e0926", "fusion_lat": 0.0, "is_disabled": 0, "rental_uris": {"ios": "https://dc.lft.to/lastmile_qr_scan", "android": "https://dc.lft.to/lastmile_qr_scan"}}, {"name": "c5c94eb655ad114a89b05fbe52a8d215", "lon": -77.02811516666667, "lat": 38.881787833333334, "type": "electric_scooter", "fusion_lon": 0.0, "is_reserved": 0, "bike_id": "c5c94eb655ad114a89b05fbe52a8d215", "fusion_lat": 0.0, "is_disabled": 0, "rental_uris": {"ios": "https://dc.lft.to/lastmile_qr_scan", "android": "https://dc.lft.to/lastmile_qr_scan"}}, {"name": "51f8f9bbd3a7844f8f1b7e1720a1d7a5", "lon": -77.04326983333333, "lat": 38.9079885, "type": "electric_scooter", "fusion_lon": 0.0, "is_reserved": 0, "bike_id": "51f8f9bbd3a7844f8f1b7e1720a1d7a5", "fusion_lat": 0.0, "is_disabled": 0, "rental_uris": {"ios": "https://dc.lft.to/lastmile_qr_scan", "android": "https://dc.lft.to/lastmile_qr_scan"}}, {"name": "6d1d8235e55f1b5e37e6e13d95f363b8", "lon": -77.06934583333333, "lat": 38.90782166666666, "type": "electric_scooter", "fusion_lon": 0.0, "is_reserved": 0, "bike_id": "6d1d8235e55f1b5e37e6e13d95f363b8", "fusion_lat": 0.0, "is_disabled": 0, "rental_uris": {"ios": "https://dc.lft.to/lastmile_qr_scan", "android": "https://dc.lft.to/lastmile_qr_scan"}}, {"name": "5cb82ad96aeafcf3b838598e794c5313", "lon": -77.03085983333334, "lat": 38.93168583333333, "type": "electric_scooter", "fusion_lon": 0.0, "is_reserved": 0, "bike_id": "5cb82ad96aeafcf3b838598e794c5313", "fusion_lat": 0.0, "is_disabled": 0, "rental_uris": {"ios": "https://dc.lft.to/lastmile_qr_scan", "android": "https://dc.lft.to/lastmile_qr_scan"}}, {"name": "042ebcaf7578f32ec385df4b5914aeea", "lon": -77.046331, "lat": 38.915875, "type": "electric_scooter", "fusion_lon": 0.0, "is_reserved": 0, "bike_id": "042ebcaf7578f32ec385df4b5914aeea", "fusion_lat": 0.0, "is_disabled": 0, "rental_uris": {"ios": "https://dc.lft.to/lastmile_qr_scan", "android": "https://dc.lft.to/lastmile_qr_scan"}}, {"name": "1e09b571b6b9f2b2a7d5fa1203473a26", "lon": -77.03971566666667, "lat": 38.902576, "type": "electric_scooter", "fusion_lon": 0.0, "is_reserved": 0, "bike_id": "1e09b571b6b9f2b2a7d5fa1203473a26", "fusion_lat": 0.0, "is_disabled": 0, "rental_uris": {"ios": "https://dc.lft.to/lastmile_qr_scan", "android": "https://dc.lft.to/lastmile_qr_scan"}}, {"name": "613a857de8d622034e98236d09ea7e18", "lon": -77.0410515, "lat": 38.91775166666667, "type": "electric_scooter", "fusion_lon": 0.0, "is_reserved": 0, "bike_id": "613a857de8d622034e98236d09ea7e18", "fusion_lat": 0.0, "is_disabled": 0, "rental_uris": {"ios": "https://dc.lft.to/lastmile_qr_scan", "android": "https://dc.lft.to/lastmile_qr_scan"}}, {"name": "55136bacc81a6f093c2b1e2a74738fe0", "lon": -77.021359, "lat": 38.937635666666665, "type": "electric_scooter", "fusion_lon": 0.0, "is_reserved": 0, "bike_id": "55136bacc81a6f093c2b1e2a74738fe0", "fusion_lat": 0.0, "is_disabled": 0, "rental_uris": {"ios": "https://dc.lft.to/lastmile_qr_scan", "android": "https://dc.lft.to/lastmile_qr_scan"}}, {"name": "c001e4ce53587696c505c34bef32427e", "lon": -76.96870766666666, "lat": 38.870985, "type": "electric_scooter", "fusion_lon": 0.0, "is_reserved": 0, "bike_id": "c001e4ce53587696c505c34bef32427e", "fusion_lat": 0.0, "is_disabled": 0, "rental_uris": {"ios": "https://dc.lft.to/lastmile_qr_scan", "android": "https://dc.lft.to/lastmile_qr_scan"}}, {"name": "9f14c9944d122adf22344e959ba41529", "lon": -77.0385335, "lat": 38.921693, "type": "electric_scooter", "fusion_lon": 0.0, "is_reserved": 0, "bike_id": "9f14c9944d122adf22344e959ba41529", "fusion_lat": 0.0, "is_disabled": 0, "rental_uris": {"ios": "https://dc.lft.to/lastmile_qr_scan", "android": "https://dc.lft.to/lastmile_qr_scan"}}, {"name": "3df77f85bb60284ec381d09b060affc2", "lon": -77.034408, "lat": 38.91011866666667, "type": "electric_scooter", "fusion_lon": 0.0, "is_reserved": 0, "bike_id": "3df77f85bb60284ec381d09b060affc2", "fusion_lat": 0.0, "is_disabled": 0, "rental_uris": {"ios": "https://dc.lft.to/lastmile_qr_scan", "android": "https://dc.lft.to/lastmile_qr_scan"}}, {"name": "a8af42aaadef4f9136ae1e4d4f4e55eb", "lon": -77.02301216666666, "lat": 38.91788666666667, "type": "electric_scooter", "fusion_lon": 0.0, "is_reserved": 0, "bike_id": "a8af42aaadef4f9136ae1e4d4f4e55eb", "fusion_lat": 0.0, "is_disabled": 0, "rental_uris": {"ios": "https://dc.lft.to/lastmile_qr_scan", "android": "https://dc.lft.to/lastmile_qr_scan"}}, {"name": "0604ee0abd43bb015c4f6b77f5230e98", "lon": -76.96011266666666, "lat": 38.89647266666667, "type": "electric_scooter", "fusion_lon": 0.0, "is_reserved": 0, "bike_id": "0604ee0abd43bb015c4f6b77f5230e98", "fusion_lat": 0.0, "is_disabled": 0, "rental_uris": {"ios": "https://dc.lft.to/lastmile_qr_scan", "android": "https://dc.lft.to/lastmile_qr_scan"}}, {"name": "79ddb7db6b18d6280067d96a3154deb2", "lon": -77.00225483333334, "lat": 38.9251125, "type": "electric_scooter", "fusion_lon": 0.0, "is_reserved": 0, "bike_id": "79ddb7db6b18d6280067d96a3154deb2", "fusion_lat": 0.0, "is_disabled": 0, "rental_uris": {"ios": "https://dc.lft.to/lastmile_qr_scan", "android": "https://dc.lft.to/lastmile_qr_scan"}}, {"name": "4755f507ffcc8a8cf4b86813a17f89ac", "lon": -76.9809535, "lat": 38.95355966666666, "type": "electric_bike", "fusion_lon": 0.0, "is_reserved": 0, "bike_id": "4755f507ffcc8a8cf4b86813a17f89ac", "fusion_lat": 0.0, "is_disabled": 0, "rental_uris": {"ios": "https://dc.lft.to/lastmile_qr_scan", "android": "https://dc.lft.to/lastmile_qr_scan"}}, {"name": "ba7833e0f9871fa2e0c55f46b7dfd854", "lon": -77.0114135, "lat": 38.9064425, "type": "electric_scooter", "fusion_lon": 0.0, "is_reserved": 0, "bike_id": "ba7833e0f9871fa2e0c55f46b7dfd854", "fusion_lat": 0.0, "is_disabled": 0, "rental_uris": {"ios": "https://dc.lft.to/lastmile_qr_scan", "android": "https://dc.lft.to/lastmile_qr_scan"}}, {"name": "ff6beb4fa96521499ba10a5f4c142f18", "lon": -77.04176166666667, "lat": 38.91942866666667, "type": "electric_scooter", "fusion_lon": 0.0, "is_reserved": 0, "bike_id": "ff6beb4fa96521499ba10a5f4c142f18", "fusion_lat": 0.0, "is_disabled": 0, "rental_uris": {"ios": "https://dc.lft.to/lastmile_qr_scan", "android": "https://dc.lft.to/lastmile_qr_scan"}}, {"name": "8e18aa7ad04b6391e91a2dbf066bbf0c", "lon": -77.02443383333333, "lat": 38.909746, "type": "electric_scooter", "fusion_lon": 0.0, "is_reserved": 0, "bike_id": "8e18aa7ad04b6391e91a2dbf066bbf0c", "fusion_lat": 0.0, "is_disabled": 0, "rental_uris": {"ios": "https://dc.lft.to/lastmile_qr_scan", "android": "https://dc.lft.to/lastmile_qr_scan"}}, {"name": "eecfc8ba643ebadea7fe05e9cb6fc8cf", "lon": -76.9901685, "lat": 38.90504283333333, "type": "electric_scooter", "fusion_lon": 0.0, "is_reserved": 0, "bike_id": "eecfc8ba643ebadea7fe05e9cb6fc8cf", "fusion_lat": 0.0, "is_disabled": 0, "rental_uris": {"ios": "https://dc.lft.to/lastmile_qr_scan", "android": "https://dc.lft.to/lastmile_qr_scan"}}, {"name": "b1d8608b8fc6710134591e72ab9e0b00", "lon": -77.015339, "lat": 38.88743316666667, "type": "electric_scooter", "fusion_lon": 0.0, "is_reserved": 0, "bike_id": "b1d8608b8fc6710134591e72ab9e0b00", "fusion_lat": 0.0, "is_disabled": 0, "rental_uris": {"ios": "https://dc.lft.to/lastmile_qr_scan", "android": "https://dc.lft.to/lastmile_qr_scan"}}, {"name": "d045e423de8780cf184f325a5d9f2cf6", "lon": -77.00190033333334, "lat": 38.9001925, "type": "electric_scooter", "fusion_lon": 0.0, "is_reserved": 0, "bike_id": "d045e423de8780cf184f325a5d9f2cf6", "fusion_lat": 0.0, "is_disabled": 0, "rental_uris": {"ios": "https://dc.lft.to/lastmile_qr_scan", "android": "https://dc.lft.to/lastmile_qr_scan"}}, {"name": "215e46aa9202241a7afcedfe010ed4e1", "lon": -77.04468733333333, "lat": 38.91894283333333, "type": "electric_scooter", "fusion_lon": 0.0, "is_reserved": 0, "bike_id": "215e46aa9202241a7afcedfe010ed4e1", "fusion_lat": 0.0, "is_disabled": 0, "rental_uris": {"ios": "https://dc.lft.to/lastmile_qr_scan", "android": "https://dc.lft.to/lastmile_qr_scan"}}, {"name": "23682bffc8318355596ce72e2847a511", "lon": -76.96608633333334, "lat": 38.8738885, "type": "electric_scooter", "fusion_lon": 0.0, "is_reserved": 0, "bike_id": "23682bffc8318355596ce72e2847a511", "fusion_lat": 0.0, "is_disabled": 0, "rental_uris": {"ios": "https://dc.lft.to/lastmile_qr_scan", "android": "https://dc.lft.to/lastmile_qr_scan"}}, {"name": "eab66297ede107a8b77e30135b8473c7", "lon": -77.0591625, "lat": 38.9010395, "type": "electric_scooter", "fusion_lon": 0.0, "is_reserved": 0, "bike_id": "eab66297ede107a8b77e30135b8473c7", "fusion_lat": 0.0, "is_disabled": 0, "rental_uris": {"ios": "https://dc.lft.to/lastmile_qr_scan", "android": "https://dc.lft.to/lastmile_qr_scan"}}, {"name": "bae3c2030b1cff3ad41df9d042b5057e", "lon": -77.03429966666667, "lat": 38.905554, "type": "electric_scooter", "fusion_lon": 0.0, "is_reserved": 0, "bike_id": "bae3c2030b1cff3ad41df9d042b5057e", "fusion_lat": 0.0, "is_disabled": 0, "rental_uris": {"ios": "https://dc.lft.to/lastmile_qr_scan", "android": "https://dc.lft.to/lastmile_qr_scan"}}, {"name": "e33cf1e5fd5354d98d9f1d92fb0803cf", "lon": -77.04713766666667, "lat": 38.897457833333334, "type": "electric_scooter", "fusion_lon": 0.0, "is_reserved": 0, "bike_id": "e33cf1e5fd5354d98d9f1d92fb0803cf", "fusion_lat": 0.0, "is_disabled": 0, "rental_uris": {"ios": "https://dc.lft.to/lastmile_qr_scan", "android": "https://dc.lft.to/lastmile_qr_scan"}}, {"name": "9b9306cf234fe83bd1cda7dcd0bc987f", "lon": -76.93648366666666, "lat": 38.871540333333336, "type": "electric_bike", "fusion_lon": 0.0, "is_reserved": 0, "bike_id": "9b9306cf234fe83bd1cda7dcd0bc987f", "fusion_lat": 0.0, "is_disabled": 0, "rental_uris": {"ios": "https://dc.lft.to/lastmile_qr_scan", "android": "https://dc.lft.to/lastmile_qr_scan"}}, {"name": "0bd649091a4ee9941adafb0208818bea", "lon": -77.051433, "lat": 38.904464833333336, "type": "electric_scooter", "fusion_lon": 0.0, "is_reserved": 0, "bike_id": "0bd649091a4ee9941adafb0208818bea", "fusion_lat": 0.0, "is_disabled": 0, "rental_uris": {"ios": "https://dc.lft.to/lastmile_qr_scan", "android": "https://dc.lft.to/lastmile_qr_scan"}}, {"name": "23f2fe9da84c320781a1dc044a1700f3", "lon": -77.01197766666667, "lat": 38.91709816666667, "type": "electric_scooter", "fusion_lon": 0.0, "is_reserved": 0, "bike_id": "23f2fe9da84c320781a1dc044a1700f3", "fusion_lat": 0.0, "is_disabled": 0, "rental_uris": {"ios": "https://dc.lft.to/lastmile_qr_scan", "android": "https://dc.lft.to/lastmile_qr_scan"}}, {"name": "70599b2b03db6165cbec0004a1527ac8", "lon": -77.0469785, "lat": 38.92178766666667, "type": "electric_scooter", "fusion_lon": 0.0, "is_reserved": 0, "bike_id": "70599b2b03db6165cbec0004a1527ac8", "fusion_lat": 0.0, "is_disabled": 0, "rental_uris": {"ios": "https://dc.lft.to/lastmile_qr_scan", "android": "https://dc.lft.to/lastmile_qr_scan"}}, {"name": "cf1421a5a33b774ec9c180210740f726", "lon": -76.98534116666667, "lat": 38.88082416666666, "type": "electric_bike", "fusion_lon": 0.0, "is_reserved": 0, "bike_id": "cf1421a5a33b774ec9c180210740f726", "fusion_lat": 0.0, "is_disabled": 0, "rental_uris": {"ios": "https://dc.lft.to/lastmile_qr_scan", "android": "https://dc.lft.to/lastmile_qr_scan"}}, {"name": "d25cf066f6de9c977f37b8950a967ba6", "lon": -77.02683116666667, "lat": 38.927867666666664, "type": "electric_scooter", "fusion_lon": 0.0, "is_reserved": 0, "bike_id": "d25cf066f6de9c977f37b8950a967ba6", "fusion_lat": 0.0, "is_disabled": 0, "rental_uris": {"ios": "https://dc.lft.to/lastmile_qr_scan", "android": "https://dc.lft.to/lastmile_qr_scan"}}, {"name": "03bd2893c9da837c9a3be0a63291bafe", "lon": -77.03435933333333, "lat": 38.918082166666665, "type": "electric_scooter", "fusion_lon": 0.0, "is_reserved": 0, "bike_id": "03bd2893c9da837c9a3be0a63291bafe", "fusion_lat": 0.0, "is_disabled": 0, "rental_uris": {"ios": "https://dc.lft.to/lastmile_qr_scan", "android": "https://dc.lft.to/lastmile_qr_scan"}}, {"name": "6674fab0970b92c15a6910a74e9e5667", "lon": -77.03178166666666, "lat": 38.91926383333333, "type": "electric_scooter", "fusion_lon": 0.0, "is_reserved": 0, "bike_id": "6674fab0970b92c15a6910a74e9e5667", "fusion_lat": 0.0, "is_disabled": 0, "rental_uris": {"ios": "https://dc.lft.to/lastmile_qr_scan", "android": "https://dc.lft.to/lastmile_qr_scan"}}, {"name": "0b499e18b323235582a351034498da65", "lon": -76.998334, "lat": 38.8832175, "type": "electric_scooter", "fusion_lon": 0.0, "is_reserved": 0, "bike_id": "0b499e18b323235582a351034498da65", "fusion_lat": 0.0, "is_disabled": 0, "rental_uris": {"ios": "https://dc.lft.to/lastmile_qr_scan", "android": "https://dc.lft.to/lastmile_qr_scan"}}, {"name": "cf1dc563d8c1d4d2e22e90f24673b6c2", "lon": -77.0301915, "lat": 38.99149833333333, "type": "electric_bike", "fusion_lon": 0.0, "is_reserved": 0, "bike_id": "cf1dc563d8c1d4d2e22e90f24673b6c2", "fusion_lat": 0.0, "is_disabled": 0, "rental_uris": {"ios": "https://dc.lft.to/lastmile_qr_scan", "android": "https://dc.lft.to/lastmile_qr_scan"}}, {"name": "818e20996be6a4ab6b1a69e251612210", "lon": -77.02125933333333, "lat": 38.9241265, "type": "electric_scooter", "fusion_lon": 0.0, "is_reserved": 0, "bike_id": "818e20996be6a4ab6b1a69e251612210", "fusion_lat": 0.0, "is_disabled": 0, "rental_uris": {"ios": "https://dc.lft.to/lastmile_qr_scan", "android": "https://dc.lft.to/lastmile_qr_scan"}}, {"name": "dfdc597ddb7119cad36d14d8a3e9a4e1", "lon": -76.99354516666666, "lat": 38.845056666666665, "type": "electric_bike", "fusion_lon": 0.0, "is_reserved": 0, "bike_id": "dfdc597ddb7119cad36d14d8a3e9a4e1", "fusion_lat": 0.0, "is_disabled": 0, "rental_uris": {"ios": "https://dc.lft.to/lastmile_qr_scan", "android": "https://dc.lft.to/lastmile_qr_scan"}}, {"name": "f16e6bea804857df8a14677f0ca832bf", "lon": -77.001259, "lat": 38.87801266666666, "type": "electric_scooter", "fusion_lon": 0.0, "is_reserved": 0, "bike_id": "f16e6bea804857df8a14677f0ca832bf", "fusion_lat": 0.0, "is_disabled": 0, "rental_uris": {"ios": "https://dc.lft.to/lastmile_qr_scan", "android": "https://dc.lft.to/lastmile_qr_scan"}}, {"name": "a78d249c7a3c51c2dba6d058b55fce31", "lon": -77.02707466666666, "lat": 38.90677216666667, "type": "electric_scooter", "fusion_lon": 0.0, "is_reserved": 0, "bike_id": "a78d249c7a3c51c2dba6d058b55fce31", "fusion_lat": 0.0, "is_disabled": 0, "rental_uris": {"ios": "https://dc.lft.to/lastmile_qr_scan", "android": "https://dc.lft.to/lastmile_qr_scan"}}, {"name": "dddb624499804f0446c5bd896a74a6ff", "lon": -77.0400265, "lat": 38.888709166666665, "type": "electric_scooter", "fusion_lon": 0.0, "is_reserved": 0, "bike_id": "dddb624499804f0446c5bd896a74a6ff", "fusion_lat": 0.0, "is_disabled": 0, "rental_uris": {"ios": "https://dc.lft.to/lastmile_qr_scan", "android": "https://dc.lft.to/lastmile_qr_scan"}}, {"name": "2409dcd990e4b2785a8ffbf77fbb17cf", "lon": -77.03373083333334, "lat": 38.92046166666667, "type": "electric_scooter", "fusion_lon": 0.0, "is_reserved": 0, "bike_id": "2409dcd990e4b2785a8ffbf77fbb17cf", "fusion_lat": 0.0, "is_disabled": 0, "rental_uris": {"ios": "https://dc.lft.to/lastmile_qr_scan", "android": "https://dc.lft.to/lastmile_qr_scan"}}, {"name": "dc305dc19dbf62b8a5b08438dc059a24", "lon": -77.034271, "lat": 38.966237, "type": "electric_bike", "fusion_lon": 0.0, "is_reserved": 0, "bike_id": "dc305dc19dbf62b8a5b08438dc059a24", "fusion_lat": 0.0, "is_disabled": 0, "rental_uris": {"ios": "https://dc.lft.to/lastmile_qr_scan", "android": "https://dc.lft.to/lastmile_qr_scan"}}, {"name": "05f61065e16c446209e285868199e8b2", "lon": -77.05328933333334, "lat": 38.927981333333335, "type": "electric_scooter", "fusion_lon": 0.0, "is_reserved": 0, "bike_id": "05f61065e16c446209e285868199e8b2", "fusion_lat": 0.0, "is_disabled": 0, "rental_uris": {"ios": "https://dc.lft.to/lastmile_qr_scan", "android": "https://dc.lft.to/lastmile_qr_scan"}}, {"name": "8293fc66a913f388fe25a11f3f435de1", "lon": -77.00777733333334, "lat": 38.926705166666665, "type": "electric_scooter", "fusion_lon": 0.0, "is_reserved": 0, "bike_id": "8293fc66a913f388fe25a11f3f435de1", "fusion_lat": 0.0, "is_disabled": 0, "rental_uris": {"ios": "https://dc.lft.to/lastmile_qr_scan", "android": "https://dc.lft.to/lastmile_qr_scan"}}, {"name": "5fd4a25d7454fc640efa78bc570da21e", "lon": -76.9852135, "lat": 38.866576333333335, "type": "electric_scooter", "fusion_lon": 0.0, "is_reserved": 0, "bike_id": "5fd4a25d7454fc640efa78bc570da21e", "fusion_lat": 0.0, "is_disabled": 0, "rental_uris": {"ios": "https://dc.lft.to/lastmile_qr_scan", "android": "https://dc.lft.to/lastmile_qr_scan"}}, {"name": "bac4e9c94cfa41cf9f073b170ef68496", "lon": -77.01462433333333, "lat": 38.91777066666667, "type": "electric_scooter", "fusion_lon": 0.0, "is_reserved": 0, "bike_id": "bac4e9c94cfa41cf9f073b170ef68496", "fusion_lat": 0.0, "is_disabled": 0, "rental_uris": {"ios": "https://dc.lft.to/lastmile_qr_scan", "android": "https://dc.lft.to/lastmile_qr_scan"}}, {"name": "9094ea8d02a2e1036b2cfe84e33b6472", "lon": -76.9724785, "lat": 38.8546095, "type": "electric_bike", "fusion_lon": 0.0, "is_reserved": 0, "bike_id": "9094ea8d02a2e1036b2cfe84e33b6472", "fusion_lat": 0.0, "is_disabled": 0, "rental_uris": {"ios": "https://dc.lft.to/lastmile_qr_scan", "android": "https://dc.lft.to/lastmile_qr_scan"}}, {"name": "c44a1c40e929bfda48ace4a0123effb6", "lon": -77.04285266666666, "lat": 38.9267715, "type": "electric_scooter", "fusion_lon": 0.0, "is_reserved": 0, "bike_id": "c44a1c40e929bfda48ace4a0123effb6", "fusion_lat": 0.0, "is_disabled": 0, "rental_uris": {"ios": "https://dc.lft.to/lastmile_qr_scan", "android": "https://dc.lft.to/lastmile_qr_scan"}},