{"data": {"bikes": [{"fusion_lat": 0.0, "name": "385c109c18d1f0c753ddf30eba845836", "is_disabled": 0, "rental_uris": {"android": "https://dc.lft.to/lastmile_qr_scan", "ios": "https://dc.lft.to/lastmile_qr_scan"}, "fusion_lon": 0.0, "lat": 38.9215075, "bike_id": "385c109c18d1f0c753ddf30eba845836", "type": "electric_scooter", "is_reserved": 0, "lon": -77.04346983333333}, {"fusion_lat": 0.0, "name": "d25f559091da68a98bd2040f5737c98b", "is_disabled": 0, "rental_uris": {"android": "https://dc.lft.to/lastmile_qr_scan", "ios": "https://dc.lft.to/lastmile_qr_scan"}, "fusion_lon": 0.0, "lat": 38.91482766666667, "bike_id": "d25f559091da68a98bd2040f5737c98b", "type": "electric_scooter", "is_reserved": 0, "lon": -77.04260133333334}, {"fusion_lat": 0.0, "name": "cb673ff9ee4d58d9f0edb2e17f6e847d", "is_disabled": 0, "rental_uris": {"android": "https://dc.lft.to/lastmile_qr_scan", "ios": "https://dc.lft.to/lastmile_qr_scan"}, "fusion_lon": 0.0, "lat": 38.908095833333334, "bike_id": "cb673ff9ee4d58d9f0edb2e17f6e847d", "type": "electric_scooter", "is_reserved": 0, "lon": -77.04169466666667}, {"fusion_lat": 0.0, "name": "b1d666edf6c1b13354ab328de2773c54", "is_disabled": 0, "rental_uris": {"android": "https://dc.lft.to/lastmile_qr_scan", "ios": "https://dc.lft.to/lastmile_qr_scan"}, "fusion_lon": 0.0, "lat": 38.90760216666666, "bike_id": "b1d666edf6c1b13354ab328de2773c54", "type": "electric_scooter", "is_reserved": 0, "lon": -77.03585783333334}, {"fusion_lat": 0.0, "name": "a8116ba624516f6c9b51d13eaf842149", "is_disabled": 0, "rental_uris": {"android": "https://dc.lft.to/lastmile_qr_scan", "ios": "https://dc.lft.to/lastmile_qr_scan"}, "fusion_lon": 0.0, "lat": 38.905651, "bike_id": "a8116ba624516f6c9b51d13eaf842149", "type": "electric_scooter", "is_reserved": 0, "lon": -77.008047}, {"fusion_lat": 0.0, "name": "20af027e5753b7bb85ff7d3a1e817549", "is_disabled": 0, "rental_uris": {"android": "https://dc.lft.to/lastmile_qr_scan", "ios": "https://dc.lft.to/lastmile_qr_scan"}, "fusion_lon": 0.0, "lat": 38.93049083333333, "bike_id": "20af027e5753b7bb85ff7d3a1e817549", "type": "electric_bike", "is_reserved": 0, "lon": -77.0389465}, {"fusion_lat": 0.0, "name": "ff3b7d04a509649e35c84ac6d32ed0f9", "is_disabled": 0, "rental_uris": {"android": "https://dc.lft.to/lastmile_qr_scan", "ios": "https://dc.lft.to/lastmile_qr_scan"}, "fusion_lon": 0.0, "lat": 38.928417, "bike_id": "ff3b7d04a509649e35c84ac6d32ed0f9", "type": "electric_bike", "is_reserved": 0, "lon": -77.02055266666666}, {"fusion_lat": 0.0, "name": "699ae47483ee629feb8a42b01799bf62", "is_disabled": 0, "rental_uris": {"android": "https://dc.lft.to/lastmile_qr_scan", "ios": "https://dc.lft.to/lastmile_qr_scan"}, "fusion_lon": 0.0, "lat": 38.897433666666664, "bike_id": "699ae47483ee629feb8a42b01799bf62", "type": "electric_scooter", "is_reserved": 0, "lon": -77.0328}, {"fusion_lat": 0.0, "name": "8ca84eae2c48baaa3472071b34864169", "is_disabled": 0, "rental_uris": {"android": "https://dc.lft.to/lastmile_qr_scan", "ios": "https://dc.lft.to/lastmile_qr_scan"}, "fusion_lon": 0.0, "lat": 38.912668833333335, "bike_id": "8ca84eae2c48baaa3472071b34864169", "type": "electric_scooter", "is_reserved": 0, "lon": -77.0403765}, {"fusion_lat": 0.0, "name": "7492ea3dd3de345ea25c6566464c99de", "is_disabled": 0, "rental_uris": {"android": "https://dc.lft.to/lastmile_qr_scan", "ios": "https://dc.lft.to/lastmile_qr_scan"}, "fusion_lon": 0.0, "lat": 38.897676, "bike_id": "7492ea3dd3de345ea25c6566464c99de", "type": "electric_scooter", "is_reserved": 0, "lon": -77.04495283333333}, {"fusion_lat": 0.0, "name": "8dbde41e6673dd405f34329e6df9920b", "is_disabled": 0, "rental_uris": {"android": "https://dc.lft.to/lastmile_qr_scan", "ios": "https://dc.lft.to/lastmile_qr_scan"}, "fusion_lon": 0.0, "lat": 38.900223833333335, "bike_id": "8dbde41e6673dd405f34329e6df9920b", "type": "electric_scooter", "is_reserved": 0, "lon": -76.9997525}, {"fusion_lat": 0.0, "name": "c43cbc7418ac856edb5bb33c930ed475", "is_disabled": 0, "rental_uris": {"android": "https://dc.lft.to/lastmile_qr_scan", "ios": "https://dc.lft.to/lastmile_qr_scan"}, "fusion_lon": 0.0, "lat": 38.876495, "bike_id": "c43cbc7418ac856edb5bb33c930ed475", "type": "electric_scooter", "is_reserved": 0, "lon": -77.00338966666666}, {"fusion_lat": 0.0, "name": "c703093964366a63d1f8a895813a93e1", "is_disabled": 0, "rental_uris": {"android": "https://dc.lft.to/lastmile_qr_scan", "ios": "https://dc.lft.to/lastmile_qr_scan"}, "fusion_lon": 0.0, "lat": 38.9276475, "bike_id": "c703093964366a63d1f8a895813a93e1", "type": "electric_scooter", "is_reserved": 0, "lon": -77.0324815}, {"fusion_lat": 0.0, "name": "5447b0110d102bbf1e2f5dff14922125", "is_disabled": 0, "rental_uris": {"android": "https://dc.lft.to/lastmile_qr_scan", "ios": "https://dc.lft.to/lastmile_qr_scan"}, "fusion_lon": 0.0, "lat": 38.92430916666667, "bike_id": "5447b0110d102bbf1e2f5dff14922125", "type": "electric_scooter", "is_reserved": 0, "lon": -77.02720683333334}, {"fusion_lat": 0.0, "name": "d5dacae250a79d2f26ee514bfb4e005b", "is_disabled": 0, "rental_uris": {"android": "https://dc.lft.to/lastmile_qr_scan", "ios": "https://dc.lft.to/lastmile_qr_scan"}, "fusion_lon": 0.0, "lat": 38.906500666666666, "bike_id": "d5dacae250a79d2f26ee514bfb4e005b", "type": "electric_scooter", "is_reserved": 0, "lon": -77.0433135}, {"fusion_lat": 0.0, "name": "e230cde2ccd6618437a2cd8291e53c05", "is_disabled": 0, "rental_uris": {"android": "https://dc.lft.to/lastmile_qr_scan", "ios": "https://dc.lft.to/lastmile_qr_scan"}, "fusion_lon": 0.0, "lat": 38.90082366666667, "bike_id": "e230cde2ccd6618437a2cd8291e53c05", "type": "electric_scooter", "is_reserved": 0, "lon": -77.050569}, {"fusion_lat": 0.0, "name": "94792619e6cf017b067c0c7058a8d886", "is_disabled": 0, "rental_uris": {"android": "https://dc.lft.to/lastmile_qr_scan", "ios": "https://dc.lft.to/lastmile_qr_scan"}, "fusion_lon": 0.0, "lat": 38.922384666666666, "bike_id": "94792619e6cf017b067c0c7058a8d886", "type": "electric_scooter", "is_reserved": 0, "lon": -77.0425225}, {"fusion_lat": 0.0, "name": "233fc3d4af7302ea2b6b11e7e31e39b4", "is_disabled": 0, "rental_uris": {"android": "https://dc.lft.to/lastmile_qr_scan", "ios": "https://dc.lft.to/lastmile_qr_scan"}, "fusion_lon": 0.0, "lat": 38.897261666666665, "bike_id": "233fc3d4af7302ea2b6b11e7e31e39b4", "type": "electric_scooter", "is_reserved": 0, "lon": -77.00207183333333}, {"fusion_lat": 0.0, "name": "a6ee4e1be507cd3e65ab701f960981ea", "is_disabled": 0, "rental_uris": {"android": "https://dc.lft.to/lastmile_qr_scan", "ios": "https://dc.lft.to/lastmile_qr_scan"}, "fusion_lon": 0.0, "lat": 38.920769666666665, "bike_id": "a6ee4e1be507cd3e65ab701f960981ea", "type": "electric_scooter", "is_reserved": 0, "lon": -77.02315116666666}, {"fusion_lat": 0.0, "name": "872b79e9f7472cd5ff46272e0f2bdc1a", "is_disabled": 0, "rental_uris": {"android": "https://dc.lft.to/lastmile_qr_scan", "ios": "https://dc.lft.to/lastmile_qr_scan"}, "fusion_lon": 0.0, "lat": 38.923446166666665, "bike_id": "872b79e9f7472cd5ff46272e0f2bdc1a", "type": "electric_scooter", "is_reserved": 0, "lon": -77.05175583333333}, {"fusion_lat": 0.0, "name": "3fc34af68fd3d212e8e1b6e8c3a3c870", "is_disabled": 0, "rental_uris": {"android": "https://dc.lft.to/lastmile_qr_scan", "ios": "https://dc.lft.to/lastmile_qr_scan"}, "fusion_lon": 0.0, "lat": 38.900064666666665, "bike_id": "3fc34af68fd3d212e8e1b6e8c3a3c870", "type": "electric_scooter", "is_reserved": 0, "lon": -77.05419466666666}, {"fusion_lat": 0.0, "name": "c907e023fbbee5454954a0e228f5b277", "is_disabled": 0, "rental_uris": {"android": "https://dc.lft.to/lastmile_qr_scan", "ios": "https://dc.lft.to/lastmile_qr_scan"}, "fusion_lon": 0.0, "lat": 38.906274, "bike_id": "c907e023fbbee5454954a0e228f5b277", "type": "electric_scooter", "is_reserved": 0, "lon": -77.02533116666666}, {"fusion_lat": 0.0, "name": "0c148dfde133fcd7d6f95c065d2684e8", "is_disabled": 0, "rental_uris": {"android": "https://dc.lft.to/lastmile_qr_scan", "ios": "https://dc.lft.to/lastmile_qr_scan"}, "fusion_lon": 0.0, "lat": 38.88315883333333, "bike_id": "0c148dfde133fcd7d6f95c065d2684e8", "type": "electric_scooter", "is_reserved": 0, "lon": -77.01383666666666}, {"fusion_lat": 0.0, "name": "e07ae26e52ea288582b4ae8f73e26e8e", "is_disabled": 0, "rental_uris": {"android": "https://dc.lft.to/lastmile_qr_scan", "ios": "https://dc.lft.to/lastmile_qr_scan"}, "fusion_lon": 0.0, "lat": 38.9309875, "bike_id": "e07ae26e52ea288582b4ae8f73e26e8e", "type": "electric_scooter", "is_reserved": 0, "lon": -77.0342665}, {"fusion_lat": 0.0, "name": "036cb7ea7cbf3042598e2b79f016226c", "is_disabled": 0, "rental_uris": {"android": "https://dc.lft.to/lastmile_qr_scan", "ios": "https://dc.lft.to/lastmile_qr_scan"}, "fusion_lon": 0.0, "lat": 38.922987666666664, "bike_id": "036cb7ea7cbf3042598e2b79f016226c", "type": "electric_scooter", "is_reserved": 0, "lon": -77.02358366666667}, {"fusion_lat": 0.0, "name": "f125532289bc5de550e81459fe65aac9", "is_disabled": 0, "rental_uris": {"android": "https://dc.lft.to/lastmile_qr_scan", "ios": "https://dc.lft.to/lastmile_qr_scan"}, "fusion_lon": 0.0, "lat": 38.910008166666664, "bike_id": "f125532289bc5de550e81459fe65aac9", "type": "electric_scooter", "is_reserved": 0, "lon": -77.03470783333333}, {"fusion_lat": 0.0, "name": "e37853a97a77e739943ed294cc34cc35", "is_disabled": 0, "rental_uris": {"android": "https://dc.lft.to/lastmile_qr_scan", "ios": "https://dc.lft.to/lastmile_qr_scan"}, "fusion_lon": 0.0, "lat": 38.9094, "bike_id": "e37853a97a77e739943ed294cc34cc35", "type": "electric_scooter", "is_reserved": 0, "lon": -77.03186033333333}, {"fusion_lat": 0.0, "name": "c91346d0324a46932c1057b73fcbeb37", "is_disabled": 0, "rental_uris": {"android": "https://dc.lft.to/lastmile_qr_scan", "ios": "https://dc.lft.to/lastmile_qr_scan"}, "fusion_lon": 0.0, "lat": 38.916881333333336, "bike_id": "c91346d0324a46932c1057b73fcbeb37", "type": "electric_scooter", "is_reserved": 0, "lon": -77.02972283333334}, {"fusion_lat": 0.0, "name": "4bc047716d443c840c441b1a52e9cfbd", "is_disabled": 0, "rental_uris": {"android": "https://dc.lft.to/lastmile_qr_scan", "ios": "https://dc.lft.to/lastmile_qr_scan"}, "fusion_lon": 0.0, "lat": 38.8852845, "bike_id": "4bc047716d443c840c441b1a52e9cfbd", "type": "electric_scooter", "is_reserved": 0, "lon": -77.021915}, {"fusion_lat": 0.0, "name": "483572552ec77b202e9e2bdc13377af8", "is_disabled": 0, "rental_uris": {"android": "https://dc.lft.to/lastmile_qr_scan", "ios": "https://dc.lft.to/lastmile_qr_scan"}, "fusion_lon": 0.0, "lat": 38.90032716666666, "bike_id": "483572552ec77b202e9e2bdc13377af8", "type": "electric_scooter", "is_reserved": 0, "lon": -77.00206083333333}, {"fusion_lat": 0.0, "name": "d603a0caa6cd92019431a49632a87931", "is_disabled": 0, "rental_uris": {"android": "https://dc.lft.to/lastmile_qr_scan", "ios": "https://dc.lft.to/lastmile_qr_scan"}, "fusion_lon": 0.0, "lat": 38.928348, "bike_id": "d603a0caa6cd92019431a49632a87931", "type": "electric_scooter", "is_reserved": 0, "lon": -77.01412883333333}, {"fusion_lat": 0.0, "name": "ddc8f845586d5d8897f3d424522cd277", "is_disabled": 0, "rental_uris": {"android": "https://dc.lft.to/lastmile_qr_scan", "ios": "https://dc.lft.to/lastmile_qr_scan"}, "fusion_lon": 0.0, "lat": 38.86020716666667, "bike_id": "ddc8f845586d5d8897f3d424522cd277", "type": "electric_bike", "is_reserved": 0, "lon": -77.12808983333333}, {"fusion_lat": 0.0, "name": "c4a8db68e051c0f838d0564365eb44c2", "is_disabled": 0, "rental_uris": {"android": "https://dc.lft.to/lastmile_qr_scan", "ios": "https://dc.lft.to/lastmile_qr_scan"}, "fusion_lon": 0.0, "lat": 38.930779, "bike_id": "c4a8db68e051c0f838d0564365eb44c2", "type": "electric_scooter", "is_reserved": 0, "lon": -77.07761433333333}, {"fusion_lat": 0.0, "name": "429e063c6637b4b15d51f473abfab7a7", "is_disabled": 0, "rental_uris": {"android": "https://dc.lft.to/lastmile_qr_scan", "ios": "https://dc.lft.to/lastmile_qr_scan"}, "fusion_lon": 0.0, "lat": 38.954033, "bike_id": "429e063c6637b4b15d51f473abfab7a7", "type": "electric_scooter", "is_reserved": 0, "lon": -77.02793983333333}, {"fusion_lat": 0.0, "name": "ecf618429f1abeaff5eee5e8abc67f0f", "is_disabled": 0, "rental_uris": {"android": "https://dc.lft.to/lastmile_qr_scan", "ios": "https://dc.lft.to/lastmile_qr_scan"}, "fusion_lon": 0.0, "lat": 38.93182433333333, "bike_id": "ecf618429f1abeaff5eee5e8abc67f0f", "type": "electric_scooter", "is_reserved": 0, "lon": -77.03156183333333}, {"fusion_lat": 0.0, "name": "3339103b0b5ec276d997c961c4f27b48", "is_disabled": 0, "rental_uris": {"android": "https://dc.lft.to/lastmile_qr_scan", "ios": "https://dc.lft.to/lastmile_qr_scan"}, "fusion_lon": 0.0, "lat": 38.876577166666664, "bike_id": "3339103b0b5ec276d997c961c4f27b48", "type": "electric_scooter", "is_reserved": 0, "lon": -77.00077333333333}, {"fusion_lat": 0.0, "name": "09daa2a3dd6b58c40498bb62b92690ec", "is_disabled": 0, "rental_uris": {"android": "https://dc.lft.to/lastmile_qr_scan", "ios": "https://dc.lft.to/lastmile_qr_scan"}, "fusion_lon": 0.0, "lat": 38.9208465, "bike_id": "09daa2a3dd6b58c40498bb62b92690ec", "type": "electric_scooter", "is_reserved": 0, "lon": -77.03821883333333}, {"fusion_lat": 0.0, "name": "29e5ba975b9c93c82e551402c7aaf2e4", "is_disabled": 0, "rental_uris": {"android": "https://dc.lft.to/lastmile_qr_scan", "ios": "https://dc.lft.to/lastmile_qr_scan"}, "fusion_lon": 0.0, "lat": 38.866679, "bike_id": "29e5ba975b9c93c82e551402c7aaf2e4", "type": "electric_scooter", "is_reserved": 0, "lon": -76.98909033333334}, {"fusion_lat": 0.0, "name": "4365c13cff89a5b27e1d9cada7580ee5", "is_disabled": 0, "rental_uris": {"android": "https://dc.lft.to/lastmile_qr_scan", "ios": "https://dc.lft.to/lastmile_qr_scan"}, "fusion_lon": 0.0, "lat": 38.87441, "bike_id": "4365c13cff89a5b27e1d9cada7580ee5", "type": "electric_scooter", "is_reserved": 0, "lon": -77.00301433333334}, {"fusion_lat": 0.0, "name": "16174fa41c9f6a59ec59c22486cb9b7c", "is_disabled": 0, "rental_uris": {"android": "https://dc.lft.to/lastmile_qr_scan", "ios": "https://dc.lft.to/lastmile_qr_scan"}, "fusion_lon": 0.0, "lat": 38.9172555, "bike_id": "16174fa41c9f6a59ec59c22486cb9b7c", "type": "electric_scooter", "is_reserved": 0, "lon": -77.019178}, {"fusion_lat": 0.0, "name": "59162f692bba1ee4587b29c5c56e76eb", "is_disabled": 0, "rental_uris": {"android": "https://dc.lft.to/lastmile_qr_scan", "ios": "https://dc.lft.to/lastmile_qr_scan"}, "fusion_lon": 0.0, "lat": 38.914821333333336, "bike_id": "59162f692bba1ee4587b29c5c56e76eb", "type": "electric_scooter", "is_reserved": 0, "lon": -77.04606866666667}, {"fusion_lat": 0.0, "name": "ed5c1667daa211807be8b6f32851ad6e", "is_disabled": 0, "rental_uris": {"android": "https://dc.lft.to/lastmile_qr_scan", "ios": "https://dc.lft.to/lastmile_qr_scan"}, "fusion_lon": 0.0, "lat": 38.88930383333334, "bike_id": "ed5c1667daa211807be8b6f32851ad6e", "type": "electric_bike", "is_reserved": 0, "lon": -76.99175616666666}, {"fusion_lat": 0.0, "name": "50c069147fff50f9c9fd1894dd4d0679", "is_disabled": 0, "rental_uris": {"android": "https://dc.lft.to/lastmile_qr_scan", "ios": "https://dc.lft.to/lastmile_qr_scan"}, "fusion_lon": 0.0, "lat": 38.90510066666667, "bike_id": "50c069147fff50f9c9fd1894dd4d0679", "type": "electric_scooter", "is_reserved": 0, "lon": -77.048197}, {"fusion_lat": 0.0, "name": "81dc761f06ec7bbac8afd6a9cc7637c8", "is_disabled": 0, "rental_uris": {"android": "https://dc.lft.to/lastmile_qr_scan", "ios": "https://dc.lft.to/lastmile_qr_scan"}, "fusion_lon": 0.0, "lat": 38.90260216666667, "bike_id": "81dc761f06ec7bbac8afd6a9cc7637c8", "type": "electric_scooter", "is_reserved": 0, "lon": -77.017588}, {"fusion_lat": 0.0, "name": "e04d860b261518bc05c4389fea43f00e", "is_disabled": 0, "rental_uris": {"android": "https://dc.lft.to/lastmile_qr_scan", "ios": "https://dc.lft.to/lastmile_qr_scan"}, "fusion_lon": 0.0, "lat": 38.9101325, "bike_id": "e04d860b261518bc05c4389fea43f00e", "type": "electric_scooter", "is_reserved": 0, "lon": -77.02210783333334}, {"fusion_lat": 0.0, "name": "781caed5fdc08458100ab715f1ec1d1f", "is_disabled": 0, "rental_uris": {"android": "https://dc.lft.to/lastmile_qr_scan", "ios": "https://dc.lft.to/lastmile_qr_scan"}, "fusion_lon": 0.0, "lat": 38.90727116666667, "bike_id": "781caed5fdc08458100ab715f1ec1d1f", "type": "electric_scooter", "is_reserved": 0, "lon": -77.043501}, {"fusion_lat": 0.0, "name": "a73f45082b542a933b7247c78e664fda", "is_disabled": 0, "rental_uris": {"android": "https://dc.lft.to/lastmile_qr_scan", "ios": "https://dc.lft.to/lastmile_qr_scan"}, "fusion_lon": 0.0, "lat": 38.904902666666665, "bike_id": "a73f45082b542a933b7247c78e664fda", "type": "electric_scooter", "is_reserved": 0, "lon": -77.03011383333333}, {"fusion_lat": 0.0, "name": "07e2288eeaf6e1e5c772fcaebff61d93", "is_disabled": 0, "rental_uris": {"android": "https://dc.lft.to/lastmile_qr_scan", "ios": "https://dc.lft.to/lastmile_qr_scan"}, "fusion_lon": 0.0, "lat": 38.9104205, "bike_id": "07e2288eeaf6e1e5c772fcaebff61d93", "type": "electric_scooter", "is_reserved": 0, "lon": -77.0414355}, {"fusion_lat": 0.0, "name": "b1c48f6a34fc5c9a91bb276aa49a5042", "is_disabled": 0, "rental_uris": {"android": "https://dc.lft.to/lastmile_qr_scan", "ios": "https://dc.lft.to/lastmile_qr_scan"}, "fusion_lon": 0.0, "lat": 38.90065033333333, "bike_id": "b1c48f6a34fc5c9a91bb276aa49a5042", "type": "electric_scooter", "is_reserved": 0, "lon": -76.93385216666667}, {"fusion_lat": 0.0, "name": "ce408b4ca2261150371dd2a3eaa48437", "is_disabled": 0, "rental_uris": {"android": "https://dc.lft.to/lastmile_qr_scan", "ios": "https://dc.lft.to/lastmile_qr_scan"}, "fusion_lon": 0.0, "lat": 38.905310666666665, "bike_id": "ce408b4ca2261150371dd2a3eaa48437", "type": "electric_scooter", "is_reserved": 0, "lon": -77.04783716666667}, {"fusion_lat": 0.0, "name": "9ed90a8b692ac7e1f75172b5d633b12f", "is_disabled": 0, "rental_uris": {"android": "https://dc.lft.to/lastmile_qr_scan", "ios": "https://dc.lft.to/lastmile_qr_scan"}, "fusion_lon": 0.0, "lat": 38.877416333333336, "bike_id": "9ed90a8b692ac7e1f75172b5d633b12f", "type": "electric_scooter", "is_reserved": 0, "lon": -77.0059015}, {"fusion_lat": 0.0, "name": "08193c51574a930da11b5492ec27c939", "is_disabled": 0, "rental_uris": {"android": "https://dc.lft.to/lastmile_qr_scan", "ios": "https://dc.lft.to/lastmile_qr_scan"}, "fusion_lon": 0.0, "lat": 38.9237875, "bike_id": "08193c51574a930da11b5492ec27c939", "type": "electric_scooter", "is_reserved": 0, "lon": -77.03542416666667}, {"fusion_lat": 0.0, "name": "4f4673e81eddf892f37b2a22eac22270", "is_disabled": 0, "rental_uris": {"android": "https://dc.lft.to/lastmile_qr_scan", "ios": "https://dc.lft.to/lastmile_qr_scan"}, "fusion_lon": 0.0, "lat": 38.898300666666664, "bike_id": "4f4673e81eddf892f37b2a22eac22270", "type": "electric_scooter", "is_reserved": 0, "lon": -76.94636016666666}, {"fusion_lat": 0.0, "name": "cae9d5ee5b96a08e26d1fadf9eb034e1", "is_disabled": 0, "rental_uris": {"android": "https://dc.lft.to/lastmile_qr_scan", "ios": "https://dc.lft.to/lastmile_qr_scan"}, "fusion_lon": 0.0, "lat": 38.9062835, "bike_id": "cae9d5ee5b96a08e26d1fadf9eb034e1", "type": "electric_scooter", "is_reserved": 0, "lon": -77.02604566666666}, {"fusion_lat": 0.0, "name": "dd054804b12301ee7d539956cb96b11a", "is_disabled": 0, "rental_uris": {"android": "https://dc.lft.to/lastmile_qr_scan", "ios": "https://dc.lft.to/lastmile_qr_scan"}, "fusion_lon": 0.0, "lat": 38.876599666666664, "bike_id": "dd054804b12301ee7d539956cb96b11a", "type": "electric_scooter", "is_reserved": 0, "lon": -77.0007965}, {"fusion_lat": 0.0, "name": "b94a9056a3e7490cf5a0663b68a2ce13", "is_disabled": 0, "rental_uris": {"android": "https://dc.lft.to/lastmile_qr_scan", "ios": "https://dc.lft.to/lastmile_qr_scan"}, "fusion_lon": 0.0, "lat": 38.8442975, "bike_id": "b94a9056a3e7490cf5a0663b68a2ce13", "type": "electric_scooter", "is_reserved": 0, "lon": -76.99777816666666}, {"fusion_lat": 0.0, "name": "7451eac1a7b810bdbdfb37a032f8668e", "is_disabled": 0, "rental_uris": {"android": "https://dc.lft.to/lastmile_qr_scan", "ios": "https://dc.lft.to/lastmile_qr_scan"}, "fusion_lon": 0.0, "lat": 38.90460183333333, "bike_id": "7451eac1a7b810bdbdfb37a032f8668e", "type": "electric_scooter", "is_reserved": 0, "lon": -77.05327183333333}, {"fusion_lat": 0.0, "name": "1bde2c7118d167821e153f0187600c4c", "is_disabled": 0, "rental_uris": {"android": "https://dc.lft.to/lastmile_qr_scan", "ios": "https://dc.lft.to/lastmile_qr_scan"}, "fusion_lon": 0.0, "lat": 38.87701883333333, "bike_id": "1bde2c7118d167821e153f0187600c4c", "type": "electric_scooter", "is_reserved": 0, "lon": -77.0071305}, {"fusion_lat": 0.0, "name": "20317255be3595c6e1522e80f6f51aff", "is_disabled": 0, "rental_uris": {"android": "https://dc.lft.to/lastmile_qr_scan", "ios": "https://dc.lft.to/lastmile_qr_scan"}, "fusion_lon": 0.0, "lat": 38.91135933333333, "bike_id": "20317255be3595c6e1522e80f6f51aff", "type": "electric_scooter", "is_reserved": 0, "lon": -77.0653275}, {"fusion_lat": 0.0, "name": "951034492d62a0994916122cf9ccd7cc", "is_disabled": 0, "rental_uris": {"android": "https://dc.lft.to/lastmile_qr_scan", "ios": "https://dc.lft.to/lastmile_qr_scan"}, "fusion_lon": 0.0, "lat": 38.90564666666667, "bike_id": "951034492d62a0994916122cf9ccd7cc", "type": "electric_scooter", "is_reserved": 0, "lon": -77.00592666666667}, {"fusion_lat": 0.0, "name": "1c51aa618f2b56b44d99a5521b750059", "is_disabled": 0, "rental_uris": {"android": "https://dc.lft.to/lastmile_qr_scan", "ios": "https://dc.lft.to/lastmile_qr_scan"}, "fusion_lon": 0.0, "lat": 38.9399495, "bike_id": "1c51aa618f2b56b44d99a5521b750059", "type": "electric_scooter", "is_reserved": 0, "lon": -77.0165265}, {"fusion_lat": 0.0, "name": "506bb12b5ca217cc40c3b214fd4124c9", "is_disabled": 0, "rental_uris": {"android": "https://dc.lft.to/lastmile_qr_scan", "ios": "https://dc.lft.to/lastmile_qr_scan"}, "fusion_lon": 0.0, "lat": 38.93101566666667, "bike_id": "506bb12b5ca217cc40c3b214fd4124c9", "type": "electric_scooter", "is_reserved": 0, "lon": -77.024758}, {"fusion_lat": 0.0, "name": "09050e9578a1535aaeb0da9866c6408f", "is_disabled": 0, "rental_uris": {"android": "https://dc.lft.to/lastmile_qr_scan", "ios": "https://dc.lft.to/lastmile_qr_scan"}, "fusion_lon": 0.0, "lat": 38.9248805, "bike_id": "09050e9578a1535aaeb0da9866c6408f", "type": "electric_scooter", "is_reserved": 0, "lon": -77.0259885}, {"fusion_lat": 0.0, "name": "e347e88ac4c875e25a69f7fcd05d5e83", "is_disabled": 0, "rental_uris": {"android": "https://dc.lft.to/lastmile_qr_scan", "ios": "https://dc.lft.to/lastmile_qr_scan"}, "fusion_lon": 0.0, "lat": 38.93479583333333, "bike_id": "e347e88ac4c875e25a69f7fcd05d5e83", "type": "electric_scooter", "is_reserved": 0, "lon": -77.07271966666667}, {"fusion_lat": 0.0, "name": "6a1bb3054b07983742b9a350c164b02d", "is_disabled": 0, "rental_uris": {"android": "https://dc.lft.to/lastmile_qr_scan", "ios": "https://dc.lft.to/lastmile_qr_scan"}, "fusion_lon": 0.0, "lat": 38.912759666666666, "bike_id": "6a1bb3054b07983742b9a350c164b02d", "type": "electric_scooter", "is_reserved": 0, "lon": -77.03146416666667}, {"fusion_lat": 0.0, "name": "b8d1ed88387f294c3e250e89b01beb7f", "is_disabled": 0, "rental_uris": {"android": "https://dc.lft.to/lastmile_qr_scan", "ios": "https://dc.lft.to/lastmile_qr_scan"}, "fusion_lon": 0.0, "lat": 38.902838, "bike_id": "b8d1ed88387f294c3e250e89b01beb7f", "type": "electric_scooter", "is_reserved": 0, "lon": -77.03649716666666}, {"fusion_lat": 0.0, "name": "c7c694a996885e8e48d69bef83a6a894", "is_disabled": 0, "rental_uris": {"android": "https://dc.lft.to/lastmile_qr_scan", "ios": "https://dc.lft.to/lastmile_qr_scan"}, "fusion_lon": 0.0, "lat": 38.8765785, "bike_id": "c7c694a996885e8e48d69bef83a6a894", "type": "electric_scooter", "is_reserved": 0, "lon": -77.0043495}, {"fusion_lat": 0.0, "name": "0889a714d83827b0c144c83829c664ce", "is_disabled": 0, "rental_uris": {"android": "https://dc.lft.to/lastmile_qr_scan", "ios": "https://dc.lft.to/lastmile_qr_scan"}, "fusion_lon": 0.0, "lat": 38.91138316666667, "bike_id": "0889a714d83827b0c144c83829c664ce", "type": "electric_scooter", "is_reserved": 0, "lon": -77.038373}, {"fusion_lat": 0.0, "name": "d2907fc5d83322b7d7e002614660cb5c", "is_disabled": 0, "rental_uris": {"android": "https://dc.lft.to/lastmile_qr_scan", "ios": "https://dc.lft.to/lastmile_qr_scan"}, "fusion_lon": 0.0, "lat": 38.917354, "bike_id": "d2907fc5d83322b7d7e002614660cb5c", "type": "electric_bike", "is_reserved": 0, "lon": -76.97907133333334}, {"fusion_lat": 0.0, "name": "24cb152f8bc6177f9a8f96bce1d8a7b1", "is_disabled": 0, "rental_uris": {"android": "https://dc.lft.to/lastmile_qr_scan", "ios": "https://dc.lft.to/lastmile_qr_scan"}, "fusion_lon": 0.0, "lat": 38.9115275, "bike_id": "24cb152f8bc6177f9a8f96bce1d8a7b1", "type": "electric_scooter", "is_reserved": 0, "lon": -77.03212583333334}, {"fusion_lat": 0.0, "name": "bb89f0ad96181688f1abc69fd2b4a876", "is_disabled": 0, "rental_uris": {"android": "https://dc.lft.to/lastmile_qr_scan", "ios": "https://dc.lft.to/lastmile_qr_scan"}, "fusion_lon": 0.0, "lat": 38.9236785, "bike_id": "bb89f0ad96181688f1abc69fd2b4a876", "type": "electric_scooter", "is_reserved": 0, "lon": -77.029659}, {"fusion_lat": 0.0, "name": "040835e5fe99cf72a49315431b8fe812", "is_disabled": 0, "rental_uris": {"android": "https://dc.lft.to/lastmile_qr_scan", "ios": "https://dc.lft.to/lastmile_qr_scan"}, "fusion_lon": 0.0, "lat": 38.923235166666664, "bike_id": "040835e5fe99cf72a49315431b8fe812", "type": "electric_scooter", "is_reserved": 0, "lon": -77.035665}, {"fusion_lat": 0.0, "name": "ec9716e9d35c9c0b3e49038aca714a50", "is_disabled": 0, "rental_uris": {"android": "https://dc.lft.to/lastmile_qr_scan", "ios": "https://dc.lft.to/lastmile_qr_scan"}, "fusion_lon": 0.0, "lat": 38.887308166666664, "bike_id": "ec9716e9d35c9c0b3e49038aca714a50", "type": "electric_scooter", "is_reserved": 0, "lon": -77.03218066666666}, {"fusion_lat": 0.0, "name": "9a79962ec6b7f8f156d8ef1cb264a233", "is_disabled": 0, "rental_uris": {"android": "https://dc.lft.to/lastmile_qr_scan", "ios": "https://dc.lft.to/lastmile_qr_scan"}, "fusion_lon": 0.0, "lat": 38.89654816666667, "bike_id": "9a79962ec6b7f8f156d8ef1cb264a233", "type": "electric_scooter", "is_reserved": 0, "lon": -77.051147}, {"fusion_lat": 0.0, "name": "05962747e6c61ccc506404faddde371a", "is_disabled": 0, "rental_uris": {"android": "https://dc.lft.to/lastmile_qr_scan", "ios": "https://dc.lft.to/lastmile_qr_scan"}, "fusion_lon": 0.0, "lat": 38.901183833333334, "bike_id": "05962747e6c61ccc506404faddde371a", "type": "electric_scooter", "is_reserved": 0, "lon": -77.002175}, {"fusion_lat": 0.0, "name": "50e7ceb0bb86a84cc80c1d47891e9e71", "is_disabled": 0, "rental_uris": {"android": "https://dc.lft.to/lastmile_qr_scan", "ios": "https://dc.lft.to/lastmile_qr_scan"}, "fusion_lon": 0.0, "lat": 38.927557166666666, "bike_id": "50e7ceb0bb86a84cc80c1d47891e9e71", "type": "electric_scooter", "is_reserved": 0, "lon": -77.0242935}, {"fusion_lat": 0.0, "name": "4d0273059e4b581fde2762ff49cbef16", "is_disabled": 0, "rental_uris": {"android": "https://dc.lft.to/lastmile_qr_scan", "ios": "https://dc.lft.to/lastmile_qr_scan"}, "fusion_lon": 0.0, "lat": 38.8753285, "bike_id": "4d0273059e4b581fde2762ff49cbef16", "type": "electric_scooter", "is_reserved": 0, "lon": -77.00509066666666}, {"fusion_lat": 0.0, "name": "332a6ef18f64c55cf06df774b65ddfe5", "is_disabled": 0, "rental_uris": {"android": "https://dc.lft.to/lastmile_qr_scan", "ios": "https://dc.lft.to/lastmile_qr_scan"}, "fusion_lon": 0.0, "lat": 38.9169485, "bike_id": "332a6ef18f64c55cf06df774b65ddfe5", "type": "electric_scooter", "is_reserved": 0, "lon": -77.03769833333334}, {"fusion_lat": 0.0, "name": "076f572b597c523d976425567c832bd3", "is_disabled": 0, "rental_uris": {"android": "https://dc.lft.to/lastmile_qr_scan", "ios": "https://dc.lft.to/lastmile_qr_scan"}, "fusion_lon": 0.0, "lat": 38.88736083333333, "bike_id": "076f572b597c523d976425567c832bd3", "type": "electric_scooter", "is_reserved": 0, "lon": -77.0151705}, {"fusion_lat": 0.0, "name": "a039d3710bcf239fcac5e61cb630722c", "is_disabled": 0, "rental_uris": {"android": "https://dc.lft.to/lastmile_qr_scan", "ios": "https://dc.lft.to/lastmile_qr_scan"}, "fusion_lon": 0.0, "lat": 38.93704783333333, "bike_id": "a039d3710bcf239fcac5e61cb630722c", "type": "electric_scooter", "is_reserved": 0, "lon": -77.0559245}, {"fusion_lat": 0.0, "name": "92a69ca295b2f5b89a9d23f038176f84", "is_disabled": 0, "rental_uris": {"android": "https://dc.lft.to/lastmile_qr_scan", "ios": "https://dc.lft.to/lastmile_qr_scan"}, "fusion_lon": 0.0, "lat": 38.89657366666667, "bike_id": "92a69ca295b2f5b89a9d23f038176f84", "type": "electric_scooter", "is_reserved": 0, "lon": -77.03353983333334}, {"fusion_lat": 0.0, "name": "33c15b2691307b446be23d9ba4520ee2", "is_disabled": 0, "rental_uris": {"android": "https://dc.lft.to/lastmile_qr_scan", "ios": "https://dc.lft.to/lastmile_qr_scan"}, "fusion_lon": 0.0, "lat": 38.87177633333334, "bike_id": "33c15b2691307b446be23d9ba4520ee2", "type": "electric_scooter", "is_reserved": 0, "lon": -77.00613783333333}, {"fusion_lat": 0.0, "name": "dd86d100ed8231cea2bf0231b38fca81", "is_disabled": 0, "rental_uris": {"android": "https://dc.lft.to/lastmile_qr_scan", "ios": "https://dc.lft.to/lastmile_qr_scan"}, "fusion_lon": 0.0, "lat": 38.9212515, "bike_id": "dd86d100ed8231cea2bf0231b38fca81", "type": "electric_scooter", "is_reserved": 0, "lon": -77.046962}, {"fusion_lat": 0.0, "name": "0934ba46758ffac7a09eb9c04639db76", "is_disabled": 0, "rental_uris": {"android": "https://dc.lft.to/lastmile_qr_scan", "ios": "https://dc.lft.to/lastmile_qr_scan"}, "fusion_lon": 0.0, "lat": 38.882011166666665, "bike_id": "0934ba46758ffac7a09eb9c04639db76", "type": "electric_scooter", "is_reserved": 0, "lon": -76.99491266666666}, {"fusion_lat": 0.0, "name": "4be8faff46b7db98531a7a93229ce1da", "is_disabled": 0, "rental_uris": {"android": "https://dc.lft.to/lastmile_qr_scan", "ios": "https://dc.lft.to/lastmile_qr_scan"}, "fusion_lon": 0.0, "lat": 38.8919765, "bike_id": "4be8faff46b7db98531a7a93229ce1da", "type": "electric_scooter", "is_reserved": 0, "lon": -77.0221975}, {"fusion_lat": 0.0, "name": "bcc89e1d4924af5863f566c005c3ea6d", "is_disabled": 0, "rental_uris": {"android": "https://dc.lft.to/lastmile_qr_scan", "ios": "https://dc.lft.to/lastmile_qr_scan"}, "fusion_lon": 0.0, "lat": 38.8076305, "bike_id": "bcc89e1d4924af5863f566c005c3ea6d", "type": "electric_bike", "is_reserved": 0, "lon": -77.12982}, {"fusion_lat": 0.0, "name": "0a71c7592c62ece05fb3d33afdf7fc86", "is_disabled": 0, "rental_uris": {"android": "https://dc.lft.to/lastmile_qr_scan", "ios": "https://dc.lft.to/lastmile_qr_scan"}, "fusion_lon": 0.0, "lat": 38.88726366666667, "bike_id": "0a71c7592c62ece05fb3d33afdf7fc86", "type": "electric_scooter", "is_reserved": 0, "lon": -77.01767833333334}, {"fusion_lat": 0.0, "name": "50c0a7b4046cc84730b5d47dd81e746d", "is_disabled": 0, "rental_uris": {"android": "https://dc.lft.to/lastmile_qr_scan", "ios": "https://dc.lft.to/lastmile_qr_scan"}, "fusion_lon": 0.0, "lat": 38.961583, "bike_id": "50c0a7b4046cc84730b5d47dd81e746d", "type": "electric_scooter", "is_reserved": 0, "lon": -77.03237316666667}, {"fusion_lat": 0.0, "name": "b74023826205a56a784ea965998d99f3", "is_disabled": 0, "rental_uris": {"android": "https://dc.lft.to/lastmile_qr_scan", "ios": "https://dc.lft.to/lastmile_qr_scan"}, "fusion_lon": 0.0, "lat": 38.900676, "bike_id": "b74023826205a56a784ea965998d99f3", "type": "electric_scooter", "is_reserved": 0, "lon": -76.92745933333333}, {"fusion_lat": 0.0, "name": "dfe0ef8c31bb2362d7fcc5390d258155", "is_disabled": 0, "rental_uris": {"android": "https://dc.lft.to/lastmile_qr_scan", "ios": "https://dc.lft.to/lastmile_qr_scan"}, "fusion_lon": 0.0, "lat": 38.919930666666666, "bike_id": "dfe0ef8c31bb2362d7fcc5390d258155", "type": "electric_bike", "is_reserved": 0, "lon": -77.047592}, {"fusion_lat": 0.0, "name": "d3ccd785e74e3f2576fe2d4d01bfd027", "is_disabled": 0, "rental_uris": {"android": "https://dc.lft.to/lastmile_qr_scan", "ios": "https://dc.lft.to/lastmile_qr_scan"}, "fusion_lon": 0.0, "lat": 38.905660166666664, "bike_id": "d3ccd785e74e3f2576fe2d4d01bfd027", "type": "electric_scooter", "is_reserved": 0, "lon": -77.00600766666666}, {"fusion_lat": 0.0, "name": "c4ccde399b3a598e48478ed80fc71e3a", "is_disabled": 0, "rental_uris": {"android": "https://dc.lft.to/lastmile_qr_scan", "ios": "https://dc.lft.to/lastmile_qr_scan"}, "fusion_lon": 0.0, "lat": 38.895485666666666, "bike_id": "c4ccde399b3a598e48478ed80fc71e3a", "type": "electric_scooter", "is_reserved": 0, "lon": -76.949478}, {"fusion_lat": 0.0, "name": "b7af12d0aa0c9aeb946f8196f00511b5", "is_disabled": 0, "rental_uris": {"android": "https://dc.lft.to/lastmile_qr_scan", "ios": "https://dc.lft.to/lastmile_qr_scan"}, "fusion_lon": 0.0, "lat": 38.95756383333333, "bike_id": "b7af12d0aa0c9aeb946f8196f00511b5", "type": "electric_scooter", "is_reserved": 0, "lon": -77.02057133333334}, {"fusion_lat": 0.0, "name": "3243ab21581fa38cdabfcc90d6d4ae1b", "is_disabled": 0, "rental_uris": {"android": "https://dc.lft.to/lastmile_qr_scan", "ios": "https://dc.lft.to/lastmile_qr_scan"}, "fusion_lon": 0.0, "lat": 38.9006355, "bike_id": "3243ab21581fa38cdabfcc90d6d4ae1b", "type": "electric_scooter", "is_reserved": 0, "lon": -77.02197066666666}, {"fusion_lat": 0.0, "name": "1f2baf6a8e95a9a9b9383cf1ceb378ac", "is_disabled": 0, "rental_uris": {"android": "https://dc.lft.to/lastmile_qr_scan", "ios": "https://dc.lft.to/lastmile_qr_scan"}, "fusion_lon": 0.0, "lat": 38.88731466666667, "bike_id": "1f2baf6a8e95a9a9b9383cf1ceb378ac", "type": "electric_scooter", "is_reserved": 0, "lon": -77.0133965}, {"fusion_lat": 0.0, "name": "4576f81cd4fc4e74d90f25e8edcba7e9", "is_disabled": 0, "rental_uris": {"android": "https://dc.lft.to/lastmile_qr_scan", "ios": "https://dc.lft.to/lastmile_qr_scan"}, "fusion_lon": 0.0, "lat": 38.9072335, "bike_id": "4576f81cd4fc4e74d90f25e8edcba7e9", "type": "electric_scooter", "is_reserved": 0, "lon": -77.02500183333333}, {"fusion_lat": 0.0, "name": "d81db93577d4ba4552dde77f0f6de58a", "is_disabled": 0, "rental_uris": {"android": "https://dc.lft.to/lastmile_qr_scan", "ios": "https://dc.lft.to/lastmile_qr_scan"}, "fusion_lon": 0.0, "lat": 38.924783, "bike_id": "d81db93577d4ba4552dde77f0f6de58a", "type": "electric_scooter", "is_reserved": 0, "lon": -77.03045983333334}, {"fusion_lat": 0.0, "name": "6be087b01e77a0d1279d7a5b9f0aaa25", "is_disabled": 0, "rental_uris": {"android": "https://dc.lft.to/lastmile_qr_scan", "ios": "https://dc.lft.to/lastmile_qr_scan"}, "fusion_lon": 0.0, "lat": 38.91783916666667, "bike_id": "6be087b01e77a0d1279d7a5b9f0aaa25", "type": "electric_scooter", "is_reserved": 0, "lon": -77.03221383333333}, {"fusion_lat": 0.0, "name": "254aec9b414f072d6479803deaa08a21", "is_disabled": 0, "rental_uris": {"android": "https://dc.lft.to/lastmile_qr_scan", "ios": "https://dc.lft.to/lastmile_qr_scan"}, "fusion_lon": 0.0, "lat": 38.93350483333333, "bike_id": "254aec9b414f072d6479803deaa08a21", "type": "electric_scooter", "is_reserved": 0, "lon": -77.06205566666667}, {"fusion_lat": 0.0, "name": "b22aa1d061082d2035c6b5ed722fa31d", "is_disabled": 0, "rental_uris": {"android": "https://dc.lft.to/lastmile_qr_scan", "ios": "https://dc.lft.to/lastmile_qr_scan"}, "fusion_lon": 0.0, "lat": 38.89674133333333, "bike_id": "b22aa1d061082d2035c6b5ed722fa31d", "type": "electric_scooter", "is_reserved": 0, "lon": -77.05046433333334}, {"fusion_lat": 0.0, "name": "a4049edea8b90c4b702f4eec31c03b57", "is_disabled": 0, "rental_uris": {"android": "https://dc.lft.to/lastmile_qr_scan", "ios": "https://dc.lft.to/lastmile_qr_scan"}, "fusion_lon": 0.0, "lat": 38.91474383333333, "bike_id": "a4049edea8b90c4b702f4eec31c03b57", "type": "electric_scooter", "is_reserved": 0, "lon": -76.981059}, {"fusion_lat": 0.0, "name": "1da6bd6ce32223d1b304d2820ace71af", "is_disabled": 0, "rental_uris": {"android": "https://dc.lft.to/lastmile_qr_scan", "ios": "https://dc.lft.to/lastmile_qr_scan"}, "fusion_lon": 0.0, "lat": 38.8730775, "bike_id": "1da6bd6ce32223d1b304d2820ace71af", "type": "electric_scooter", "is_reserved": 0, "lon": -77.00135866666666}, {"fusion_lat": 0.0, "name": "d646668460130e703ae25100720987fd", "is_disabled": 0, "rental_uris": {"android": "https://dc.lft.to/lastmile_qr_scan", "ios": "https://dc.lft.to/lastmile_qr_scan"}, "fusion_lon": 0.0, "lat": 38.916574, "bike_id": "d646668460130e703ae25100720987fd", "type": "electric_scooter", "is_reserved": 0, "lon": -77.024186}, {"fusion_lat": 0.0, "name": "6d821cb637222560d89fda3b82caaa5a", "is_disabled": 0, "rental_uris": {"android": "https://dc.lft.to/lastmile_qr_scan", "ios": "https://dc.lft.to/lastmile_qr_scan"}, "fusion_lon": 0.0, "lat": 38.914796, "bike_id": "6d821cb637222560d89fda3b82caaa5a", "type": "electric_scooter", "is_reserved": 0, "lon": -77.04607166666666}, {"fusion_lat": 0.0, "name": "29432f101eff40ae12bde7f6d973f2bf", "is_disabled": 0, "rental_uris": {"android": "https://dc.lft.to/lastmile_qr_scan", "ios": "https://dc.lft.to/lastmile_qr_scan"}, "fusion_lon": 0.0, "lat": 38.9699065, "bike_id": "29432f101eff40ae12bde7f6d973f2bf", "type": "electric_scooter", "is_reserved": 0, "lon": -77.0116135}, {"fusion_lat": 0.0, "name": "5d7312cb8ef557ddf30b2450756e582d", "is_disabled": 0, "rental_uris": {"android": "https://dc.lft.to/lastmile_qr_scan", "ios": "https://dc.lft.to/lastmile_qr_scan"}, "fusion_lon": 0.0, "lat": 38.9166385, "bike_id": "5d7312cb8ef557ddf30b2450756e582d", "type": "electric_bike", "is_reserved": 0, "lon": -77.03846216666666}, {"fusion_lat": 0.0, "name": "c55332fd27ea95f1d18a9d7f10e3ba91", "is_disabled": 0, "rental_uris": {"android": "https://dc.lft.to/lastmile_qr_scan", "ios": "https://dc.lft.to/lastmile_qr_scan"}, "fusion_lon": 0.0, "lat": 38.9247445, "bike_id": "c55332fd27ea95f1d18a9d7f10e3ba91", "type": "electric_scooter", "is_reserved": 0, "lon": -77.03556183333333}, {"fusion_lat": 0.0, "name": "38aeaf0b2fecc7be4ff11a98195a6f8d", "is_disabled": 0, "rental_uris": {"android": "https://dc.lft.to/lastmile_qr_scan", "ios": "https://dc.lft.to/lastmile_qr_scan"}, "fusion_lon": 0.0, "lat": 38.8746775, "bike_id": "38aeaf0b2fecc7be4ff11a98195a6f8d", "type": "electric_scooter", "is_reserved": 0, "lon": -77.00471233333333}, {"fusion_lat": 0.0, "name": "b27e80dbef5b4c254a204b865b336b26", "is_disabled": 0, "rental_uris": {"android": "https://dc.lft.to/lastmile_qr_scan", "ios": "https://dc.lft.to/lastmile_qr_scan"}, "fusion_lon": 0.0, "lat": 38.8973495, "bike_id": "b27e80dbef5b4c254a204b865b336b26", "type": "electric_scooter", "is_reserved": 0, "lon": -76.94721}, {"fusion_lat": 0.0, "name": "be2d2c42ecd5ebdfaba35a760788c728", "is_disabled": 0, "rental_uris": {"android": "https://dc.lft.to/lastmile_qr_scan", "ios": "https://dc.lft.to/lastmile_qr_scan"}, "fusion_lon": 0.0, "lat": 38.87744633333333, "bike_id": "be2d2c42ecd5ebdfaba35a760788c728", "type": "electric_scooter", "is_reserved": 0, "lon": -77.00258383333333}, {"fusion_lat": 0.0, "name": "773a3e22b185c3ab37b8495e86992275", "is_disabled": 0, "rental_uris": {"android": "https://dc.lft.to/lastmile_qr_scan", "ios": "https://dc.lft.to/lastmile_qr_scan"}, "fusion_lon": 0.0, "lat": 38.9003225, "bike_id": "773a3e22b185c3ab37b8495e86992275", "type": "electric_scooter", "is_reserved": 0, "lon": -77.0019945}, {"fusion_lat": 0.0, "name": "3ffd037771aec73cbf68452688643ac9", "is_disabled": 0, "rental_uris": {"android": "https://dc.lft.to/lastmile_qr_scan", "ios": "https://dc.lft.to/lastmile_qr_scan"}, "fusion_lon": 0.0, "lat": 38.906197, "bike_id": "3ffd037771aec73cbf68452688643ac9", "type": "electric_scooter", "is_reserved": 0, "lon": -77.05020133333333}, {"fusion_lat": 0.0, "name": "6c62cff1926cf92219f33f35e05f71de", "is_disabled": 0, "rental_uris": {"android": "https://dc.lft.to/lastmile_qr_scan", "ios": "https://dc.lft.to/lastmile_qr_scan"}, "fusion_lon": 0.0, "lat": 38.916791, "bike_id": "6c62cff1926cf92219f33f35e05f71de", "type": "electric_scooter", "is_reserved": 0, "lon": -77.01580733333333}, {"fusion_lat": 0.0, "name": "b3f27381416d28864d170d7a9693d3f9", "is_disabled": 0, "rental_uris": {"android": "https://dc.lft.to/lastmile_qr_scan", "ios": "https://dc.lft.to/lastmile_qr_scan"}, "fusion_lon": 0.0, "lat": 38.892125, "bike_id": "b3f27381416d28864d170d7a9693d3f9", "type": "electric_scooter", "is_reserved": 0, "lon": -77.026426}, {"fusion_lat": 0.0, "name": "ce6d36267d34879615a863d2e78ccbcf", "is_disabled": 0, "rental_uris": {"android": "https://dc.lft.to/lastmile_qr_scan", "ios": "https://dc.lft.to/lastmile_qr_scan"}, "fusion_lon": 0.0, "lat": 38.90089033333334, "bike_id": "ce6d36267d34879615a863d2e78ccbcf", "type": "electric_scooter", "is_reserved": 0, "lon": -77.04750183333333}, {"fusion_lat": 0.0, "name": "6425f2496ec3b46e66fbc8acb6d71cb1", "is_disabled": 0, "rental_uris": {"android": "https://dc.lft.to/lastmile_qr_scan", "ios": "https://dc.lft.to/lastmile_qr_scan"}, "fusion_lon": 0.0, "lat": 38.95511033333333, "bike_id": "6425f2496ec3b46e66fbc8acb6d71cb1", "type": "electric_scooter", "is_reserved": 0, "lon": -77.02841033333333}, {"fusion_lat": 0.0, "name": "c13a9f85bcd30b61068a406e905f3b51", "is_disabled": 0, "rental_uris": {"android": "https://dc.lft.to/lastmile_qr_scan", "ios": "https://dc.lft.to/lastmile_qr_scan"}, "fusion_lon": 0.0, "lat": 38.90398733333333, "bike_id": "c13a9f85bcd30b61068a406e905f3b51", "type": "electric_scooter", "is_reserved": 0, "lon": -77.00196283333334}, {"fusion_lat": 0.0, "name": "f0b68c907c600056df6fae05d046975b", "is_disabled": 0, "rental_uris": {"android": "https://dc.lft.to/lastmile_qr_scan", "ios": "https://dc.lft.to/lastmile_qr_scan"}, "fusion_lon": 0.0, "lat": 38.90894383333333, "bike_id": "f0b68c907c600056df6fae05d046975b", "type": "electric_scooter", "is_reserved": 0, "lon": -77.03436883333333}, {"fusion_lat": 0.0, "name": "d3318b2876ca64063fe4aa404faadf71", "is_disabled": 0, "rental_uris": {"android": "https://dc.lft.to/lastmile_qr_scan", "ios": "https://dc.lft.to/lastmile_qr_scan"}, "fusion_lon": 0.0, "lat": 38.91942066666667, "bike_id": "d3318b2876ca64063fe4aa404faadf71", "type": "electric_scooter", "is_reserved": 0, "lon": -77.04880483333334}, {"fusion_lat": 0.0, "name": "7cb5e12b8217273a35459b9e734d8407", "is_disabled": 0, "rental_uris": {"android": "https://dc.lft.to/lastmile_qr_scan", "ios": "https://dc.lft.to/lastmile_qr_scan"}, "fusion_lon": 0.0, "lat": 38.94499033333334, "bike_id": "7cb5e12b8217273a35459b9e734d8407", "type": "electric_bike", "is_reserved": 0, "lon": -77.00679466666666}, {"fusion_lat": 0.0, "name": "82a6086fc28f60a939032522c4ffbf00", "is_disabled": 0, "rental_uris": {"android": "https://dc.lft.to/lastmile_qr_scan", "ios": "https://dc.lft.to/lastmile_qr_scan"}, "fusion_lon": 0.0, "lat": 38.86243483333333, "bike_id": "82a6086fc28f60a939032522c4ffbf00", "type": "electric_scooter", "is_reserved": 0, "lon": -76.994949}, {"fusion_lat": 0.0, "name": "8cf8a1153b53bb74e46f80c5a002303d", "is_disabled": 0, "rental_uris": {"android": "https://dc.lft.to/lastmile_qr_scan", "ios": "https://dc.lft.to/lastmile_qr_scan"}, "fusion_lon": 0.0, "lat": 38.891923, "bike_id": "8cf8a1153b53bb74e46f80c5a002303d", "type": "electric_scooter", "is_reserved": 0, "lon": -76.99839183333333}, {"fusion_lat": 0.0, "name": "ec5a574d82361dac08490cc12e12e3be", "is_disabled": 0, "rental_uris": {"android": "https://dc.lft.to/lastmile_qr_scan", "ios": "https://dc.lft.to/lastmile_qr_scan"}, "fusion_lon": 0.0, "lat": 38.912109, "bike_id": "ec5a574d82361dac08490cc12e12e3be", "type": "electric_scooter", "is_reserved": 0, "lon": -77.03854416666667}, {"fusion_lat": 0.0, "name": "1c5d97a2463c35122b58dd7ef20f4b23", "is_disabled": 0, "rental_uris": {"android": "https://dc.lft.to/lastmile_qr_scan", "ios": "https://dc.lft.to/lastmile_qr_scan"}, "fusion_lon": 0.0, "lat": 38.941119, "bike_id": "1c5d97a2463c35122b58dd7ef20f4b23", "type": "electric_scooter", "is_reserved": 0, "lon": -77.000438}, {"fusion_lat": 0.0, "name": "e8c40e2a1cb593a4f36dc0e4864c1b79", "is_disabled": 0, "rental_uris": {"android": "https://dc.lft.to/lastmile_qr_scan", "ios": "https://dc.lft.to/lastmile_qr_scan"}, "fusion_lon": 0.0, "lat": 38.86348016666667, "bike_id": "e8c40e2a1cb593a4f36dc0e4864c1b79", "type": "electric_bike", "is_reserved": 0, "lon": -77.07721383333333}, {"fusion_lat": 0.0, "name": "425ddab8662cb4fb052b4081183c29e4", "is_disabled": 0, "rental_uris": {"android": "https://dc.lft.to/lastmile_qr_scan", "ios": "https://dc.lft.to/lastmile_qr_scan"}, "fusion_lon": 0.0, "lat": 38.917989, "bike_id": "425ddab8662cb4fb052b4081183c29e4", "type": "electric_scooter", "is_reserved": 0, "lon": -77.04180883333333}, {"fusion_lat": 0.0, "name": "77be9ab67eb45f9ea325fc20f5fade6c", "is_disabled": 0, "rental_uris": {"android": "https://dc.lft.to/lastmile_qr_scan", "ios": "https://dc.lft.to/lastmile_qr_scan"}, "fusion_lon": 0.0, "lat": 38.89387516666667, "bike_id": "77be9ab67eb45f9ea325fc20f5fade6c", "type": "electric_scooter", "is_reserved": 0, "lon": -76.9230855}, {"fusion_lat": 0.0, "name": "6672735b47bdd10954fa0b1d7365b733", "is_disabled": 0, "rental_uris": {"android": "https://dc.lft.to/lastmile_qr_scan", "ios": "https://dc.lft.to/lastmile_qr_scan"}, "fusion_lon": 0.0, "lat": 38.910188166666664, "bike_id": "6672735b47bdd10954fa0b1d7365b733", "type": "electric_scooter", "is_reserved": 0, "lon": -77.06908966666667}, {"fusion_lat": 0.0, "name": "70578a1cec6aca8545985f21c0fc067f", "is_disabled": 0, "rental_uris": {"android": "https://dc.lft.to/lastmile_qr_scan", "ios": "https://dc.lft.to/lastmile_qr_scan"}, "fusion_lon": 0.0, "lat": 38.93759383333333, "bike_id": "70578a1cec6aca8545985f21c0fc067f", "type": "electric_bike", "is_reserved": 0, "lon": -76.95823483333334}, {"fusion_lat": 0.0, "name": "0464fee330babc6fed9cfbc5e2c80155", "is_disabled": 0, "rental_uris": {"android": "https://dc.lft.to/lastmile_qr_scan", "ios": "https://dc.lft.to/lastmile_qr_scan"}, "fusion_lon": 0.0, "lat": 38.9377695, "bike_id": "0464fee330babc6fed9cfbc5e2c80155", "type": "electric_bike", "is_reserved": 0, "lon": -77.01912566666667}, {"fusion_lat": 0.0, "name": "f0e84a508d78e9beca86582b26af3c35", "is_disabled": 0, "rental_uris": {"android": "https://dc.lft.to/lastmile_qr_scan", "ios": "https://dc.lft.to/lastmile_qr_scan"}, "fusion_lon": 0.0, "lat": 38.90776266666667, "bike_id": "f0e84a508d78e9beca86582b26af3c35", "type": "electric_scooter", "is_reserved": 0, "lon": -76.997116}, {"fusion_lat": 0.0, "name": "3543cc0e687436712db33d88ad7ad028", "is_disabled": 0, "rental_uris": {"android": "https://dc.lft.to/lastmile_qr_scan", "ios": "https://dc.lft.to/lastmile_qr_scan"}, "fusion_lon": 0.0, "lat": 38.925170333333334, "bike_id": "3543cc0e687436712db33d88ad7ad028", "type": "electric_scooter", "is_reserved": 0, "lon": -77.05034516666667}, {"fusion_lat": 0.0, "name": "604a8588a7dc92c6161d14ed30c2b832", "is_disabled": 0, "rental_uris": {"android": "https://dc.lft.to/lastmile_qr_scan", "ios": "https://dc.lft.to/lastmile_qr_scan"}, "fusion_lon": 0.0, "lat": 38.90611233333333, "bike_id": "604a8588a7dc92c6161d14ed30c2b832", "type": "electric_scooter", "is_reserved": 0, "lon": -77.00579333333333}, {"fusion_lat": 0.0, "name": "8c08cb8a54cea283cd0c26b4de8efe03", "is_disabled": 0, "rental_uris": {"android": "https://dc.lft.to/lastmile_qr_scan", "ios": "https://dc.lft.to/lastmile_qr_scan"}, "fusion_lon": 0.0, "lat": 38.907090833333335, "bike_id": "8c08cb8a54cea283cd0c26b4de8efe03", "type": "electric_scooter", "is_reserved": 0, "lon": -77.023873}, {"fusion_lat": 0.0, "name": "152c744919eebd63bfbd9d5d7e648e06", "is_disabled": 0, "rental_uris": {"android": "https://dc.lft.to/lastmile_qr_scan", "ios": "https://dc.lft.to/lastmile_qr_scan"}, "fusion_lon": 0.0, "lat": 38.9214525, "bike_id": "152c744919eebd63bfbd9d5d7e648e06", "type": "electric_scooter", "is_reserved": 0, "lon": -77.01914716666667}, {"fusion_lat": 0.0, "name": "2cf7ffaa3d852b4433ae1dcb451b470a", "is_disabled": 0, "rental_uris": {"android": "https://dc.lft.to/lastmile_qr_scan", "ios": "https://dc.lft.to/lastmile_qr_scan"}, "fusion_lon": 0.0, "lat": 38.9011755, "bike_id": "2cf7ffaa3d852b4433ae1dcb451b470a", "type": "electric_scooter", "is_reserved": 0, "lon": -77.02603233333333}, {"fusion_lat": 0.0, "name": "2adc0cadf97d497b2a9408820dc06f73", "is_disabled": 0, "rental_uris": {"android": "https://dc.lft.to/lastmile_qr_scan", "ios": "https://dc.lft.to/lastmile_qr_scan"}, "fusion_lon": 0.0, "lat": 38.931943833333335, "bike_id": "2adc0cadf97d497b2a9408820dc06f73", "type": "electric_scooter", "is_reserved": 0, "lon": -77.03502333333333}, {"fusion_lat": 0.0, "name": "d64c484eff9b5c6bd52e546a940df372", "is_disabled": 0, "rental_uris": {"android": "https://dc.lft.to/lastmile_qr_scan", "ios": "https://dc.lft.to/lastmile_qr_scan"}, "fusion_lon": 0.0, "lat": 38.92105083333333, "bike_id": "d64c484eff9b5c6bd52e546a940df372", "type": "electric_scooter", "is_reserved": 0, "lon": -77.03174016666667}, {"fusion_lat": 0.0, "name": "c1b74f813774678606d1800772c14c46", "is_disabled": 0, "rental_uris": {"android": "https://dc.lft.to/lastmile_qr_scan", "ios": "https://dc.lft.to/lastmile_qr_scan"}, "fusion_lon": 0.0, "lat": 38.9086605, "bike_id": "c1b74f813774678606d1800772c14c46", "type": "electric_scooter", "is_reserved": 0, "lon": -77.023491}, {"fusion_lat": 0.0, "name": "38bf8ac31cb139c8b1acb5ce57abbc0f", "is_disabled": 0, "rental_uris": {"android": "https://dc.lft.to/lastmile_qr_scan", "ios": "https://dc.lft.to/lastmile_qr_scan"}, "fusion_lon": 0.0, "lat": 38.90531566666667, "bike_id": "38bf8ac31cb139c8b1acb5ce57abbc0f", "type": "electric_scooter", "is_reserved": 0, "lon": -77.02955716666666}, {"fusion_lat": 0.0, "name": "a45ff0b100bd5ae9b293466b0c7cd8e5", "is_disabled": 0, "rental_uris": {"android": "https://dc.lft.to/lastmile_qr_scan", "ios": "https://dc.lft.to/lastmile_qr_scan"}, "fusion_lon": 0.0, "lat": 38.90489066666667, "bike_id": "a45ff0b100bd5ae9b293466b0c7cd8e5", "type": "electric_scooter", "is_reserved": 0, "lon": -77.02948183333334}, {"fusion_lat": 0.0, "name": "e5d56db132abe566ec5129436d500823", "is_disabled": 0, "rental_uris": {"android": "https://dc.lft.to/lastmile_qr_scan", "ios": "https://dc.lft.to/lastmile_qr_scan"}, "fusion_lon": 0.0, "lat": 38.92764, "bike_id": "e5d56db132abe566ec5129436d500823", "type": "electric_scooter", "is_reserved": 0, "lon": -77.05270633333333}, {"fusion_lat": 0.0, "name": "dcfa975ae4d55d33cce3581c41370d85", "is_disabled": 0, "rental_uris": {"android": "https://dc.lft.to/lastmile_qr_scan", "ios": "https://dc.lft.to/lastmile_qr_scan"}, "fusion_lon": 0.0, "lat": 38.9196755, "bike_id": "dcfa975ae4d55d33cce3581c41370d85", "type": "electric_scooter", "is_reserved": 0, "lon": -77.023819}, {"fusion_lat": 0.0, "name": "6f374164c5a6a77fff3fa735aa56ee6f", "is_disabled": 0, "rental_uris": {"android": "https://dc.lft.to/lastmile_qr_scan", "ios": "https://dc.lft.to/lastmile_qr_scan"}, "fusion_lon": 0.0, "lat": 38.92783283333333, "bike_id": "6f374164c5a6a77fff3fa735aa56ee6f", "type": "electric_scooter", "is_reserved": 0, "lon": -77.0531665}, {"fusion_lat": 0.0, "name": "95a89c9f7fe1ae59f13dabfca9e25b7e", "is_disabled": 0, "rental_uris": {"android": "https://dc.lft.to/lastmile_qr_scan", "ios": "https://dc.lft.to/lastmile_qr_scan"}, "fusion_lon": 0.0, "lat": 38.937560833333336, "bike_id": "95a89c9f7fe1ae59f13dabfca9e25b7e", "type": "electric_scooter", "is_reserved": 0, "lon": -77.03250166666666}, {"fusion_lat": 0.0, "name": "060bdced661869fd119737360ae550f8", "is_disabled": 0, "rental_uris": {"android": "https://dc.lft.to/lastmile_qr_scan", "ios": "https://dc.lft.to/lastmile_qr_scan"}, "fusion_lon": 0.0, "lat": 38.90808116666667, "bike_id": "060bdced661869fd119737360ae550f8", "type": "electric_scooter", "is_reserved": 0, "lon": -77.04174383333333}, {"fusion_lat": 0.0, "name": "004c081bf5da94fdac5638f0cd96ccfe", "is_disabled": 0, "rental_uris": {"android": "https://dc.lft.to/lastmile_qr_scan", "ios": "https://dc.lft.to/lastmile_qr_scan"}, "fusion_lon": 0.0, "lat": 38.91411633333333, "bike_id": "004c081bf5da94fdac5638f0cd96ccfe", "type": "electric_scooter", "is_reserved": 0, "lon": -77.02427783333333}, {"fusion_lat": 0.0, "name": "dcb76774d909841bca38036d464c0c96", "is_disabled": 0, "rental_uris": {"android": "https://dc.lft.to/lastmile_qr_scan", "ios": "https://dc.lft.to/lastmile_qr_scan"}, "fusion_lon": 0.0, "lat": 38.91349816666666, "bike_id": "dcb76774d909841bca38036d464c0c96", "type": "electric_scooter", "is_reserved": 0, "lon": -77.02054516666666}, {"fusion_lat": 0.0, "name": "018df9d1bca6e55d29fe23db5644a9d4", "is_disabled": 0, "rental_uris": {"android": "https://dc.lft.to/lastmile_qr_scan", "ios": "https://dc.lft.to/lastmile_qr_scan"}, "fusion_lon": 0.0, "lat": 38.964460833333334, "bike_id": "018df9d1bca6e55d29fe23db5644a9d4", "type": "electric_bike", "is_reserved": 0, "lon": -77.0223175}, {"fusion_lat": 0.0, "name": "17ff6e422f08b5e3805a213950355bc8", "is_disabled": 0, "rental_uris": {"android": "https://dc.lft.to/lastmile_qr_scan", "ios": "https://dc.lft.to/lastmile_qr_scan"}, "fusion_lon": 0.0, "lat": 38.90942783333333, "bike_id": "17ff6e422f08b5e3805a213950355bc8", "type": "electric_scooter", "is_reserved": 0, "lon": -76.98770466666667}, {"fusion_lat": 0.0, "name": "279b33e2f499f3f950023067275f6ce1", "is_disabled": 0, "rental_uris": {"android": "https://dc.lft.to/lastmile_qr_scan", "ios": "https://dc.lft.to/lastmile_qr_scan"}, "fusion_lon": 0.0, "lat": 38.902962, "bike_id": "279b33e2f499f3f950023067275f6ce1", "type": "electric_scooter", "is_reserved": 0, "lon": -77.0488385}, {"fusion_lat": 0.0, "name": "48d09f76fdbcb214298f0f79e9d70d13", "is_disabled": 0, "rental_uris": {"android": "https://dc.lft.to/lastmile_qr_scan", "ios": "https://dc.lft.to/lastmile_qr_scan"}, "fusion_lon": 0.0, "lat": 38.92228216666667, "bike_id": "48d09f76fdbcb214298f0f79e9d70d13", "type": "electric_bike", "is_reserved": 0, "lon": -77.023388}, {"fusion_lat": 0.0, "name": "b530084819838f9adb3760b68302071d", "is_disabled": 0, "rental_uris": {"android": "https://dc.lft.to/lastmile_qr_scan", "ios": "https://dc.lft.to/lastmile_qr_scan"}, "fusion_lon": 0.0, "lat": 38.87923166666667, "bike_id": "b530084819838f9adb3760b68302071d", "type": "electric_scooter", "is_reserved": 0, "lon": -77.02153866666667}, {"fusion_lat": 0.0, "name": "4836708eb17d8de921f994ddbf7891a7", "is_disabled": 0, "rental_uris": {"android": "https://dc.lft.to/lastmile_qr_scan", "ios": "https://dc.lft.to/lastmile_qr_scan"}, "fusion_lon": 0.0, "lat": 38.9066285, "bike_id": "4836708eb17d8de921f994ddbf7891a7", "type": "electric_scooter", "is_reserved": 0, "lon": -76.99962566666666}, {"fusion_lat": 0.0, "name": "bd34afb71fd4ec252bed6f5fa56111e5", "is_disabled": 0, "rental_uris": {"android": "https://dc.lft.to/lastmile_qr_scan", "ios": "https://dc.lft.to/lastmile_qr_scan"}, "fusion_lon": 0.0, "lat": 38.892661833333335, "bike_id": "bd34afb71fd4ec252bed6f5fa56111e5", "type": "electric_scooter", "is_reserved": 0, "lon": -77.04653216666667}, {"fusion_lat": 0.0, "name": "c4e404a5e1a9fc754e10818bfdd0e7bd", "is_disabled": 0, "rental_uris": {"android": "https://dc.lft.to/lastmile_qr_scan", "ios": "https://dc.lft.to/lastmile_qr_scan"}, "fusion_lon": 0.0, "lat": 38.913262, "bike_id": "c4e404a5e1a9fc754e10818bfdd0e7bd", "type": "electric_scooter", "is_reserved": 0, "lon": -77.03183433333334}, {"fusion_lat": 0.0, "name": "481d9594dea4e0c84bd426a622bb4e50", "is_disabled": 0, "rental_uris": {"android": "https://dc.lft.to/lastmile_qr_scan", "ios": "https://dc.lft.to/lastmile_qr_scan"}, "fusion_lon": 0.0, "lat": 38.90024533333333, "bike_id": "481d9594dea4e0c84bd426a622bb4e50", "type": "electric_scooter", "is_reserved": 0, "lon": -76.97400716666667}, {"fusion_lat": 0.0, "name": "f76e8f3df49bc09543f30993c87e2f5b", "is_disabled": 0, "rental_uris": {"android": "https://dc.lft.to/lastmile_qr_scan", "ios": "https://dc.lft.to/lastmile_qr_scan"}, "fusion_lon": 0.0, "lat": 38.923290333333334, "bike_id": "f76e8f3df49bc09543f30993c87e2f5b", "type": "electric_scooter", "is_reserved": 0, "lon": -77.04613866666666}, {"fusion_lat": 0.0, "name": "c7d6ab587918222e20f55bfd944f7d07", "is_disabled": 0, "rental_uris": {"android": "https://dc.lft.to/lastmile_qr_scan", "ios": "https://dc.lft.to/lastmile_qr_scan"}, "fusion_lon": 0.0, "lat": 38.91604366666667, "bike_id": "c7d6ab587918222e20f55bfd944f7d07", "type": "electric_scooter", "is_reserved": 0, "lon": -77.02295316666667}, {"fusion_lat": 0.0, "name": "13eeeac82b2fd4f1ca0874c9169df6c0", "is_disabled": 0, "rental_uris": {"android": "https://dc.lft.to/lastmile_qr_scan", "ios": "https://dc.lft.to/lastmile_qr_scan"}, "fusion_lon": 0.0, "lat": 38.92329216666667, "bike_id": "13eeeac82b2fd4f1ca0874c9169df6c0", "type": "electric_scooter", "is_reserved": 0, "lon": -77.05635133333334}, {"fusion_lat": 0.0, "name": "224ce6e31eb865aa5d51e7d041f70e62", "is_disabled": 0, "rental_uris": {"android": "https://dc.lft.to/lastmile_qr_scan", "ios": "https://dc.lft.to/lastmile_qr_scan"}, "fusion_lon": 0.0, "lat": 38.9002215, "bike_id": "224ce6e31eb865aa5d51e7d041f70e62", "type": "electric_scooter", "is_reserved": 0, "lon": -76.99873066666666}, {"fusion_lat": 0.0, "name": "a0f3f29bb887e664c7bcdc0ea644391b", "is_disabled": 0, "rental_uris": {"android": "https://dc.lft.to/lastmile_qr_scan", "ios": "https://dc.lft.to/lastmile_qr_scan"}, "fusion_lon": 0.0, "lat": 38.92908283333333, "bike_id": "a0f3f29bb887e664c7bcdc0ea644391b", "type": "electric_scooter", "is_reserved": 0, "lon": -77.0216155}, {"fusion_lat": 0.0, "name": "0e491ee86a2c59d48eea4ac25de26c18", "is_disabled": 0, "rental_uris": {"android": "https://dc.lft.to/lastmile_qr_scan", "ios": "https://dc.lft.to/lastmile_qr_scan"}, "fusion_lon": 0.0, "lat": 38.9062505, "bike_id": "0e491ee86a2c59d48eea4ac25de26c18", "type": "electric_scooter", "is_reserved": 0, "lon": -77.02605883333334}, {"fusion_lat": 0.0, "name": "64a0bbf5b33d7a60a57704058866e0c4", "is_disabled": 0, "rental_uris": {"android": "https://dc.lft.to/lastmile_qr_scan", "ios": "https://dc.lft.to/lastmile_qr_scan"}, "fusion_lon": 0.0, "lat": 38.91184716666667, "bike_id": "64a0bbf5b33d7a60a57704058866e0c4", "type": "electric_scooter", "is_reserved": 0, "lon": -77.0417175}, {"fusion_lat": 0.0, "name": "9129e11202f2be3ec204ab7e00bb289f", "is_disabled": 0, "rental_uris": {"android": "https://dc.lft.to/lastmile_qr_scan", "ios": "https://dc.lft.to/lastmile_qr_scan"}, "fusion_lon": 0.0, "lat": 38.91751983333333, "bike_id": "9129e11202f2be3ec204ab7e00bb289f", "type": "electric_scooter", "is_reserved": 0, "lon": -77.0693395}, {"fusion_lat": 0.0, "name": "aed872edfca93f6dcb5eb877776c499d", "is_disabled": 0, "rental_uris": {"android": "https://dc.lft.to/lastmile_qr_scan", "ios": "https://dc.lft.to/lastmile_qr_scan"}, "fusion_lon": 0.0, "lat": 38.912581, "bike_id": "aed872edfca93f6dcb5eb877776c499d", "type": "electric_scooter", "is_reserved": 0, "lon": -77.03157883333333}, {"fusion_lat": 0.0, "name": "72e965f0dddc4f33875b956af9aa0eac", "is_disabled": 0, "rental_uris": {"android": "https://dc.lft.to/lastmile_qr_scan", "ios": "https://dc.lft.to/lastmile_qr_scan"}, "fusion_lon": 0.0, "lat": 38.88017816666667, "bike_id": "72e965f0dddc4f33875b956af9aa0eac", "type": "electric_scooter", "is_reserved": 0, "lon": -76.9806585}, {"fusion_lat": 0.0, "name": "063c8a39c7069a6ff15042b65a7249a3", "is_disabled": 0, "rental_uris": {"android": "https://dc.lft.to/lastmile_qr_scan", "ios": "https://dc.lft.to/lastmile_qr_scan"}, "fusion_lon": 0.0, "lat": 38.9622455, "bike_id": "063c8a39c7069a6ff15042b65a7249a3", "type": "electric_bike", "is_reserved": 0, "lon": -77.02623933333334}, {"fusion_lat": 0.0, "name": "22098c64b06afbf7975e1bce4afd312e", "is_disabled": 0, "rental_uris": {"android": "https://dc.lft.to/lastmile_qr_scan", "ios": "https://dc.lft.to/lastmile_qr_scan"}, "fusion_lon": 0.0, "lat": 38.911188833333334, "bike_id": "22098c64b06afbf7975e1bce4afd312e", "type": "electric_scooter", "is_reserved": 0, "lon": -77.043755}, {"fusion_lat": 0.0, "name": "4f999e471b9a4d5ccf6626c73c329957", "is_disabled": 0, "rental_uris": {"android": "https://dc.lft.to/lastmile_qr_scan", "ios": "https://dc.lft.to/lastmile_qr_scan"}, "fusion_lon": 0.0, "lat": 38.892360333333336, "bike_id": "4f999e471b9a4d5ccf6626c73c329957", "type": "electric_scooter", "is_reserved": 0, "lon": -77.02382033333333}, {"fusion_lat": 0.0, "name": "53f58db9b1eea1ae2dcd917169ad5aeb", "is_disabled": 0, "rental_uris": {"android": "https://dc.lft.to/lastmile_qr_scan", "ios": "https://dc.lft.to/lastmile_qr_scan"}, "fusion_lon": 0.0, "lat": 38.91635316666667, "bike_id": "53f58db9b1eea1ae2dcd917169ad5aeb", "type": "electric_scooter", "is_reserved": 0, "lon": -77.02971133333334}, {"fusion_lat": 0.0, "name": "ad38400f811436267c400604a889dc58", "is_disabled": 0, "rental_uris": {"android": "https://dc.lft.to/lastmile_qr_scan", "ios": "https://dc.lft.to/lastmile_qr_scan"}, "fusion_lon": 0.0, "lat": 38.901220333333335, "bike_id": "ad38400f811436267c400604a889dc58", "type": "electric_scooter", "is_reserved": 0, "lon": -77.00213316666667}, {"fusion_lat": 0.0, "name": "00e578717dc7c5d068611fb2f200e8bf", "is_disabled": 0, "rental_uris": {"android": "https://dc.lft.to/lastmile_qr_scan", "ios": "https://dc.lft.to/lastmile_qr_scan"}, "fusion_lon": 0.0, "lat": 38.901828333333334, "bike_id": "00e578717dc7c5d068611fb2f200e8bf", "type": "electric_scooter", "is_reserved": 0, "lon": -77.02402816666667}, {"fusion_lat": 0.0, "name": "adaa80f28dc401397a4b0bea12973371", "is_disabled": 0, "rental_uris": {"android": "https://dc.lft.to/lastmile_qr_scan", "ios": "https://dc.lft.to/lastmile_qr_scan"}, "fusion_lon": 0.0, "lat": 38.96174766666667, "bike_id": "adaa80f28dc401397a4b0bea12973371", "type": "electric_bike", "is_reserved": 0, "lon": -77.07369416666667}, {"fusion_lat": 0.0, "name": "34eb71d4b43808c418282c2d7458959d", "is_disabled": 0, "rental_uris": {"android": "https://dc.lft.to/lastmile_qr_scan", "ios": "https://dc.lft.to/lastmile_qr_scan"}, "fusion_lon": 0.0, "lat": 38.92011216666667, "bike_id": "34eb71d4b43808c418282c2d7458959d", "type": "electric_scooter", "is_reserved": 0, "lon": -77.03210983333334}, {"fusion_lat": 0.0, "name": "f1cc847e1e5ea1a0da95f186a1986f85", "is_disabled": 0, "rental_uris": {"android": "https://dc.lft.to/lastmile_qr_scan", "ios": "https://dc.lft.to/lastmile_qr_scan"}, "fusion_lon": 0.0, "lat": 38.92000433333333, "bike_id": "f1cc847e1e5ea1a0da95f186a1986f85", "type": "electric_scooter", "is_reserved": 0, "lon": -77.02168516666667}, {"fusion_lat": 0.0, "name": "cb3b7fc69bd8184e66b73b2f8ddfa10f", "is_disabled": 0, "rental_uris": {"android": "https://dc.lft.to/lastmile_qr_scan", "ios": "https://dc.lft.to/lastmile_qr_scan"}, "fusion_lon": 0.0, "lat": 38.9223955, "bike_id": "cb3b7fc69bd8184e66b73b2f8ddfa10f", "type": "electric_scooter", "is_reserved": 0, "lon": -77.02910783333333}, {"fusion_lat": 0.0, "name": "df562addf66e15c3c570784e77585b26", "is_disabled": 0, "rental_uris": {"android": "https://dc.lft.to/lastmile_qr_scan", "ios": "https://dc.lft.to/lastmile_qr_scan"}, "fusion_lon": 0.0, "lat": 38.91712183333333, "bike_id": "df562addf66e15c3c570784e77585b26", "type": "electric_scooter", "is_reserved": 0, "lon": -76.97656316666666}, {"fusion_lat": 0.0, "name": "e46c64e72029f8d30ef5a2c33ab2b1c2", "is_disabled": 0, "rental_uris": {"android": "https://dc.lft.to/lastmile_qr_scan", "ios": "https://dc.lft.to/lastmile_qr_scan"}, "fusion_lon": 0.0, "lat": 38.90741416666667, "bike_id": "e46c64e72029f8d30ef5a2c33ab2b1c2", "type": "electric_scooter", "is_reserved": 0, "lon": -77.02957666666667}, {"fusion_lat": 0.0, "name": "81d09874add10c1b44c4d668d444bde0", "is_disabled": 0, "rental_uris": {"android": "https://dc.lft.to/lastmile_qr_scan", "ios": "https://dc.lft.to/lastmile_qr_scan"}, "fusion_lon": 0.0, "lat": 38.9486465, "bike_id": "81d09874add10c1b44c4d668d444bde0", "type": "electric_scooter", "is_reserved": 0, "lon": -77.02572283333333}, {"fusion_lat": 0.0, "name": "8f5095d2e095da4c00ad528b1a054029", "is_disabled": 0, "rental_uris": {"android": "https://dc.lft.to/lastmile_qr_scan", "ios": "https://dc.lft.to/lastmile_qr_scan"}, "fusion_lon": 0.0, "lat": 38.938801166666664, "bike_id": "8f5095d2e095da4c00ad528b1a054029", "type": "electric_scooter", "is_reserved": 0, "lon": -77.02485333333334}, {"fusion_lat": 0.0, "name": "6c2c7aaf20d8b05016c900d9e0edb203", "is_disabled": 0, "rental_uris": {"android": "https://dc.lft.to/lastmile_qr_scan", "ios": "https://dc.lft.to/lastmile_qr_scan"}, "fusion_lon": 0.0, "lat": 38.90398316666667, "bike_id": "6c2c7aaf20d8b05016c900d9e0edb203", "type": "electric_scooter", "is_reserved": 0, "lon": -77.0601885}, {"fusion_lat": 0.0, "name": "dd86798503839aa8d944b5dbea09e58a", "is_disabled": 0, "rental_uris": {"android": "https://dc.lft.to/lastmile_qr_scan", "ios": "https://dc.lft.to/lastmile_qr_scan"}, "fusion_lon": 0.0, "lat": 38.89878983333333, "bike_id": "dd86798503839aa8d944b5dbea09e58a", "type": "electric_scooter", "is_reserved": 0, "lon": -77.05309183333334}, {"fusion_lat": 0.0, "name": "c08e43eae848332f9fd04b72726f964b", "is_disabled": 0, "rental_uris": {"android": "https://dc.lft.to/lastmile_qr_scan", "ios": "https://dc.lft.to/lastmile_qr_scan"}, "fusion_lon": 0.0, "lat": 38.912725333333334, "bike_id": "c08e43eae848332f9fd04b72726f964b", "type": "electric_scooter", "is_reserved": 0, "lon": -77.04514083333333}, {"fusion_lat": 0.0, "name": "ec50cbc44c76058e90f7ea3e438d3717", "is_disabled": 0, "rental_uris": {"android": "https://dc.lft.to/lastmile_qr_scan", "ios": "https://dc.lft.to/lastmile_qr_scan"}, "fusion_lon": 0.0, "lat": 38.88483883333333, "bike_id": "ec50cbc44c76058e90f7ea3e438d3717", "type": "electric_scooter", "is_reserved": 0, "lon": -77.02432133333333}, {"fusion_lat": 0.0, "name": "d1dac8e6dfe8d498a46422cd84b1f081", "is_disabled": 0, "rental_uris": {"android": "https://dc.lft.to/lastmile_qr_scan", "ios": "https://dc.lft.to/lastmile_qr_scan"}, "fusion_lon": 0.0, "lat": 38.9307665, "bike_id": "d1dac8e6dfe8d498a46422cd84b1f081", "type": "electric_scooter", "is_reserved": 0, "lon": -77.02792316666667}, {"fusion_lat": 0.0, "name": "e3b12c9b3a578ad0cc2e5ee97c83283a", "is_disabled": 0, "rental_uris": {"android": "https://dc.lft.to/lastmile_qr_scan", "ios": "https://dc.lft.to/lastmile_qr_scan"}, "fusion_lon": 0.0, "lat": 38.887428166666666, "bike_id": "e3b12c9b3a578ad0cc2e5ee97c83283a", "type": "electric_scooter", "is_reserved": 0, "lon": -77.02128}, {"fusion_lat": 0.0, "name": "6842e7cb26ef545edce79dffddec7384", "is_disabled": 0, "rental_uris": {"android": "https://dc.lft.to/lastmile_qr_scan", "ios": "https://dc.lft.to/lastmile_qr_scan"}, "fusion_lon": 0.0, "lat": 38.9004425, "bike_id": "6842e7cb26ef545edce79dffddec7384", "type": "electric_scooter", "is_reserved": 0, "lon": -77.00214966666667}, {"fusion_lat": 0.0, "name": "1fcb8ed67931e632fe2e90121286fc45", "is_disabled": 0, "rental_uris": {"android": "https://dc.lft.to/lastmile_qr_scan", "ios": "https://dc.lft.to/lastmile_qr_scan"}, "fusion_lon": 0.0, "lat": 38.902704166666666, "bike_id": "1fcb8ed67931e632fe2e90121286fc45", "type": "electric_scooter", "is_reserved": 0, "lon": -76.9289915}, {"fusion_lat": 0.0, "name": "8d2e3e0bd2301610fa75f4d61ae06218", "is_disabled": 0, "rental_uris": {"android": "https://dc.lft.to/lastmile_qr_scan", "ios": "https://dc.lft.to/lastmile_qr_scan"}, "fusion_lon": 0.0, "lat": 38.923849833333335, "bike_id": "8d2e3e0bd2301610fa75f4d61ae06218", "type": "electric_scooter", "is_reserved": 0, "lon": -77.021638}, {"fusion_lat": 0.0, "name": "06d395f47c8c01c8d1d6bbbc1018096f", "is_disabled": 0, "rental_uris": {"android": "https://dc.lft.to/lastmile_qr_scan", "ios": "https://dc.lft.to/lastmile_qr_scan"}, "fusion_lon": 0.0, "lat": 38.883617666666666, "bike_id": "06d395f47c8c01c8d1d6bbbc1018096f", "type": "electric_scooter", "is_reserved": 0, "lon": -77.01358083333334}, {"fusion_lat": 0.0, "name": "8ffdc28e88f0c22c89e7d1d9adc5b4f2", "is_disabled": 0, "rental_uris": {"android": "https://dc.lft.to/lastmile_qr_scan", "ios": "https://dc.lft.to/lastmile_qr_scan"}, "fusion_lon": 0.0, "lat": 38.8975875, "bike_id": "8ffdc28e88f0c22c89e7d1d9adc5b4f2", "type": "electric_scooter", "is_reserved": 0, "lon": -77.0019865}, {"fusion_lat": 0.0, "name": "80aa72a4b28abe6ed1d52c49c0f3ead0", "is_disabled": 0, "rental_uris": {"android": "https://dc.lft.to/lastmile_qr_scan", "ios": "https://dc.lft.to/lastmile_qr_scan"}, "fusion_lon": 0.0, "lat": 38.915670666666664, "bike_id": "80aa72a4b28abe6ed1d52c49c0f3ead0", "type": "electric_scooter", "is_reserved": 0, "lon": -77.03166433333334}, {"fusion_lat": 0.0, "name": "7a2a2ebf6a49c92de611328ca1b1e9b4", "is_disabled": 0, "rental_uris": {"android": "https://dc.lft.to/lastmile_qr_scan", "ios": "https://dc.lft.to/lastmile_qr_scan"}, "fusion_lon": 0.0, "lat": 38.922949, "bike_id": "7a2a2ebf6a49c92de611328ca1b1e9b4", "type": "electric_scooter", "is_reserved": 0, "lon": -77.04212683333333}, {"fusion_lat": 0.0, "name": "388a559da13b5cd4b88f40c54822b70d", "is_disabled": 0, "rental_uris": {"android": "https://dc.lft.to/lastmile_qr_scan", "ios": "https://dc.lft.to/lastmile_qr_scan"}, "fusion_lon": 0.0, "lat": 38.872117, "bike_id": "388a559da13b5cd4b88f40c54822b70d", "type": "electric_scooter", "is_reserved": 0, "lon": -77.00572383333333}, {"fusion_lat": 0.0, "name": "ba3e561a6ac0aaa4592f303e880316b7", "is_disabled": 0, "rental_uris": {"android": "https://dc.lft.to/lastmile_qr_scan", "ios": "https://dc.lft.to/lastmile_qr_scan"}, "fusion_lon": 0.0, "lat": 38.90060916666667, "bike_id": "ba3e561a6ac0aaa4592f303e880316b7", "type": "electric_scooter", "is_reserved": 0, "lon": -77.01631866666666}, {"fusion_lat": 0.0, "name": "f01ed6ff1cddb69804effedad686a6f6", "is_disabled": 0, "rental_uris": {"android": "https://dc.lft.to/lastmile_qr_scan", "ios": "https://dc.lft.to/lastmile_qr_scan"}, "fusion_lon": 0.0, "lat": 38.917741166666666, "bike_id": "f01ed6ff1cddb69804effedad686a6f6", "type": "electric_scooter", "is_reserved": 0, "lon": -77.0241725}, {"fusion_lat": 0.0, "name": "2f9235d22057eab1545381d21a88dbe8", "is_disabled": 0, "rental_uris": {"android": "https://dc.lft.to/lastmile_qr_scan", "ios": "https://dc.lft.to/lastmile_qr_scan"}, "fusion_lon": 0.0, "lat": 38.910187, "bike_id": "2f9235d22057eab1545381d21a88dbe8", "type": "electric_scooter", "is_reserved": 0, "lon": -77.05291083333333}, {"fusion_lat": 0.0, "name": "4280f20e2c894658ce7ccd0392a8b407", "is_disabled": 0, "rental_uris": {"android": "https://dc.lft.to/lastmile_qr_scan", "ios": "https://dc.lft.to/lastmile_qr_scan"}, "fusion_lon": 0.0, "lat": 38.91925766666667, "bike_id": "4280f20e2c894658ce7ccd0392a8b407", "type": "electric_scooter", "is_reserved": 0, "lon": -77.02663633333333}, {"fusion_lat": 0.0, "name": "e05aad0487a82b7d6d5a608ca2144f2f", "is_disabled": 0, "rental_uris": {"android": "https://dc.lft.to/lastmile_qr_scan", "ios": "https://dc.lft.to/lastmile_qr_scan"}, "fusion_lon": 0.0, "lat": 38.90721816666667, "bike_id": "e05aad0487a82b7d6d5a608ca2144f2f", "type": "electric_scooter", "is_reserved": 0, "lon": -77.04347283333334}, {"fusion_lat": 0.0, "name": "0abea016dbf3462c5ad325b84a148ad2", "is_disabled": 0, "rental_uris": {"android": "https://dc.lft.to/lastmile_qr_scan", "ios": "https://dc.lft.to/lastmile_qr_scan"}, "fusion_lon": 0.0, "lat": 38.88391716666667, "bike_id": "0abea016dbf3462c5ad325b84a148ad2", "type": "electric_scooter", "is_reserved": 0, "lon": -76.930401}, {"fusion_lat": 0.0, "name": "9a2e09e183543dd559a9756f36a70e56", "is_disabled": 0, "rental_uris": {"android": "https://dc.lft.to/lastmile_qr_scan", "ios": "https://dc.lft.to/lastmile_qr_scan"}, "fusion_lon": 0.0, "lat": 38.875812333333336, "bike_id": "9a2e09e183543dd559a9756f36a70e56", "type": "electric_bike", "is_reserved": 0, "lon": -77.234118}, {"fusion_lat": 0.0, "name": "81e1b3ed7b3db35c8996532ba0020b2e", "is_disabled": 0, "rental_uris": {"android": "https://dc.lft.to/lastmile_qr_scan", "ios": "https://dc.lft.to/lastmile_qr_scan"}, "fusion_lon": 0.0, "lat": 38.90392683333334, "bike_id": "81e1b3ed7b3db35c8996532ba0020b2e", "type": "electric_scooter", "is_reserved": 0, "lon": -76.989432}, {"fusion_lat": 0.0, "name": "5869d6549153226d48b4c7e58dfc31b7", "is_disabled": 0, "rental_uris": {"android": "https://dc.lft.to/lastmile_qr_scan", "ios": "https://dc.lft.to/lastmile_qr_scan"}, "fusion_lon": 0.0, "lat": 38.899990833333334, "bike_id": "5869d6549153226d48b4c7e58dfc31b7", "type": "electric_scooter", "is_reserved": 0, "lon": -77.02716416666667}, {"fusion_lat": 0.0, "name": "36e698ba3bc629970ea68a54eb0a606e", "is_disabled": 0, "rental_uris": {"android": "https://dc.lft.to/lastmile_qr_scan", "ios": "https://dc.lft.to/lastmile_qr_scan"}, "fusion_lon": 0.0, "lat": 38.89685733333334, "bike_id": "36e698ba3bc629970ea68a54eb0a606e", "type": "electric_scooter", "is_reserved": 0, "lon": -76.93712566666666}, {"fusion_lat": 0.0, "name": "2862a75ca5547d83e235e1925727d616", "is_disabled": 0, "rental_uris": {"android": "https://dc.lft.to/lastmile_qr_scan", "ios": "https://dc.lft.to/lastmile_qr_scan"}, "fusion_lon": 0.0, "lat": 38.924150833333336, "bike_id": "2862a75ca5547d83e235e1925727d616", "type": "electric_scooter", "is_reserved": 0, "lon": -77.05253716666667}, {"fusion_lat": 0.0, "name": "b3ffbc4422cd489459b22fcea21d34fa", "is_disabled": 0, "rental_uris": {"android": "https://dc.lft.to/lastmile_qr_scan", "ios": "https://dc.lft.to/lastmile_qr_scan"}, "fusion_lon": 0.0, "lat": 38.9505725, "bike_id": "b3ffbc4422cd489459b22fcea21d34fa", "type": "electric_scooter", "is_reserved": 0, "lon": -77.08027216666666}, {"fusion_lat": 0.0, "name": "95c303dbcc7a95f8c15e60831a1c1213", "is_disabled": 0, "rental_uris": {"android": "https://dc.lft.to/lastmile_qr_scan", "ios": "https://dc.lft.to/lastmile_qr_scan"}, "fusion_lon": 0.0, "lat": 38.89912183333333, "bike_id": "95c303dbcc7a95f8c15e60831a1c1213", "type": "electric_scooter", "is_reserved": 0, "lon": -76.9458895}, {"fusion_lat": 0.0, "name": "14c8da0a3657fb1605bdeb0dd808bf2d", "is_disabled": 0, "rental_uris": {"android": "https://dc.lft.to/lastmile_qr_scan", "ios": "https://dc.lft.to/lastmile_qr_scan"}, "fusion_lon": 0.0, "lat": 38.90584966666667, "bike_id": "14c8da0a3657fb1605bdeb0dd808bf2d", "type": "electric_scooter", "is_reserved": 0, "lon": -77.00874266666666}, {"fusion_lat": 0.0, "name": "7c770235cb7fd963346a6efbdad76e53", "is_disabled": 0, "rental_uris": {"android": "https://dc.lft.to/lastmile_qr_scan", "ios": "https://dc.lft.to/lastmile_qr_scan"}, "fusion_lon": 0.0, "lat": 38.915151, "bike_id": "7c770235cb7fd963346a6efbdad76e53", "type": "electric_scooter", "is_reserved": 0, "lon": -77.0189975}, {"fusion_lat": 0.0, "name": "326cf24bb4ae0a6e6af36b3f5ae8484c", "is_disabled": 0, "rental_uris": {"android": "https://dc.lft.to/lastmile_qr_scan", "ios": "https://dc.lft.to/lastmile_qr_scan"}, "fusion_lon": 0.0, "lat": 38.93541916666667, "bike_id": "326cf24bb4ae0a6e6af36b3f5ae8484c", "type": "electric_scooter", "is_reserved": 0, "lon": -77.05749133333333}, {"fusion_lat": 0.0, "name": "cdf198a3b36ab29312246807a7b17a11", "is_disabled": 0, "rental_uris": {"android": "https://dc.lft.to/lastmile_qr_scan", "ios": "https://dc.lft.to/lastmile_qr_scan"}, "fusion_lon": 0.0, "lat": 38.91104683333333, "bike_id": "cdf198a3b36ab29312246807a7b17a11", "type": "electric_scooter", "is_reserved": 0, "lon": -77.04202233333334}, {"fusion_lat": 0.0, "name": "6179c4899b6bee89efae3c916cde4b40", "is_disabled": 0, "rental_uris": {"android": "https://dc.lft.to/lastmile_qr_scan", "ios": "https://dc.lft.to/lastmile_qr_scan"}, "fusion_lon": 0.0, "lat": 38.91710116666667, "bike_id": "6179c4899b6bee89efae3c916cde4b40", "type": "electric_scooter", "is_reserved": 0, "lon": -77.02598383333333}, {"fusion_lat": 0.0, "name": "c45f38688219e24f2891e737b1948924", "is_disabled": 0, "rental_uris": {"android": "https://dc.lft.to/lastmile_qr_scan", "ios": "https://dc.lft.to/lastmile_qr_scan"}, "fusion_lon": 0.0, "lat": 38.916249666666666, "bike_id": "c45f38688219e24f2891e737b1948924", "type": "electric_scooter", "is_reserved": 0, "lon": -77.03208383333333}, {"fusion_lat": 0.0, "name": "7cfa92e182e335a158cb993d1561731f", "is_disabled": 0, "rental_uris": {"android": "https://dc.lft.to/lastmile_qr_scan", "ios": "https://dc.lft.to/lastmile_qr_scan"}, "fusion_lon": 0.0, "lat": 38.9085105, "bike_id": "7cfa92e182e335a158cb993d1561731f", "type": "electric_scooter", "is_reserved": 0, "lon": -77.03292566666667}, {"fusion_lat": 0.0, "name": "775f17e2ad7d4119776db73c7800f5da", "is_disabled": 0, "rental_uris": {"android": "https://dc.lft.to/lastmile_qr_scan", "ios": "https://dc.lft.to/lastmile_qr_scan"}, "fusion_lon": 0.0, "lat": 38.950086166666665, "bike_id": "775f17e2ad7d4119776db73c7800f5da", "type": "electric_scooter", "is_reserved": 0, "lon": -77.08073766666666}, {"fusion_lat": 0.0, "name": "34291c0fd17f6950498ab4d26a422373", "is_disabled": 0, "rental_uris": {"android": "https://dc.lft.to/lastmile_qr_scan", "ios": "https://dc.lft.to/lastmile_qr_scan"}, "fusion_lon": 0.0, "lat": 38.900384, "bike_id": "34291c0fd17f6950498ab4d26a422373", "type": "electric_scooter", "is_reserved": 0, "lon": -76.991473}, {"fusion_lat": 0.0, "name": "a786d262870591c19c87b44f1761ec07", "is_disabled": 0, "rental_uris": {"android": "https://dc.lft.to/lastmile_qr_scan", "ios": "https://dc.lft.to/lastmile_qr_scan"}, "fusion_lon": 0.0, "lat": 38.892173, "bike_id": "a786d262870591c19c87b44f1761ec07", "type": "electric_scooter", "is_reserved": 0, "lon": -77.026549}, {"fusion_lat": 0.0, "name": "3106ab4bd54c1a9fea1465adda2c55fa", "is_disabled": 0, "rental_uris": {"android": "https://dc.lft.to/lastmile_qr_scan", "ios": "https://dc.lft.to/lastmile_qr_scan"}, "fusion_lon": 0.0, "lat": 38.90379433333333, "bike_id": "3106ab4bd54c1a9fea1465adda2c55fa", "type": "electric_scooter", "is_reserved": 0, "lon": -77.00980383333334}, {"fusion_lat": 0.0, "name": "184888eb689d22cc8a991ef8ff119c1f", "is_disabled": 0, "rental_uris": {"android": "https://dc.lft.to/lastmile_qr_scan", "ios": "https://dc.lft.to/lastmile_qr_scan"}, "fusion_lon": 0.0, "lat": 38.883721333333334, "bike_id": "184888eb689d22cc8a991ef8ff119c1f", "type": "electric_scooter", "is_reserved": 0, "lon": -76.9951745}, {"fusion_lat": 0.0, "name": "364b244286a2aaf86fd6c9e0d159bc24", "is_disabled": 0, "rental_uris": {"android": "https://dc.lft.to/lastmile_qr_scan", "ios": "https://dc.lft.to/lastmile_qr_scan"}, "fusion_lon": 0.0, "lat": 38.9171615, "bike_id": "364b244286a2aaf86fd6c9e0d159bc24", "type": "electric_scooter", "is_reserved": 0, "lon": -77.0228145}, {"fusion_lat": 0.0, "name": "b50b7a8b664a09d3b849af443d3bb816", "is_disabled": 0, "rental_uris": {"android": "https://dc.lft.to/lastmile_qr_scan", "ios": "https://dc.lft.to/lastmile_qr_scan"}, "fusion_lon": 0.0, "lat": 38.899990833333334, "bike_id": "b50b7a8b664a09d3b849af443d3bb816", "type": "electric_scooter", "is_reserved": 0, "lon": -77.0448415}, {"fusion_lat": 0.0, "name": "a8a12b86672d3cc07cd27db31ebabafb", "is_disabled": 0, "rental_uris": {"android": "https://dc.lft.to/lastmile_qr_scan", "ios": "https://dc.lft.to/lastmile_qr_scan"}, "fusion_lon": 0.0, "lat": 38.900325333333335, "bike_id": "a8a12b86672d3cc07cd27db31ebabafb", "type": "electric_scooter", "is_reserved": 0, "lon": -77.00205316666667}, {"fusion_lat": 0.0, "name": "715789473705de1c8e46e6c0a957ca82", "is_disabled": 0, "rental_uris": {"android": "https://dc.lft.to/lastmile_qr_scan", "ios": "https://dc.lft.to/lastmile_qr_scan"}, "fusion_lon": 0.0, "lat": 38.92406416666667, "bike_id": "715789473705de1c8e46e6c0a957ca82", "type": "electric_scooter", "is_reserved": 0, "lon": -77.02704816666666}, {"fusion_lat": 0.0, "name": "53f7ed8b5cfa735e62246dd048228066", "is_disabled": 0, "rental_uris": {"android": "https://dc.lft.to/lastmile_qr_scan", "ios": "https://dc.lft.to/lastmile_qr_scan"}, "fusion_lon": 0.0, "lat": 38.9212815, "bike_id": "53f7ed8b5cfa735e62246dd048228066", "type": "electric_scooter", "is_reserved": 0, "lon": -77.02509583333334}, {"fusion_lat": 0.0, "name": "c370531576bc7512fd5ac002544569c4", "is_disabled": 0, "rental_uris": {"android": "https://dc.lft.to/lastmile_qr_scan", "ios": "https://dc.lft.to/lastmile_qr_scan"}, "fusion_lon": 0.0, "lat": 38.91462816666667, "bike_id": "c370531576bc7512fd5ac002544569c4", "type": "electric_scooter", "is_reserved": 0, "lon": -77.0021365}, {"fusion_lat": 0.0, "name": "cd1966ff04681c9dd53cf58789c6de78", "is_disabled": 0, "rental_uris": {"android": "https://dc.lft.to/lastmile_qr_scan", "ios": "https://dc.lft.to/lastmile_qr_scan"}, "fusion_lon": 0.0, "lat": 38.892986, "bike_id": "cd1966ff04681c9dd53cf58789c6de78", "type": "electric_scooter", "is_reserved": 0, "lon": -77.0123145}, {"fusion_lat": 0.0, "name": "20f64210cfb3e9e3d8b029f7eedef235", "is_disabled": 0, "rental_uris": {"android": "https://dc.lft.to/lastmile_qr_scan", "ios": "https://dc.lft.to/lastmile_qr_scan"}, "fusion_lon": 0.0, "lat": 38.902308, "bike_id": "20f64210cfb3e9e3d8b029f7eedef235", "type": "electric_scooter", "is_reserved": 0, "lon": -77.05336966666667}, {"fusion_lat": 0.0, "name": "144416660d521dc6f271e8ebf8d5028b", "is_disabled": 0, "rental_uris": {"android": "https://dc.lft.to/lastmile_qr_scan", "ios": "https://dc.lft.to/lastmile_qr_scan"}, "fusion_lon": 0.0, "lat": 38.9169385, "bike_id": "144416660d521dc6f271e8ebf8d5028b", "type": "electric_scooter", "is_reserved": 0, "lon": -77.033843}, {"fusion_lat": 0.0, "name": "95c596fb6946ac9ba5f8a4794dc0eb7a", "is_disabled": 0, "rental_uris": {"android": "https://dc.lft.to/lastmile_qr_scan", "ios": "https://dc.lft.to/lastmile_qr_scan"}, "fusion_lon": 0.0, "lat": 38.9354445, "bike_id": "95c596fb6946ac9ba5f8a4794dc0eb7a", "type": "electric_scooter", "is_reserved": 0, "lon": -77.05739116666666}, {"fusion_lat": 0.0, "name": "28987531001f4f7a882d0c560aec0428", "is_disabled": 0, "rental_uris": {"android": "https://dc.lft.to/lastmile_qr_scan", "ios": "https://dc.lft.to/lastmile_qr_scan"}, "fusion_lon": 0.0, "lat": 38.901229666666666, "bike_id": "28987531001f4f7a882d0c560aec0428", "type": "electric_scooter", "is_reserved": 0, "lon": -77.002133}, {"fusion_lat": 0.0, "name": "1c7908fc3cc3e514f79a20557056fe9c", "is_disabled": 0, "rental_uris": {"android": "https://dc.lft.to/lastmile_qr_scan", "ios": "https://dc.lft.to/lastmile_qr_scan"}, "fusion_lon": 0.0, "lat": 38.887834, "bike_id": "1c7908fc3cc3e514f79a20557056fe9c", "type": "electric_scooter", "is_reserved": 0, "lon": -76.95540783333334}, {"fusion_lat": 0.0, "name": "6ebc17d8710280ff9281500eeb8369b5", "is_disabled": 0, "rental_uris": {"android": "https://dc.lft.to/lastmile_qr_scan", "ios": "https://dc.lft.to/lastmile_qr_scan"}, "fusion_lon": 0.0, "lat": 38.9054155, "bike_id": "6ebc17d8710280ff9281500eeb8369b5", "type": "electric_scooter", "is_reserved": 0, "lon": -77.0464795}, {"fusion_lat": 0.0, "name": "30804623cc2d3e656a12663ade337025", "is_disabled": 0, "rental_uris": {"android": "https://dc.lft.to/lastmile_qr_scan", "ios": "https://dc.lft.to/lastmile_qr_scan"}, "fusion_lon": 0.0, "lat": 38.9588125, "bike_id": "30804623cc2d3e656a12663ade337025", "type": "electric_bike", "is_reserved": 0, "lon": -77.010353}, {"fusion_lat": 0.0, "name": "28399e5ba9860f6c4c83eecbde92040f", "is_disabled": 0, "rental_uris": {"android": "https://dc.lft.to/lastmile_qr_scan", "ios": "https://dc.lft.to/lastmile_qr_scan"}, "fusion_lon": 0.0, "lat": 38.93398633333334, "bike_id": "28399e5ba9860f6c4c83eecbde92040f", "type": "electric_scooter", "is_reserved": 0, "lon": -77.05742583333334}, {"fusion_lat": 0.0, "name": "b55e21ad4243ccfb49364dbd5260d666", "is_disabled": 0, "rental_uris": {"android": "https://dc.lft.to/lastmile_qr_scan", "ios": "https://dc.lft.to/lastmile_qr_scan"}, "fusion_lon": 0.0, "lat": 38.9099155, "bike_id": "b55e21ad4243ccfb49364dbd5260d666", "type": "electric_scooter", "is_reserved": 0, "lon": -77.0467065}, {"fusion_lat": 0.0, "name": "32eeadb8792459086b0e4e0cba34cd9a", "is_disabled": 0, "rental_uris": {"android": "https://dc.lft.to/lastmile_qr_scan", "ios": "https://dc.lft.to/lastmile_qr_scan"}, "fusion_lon": 0.0, "lat": 38.938556166666665, "bike_id": "32eeadb8792459086b0e4e0cba34cd9a", "type": "electric_scooter", "is_reserved": 0, "lon": -77.03418483333333}, {"fusion_lat": 0.0, "name": "f3671990eb6ac3b4f6431b1ea8a16b43", "is_disabled": 0, "rental_uris": {"android": "https://dc.lft.to/lastmile_qr_scan", "ios": "https://dc.lft.to/lastmile_qr_scan"}, "fusion_lon": 0.0, "lat": 38.919421666666665, "bike_id": "f3671990eb6ac3b4f6431b1ea8a16b43", "type": "electric_scooter", "is_reserved": 0, "lon": -77.032111}, {"fusion_lat": 0.0, "name": "1f83277a355fbc214a8ea2aa50a5a34b", "is_disabled": 0, "rental_uris": {"android": "https://dc.lft.to/lastmile_qr_scan", "ios": "https://dc.lft.to/lastmile_qr_scan"}, "fusion_lon": 0.0, "lat": 38.91564866666667, "bike_id": "1f83277a355fbc214a8ea2aa50a5a34b", "type": "electric_scooter", "is_reserved": 0, "lon": -77.03135166666667}, {"fusion_lat": 0.0, "name": "610147993e30cb7c807c27f9f0ffcf4f", "is_disabled": 0, "rental_uris": {"android": "https://dc.lft.to/lastmile_qr_scan", "ios": "https://dc.lft.to/lastmile_qr_scan"}, "fusion_lon": 0.0, "lat": 38.87968166666667, "bike_id": "610147993e30cb7c807c27f9f0ffcf4f", "type": "electric_bike", "is_reserved": 0, "lon": -76.91616033333334}, {"fusion_lat": 0.0, "name": "e43203d82f14b040bfea62a7151ff230", "is_disabled": 0, "rental_uris": {"android": "https://dc.lft.to/lastmile_qr_scan", "ios": "https://dc.lft.to/lastmile_qr_scan"}, "fusion_lon": 0.0, "lat": 38.908113666666665, "bike_id": "e43203d82f14b040bfea62a7151ff230", "type": "electric_scooter", "is_reserved": 0, "lon": -77.03448333333333}, {"fusion_lat": 0.0, "name": "9e3c1b11195213c5d1a90e8e04bd675a", "is_disabled": 0, "rental_uris": {"android": "https://dc.lft.to/lastmile_qr_scan", "ios": "https://dc.lft.to/lastmile_qr_scan"}, "fusion_lon": 0.0, "lat": 38.899633333333334, "bike_id": "9e3c1b11195213c5d1a90e8e04bd675a", "type": "electric_scooter", "is_reserved": 0, "lon": -77.0161585}, {"fusion_lat": 0.0, "name": "24ad1e29dc811e578cb809a4195e8301", "is_disabled": 0, "rental_uris": {"android": "https://dc.lft.to/lastmile_qr_scan", "ios": "https://dc.lft.to/lastmile_qr_scan"}, "fusion_lon": 0.0, "lat": 38.91710366666667, "bike_id": "24ad1e29dc811e578cb809a4195e8301", "type": "electric_scooter", "is_reserved": 0, "lon": -76.97662683333333}, {"fusion_lat": 0.0, "name": "8e9b306ba552d9e832fd533bcf75c933", "is_disabled": 0, "rental_uris": {"android": "https://dc.lft.to/lastmile_qr_scan", "ios": "https://dc.lft.to/lastmile_qr_scan"}, "fusion_lon": 0.0, "lat": 38.919218666666666, "bike_id": "8e9b306ba552d9e832fd533bcf75c933", "type": "electric_scooter", "is_reserved": 0, "lon": -77.032132}, {"fusion_lat": 0.0, "name": "8a2b5835faf301387cc9a7e482be3a85", "is_disabled": 0, "rental_uris": {"android": "https://dc.lft.to/lastmile_qr_scan", "ios": "https://dc.lft.to/lastmile_qr_scan"}, "fusion_lon": 0.0, "lat": 38.92090133333333, "bike_id": "8a2b5835faf301387cc9a7e482be3a85", "type": "electric_scooter", "is_reserved": 0, "lon": -77.02429966666666}, {"fusion_lat": 0.0, "name": "b07805e8ff2494259eab674af902b6c2", "is_disabled": 0, "rental_uris": {"android": "https://dc.lft.to/lastmile_qr_scan", "ios": "https://dc.lft.to/lastmile_qr_scan"}, "fusion_lon": 0.0, "lat": 38.907775666666666, "bike_id": "b07805e8ff2494259eab674af902b6c2", "type": "electric_scooter", "is_reserved": 0, "lon": -77.03857583333334}, {"fusion_lat": 0.0, "name": "2379a6f42ea8601e45f0589575df0761", "is_disabled": 0, "rental_uris": {"android": "https://dc.lft.to/lastmile_qr_scan", "ios": "https://dc.lft.to/lastmile_qr_scan"}, "fusion_lon": 0.0, "lat": 38.939818, "bike_id": "2379a6f42ea8601e45f0589575df0761", "type": "electric_scooter", "is_reserved": 0, "lon": -77.02976483333333}, {"fusion_lat": 0.0, "name": "e2e37edd7b08f495aac6fa29e6e39555", "is_disabled": 0, "rental_uris": {"android": "https://dc.lft.to/lastmile_qr_scan", "ios": "https://dc.lft.to/lastmile_qr_scan"}, "fusion_lon": 0.0, "lat": 38.90012683333333, "bike_id": "e2e37edd7b08f495aac6fa29e6e39555", "type": "electric_scooter", "is_reserved": 0, "lon": -76.98799083333333}, {"fusion_lat": 0.0, "name": "d72db389c2a8a96d473cf904b450365f", "is_disabled": 0, "rental_uris": {"android": "https://dc.lft.to/lastmile_qr_scan", "ios": "https://dc.lft.to/lastmile_qr_scan"}, "fusion_lon": 0.0, "lat": 38.92800616666667, "bike_id": "d72db389c2a8a96d473cf904b450365f", "type": "electric_scooter", "is_reserved": 0, "lon": -77.02455566666667}, {"fusion_lat": 0.0, "name": "d7787ff15331d8957e52ac369edfd25f", "is_disabled": 0, "rental_uris": {"android": "https://dc.lft.to/lastmile_qr_scan", "ios": "https://dc.lft.to/lastmile_qr_scan"}, "fusion_lon": 0.0, "lat": 38.956037, "bike_id": "d7787ff15331d8957e52ac369edfd25f", "type": "electric_scooter", "is_reserved": 0, "lon": -77.0335555}, {"fusion_lat": 0.0, "name": "fbc7c34ccdc03558f806bbe4ce32f2ba", "is_disabled": 0, "rental_uris": {"android": "https://dc.lft.to/lastmile_qr_scan", "ios": "https://dc.lft.to/lastmile_qr_scan"}, "fusion_lon": 0.0, "lat": 38.90094216666667, "bike_id": "fbc7c34ccdc03558f806bbe4ce32f2ba", "type": "electric_scooter", "is_reserved": 0, "lon": -76.98325233333334}, {"fusion_lat": 0.0, "name": "c8dffc41416e075f75731ed7715967d6", "is_disabled": 0, "rental_uris": {"android": "https://dc.lft.to/lastmile_qr_scan", "ios": "https://dc.lft.to/lastmile_qr_scan"}, "fusion_lon": 0.0, "lat": 38.902306833333334, "bike_id": "c8dffc41416e075f75731ed7715967d6", "type": "electric_scooter", "is_reserved": 0, "lon": -77.0177475}, {"fusion_lat": 0.0, "name": "42715986a557327af0b13ecd166dc370", "is_disabled": 0, "rental_uris": {"android": "https://dc.lft.to/lastmile_qr_scan", "ios": "https://dc.lft.to/lastmile_qr_scan"}, "fusion_lon": 0.0, "lat": 38.997755, "bike_id": "42715986a557327af0b13ecd166dc370", "type": "electric_bike", "is_reserved": 0, "lon": -77.04713633333333}, {"fusion_lat": 0.0, "name": "3e3d288b592e6fd3de3ecd954dff8f22", "is_disabled": 0, "rental_uris": {"android": "https://dc.lft.to/lastmile_qr_scan", "ios": "https://dc.lft.to/lastmile_qr_scan"}, "fusion_lon": 0.0, "lat": 38.92561366666666, "bike_id": "3e3d288b592e6fd3de3ecd954dff8f22", "type": "electric_scooter", "is_reserved": 0, "lon": -77.05268533333333}, {"fusion_lat": 0.0, "name": "9b5bbacf0c6f0e8cd22dfddbfe1f134b", "is_disabled": 0, "rental_uris": {"android": "https://dc.lft.to/lastmile_qr_scan", "ios": "https://dc.lft.to/lastmile_qr_scan"}, "fusion_lon": 0.0, "lat": 38.9202815, "bike_id": "9b5bbacf0c6f0e8cd22dfddbfe1f134b", "type": "electric_scooter", "is_reserved": 0, "lon": -77.071466}, {"fusion_lat": 0.0, "name": "0fb943c626cce3016baf3a494e3008c6", "is_disabled": 0, "rental_uris": {"android": "https://dc.lft.to/lastmile_qr_scan", "ios": "https://dc.lft.to/lastmile_qr_scan"}, "fusion_lon": 0.0, "lat": 38.90955533333333, "bike_id": "0fb943c626cce3016baf3a494e3008c6", "type": "electric_scooter", "is_reserved": 0, "lon": -76.98537116666667}, {"fusion_lat": 0.0, "name": "6dd6aa48d911131c2afe7aa6a9d06b08", "is_disabled": 0, "rental_uris": {"android": "https://dc.lft.to/lastmile_qr_scan", "ios": "https://dc.lft.to/lastmile_qr_scan"}, "fusion_lon": 0.0, "lat": 38.91945583333333, "bike_id": "6dd6aa48d911131c2afe7aa6a9d06b08", "type": "electric_scooter", "is_reserved": 0, "lon": -77.01793866666667}, {"fusion_lat": 0.0, "name": "ca48e5280d93f7982fc6ce05269e1275", "is_disabled": 0, "rental_uris": {"android": "https://dc.lft.to/lastmile_qr_scan", "ios": "https://dc.lft.to/lastmile_qr_scan"}, "fusion_lon": 0.0, "lat": 38.919219166666664, "bike_id": "ca48e5280d93f7982fc6ce05269e1275", "type": "electric_scooter", "is_reserved": 0, "lon": -77.03045616666667}, {"fusion_lat": 0.0, "name": "b70c9629c9b1dcfc31b22655249584c9", "is_disabled": 0, "rental_uris": {"android": "https://dc.lft.to/lastmile_qr_scan", "ios": "https://dc.lft.to/lastmile_qr_scan"}, "fusion_lon": 0.0, "lat": 38.90852533333333, "bike_id": "b70c9629c9b1dcfc31b22655249584c9", "type": "electric_scooter", "is_reserved": 0, "lon": -77.02724266666667}, {"fusion_lat": 0.0, "name": "6c88cc222794328f9b755550dc643f86", "is_disabled": 0, "rental_uris": {"android": "https://dc.lft.to/lastmile_qr_scan", "ios": "https://dc.lft.to/lastmile_qr_scan"}, "fusion_lon": 0.0, "lat": 38.93240633333333, "bike_id": "6c88cc222794328f9b755550dc643f86", "type": "electric_scooter", "is_reserved": 0, "lon": -77.03263133333333}, {"fusion_lat": 0.0, "name": "f28643c64978418b59f17dba045df2bf", "is_disabled": 0, "rental_uris": {"android": "https://dc.lft.to/lastmile_qr_scan", "ios": "https://dc.lft.to/lastmile_qr_scan"}, "fusion_lon": 0.0, "lat": 38.90381433333334, "bike_id": "f28643c64978418b59f17dba045df2bf", "type": "electric_scooter", "is_reserved": 0, "lon": -77.0482205}, {"fusion_lat": 0.0, "name": "622713f649ddf7b92c1efd2f5e607ef8", "is_disabled": 0, "rental_uris": {"android": "https://dc.lft.to/lastmile_qr_scan", "ios": "https://dc.lft.to/lastmile_qr_scan"}, "fusion_lon": 0.0, "lat": 38.9000845, "bike_id": "622713f649ddf7b92c1efd2f5e607ef8", "type": "electric_scooter", "is_reserved": 0, "lon": -76.9880785}, {"fusion_lat": 0.0, "name": "08962aafab5d7ddccf4ae196b9024008", "is_disabled": 0, "rental_uris": {"android": "https://dc.lft.to/lastmile_qr_scan", "ios": "https://dc.lft.to/lastmile_qr_scan"}, "fusion_lon": 0.0, "lat": 38.90032933333333, "bike_id": "08962aafab5d7ddccf4ae196b9024008", "type": "electric_scooter", "is_reserved": 0, "lon": -76.99635016666667}, {"fusion_lat": 0.0, "name": "ae7fea19a0210d20b6c64adc7c2c095e", "is_disabled": 0, "rental_uris": {"android": "https://dc.lft.to/lastmile_qr_scan", "ios": "https://dc.lft.to/lastmile_qr_scan"}, "fusion_lon": 0.0, "lat": 38.9368695, "bike_id": "ae7fea19a0210d20b6c64adc7c2c095e", "type": "electric_scooter", "is_reserved": 0, "lon": -77.036302}, {"fusion_lat": 0.0, "name": "b9d5d3f75756a463234a79a27c43c701", "is_disabled": 0, "rental_uris": {"android": "https://dc.lft.to/lastmile_qr_scan", "ios": "https://dc.lft.to/lastmile_qr_scan"}, "fusion_lon": 0.0, "lat": 38.900800333333336, "bike_id": "b9d5d3f75756a463234a79a27c43c701", "type": "electric_scooter", "is_reserved": 0, "lon": -77.0475015}, {"fusion_lat": 0.0, "name": "ca2667479e9b6cbe457bd1033e875cea", "is_disabled": 0, "rental_uris": {"android": "https://dc.lft.to/lastmile_qr_scan", "ios": "https://dc.lft.to/lastmile_qr_scan"}, "fusion_lon": 0.0, "lat": 38.954185333333335, "bike_id": "ca2667479e9b6cbe457bd1033e875cea", "type": "electric_scooter", "is_reserved": 0, "lon": -77.02763683333333}, {"fusion_lat": 0.0, "name": "ac37bcaec4de5804aea43339f8a3603b", "is_disabled": 0, "rental_uris": {"android": "https://dc.lft.to/lastmile_qr_scan", "ios": "https://dc.lft.to/lastmile_qr_scan"}, "fusion_lon": 0.0, "lat": 38.921192166666664, "bike_id": "ac37bcaec4de5804aea43339f8a3603b", "type": "electric_scooter", "is_reserved": 0, "lon": -77.01209}, {"fusion_lat": 0.0, "name": "01b37521d4f35b4dea70498912a0c8f9", "is_disabled": 0, "rental_uris": {"android": "https://dc.lft.to/lastmile_qr_scan", "ios": "https://dc.lft.to/lastmile_qr_scan"}, "fusion_lon": 0.0, "lat": 38.91682316666667, "bike_id": "01b37521d4f35b4dea70498912a0c8f9", "type": "electric_scooter", "is_reserved": 0, "lon": -77.02974233333333}, {"fusion_lat": 0.0, "name": "278729742007803db2a03fb452ecc22d", "is_disabled": 0, "rental_uris": {"android": "https://dc.lft.to/lastmile_qr_scan", "ios": "https://dc.lft.to/lastmile_qr_scan"}, "fusion_lon": 0.0, "lat": 38.847585, "bike_id": "278729742007803db2a03fb452ecc22d", "type": "electric_scooter", "is_reserved": 0, "lon": -76.99501683333334}, {"fusion_lat": 0.0, "name": "0bac5b2f0b6a0d6fb5b19435b5b0b2e1", "is_disabled": 0, "rental_uris": {"android": "https://dc.lft.to/lastmile_qr_scan", "ios": "https://dc.lft.to/lastmile_qr_scan"}, "fusion_lon": 0.0, "lat": 38.89736633333333, "bike_id": "0bac5b2f0b6a0d6fb5b19435b5b0b2e1", "type": "electric_scooter", "is_reserved": 0, "lon": -77.055228}, {"fusion_lat": 0.0, "name": "632986cb7adeabdd80370edbbd91c250", "is_disabled": 0, "rental_uris": {"android": "https://dc.lft.to/lastmile_qr_scan", "ios": "https://dc.lft.to/lastmile_qr_scan"}, "fusion_lon": 0.0, "lat": 38.906757666666664, "bike_id": "632986cb7adeabdd80370edbbd91c250", "type": "electric_scooter", "is_reserved": 0, "lon": -77.03636233333333}, {"fusion_lat": 0.0, "name": "e5358f3958b2dfef3391428c9302634a", "is_disabled": 0, "rental_uris": {"android": "https://dc.lft.to/lastmile_qr_scan", "ios": "https://dc.lft.to/lastmile_qr_scan"}, "fusion_lon": 0.0, "lat": 38.853646499999996, "bike_id": "e5358f3958b2dfef3391428c9302634a", "type": "electric_bike", "is_reserved": 0, "lon": -77.13461616666666}, {"fusion_lat": 0.0, "name": "2f7db6980c5242b43aad2f11cf40f4b0", "is_disabled": 0, "rental_uris": {"android": "https://dc.lft.to/lastmile_qr_scan", "ios": "https://dc.lft.to/lastmile_qr_scan"}, "fusion_lon": 0.0, "lat": 38.86991483333333, "bike_id": "2f7db6980c5242b43aad2f11cf40f4b0", "type": "electric_scooter", "is_reserved": 0, "lon": -76.97727966666666}, {"fusion_lat": 0.0, "name": "63baf7039687f2fb13de1f7efcbf47bd", "is_disabled": 0, "rental_uris": {"android": "https://dc.lft.to/lastmile_qr_scan", "ios": "https://dc.lft.to/lastmile_qr_scan"}, "fusion_lon": 0.0, "lat": 38.912904833333336, "bike_id": "63baf7039687f2fb13de1f7efcbf47bd", "type": "electric_scooter", "is_reserved": 0, "lon": -77.02387133333333}, {"fusion_lat": 0.0, "name": "71e26dd294bc0f4bc42a92961063a89c", "is_disabled": 0, "rental_uris": {"android": "https://dc.lft.to/lastmile_qr_scan", "ios": "https://dc.lft.to/lastmile_qr_scan"}, "fusion_lon": 0.0, "lat": 38.91707783333333, "bike_id": "71e26dd294bc0f4bc42a92961063a89c", "type": "electric_scooter", "is_reserved": 0, "lon": -77.02803216666666}, {"fusion_lat": 0.0, "name": "9ed0a83654f151b00eff4860451f9b44", "is_disabled": 0, "rental_uris": {"android": "https://dc.lft.to/lastmile_qr_scan", "ios": "https://dc.lft.to/lastmile_qr_scan"}, "fusion_lon": 0.0, "lat": 38.9159635, "bike_id": "9ed0a83654f151b00eff4860451f9b44", "type": "electric_scooter", "is_reserved": 0, "lon": -76.99360833333333}, {"fusion_lat": 0.0, "name": "b336b6c48813dac51bbc1bc550c58d3e", "is_disabled": 0, "rental_uris": {"android": "https://dc.lft.to/lastmile_qr_scan", "ios": "https://dc.lft.to/lastmile_qr_scan"}, "fusion_lon": 0.0, "lat": 38.86664733333333, "bike_id": "b336b6c48813dac51bbc1bc550c58d3e", "type": "electric_scooter", "is_reserved": 0, "lon": -77.01081966666666}, {"fusion_lat": 0.0, "name": "10dc2310c2d6d0632e93d6f4755236a0", "is_disabled": 0, "rental_uris": {"android": "https://dc.lft.to/lastmile_qr_scan", "ios": "https://dc.lft.to/lastmile_qr_scan"}, "fusion_lon": 0.0, "lat": 38.907409, "bike_id": "10dc2310c2d6d0632e93d6f4755236a0", "type": "electric_scooter", "is_reserved": 0, "lon": -77.03302916666667}, {"fusion_lat": 0.0, "name": "72e63e1340eafc6448e02dddc3d940f5", "is_disabled": 0, "rental_uris": {"android": "https://dc.lft.to/lastmile_qr_scan", "ios": "https://dc.lft.to/lastmile_qr_scan"}, "fusion_lon": 0.0, "lat": 38.92656383333333, "bike_id": "72e63e1340eafc6448e02dddc3d940f5", "type": "electric_scooter", "is_reserved": 0, "lon": -77.04313766666667}, {"fusion_lat": 0.0, "name": "c811c0b7d6eb3f6c2c97e59e8b51af0c", "is_disabled": 0, "rental_uris": {"android": "https://dc.lft.to/lastmile_qr_scan", "ios": "https://dc.lft.to/lastmile_qr_scan"}, "fusion_lon": 0.0, "lat": 38.90148833333333, "bike_id": "c811c0b7d6eb3f6c2c97e59e8b51af0c", "type": "electric_scooter", "is_reserved": 0, "lon": -76.97425366666667}, {"fusion_lat": 0.0, "name": "b87fd20bbb484166828a853b8ae8b0a4", "is_disabled": 0, "rental_uris": {"android": "https://dc.lft.to/lastmile_qr_scan", "ios": "https://dc.lft.to/lastmile_qr_scan"}, "fusion_lon": 0.0, "lat": 38.9208715, "bike_id": "b87fd20bbb484166828a853b8ae8b0a4", "type": "electric_scooter", "is_reserved": 0, "lon": -77.0240565}, {"fusion_lat": 0.0, "name": "76286197c6f1051b7e68921e68457f3d", "is_disabled": 0, "rental_uris": {"android": "https://dc.lft.to/lastmile_qr_scan", "ios": "https://dc.lft.to/lastmile_qr_scan"}, "fusion_lon": 0.0, "lat": 38.907238166666666, "bike_id": "76286197c6f1051b7e68921e68457f3d", "type": "electric_scooter", "is_reserved": 0, "lon": -77.04351233333334}, {"fusion_lat": 0.0, "name": "b083e8d1ef7c1539d1afd422c95814c0", "is_disabled": 0, "rental_uris": {"android": "https://dc.lft.to/lastmile_qr_scan", "ios": "https://dc.lft.to/lastmile_qr_scan"},