{"data": {"bikes": [{"fusion_lat": 0.0, "lon": -76.96466333333333, "is_reserved": 0, "bike_id": "da8c0d23c46de7a54ff906dd9155434d", "fusion_lon": 0.0, "rental_uris": {"android": "https://dc.lft.to/lastmile_qr_scan", "ios": "https://dc.lft.to/lastmile_qr_scan"}, "name": "da8c0d23c46de7a54ff906dd9155434d", "type": "electric_scooter", "lat": 38.93447966666667, "is_disabled": 0}, {"fusion_lat": 0.0, "lon": -77.0727065, "is_reserved": 0, "bike_id": "4b8280d9c6b1e4f72a861833e7f37791", "fusion_lon": 0.0, "rental_uris": {"android": "https://dc.lft.to/lastmile_qr_scan", "ios": "https://dc.lft.to/lastmile_qr_scan"}, "name": "4b8280d9c6b1e4f72a861833e7f37791", "type": "electric_scooter", "lat": 38.9348335, "is_disabled": 0}, {"fusion_lat": 0.0, "lon": -77.03255566666667, "is_reserved": 0, "bike_id": "dea20f0ff73fbb4d98615cac591244c7", "fusion_lon": 0.0, "rental_uris": {"android": "https://dc.lft.to/lastmile_qr_scan", "ios": "https://dc.lft.to/lastmile_qr_scan"}, "name": "dea20f0ff73fbb4d98615cac591244c7", "type": "electric_scooter", "lat": 38.92739866666667, "is_disabled": 0}, {"fusion_lat": 0.0, "lon": -76.985323, "is_reserved": 0, "bike_id": "a7bc5b97d0dc86ecdd804eafa20bbb3f", "fusion_lon": 0.0, "rental_uris": {"android": "https://dc.lft.to/lastmile_qr_scan", "ios": "https://dc.lft.to/lastmile_qr_scan"}, "name": "a7bc5b97d0dc86ecdd804eafa20bbb3f", "type": "electric_scooter", "lat": 38.910268, "is_disabled": 0}, {"fusion_lat": 0.0, "lon": -77.02687783333333, "is_reserved": 0, "bike_id": "bc26a541cda6765b435f70814d8ca4c5", "fusion_lon": 0.0, "rental_uris": {"android": "https://dc.lft.to/lastmile_qr_scan", "ios": "https://dc.lft.to/lastmile_qr_scan"}, "name": "bc26a541cda6765b435f70814d8ca4c5", "type": "electric_scooter", "lat": 38.927762, "is_disabled": 0}, {"fusion_lat": 0.0, "lon": -77.02684183333334, "is_reserved": 0, "bike_id": "8a39567da4e3e9f65572924d62c4c3b1", "fusion_lon": 0.0, "rental_uris": {"android": "https://dc.lft.to/lastmile_qr_scan", "ios": "https://dc.lft.to/lastmile_qr_scan"}, "name": "8a39567da4e3e9f65572924d62c4c3b1", "type": "electric_scooter", "lat": 38.984887, "is_disabled": 0}, {"fusion_lat": 0.0, "lon": -77.02949983333333, "is_reserved": 0, "bike_id": "5ee00481a27e15f7d3fd6a520b92a61d", "fusion_lon": 0.0, "rental_uris": {"android": "https://dc.lft.to/lastmile_qr_scan", "ios": "https://dc.lft.to/lastmile_qr_scan"}, "name": "5ee00481a27e15f7d3fd6a520b92a61d", "type": "electric_scooter", "lat": 38.932500833333336, "is_disabled": 0}, {"fusion_lat": 0.0, "lon": -77.031858, "is_reserved": 0, "bike_id": "e6369070ea707d50ef4287b0fd8ce85c", "fusion_lon": 0.0, "rental_uris": {"android": "https://dc.lft.to/lastmile_qr_scan", "ios": "https://dc.lft.to/lastmile_qr_scan"}, "name": "e6369070ea707d50ef4287b0fd8ce85c", "type": "electric_scooter", "lat": 38.88415616666666, "is_disabled": 0}, {"fusion_lat": 0.0, "lon": -76.99205016666667, "is_reserved": 0, "bike_id": "677ba31f48ac95dc71347cd3c75d7f27", "fusion_lon": 0.0, "rental_uris": {"android": "https://dc.lft.to/lastmile_qr_scan", "ios": "https://dc.lft.to/lastmile_qr_scan"}, "name": "677ba31f48ac95dc71347cd3c75d7f27", "type": "electric_scooter", "lat": 38.89522983333333, "is_disabled": 0}, {"fusion_lat": 0.0, "lon": -77.037748, "is_reserved": 0, "bike_id": "6e68d7fa5d232167c1ef77c8313e50fe", "fusion_lon": 0.0, "rental_uris": {"android": "https://dc.lft.to/lastmile_qr_scan", "ios": "https://dc.lft.to/lastmile_qr_scan"}, "name": "6e68d7fa5d232167c1ef77c8313e50fe", "type": "electric_scooter", "lat": 38.91685366666667, "is_disabled": 0}, {"fusion_lat": 0.0, "lon": -76.99190216666666, "is_reserved": 0, "bike_id": "18a6f1397d1070be5eaad078c29e1c82", "fusion_lon": 0.0, "rental_uris": {"android": "https://dc.lft.to/lastmile_qr_scan", "ios": "https://dc.lft.to/lastmile_qr_scan"}, "name": "18a6f1397d1070be5eaad078c29e1c82", "type": "electric_scooter", "lat": 38.900293, "is_disabled": 0}, {"fusion_lat": 0.0, "lon": -77.0239845, "is_reserved": 0, "bike_id": "a9ba4cd09512b352133f3baa7b0ac093", "fusion_lon": 0.0, "rental_uris": {"android": "https://dc.lft.to/lastmile_qr_scan", "ios": "https://dc.lft.to/lastmile_qr_scan"}, "name": "a9ba4cd09512b352133f3baa7b0ac093", "type": "electric_scooter", "lat": 38.91967233333333, "is_disabled": 0}, {"fusion_lat": 0.0, "lon": -76.99693266666667, "is_reserved": 0, "bike_id": "b2990665ef94dc952d5a396df0ac8e7d", "fusion_lon": 0.0, "rental_uris": {"android": "https://dc.lft.to/lastmile_qr_scan", "ios": "https://dc.lft.to/lastmile_qr_scan"}, "name": "b2990665ef94dc952d5a396df0ac8e7d", "type": "electric_scooter", "lat": 38.90835766666667, "is_disabled": 0}, {"fusion_lat": 0.0, "lon": -77.035317, "is_reserved": 0, "bike_id": "5eda39dd61341b7dedfba50b9796be91", "fusion_lon": 0.0, "rental_uris": {"android": "https://dc.lft.to/lastmile_qr_scan", "ios": "https://dc.lft.to/lastmile_qr_scan"}, "name": "5eda39dd61341b7dedfba50b9796be91", "type": "electric_scooter", "lat": 38.91555066666667, "is_disabled": 0}, {"fusion_lat": 0.0, "lon": -77.02689683333334, "is_reserved": 0, "bike_id": "a7bbf6f0658c419317a390c8d8e858aa", "fusion_lon": 0.0, "rental_uris": {"android": "https://dc.lft.to/lastmile_qr_scan", "ios": "https://dc.lft.to/lastmile_qr_scan"}, "name": "a7bbf6f0658c419317a390c8d8e858aa", "type": "electric_scooter", "lat": 38.9488905, "is_disabled": 0}, {"fusion_lat": 0.0, "lon": -77.01820383333333, "is_reserved": 0, "bike_id": "7d0cf824417f85805ab05a0a3469654c", "fusion_lon": 0.0, "rental_uris": {"android": "https://dc.lft.to/lastmile_qr_scan", "ios": "https://dc.lft.to/lastmile_qr_scan"}, "name": "7d0cf824417f85805ab05a0a3469654c", "type": "electric_scooter", "lat": 38.89312116666667, "is_disabled": 0}, {"fusion_lat": 0.0, "lon": -77.0435095, "is_reserved": 0, "bike_id": "96d99d7bfe42fce15da50a712d2f26e3", "fusion_lon": 0.0, "rental_uris": {"android": "https://dc.lft.to/lastmile_qr_scan", "ios": "https://dc.lft.to/lastmile_qr_scan"}, "name": "96d99d7bfe42fce15da50a712d2f26e3", "type": "electric_scooter", "lat": 38.9030335, "is_disabled": 0}, {"fusion_lat": 0.0, "lon": -77.05426933333334, "is_reserved": 0, "bike_id": "a73358f296d4af2f0c85c29d698bb2fd", "fusion_lon": 0.0, "rental_uris": {"android": "https://dc.lft.to/lastmile_qr_scan", "ios": "https://dc.lft.to/lastmile_qr_scan"}, "name": "a73358f296d4af2f0c85c29d698bb2fd", "type": "electric_scooter", "lat": 38.92852716666667, "is_disabled": 0}, {"fusion_lat": 0.0, "lon": -77.00601316666666, "is_reserved": 0, "bike_id": "09a62a2b4d23091b9ef48937d3533e51", "fusion_lon": 0.0, "rental_uris": {"android": "https://dc.lft.to/lastmile_qr_scan", "ios": "https://dc.lft.to/lastmile_qr_scan"}, "name": "09a62a2b4d23091b9ef48937d3533e51", "type": "electric_bike", "lat": 38.898116333333334, "is_disabled": 0}, {"fusion_lat": 0.0, "lon": -77.0325065, "is_reserved": 0, "bike_id": "0cf7367c503ce59e5b2f98d5d31f9655", "fusion_lon": 0.0, "rental_uris": {"android": "https://dc.lft.to/lastmile_qr_scan", "ios": "https://dc.lft.to/lastmile_qr_scan"}, "name": "0cf7367c503ce59e5b2f98d5d31f9655", "type": "electric_scooter", "lat": 38.93255216666667, "is_disabled": 0}, {"fusion_lat": 0.0, "lon": -76.95018816666666, "is_reserved": 0, "bike_id": "7517dad3119c9292364344665c35f490", "fusion_lon": 0.0, "rental_uris": {"android": "https://dc.lft.to/lastmile_qr_scan", "ios": "https://dc.lft.to/lastmile_qr_scan"}, "name": "7517dad3119c9292364344665c35f490", "type": "electric_scooter", "lat": 38.893904166666665, "is_disabled": 0}, {"fusion_lat": 0.0, "lon": -77.085883, "is_reserved": 0, "bike_id": "c8e141569d21133176bee962593c20b2", "fusion_lon": 0.0, "rental_uris": {"android": "https://dc.lft.to/lastmile_qr_scan", "ios": "https://dc.lft.to/lastmile_qr_scan"}, "name": "c8e141569d21133176bee962593c20b2", "type": "electric_scooter", "lat": 38.90866116666667, "is_disabled": 0}, {"fusion_lat": 0.0, "lon": -76.98742966666667, "is_reserved": 0, "bike_id": "d0ca4a8b59adac6a8cd210172367a8e2", "fusion_lon": 0.0, "rental_uris": {"android": "https://dc.lft.to/lastmile_qr_scan", "ios": "https://dc.lft.to/lastmile_qr_scan"}, "name": "d0ca4a8b59adac6a8cd210172367a8e2", "type": "electric_scooter", "lat": 38.8448625, "is_disabled": 0}, {"fusion_lat": 0.0, "lon": -77.02620916666666, "is_reserved": 0, "bike_id": "a666f82a00f104394df2263d7672e628", "fusion_lon": 0.0, "rental_uris": {"android": "https://dc.lft.to/lastmile_qr_scan", "ios": "https://dc.lft.to/lastmile_qr_scan"}, "name": "a666f82a00f104394df2263d7672e628", "type": "electric_scooter", "lat": 38.894313333333336, "is_disabled": 0}, {"fusion_lat": 0.0, "lon": -77.04224616666667, "is_reserved": 0, "bike_id": "686b97640f509393db87e58c40c43099", "fusion_lon": 0.0, "rental_uris": {"android": "https://dc.lft.to/lastmile_qr_scan", "ios": "https://dc.lft.to/lastmile_qr_scan"}, "name": "686b97640f509393db87e58c40c43099", "type": "electric_scooter", "lat": 38.931590666666665, "is_disabled": 0}, {"fusion_lat": 0.0, "lon": -76.98062883333333, "is_reserved": 0, "bike_id": "30d9b0d7ce36612b4f40cdae13f3e90b", "fusion_lon": 0.0, "rental_uris": {"android": "https://dc.lft.to/lastmile_qr_scan", "ios": "https://dc.lft.to/lastmile_qr_scan"}, "name": "30d9b0d7ce36612b4f40cdae13f3e90b", "type": "electric_scooter", "lat": 38.901725666666664, "is_disabled": 0}, {"fusion_lat": 0.0, "lon": -77.04565266666667, "is_reserved": 0, "bike_id": "4a44cebb5337a9d43216d8976de19539", "fusion_lon": 0.0, "rental_uris": {"android": "https://dc.lft.to/lastmile_qr_scan", "ios": "https://dc.lft.to/lastmile_qr_scan"}, "name": "4a44cebb5337a9d43216d8976de19539", "type": "electric_scooter", "lat": 38.92117866666667, "is_disabled": 0}, {"fusion_lat": 0.0, "lon": -77.02230466666667, "is_reserved": 0, "bike_id": "cebf6cd62584883ea0b6dc35aa54aa18", "fusion_lon": 0.0, "rental_uris": {"android": "https://dc.lft.to/lastmile_qr_scan", "ios": "https://dc.lft.to/lastmile_qr_scan"}, "name": "cebf6cd62584883ea0b6dc35aa54aa18", "type": "electric_scooter", "lat": 38.89222066666667, "is_disabled": 0}, {"fusion_lat": 0.0, "lon": -77.03206933333334, "is_reserved": 0, "bike_id": "5f14ac4d8f307051d290f10b6f9d43ce", "fusion_lon": 0.0, "rental_uris": {"android": "https://dc.lft.to/lastmile_qr_scan", "ios": "https://dc.lft.to/lastmile_qr_scan"}, "name": "5f14ac4d8f307051d290f10b6f9d43ce", "type": "electric_scooter", "lat": 38.91325416666667, "is_disabled": 0}, {"fusion_lat": 0.0, "lon": -77.034263, "is_reserved": 0, "bike_id": "bf4cace87dac86e536f532a47a3887f1", "fusion_lon": 0.0, "rental_uris": {"android": "https://dc.lft.to/lastmile_qr_scan", "ios": "https://dc.lft.to/lastmile_qr_scan"}, "name": "bf4cace87dac86e536f532a47a3887f1", "type": "electric_scooter", "lat": 38.919366833333335, "is_disabled": 0}, {"fusion_lat": 0.0, "lon": -77.00620633333334, "is_reserved": 0, "bike_id": "c0066bca8cfdb442f86a4bca833bd451", "fusion_lon": 0.0, "rental_uris": {"android": "https://dc.lft.to/lastmile_qr_scan", "ios": "https://dc.lft.to/lastmile_qr_scan"}, "name": "c0066bca8cfdb442f86a4bca833bd451", "type": "electric_scooter", "lat": 38.87175583333333, "is_disabled": 0}, {"fusion_lat": 0.0, "lon": -77.03257466666666, "is_reserved": 0, "bike_id": "e8756dd9d71c6f951e807c95f8c7d7b2", "fusion_lon": 0.0, "rental_uris": {"android": "https://dc.lft.to/lastmile_qr_scan", "ios": "https://dc.lft.to/lastmile_qr_scan"}, "name": "e8756dd9d71c6f951e807c95f8c7d7b2", "type": "electric_scooter", "lat": 38.9181425, "is_disabled": 0}, {"fusion_lat": 0.0, "lon": -77.03485216666667, "is_reserved": 0, "bike_id": "710b981ad37a9ef850ffa6f4a39609bf", "fusion_lon": 0.0, "rental_uris": {"android": "https://dc.lft.to/lastmile_qr_scan", "ios": "https://dc.lft.to/lastmile_qr_scan"}, "name": "710b981ad37a9ef850ffa6f4a39609bf", "type": "electric_scooter", "lat": 38.9215245, "is_disabled": 0}, {"fusion_lat": 0.0, "lon": -77.04336283333333, "is_reserved": 0, "bike_id": "e472a0a1857708657da88e5d68d123c5", "fusion_lon": 0.0, "rental_uris": {"android": "https://dc.lft.to/lastmile_qr_scan", "ios": "https://dc.lft.to/lastmile_qr_scan"}, "name": "e472a0a1857708657da88e5d68d123c5", "type": "electric_scooter", "lat": 38.892295833333336, "is_disabled": 0}, {"fusion_lat": 0.0, "lon": -77.03257783333333, "is_reserved": 0, "bike_id": "5736682068376e0b8bc34e42d9a1c781", "fusion_lon": 0.0, "rental_uris": {"android": "https://dc.lft.to/lastmile_qr_scan", "ios": "https://dc.lft.to/lastmile_qr_scan"}, "name": "5736682068376e0b8bc34e42d9a1c781", "type": "electric_scooter", "lat": 38.934094, "is_disabled": 0}, {"fusion_lat": 0.0, "lon": -76.9838575, "is_reserved": 0, "bike_id": "1c233b17bf543ea86813d5d9fe705214", "fusion_lon": 0.0, "rental_uris": {"android": "https://dc.lft.to/lastmile_qr_scan", "ios": "https://dc.lft.to/lastmile_qr_scan"}, "name": "1c233b17bf543ea86813d5d9fe705214", "type": "electric_scooter", "lat": 38.926941, "is_disabled": 0}, {"fusion_lat": 0.0, "lon": -77.045033, "is_reserved": 0, "bike_id": "f11fece02613f634c0c44097f3231183", "fusion_lon": 0.0, "rental_uris": {"android": "https://dc.lft.to/lastmile_qr_scan", "ios": "https://dc.lft.to/lastmile_qr_scan"}, "name": "f11fece02613f634c0c44097f3231183", "type": "electric_scooter", "lat": 38.911153666666664, "is_disabled": 0}, {"fusion_lat": 0.0, "lon": -77.02053533333333, "is_reserved": 0, "bike_id": "0db1e1b936e90fabb51a178749a51fbf", "fusion_lon": 0.0, "rental_uris": {"android": "https://dc.lft.to/lastmile_qr_scan", "ios": "https://dc.lft.to/lastmile_qr_scan"}, "name": "0db1e1b936e90fabb51a178749a51fbf", "type": "electric_scooter", "lat": 38.921872, "is_disabled": 0}, {"fusion_lat": 0.0, "lon": -77.07815883333333, "is_reserved": 0, "bike_id": "1b071cbc5ca86e77aaed1f54e8831290", "fusion_lon": 0.0, "rental_uris": {"android": "https://dc.lft.to/lastmile_qr_scan", "ios": "https://dc.lft.to/lastmile_qr_scan"}, "name": "1b071cbc5ca86e77aaed1f54e8831290", "type": "electric_bike", "lat": 38.93640366666666, "is_disabled": 0}, {"fusion_lat": 0.0, "lon": -77.026926, "is_reserved": 0, "bike_id": "0dbac8e2cb1be0e0d7d05e841087be44", "fusion_lon": 0.0, "rental_uris": {"android": "https://dc.lft.to/lastmile_qr_scan", "ios": "https://dc.lft.to/lastmile_qr_scan"}, "name": "0dbac8e2cb1be0e0d7d05e841087be44", "type": "electric_scooter", "lat": 38.91582566666666, "is_disabled": 0}, {"fusion_lat": 0.0, "lon": -76.976137, "is_reserved": 0, "bike_id": "76910edfb4dcc3fb7f63795e864986c8", "fusion_lon": 0.0, "rental_uris": {"android": "https://dc.lft.to/lastmile_qr_scan", "ios": "https://dc.lft.to/lastmile_qr_scan"}, "name": "76910edfb4dcc3fb7f63795e864986c8", "type": "electric_scooter", "lat": 38.9129875, "is_disabled": 0}, {"fusion_lat": 0.0, "lon": -77.03615283333333, "is_reserved": 0, "bike_id": "fe6a08b875d7ce4a41b241eec9ee47ed", "fusion_lon": 0.0, "rental_uris": {"android": "https://dc.lft.to/lastmile_qr_scan", "ios": "https://dc.lft.to/lastmile_qr_scan"}, "name": "fe6a08b875d7ce4a41b241eec9ee47ed", "type": "electric_scooter", "lat": 38.93046616666667, "is_disabled": 0}, {"fusion_lat": 0.0, "lon": -76.98841533333334, "is_reserved": 0, "bike_id": "948faa7f3f26d7e3fa8038343c1c6206", "fusion_lon": 0.0, "rental_uris": {"android": "https://dc.lft.to/lastmile_qr_scan", "ios": "https://dc.lft.to/lastmile_qr_scan"}, "name": "948faa7f3f26d7e3fa8038343c1c6206", "type": "electric_bike", "lat": 38.8427965, "is_disabled": 0}, {"fusion_lat": 0.0, "lon": -77.05019766666666, "is_reserved": 0, "bike_id": "94495cf0f257aab1c9379373e3dcb4aa", "fusion_lon": 0.0, "rental_uris": {"android": "https://dc.lft.to/lastmile_qr_scan", "ios": "https://dc.lft.to/lastmile_qr_scan"}, "name": "94495cf0f257aab1c9379373e3dcb4aa", "type": "electric_scooter", "lat": 38.92355333333333, "is_disabled": 0}, {"fusion_lat": 0.0, "lon": -76.99516733333333, "is_reserved": 0, "bike_id": "26d8e60aa1d18c235c7fc12e5356d1cd", "fusion_lon": 0.0, "rental_uris": {"android": "https://dc.lft.to/lastmile_qr_scan", "ios": "https://dc.lft.to/lastmile_qr_scan"}, "name": "26d8e60aa1d18c235c7fc12e5356d1cd", "type": "electric_scooter", "lat": 38.896088666666664, "is_disabled": 0}, {"fusion_lat": 0.0, "lon": -77.02974466666667, "is_reserved": 0, "bike_id": "ea1dd5ee63f5c603c1eb41204aab6dad", "fusion_lon": 0.0, "rental_uris": {"android": "https://dc.lft.to/lastmile_qr_scan", "ios": "https://dc.lft.to/lastmile_qr_scan"}, "name": "ea1dd5ee63f5c603c1eb41204aab6dad", "type": "electric_scooter", "lat": 38.90730583333333, "is_disabled": 0}, {"fusion_lat": 0.0, "lon": -77.03530866666667, "is_reserved": 0, "bike_id": "9ad4b979a39fb957fe09f9c2d4a25bb1", "fusion_lon": 0.0, "rental_uris": {"android": "https://dc.lft.to/lastmile_qr_scan", "ios": "https://dc.lft.to/lastmile_qr_scan"}, "name": "9ad4b979a39fb957fe09f9c2d4a25bb1", "type": "electric_scooter", "lat": 38.92423683333333, "is_disabled": 0}, {"fusion_lat": 0.0, "lon": -77.03421716666666, "is_reserved": 0, "bike_id": "cc67cff3b895dce5d7173f604e5e109d", "fusion_lon": 0.0, "rental_uris": {"android": "https://dc.lft.to/lastmile_qr_scan", "ios": "https://dc.lft.to/lastmile_qr_scan"}, "name": "cc67cff3b895dce5d7173f604e5e109d", "type": "electric_scooter", "lat": 38.90965716666667, "is_disabled": 0}, {"fusion_lat": 0.0, "lon": -76.9977885, "is_reserved": 0, "bike_id": "907c89ee89dc720587cf760a5a542706", "fusion_lon": 0.0, "rental_uris": {"android": "https://dc.lft.to/lastmile_qr_scan", "ios": "https://dc.lft.to/lastmile_qr_scan"}, "name": "907c89ee89dc720587cf760a5a542706", "type": "electric_scooter", "lat": 38.844339833333336, "is_disabled": 0}, {"fusion_lat": 0.0, "lon": -77.03841666666666, "is_reserved": 0, "bike_id": "3fbd942bc143e5a0798bc2b99f6be687", "fusion_lon": 0.0, "rental_uris": {"android": "https://dc.lft.to/lastmile_qr_scan", "ios": "https://dc.lft.to/lastmile_qr_scan"}, "name": "3fbd942bc143e5a0798bc2b99f6be687", "type": "electric_scooter", "lat": 38.917382333333336, "is_disabled": 0}, {"fusion_lat": 0.0, "lon": -77.0339195, "is_reserved": 0, "bike_id": "7d8ab3e3f1c98429cdcf0bf826d860e2", "fusion_lon": 0.0, "rental_uris": {"android": "https://dc.lft.to/lastmile_qr_scan", "ios": "https://dc.lft.to/lastmile_qr_scan"}, "name": "7d8ab3e3f1c98429cdcf0bf826d860e2", "type": "electric_scooter", "lat": 38.93880333333333, "is_disabled": 0}, {"fusion_lat": 0.0, "lon": -77.02512716666666, "is_reserved": 0, "bike_id": "e3a843f15318056c1b22fea33e2e25e4", "fusion_lon": 0.0, "rental_uris": {"android": "https://dc.lft.to/lastmile_qr_scan", "ios": "https://dc.lft.to/lastmile_qr_scan"}, "name": "e3a843f15318056c1b22fea33e2e25e4", "type": "electric_scooter", "lat": 38.9208485, "is_disabled": 0}, {"fusion_lat": 0.0, "lon": -77.017783, "is_reserved": 0, "bike_id": "70f92a92eb2b38df355e6b90c0f7ae3d", "fusion_lon": 0.0, "rental_uris": {"android": "https://dc.lft.to/lastmile_qr_scan", "ios": "https://dc.lft.to/lastmile_qr_scan"}, "name": "70f92a92eb2b38df355e6b90c0f7ae3d", "type": "electric_scooter", "lat": 38.88577733333333, "is_disabled": 0}, {"fusion_lat": 0.0, "lon": -76.937549, "is_reserved": 0, "bike_id": "d84f7a7c02df68fb4c9ebcf88a9ca1d2", "fusion_lon": 0.0, "rental_uris": {"android": "https://dc.lft.to/lastmile_qr_scan", "ios": "https://dc.lft.to/lastmile_qr_scan"}, "name": "d84f7a7c02df68fb4c9ebcf88a9ca1d2", "type": "electric_scooter", "lat": 38.89051366666666, "is_disabled": 0}, {"fusion_lat": 0.0, "lon": -77.0435815, "is_reserved": 0, "bike_id": "7b3d8bd23b144df0b4a7326de8d5ea4b", "fusion_lon": 0.0, "rental_uris": {"android": "https://dc.lft.to/lastmile_qr_scan", "ios": "https://dc.lft.to/lastmile_qr_scan"}, "name": "7b3d8bd23b144df0b4a7326de8d5ea4b", "type": "electric_scooter", "lat": 38.9043935, "is_disabled": 0}, {"fusion_lat": 0.0, "lon": -77.04697983333334, "is_reserved": 0, "bike_id": "e86f638f22c7f43d9e37ab6f36f976a4", "fusion_lon": 0.0, "rental_uris": {"android": "https://dc.lft.to/lastmile_qr_scan", "ios": "https://dc.lft.to/lastmile_qr_scan"}, "name": "e86f638f22c7f43d9e37ab6f36f976a4", "type": "electric_scooter", "lat": 38.91585933333333, "is_disabled": 0}, {"fusion_lat": 0.0, "lon": -77.00430766666666, "is_reserved": 0, "bike_id": "01834d1fec7bce0039432600a93d0588", "fusion_lon": 0.0, "rental_uris": {"android": "https://dc.lft.to/lastmile_qr_scan", "ios": "https://dc.lft.to/lastmile_qr_scan"}, "name": "01834d1fec7bce0039432600a93d0588", "type": "electric_scooter", "lat": 38.90557733333333, "is_disabled": 0}, {"fusion_lat": 0.0, "lon": -76.9479995, "is_reserved": 0, "bike_id": "0a4aaaff50ab6a2639664b94bd5c01ff", "fusion_lon": 0.0, "rental_uris": {"android": "https://dc.lft.to/lastmile_qr_scan", "ios": "https://dc.lft.to/lastmile_qr_scan"}, "name": "0a4aaaff50ab6a2639664b94bd5c01ff", "type": "electric_bike", "lat": 38.861934, "is_disabled": 0}, {"fusion_lat": 0.0, "lon": -77.029415, "is_reserved": 0, "bike_id": "497a93c842646c4bf8c4f36ff8325ac0", "fusion_lon": 0.0, "rental_uris": {"android": "https://dc.lft.to/lastmile_qr_scan", "ios": "https://dc.lft.to/lastmile_qr_scan"}, "name": "497a93c842646c4bf8c4f36ff8325ac0", "type": "electric_scooter", "lat": 38.9207685, "is_disabled": 0}, {"fusion_lat": 0.0, "lon": -77.01152916666666, "is_reserved": 0, "bike_id": "a3780e46cd702012141bb64e937375be", "fusion_lon": 0.0, "rental_uris": {"android": "https://dc.lft.to/lastmile_qr_scan", "ios": "https://dc.lft.to/lastmile_qr_scan"}, "name": "a3780e46cd702012141bb64e937375be", "type": "electric_scooter", "lat": 38.911097, "is_disabled": 0}, {"fusion_lat": 0.0, "lon": -77.04523116666667, "is_reserved": 0, "bike_id": "162a7ca769fe5a1cc74221e7301c0cd0", "fusion_lon": 0.0, "rental_uris": {"android": "https://dc.lft.to/lastmile_qr_scan", "ios": "https://dc.lft.to/lastmile_qr_scan"}, "name": "162a7ca769fe5a1cc74221e7301c0cd0", "type": "electric_bike", "lat": 38.94194366666667, "is_disabled": 0}, {"fusion_lat": 0.0, "lon": -77.047102, "is_reserved": 0, "bike_id": "060452ed0c5809a82b2fc65e4b8641f2", "fusion_lon": 0.0, "rental_uris": {"android": "https://dc.lft.to/lastmile_qr_scan", "ios": "https://dc.lft.to/lastmile_qr_scan"}, "name": "060452ed0c5809a82b2fc65e4b8641f2", "type": "electric_scooter", "lat": 38.922008, "is_disabled": 0}, {"fusion_lat": 0.0, "lon": -77.00335816666667, "is_reserved": 0, "bike_id": "31ef42085b62a7f133e4bece74abe45b", "fusion_lon": 0.0, "rental_uris": {"android": "https://dc.lft.to/lastmile_qr_scan", "ios": "https://dc.lft.to/lastmile_qr_scan"}, "name": "31ef42085b62a7f133e4bece74abe45b", "type": "electric_scooter", "lat": 38.889867833333334, "is_disabled": 0}, {"fusion_lat": 0.0, "lon": -76.93749316666667, "is_reserved": 0, "bike_id": "0d37fe74ff35eba87d164678b900cca9", "fusion_lon": 0.0, "rental_uris": {"android": "https://dc.lft.to/lastmile_qr_scan", "ios": "https://dc.lft.to/lastmile_qr_scan"}, "name": "0d37fe74ff35eba87d164678b900cca9", "type": "electric_scooter", "lat": 38.90376166666667, "is_disabled": 0}, {"fusion_lat": 0.0, "lon": -77.03423683333334, "is_reserved": 0, "bike_id": "65568ff2905a5c927839cc4f7a4dbf6e", "fusion_lon": 0.0, "rental_uris": {"android": "https://dc.lft.to/lastmile_qr_scan", "ios": "https://dc.lft.to/lastmile_qr_scan"}, "name": "65568ff2905a5c927839cc4f7a4dbf6e", "type": "electric_scooter", "lat": 38.919417833333334, "is_disabled": 0}, {"fusion_lat": 0.0, "lon": -77.03717116666667, "is_reserved": 0, "bike_id": "af7f8795748d4a6c8e54831c8a5b63c2", "fusion_lon": 0.0, "rental_uris": {"android": "https://dc.lft.to/lastmile_qr_scan", "ios": "https://dc.lft.to/lastmile_qr_scan"}, "name": "af7f8795748d4a6c8e54831c8a5b63c2", "type": "electric_scooter", "lat": 38.935676666666666, "is_disabled": 0}, {"fusion_lat": 0.0, "lon": -77.0363435, "is_reserved": 0, "bike_id": "f33704a7514d09a1ea5a0c0d38a5d512", "fusion_lon": 0.0, "rental_uris": {"android": "https://dc.lft.to/lastmile_qr_scan", "ios": "https://dc.lft.to/lastmile_qr_scan"}, "name": "f33704a7514d09a1ea5a0c0d38a5d512", "type": "electric_scooter", "lat": 38.936786166666664, "is_disabled": 0}, {"fusion_lat": 0.0, "lon": -76.99881733333334, "is_reserved": 0, "bike_id": "22f91cd69ef4f6522224ad665af4f059", "fusion_lon": 0.0, "rental_uris": {"android": "https://dc.lft.to/lastmile_qr_scan", "ios": "https://dc.lft.to/lastmile_qr_scan"}, "name": "22f91cd69ef4f6522224ad665af4f059", "type": "electric_scooter", "lat": 38.920585333333335, "is_disabled": 0}, {"fusion_lat": 0.0, "lon": -77.022792, "is_reserved": 0, "bike_id": "9d0446ebc0779ee22aa29a412f5de738", "fusion_lon": 0.0, "rental_uris": {"android": "https://dc.lft.to/lastmile_qr_scan", "ios": "https://dc.lft.to/lastmile_qr_scan"}, "name": "9d0446ebc0779ee22aa29a412f5de738", "type": "electric_scooter", "lat": 38.91226916666667, "is_disabled": 0}, {"fusion_lat": 0.0, "lon": -77.05650016666667, "is_reserved": 0, "bike_id": "3993aba516308cfbd38fc8d197e6a3f4", "fusion_lon": 0.0, "rental_uris": {"android": "https://dc.lft.to/lastmile_qr_scan", "ios": "https://dc.lft.to/lastmile_qr_scan"}, "name": "3993aba516308cfbd38fc8d197e6a3f4", "type": "electric_scooter", "lat": 38.90769216666666, "is_disabled": 0}, {"fusion_lat": 0.0, "lon": -76.9977985, "is_reserved": 0, "bike_id": "1d8c72b81d5c4ca26a084872443e6710", "fusion_lon": 0.0, "rental_uris": {"android": "https://dc.lft.to/lastmile_qr_scan", "ios": "https://dc.lft.to/lastmile_qr_scan"}, "name": "1d8c72b81d5c4ca26a084872443e6710", "type": "electric_scooter", "lat": 38.8443345, "is_disabled": 0}, {"fusion_lat": 0.0, "lon": -76.97022383333334, "is_reserved": 0, "bike_id": "c57d98a053a431a029465f5f86a0ee03", "fusion_lon": 0.0, "rental_uris": {"android": "https://dc.lft.to/lastmile_qr_scan", "ios": "https://dc.lft.to/lastmile_qr_scan"}, "name": "c57d98a053a431a029465f5f86a0ee03", "type": "electric_scooter", "lat": 38.925363, "is_disabled": 0}, {"fusion_lat": 0.0, "lon": -76.987655, "is_reserved": 0, "bike_id": "b65a60b92fb28d81c1b289ee5ced7d4b", "fusion_lon": 0.0, "rental_uris": {"android": "https://dc.lft.to/lastmile_qr_scan", "ios": "https://dc.lft.to/lastmile_qr_scan"}, "name": "b65a60b92fb28d81c1b289ee5ced7d4b", "type": "electric_scooter", "lat": 38.900283, "is_disabled": 0}, {"fusion_lat": 0.0, "lon": -77.01762483333333, "is_reserved": 0, "bike_id": "d0146275c926419670aeef72ad506c7f", "fusion_lon": 0.0, "rental_uris": {"android": "https://dc.lft.to/lastmile_qr_scan", "ios": "https://dc.lft.to/lastmile_qr_scan"}, "name": "d0146275c926419670aeef72ad506c7f", "type": "electric_scooter", "lat": 38.876908666666665, "is_disabled": 0}, {"fusion_lat": 0.0, "lon": -77.03456633333333, "is_reserved": 0, "bike_id": "41d1b9792926ec16822a7b50756dce12", "fusion_lon": 0.0, "rental_uris": {"android": "https://dc.lft.to/lastmile_qr_scan", "ios": "https://dc.lft.to/lastmile_qr_scan"}, "name": "41d1b9792926ec16822a7b50756dce12", "type": "electric_scooter", "lat": 38.90805133333333, "is_disabled": 0}, {"fusion_lat": 0.0, "lon": -77.02847466666667, "is_reserved": 0, "bike_id": "695ac38424fbdde6bd2d2ec6817164f1", "fusion_lon": 0.0, "rental_uris": {"android": "https://dc.lft.to/lastmile_qr_scan", "ios": "https://dc.lft.to/lastmile_qr_scan"}, "name": "695ac38424fbdde6bd2d2ec6817164f1", "type": "electric_scooter", "lat": 38.88746966666667, "is_disabled": 0}, {"fusion_lat": 0.0, "lon": -77.0414465, "is_reserved": 0, "bike_id": "c456a557506ef97aa6cf47741fe655a0", "fusion_lon": 0.0, "rental_uris": {"android": "https://dc.lft.to/lastmile_qr_scan", "ios": "https://dc.lft.to/lastmile_qr_scan"}, "name": "c456a557506ef97aa6cf47741fe655a0", "type": "electric_scooter", "lat": 38.892261500000004, "is_disabled": 0}, {"fusion_lat": 0.0, "lon": -77.20832016666667, "is_reserved": 0, "bike_id": "f510c9b55a6644d215e0a5ec95932892", "fusion_lon": 0.0, "rental_uris": {"android": "https://dc.lft.to/lastmile_qr_scan", "ios": "https://dc.lft.to/lastmile_qr_scan"}, "name": "f510c9b55a6644d215e0a5ec95932892", "type": "electric_bike", "lat": 38.92463266666667, "is_disabled": 0}, {"fusion_lat": 0.0, "lon": -77.00949033333333, "is_reserved": 0, "bike_id": "84fc8e46a6778a2f4d80c08c6aaef1f8", "fusion_lon": 0.0, "rental_uris": {"android": "https://dc.lft.to/lastmile_qr_scan", "ios": "https://dc.lft.to/lastmile_qr_scan"}, "name": "84fc8e46a6778a2f4d80c08c6aaef1f8", "type": "electric_scooter", "lat": 38.89741383333333, "is_disabled": 0}, {"fusion_lat": 0.0, "lon": -77.066532, "is_reserved": 0, "bike_id": "86a634850a55edfe5c95c3f19b52fa73", "fusion_lon": 0.0, "rental_uris": {"android": "https://dc.lft.to/lastmile_qr_scan", "ios": "https://dc.lft.to/lastmile_qr_scan"}, "name": "86a634850a55edfe5c95c3f19b52fa73", "type": "electric_scooter", "lat": 38.94963716666667, "is_disabled": 0}, {"fusion_lat": 0.0, "lon": -77.00058833333334, "is_reserved": 0, "bike_id": "95c72c512c79f93f96a0281245131d8b", "fusion_lon": 0.0, "rental_uris": {"android": "https://dc.lft.to/lastmile_qr_scan", "ios": "https://dc.lft.to/lastmile_qr_scan"}, "name": "95c72c512c79f93f96a0281245131d8b", "type": "electric_scooter", "lat": 38.89844816666667, "is_disabled": 0}, {"fusion_lat": 0.0, "lon": -77.03878366666666, "is_reserved": 0, "bike_id": "7ddf8fac2c226f60d114d63b341a9e3e", "fusion_lon": 0.0, "rental_uris": {"android": "https://dc.lft.to/lastmile_qr_scan", "ios": "https://dc.lft.to/lastmile_qr_scan"}, "name": "7ddf8fac2c226f60d114d63b341a9e3e", "type": "electric_scooter", "lat": 38.93123283333333, "is_disabled": 0}, {"fusion_lat": 0.0, "lon": -76.98713533333333, "is_reserved": 0, "bike_id": "c54b053c60fddae9a6cb21da3f217883", "fusion_lon": 0.0, "rental_uris": {"android": "https://dc.lft.to/lastmile_qr_scan", "ios": "https://dc.lft.to/lastmile_qr_scan"}, "name": "c54b053c60fddae9a6cb21da3f217883", "type": "electric_scooter", "lat": 38.8663005, "is_disabled": 0}, {"fusion_lat": 0.0, "lon": -77.0334715, "is_reserved": 0, "bike_id": "d7a57ff0a03fb4e47890e90415b52783", "fusion_lon": 0.0, "rental_uris": {"android": "https://dc.lft.to/lastmile_qr_scan", "ios": "https://dc.lft.to/lastmile_qr_scan"}, "name": "d7a57ff0a03fb4e47890e90415b52783", "type": "electric_scooter", "lat": 38.90812916666667, "is_disabled": 0}, {"fusion_lat": 0.0, "lon": -77.02434016666666, "is_reserved": 0, "bike_id": "a7c6960a810b6ca6741d7902a8c643b0", "fusion_lon": 0.0, "rental_uris": {"android": "https://dc.lft.to/lastmile_qr_scan", "ios": "https://dc.lft.to/lastmile_qr_scan"}, "name": "a7c6960a810b6ca6741d7902a8c643b0", "type": "electric_scooter", "lat": 38.927272333333335, "is_disabled": 0}, {"fusion_lat": 0.0, "lon": -77.02793416666667, "is_reserved": 0, "bike_id": "f4b1de0d1de7017d7e1ad0a839eb7ceb", "fusion_lon": 0.0, "rental_uris": {"android": "https://dc.lft.to/lastmile_qr_scan", "ios": "https://dc.lft.to/lastmile_qr_scan"}, "name": "f4b1de0d1de7017d7e1ad0a839eb7ceb", "type": "electric_scooter", "lat": 38.93080333333333, "is_disabled": 0}, {"fusion_lat": 0.0, "lon": -77.01076183333333, "is_reserved": 0, "bike_id": "81d4af60a15ecd1692229a0965b2907e", "fusion_lon": 0.0, "rental_uris": {"android": "https://dc.lft.to/lastmile_qr_scan", "ios": "https://dc.lft.to/lastmile_qr_scan"}, "name": "81d4af60a15ecd1692229a0965b2907e", "type": "electric_scooter", "lat": 38.90778683333333, "is_disabled": 0}, {"fusion_lat": 0.0, "lon": -77.04024083333333, "is_reserved": 0, "bike_id": "b217100d3edd68b6941001128f3d454d", "fusion_lon": 0.0, "rental_uris": {"android": "https://dc.lft.to/lastmile_qr_scan", "ios": "https://dc.lft.to/lastmile_qr_scan"}, "name": "b217100d3edd68b6941001128f3d454d", "type": "electric_scooter", "lat": 38.92241383333333, "is_disabled": 0}, {"fusion_lat": 0.0, "lon": -76.99326566666667, "is_reserved": 0, "bike_id": "0cc52efead708b6f00d40e1bb1a37658", "fusion_lon": 0.0, "rental_uris": {"android": "https://dc.lft.to/lastmile_qr_scan", "ios": "https://dc.lft.to/lastmile_qr_scan"}, "name": "0cc52efead708b6f00d40e1bb1a37658", "type": "electric_bike", "lat": 38.89366833333333, "is_disabled": 0}, {"fusion_lat": 0.0, "lon": -77.07434183333334, "is_reserved": 0, "bike_id": "68e56cbad3c71a48278ff801aa3d67bd", "fusion_lon": 0.0, "rental_uris": {"android": "https://dc.lft.to/lastmile_qr_scan", "ios": "https://dc.lft.to/lastmile_qr_scan"}, "name": "68e56cbad3c71a48278ff801aa3d67bd", "type": "electric_bike", "lat": 38.999489, "is_disabled": 0}, {"fusion_lat": 0.0, "lon": -77.01906616666666, "is_reserved": 0, "bike_id": "8ac6cdd538fbe13dbb47de4660a941b1", "fusion_lon": 0.0, "rental_uris": {"android": "https://dc.lft.to/lastmile_qr_scan", "ios": "https://dc.lft.to/lastmile_qr_scan"}, "name": "8ac6cdd538fbe13dbb47de4660a941b1", "type": "electric_scooter", "lat": 38.91936966666667, "is_disabled": 0}, {"fusion_lat": 0.0, "lon": -76.93749516666666, "is_reserved": 0, "bike_id": "a51bfefe0128a618cf17d7f3859cf58a", "fusion_lon": 0.0, "rental_uris": {"android": "https://dc.lft.to/lastmile_qr_scan", "ios": "https://dc.lft.to/lastmile_qr_scan"}, "name": "a51bfefe0128a618cf17d7f3859cf58a", "type": "electric_scooter", "lat": 38.89050233333333, "is_disabled": 0}, {"fusion_lat": 0.0, "lon": -76.94382466666667, "is_reserved": 0, "bike_id": "f9bd2dda1e1422578544d12da178a508", "fusion_lon": 0.0, "rental_uris": {"android": "https://dc.lft.to/lastmile_qr_scan", "ios": "https://dc.lft.to/lastmile_qr_scan"}, "name": "f9bd2dda1e1422578544d12da178a508", "type": "electric_scooter", "lat": 38.893220666666664, "is_disabled": 0}, {"fusion_lat": 0.0, "lon": -77.03381, "is_reserved": 0, "bike_id": "c9223b2a68c14c15660863a10c4e9b7e", "fusion_lon": 0.0, "rental_uris": {"android": "https://dc.lft.to/lastmile_qr_scan", "ios": "https://dc.lft.to/lastmile_qr_scan"}, "name": "c9223b2a68c14c15660863a10c4e9b7e", "type": "electric_scooter", "lat": 38.89931216666667, "is_disabled": 0}, {"fusion_lat": 0.0, "lon": -76.986245, "is_reserved": 0, "bike_id": "b44e0092bdbbe49f29c9905830dc2c8c", "fusion_lon": 0.0, "rental_uris": {"android": "https://dc.lft.to/lastmile_qr_scan", "ios": "https://dc.lft.to/lastmile_qr_scan"}, "name": "b44e0092bdbbe49f29c9905830dc2c8c", "type": "electric_scooter", "lat": 38.90118366666667, "is_disabled": 0}, {"fusion_lat": 0.0, "lon": -76.987095, "is_reserved": 0, "bike_id": "0651c461c06f7c4b6ab1727de6d69855", "fusion_lon": 0.0, "rental_uris": {"android": "https://dc.lft.to/lastmile_qr_scan", "ios": "https://dc.lft.to/lastmile_qr_scan"}, "name": "0651c461c06f7c4b6ab1727de6d69855", "type": "electric_scooter", "lat": 38.89969716666667, "is_disabled": 0}, {"fusion_lat": 0.0, "lon": -77.0905925, "is_reserved": 0, "bike_id": "710f868497d4917ebfc8cc6e20291819", "fusion_lon": 0.0, "rental_uris": {"android": "https://dc.lft.to/lastmile_qr_scan", "ios": "https://dc.lft.to/lastmile_qr_scan"}, "name": "710f868497d4917ebfc8cc6e20291819", "type": "electric_bike", "lat": 38.862589166666666, "is_disabled": 0}, {"fusion_lat": 0.0, "lon": -76.978211, "is_reserved": 0, "bike_id": "c7f3b2597f0b960358fd60020888bd7d", "fusion_lon": 0.0, "rental_uris": {"android": "https://dc.lft.to/lastmile_qr_scan", "ios": "https://dc.lft.to/lastmile_qr_scan"}, "name": "c7f3b2597f0b960358fd60020888bd7d", "type": "electric_bike", "lat": 38.84371316666667, "is_disabled": 0}, {"fusion_lat": 0.0, "lon": -77.03221133333334, "is_reserved": 0, "bike_id": "926b96f824e353219cbb0abeec6e62e0", "fusion_lon": 0.0, "rental_uris": {"android": "https://dc.lft.to/lastmile_qr_scan", "ios": "https://dc.lft.to/lastmile_qr_scan"}, "name": "926b96f824e353219cbb0abeec6e62e0", "type": "electric_scooter", "lat": 38.9155475, "is_disabled": 0}, {"fusion_lat": 0.0, "lon": -77.008299, "is_reserved": 0, "bike_id": "771a72c5a1496c6f259ae3c516a61b6b", "fusion_lon": 0.0, "rental_uris": {"android": "https://dc.lft.to/lastmile_qr_scan", "ios": "https://dc.lft.to/lastmile_qr_scan"}, "name": "771a72c5a1496c6f259ae3c516a61b6b", "type": "electric_scooter", "lat": 38.92242983333333, "is_disabled": 0}, {"fusion_lat": 0.0, "lon": -76.99775533333333, "is_reserved": 0, "bike_id": "47d6663c84085580b1750b71f5759fd2", "fusion_lon": 0.0, "rental_uris": {"android": "https://dc.lft.to/lastmile_qr_scan", "ios": "https://dc.lft.to/lastmile_qr_scan"}, "name": "47d6663c84085580b1750b71f5759fd2", "type": "electric_scooter", "lat": 38.844311833333336, "is_disabled": 0}, {"fusion_lat": 0.0, "lon": -77.02588166666666, "is_reserved": 0, "bike_id": "cb8b253c56503b34f7586875a905b263", "fusion_lon": 0.0, "rental_uris": {"android": "https://dc.lft.to/lastmile_qr_scan", "ios": "https://dc.lft.to/lastmile_qr_scan"}, "name": "cb8b253c56503b34f7586875a905b263", "type": "electric_scooter", "lat": 38.963955, "is_disabled": 0}, {"fusion_lat": 0.0, "lon": -77.03199516666666, "is_reserved": 0, "bike_id": "af6896458bb2db13034a3032d5ecff78", "fusion_lon": 0.0, "rental_uris": {"android": "https://dc.lft.to/lastmile_qr_scan", "ios": "https://dc.lft.to/lastmile_qr_scan"}, "name": "af6896458bb2db13034a3032d5ecff78", "type": "electric_scooter", "lat": 38.89672983333333, "is_disabled": 0}, {"fusion_lat": 0.0, "lon": -76.974242, "is_reserved": 0, "bike_id": "05a1ce994f3b9614583bfb50bb072585", "fusion_lon": 0.0, "rental_uris": {"android": "https://dc.lft.to/lastmile_qr_scan", "ios": "https://dc.lft.to/lastmile_qr_scan"}, "name": "05a1ce994f3b9614583bfb50bb072585", "type": "electric_scooter", "lat": 38.90407966666667, "is_disabled": 0}, {"fusion_lat": 0.0, "lon": -77.020021, "is_reserved": 0, "bike_id": "900bbd7da44bfbbf177f453e44886fe6", "fusion_lon": 0.0, "rental_uris": {"android": "https://dc.lft.to/lastmile_qr_scan", "ios": "https://dc.lft.to/lastmile_qr_scan"}, "name": "900bbd7da44bfbbf177f453e44886fe6", "type": "electric_scooter", "lat": 38.87595816666666, "is_disabled": 0}, {"fusion_lat": 0.0, "lon": -76.9888665, "is_reserved": 0, "bike_id": "aafa8040b3c49f6d23e5f8eabfad3627", "fusion_lon": 0.0, "rental_uris": {"android": "https://dc.lft.to/lastmile_qr_scan", "ios": "https://dc.lft.to/lastmile_qr_scan"}, "name": "aafa8040b3c49f6d23e5f8eabfad3627", "type": "electric_scooter", "lat": 38.86660416666667, "is_disabled": 0}, {"fusion_lat": 0.0, "lon": -77.02530283333333, "is_reserved": 0, "bike_id": "1b6117a245c533cfcdac5d88ecad68c7", "fusion_lon": 0.0, "rental_uris": {"android": "https://dc.lft.to/lastmile_qr_scan", "ios": "https://dc.lft.to/lastmile_qr_scan"}, "name": "1b6117a245c533cfcdac5d88ecad68c7", "type": "electric_scooter", "lat": 38.94261983333333, "is_disabled": 0}, {"fusion_lat": 0.0, "lon": -77.04376866666667, "is_reserved": 0, "bike_id": "55ed87fc63eebc3215983e4ed40e8bc7", "fusion_lon": 0.0, "rental_uris": {"android": "https://dc.lft.to/lastmile_qr_scan", "ios": "https://dc.lft.to/lastmile_qr_scan"}, "name": "55ed87fc63eebc3215983e4ed40e8bc7", "type": "electric_scooter", "lat": 38.922334666666664, "is_disabled": 0}, {"fusion_lat": 0.0, "lon": -77.02201366666667, "is_reserved": 0, "bike_id": "90090670d8e4755436c3ec9807084685", "fusion_lon": 0.0, "rental_uris": {"android": "https://dc.lft.to/lastmile_qr_scan", "ios": "https://dc.lft.to/lastmile_qr_scan"}, "name": "90090670d8e4755436c3ec9807084685", "type": "electric_scooter", "lat": 38.9019845, "is_disabled": 0}, {"fusion_lat": 0.0, "lon": -77.02807533333333, "is_reserved": 0, "bike_id": "55dddf6590ba50fa369f880d2640f22e", "fusion_lon": 0.0, "rental_uris": {"android": "https://dc.lft.to/lastmile_qr_scan", "ios": "https://dc.lft.to/lastmile_qr_scan"}, "name": "55dddf6590ba50fa369f880d2640f22e", "type": "electric_scooter", "lat": 38.930849333333335, "is_disabled": 0}, {"fusion_lat": 0.0, "lon": -76.98837483333334, "is_reserved": 0, "bike_id": "5a16e8fee26851daa4d62468f905f922", "fusion_lon": 0.0, "rental_uris": {"android": "https://dc.lft.to/lastmile_qr_scan", "ios": "https://dc.lft.to/lastmile_qr_scan"}, "name": "5a16e8fee26851daa4d62468f905f922", "type": "electric_scooter", "lat": 38.9004335, "is_disabled": 0}, {"fusion_lat": 0.0, "lon": -77.0148985, "is_reserved": 0, "bike_id": "a57f0d3162401f30c7b59149d07e8d12", "fusion_lon": 0.0, "rental_uris": {"android": "https://dc.lft.to/lastmile_qr_scan", "ios": "https://dc.lft.to/lastmile_qr_scan"}, "name": "a57f0d3162401f30c7b59149d07e8d12", "type": "electric_scooter", "lat": 38.917676166666666, "is_disabled": 0}, {"fusion_lat": 0.0, "lon": -76.987439, "is_reserved": 0, "bike_id": "bb35d2cfb916e43bac9d9f1b02dd67a6", "fusion_lon": 0.0, "rental_uris": {"android": "https://dc.lft.to/lastmile_qr_scan", "ios": "https://dc.lft.to/lastmile_qr_scan"}, "name": "bb35d2cfb916e43bac9d9f1b02dd67a6", "type": "electric_scooter", "lat": 38.88619033333333, "is_disabled": 0}, {"fusion_lat": 0.0, "lon": -77.03770033333333, "is_reserved": 0, "bike_id": "232ed1f6bebdd4b0b856f671b5923549", "fusion_lon": 0.0, "rental_uris": {"android": "https://dc.lft.to/lastmile_qr_scan", "ios": "https://dc.lft.to/lastmile_qr_scan"}, "name": "232ed1f6bebdd4b0b856f671b5923549", "type": "electric_scooter", "lat": 38.9169315, "is_disabled": 0}, {"fusion_lat": 0.0, "lon": -77.04849516666667, "is_reserved": 0, "bike_id": "439ee2225908b1b26cce7df234f5b8bb", "fusion_lon": 0.0, "rental_uris": {"android": "https://dc.lft.to/lastmile_qr_scan", "ios": "https://dc.lft.to/lastmile_qr_scan"}, "name": "439ee2225908b1b26cce7df234f5b8bb", "type": "electric_scooter", "lat": 38.919669166666665, "is_disabled": 0}, {"fusion_lat": 0.0, "lon": -77.02801433333333, "is_reserved": 0, "bike_id": "68489d7c6972a4614e4314480f5f1c47", "fusion_lon": 0.0, "rental_uris": {"android": "https://dc.lft.to/lastmile_qr_scan", "ios": "https://dc.lft.to/lastmile_qr_scan"}, "name": "68489d7c6972a4614e4314480f5f1c47", "type": "electric_scooter", "lat": 38.8923175, "is_disabled": 0}, {"fusion_lat": 0.0, "lon": -77.01126283333333, "is_reserved": 0, "bike_id": "5ae6c9dc8a22736fd5296fed7f1b1ea9", "fusion_lon": 0.0, "rental_uris": {"android": "https://dc.lft.to/lastmile_qr_scan", "ios": "https://dc.lft.to/lastmile_qr_scan"}, "name": "5ae6c9dc8a22736fd5296fed7f1b1ea9", "type": "electric_scooter", "lat": 38.895204666666665, "is_disabled": 0}, {"fusion_lat": 0.0, "lon": -77.01691816666667, "is_reserved": 0, "bike_id": "9d43df4d6636d856ac1267d589c4d4c8", "fusion_lon": 0.0, "rental_uris": {"android": "https://dc.lft.to/lastmile_qr_scan", "ios": "https://dc.lft.to/lastmile_qr_scan"}, "name": "9d43df4d6636d856ac1267d589c4d4c8", "type": "electric_scooter", "lat": 38.974958666666666, "is_disabled": 0}, {"fusion_lat": 0.0, "lon": -77.01794816666667, "is_reserved": 0, "bike_id": "1fc785001c27f20ba7e9f5a44b552850", "fusion_lon": 0.0, "rental_uris": {"android": "https://dc.lft.to/lastmile_qr_scan", "ios": "https://dc.lft.to/lastmile_qr_scan"}, "name": "1fc785001c27f20ba7e9f5a44b552850", "type": "electric_scooter", "lat": 38.90438616666667, "is_disabled": 0}, {"fusion_lat": 0.0, "lon": -77.024889, "is_reserved": 0, "bike_id": "7a3fbc7165c8b3005f1001a04f2e6fdb", "fusion_lon": 0.0, "rental_uris": {"android": "https://dc.lft.to/lastmile_qr_scan", "ios": "https://dc.lft.to/lastmile_qr_scan"}, "name": "7a3fbc7165c8b3005f1001a04f2e6fdb", "type": "electric_scooter", "lat": 38.938657, "is_disabled": 0}, {"fusion_lat": 0.0, "lon": -76.96920616666667, "is_reserved": 0, "bike_id": "d89988129dc8c89b725f6d9052f96e2f", "fusion_lon": 0.0, "rental_uris": {"android": "https://dc.lft.to/lastmile_qr_scan", "ios": "https://dc.lft.to/lastmile_qr_scan"}, "name": "d89988129dc8c89b725f6d9052f96e2f", "type": "electric_bike", "lat": 38.95118433333333, "is_disabled": 0}, {"fusion_lat": 0.0, "lon": -77.03188433333334, "is_reserved": 0, "bike_id": "08c1c316774e12747978d8f8e39b7c6d", "fusion_lon": 0.0, "rental_uris": {"android": "https://dc.lft.to/lastmile_qr_scan", "ios": "https://dc.lft.to/lastmile_qr_scan"}, "name": "08c1c316774e12747978d8f8e39b7c6d", "type": "electric_scooter", "lat": 38.917938, "is_disabled": 0}, {"fusion_lat": 0.0, "lon": -77.04121783333333, "is_reserved": 0, "bike_id": "84b416ab9fd7ab8f576044e27b019343", "fusion_lon": 0.0, "rental_uris": {"android": "https://dc.lft.to/lastmile_qr_scan", "ios": "https://dc.lft.to/lastmile_qr_scan"}, "name": "84b416ab9fd7ab8f576044e27b019343", "type": "electric_scooter", "lat": 38.910591, "is_disabled": 0}, {"fusion_lat": 0.0, "lon": -77.03343383333333, "is_reserved": 0, "bike_id": "ff7a01b1e69822b66e32b7825127d6d0", "fusion_lon": 0.0, "rental_uris": {"android": "https://dc.lft.to/lastmile_qr_scan", "ios": "https://dc.lft.to/lastmile_qr_scan"}, "name": "ff7a01b1e69822b66e32b7825127d6d0", "type": "electric_scooter", "lat": 38.921687, "is_disabled": 0}, {"fusion_lat": 0.0, "lon": -76.99030033333334, "is_reserved": 0, "bike_id": "58b25a74d08de2e7d76701ebb11d51d7", "fusion_lon": 0.0, "rental_uris": {"android": "https://dc.lft.to/lastmile_qr_scan", "ios": "https://dc.lft.to/lastmile_qr_scan"}, "name": "58b25a74d08de2e7d76701ebb11d51d7", "type": "electric_scooter", "lat": 38.89855083333333, "is_disabled": 0}, {"fusion_lat": 0.0, "lon": -77.02389583333333, "is_reserved": 0, "bike_id": "810391cedf4e0fa99460ccab4d55b1ff", "fusion_lon": 0.0, "rental_uris": {"android": "https://dc.lft.to/lastmile_qr_scan", "ios": "https://dc.lft.to/lastmile_qr_scan"}, "name": "810391cedf4e0fa99460ccab4d55b1ff", "type": "electric_scooter", "lat": 38.9260215, "is_disabled": 0}, {"fusion_lat": 0.0, "lon": -76.988212, "is_reserved": 0, "bike_id": "786118743284fcdcbedaaa425ca3f0c4", "fusion_lon": 0.0, "rental_uris": {"android": "https://dc.lft.to/lastmile_qr_scan", "ios": "https://dc.lft.to/lastmile_qr_scan"}, "name": "786118743284fcdcbedaaa425ca3f0c4", "type": "electric_scooter", "lat": 38.89079816666667, "is_disabled": 0}, {"fusion_lat": 0.0, "lon": -77.00238333333333, "is_reserved": 0, "bike_id": "d0dac165c0b1c0d2c005d4a6f374e316", "fusion_lon": 0.0, "rental_uris": {"android": "https://dc.lft.to/lastmile_qr_scan", "ios": "https://dc.lft.to/lastmile_qr_scan"}, "name": "d0dac165c0b1c0d2c005d4a6f374e316", "type": "electric_scooter", "lat": 38.957245, "is_disabled": 0}, {"fusion_lat": 0.0, "lon": -77.0297995, "is_reserved": 0, "bike_id": "024f671a50af8eb849a85389b0061b52", "fusion_lon": 0.0, "rental_uris": {"android": "https://dc.lft.to/lastmile_qr_scan", "ios": "https://dc.lft.to/lastmile_qr_scan"}, "name": "024f671a50af8eb849a85389b0061b52", "type": "electric_scooter", "lat": 38.921993, "is_disabled": 0}, {"fusion_lat": 0.0, "lon": -76.995426, "is_reserved": 0, "bike_id": "ae0dba3b047be0b2c550e5acdf84b9e4", "fusion_lon": 0.0, "rental_uris": {"android": "https://dc.lft.to/lastmile_qr_scan", "ios": "https://dc.lft.to/lastmile_qr_scan"}, "name": "ae0dba3b047be0b2c550e5acdf84b9e4", "type": "electric_scooter", "lat": 38.86265783333333, "is_disabled": 0}, {"fusion_lat": 0.0, "lon": -77.22797816666667, "is_reserved": 0, "bike_id": "d771001648377eedc11b9cdb61305b2e", "fusion_lon": 0.0, "rental_uris": {"android": "https://dc.lft.to/lastmile_qr_scan", "ios": "https://dc.lft.to/lastmile_qr_scan"}, "name": "d771001648377eedc11b9cdb61305b2e", "type": "electric_bike", "lat": 38.910154166666665, "is_disabled": 0}, {"fusion_lat": 0.0, "lon": -77.04770266666667, "is_reserved": 0, "bike_id": "c7a69761079d5dcdb86e0dc3f1e733d1", "fusion_lon": 0.0, "rental_uris": {"android": "https://dc.lft.to/lastmile_qr_scan", "ios": "https://dc.lft.to/lastmile_qr_scan"}, "name": "c7a69761079d5dcdb86e0dc3f1e733d1", "type": "electric_scooter", "lat": 38.91760416666666, "is_disabled": 0}, {"fusion_lat": 0.0, "lon": -77.049904, "is_reserved": 0, "bike_id": "b05f432e5269d51b238378044f839b00", "fusion_lon": 0.0, "rental_uris": {"android": "https://dc.lft.to/lastmile_qr_scan", "ios": "https://dc.lft.to/lastmile_qr_scan"}, "name": "b05f432e5269d51b238378044f839b00", "type": "electric_scooter", "lat": 38.897303666666666, "is_disabled": 0}, {"fusion_lat": 0.0, "lon": -77.03309516666667, "is_reserved": 0, "bike_id": "d863c5525a4ae3d6edd2cfc0c4cb8bc6", "fusion_lon": 0.0, "rental_uris": {"android": "https://dc.lft.to/lastmile_qr_scan", "ios": "https://dc.lft.to/lastmile_qr_scan"}, "name": "d863c5525a4ae3d6edd2cfc0c4cb8bc6", "type": "electric_scooter", "lat": 38.95616233333333, "is_disabled": 0}, {"fusion_lat": 0.0, "lon": -77.02409266666666, "is_reserved": 0, "bike_id": "6742612825cbb44b020057cc74b345ed", "fusion_lon": 0.0, "rental_uris": {"android": "https://dc.lft.to/lastmile_qr_scan", "ios": "https://dc.lft.to/lastmile_qr_scan"}, "name": "6742612825cbb44b020057cc74b345ed", "type": "electric_scooter", "lat": 38.91523733333333, "is_disabled": 0}, {"fusion_lat": 0.0, "lon": -77.05114583333334, "is_reserved": 0, "bike_id": "b9d26c121da1ba73cba1ef336255de1b", "fusion_lon": 0.0, "rental_uris": {"android": "https://dc.lft.to/lastmile_qr_scan", "ios": "https://dc.lft.to/lastmile_qr_scan"}, "name": "b9d26c121da1ba73cba1ef336255de1b", "type": "electric_scooter", "lat": 38.92342566666667, "is_disabled": 0}, {"fusion_lat": 0.0, "lon": -77.12525733333334, "is_reserved": 0, "bike_id": "d6688bdba1ebc50d7ebb0c1abcb863e5", "fusion_lon": 0.0, "rental_uris": {"android": "https://dc.lft.to/lastmile_qr_scan", "ios": "https://dc.lft.to/lastmile_qr_scan"}, "name": "d6688bdba1ebc50d7ebb0c1abcb863e5", "type": "electric_bike", "lat": 39.05634233333333, "is_disabled": 0}, {"fusion_lat": 0.0, "lon": -76.9914425, "is_reserved": 0, "bike_id": "a21fe3923df5ed801e1dfc856b3d9121", "fusion_lon": 0.0, "rental_uris": {"android": "https://dc.lft.to/lastmile_qr_scan", "ios": "https://dc.lft.to/lastmile_qr_scan"}, "name": "a21fe3923df5ed801e1dfc856b3d9121", "type": "electric_scooter", "lat": 38.90121633333333, "is_disabled": 0}, {"fusion_lat": 0.0, "lon": -76.985496, "is_reserved": 0, "bike_id": "d7f3c1edd433ae7418904eac3158bc42", "fusion_lon": 0.0, "rental_uris": {"android": "https://dc.lft.to/lastmile_qr_scan", "ios": "https://dc.lft.to/lastmile_qr_scan"}, "name": "d7f3c1edd433ae7418904eac3158bc42", "type": "electric_scooter", "lat": 38.91030716666667, "is_disabled": 0}, {"fusion_lat": 0.0, "lon": -76.989613, "is_reserved": 0, "bike_id": "b05ba8f21b6d2b543b497d9814723ba5", "fusion_lon": 0.0, "rental_uris": {"android": "https://dc.lft.to/lastmile_qr_scan", "ios": "https://dc.lft.to/lastmile_qr_scan"}, "name": "b05ba8f21b6d2b543b497d9814723ba5", "type": "electric_scooter", "lat": 38.90034283333333, "is_disabled": 0}, {"fusion_lat": 0.0, "lon": -77.07511166666667, "is_reserved": 0, "bike_id": "346032b40195681333883e4418320365", "fusion_lon": 0.0, "rental_uris": {"android": "https://dc.lft.to/lastmile_qr_scan", "ios": "https://dc.lft.to/lastmile_qr_scan"}, "name": "346032b40195681333883e4418320365", "type": "electric_scooter", "lat": 38.89472716666667, "is_disabled": 0}, {"fusion_lat": 0.0, "lon": -76.9762485, "is_reserved": 0, "bike_id": "c94001c40139a6f8a79de582b4ae1483", "fusion_lon": 0.0, "rental_uris": {"android": "https://dc.lft.to/lastmile_qr_scan", "ios": "https://dc.lft.to/lastmile_qr_scan"}, "name": "c94001c40139a6f8a79de582b4ae1483", "type": "electric_scooter", "lat": 38.90571883333333, "is_disabled": 0}, {"fusion_lat": 0.0, "lon": -77.0325275, "is_reserved": 0, "bike_id": "60f6a0b9b40baabfe43c27f3e1595940", "fusion_lon": 0.0, "rental_uris": {"android": "https://dc.lft.to/lastmile_qr_scan", "ios": "https://dc.lft.to/lastmile_qr_scan"}, "name": "60f6a0b9b40baabfe43c27f3e1595940", "type": "electric_scooter", "lat": 38.902897333333335, "is_disabled": 0}, {"fusion_lat": 0.0, "lon": -77.023684, "is_reserved": 0, "bike_id": "a28c21d446562fc80cb373ac580fa92a", "fusion_lon": 0.0, "rental_uris": {"android": "https://dc.lft.to/lastmile_qr_scan", "ios": "https://dc.lft.to/lastmile_qr_scan"}, "name": "a28c21d446562fc80cb373ac580fa92a", "type": "electric_scooter", "lat": 38.92047633333333, "is_disabled": 0}, {"fusion_lat": 0.0, "lon": -77.022791, "is_reserved": 0, "bike_id": "72ad088935cb3051c4ac52c06ece648f", "fusion_lon": 0.0, "rental_uris": {"android": "https://dc.lft.to/lastmile_qr_scan", "ios": "https://dc.lft.to/lastmile_qr_scan"}, "name": "72ad088935cb3051c4ac52c06ece648f", "type": "electric_scooter", "lat": 38.894957166666664, "is_disabled": 0}, {"fusion_lat": 0.0, "lon": -76.9863865, "is_reserved": 0, "bike_id": "6e482cf2e8adb07e23aae0fd6fbc01ae", "fusion_lon": 0.0, "rental_uris": {"android": "https://dc.lft.to/lastmile_qr_scan", "ios": "https://dc.lft.to/lastmile_qr_scan"}, "name": "6e482cf2e8adb07e23aae0fd6fbc01ae", "type": "electric_scooter", "lat": 38.865231666666666, "is_disabled": 0}, {"fusion_lat": 0.0, "lon": -77.00043316666667, "is_reserved": 0, "bike_id": "142e879b98e2abae59a2c3205dac5a2b", "fusion_lon": 0.0, "rental_uris": {"android": "https://dc.lft.to/lastmile_qr_scan", "ios": "https://dc.lft.to/lastmile_qr_scan"}, "name": "142e879b98e2abae59a2c3205dac5a2b", "type": "electric_scooter", "lat": 38.924676833333336, "is_disabled": 0}, {"fusion_lat": 0.0, "lon": -77.02919683333333, "is_reserved": 0, "bike_id": "bf0997447b3108b55edb17451711252a", "fusion_lon": 0.0, "rental_uris": {"android": "https://dc.lft.to/lastmile_qr_scan", "ios": "https://dc.lft.to/lastmile_qr_scan"}, "name": "bf0997447b3108b55edb17451711252a", "type": "electric_scooter", "lat": 38.938775, "is_disabled": 0}, {"fusion_lat": 0.0, "lon": -77.04419133333333, "is_reserved": 0, "bike_id": "77d0ce69cd7199835632ff987cf8349d", "fusion_lon": 0.0, "rental_uris": {"android": "https://dc.lft.to/lastmile_qr_scan", "ios": "https://dc.lft.to/lastmile_qr_scan"}, "name": "77d0ce69cd7199835632ff987cf8349d", "type": "electric_scooter", "lat": 38.92129666666666, "is_disabled": 0}, {"fusion_lat": 0.0, "lon": -77.0072565, "is_reserved": 0, "bike_id": "e21614a890f39a1dcd5269831bfecd4a", "fusion_lon": 0.0, "rental_uris": {"android": "https://dc.lft.to/lastmile_qr_scan", "ios": "https://dc.lft.to/lastmile_qr_scan"}, "name": "e21614a890f39a1dcd5269831bfecd4a", "type": "electric_scooter", "lat": 38.884919, "is_disabled": 0}, {"fusion_lat": 0.0, "lon": -77.02847983333334, "is_reserved": 0, "bike_id": "b8db65fd856f99d49525aabbe78c1510", "fusion_lon": 0.0, "rental_uris": {"android": "https://dc.lft.to/lastmile_qr_scan", "ios": "https://dc.lft.to/lastmile_qr_scan"}, "name": "b8db65fd856f99d49525aabbe78c1510", "type": "electric_scooter", "lat": 38.887472833333334, "is_disabled": 0}, {"fusion_lat": 0.0, "lon": -76.98571066666666, "is_reserved": 0, "bike_id": "5d8b0567b372ae72bfcf0962e60cc7d3", "fusion_lon": 0.0, "rental_uris": {"android": "https://dc.lft.to/lastmile_qr_scan", "ios": "https://dc.lft.to/lastmile_qr_scan"}, "name": "5d8b0567b372ae72bfcf0962e60cc7d3", "type": "electric_bike", "lat": 38.899558999999996, "is_disabled": 0}, {"fusion_lat": 0.0, "lon": -77.05107066666666, "is_reserved": 0, "bike_id": "8c01320d659562fc531e301e42163be4", "fusion_lon": 0.0, "rental_uris": {"android": "https://dc.lft.to/lastmile_qr_scan", "ios": "https://dc.lft.to/lastmile_qr_scan"}, "name": "8c01320d659562fc531e301e42163be4", "type": "electric_bike", "lat": 39.036712333333334, "is_disabled": 0}, {"fusion_lat": 0.0, "lon": -77.03882133333333, "is_reserved": 0, "bike_id": "38224582ec286d618ba58efbcfcc40c1", "fusion_lon": 0.0, "rental_uris": {"android": "https://dc.lft.to/lastmile_qr_scan", "ios": "https://dc.lft.to/lastmile_qr_scan"}, "name": "38224582ec286d618ba58efbcfcc40c1", "type": "electric_scooter", "lat": 38.891999, "is_disabled": 0}, {"fusion_lat": 0.0, "lon": -76.96787216666667, "is_reserved": 0, "bike_id": "2e83c94c112f6f36099540346a62ec46", "fusion_lon": 0.0, "rental_uris": {"android": "https://dc.lft.to/lastmile_qr_scan", "ios": "https://dc.lft.to/lastmile_qr_scan"}, "name": "2e83c94c112f6f36099540346a62ec46", "type": "electric_scooter", "lat": 38.8734045, "is_disabled": 0}, {"fusion_lat": 0.0, "lon": -77.038189, "is_reserved": 0, "bike_id": "b221403d22664d3840e0beaf27be8865", "fusion_lon": 0.0, "rental_uris": {"android": "https://dc.lft.to/lastmile_qr_scan", "ios": "https://dc.lft.to/lastmile_qr_scan"}, "name": "b221403d22664d3840e0beaf27be8865", "type": "electric_scooter", "lat": 38.909781333333335, "is_disabled": 0}, {"fusion_lat": 0.0, "lon": -76.99813083333333, "is_reserved": 0, "bike_id": "019f3f090be2fba8f7d858973ed3922c", "fusion_lon": 0.0, "rental_uris": {"android": "https://dc.lft.to/lastmile_qr_scan", "ios": "https://dc.lft.to/lastmile_qr_scan"}, "name": "019f3f090be2fba8f7d858973ed3922c", "type": "electric_scooter", "lat": 38.9072765, "is_disabled": 0}, {"fusion_lat": 0.0, "lon": -77.02979666666667, "is_reserved": 0, "bike_id": "39ee404d036b4acc59fb5354f5465b0b", "fusion_lon": 0.0, "rental_uris": {"android": "https://dc.lft.to/lastmile_qr_scan", "ios": "https://dc.lft.to/lastmile_qr_scan"}, "name": "39ee404d036b4acc59fb5354f5465b0b", "type": "electric_scooter", "lat": 38.914150666666664, "is_disabled": 0}, {"fusion_lat": 0.0, "lon": -76.98589783333334, "is_reserved": 0, "bike_id": "4ebcc9f3eb5c78d48a679c9252f3071f", "fusion_lon": 0.0, "rental_uris": {"android": "https://dc.lft.to/lastmile_qr_scan", "ios": "https://dc.lft.to/lastmile_qr_scan"}, "name": "4ebcc9f3eb5c78d48a679c9252f3071f", "type": "electric_scooter", "lat": 38.90650683333333, "is_disabled": 0}, {"fusion_lat": 0.0, "lon": -77.01753316666667, "is_reserved": 0, "bike_id": "0ed845952c84fdc4ee566e884497cfee", "fusion_lon": 0.0, "rental_uris": {"android": "https://dc.lft.to/lastmile_qr_scan", "ios": "https://dc.lft.to/lastmile_qr_scan"}, "name": "0ed845952c84fdc4ee566e884497cfee", "type": "electric_scooter", "lat": 38.894612333333335, "is_disabled": 0}, {"fusion_lat": 0.0, "lon": -76.97710616666667, "is_reserved": 0, "bike_id": "305dcde80181f52675f8c09c478c021d", "fusion_lon": 0.0, "rental_uris": {"android": "https://dc.lft.to/lastmile_qr_scan", "ios": "https://dc.lft.to/lastmile_qr_scan"}, "name": "305dcde80181f52675f8c09c478c021d", "type": "electric_scooter", "lat": 38.88778033333333, "is_disabled": 0}, {"fusion_lat": 0.0, "lon": -77.007978, "is_reserved": 0, "bike_id": "532cb6d84734d6c1bdb3d64685766145", "fusion_lon": 0.0, "rental_uris": {"android": "https://dc.lft.to/lastmile_qr_scan", "ios": "https://dc.lft.to/lastmile_qr_scan"}, "name": "532cb6d84734d6c1bdb3d64685766145", "type": "electric_scooter", "lat": 38.89645133333333, "is_disabled": 0}, {"fusion_lat": 0.0, "lon": -77.0271505, "is_reserved": 0, "bike_id": "774c391517e3573a9318373f378b87fa", "fusion_lon": 0.0, "rental_uris": {"android": "https://dc.lft.to/lastmile_qr_scan", "ios": "https://dc.lft.to/lastmile_qr_scan"}, "name": "774c391517e3573a9318373f378b87fa", "type": "electric_scooter", "lat": 38.897495, "is_disabled": 0}, {"fusion_lat": 0.0, "lon": -76.97868933333334, "is_reserved": 0, "bike_id": "fffa8653692b1f5f79458693c37fb175", "fusion_lon": 0.0, "rental_uris": {"android": "https://dc.lft.to/lastmile_qr_scan", "ios": "https://dc.lft.to/lastmile_qr_scan"}, "name": "fffa8653692b1f5f79458693c37fb175", "type": "electric_scooter", "lat": 38.88302633333333, "is_disabled": 0}, {"fusion_lat": 0.0, "lon": -77.07231616666667, "is_reserved": 0, "bike_id": "f15a7d79070a89fe07783606b178900f", "fusion_lon": 0.0, "rental_uris": {"android": "https://dc.lft.to/lastmile_qr_scan", "ios": "https://dc.lft.to/lastmile_qr_scan"}, "name": "f15a7d79070a89fe07783606b178900f", "type": "electric_scooter", "lat": 38.9400675, "is_disabled": 0}, {"fusion_lat": 0.0, "lon": -77.00365616666667, "is_reserved": 0, "bike_id": "3a0adaeb8cdf9dcf4ba017c3694abd2b", "fusion_lon": 0.0, "rental_uris": {"android": "https://dc.lft.to/lastmile_qr_scan", "ios": "https://dc.lft.to/lastmile_qr_scan"}, "name": "3a0adaeb8cdf9dcf4ba017c3694abd2b", "type": "electric_scooter", "lat": 38.897365, "is_disabled": 0}, {"fusion_lat": 0.0, "lon": -76.916063, "is_reserved": 0, "bike_id": "ff65efd739113c7e5229258d1a13e7b5", "fusion_lon": 0.0, "rental_uris": {"android": "https://dc.lft.to/lastmile_qr_scan", "ios": "https://dc.lft.to/lastmile_qr_scan"}, "name": "ff65efd739113c7e5229258d1a13e7b5", "type": "electric_bike", "lat": 38.87965766666667, "is_disabled": 0}, {"fusion_lat": 0.0, "lon": -76.96774716666667, "is_reserved": 0, "bike_id": "0c54de8d1793a12456c186eb65874629", "fusion_lon": 0.0, "rental_uris": {"android": "https://dc.lft.to/lastmile_qr_scan", "ios": "https://dc.lft.to/lastmile_qr_scan"}, "name": "0c54de8d1793a12456c186eb65874629", "type": "electric_scooter", "lat": 38.859253333333335, "is_disabled": 0}, {"fusion_lat": 0.0, "lon": -77.02319566666667, "is_reserved": 0, "bike_id": "9b48e0837df7a89414a93d439c7b71d0", "fusion_lon": 0.0, "rental_uris": {"android": "https://dc.lft.to/lastmile_qr_scan", "ios": "https://dc.lft.to/lastmile_qr_scan"}, "name": "9b48e0837df7a89414a93d439c7b71d0", "type": "electric_scooter", "lat": 38.91795316666666, "is_disabled": 0}, {"fusion_lat": 0.0, "lon": -77.02642166666666, "is_reserved": 0, "bike_id": "f6ab6f87355e18c513525d20579c2d45", "fusion_lon": 0.0, "rental_uris": {"android": "https://dc.lft.to/lastmile_qr_scan", "ios": "https://dc.lft.to/lastmile_qr_scan"}, "name": "f6ab6f87355e18c513525d20579c2d45", "type": "electric_scooter", "lat": 38.98472666666667, "is_disabled": 0}, {"fusion_lat": 0.0, "lon": -76.98378, "is_reserved": 0, "bike_id": "8b8d288a9f7d4003cd32e712505ecf69", "fusion_lon": 0.0, "rental_uris": {"android": "https://dc.lft.to/lastmile_qr_scan", "ios": "https://dc.lft.to/lastmile_qr_scan"}, "name": "8b8d288a9f7d4003cd32e712505ecf69", "type": "electric_scooter", "lat": 38.86127166666667, "is_disabled": 0}, {"fusion_lat": 0.0, "lon": -77.01888966666667, "is_reserved": 0, "bike_id": "4829df742f4ee8814a896c6746501fe3", "fusion_lon": 0.0, "rental_uris": {"android": "https://dc.lft.to/lastmile_qr_scan", "ios": "https://dc.lft.to/lastmile_qr_scan"}, "name": "4829df742f4ee8814a896c6746501fe3", "type": "electric_scooter", "lat": 38.904508, "is_disabled": 0}, {"fusion_lat": 0.0, "lon": -76.99518533333334, "is_reserved": 0, "bike_id": "2888d5d8dff57268c9f85eaa8a54cc6f", "fusion_lon": 0.0, "rental_uris": {"android": "https://dc.lft.to/lastmile_qr_scan", "ios": "https://dc.lft.to/lastmile_qr_scan"}, "name": "2888d5d8dff57268c9f85eaa8a54cc6f", "type": "electric_scooter", "lat": 38.89549983333333, "is_disabled": 0}, {"fusion_lat": 0.0, "lon": -77.03262866666667, "is_reserved": 0, "bike_id": "891a332761b476d99f49adf464880e95", "fusion_lon": 0.0, "rental_uris": {"android": "https://dc.lft.to/lastmile_qr_scan", "ios": "https://dc.lft.to/lastmile_qr_scan"}, "name": "891a332761b476d99f49adf464880e95", "type": "electric_scooter", "lat": 38.92850416666667, "is_disabled": 0}, {"fusion_lat": 0.0, "lon": -77.02208183333333, "is_reserved": 0, "bike_id": "9ce0c561e1093396047d4b6b28ddd4a6", "fusion_lon": 0.0, "rental_uris": {"android": "https://dc.lft.to/lastmile_qr_scan", "ios": "https://dc.lft.to/lastmile_qr_scan"}, "name": "9ce0c561e1093396047d4b6b28ddd4a6", "type": "electric_scooter", "lat": 38.902050833333334, "is_disabled": 0}, {"fusion_lat": 0.0, "lon": -76.996259, "is_reserved": 0, "bike_id": "83d4f9c8902c5e3473a7c962102b6092", "fusion_lon": 0.0, "rental_uris": {"android": "https://dc.lft.to/lastmile_qr_scan", "ios": "https://dc.lft.to/lastmile_qr_scan"}, "name": "83d4f9c8902c5e3473a7c962102b6092", "type": "electric_scooter", "lat": 38.885636166666664, "is_disabled": 0}, {"fusion_lat": 0.0, "lon": -77.08774383333333, "is_reserved": 0, "bike_id": "91b538f08a471b37d5c8563012b77b97", "fusion_lon": 0.0, "rental_uris": {"android": "https://dc.lft.to/lastmile_qr_scan", "ios": "https://dc.lft.to/lastmile_qr_scan"}, "name": "91b538f08a471b37d5c8563012b77b97", "type": "electric_bike", "lat": 38.83900666666667, "is_disabled": 0}, {"fusion_lat": 0.0, "lon": -77.00856083333333, "is_reserved": 0, "bike_id": "a6a7f66d5fc763ab82f6ecb14dd64991", "fusion_lon": 0.0, "rental_uris": {"android": "https://dc.lft.to/lastmile_qr_scan", "ios": "https://dc.lft.to/lastmile_qr_scan"}, "name": "a6a7f66d5fc763ab82f6ecb14dd64991", "type": "electric_scooter", "lat": 38.8765315, "is_disabled": 0}, {"fusion_lat": 0.0, "lon": -77.03825583333334, "is_reserved": 0, "bike_id": "f776d9653a2c85c090b3fa7fbc894857", "fusion_lon": 0.0, "rental_uris": {"android": "https://dc.lft.to/lastmile_qr_scan", "ios": "https://dc.lft.to/lastmile_qr_scan"}, "name": "f776d9653a2c85c090b3fa7fbc894857", "type": "electric_scooter", "lat": 38.931351, "is_disabled": 0}, {"fusion_lat": 0.0, "lon": -77.02220916666667, "is_reserved": 0, "bike_id": "67ca7645ff7e8d6024b946f91ed0ec76", "fusion_lon": 0.0, "rental_uris": {"android": "https://dc.lft.to/lastmile_qr_scan", "ios": "https://dc.lft.to/lastmile_qr_scan"}, "name": "67ca7645ff7e8d6024b946f91ed0ec76", "type": "electric_scooter", "lat": 38.93552483333333, "is_disabled": 0}, {"fusion_lat": 0.0, "lon": -77.02129333333333, "is_reserved": 0, "bike_id": "3fd2dd6cfed6f0187c908e883012a3f0", "fusion_lon": 0.0, "rental_uris": {"android": "https://dc.lft.to/lastmile_qr_scan", "ios": "https://dc.lft.to/lastmile_qr_scan"}, "name": "3fd2dd6cfed6f0187c908e883012a3f0", "type": "electric_scooter", "lat": 38.924217, "is_disabled": 0}, {"fusion_lat": 0.0, "lon": -76.9957905, "is_reserved": 0, "bike_id": "254fd6643372c163929b123736fd6a78", "fusion_lon": 0.0, "rental_uris": {"android": "https://dc.lft.to/lastmile_qr_scan", "ios": "https://dc.lft.to/lastmile_qr_scan"}, "name": "254fd6643372c163929b123736fd6a78", "type": "electric_bike", "lat": 38.85294416666667, "is_disabled": 0}, {"fusion_lat": 0.0, "lon": -77.02470066666666, "is_reserved": 0, "bike_id": "4daf73f064dec9c35b55fad5bbd8f4ff", "fusion_lon": 0.0, "rental_uris": {"android": "https://dc.lft.to/lastmile_qr_scan", "ios": "https://dc.lft.to/lastmile_qr_scan"}, "name": "4daf73f064dec9c35b55fad5bbd8f4ff", "type": "electric_scooter", "lat": 38.933094, "is_disabled": 0}, {"fusion_lat": 0.0, "lon": -77.04103366666666, "is_reserved": 0, "bike_id": "0e144d4bbc433874663872029c23e197", "fusion_lon": 0.0, "rental_uris": {"android": "https://dc.lft.to/lastmile_qr_scan", "ios": "https://dc.lft.to/lastmile_qr_scan"}, "name": "0e144d4bbc433874663872029c23e197", "type": "electric_scooter", "lat": 38.928034, "is_disabled": 0}, {"fusion_lat": 0.0, "lon": -77.02706316666666, "is_reserved": 0, "bike_id": "656f73f25b6973f7fbc751e409fe0f7d", "fusion_lon": 0.0, "rental_uris": {"android": "https://dc.lft.to/lastmile_qr_scan", "ios": "https://dc.lft.to/lastmile_qr_scan"}, "name": "656f73f25b6973f7fbc751e409fe0f7d", "type": "electric_scooter", "lat": 38.8974545, "is_disabled": 0}, {"fusion_lat": 0.0, "lon": -77.0240475, "is_reserved": 0, "bike_id": "4d2837865a669be0bef9ede783eb883e", "fusion_lon": 0.0, "rental_uris": {"android": "https://dc.lft.to/lastmile_qr_scan", "ios": "https://dc.lft.to/lastmile_qr_scan"}, "name": "4d2837865a669be0bef9ede783eb883e", "type": "electric_scooter", "lat": 38.892574833333335, "is_disabled": 0}, {"fusion_lat": 0.0, "lon": -77.03219883333334, "is_reserved": 0, "bike_id": "3f8cca991737543688ba70ac93d53305", "fusion_lon": 0.0, "rental_uris": {"android": "https://dc.lft.to/lastmile_qr_scan", "ios": "https://dc.lft.to/lastmile_qr_scan"}, "name": "3f8cca991737543688ba70ac93d53305", "type": "electric_scooter", "lat": 38.92637533333333, "is_disabled": 0}, {"fusion_lat": 0.0, "lon": -77.0337515, "is_reserved": 0, "bike_id": "a9618053b925f94c083207a8bd620d99", "fusion_lon": 0.0, "rental_uris": {"android": "https://dc.lft.to/lastmile_qr_scan", "ios": "https://dc.lft.to/lastmile_qr_scan"}, "name": "a9618053b925f94c083207a8bd620d99", "type": "electric_scooter", "lat": 38.9082375, "is_disabled": 0}, {"fusion_lat": 0.0, "lon": -77.0091515, "is_reserved": 0, "bike_id": "4e45b32197ff96b421f8e6bc95ae40f3", "fusion_lon": 0.0, "rental_uris": {"android": "https://dc.lft.to/lastmile_qr_scan", "ios": "https://dc.lft.to/lastmile_qr_scan"}, "name": "4e45b32197ff96b421f8e6bc95ae40f3", "type": "electric_scooter", "lat": 38.895572, "is_disabled": 0}, {"fusion_lat": 0.0, "lon": -77.01976366666666, "is_reserved": 0, "bike_id": "abc1fcb0ab7189be7ab224c2a684b6a6", "fusion_lon": 0.0, "rental_uris": {"android": "https://dc.lft.to/lastmile_qr_scan", "ios": "https://dc.lft.to/lastmile_qr_scan"}, "name": "abc1fcb0ab7189be7ab224c2a684b6a6", "type": "electric_scooter", "lat": 38.88326833333333, "is_disabled": 0}, {"fusion_lat": 0.0, "lon": -77.04621116666667, "is_reserved": 0, "bike_id": "1703bb075422cb8734b11d4c226edd00", "fusion_lon": 0.0, "rental_uris": {"android": "https://dc.lft.to/lastmile_qr_scan", "ios": "https://dc.lft.to/lastmile_qr_scan"}, "name": "1703bb075422cb8734b11d4c226edd00", "type": "electric_scooter", "lat": 38.9161175, "is_disabled": 0}, {"fusion_lat": 0.0, "lon": -77.02379616666667, "is_reserved": 0, "bike_id": "3da1a164f14c06e6c2f9b93343feb910", "fusion_lon": 0.0, "rental_uris": {"android": "https://dc.lft.to/lastmile_qr_scan", "ios": "https://dc.lft.to/lastmile_qr_scan"}, "name": "3da1a164f14c06e6c2f9b93343feb910", "type": "electric_scooter", "lat": 38.9080935, "is_disabled": 0}, {"fusion_lat": 0.0, "lon": -77.34291316666666, "is_reserved": 0, "bike_id": "ea9e2d17cfe46d1b33f728144171048b", "fusion_lon": 0.0, "rental_uris": {"android": "https://dc.lft.to/lastmile_qr_scan", "ios": "https://dc.lft.to/lastmile_qr_scan"}, "name": "ea9e2d17cfe46d1b33f728144171048b", "type": "electric_bike", "lat": 38.94609483333333, "is_disabled": 0}, {"fusion_lat": 0.0, "lon": -77.0297425, "is_reserved": 0, "bike_id": "7906f276aebffd92c5478c25a8d55b92", "fusion_lon": 0.0, "rental_uris": {"android": "https://dc.lft.to/lastmile_qr_scan", "ios": "https://dc.lft.to/lastmile_qr_scan"}, "name": "7906f276aebffd92c5478c25a8d55b92", "type": "electric_scooter", "lat": 38.907288333333334, "is_disabled": 0}, {"fusion_lat": 0.0, "lon": -77.02286783333334, "is_reserved": 0, "bike_id": "b13ce24eeb037650570e82c4d7e682e9", "fusion_lon": 0.0, "rental_uris": {"android": "https://dc.lft.to/lastmile_qr_scan", "ios": "https://dc.lft.to/lastmile_qr_scan"}, "name": "b13ce24eeb037650570e82c4d7e682e9", "type": "electric_scooter", "lat": 38.916259833333335, "is_disabled": 0}, {"fusion_lat": 0.0, "lon": -77.03748883333333, "is_reserved": 0, "bike_id": "389b97b5c9898b8a08ed3b629c63296e", "fusion_lon": 0.0, "rental_uris": {"android": "https://dc.lft.to/lastmile_qr_scan", "ios": "https://dc.lft.to/lastmile_qr_scan"}, "name": "389b97b5c9898b8a08ed3b629c63296e", "type": "electric_scooter", "lat": 38.916872833333336, "is_disabled": 0}, {"fusion_lat": 0.0, "lon": -77.029696, "is_reserved": 0, "bike_id": "9ff717c065c27d516073a13a57f047ba", "fusion_lon": 0.0, "rental_uris": {"android": "https://dc.lft.to/lastmile_qr_scan", "ios": "https://dc.lft.to/lastmile_qr_scan"}, "name": "9ff717c065c27d516073a13a57f047ba", "type": "electric_scooter", "lat": 38.90734066666667, "is_disabled": 0}, {"fusion_lat": 0.0, "lon": -77.03696283333333, "is_reserved": 0, "bike_id": "1ee6da091ceeae115cf30f1637cc7e48", "fusion_lon": 0.0, "rental_uris": {"android": "https://dc.lft.to/lastmile_qr_scan", "ios": "https://dc.lft.to/lastmile_qr_scan"}, "name": "1ee6da091ceeae115cf30f1637cc7e48", "type": "electric_scooter", "lat": 38.926171333333336, "is_disabled": 0}, {"fusion_lat": 0.0, "lon": -77.029839, "is_reserved": 0, "bike_id": "7573227b7cc415f5c914efd2341f5653", "fusion_lon": 0.0, "rental_uris": {"android": "https://dc.lft.to/lastmile_qr_scan", "ios": "https://dc.lft.to/lastmile_qr_scan"}, "name": "7573227b7cc415f5c914efd2341f5653", "type": "electric_scooter", "lat": 38.9073395, "is_disabled": 0}, {"fusion_lat": 0.0, "lon": -77.00766883333333, "is_reserved": 0, "bike_id": "742540461bf570b157bd1a4efed54fae", "fusion_lon": 0.0, "rental_uris": {"android": "https://dc.lft.to/lastmile_qr_scan", "ios": "https://dc.lft.to/lastmile_qr_scan"}, "name": "742540461bf570b157bd1a4efed54fae", "type": "electric_scooter", "lat": 38.926744666666664, "is_disabled": 0}, {"fusion_lat": 0.0, "lon": -77.1072875, "is_reserved": 0, "bike_id": "a9f2d7e60006ed6b624ce02607442cdd", "fusion_lon": 0.0, "rental_uris": {"android": "https://dc.lft.to/lastmile_qr_scan", "ios": "https://dc.lft.to/lastmile_qr_scan"}, "name": "a9f2d7e60006ed6b624ce02607442cdd", "type": "electric_bike", "lat": 38.8554075, "is_disabled": 0}, {"fusion_lat": 0.0, "lon": -77.02803416666667, "is_reserved": 0, "bike_id": "2487c555e3eee3f2b2c7a44044a4c0b7", "fusion_lon": 0.0, "rental_uris": {"android": "https://dc.lft.to/lastmile_qr_scan", "ios": "https://dc.lft.to/lastmile_qr_scan"}, "name": "2487c555e3eee3f2b2c7a44044a4c0b7", "type": "electric_scooter", "lat": 38.93307133333333, "is_disabled": 0}, {"fusion_lat": 0.0, "lon": -77.00715533333333, "is_reserved": 0, "bike_id": "e0097909f57e7ca41f9665a5a927795e", "fusion_lon": 0.0, "rental_uris": {"android": "https://dc.lft.to/lastmile_qr_scan", "ios": "https://dc.lft.to/lastmile_qr_scan"}, "name": "e0097909f57e7ca41f9665a5a927795e", "type": "electric_scooter", "lat": 38.9170675, "is_disabled": 0}, {"fusion_lat": 0.0, "lon": -77.08457616666666, "is_reserved": 0, "bike_id": "9ee062f13dce5515a74d81e34a02da22", "fusion_lon": 0.0, "rental_uris": {"android": "https://dc.lft.to/lastmile_qr_scan", "ios": "https://dc.lft.to/lastmile_qr_scan"}, "name": "9ee062f13dce5515a74d81e34a02da22", "type": "electric_bike", "lat": 38.84816566666667, "is_disabled": 0}, {"fusion_lat": 0.0, "lon": -77.02712883333334, "is_reserved": 0, "bike_id": "77638b9a905d21e599a81b4255fbb066", "fusion_lon": 0.0, "rental_uris": {"android": "https://dc.lft.to/lastmile_qr_scan", "ios": "https://dc.lft.to/lastmile_qr_scan"}, "name": "77638b9a905d21e599a81b4255fbb066", "type": "electric_scooter", "lat": 38.9369665, "is_disabled": 0}, {"fusion_lat": 0.0, "lon": -77.01327316666666, "is_reserved": 0, "bike_id": "54ed52d4c00af3982404cd005ab6c54c", "fusion_lon": 0.0, "rental_uris": {"android": "https://dc.lft.to/lastmile_qr_scan", "ios": "https://dc.lft.to/lastmile_qr_scan"}, "name": "54ed52d4c00af3982404cd005ab6c54c", "type": "electric_scooter", "lat": 38.87927583333333, "is_disabled": 0}, {"fusion_lat": 0.0, "lon": -77.029639, "is_reserved": 0, "bike_id": "adfaabd273fa0f4363b7fe730e1de9de", "fusion_lon": 0.0, "rental_uris": {"android": "https://dc.lft.to/lastmile_qr_scan", "ios": "https://dc.lft.to/lastmile_qr_scan"}, "name": "adfaabd273fa0f4363b7fe730e1de9de", "type": "electric_scooter", "lat": 38.939943166666666, "is_disabled": 0}, {"fusion_lat": 0.0, "lon": -77.04369216666667, "is_reserved": 0, "bike_id": "885310662dde407d3dcdfc1e293715d4", "fusion_lon": 0.0, "rental_uris": {"android": "https://dc.lft.to/lastmile_qr_scan", "ios": "https://dc.lft.to/lastmile_qr_scan"}, "name": "885310662dde407d3dcdfc1e293715d4", "type": "electric_scooter", "lat": 38.89221116666667, "is_disabled": 0}, {"fusion_lat": 0.0, "lon": -77.04235116666666, "is_reserved": 0, "bike_id": "10a174a8a436de0c73926c5c7b6541b9", "fusion_lon": 0.0, "rental_uris": {"android": "https://dc.lft.to/lastmile_qr_scan", "ios": "https://dc.lft.to/lastmile_qr_scan"}, "name": "10a174a8a436de0c73926c5c7b6541b9", "type": "electric_scooter", "lat": 38.914209166666666, "is_disabled": 0}, {"fusion_lat": 0.0, "lon": -77.034041, "is_reserved": 0, "bike_id": "d796afa7cb1007e400c98268716d031c", "fusion_lon": 0.0, "rental_uris": {"android": "https://dc.lft.to/lastmile_qr_scan", "ios": "https://dc.lft.to/lastmile_qr_scan"}, "name": "d796afa7cb1007e400c98268716d031c", "type": "electric_scooter", "lat": 38.922579999999996, "is_disabled": 0}, {"fusion_lat": 0.0, "lon": -77.07884416666667, "is_reserved": 0, "bike_id": "dd0a51f0fa663c537425b5764d5a80a3", "fusion_lon": 0.0, "rental_uris": {"android": "https://dc.lft.to/lastmile_qr_scan", "ios": "https://dc.lft.to/lastmile_qr_scan"}, "name": "dd0a51f0fa663c537425b5764d5a80a3", "type": "electric_bike", "lat": 38.95025966666667, "is_disabled": 0}, {"fusion_lat": 0.0, "lon": -76.94199183333333, "is_reserved": 0, "bike_id": "d53c668ea5940430ebb814e74a9a2f4c", "fusion_lon": 0.0, "rental_uris": {"android": "https://dc.lft.to/lastmile_qr_scan", "ios": "https://dc.lft.to/lastmile_qr_scan"}, "name": "d53c668ea5940430ebb814e74a9a2f4c", "type": "electric_scooter", "lat": 38.89376983333333, "is_disabled": 0}, {"fusion_lat": 0.0, "lon": -76.99759933333333, "is_reserved": 0, "bike_id": "68c0a43a61ce4183ef39ed2c981e3f63", "fusion_lon": 0.0, "rental_uris": {"android": "https://dc.lft.to/lastmile_qr_scan", "ios": "https://dc.lft.to/lastmile_qr_scan"}, "name": "68c0a43a61ce4183ef39ed2c981e3f63", "type": "electric_scooter", "lat": 38.8877405, "is_disabled": 0}, {"fusion_lat": 0.0, "lon": -77.0375065, "is_reserved": 0, "bike_id": "dba483bd121adb7f2326361ba395c54b", "fusion_lon": 0.0, "rental_uris": {"android": "https://dc.lft.to/lastmile_qr_scan", "ios": "https://dc.lft.to/lastmile_qr_scan"}, "name": "dba483bd121adb7f2326361ba395c54b", "type": "electric_scooter", "lat": 38.91109616666667, "is_disabled": 0}, {"fusion_lat": 0.0, "lon": -77.0315735, "is_reserved": 0, "bike_id": "cc5f3a3b0b4741b277207fe96f7fa37d", "fusion_lon": 0.0, "rental_uris": {"android": "https://dc.lft.to/lastmile_qr_scan", "ios": "https://dc.lft.to/lastmile_qr_scan"}, "name": "cc5f3a3b0b4741b277207fe96f7fa37d", "type": "electric_scooter", "lat": 38.92796716666667, "is_disabled": 0}, {"fusion_lat": 0.0, "lon": -76.946863, "is_reserved": 0, "bike_id": "681b96a384e1d9aa37d41e16ee0c8340", "fusion_lon": 0.0, "rental_uris": {"android": "https://dc.lft.to/lastmile_qr_scan", "ios": "https://dc.lft.to/lastmile_qr_scan"}, "name": "681b96a384e1d9aa37d41e16ee0c8340", "type": "electric_scooter", "lat": 38.886308166666666, "is_disabled": 0}, {"fusion_lat": 0.0, "lon": -77.04358416666666, "is_reserved": 0, "bike_id": "c8615156576943bf6b427158728d207a", "fusion_lon": 0.0, "rental_uris": {"android": "https://dc.lft.to/lastmile_qr_scan", "ios": "https://dc.lft.to/lastmile_qr_scan"}, "name": "c8615156576943bf6b427158728d207a", "type": "electric_scooter", "lat": 38.892350666666665, "is_disabled": 0}, {"fusion_lat": 0.0, "lon": -77.03846116666666, "is_reserved": 0, "bike_id": "e49a9dc4899727dc1d181c9b3c25cd19", "fusion_lon": 0.0, "rental_uris": {"android": "https://dc.lft.to/lastmile_qr_scan", "ios": "https://dc.lft.to/lastmile_qr_scan"}, "name": "e49a9dc4899727dc1d181c9b3c25cd19", "type": "electric_scooter", "lat": 38.92526816666667, "is_disabled": 0}, {"fusion_lat": 0.0, "lon": -77.00382766666667, "is_reserved": 0, "bike_id": "04cc4f68cd2a63fc1148a33ff4e0a3f0", "fusion_lon": 0.0, "rental_uris": {"android": "https://dc.lft.to/lastmile_qr_scan", "ios": "https://dc.lft.to/lastmile_qr_scan"}, "name": "04cc4f68cd2a63fc1148a33ff4e0a3f0", "type": "electric_scooter", "lat": 38.87640416666667, "is_disabled": 0}, {"fusion_lat": 0.0, "lon": -77.045049, "is_reserved": 0, "bike_id": "9589df480605f8f90823df3281ade7e1", "fusion_lon": 0.0, "rental_uris": {"android": "https://dc.lft.to/lastmile_qr_scan", "ios": "https://dc.lft.to/lastmile_qr_scan"}, "name": "9589df480605f8f90823df3281ade7e1", "type": "electric_scooter", "lat": 38.91113133333333, "is_disabled": 0}, {"fusion_lat": 0.0, "lon": -77.00337933333333, "is_reserved": 0, "bike_id": "392412e6e2ecc3df04820884b30609f9", "fusion_lon": 0.0, "rental_uris": {"android": "https://dc.lft.to/lastmile_qr_scan", "ios": "https://dc.lft.to/lastmile_qr_scan"}, "name": "392412e6e2ecc3df04820884b30609f9", "type": "electric_scooter", "lat": 38.9036125, "is_disabled": 0}, {"fusion_lat": 0.0, "lon": -77.04488033333334, "is_reserved": 0, "bike_id": "1b3178fc87c1339ff483f333843cbe68", "fusion_lon": 0.0, "rental_uris": {"android": "https://dc.lft.to/lastmile_qr_scan", "ios": "https://dc.lft.to/lastmile_qr_scan"}, "name": "1b3178fc87c1339ff483f333843cbe68", "type": "electric_scooter", "lat": 38.905149333333334, "is_disabled": 0}, {"fusion_lat": 0.0, "lon": -77.02705183333333, "is_reserved": 0, "bike_id": "fea249235b03dc77e4c8865696afec3a", "fusion_lon": 0.0, "rental_uris": {"android": "https://dc.lft.to/lastmile_qr_scan", "ios": "https://dc.lft.to/lastmile_qr_scan"}, "name": "fea249235b03dc77e4c8865696afec3a", "type": "electric_scooter", "lat": 38.906674333333335, "is_disabled": 0}, {"fusion_lat": 0.0, "lon": -77.02740533333333, "is_reserved": 0, "bike_id": "3354edb374a540c1810fb2d8ca8c5ed8", "fusion_lon": 0.0, "rental_uris": {"android": "https://dc.lft.to/lastmile_qr_scan", "ios": "https://dc.lft.to/lastmile_qr_scan"}, "name": "3354edb374a540c1810fb2d8ca8c5ed8", "type": "electric_scooter", "lat": 38.92859883333333, "is_disabled": 0}, {"fusion_lat": 0.0, "lon": -76.93757316666667, "is_reserved": 0, "bike_id": "744ca74c26afbcc08fb1ffa05eac1e30", "fusion_lon": 0.0, "rental_uris": {"android": "https://dc.lft.to/lastmile_qr_scan", "ios": "https://dc.lft.to/lastmile_qr_scan"}, "name": "744ca74c26afbcc08fb1ffa05eac1e30", "type": "electric_scooter", "lat": 38.890471, "is_disabled": 0}, {"fusion_lat": 0.0, "lon": -77.02696483333334, "is_reserved": 0, "bike_id": "8288486d8c9fa2352997f3c6b1ba9ccc", "fusion_lon": 0.0, "rental_uris": {"android": "https://dc.lft.to/lastmile_qr_scan", "ios": "https://dc.lft.to/lastmile_qr_scan"}, "name": "8288486d8c9fa2352997f3c6b1ba9ccc", "type": "electric_scooter", "lat": 38.92374233333334, "is_disabled": 0}, {"fusion_lat": 0.0, "lon": -77.03897933333333, "is_reserved": 0, "bike_id": "ae8031343d765532be4b45acb7197b7c", "fusion_lon": 0.0, "rental_uris": {"android": "https://dc.lft.to/lastmile_qr_scan", "ios": "https://dc.lft.to/lastmile_qr_scan"}, "name": "ae8031343d765532be4b45acb7197b7c", "type": "electric_scooter", "lat": 38.914711, "is_disabled": 0}, {"fusion_lat": 0.0, "lon": -77.02786466666667, "is_reserved": 0, "bike_id": "c757df6595d934a2df7b4d7cbcf06db0", "fusion_lon": 0.0, "rental_uris": {"android": "https://dc.lft.to/lastmile_qr_scan", "ios": "https://dc.lft.to/lastmile_qr_scan"}, "name": "c757df6595d934a2df7b4d7cbcf06db0", "type": "electric_scooter", "lat": 38.930883666666666, "is_disabled": 0}, {"fusion_lat": 0.0, "lon": -77.01617383333334, "is_reserved": 0, "bike_id": "aede8791e99c5edb259a2ce66a1346c8", "fusion_lon": 0.0, "rental_uris": {"android": "https://dc.lft.to/lastmile_qr_scan", "ios": "https://dc.lft.to/lastmile_qr_scan"}, "name": "aede8791e99c5edb259a2ce66a1346c8", "type": "electric_scooter", "lat": 38.903463333333335, "is_disabled": 0}, {"fusion_lat": 0.0, "lon": -77.0096905, "is_reserved": 0, "bike_id": "25fd9a058b9f432807a0d6f24960a0b3", "fusion_lon": 0.0, "rental_uris": {"android": "https://dc.lft.to/lastmile_qr_scan", "ios": "https://dc.lft.to/lastmile_qr_scan"}, "name": "25fd9a058b9f432807a0d6f24960a0b3", "type": "electric_scooter", "lat": 38.914109333333336, "is_disabled": 0}, {"fusion_lat": 0.0, "lon": -77.07075616666667, "is_reserved": 0, "bike_id": "38009e86a13e4bcbbb0967d3c721a7c6", "fusion_lon": 0.0, "rental_uris": {"android": "https://dc.lft.to/lastmile_qr_scan", "ios": "https://dc.lft.to/lastmile_qr_scan"}, "name": "38009e86a13e4bcbbb0967d3c721a7c6", "type": "electric_scooter", "lat": 38.93174066666667, "is_disabled": 0}, {"fusion_lat": 0.0, "lon": -77.02383716666667, "is_reserved": 0, "bike_id": "2db1a8c43ee333f484180bbcd32edeeb", "fusion_lon": 0.0, "rental_uris": {"android": "https://dc.lft.to/lastmile_qr_scan", "ios": "https://dc.lft.to/lastmile_qr_scan"}, "name": "2db1a8c43ee333f484180bbcd32edeeb", "type": "electric_scooter", "lat": 38.908083500000004, "is_disabled": 0}, {"fusion_lat": 0.0, "lon": -77.02376566666666, "is_reserved": 0, "bike_id": "afdeece9561308c5e8a298c78fe5f1fe", "fusion_lon": 0.0, "rental_uris": {"android": "https://dc.lft.to/lastmile_qr_scan", "ios": "https://dc.lft.to/lastmile_qr_scan"}, "name": "afdeece9561308c5e8a298c78fe5f1fe", "type": "electric_scooter", "lat": 38.90960416666667, "is_disabled": 0}, {"fusion_lat": 0.0, "lon": -77.031581, "is_reserved": 0, "bike_id": "80d5192461f6a0afdb76b4a167e85de1", "fusion_lon": 0.0, "rental_uris": {"android": "https://dc.lft.to/lastmile_qr_scan", "ios": "https://dc.lft.to/lastmile_qr_scan"}, "name": "80d5192461f6a0afdb76b4a167e85de1", "type": "electric_bike", "lat": 38.92105166666666, "is_disabled": 0}, {"fusion_lat": 0.0, "lon": -77.0410975, "is_reserved": 0, "bike_id": "0e6da930ca54b50f372b4a743d63806a", "fusion_lon": 0.0, "rental_uris": {"android": "https://dc.lft.to/lastmile_qr_scan", "ios": "https://dc.lft.to/lastmile_qr_scan"}, "name": "0e6da930ca54b50f372b4a743d63806a", "type": "electric_scooter", "lat": 38.92451966666667, "is_disabled": 0}, {"fusion_lat": 0.0, "lon": -77.07141933333334, "is_reserved": 0, "bike_id": "a084a6aed50a2e2c1272648fbcf0cf87", "fusion_lon": 0.0, "rental_uris": {"android": "https://dc.lft.to/lastmile_qr_scan", "ios": "https://dc.lft.to/lastmile_qr_scan"}, "name": "a084a6aed50a2e2c1272648fbcf0cf87", "type": "electric_scooter", "lat": 38.9203045, "is_disabled": 0}, {"fusion_lat": 0.0, "lon": -76.99609883333333, "is_reserved": 0, "bike_id": "4205f8153d5730b53737974367db4eaa", "fusion_lon": 0.0, "rental_uris": {"android": "https://dc.lft.to/lastmile_qr_scan", "ios": "https://dc.lft.to/lastmile_qr_scan"}, "name": "4205f8153d5730b53737974367db4eaa", "type": "electric_scooter", "lat": 38.88703, "is_disabled": 0}, {"fusion_lat": 0.0, "lon": -77.03591266666666, "is_reserved": 0, "bike_id": "924549a1f3f21ddce62454a709f6a241", "fusion_lon": 0.0, "rental_uris": {"android": "https://dc.lft.to/lastmile_qr_scan", "ios": "https://dc.lft.to/lastmile_qr_scan"}, "name": "924549a1f3f21ddce62454a709f6a241", "type": "electric_scooter", "lat": 38.936737, "is_disabled": 0}, {"fusion_lat": 0.0, "lon": -77.02801216666667, "is_reserved": 0, "bike_id": "dde14d9f0f7d19145e1dfb972b3652a4", "fusion_lon": 0.0, "rental_uris": {"android": "https://dc.lft.to/lastmile_qr_scan", "ios": "https://dc.lft.to/lastmile_qr_scan"}, "name": "dde14d9f0f7d19145e1dfb972b3652a4", "type": "electric_scooter", "lat": 38.892324333333335, "is_disabled": 0}, {"fusion_lat": 0.0, "lon": -77.01302733333333, "is_reserved": 0, "bike_id": "02918bcc48a7c91d81b554b6ae400089", "fusion_lon": 0.0, "rental_uris": {"android": "https://dc.lft.to/lastmile_qr_scan", "ios": "https://dc.lft.to/lastmile_qr_scan"}, "name": "02918bcc48a7c91d81b554b6ae400089", "type": "electric_scooter", "lat": 38.8714405, "is_disabled": 0}, {"fusion_lat": 0.0, "lon": -77.0429805, "is_reserved": 0, "bike_id": "5b3e24fcd9290814913211df179c4e8d", "fusion_lon": 0.0, "rental_uris": {"android": "https://dc.lft.to/lastmile_qr_scan", "ios": "https://dc.lft.to/lastmile_qr_scan"}, "name": "5b3e24fcd9290814913211df179c4e8d", "type": "electric_scooter", "lat": 38.923308, "is_disabled": 0}, {"fusion_lat": 0.0, "lon": -77.01744683333334, "is_reserved": 0, "bike_id": "80a6598db71604cf57b9ef8229495446", "fusion_lon": 0.0, "rental_uris": {"android": "https://dc.lft.to/lastmile_qr_scan", "ios": "https://dc.lft.to/lastmile_qr_scan"}, "name": "80a6598db71604cf57b9ef8229495446", "type": "electric_scooter", "lat": 38.88335383333333, "is_disabled": 0}, {"fusion_lat": 0.0, "lon": -77.03485366666666, "is_reserved": 0, "bike_id": "b9b5346181c1183384f667df5b03a6ee", "fusion_lon": 0.0, "rental_uris": {"android": "https://dc.lft.to/lastmile_qr_scan", "ios": "https://dc.lft.to/lastmile_qr_scan"}, "name": "b9b5346181c1183384f667df5b03a6ee", "type": "electric_scooter", "lat": 38.925416, "is_disabled": 0}, {"fusion_lat": 0.0, "lon": -77.039599, "is_reserved": 0, "bike_id": "40d23b51c389173cb7e7a169705c484b", "fusion_lon": 0.0, "rental_uris": {"android": "https://dc.lft.to/lastmile_qr_scan", "ios": "https://dc.lft.to/lastmile_qr_scan"}, "name": "40d23b51c389173cb7e7a169705c484b", "type": "electric_scooter", "lat": 38.9073695, "is_disabled": 0}, {"fusion_lat": 0.0, "lon": -77.0037565, "is_reserved": 0, "bike_id": "d71d68931afb540a31f457e0a4ea375d", "fusion_lon": 0.0, "rental_uris": {"android": "https://dc.lft.to/lastmile_qr_scan", "ios": "https://dc.lft.to/lastmile_qr_scan"}, "name": "d71d68931afb540a31f457e0a4ea375d", "type": "electric_scooter", "lat": 38.89731966666667, "is_disabled": 0}, {"fusion_lat": 0.0, "lon": -77.0354455, "is_reserved": 0, "bike_id": "729a01f71ccb20c8d9e097f622edae51", "fusion_lon": 0.0, "rental_uris": {"android": "https://dc.lft.to/lastmile_qr_scan", "ios": "https://dc.lft.to/lastmile_qr_scan"}, "name": "729a01f71ccb20c8d9e097f622edae51", "type": "electric_scooter", "lat": 38.917108999999996, "is_disabled": 0}, {"fusion_lat": 0.0, "lon": -77.030453, "is_reserved": 0, "bike_id": "fdfa6d86c296325a79964b867534978c", "fusion_lon": 0.0, "rental_uris": {"android": "https://dc.lft.to/lastmile_qr_scan", "ios": "https://dc.lft.to/lastmile_qr_scan"}, "name": "fdfa6d86c296325a79964b867534978c", "type": "electric_scooter", "lat": 38.88403133333333, "is_disabled": 0}, {"fusion_lat": 0.0, "lon": -77.04694283333333, "is_reserved": 0, "bike_id": "ddb15cd7235c1a119c60a79f4c363d58", "fusion_lon": 0.0, "rental_uris": {"android": "https://dc.lft.to/lastmile_qr_scan", "ios": "https://dc.lft.to/lastmile_qr_scan"}, "name": "ddb15cd7235c1a119c60a79f4c363d58", "type": "electric_scooter", "lat": 38.921607333333334, "is_disabled": 0}, {"fusion_lat": 0.0, "lon": -77.00050383333334, "is_reserved": 0, "bike_id": "4dad1b81ef4dbeaaad3b3b8cce479d82", "fusion_lon": 0.0, "rental_uris": {"android": "https://dc.lft.to/lastmile_qr_scan", "ios": "https://dc.lft.to/lastmile_qr_scan"}, "name": "4dad1b81ef4dbeaaad3b3b8cce479d82", "type": "electric_scooter", "lat": 38.89644833333333, "is_disabled": 0}, {"fusion_lat": 0.0, "lon": -76.99547966666667, "is_reserved": 0, "bike_id": "5668346dabf0393d5c70b0c6c8964f45", "fusion_lon": 0.0, "rental_uris": {"android": "https://dc.lft.to/lastmile_qr_scan", "ios": "https://dc.lft.to/lastmile_qr_scan"}, "name": "5668346dabf0393d5c70b0c6c8964f45", "type": "electric_scooter", "lat": 38.862601, "is_disabled": 0}, {"fusion_lat": 0.0, "lon": -77.0243765, "is_reserved": 0, "bike_id": "0ee117dd786da5080c63239c4501baac", "fusion_lon": 0.0, "rental_uris": {"android": "https://dc.lft.to/lastmile_qr_scan", "ios": "https://dc.lft.to/lastmile_qr_scan"}, "name": "0ee117dd786da5080c63239c4501baac", "type": "electric_scooter", "lat": 38.89993483333333, "is_disabled": 0}, {"fusion_lat": 0.0, "lon": -77.00852866666666, "is_reserved": 0, "bike_id": "33aa274cc5d6d606dbe23497108d82ea", "fusion_lon": 0.0, "rental_uris": {"android": "https://dc.lft.to/lastmile_qr_scan", "ios": "https://dc.lft.to/lastmile_qr_scan"}, "name": "33aa274cc5d6d606dbe23497108d82ea", "type": "electric_scooter", "lat": 38.9121415, "is_disabled": 0}, {"fusion_lat": 0.0, "lon": -77.03072166666666, "is_reserved": 0, "bike_id": "71fb94ac93805692822dd433ce0440d9", "fusion_lon": 0.0, "rental_uris": {"android": "https://dc.lft.to/lastmile_qr_scan", "ios": "https://dc.lft.to/lastmile_qr_scan"}, "name": "71fb94ac93805692822dd433ce0440d9", "type": "electric_scooter", "lat": 38.9237465, "is_disabled": 0}, {"fusion_lat": 0.0, "lon": -76.99455116666667, "is_reserved": 0, "bike_id": "84df6a7145f550c466341d2117fd292c", "fusion_lon": 0.0, "rental_uris": {"android": "https://dc.lft.to/lastmile_qr_scan", "ios": "https://dc.lft.to/lastmile_qr_scan"}, "name": "84df6a7145f550c466341d2117fd292c", "type": "electric_bike", "lat": 38.96618216666667, "is_disabled": 0}, {"fusion_lat": 0.0, "lon": -77.0086825, "is_reserved": 0, "bike_id": "63fc6caf663f72e77e93b7b4bfee34e6", "fusion_lon": 0.0, "rental_uris": {"android": "https://dc.lft.to/lastmile_qr_scan", "ios": "https://dc.lft.to/lastmile_qr_scan"}, "name": "63fc6caf663f72e77e93b7b4bfee34e6", "type": "electric_scooter", "lat": 38.9067495, "is_disabled": 0}, {"fusion_lat": 0.0, "lon": -77.0865465, "is_reserved": 0, "bike_id": "c5dfc8288a2575c816ad62b5a10edb37", "fusion_lon": 0.0, "rental_uris": {"android": "https://dc.lft.to/lastmile_qr_scan", "ios": "https://dc.lft.to/lastmile_qr_scan"}, "name": "c5dfc8288a2575c816ad62b5a10edb37", "type": "electric_bike", "lat": 38.86248666666667, "is_disabled": 0}, {"fusion_lat": 0.0, "lon": -77.07579916666667, "is_reserved": 0, "bike_id": "9ebc7eb40dcaabfae360f88ba5bad3ae", "fusion_lon": 0.0, "rental_uris": {"android": "https://dc.lft.to/lastmile_qr_scan", "ios": "https://dc.lft.to/lastmile_qr_scan"}, "name": "9ebc7eb40dcaabfae360f88ba5bad3ae", "type": "electric_scooter", "lat": 38.93867433333333, "is_disabled": 0}, {"fusion_lat": 0.0, "lon": -76.98548733333334, "is_reserved": 0, "bike_id": "4ff0327a7b8a5cef65492ee273a9b63e", "fusion_lon": 0.0, "rental_uris": {"android": "https://dc.lft.to/lastmile_qr_scan", "ios": "https://dc.lft.to/lastmile_qr_scan"}, "name": "4ff0327a7b8a5cef65492ee273a9b63e", "type": "electric_scooter", "lat": 38.910343, "is_disabled": 0}, {"fusion_lat": 0.0, "lon": -77.01594383333334, "is_reserved": 0, "bike_id": "8f0d815a49c00cd1f941091876181703", "fusion_lon": 0.0, "rental_uris": {"android": "https://dc.lft.to/lastmile_qr_scan", "ios": "https://dc.lft.to/lastmile_qr_scan"}, "name": "8f0d815a49c00cd1f941091876181703", "type": "electric_scooter", "lat": 38.9494365, "is_disabled": 0}, {"fusion_lat": 0.0, "lon": -77.03440466666666, "is_reserved": 0, "bike_id": "5efcbe7a475cbc3562d57d6f1b850152", "fusion_lon": 0.0, "rental_uris": {"android": "https://dc.lft.to/lastmile_qr_scan", "ios": "https://dc.lft.to/lastmile_qr_scan"}, "name": "5efcbe7a475cbc3562d57d6f1b850152", "type": "electric_scooter", "lat": 38.9101415, "is_disabled": 0}, {"fusion_lat": 0.0, "lon": -77.036024, "is_reserved": 0, "bike_id": "d5aeb19a3ccbb49e86f894571a9e2659", "fusion_lon": 0.0, "rental_uris": {"android": "https://dc.lft.to/lastmile_qr_scan", "ios": "https://dc.lft.to/lastmile_qr_scan"}, "name": "d5aeb19a3ccbb49e86f894571a9e2659", "type": "electric_scooter", "lat": 38.92324266666667, "is_disabled": 0}, {"fusion_lat": 0.0, "lon": -77.05251666666666, "is_reserved": 0, "bike_id": "501345c7ea34cf003132f0038510b96e", "fusion_lon": 0.0, "rental_uris": {"android": "https://dc.lft.to/lastmile_qr_scan", "ios": "https://dc.lft.to/lastmile_qr_scan"}, "name": "501345c7ea34cf003132f0038510b96e", "type": "electric_scooter", "lat": 38.92378133333333, "is_disabled": 0}, {"fusion_lat": 0.0, "lon": -76.98782166666666, "is_reserved": 0, "bike_id": "b3cfe0639c241a0368be8327db32ce4f", "fusion_lon": 0.0, "rental_uris": {"android": "https://dc.lft.to/lastmile_qr_scan", "ios": "https://dc.lft.to/lastmile_qr_scan"}, "name": "b3cfe0639c241a0368be8327db32ce4f", "type": "electric_scooter", "lat": 38.90301766666666, "is_disabled": 0}, {"fusion_lat": 0.0, "lon": -77.02535316666666, "is_reserved": 0, "bike_id": "9dbcf1a303402d076d48742f0a7f849d", "fusion_lon": 0.0, "rental_uris": {"android": "https://dc.lft.to/lastmile_qr_scan", "ios": "https://dc.lft.to/lastmile_qr_scan"}, "name": "9dbcf1a303402d076d48742f0a7f849d", "type": "electric_scooter", "lat": 38.92753016666666, "is_disabled": 0}, {"fusion_lat": 0.0, "lon": -76.99506066666666, "is_reserved": 0, "bike_id": "12ff28e63bcdac6b2b11750d8c1510b5", "fusion_lon": 0.0, "rental_uris": {"android": "https://dc.lft.to/lastmile_qr_scan", "ios": "https://dc.lft.to/lastmile_qr_scan"}, "name": "12ff28e63bcdac6b2b11750d8c1510b5", "type": "electric_scooter", "lat": 38.9098195, "is_disabled": 0}, {"fusion_lat": 0.0, "lon": -77.0363655, "is_reserved": 0, "bike_id": "86fbcf02777c6e9146fb8871ed246b78", "fusion_lon": 0.0, "rental_uris": {"android": "https://dc.lft.to/lastmile_qr_scan", "ios": "https://dc.lft.to/lastmile_qr_scan"}, "name": "86fbcf02777c6e9146fb8871ed246b78", "type": "electric_scooter", "lat": 38.92267, "is_disabled": 0}, {"fusion_lat": 0.0, "lon": -77.0120625, "is_reserved": 0, "bike_id": "969d52cd3a109a2827f4bce462054f54", "fusion_lon": 0.0, "rental_uris": {"android": "https://dc.lft.to/lastmile_qr_scan", "ios": "https://dc.lft.to/lastmile_qr_scan"}, "name": "969d52cd3a109a2827f4bce462054f54", "type": "electric_scooter", "lat": 38.9212185, "is_disabled": 0}, {"fusion_lat": 0.0, "lon": -76.99786066666667, "is_reserved": 0, "bike_id": "55128ab7b12114b6f005d787097d5b10", "fusion_lon": 0.0, "rental_uris": {"android": "https://dc.lft.to/lastmile_qr_scan", "ios": "https://dc.lft.to/lastmile_qr_scan"}, "name": "55128ab7b12114b6f005d787097d5b10", "type": "electric_scooter", "lat": 38.89091833333333, "is_disabled": 0}, {"fusion_lat": 0.0, "lon": -76.99466483333333, "is_reserved": 0, "bike_id": "0d58d6a2fe10d967304dd1ebf811bad9", "fusion_lon": 0.0, "rental_uris": {"android": "https://dc.lft.to/lastmile_qr_scan", "ios": "https://dc.lft.to/lastmile_qr_scan"}, "name": "0d58d6a2fe10d967304dd1ebf811bad9", "type": "electric_scooter", "lat": 38.8622605, "is_disabled": 0}, {"fusion_lat": 0.0, "lon": -76.99645733333334, "is_reserved": 0, "bike_id": "19550545af1989ce0a9cb18318dffbe8", "fusion_lon": 0.0, "rental_uris": {"android": "https://dc.lft.to/lastmile_qr_scan", "ios": "https://dc.lft.to/lastmile_qr_scan"}, "name": "19550545af1989ce0a9cb18318dffbe8", "type": "electric_scooter", "lat": 38.88720216666667, "is_disabled": 0}, {"fusion_lat": 0.0, "lon": -77.00051783333333, "is_reserved": 0, "bike_id": "dd98dcee8495c5359ab7d619e0119b6a", "fusion_lon": 0.0, "rental_uris": {"android": "https://dc.lft.to/lastmile_qr_scan", "ios": "https://dc.lft.to/lastmile_qr_scan"}, "name": "dd98dcee8495c5359ab7d619e0119b6a", "type": "electric_scooter", "lat": 38.89163683333334, "is_disabled": 0}, {"fusion_lat": 0.0, "lon": -76.99351316666667, "is_reserved": 0, "bike_id": "2b1ea224b8e5ead1edbd172db042d337", "fusion_lon": 0.0, "rental_uris": {"android": "https://dc.lft.to/lastmile_qr_scan", "ios": "https://dc.lft.to/lastmile_qr_scan"}, "name": "2b1ea224b8e5ead1edbd172db042d337", "type": "electric_scooter", "lat": 38.9148485, "is_disabled": 0}, {"fusion_lat": 0.0, "lon": -77.043778, "is_reserved": 0, "bike_id": "6aaa70e74ec124753e2f2c3af11f0d59", "fusion_lon": 0.0, "rental_uris": {"android": "https://dc.lft.to/lastmile_qr_scan", "ios": "https://dc.lft.to/lastmile_qr_scan"}, "name": "6aaa70e74ec124753e2f2c3af11f0d59", "type": "electric_scooter", "lat": 38.9060725, "is_disabled": 0}, {"fusion_lat": 0.0, "lon": -77.05169533333333, "is_reserved": 0, "bike_id": "b23ce1aaa8cfcf33f620c3fb8b54b16a", "fusion_lon": 0.0, "rental_uris": {"android": "https://dc.lft.to/lastmile_qr_scan", "ios": "https://dc.lft.to/lastmile_qr_scan"}, "name": "b23ce1aaa8cfcf33f620c3fb8b54b16a", "type": "electric_scooter", "lat": 38.924071166666664, "is_disabled": 0}, {"fusion_lat": 0.0, "lon": -77.00565616666667, "is_reserved": 0, "bike_id": "190ca01866d3e598e7237ce48dce09a0", "fusion_lon": 0.0, "rental_uris": {"android": "https://dc.lft.to/lastmile_qr_scan", "ios": "https://dc.lft.to/lastmile_qr_scan"}, "name": "190ca01866d3e598e7237ce48dce09a0", "type": "electric_scooter", "lat": 38.900392833333335, "is_disabled": 0}, {"fusion_lat": 0.0, "lon": -77.01964433333333, "is_reserved": 0, "bike_id": "d9927db1ae92506eae63cf52a97e3ed0", "fusion_lon": 0.0, "rental_uris": {"android": "https://dc.lft.to/lastmile_qr_scan", "ios": "https://dc.lft.to/lastmile_qr_scan"}, "name": "d9927db1ae92506eae63cf52a97e3ed0", "type": "electric_scooter", "lat": 38.919896666666666, "is_disabled": 0}, {"fusion_lat": 0.0, "lon": -77.035396, "is_reserved": 0, "bike_id": "31955937af0ff4c1564cb16d382e68d0", "fusion_lon": 0.0, "rental_uris": {"android": "https://dc.lft.to/lastmile_qr_scan", "ios": "https://dc.lft.to/lastmile_qr_scan"}, "name": "31955937af0ff4c1564cb16d382e68d0", "type": "electric_scooter", "lat": 38.91879766666667, "is_disabled": 0}, {"fusion_lat": 0.0, "lon": -77.02655383333334, "is_reserved": 0, "bike_id": "fa9f4f231e2e1d604f921073c8bacf61", "fusion_lon": 0.0, "rental_uris": {"android": "https://dc.lft.to/lastmile_qr_scan", "ios": "https://dc.lft.to/lastmile_qr_scan"}, "name": "fa9f4f231e2e1d604f921073c8bacf61", "type": "electric_scooter", "lat": 38.9386705, "is_disabled": 0}, {"fusion_lat": 0.0, "lon": -76.98108983333333, "is_reserved": 0, "bike_id": "b798c7c055f9f05c61aa1befb263a36a", "fusion_lon": 0.0, "rental_uris": {"android": "https://dc.lft.to/lastmile_qr_scan", "ios": "https://dc.lft.to/lastmile_qr_scan"}, "name": "b798c7c055f9f05c61aa1befb263a36a", "type": "electric_bike", "lat": 38.87732116666667, "is_disabled": 0}, {"fusion_lat": 0.0, "lon": -77.04031416666666, "is_reserved": 0, "bike_id": "2ad9d9dc92bf81bf41ea96fad9869b7c", "fusion_lon": 0.0, "rental_uris": {"android": "https://dc.lft.to/lastmile_qr_scan", "ios": "https://dc.lft.to/lastmile_qr_scan"}, "name": "2ad9d9dc92bf81bf41ea96fad9869b7c", "type": "electric_scooter", "lat": 38.91713633333333, "is_disabled": 0}, {"fusion_lat": 0.0, "lon": -77.03474116666666, "is_reserved": 0, "bike_id": "c82e75d13e7eb389b2a04e384d2f9a9d", "fusion_lon": 0.0, "rental_uris": {"android": "https://dc.lft.to/lastmile_qr_scan", "ios": "https://dc.lft.to/lastmile_qr_scan"}, "name": "c82e75d13e7eb389b2a04e384d2f9a9d", "type": "electric_scooter", "lat": 38.917095833333335, "is_disabled": 0}, {"fusion_lat": 0.0, "lon": -76.95715033333333, "is_reserved": 0, "bike_id": "4dadc82bc06d3d44802f1b4cd2fc2600", "fusion_lon": 0.0, "rental_uris": {"android": "https://dc.lft.to/lastmile_qr_scan", "ios": "https://dc.lft.to/lastmile_qr_scan"}, "name": "4dadc82bc06d3d44802f1b4cd2fc2600", "type": "electric_scooter", "lat": 38.888753666666666, "is_disabled": 0},