{"data": {"bikes": [{"bike_id": "e56ddf62891027ed99d4f45d630311ff", "type": "electric_bike", "is_disabled": 0, "lat": 38.89846383333333, "rental_uris": {"ios": "https://dc.lft.to/lastmile_qr_scan", "android": "https://dc.lft.to/lastmile_qr_scan"}, "is_reserved": 0, "fusion_lon": 0.0, "fusion_lat": 0.0, "lon": -77.05304233333334, "name": "e56ddf62891027ed99d4f45d630311ff"}, {"bike_id": "283d0aab7c402c141575c1ec40742e3a", "type": "electric_scooter", "is_disabled": 0, "lat": 38.91687783333333, "rental_uris": {"ios": "https://dc.lft.to/lastmile_qr_scan", "android": "https://dc.lft.to/lastmile_qr_scan"}, "is_reserved": 0, "fusion_lon": 0.0, "fusion_lat": 0.0, "lon": -77.0288875, "name": "283d0aab7c402c141575c1ec40742e3a"}, {"bike_id": "d0cbc0d4cd44a5c056304bec7f610678", "type": "electric_scooter", "is_disabled": 0, "lat": 38.9190935, "rental_uris": {"ios": "https://dc.lft.to/lastmile_qr_scan", "android": "https://dc.lft.to/lastmile_qr_scan"}, "is_reserved": 0, "fusion_lon": 0.0, "fusion_lat": 0.0, "lon": -77.03264583333333, "name": "d0cbc0d4cd44a5c056304bec7f610678"}, {"bike_id": "13de7a1cd1704b21ca0f2e05ff037a5e", "type": "electric_bike", "is_disabled": 0, "lat": 38.95705983333333, "rental_uris": {"ios": "https://dc.lft.to/lastmile_qr_scan", "android": "https://dc.lft.to/lastmile_qr_scan"}, "is_reserved": 0, "fusion_lon": 0.0, "fusion_lat": 0.0, "lon": -77.0240665, "name": "13de7a1cd1704b21ca0f2e05ff037a5e"}, {"bike_id": "6338ab03f1acd10a24386b29b43d54bb", "type": "electric_scooter", "is_disabled": 0, "lat": 38.920225333333335, "rental_uris": {"ios": "https://dc.lft.to/lastmile_qr_scan", "android": "https://dc.lft.to/lastmile_qr_scan"}, "is_reserved": 0, "fusion_lon": 0.0, "fusion_lat": 0.0, "lon": -76.99562083333333, "name": "6338ab03f1acd10a24386b29b43d54bb"}, {"bike_id": "2b8bda44f48439ecbfef62860c0af7a9", "type": "electric_scooter", "is_disabled": 0, "lat": 38.90572733333333, "rental_uris": {"ios": "https://dc.lft.to/lastmile_qr_scan", "android": "https://dc.lft.to/lastmile_qr_scan"}, "is_reserved": 0, "fusion_lon": 0.0, "fusion_lat": 0.0, "lon": -77.03077033333334, "name": "2b8bda44f48439ecbfef62860c0af7a9"}, {"bike_id": "9881b4cc478263ed3dcf1839ceff63a3", "type": "electric_scooter", "is_disabled": 0, "lat": 38.911887, "rental_uris": {"ios": "https://dc.lft.to/lastmile_qr_scan", "android": "https://dc.lft.to/lastmile_qr_scan"}, "is_reserved": 0, "fusion_lon": 0.0, "fusion_lat": 0.0, "lon": -77.03219266666666, "name": "9881b4cc478263ed3dcf1839ceff63a3"}, {"bike_id": "1861a183624ea15fff7bc45081430f1e", "type": "electric_scooter", "is_disabled": 0, "lat": 38.86699383333333, "rental_uris": {"ios": "https://dc.lft.to/lastmile_qr_scan", "android": "https://dc.lft.to/lastmile_qr_scan"}, "is_reserved": 0, "fusion_lon": 0.0, "fusion_lat": 0.0, "lon": -76.98715666666666, "name": "1861a183624ea15fff7bc45081430f1e"}, {"bike_id": "b92d9951b4977586ea73da82ddba6aea", "type": "electric_bike", "is_disabled": 0, "lat": 38.912622, "rental_uris": {"ios": "https://dc.lft.to/lastmile_qr_scan", "android": "https://dc.lft.to/lastmile_qr_scan"}, "is_reserved": 0, "fusion_lon": 0.0, "fusion_lat": 0.0, "lon": -77.03836, "name": "b92d9951b4977586ea73da82ddba6aea"}, {"bike_id": "a426a8d61bc59f467f1b40156d897727", "type": "electric_scooter", "is_disabled": 0, "lat": 38.92563966666667, "rental_uris": {"ios": "https://dc.lft.to/lastmile_qr_scan", "android": "https://dc.lft.to/lastmile_qr_scan"}, "is_reserved": 0, "fusion_lon": 0.0, "fusion_lat": 0.0, "lon": -77.03033616666667, "name": "a426a8d61bc59f467f1b40156d897727"}, {"bike_id": "938e1d7802afda618a350ecde7c9b5aa", "type": "electric_scooter", "is_disabled": 0, "lat": 38.912444, "rental_uris": {"ios": "https://dc.lft.to/lastmile_qr_scan", "android": "https://dc.lft.to/lastmile_qr_scan"}, "is_reserved": 0, "fusion_lon": 0.0, "fusion_lat": 0.0, "lon": -77.029617, "name": "938e1d7802afda618a350ecde7c9b5aa"}, {"bike_id": "40ea664b51247d9a68c761bc16506d95", "type": "electric_scooter", "is_disabled": 0, "lat": 38.900960833333336, "rental_uris": {"ios": "https://dc.lft.to/lastmile_qr_scan", "android": "https://dc.lft.to/lastmile_qr_scan"}, "is_reserved": 0, "fusion_lon": 0.0, "fusion_lat": 0.0, "lon": -77.01944, "name": "40ea664b51247d9a68c761bc16506d95"}, {"bike_id": "11534fb1ff4dfd89e7315531e48b0264", "type": "electric_bike", "is_disabled": 0, "lat": 39.0243465, "rental_uris": {"ios": "https://dc.lft.to/lastmile_qr_scan", "android": "https://dc.lft.to/lastmile_qr_scan"}, "is_reserved": 0, "fusion_lon": 0.0, "fusion_lat": 0.0, "lon": -77.13104266666667, "name": "11534fb1ff4dfd89e7315531e48b0264"}, {"bike_id": "9de8628ed16ab00f07fa7b1a45ab36df", "type": "electric_scooter", "is_disabled": 0, "lat": 38.89974483333334, "rental_uris": {"ios": "https://dc.lft.to/lastmile_qr_scan", "android": "https://dc.lft.to/lastmile_qr_scan"}, "is_reserved": 0, "fusion_lon": 0.0, "fusion_lat": 0.0, "lon": -77.0191335, "name": "9de8628ed16ab00f07fa7b1a45ab36df"}, {"bike_id": "0cb09fb2d290d2bd9e6f3d25f0a4e632", "type": "electric_scooter", "is_disabled": 0, "lat": 38.93141, "rental_uris": {"ios": "https://dc.lft.to/lastmile_qr_scan", "android": "https://dc.lft.to/lastmile_qr_scan"}, "is_reserved": 0, "fusion_lon": 0.0, "fusion_lat": 0.0, "lon": -77.04250116666667, "name": "0cb09fb2d290d2bd9e6f3d25f0a4e632"}, {"bike_id": "317653979736316db653ce1948091f70", "type": "electric_scooter", "is_disabled": 0, "lat": 38.920413, "rental_uris": {"ios": "https://dc.lft.to/lastmile_qr_scan", "android": "https://dc.lft.to/lastmile_qr_scan"}, "is_reserved": 0, "fusion_lon": 0.0, "fusion_lat": 0.0, "lon": -77.04208533333333, "name": "317653979736316db653ce1948091f70"}, {"bike_id": "11ae49a59bacf9e89fdce30b0a2bed86", "type": "electric_scooter", "is_disabled": 0, "lat": 38.9095595, "rental_uris": {"ios": "https://dc.lft.to/lastmile_qr_scan", "android": "https://dc.lft.to/lastmile_qr_scan"}, "is_reserved": 0, "fusion_lon": 0.0, "fusion_lat": 0.0, "lon": -77.02121583333333, "name": "11ae49a59bacf9e89fdce30b0a2bed86"}, {"bike_id": "d898b81d33986b68bd50bd2dd6039f22", "type": "electric_scooter", "is_disabled": 0, "lat": 38.92117183333333, "rental_uris": {"ios": "https://dc.lft.to/lastmile_qr_scan", "android": "https://dc.lft.to/lastmile_qr_scan"}, "is_reserved": 0, "fusion_lon": 0.0, "fusion_lat": 0.0, "lon": -76.9946355, "name": "d898b81d33986b68bd50bd2dd6039f22"}, {"bike_id": "096004d6441262f8e307b817a9927b7a", "type": "electric_scooter", "is_disabled": 0, "lat": 38.894841, "rental_uris": {"ios": "https://dc.lft.to/lastmile_qr_scan", "android": "https://dc.lft.to/lastmile_qr_scan"}, "is_reserved": 0, "fusion_lon": 0.0, "fusion_lat": 0.0, "lon": -76.98780483333333, "name": "096004d6441262f8e307b817a9927b7a"}, {"bike_id": "a98469dbb2084f101231b7f06ed1ec20", "type": "electric_scooter", "is_disabled": 0, "lat": 38.85802833333333, "rental_uris": {"ios": "https://dc.lft.to/lastmile_qr_scan", "android": "https://dc.lft.to/lastmile_qr_scan"}, "is_reserved": 0, "fusion_lon": 0.0, "fusion_lat": 0.0, "lon": -76.98929183333334, "name": "a98469dbb2084f101231b7f06ed1ec20"}, {"bike_id": "1dbc053ae7cc3c00bb4fdd1f45f0b920", "type": "electric_scooter", "is_disabled": 0, "lat": 38.870683, "rental_uris": {"ios": "https://dc.lft.to/lastmile_qr_scan", "android": "https://dc.lft.to/lastmile_qr_scan"}, "is_reserved": 0, "fusion_lon": 0.0, "fusion_lat": 0.0, "lon": -76.9813425, "name": "1dbc053ae7cc3c00bb4fdd1f45f0b920"}, {"bike_id": "5f303cb109d1a7bfdb61744daa74caec", "type": "electric_scooter", "is_disabled": 0, "lat": 38.89295116666667, "rental_uris": {"ios": "https://dc.lft.to/lastmile_qr_scan", "android": "https://dc.lft.to/lastmile_qr_scan"}, "is_reserved": 0, "fusion_lon": 0.0, "fusion_lat": 0.0, "lon": -77.020184, "name": "5f303cb109d1a7bfdb61744daa74caec"}, {"bike_id": "d81dea60460bc144624f0f79cd4b997c", "type": "electric_scooter", "is_disabled": 0, "lat": 38.89277233333333, "rental_uris": {"ios": "https://dc.lft.to/lastmile_qr_scan", "android": "https://dc.lft.to/lastmile_qr_scan"}, "is_reserved": 0, "fusion_lon": 0.0, "fusion_lat": 0.0, "lon": -77.02024616666667, "name": "d81dea60460bc144624f0f79cd4b997c"}, {"bike_id": "7d49b8d0f13e77079bdd46f66762d960", "type": "electric_scooter", "is_disabled": 0, "lat": 38.8863775, "rental_uris": {"ios": "https://dc.lft.to/lastmile_qr_scan", "android": "https://dc.lft.to/lastmile_qr_scan"}, "is_reserved": 0, "fusion_lon": 0.0, "fusion_lat": 0.0, "lon": -77.01378166666667, "name": "7d49b8d0f13e77079bdd46f66762d960"}, {"bike_id": "2f424e859407cdfcb7eec2342a23633f", "type": "electric_scooter", "is_disabled": 0, "lat": 38.935074, "rental_uris": {"ios": "https://dc.lft.to/lastmile_qr_scan", "android": "https://dc.lft.to/lastmile_qr_scan"}, "is_reserved": 0, "fusion_lon": 0.0, "fusion_lat": 0.0, "lon": -77.02547416666667, "name": "2f424e859407cdfcb7eec2342a23633f"}, {"bike_id": "fc1766719b0c64afc8ae9ff4ada9e363", "type": "electric_scooter", "is_disabled": 0, "lat": 38.91706166666667, "rental_uris": {"ios": "https://dc.lft.to/lastmile_qr_scan", "android": "https://dc.lft.to/lastmile_qr_scan"}, "is_reserved": 0, "fusion_lon": 0.0, "fusion_lat": 0.0, "lon": -77.028914, "name": "fc1766719b0c64afc8ae9ff4ada9e363"}, {"bike_id": "8f6472fca071bf481b5f80fae17e8fae", "type": "electric_scooter", "is_disabled": 0, "lat": 38.8996885, "rental_uris": {"ios": "https://dc.lft.to/lastmile_qr_scan", "android": "https://dc.lft.to/lastmile_qr_scan"}, "is_reserved": 0, "fusion_lon": 0.0, "fusion_lat": 0.0, "lon": -76.983095, "name": "8f6472fca071bf481b5f80fae17e8fae"}, {"bike_id": "75f1113360fbe1a524f63ff1188adc2b", "type": "electric_scooter", "is_disabled": 0, "lat": 38.916018333333334, "rental_uris": {"ios": "https://dc.lft.to/lastmile_qr_scan", "android": "https://dc.lft.to/lastmile_qr_scan"}, "is_reserved": 0, "fusion_lon": 0.0, "fusion_lat": 0.0, "lon": -77.03990933333333, "name": "75f1113360fbe1a524f63ff1188adc2b"}, {"bike_id": "ccc0b1fc83d915d22cbba146b4f6edd2", "type": "electric_scooter", "is_disabled": 0, "lat": 38.939788, "rental_uris": {"ios": "https://dc.lft.to/lastmile_qr_scan", "android": "https://dc.lft.to/lastmile_qr_scan"}, "is_reserved": 0, "fusion_lon": 0.0, "fusion_lat": 0.0, "lon": -77.02873533333333, "name": "ccc0b1fc83d915d22cbba146b4f6edd2"}, {"bike_id": "950b9a507af6087e728d5cf7b3d962e4", "type": "electric_scooter", "is_disabled": 0, "lat": 38.8983365, "rental_uris": {"ios": "https://dc.lft.to/lastmile_qr_scan", "android": "https://dc.lft.to/lastmile_qr_scan"}, "is_reserved": 0, "fusion_lon": 0.0, "fusion_lat": 0.0, "lon": -77.023887, "name": "950b9a507af6087e728d5cf7b3d962e4"}, {"bike_id": "967ffb74cccbc0e3a356367ce46252b1", "type": "electric_scooter", "is_disabled": 0, "lat": 38.9079325, "rental_uris": {"ios": "https://dc.lft.to/lastmile_qr_scan", "android": "https://dc.lft.to/lastmile_qr_scan"}, "is_reserved": 0, "fusion_lon": 0.0, "fusion_lat": 0.0, "lon": -76.99451616666667, "name": "967ffb74cccbc0e3a356367ce46252b1"}, {"bike_id": "b56370d17e50060b6491d9eddc864aef", "type": "electric_bike", "is_disabled": 0, "lat": 38.94363416666667, "rental_uris": {"ios": "https://dc.lft.to/lastmile_qr_scan", "android": "https://dc.lft.to/lastmile_qr_scan"}, "is_reserved": 0, "fusion_lon": 0.0, "fusion_lat": 0.0, "lon": -77.0035595, "name": "b56370d17e50060b6491d9eddc864aef"}, {"bike_id": "6f61d57b729bdeed09275880fa9c2d48", "type": "electric_scooter", "is_disabled": 0, "lat": 38.92701233333333, "rental_uris": {"ios": "https://dc.lft.to/lastmile_qr_scan", "android": "https://dc.lft.to/lastmile_qr_scan"}, "is_reserved": 0, "fusion_lon": 0.0, "fusion_lat": 0.0, "lon": -77.02069216666666, "name": "6f61d57b729bdeed09275880fa9c2d48"}, {"bike_id": "58eeadd75af9ad40e0bc95b2fac8c5fa", "type": "electric_scooter", "is_disabled": 0, "lat": 38.94613183333333, "rental_uris": {"ios": "https://dc.lft.to/lastmile_qr_scan", "android": "https://dc.lft.to/lastmile_qr_scan"}, "is_reserved": 0, "fusion_lon": 0.0, "fusion_lat": 0.0, "lon": -77.02270833333333, "name": "58eeadd75af9ad40e0bc95b2fac8c5fa"}, {"bike_id": "6e93b8c7a146b21f6cdaec1c56758898", "type": "electric_scooter", "is_disabled": 0, "lat": 38.90859666666667, "rental_uris": {"ios": "https://dc.lft.to/lastmile_qr_scan", "android": "https://dc.lft.to/lastmile_qr_scan"}, "is_reserved": 0, "fusion_lon": 0.0, "fusion_lat": 0.0, "lon": -76.99949733333334, "name": "6e93b8c7a146b21f6cdaec1c56758898"}, {"bike_id": "681169ef8efa023d551b3cac292fb005", "type": "electric_scooter", "is_disabled": 0, "lat": 38.93321133333333, "rental_uris": {"ios": "https://dc.lft.to/lastmile_qr_scan", "android": "https://dc.lft.to/lastmile_qr_scan"}, "is_reserved": 0, "fusion_lon": 0.0, "fusion_lat": 0.0, "lon": -77.02396116666667, "name": "681169ef8efa023d551b3cac292fb005"}, {"bike_id": "b16f9da17ad805c34bc99287084473a4", "type": "electric_scooter", "is_disabled": 0, "lat": 38.86625816666667, "rental_uris": {"ios": "https://dc.lft.to/lastmile_qr_scan", "android": "https://dc.lft.to/lastmile_qr_scan"}, "is_reserved": 0, "fusion_lon": 0.0, "fusion_lat": 0.0, "lon": -76.987179, "name": "b16f9da17ad805c34bc99287084473a4"}, {"bike_id": "9b9f914127fd1e200d7eeea319b2cf7f", "type": "electric_scooter", "is_disabled": 0, "lat": 38.9055085, "rental_uris": {"ios": "https://dc.lft.to/lastmile_qr_scan", "android": "https://dc.lft.to/lastmile_qr_scan"}, "is_reserved": 0, "fusion_lon": 0.0, "fusion_lat": 0.0, "lon": -77.02183633333334, "name": "9b9f914127fd1e200d7eeea319b2cf7f"}, {"bike_id": "778b545561d317ca9310bd8ff29593c8", "type": "electric_scooter", "is_disabled": 0, "lat": 38.91103066666667, "rental_uris": {"ios": "https://dc.lft.to/lastmile_qr_scan", "android": "https://dc.lft.to/lastmile_qr_scan"}, "is_reserved": 0, "fusion_lon": 0.0, "fusion_lat": 0.0, "lon": -77.00221016666667, "name": "778b545561d317ca9310bd8ff29593c8"}, {"bike_id": "deaf23d00cacfa6191f17a8d943a353c", "type": "electric_scooter", "is_disabled": 0, "lat": 38.91247466666667, "rental_uris": {"ios": "https://dc.lft.to/lastmile_qr_scan", "android": "https://dc.lft.to/lastmile_qr_scan"}, "is_reserved": 0, "fusion_lon": 0.0, "fusion_lat": 0.0, "lon": -77.02223133333334, "name": "deaf23d00cacfa6191f17a8d943a353c"}, {"bike_id": "c8ac68c0f0caa81926e197519128d153", "type": "electric_scooter", "is_disabled": 0, "lat": 38.899727666666664, "rental_uris": {"ios": "https://dc.lft.to/lastmile_qr_scan", "android": "https://dc.lft.to/lastmile_qr_scan"}, "is_reserved": 0, "fusion_lon": 0.0, "fusion_lat": 0.0, "lon": -77.01912866666666, "name": "c8ac68c0f0caa81926e197519128d153"}, {"bike_id": "3de2eb9ae82d370f42a8fb5896eb1ae7", "type": "electric_scooter", "is_disabled": 0, "lat": 38.903797833333336, "rental_uris": {"ios": "https://dc.lft.to/lastmile_qr_scan", "android": "https://dc.lft.to/lastmile_qr_scan"}, "is_reserved": 0, "fusion_lon": 0.0, "fusion_lat": 0.0, "lon": -76.9821165, "name": "3de2eb9ae82d370f42a8fb5896eb1ae7"}, {"bike_id": "52aa47bfaeec90c74cb3c66f88c8c83b", "type": "electric_scooter", "is_disabled": 0, "lat": 38.92027733333333, "rental_uris": {"ios": "https://dc.lft.to/lastmile_qr_scan", "android": "https://dc.lft.to/lastmile_qr_scan"}, "is_reserved": 0, "fusion_lon": 0.0, "fusion_lat": 0.0, "lon": -77.00195733333334, "name": "52aa47bfaeec90c74cb3c66f88c8c83b"}, {"bike_id": "d3ba87c4eba3ed60b43e51d07f4cd9f6", "type": "electric_scooter", "is_disabled": 0, "lat": 38.90663716666667, "rental_uris": {"ios": "https://dc.lft.to/lastmile_qr_scan", "android": "https://dc.lft.to/lastmile_qr_scan"}, "is_reserved": 0, "fusion_lon": 0.0, "fusion_lat": 0.0, "lon": -77.0430135, "name": "d3ba87c4eba3ed60b43e51d07f4cd9f6"}, {"bike_id": "c5560cbc88da5e827bea88c90f975df2", "type": "electric_bike", "is_disabled": 0, "lat": 38.838466833333335, "rental_uris": {"ios": "https://dc.lft.to/lastmile_qr_scan", "android": "https://dc.lft.to/lastmile_qr_scan"}, "is_reserved": 0, "fusion_lon": 0.0, "fusion_lat": 0.0, "lon": -77.0501935, "name": "c5560cbc88da5e827bea88c90f975df2"}, {"bike_id": "4339a6cadb0a3b339f6a173b1c466267", "type": "electric_scooter", "is_disabled": 0, "lat": 38.92761383333333, "rental_uris": {"ios": "https://dc.lft.to/lastmile_qr_scan", "android": "https://dc.lft.to/lastmile_qr_scan"}, "is_reserved": 0, "fusion_lon": 0.0, "fusion_lat": 0.0, "lon": -77.0564725, "name": "4339a6cadb0a3b339f6a173b1c466267"}, {"bike_id": "caf32cc9d938a4f45950e37b8a4424eb", "type": "electric_scooter", "is_disabled": 0, "lat": 38.910379166666665, "rental_uris": {"ios": "https://dc.lft.to/lastmile_qr_scan", "android": "https://dc.lft.to/lastmile_qr_scan"}, "is_reserved": 0, "fusion_lon": 0.0, "fusion_lat": 0.0, "lon": -77.04413316666667, "name": "caf32cc9d938a4f45950e37b8a4424eb"}, {"bike_id": "6f9a114b5c43f10b9c147c42fa021be5", "type": "electric_scooter", "is_disabled": 0, "lat": 38.91415966666667, "rental_uris": {"ios": "https://dc.lft.to/lastmile_qr_scan", "android": "https://dc.lft.to/lastmile_qr_scan"}, "is_reserved": 0, "fusion_lon": 0.0, "fusion_lat": 0.0, "lon": -77.0281795, "name": "6f9a114b5c43f10b9c147c42fa021be5"}, {"bike_id": "4a29546a2bda0cdb27ef7742332aa1fd", "type": "electric_scooter", "is_disabled": 0, "lat": 38.913627, "rental_uris": {"ios": "https://dc.lft.to/lastmile_qr_scan", "android": "https://dc.lft.to/lastmile_qr_scan"}, "is_reserved": 0, "fusion_lon": 0.0, "fusion_lat": 0.0, "lon": -77.01216383333333, "name": "4a29546a2bda0cdb27ef7742332aa1fd"}, {"bike_id": "b6e3291722e47f1b7838175e7f26b67c", "type": "electric_scooter", "is_disabled": 0, "lat": 38.887373833333335, "rental_uris": {"ios": "https://dc.lft.to/lastmile_qr_scan", "android": "https://dc.lft.to/lastmile_qr_scan"}, "is_reserved": 0, "fusion_lon": 0.0, "fusion_lat": 0.0, "lon": -77.01536983333334, "name": "b6e3291722e47f1b7838175e7f26b67c"}, {"bike_id": "2fe446074ee3f2f6801b4af21c1d9198", "type": "electric_scooter", "is_disabled": 0, "lat": 38.9185585, "rental_uris": {"ios": "https://dc.lft.to/lastmile_qr_scan", "android": "https://dc.lft.to/lastmile_qr_scan"}, "is_reserved": 0, "fusion_lon": 0.0, "fusion_lat": 0.0, "lon": -77.04179333333333, "name": "2fe446074ee3f2f6801b4af21c1d9198"}, {"bike_id": "c70d187df1a5e93ba6e871d2cd8a388c", "type": "electric_scooter", "is_disabled": 0, "lat": 38.9224565, "rental_uris": {"ios": "https://dc.lft.to/lastmile_qr_scan", "android": "https://dc.lft.to/lastmile_qr_scan"}, "is_reserved": 0, "fusion_lon": 0.0, "fusion_lat": 0.0, "lon": -77.04004833333333, "name": "c70d187df1a5e93ba6e871d2cd8a388c"}, {"bike_id": "74c7f462ee96eaf8357c6b44227e863d", "type": "electric_scooter", "is_disabled": 0, "lat": 38.89138616666666, "rental_uris": {"ios": "https://dc.lft.to/lastmile_qr_scan", "android": "https://dc.lft.to/lastmile_qr_scan"}, "is_reserved": 0, "fusion_lon": 0.0, "fusion_lat": 0.0, "lon": -76.951878, "name": "74c7f462ee96eaf8357c6b44227e863d"}, {"bike_id": "897948c9d0c5384ecf58392d3d31a76a", "type": "electric_scooter", "is_disabled": 0, "lat": 38.90526416666667, "rental_uris": {"ios": "https://dc.lft.to/lastmile_qr_scan", "android": "https://dc.lft.to/lastmile_qr_scan"}, "is_reserved": 0, "fusion_lon": 0.0, "fusion_lat": 0.0, "lon": -77.03118583333334, "name": "897948c9d0c5384ecf58392d3d31a76a"}, {"bike_id": "74d39df882c62e63a36cde806b4e8edb", "type": "electric_scooter", "is_disabled": 0, "lat": 38.915209, "rental_uris": {"ios": "https://dc.lft.to/lastmile_qr_scan", "android": "https://dc.lft.to/lastmile_qr_scan"}, "is_reserved": 0, "fusion_lon": 0.0, "fusion_lat": 0.0, "lon": -77.01989466666667, "name": "74d39df882c62e63a36cde806b4e8edb"}, {"bike_id": "ff9faf96980e9770ccfb04fc1763bbb5", "type": "electric_bike", "is_disabled": 0, "lat": 39.0511075, "rental_uris": {"ios": "https://dc.lft.to/lastmile_qr_scan", "android": "https://dc.lft.to/lastmile_qr_scan"}, "is_reserved": 0, "fusion_lon": 0.0, "fusion_lat": 0.0, "lon": -77.11740166666667, "name": "ff9faf96980e9770ccfb04fc1763bbb5"}, {"bike_id": "bfc6393c172cf85d66b7851c9dbe5232", "type": "electric_scooter", "is_disabled": 0, "lat": 38.93317233333333, "rental_uris": {"ios": "https://dc.lft.to/lastmile_qr_scan", "android": "https://dc.lft.to/lastmile_qr_scan"}, "is_reserved": 0, "fusion_lon": 0.0, "fusion_lat": 0.0, "lon": -77.02756766666667, "name": "bfc6393c172cf85d66b7851c9dbe5232"}, {"bike_id": "6c1d0f026176dfa87f18f03e94ff082b", "type": "electric_scooter", "is_disabled": 0, "lat": 38.895093333333335, "rental_uris": {"ios": "https://dc.lft.to/lastmile_qr_scan", "android": "https://dc.lft.to/lastmile_qr_scan"}, "is_reserved": 0, "fusion_lon": 0.0, "fusion_lat": 0.0, "lon": -77.04353583333334, "name": "6c1d0f026176dfa87f18f03e94ff082b"}, {"bike_id": "e0237f800ded68d0a5713f0b87b406c5", "type": "electric_scooter", "is_disabled": 0, "lat": 38.899769, "rental_uris": {"ios": "https://dc.lft.to/lastmile_qr_scan", "android": "https://dc.lft.to/lastmile_qr_scan"}, "is_reserved": 0, "fusion_lon": 0.0, "fusion_lat": 0.0, "lon": -77.0270155, "name": "e0237f800ded68d0a5713f0b87b406c5"}, {"bike_id": "1961f7979a9a0d349650327ebbf5a80d", "type": "electric_scooter", "is_disabled": 0, "lat": 38.92232033333333, "rental_uris": {"ios": "https://dc.lft.to/lastmile_qr_scan", "android": "https://dc.lft.to/lastmile_qr_scan"}, "is_reserved": 0, "fusion_lon": 0.0, "fusion_lat": 0.0, "lon": -76.97536216666667, "name": "1961f7979a9a0d349650327ebbf5a80d"}, {"bike_id": "7852de32740c390c35334ccfb9577891", "type": "electric_scooter", "is_disabled": 0, "lat": 38.903539, "rental_uris": {"ios": "https://dc.lft.to/lastmile_qr_scan", "android": "https://dc.lft.to/lastmile_qr_scan"}, "is_reserved": 0, "fusion_lon": 0.0, "fusion_lat": 0.0, "lon": -76.99224233333334, "name": "7852de32740c390c35334ccfb9577891"}, {"bike_id": "e9f05e67685c27d62b99e21c8589d9b1", "type": "electric_scooter", "is_disabled": 0, "lat": 38.9113765, "rental_uris": {"ios": "https://dc.lft.to/lastmile_qr_scan", "android": "https://dc.lft.to/lastmile_qr_scan"}, "is_reserved": 0, "fusion_lon": 0.0, "fusion_lat": 0.0, "lon": -77.04497783333333, "name": "e9f05e67685c27d62b99e21c8589d9b1"}, {"bike_id": "6191afd3c7dafe4b7bb3c96c1bf89092", "type": "electric_scooter", "is_disabled": 0, "lat": 38.95634016666666, "rental_uris": {"ios": "https://dc.lft.to/lastmile_qr_scan", "android": "https://dc.lft.to/lastmile_qr_scan"}, "is_reserved": 0, "fusion_lon": 0.0, "fusion_lat": 0.0, "lon": -77.03633083333334, "name": "6191afd3c7dafe4b7bb3c96c1bf89092"}, {"bike_id": "2169fad26a875a1005121379d5531645", "type": "electric_scooter", "is_disabled": 0, "lat": 38.89837266666667, "rental_uris": {"ios": "https://dc.lft.to/lastmile_qr_scan", "android": "https://dc.lft.to/lastmile_qr_scan"}, "is_reserved": 0, "fusion_lon": 0.0, "fusion_lat": 0.0, "lon": -76.94635033333333, "name": "2169fad26a875a1005121379d5531645"}, {"bike_id": "5855e4852d92ee662d9c7eb59d128af5", "type": "electric_scooter", "is_disabled": 0, "lat": 38.921520666666666, "rental_uris": {"ios": "https://dc.lft.to/lastmile_qr_scan", "android": "https://dc.lft.to/lastmile_qr_scan"}, "is_reserved": 0, "fusion_lon": 0.0, "fusion_lat": 0.0, "lon": -77.03518066666666, "name": "5855e4852d92ee662d9c7eb59d128af5"}, {"bike_id": "9f36aca805c374ae2d02eb5c4f237266", "type": "electric_scooter", "is_disabled": 0, "lat": 38.905099666666665, "rental_uris": {"ios": "https://dc.lft.to/lastmile_qr_scan", "android": "https://dc.lft.to/lastmile_qr_scan"}, "is_reserved": 0, "fusion_lon": 0.0, "fusion_lat": 0.0, "lon": -77.06435866666666, "name": "9f36aca805c374ae2d02eb5c4f237266"}, {"bike_id": "69ce2ab157d01b5ac97de1c97348fac1", "type": "electric_scooter", "is_disabled": 0, "lat": 38.916916666666665, "rental_uris": {"ios": "https://dc.lft.to/lastmile_qr_scan", "android": "https://dc.lft.to/lastmile_qr_scan"}, "is_reserved": 0, "fusion_lon": 0.0, "fusion_lat": 0.0, "lon": -77.03766116666667, "name": "69ce2ab157d01b5ac97de1c97348fac1"}, {"bike_id": "d857a6c6c0b814b6621bc34390f07605", "type": "electric_scooter", "is_disabled": 0, "lat": 38.911950166666664, "rental_uris": {"ios": "https://dc.lft.to/lastmile_qr_scan", "android": "https://dc.lft.to/lastmile_qr_scan"}, "is_reserved": 0, "fusion_lon": 0.0, "fusion_lat": 0.0, "lon": -77.04033466666667, "name": "d857a6c6c0b814b6621bc34390f07605"}, {"bike_id": "de7eda54b40eda04a685b23267f72bde", "type": "electric_scooter", "is_disabled": 0, "lat": 38.90133983333333, "rental_uris": {"ios": "https://dc.lft.to/lastmile_qr_scan", "android": "https://dc.lft.to/lastmile_qr_scan"}, "is_reserved": 0, "fusion_lon": 0.0, "fusion_lat": 0.0, "lon": -77.003237, "name": "de7eda54b40eda04a685b23267f72bde"}, {"bike_id": "c331a89acaa537748c845157af285614", "type": "electric_scooter", "is_disabled": 0, "lat": 38.9131905, "rental_uris": {"ios": "https://dc.lft.to/lastmile_qr_scan", "android": "https://dc.lft.to/lastmile_qr_scan"}, "is_reserved": 0, "fusion_lon": 0.0, "fusion_lat": 0.0, "lon": -77.03188933333334, "name": "c331a89acaa537748c845157af285614"}, {"bike_id": "fda80945a1f9fd12bb2504ec784e5282", "type": "electric_scooter", "is_disabled": 0, "lat": 38.894768, "rental_uris": {"ios": "https://dc.lft.to/lastmile_qr_scan", "android": "https://dc.lft.to/lastmile_qr_scan"}, "is_reserved": 0, "fusion_lon": 0.0, "fusion_lat": 0.0, "lon": -76.94862416666666, "name": "fda80945a1f9fd12bb2504ec784e5282"}, {"bike_id": "6570ef71e6c583e9554ac8b397a577c5", "type": "electric_scooter", "is_disabled": 0, "lat": 38.914816333333334, "rental_uris": {"ios": "https://dc.lft.to/lastmile_qr_scan", "android": "https://dc.lft.to/lastmile_qr_scan"}, "is_reserved": 0, "fusion_lon": 0.0, "fusion_lat": 0.0, "lon": -77.037674, "name": "6570ef71e6c583e9554ac8b397a577c5"}, {"bike_id": "49d4c475eb041daa12f1482c512334ab", "type": "electric_scooter", "is_disabled": 0, "lat": 38.907631, "rental_uris": {"ios": "https://dc.lft.to/lastmile_qr_scan", "android": "https://dc.lft.to/lastmile_qr_scan"}, "is_reserved": 0, "fusion_lon": 0.0, "fusion_lat": 0.0, "lon": -77.0169895, "name": "49d4c475eb041daa12f1482c512334ab"}, {"bike_id": "6389ec13aaf138d868da666c9edc7644", "type": "electric_scooter", "is_disabled": 0, "lat": 38.915486, "rental_uris": {"ios": "https://dc.lft.to/lastmile_qr_scan", "android": "https://dc.lft.to/lastmile_qr_scan"}, "is_reserved": 0, "fusion_lon": 0.0, "fusion_lat": 0.0, "lon": -77.02213533333334, "name": "6389ec13aaf138d868da666c9edc7644"}, {"bike_id": "0772dd36fa79465cde317b98c2e3a836", "type": "electric_scooter", "is_disabled": 0, "lat": 38.897020166666664, "rental_uris": {"ios": "https://dc.lft.to/lastmile_qr_scan", "android": "https://dc.lft.to/lastmile_qr_scan"}, "is_reserved": 0, "fusion_lon": 0.0, "fusion_lat": 0.0, "lon": -77.00829733333333, "name": "0772dd36fa79465cde317b98c2e3a836"}, {"bike_id": "f323d6b6114c5a120473c0a926b5e0ab", "type": "electric_scooter", "is_disabled": 0, "lat": 38.90515166666667, "rental_uris": {"ios": "https://dc.lft.to/lastmile_qr_scan", "android": "https://dc.lft.to/lastmile_qr_scan"}, "is_reserved": 0, "fusion_lon": 0.0, "fusion_lat": 0.0, "lon": -77.01714066666666, "name": "f323d6b6114c5a120473c0a926b5e0ab"}, {"bike_id": "5a464d18eae581fa23f4c5a93f65e720", "type": "electric_scooter", "is_disabled": 0, "lat": 38.94066333333333, "rental_uris": {"ios": "https://dc.lft.to/lastmile_qr_scan", "android": "https://dc.lft.to/lastmile_qr_scan"}, "is_reserved": 0, "fusion_lon": 0.0, "fusion_lat": 0.0, "lon": -77.0253785, "name": "5a464d18eae581fa23f4c5a93f65e720"}, {"bike_id": "9e8fdfae985ea22551f68af1eb848d05", "type": "electric_bike", "is_disabled": 0, "lat": 38.8747935, "rental_uris": {"ios": "https://dc.lft.to/lastmile_qr_scan", "android": "https://dc.lft.to/lastmile_qr_scan"}, "is_reserved": 0, "fusion_lon": 0.0, "fusion_lat": 0.0, "lon": -76.9653755, "name": "9e8fdfae985ea22551f68af1eb848d05"}, {"bike_id": "d94c046483f194c7e595e3dcf2f87e28", "type": "electric_scooter", "is_disabled": 0, "lat": 38.902665999999996, "rental_uris": {"ios": "https://dc.lft.to/lastmile_qr_scan", "android": "https://dc.lft.to/lastmile_qr_scan"}, "is_reserved": 0, "fusion_lon": 0.0, "fusion_lat": 0.0, "lon": -77.054792, "name": "d94c046483f194c7e595e3dcf2f87e28"}, {"bike_id": "00a9c3f5cf893ba6ecdba291d0deaf70", "type": "electric_scooter", "is_disabled": 0, "lat": 38.9236855, "rental_uris": {"ios": "https://dc.lft.to/lastmile_qr_scan", "android": "https://dc.lft.to/lastmile_qr_scan"}, "is_reserved": 0, "fusion_lon": 0.0, "fusion_lat": 0.0, "lon": -77.05151866666667, "name": "00a9c3f5cf893ba6ecdba291d0deaf70"}, {"bike_id": "227cd81b2e57afd4668b8fd8586d6117", "type": "electric_scooter", "is_disabled": 0, "lat": 38.923601833333336, "rental_uris": {"ios": "https://dc.lft.to/lastmile_qr_scan", "android": "https://dc.lft.to/lastmile_qr_scan"}, "is_reserved": 0, "fusion_lon": 0.0, "fusion_lat": 0.0, "lon": -77.05130966666667, "name": "227cd81b2e57afd4668b8fd8586d6117"}, {"bike_id": "a5ba4f8b39043d53e397ecd7ac11dc1f", "type": "electric_scooter", "is_disabled": 0, "lat": 38.897490166666664, "rental_uris": {"ios": "https://dc.lft.to/lastmile_qr_scan", "android": "https://dc.lft.to/lastmile_qr_scan"}, "is_reserved": 0, "fusion_lon": 0.0, "fusion_lat": 0.0, "lon": -76.94186416666666, "name": "a5ba4f8b39043d53e397ecd7ac11dc1f"}, {"bike_id": "ed5d53d4bb8e3c16615f5c0ef2caa617", "type": "electric_scooter", "is_disabled": 0, "lat": 38.912653, "rental_uris": {"ios": "https://dc.lft.to/lastmile_qr_scan", "android": "https://dc.lft.to/lastmile_qr_scan"}, "is_reserved": 0, "fusion_lon": 0.0, "fusion_lat": 0.0, "lon": -77.047087, "name": "ed5d53d4bb8e3c16615f5c0ef2caa617"}, {"bike_id": "136262a9bbfa67621d9ff2365414fcb5", "type": "electric_scooter", "is_disabled": 0, "lat": 38.9286175, "rental_uris": {"ios": "https://dc.lft.to/lastmile_qr_scan", "android": "https://dc.lft.to/lastmile_qr_scan"}, "is_reserved": 0, "fusion_lon": 0.0, "fusion_lat": 0.0, "lon": -77.03196016666666, "name": "136262a9bbfa67621d9ff2365414fcb5"}, {"bike_id": "490a18f7372276db703fa9b61402bf30", "type": "electric_scooter", "is_disabled": 0, "lat": 38.911810333333335, "rental_uris": {"ios": "https://dc.lft.to/lastmile_qr_scan", "android": "https://dc.lft.to/lastmile_qr_scan"}, "is_reserved": 0, "fusion_lon": 0.0, "fusion_lat": 0.0, "lon": -77.03188916666667, "name": "490a18f7372276db703fa9b61402bf30"}, {"bike_id": "f9dd1343f040ce88e231ec4f7a081462", "type": "electric_scooter", "is_disabled": 0, "lat": 38.892225, "rental_uris": {"ios": "https://dc.lft.to/lastmile_qr_scan", "android": "https://dc.lft.to/lastmile_qr_scan"}, "is_reserved": 0, "fusion_lon": 0.0, "fusion_lat": 0.0, "lon": -77.0437605, "name": "f9dd1343f040ce88e231ec4f7a081462"}, {"bike_id": "0c861dd23755686fe3789f21c839787d", "type": "electric_scooter", "is_disabled": 0, "lat": 38.91406, "rental_uris": {"ios": "https://dc.lft.to/lastmile_qr_scan", "android": "https://dc.lft.to/lastmile_qr_scan"}, "is_reserved": 0, "fusion_lon": 0.0, "fusion_lat": 0.0, "lon": -77.0359775, "name": "0c861dd23755686fe3789f21c839787d"}, {"bike_id": "ae317f5b89cb9d84c53d85da3e78b1ad", "type": "electric_scooter", "is_disabled": 0, "lat": 38.919581, "rental_uris": {"ios": "https://dc.lft.to/lastmile_qr_scan", "android": "https://dc.lft.to/lastmile_qr_scan"}, "is_reserved": 0, "fusion_lon": 0.0, "fusion_lat": 0.0, "lon": -77.03950433333333, "name": "ae317f5b89cb9d84c53d85da3e78b1ad"}, {"bike_id": "53fa9d21135ff7952e8333abe7c503db", "type": "electric_scooter", "is_disabled": 0, "lat": 38.88414066666667, "rental_uris": {"ios": "https://dc.lft.to/lastmile_qr_scan", "android": "https://dc.lft.to/lastmile_qr_scan"}, "is_reserved": 0, "fusion_lon": 0.0, "fusion_lat": 0.0, "lon": -77.02594433333333, "name": "53fa9d21135ff7952e8333abe7c503db"}, {"bike_id": "d91b225b56ed69faa13b0a500ddc97c6", "type": "electric_scooter", "is_disabled": 0, "lat": 38.91281933333333, "rental_uris": {"ios": "https://dc.lft.to/lastmile_qr_scan", "android": "https://dc.lft.to/lastmile_qr_scan"}, "is_reserved": 0, "fusion_lon": 0.0, "fusion_lat": 0.0, "lon": -77.06115383333334, "name": "d91b225b56ed69faa13b0a500ddc97c6"}, {"bike_id": "92359d84f695bdd4008bd9b75a78de69", "type": "electric_scooter", "is_disabled": 0, "lat": 38.916133333333335, "rental_uris": {"ios": "https://dc.lft.to/lastmile_qr_scan", "android": "https://dc.lft.to/lastmile_qr_scan"}, "is_reserved": 0, "fusion_lon": 0.0, "fusion_lat": 0.0, "lon": -77.02400116666666, "name": "92359d84f695bdd4008bd9b75a78de69"}, {"bike_id": "3ab1e2e782acd65e3a7e4aa235a88250", "type": "electric_bike", "is_disabled": 0, "lat": 38.920693, "rental_uris": {"ios": "https://dc.lft.to/lastmile_qr_scan", "android": "https://dc.lft.to/lastmile_qr_scan"}, "is_reserved": 0, "fusion_lon": 0.0, "fusion_lat": 0.0, "lon": -76.89076633333333, "name": "3ab1e2e782acd65e3a7e4aa235a88250"}, {"bike_id": "f63553707ad3d1518f4450b6c5ce327c", "type": "electric_scooter", "is_disabled": 0, "lat": 38.910559, "rental_uris": {"ios": "https://dc.lft.to/lastmile_qr_scan", "android": "https://dc.lft.to/lastmile_qr_scan"}, "is_reserved": 0, "fusion_lon": 0.0, "fusion_lat": 0.0, "lon": -77.02196033333334, "name": "f63553707ad3d1518f4450b6c5ce327c"}, {"bike_id": "c10225da4f2683a52e3ee4b7c3ad7874", "type": "electric_bike", "is_disabled": 0, "lat": 38.878999, "rental_uris": {"ios": "https://dc.lft.to/lastmile_qr_scan", "android": "https://dc.lft.to/lastmile_qr_scan"}, "is_reserved": 0, "fusion_lon": 0.0, "fusion_lat": 0.0, "lon": -77.007217, "name": "c10225da4f2683a52e3ee4b7c3ad7874"}, {"bike_id": "6f6ce29c86dbb019fe1afdba1ddef894", "type": "electric_scooter", "is_disabled": 0, "lat": 38.905598499999996, "rental_uris": {"ios": "https://dc.lft.to/lastmile_qr_scan", "android": "https://dc.lft.to/lastmile_qr_scan"}, "is_reserved": 0, "fusion_lon": 0.0, "fusion_lat": 0.0, "lon": -77.06532616666667, "name": "6f6ce29c86dbb019fe1afdba1ddef894"}, {"bike_id": "fce48010f054b5c98aa88a2a34aeaa0b", "type": "electric_scooter", "is_disabled": 0, "lat": 38.84308883333333, "rental_uris": {"ios": "https://dc.lft.to/lastmile_qr_scan", "android": "https://dc.lft.to/lastmile_qr_scan"}, "is_reserved": 0, "fusion_lon": 0.0, "fusion_lat": 0.0, "lon": -76.99912966666666, "name": "fce48010f054b5c98aa88a2a34aeaa0b"}, {"bike_id": "49e3c9cd26640a40172be562bf49c92f", "type": "electric_scooter", "is_disabled": 0, "lat": 38.9183825, "rental_uris": {"ios": "https://dc.lft.to/lastmile_qr_scan", "android": "https://dc.lft.to/lastmile_qr_scan"}, "is_reserved": 0, "fusion_lon": 0.0, "fusion_lat": 0.0, "lon": -77.0229405, "name": "49e3c9cd26640a40172be562bf49c92f"}, {"bike_id": "de7202abac6e3e793be299af43346e18", "type": "electric_scooter", "is_disabled": 0, "lat": 38.93169666666667, "rental_uris": {"ios": "https://dc.lft.to/lastmile_qr_scan", "android": "https://dc.lft.to/lastmile_qr_scan"}, "is_reserved": 0, "fusion_lon": 0.0, "fusion_lat": 0.0, "lon": -77.03163416666666, "name": "de7202abac6e3e793be299af43346e18"}, {"bike_id": "2d22e4a6cc7969fb141051e4afab7203", "type": "electric_scooter", "is_disabled": 0, "lat": 38.9013655, "rental_uris": {"ios": "https://dc.lft.to/lastmile_qr_scan", "android": "https://dc.lft.to/lastmile_qr_scan"}, "is_reserved": 0, "fusion_lon": 0.0, "fusion_lat": 0.0, "lon": -77.02483366666667, "name": "2d22e4a6cc7969fb141051e4afab7203"}, {"bike_id": "28eec4c8a07bcf32b9aeb2f63d28d17e", "type": "electric_scooter", "is_disabled": 0, "lat": 38.887726, "rental_uris": {"ios": "https://dc.lft.to/lastmile_qr_scan", "android": "https://dc.lft.to/lastmile_qr_scan"}, "is_reserved": 0, "fusion_lon": 0.0, "fusion_lat": 0.0, "lon": -76.9552635, "name": "28eec4c8a07bcf32b9aeb2f63d28d17e"}, {"bike_id": "adb270877483f1b52929c6a93262f72b", "type": "electric_scooter", "is_disabled": 0, "lat": 38.9155785, "rental_uris": {"ios": "https://dc.lft.to/lastmile_qr_scan", "android": "https://dc.lft.to/lastmile_qr_scan"}, "is_reserved": 0, "fusion_lon": 0.0, "fusion_lat": 0.0, "lon": -77.03258833333334, "name": "adb270877483f1b52929c6a93262f72b"}, {"bike_id": "399503d769a7e558680711b9f24ea7a1", "type": "electric_scooter", "is_disabled": 0, "lat": 38.90157416666667, "rental_uris": {"ios": "https://dc.lft.to/lastmile_qr_scan", "android": "https://dc.lft.to/lastmile_qr_scan"}, "is_reserved": 0, "fusion_lon": 0.0, "fusion_lat": 0.0, "lon": -77.03231016666666, "name": "399503d769a7e558680711b9f24ea7a1"}, {"bike_id": "e066813e3a1c3d9fce64a261156ee066", "type": "electric_scooter", "is_disabled": 0, "lat": 38.86624583333333, "rental_uris": {"ios": "https://dc.lft.to/lastmile_qr_scan", "android": "https://dc.lft.to/lastmile_qr_scan"}, "is_reserved": 0, "fusion_lon": 0.0, "fusion_lat": 0.0, "lon": -76.987216, "name": "e066813e3a1c3d9fce64a261156ee066"}, {"bike_id": "3efc5a39d3e6803d79b7852749acd388", "type": "electric_scooter", "is_disabled": 0, "lat": 38.90940616666666, "rental_uris": {"ios": "https://dc.lft.to/lastmile_qr_scan", "android": "https://dc.lft.to/lastmile_qr_scan"}, "is_reserved": 0, "fusion_lon": 0.0, "fusion_lat": 0.0, "lon": -77.0556255, "name": "3efc5a39d3e6803d79b7852749acd388"}, {"bike_id": "a84757ac7447964fbd7826babc95ef28", "type": "electric_scooter", "is_disabled": 0, "lat": 38.896301333333334, "rental_uris": {"ios": "https://dc.lft.to/lastmile_qr_scan", "android": "https://dc.lft.to/lastmile_qr_scan"}, "is_reserved": 0, "fusion_lon": 0.0, "fusion_lat": 0.0, "lon": -77.070891, "name": "a84757ac7447964fbd7826babc95ef28"}, {"bike_id": "738a6c6d29fd3ee7db316e982cd13955", "type": "electric_scooter", "is_disabled": 0, "lat": 38.9100665, "rental_uris": {"ios": "https://dc.lft.to/lastmile_qr_scan", "android": "https://dc.lft.to/lastmile_qr_scan"}, "is_reserved": 0, "fusion_lon": 0.0, "fusion_lat": 0.0, "lon": -77.032069, "name": "738a6c6d29fd3ee7db316e982cd13955"}, {"bike_id": "e9a72856e965efdaa33a1c995aa21848", "type": "electric_scooter", "is_disabled": 0, "lat": 38.90792883333334, "rental_uris": {"ios": "https://dc.lft.to/lastmile_qr_scan", "android": "https://dc.lft.to/lastmile_qr_scan"}, "is_reserved": 0, "fusion_lon": 0.0, "fusion_lat": 0.0, "lon": -77.04821616666666, "name": "e9a72856e965efdaa33a1c995aa21848"}, {"bike_id": "a5a125aca4c2a82734762e2776ca9a2a", "type": "electric_bike", "is_disabled": 0, "lat": 38.9155295, "rental_uris": {"ios": "https://dc.lft.to/lastmile_qr_scan", "android": "https://dc.lft.to/lastmile_qr_scan"}, "is_reserved": 0, "fusion_lon": 0.0, "fusion_lat": 0.0, "lon": -77.0332635, "name": "a5a125aca4c2a82734762e2776ca9a2a"}, {"bike_id": "8138bcf395ec32d524d59a245af72780", "type": "electric_scooter", "is_disabled": 0, "lat": 38.92362683333333, "rental_uris": {"ios": "https://dc.lft.to/lastmile_qr_scan", "android": "https://dc.lft.to/lastmile_qr_scan"}, "is_reserved": 0, "fusion_lon": 0.0, "fusion_lat": 0.0, "lon": -77.07642716666666, "name": "8138bcf395ec32d524d59a245af72780"}, {"bike_id": "1ca6de1b0048ee0dfb3e3a549ca3860c", "type": "electric_scooter", "is_disabled": 0, "lat": 38.9192235, "rental_uris": {"ios": "https://dc.lft.to/lastmile_qr_scan", "android": "https://dc.lft.to/lastmile_qr_scan"}, "is_reserved": 0, "fusion_lon": 0.0, "fusion_lat": 0.0, "lon": -77.0302625, "name": "1ca6de1b0048ee0dfb3e3a549ca3860c"}, {"bike_id": "d000c0d44a197f23792dd032f025f4e5", "type": "electric_scooter", "is_disabled": 0, "lat": 38.91414433333333, "rental_uris": {"ios": "https://dc.lft.to/lastmile_qr_scan", "android": "https://dc.lft.to/lastmile_qr_scan"}, "is_reserved": 0, "fusion_lon": 0.0, "fusion_lat": 0.0, "lon": -77.03999783333333, "name": "d000c0d44a197f23792dd032f025f4e5"}, {"bike_id": "a773549c9b9ab1caca268aab3ed8167f", "type": "electric_scooter", "is_disabled": 0, "lat": 38.96558866666667, "rental_uris": {"ios": "https://dc.lft.to/lastmile_qr_scan", "android": "https://dc.lft.to/lastmile_qr_scan"}, "is_reserved": 0, "fusion_lon": 0.0, "fusion_lat": 0.0, "lon": -77.00206183333333, "name": "a773549c9b9ab1caca268aab3ed8167f"}, {"bike_id": "9fa04c593a1b518969d130a797129152", "type": "electric_scooter", "is_disabled": 0, "lat": 38.88300433333333, "rental_uris": {"ios": "https://dc.lft.to/lastmile_qr_scan", "android": "https://dc.lft.to/lastmile_qr_scan"}, "is_reserved": 0, "fusion_lon": 0.0, "fusion_lat": 0.0, "lon": -76.94211616666666, "name": "9fa04c593a1b518969d130a797129152"}, {"bike_id": "bc714ba04eff4dfa5df827fb00d1bd65", "type": "electric_scooter", "is_disabled": 0, "lat": 38.919760333333336, "rental_uris": {"ios": "https://dc.lft.to/lastmile_qr_scan", "android": "https://dc.lft.to/lastmile_qr_scan"}, "is_reserved": 0, "fusion_lon": 0.0, "fusion_lat": 0.0, "lon": -77.03968683333333, "name": "bc714ba04eff4dfa5df827fb00d1bd65"}, {"bike_id": "93e92da35d08ce20f9c4f69c3fec58f6", "type": "electric_scooter", "is_disabled": 0, "lat": 38.8545545, "rental_uris": {"ios": "https://dc.lft.to/lastmile_qr_scan", "android": "https://dc.lft.to/lastmile_qr_scan"}, "is_reserved": 0, "fusion_lon": 0.0, "fusion_lat": 0.0, "lon": -76.97224416666667, "name": "93e92da35d08ce20f9c4f69c3fec58f6"}, {"bike_id": "507a19e0597359627776c66d915d74ad", "type": "electric_scooter", "is_disabled": 0, "lat": 38.92056916666667, "rental_uris": {"ios": "https://dc.lft.to/lastmile_qr_scan", "android": "https://dc.lft.to/lastmile_qr_scan"}, "is_reserved": 0, "fusion_lon": 0.0, "fusion_lat": 0.0, "lon": -77.02366283333333, "name": "507a19e0597359627776c66d915d74ad"}, {"bike_id": "0efbb7e8ea5977e05fb0632b2e83c444", "type": "electric_scooter", "is_disabled": 0, "lat": 38.9159905, "rental_uris": {"ios": "https://dc.lft.to/lastmile_qr_scan", "android": "https://dc.lft.to/lastmile_qr_scan"}, "is_reserved": 0, "fusion_lon": 0.0, "fusion_lat": 0.0, "lon": -77.001985, "name": "0efbb7e8ea5977e05fb0632b2e83c444"}, {"bike_id": "4fb49e7ce2c008c04ae55a786ee928fe", "type": "electric_scooter", "is_disabled": 0, "lat": 38.923223, "rental_uris": {"ios": "https://dc.lft.to/lastmile_qr_scan", "android": "https://dc.lft.to/lastmile_qr_scan"}, "is_reserved": 0, "fusion_lon": 0.0, "fusion_lat": 0.0, "lon": -77.02965733333333, "name": "4fb49e7ce2c008c04ae55a786ee928fe"}, {"bike_id": "3b9788b2601bcff5385d0c2599726e49", "type": "electric_scooter", "is_disabled": 0, "lat": 38.915541, "rental_uris": {"ios": "https://dc.lft.to/lastmile_qr_scan", "android": "https://dc.lft.to/lastmile_qr_scan"}, "is_reserved": 0, "fusion_lon": 0.0, "fusion_lat": 0.0, "lon": -77.03322916666667, "name": "3b9788b2601bcff5385d0c2599726e49"}, {"bike_id": "0403b6374a497db484ad7f5cd9972943", "type": "electric_scooter", "is_disabled": 0, "lat": 38.912136333333336, "rental_uris": {"ios": "https://dc.lft.to/lastmile_qr_scan", "android": "https://dc.lft.to/lastmile_qr_scan"}, "is_reserved": 0, "fusion_lon": 0.0, "fusion_lat": 0.0, "lon": -77.0272185, "name": "0403b6374a497db484ad7f5cd9972943"}, {"bike_id": "82db3366c26b189de5ed5ae18fc231ad", "type": "electric_scooter", "is_disabled": 0, "lat": 38.921535, "rental_uris": {"ios": "https://dc.lft.to/lastmile_qr_scan", "android": "https://dc.lft.to/lastmile_qr_scan"}, "is_reserved": 0, "fusion_lon": 0.0, "fusion_lat": 0.0, "lon": -77.03443133333333, "name": "82db3366c26b189de5ed5ae18fc231ad"}, {"bike_id": "15e8778d8d9165a13fe83c7c1e07179c", "type": "electric_scooter", "is_disabled": 0, "lat": 38.924737666666665, "rental_uris": {"ios": "https://dc.lft.to/lastmile_qr_scan", "android": "https://dc.lft.to/lastmile_qr_scan"}, "is_reserved": 0, "fusion_lon": 0.0, "fusion_lat": 0.0, "lon": -77.03791016666666, "name": "15e8778d8d9165a13fe83c7c1e07179c"}, {"bike_id": "19c4a353f244adddfb9abb247eec95c8", "type": "electric_scooter", "is_disabled": 0, "lat": 38.9205155, "rental_uris": {"ios": "https://dc.lft.to/lastmile_qr_scan", "android": "https://dc.lft.to/lastmile_qr_scan"}, "is_reserved": 0, "fusion_lon": 0.0, "fusion_lat": 0.0, "lon": -77.0419265, "name": "19c4a353f244adddfb9abb247eec95c8"}, {"bike_id": "183fd8d4b3ef906809cbf1a5e4728721", "type": "electric_scooter", "is_disabled": 0, "lat": 38.873811333333336, "rental_uris": {"ios": "https://dc.lft.to/lastmile_qr_scan", "android": "https://dc.lft.to/lastmile_qr_scan"}, "is_reserved": 0, "fusion_lon": 0.0, "fusion_lat": 0.0, "lon": -77.04336933333333, "name": "183fd8d4b3ef906809cbf1a5e4728721"}, {"bike_id": "d7b650b9cc48edd6e21e303ccef4f2b3", "type": "electric_scooter", "is_disabled": 0, "lat": 38.91116933333333, "rental_uris": {"ios": "https://dc.lft.to/lastmile_qr_scan", "android": "https://dc.lft.to/lastmile_qr_scan"}, "is_reserved": 0, "fusion_lon": 0.0, "fusion_lat": 0.0, "lon": -77.03172666666667, "name": "d7b650b9cc48edd6e21e303ccef4f2b3"}, {"bike_id": "752d8f445b8097c8aa3d5ae03d028bfb", "type": "electric_scooter", "is_disabled": 0, "lat": 38.92105883333333, "rental_uris": {"ios": "https://dc.lft.to/lastmile_qr_scan", "android": "https://dc.lft.to/lastmile_qr_scan"}, "is_reserved": 0, "fusion_lon": 0.0, "fusion_lat": 0.0, "lon": -77.04205483333334, "name": "752d8f445b8097c8aa3d5ae03d028bfb"}, {"bike_id": "85aa509a5d475170e3ff75bf1f7feaf1", "type": "electric_scooter", "is_disabled": 0, "lat": 38.87819283333333, "rental_uris": {"ios": "https://dc.lft.to/lastmile_qr_scan", "android": "https://dc.lft.to/lastmile_qr_scan"}, "is_reserved": 0, "fusion_lon": 0.0, "fusion_lat": 0.0, "lon": -77.02237983333333, "name": "85aa509a5d475170e3ff75bf1f7feaf1"}, {"bike_id": "32e71add986ba1805089192a603afdf9", "type": "electric_scooter", "is_disabled": 0, "lat": 38.884802, "rental_uris": {"ios": "https://dc.lft.to/lastmile_qr_scan", "android": "https://dc.lft.to/lastmile_qr_scan"}, "is_reserved": 0, "fusion_lon": 0.0, "fusion_lat": 0.0, "lon": -77.03347466666666, "name": "32e71add986ba1805089192a603afdf9"}, {"bike_id": "3577e2f9457deccc3ae157851b6c2923", "type": "electric_scooter", "is_disabled": 0, "lat": 38.9008655, "rental_uris": {"ios": "https://dc.lft.to/lastmile_qr_scan", "android": "https://dc.lft.to/lastmile_qr_scan"}, "is_reserved": 0, "fusion_lon": 0.0, "fusion_lat": 0.0, "lon": -76.98335, "name": "3577e2f9457deccc3ae157851b6c2923"}, {"bike_id": "c34d4258223c0fe4c2075de32d84112e", "type": "electric_scooter", "is_disabled": 0, "lat": 38.936581, "rental_uris": {"ios": "https://dc.lft.to/lastmile_qr_scan", "android": "https://dc.lft.to/lastmile_qr_scan"}, "is_reserved": 0, "fusion_lon": 0.0, "fusion_lat": 0.0, "lon": -77.02431116666666, "name": "c34d4258223c0fe4c2075de32d84112e"}, {"bike_id": "7e064e1062da442ae64218632d531b05", "type": "electric_scooter", "is_disabled": 0, "lat": 38.90135566666667, "rental_uris": {"ios": "https://dc.lft.to/lastmile_qr_scan", "android": "https://dc.lft.to/lastmile_qr_scan"}, "is_reserved": 0, "fusion_lon": 0.0, "fusion_lat": 0.0, "lon": -77.06074683333334, "name": "7e064e1062da442ae64218632d531b05"}, {"bike_id": "2537c3882c6c0a4a3a90816d078f3fc8", "type": "electric_scooter", "is_disabled": 0, "lat": 38.892123166666664, "rental_uris": {"ios": "https://dc.lft.to/lastmile_qr_scan", "android": "https://dc.lft.to/lastmile_qr_scan"}, "is_reserved": 0, "fusion_lon": 0.0, "fusion_lat": 0.0, "lon": -77.04515766666667, "name": "2537c3882c6c0a4a3a90816d078f3fc8"}, {"bike_id": "d3b6d7b7529b80e3c1696d3bbecf04df", "type": "electric_scooter", "is_disabled": 0, "lat": 38.92244016666667, "rental_uris": {"ios": "https://dc.lft.to/lastmile_qr_scan", "android": "https://dc.lft.to/lastmile_qr_scan"}, "is_reserved": 0, "fusion_lon": 0.0, "fusion_lat": 0.0, "lon": -77.04252766666667, "name": "d3b6d7b7529b80e3c1696d3bbecf04df"}, {"bike_id": "2708d5cf022335a9f02f9ea1ae92213c", "type": "electric_bike", "is_disabled": 0, "lat": 38.834265, "rental_uris": {"ios": "https://dc.lft.to/lastmile_qr_scan", "android": "https://dc.lft.to/lastmile_qr_scan"}, "is_reserved": 0, "fusion_lon": 0.0, "fusion_lat": 0.0, "lon": -77.05884516666667, "name": "2708d5cf022335a9f02f9ea1ae92213c"}, {"bike_id": "32e024d871dbddfb8cc38bc563a40743", "type": "electric_scooter", "is_disabled": 0, "lat": 38.89332316666667, "rental_uris": {"ios": "https://dc.lft.to/lastmile_qr_scan", "android": "https://dc.lft.to/lastmile_qr_scan"}, "is_reserved": 0, "fusion_lon": 0.0, "fusion_lat": 0.0, "lon": -76.950612, "name": "32e024d871dbddfb8cc38bc563a40743"}, {"bike_id": "c50b51f2af486aa0167f63a224d353fd", "type": "electric_scooter", "is_disabled": 0, "lat": 38.901248833333334, "rental_uris": {"ios": "https://dc.lft.to/lastmile_qr_scan", "android": "https://dc.lft.to/lastmile_qr_scan"}, "is_reserved": 0, "fusion_lon": 0.0, "fusion_lat": 0.0, "lon": -77.02789683333333, "name": "c50b51f2af486aa0167f63a224d353fd"}, {"bike_id": "cbe79e5038aac8ff4f27b3163ddd38c9", "type": "electric_scooter", "is_disabled": 0, "lat": 38.85705566666667, "rental_uris": {"ios": "https://dc.lft.to/lastmile_qr_scan", "android": "https://dc.lft.to/lastmile_qr_scan"}, "is_reserved": 0, "fusion_lon": 0.0, "fusion_lat": 0.0, "lon": -76.98967983333333, "name": "cbe79e5038aac8ff4f27b3163ddd38c9"}, {"bike_id": "70ed8d9c3fcbf2b8548fa57d3c8c4363", "type": "electric_scooter", "is_disabled": 0, "lat": 38.916976, "rental_uris": {"ios": "https://dc.lft.to/lastmile_qr_scan", "android": "https://dc.lft.to/lastmile_qr_scan"}, "is_reserved": 0, "fusion_lon": 0.0, "fusion_lat": 0.0, "lon": -77.02525883333334, "name": "70ed8d9c3fcbf2b8548fa57d3c8c4363"}, {"bike_id": "ecde2e1f9bedcf7edb1276d53d616ba2", "type": "electric_scooter", "is_disabled": 0, "lat": 38.905217666666665, "rental_uris": {"ios": "https://dc.lft.to/lastmile_qr_scan", "android": "https://dc.lft.to/lastmile_qr_scan"}, "is_reserved": 0, "fusion_lon": 0.0, "fusion_lat": 0.0, "lon": -77.04999816666667, "name": "ecde2e1f9bedcf7edb1276d53d616ba2"}, {"bike_id": "171e9f7cdeae6abd8abd953cc16cdf93", "type": "electric_scooter", "is_disabled": 0, "lat": 38.9026895, "rental_uris": {"ios": "https://dc.lft.to/lastmile_qr_scan", "android": "https://dc.lft.to/lastmile_qr_scan"}, "is_reserved": 0, "fusion_lon": 0.0, "fusion_lat": 0.0, "lon": -77.03001483333334, "name": "171e9f7cdeae6abd8abd953cc16cdf93"}, {"bike_id": "31e18eb148d175085267971a7f374987", "type": "electric_scooter", "is_disabled": 0, "lat": 38.911048, "rental_uris": {"ios": "https://dc.lft.to/lastmile_qr_scan", "android": "https://dc.lft.to/lastmile_qr_scan"}, "is_reserved": 0, "fusion_lon": 0.0, "fusion_lat": 0.0, "lon": -77.04474066666667, "name": "31e18eb148d175085267971a7f374987"}, {"bike_id": "953eb223d435fc17973109da3ab9e389", "type": "electric_scooter", "is_disabled": 0, "lat": 38.90312816666667, "rental_uris": {"ios": "https://dc.lft.to/lastmile_qr_scan", "android": "https://dc.lft.to/lastmile_qr_scan"}, "is_reserved": 0, "fusion_lon": 0.0, "fusion_lat": 0.0, "lon": -77.01601816666667, "name": "953eb223d435fc17973109da3ab9e389"}, {"bike_id": "23b82218d6fe221f19413d6c6b25f926", "type": "electric_scooter", "is_disabled": 0, "lat": 38.900701166666664, "rental_uris": {"ios": "https://dc.lft.to/lastmile_qr_scan", "android": "https://dc.lft.to/lastmile_qr_scan"}, "is_reserved": 0, "fusion_lon": 0.0, "fusion_lat": 0.0, "lon": -76.99015983333334, "name": "23b82218d6fe221f19413d6c6b25f926"}, {"bike_id": "75e2f021ffb021cb9d59c9ad50c42892", "type": "electric_scooter", "is_disabled": 0, "lat": 38.87121033333333, "rental_uris": {"ios": "https://dc.lft.to/lastmile_qr_scan", "android": "https://dc.lft.to/lastmile_qr_scan"}, "is_reserved": 0, "fusion_lon": 0.0, "fusion_lat": 0.0, "lon": -76.98244533333333, "name": "75e2f021ffb021cb9d59c9ad50c42892"}, {"bike_id": "efc7e88ff4b0cf284cd51cea0f2e6feb", "type": "electric_scooter", "is_disabled": 0, "lat": 38.85207666666667, "rental_uris": {"ios": "https://dc.lft.to/lastmile_qr_scan", "android": "https://dc.lft.to/lastmile_qr_scan"}, "is_reserved": 0, "fusion_lon": 0.0, "fusion_lat": 0.0, "lon": -76.98554416666667, "name": "efc7e88ff4b0cf284cd51cea0f2e6feb"}, {"bike_id": "7bf2632c196604c44de92dacdf91b749", "type": "electric_scooter", "is_disabled": 0, "lat": 38.9028905, "rental_uris": {"ios": "https://dc.lft.to/lastmile_qr_scan", "android": "https://dc.lft.to/lastmile_qr_scan"}, "is_reserved": 0, "fusion_lon": 0.0, "fusion_lat": 0.0, "lon": -77.04866366666667, "name": "7bf2632c196604c44de92dacdf91b749"}, {"bike_id": "80f014458bcfe1a23afa285b08ba73ba", "type": "electric_bike", "is_disabled": 0, "lat": 38.819975166666666, "rental_uris": {"ios": "https://dc.lft.to/lastmile_qr_scan", "android": "https://dc.lft.to/lastmile_qr_scan"}, "is_reserved": 0, "fusion_lon": 0.0, "fusion_lat": 0.0, "lon": -76.998165, "name": "80f014458bcfe1a23afa285b08ba73ba"}, {"bike_id": "fe74ab0980d21d507751c88b31367f7d", "type": "electric_scooter", "is_disabled": 0, "lat": 38.91710033333333, "rental_uris": {"ios": "https://dc.lft.to/lastmile_qr_scan", "android": "https://dc.lft.to/lastmile_qr_scan"}, "is_reserved": 0, "fusion_lon": 0.0, "fusion_lat": 0.0, "lon": -77.0348335, "name": "fe74ab0980d21d507751c88b31367f7d"}, {"bike_id": "1b80e63a734e6812cfb5d09f86aeb00e", "type": "electric_scooter", "is_disabled": 0, "lat": 38.91566533333334, "rental_uris": {"ios": "https://dc.lft.to/lastmile_qr_scan", "android": "https://dc.lft.to/lastmile_qr_scan"}, "is_reserved": 0, "fusion_lon": 0.0, "fusion_lat": 0.0, "lon": -77.01208633333333, "name": "1b80e63a734e6812cfb5d09f86aeb00e"}, {"bike_id": "feb144143d9b6b96aa1ac12d80d77d7e", "type": "electric_bike", "is_disabled": 0, "lat": 39.05786, "rental_uris": {"ios": "https://dc.lft.to/lastmile_qr_scan", "android": "https://dc.lft.to/lastmile_qr_scan"}, "is_reserved": 0, "fusion_lon": 0.0, "fusion_lat": 0.0, "lon": -77.15022616666667, "name": "feb144143d9b6b96aa1ac12d80d77d7e"}, {"bike_id": "eca416e5b1db4dc58405d35164fd15ed", "type": "electric_scooter", "is_disabled": 0, "lat": 38.916547666666666, "rental_uris": {"ios": "https://dc.lft.to/lastmile_qr_scan", "android": "https://dc.lft.to/lastmile_qr_scan"}, "is_reserved": 0, "fusion_lon": 0.0, "fusion_lat": 0.0, "lon": -77.02391266666666, "name": "eca416e5b1db4dc58405d35164fd15ed"}, {"bike_id": "76f30a6bffbac1796d5156f4d67fbb13", "type": "electric_bike", "is_disabled": 0, "lat": 38.963138, "rental_uris": {"ios": "https://dc.lft.to/lastmile_qr_scan", "android": "https://dc.lft.to/lastmile_qr_scan"}, "is_reserved": 0, "fusion_lon": 0.0, "fusion_lat": 0.0, "lon": -76.973652, "name": "76f30a6bffbac1796d5156f4d67fbb13"}, {"bike_id": "558e3561dd724eb85cf3ee7561ef5370", "type": "electric_scooter", "is_disabled": 0, "lat": 38.904115, "rental_uris": {"ios": "https://dc.lft.to/lastmile_qr_scan", "android": "https://dc.lft.to/lastmile_qr_scan"}, "is_reserved": 0, "fusion_lon": 0.0, "fusion_lat": 0.0, "lon": -77.02434183333334, "name": "558e3561dd724eb85cf3ee7561ef5370"}, {"bike_id": "619030bdbbba2aae2fedec1a56fb1305", "type": "electric_scooter", "is_disabled": 0, "lat": 38.9052835, "rental_uris": {"ios": "https://dc.lft.to/lastmile_qr_scan", "android": "https://dc.lft.to/lastmile_qr_scan"}, "is_reserved": 0, "fusion_lon": 0.0, "fusion_lat": 0.0, "lon": -77.07032583333333, "name": "619030bdbbba2aae2fedec1a56fb1305"}, {"bike_id": "a4af6e49b1442c5caf6deb490004dc92", "type": "electric_scooter", "is_disabled": 0, "lat": 38.871078833333335, "rental_uris": {"ios": "https://dc.lft.to/lastmile_qr_scan", "android": "https://dc.lft.to/lastmile_qr_scan"}, "is_reserved": 0, "fusion_lon": 0.0, "fusion_lat": 0.0, "lon": -77.00772366666666, "name": "a4af6e49b1442c5caf6deb490004dc92"}, {"bike_id": "8bffb232b3833c269efc2d56d840a9dd", "type": "electric_scooter", "is_disabled": 0, "lat": 38.90805316666667, "rental_uris": {"ios": "https://dc.lft.to/lastmile_qr_scan", "android": "https://dc.lft.to/lastmile_qr_scan"}, "is_reserved": 0, "fusion_lon": 0.0, "fusion_lat": 0.0, "lon": -77.08417716666666, "name": "8bffb232b3833c269efc2d56d840a9dd"}, {"bike_id": "76dcaf12ef0992f452ae2df2d117657c", "type": "electric_scooter", "is_disabled": 0, "lat": 38.8741755, "rental_uris": {"ios": "https://dc.lft.to/lastmile_qr_scan", "android": "https://dc.lft.to/lastmile_qr_scan"}, "is_reserved": 0, "fusion_lon": 0.0, "fusion_lat": 0.0, "lon": -76.969085, "name": "76dcaf12ef0992f452ae2df2d117657c"}, {"bike_id": "082269132a4b92d4e78f004df17bfa28", "type": "electric_scooter", "is_disabled": 0, "lat": 38.901504833333334, "rental_uris": {"ios": "https://dc.lft.to/lastmile_qr_scan", "android": "https://dc.lft.to/lastmile_qr_scan"}, "is_reserved": 0, "fusion_lon": 0.0, "fusion_lat": 0.0, "lon": -77.02296866666667, "name": "082269132a4b92d4e78f004df17bfa28"}, {"bike_id": "dcb4b34c75db57385100d476c7876777", "type": "electric_bike", "is_disabled": 0, "lat": 38.952482, "rental_uris": {"ios": "https://dc.lft.to/lastmile_qr_scan", "android": "https://dc.lft.to/lastmile_qr_scan"}, "is_reserved": 0, "fusion_lon": 0.0, "fusion_lat": 0.0, "lon": -76.976794, "name": "dcb4b34c75db57385100d476c7876777"}, {"bike_id": "5a2063dcdede0b2404a66dcb8b312694", "type": "electric_scooter", "is_disabled": 0, "lat": 38.8995915, "rental_uris": {"ios": "https://dc.lft.to/lastmile_qr_scan", "android": "https://dc.lft.to/lastmile_qr_scan"}, "is_reserved": 0, "fusion_lon": 0.0, "fusion_lat": 0.0, "lon": -76.99148833333334, "name": "5a2063dcdede0b2404a66dcb8b312694"}, {"bike_id": "9d2ec12217059044a8cd2dd13eb1ad83", "type": "electric_scooter", "is_disabled": 0, "lat": 38.923889833333334, "rental_uris": {"ios": "https://dc.lft.to/lastmile_qr_scan", "android": "https://dc.lft.to/lastmile_qr_scan"}, "is_reserved": 0, "fusion_lon": 0.0, "fusion_lat": 0.0, "lon": -77.050534, "name": "9d2ec12217059044a8cd2dd13eb1ad83"}, {"bike_id": "20d25364a5f554a0c48ec162b261a419", "type": "electric_scooter", "is_disabled": 0, "lat": 38.88723616666667, "rental_uris": {"ios": "https://dc.lft.to/lastmile_qr_scan", "android": "https://dc.lft.to/lastmile_qr_scan"}, "is_reserved": 0, "fusion_lon": 0.0, "fusion_lat": 0.0, "lon": -77.02206666666666, "name": "20d25364a5f554a0c48ec162b261a419"}, {"bike_id": "87866f33f650ef6c9552a324b0a7e260", "type": "electric_scooter", "is_disabled": 0, "lat": 38.920495333333335, "rental_uris": {"ios": "https://dc.lft.to/lastmile_qr_scan", "android": "https://dc.lft.to/lastmile_qr_scan"}, "is_reserved": 0, "fusion_lon": 0.0, "fusion_lat": 0.0, "lon": -77.0242575, "name": "87866f33f650ef6c9552a324b0a7e260"}, {"bike_id": "1d6dfe0a96ecb32d0d463b33819d7e84", "type": "electric_scooter", "is_disabled": 0, "lat": 38.917838, "rental_uris": {"ios": "https://dc.lft.to/lastmile_qr_scan", "android": "https://dc.lft.to/lastmile_qr_scan"}, "is_reserved": 0, "fusion_lon": 0.0, "fusion_lat": 0.0, "lon": -77.02295333333333, "name": "1d6dfe0a96ecb32d0d463b33819d7e84"}, {"bike_id": "7e340922af5227f2c62ae9e743e55003", "type": "electric_scooter", "is_disabled": 0, "lat": 38.918327, "rental_uris": {"ios": "https://dc.lft.to/lastmile_qr_scan", "android": "https://dc.lft.to/lastmile_qr_scan"}, "is_reserved": 0, "fusion_lon": 0.0, "fusion_lat": 0.0, "lon": -77.04519033333334, "name": "7e340922af5227f2c62ae9e743e55003"}, {"bike_id": "c6366c3c77c0dea8a3a542b054237d16", "type": "electric_scooter", "is_disabled": 0, "lat": 38.914448, "rental_uris": {"ios": "https://dc.lft.to/lastmile_qr_scan", "android": "https://dc.lft.to/lastmile_qr_scan"}, "is_reserved": 0, "fusion_lon": 0.0, "fusion_lat": 0.0, "lon": -77.02592166666666, "name": "c6366c3c77c0dea8a3a542b054237d16"}, {"bike_id": "bc83dee270a14c1191d4e9b36e2c3835", "type": "electric_scooter", "is_disabled": 0, "lat": 38.910351166666665, "rental_uris": {"ios": "https://dc.lft.to/lastmile_qr_scan", "android": "https://dc.lft.to/lastmile_qr_scan"}, "is_reserved": 0, "fusion_lon": 0.0, "fusion_lat": 0.0, "lon": -77.038024, "name": "bc83dee270a14c1191d4e9b36e2c3835"}, {"bike_id": "48ad78f18a2286ed71e3525f89964d47", "type": "electric_scooter", "is_disabled": 0, "lat": 38.901321833333334, "rental_uris": {"ios": "https://dc.lft.to/lastmile_qr_scan", "android": "https://dc.lft.to/lastmile_qr_scan"}, "is_reserved": 0, "fusion_lon": 0.0, "fusion_lat": 0.0, "lon": -77.017981, "name": "48ad78f18a2286ed71e3525f89964d47"}, {"bike_id": "fdcb9e26f8cc4b69ce91d39f345bf121", "type": "electric_scooter", "is_disabled": 0, "lat": 38.88749583333333, "rental_uris": {"ios": "https://dc.lft.to/lastmile_qr_scan", "android": "https://dc.lft.to/lastmile_qr_scan"}, "is_reserved": 0, "fusion_lon": 0.0, "fusion_lat": 0.0, "lon": -77.02949533333333, "name": "fdcb9e26f8cc4b69ce91d39f345bf121"}, {"bike_id": "6415aa444a03c232b0503176dcc7568f", "type": "electric_scooter", "is_disabled": 0, "lat": 38.90491883333333, "rental_uris": {"ios": "https://dc.lft.to/lastmile_qr_scan", "android": "https://dc.lft.to/lastmile_qr_scan"}, "is_reserved": 0, "fusion_lon": 0.0, "fusion_lat": 0.0, "lon": -77.02961133333334, "name": "6415aa444a03c232b0503176dcc7568f"}, {"bike_id": "b6f14364ec317b462c4535840f6e16f2", "type": "electric_scooter", "is_disabled": 0, "lat": 38.8928155, "rental_uris": {"ios": "https://dc.lft.to/lastmile_qr_scan", "android": "https://dc.lft.to/lastmile_qr_scan"}, "is_reserved": 0, "fusion_lon": 0.0, "fusion_lat": 0.0, "lon": -77.033311, "name": "b6f14364ec317b462c4535840f6e16f2"}, {"bike_id": "bea8522558ebc484949f2a67a02704a0", "type": "electric_scooter", "is_disabled": 0, "lat": 38.8900825, "rental_uris": {"ios": "https://dc.lft.to/lastmile_qr_scan", "android": "https://dc.lft.to/lastmile_qr_scan"}, "is_reserved": 0, "fusion_lon": 0.0, "fusion_lat": 0.0, "lon": -76.93751766666666, "name": "bea8522558ebc484949f2a67a02704a0"}, {"bike_id": "5cd4ad5d0836d0fa6fd4e979e7ce2d48", "type": "electric_scooter", "is_disabled": 0, "lat": 38.884274, "rental_uris": {"ios": "https://dc.lft.to/lastmile_qr_scan", "android": "https://dc.lft.to/lastmile_qr_scan"}, "is_reserved": 0, "fusion_lon": 0.0, "fusion_lat": 0.0, "lon": -76.957544, "name": "5cd4ad5d0836d0fa6fd4e979e7ce2d48"}, {"bike_id": "64bf8e4c1a6c52ee61268a4e37d9a479", "type": "electric_scooter", "is_disabled": 0, "lat": 38.9026355, "rental_uris": {"ios": "https://dc.lft.to/lastmile_qr_scan", "android": "https://dc.lft.to/lastmile_qr_scan"}, "is_reserved": 0, "fusion_lon": 0.0, "fusion_lat": 0.0, "lon": -77.01763516666666, "name": "64bf8e4c1a6c52ee61268a4e37d9a479"}, {"bike_id": "7b8850b7b3ca816b6b5e34572afbd58b", "type": "electric_scooter", "is_disabled": 0, "lat": 38.916371166666664, "rental_uris": {"ios": "https://dc.lft.to/lastmile_qr_scan", "android": "https://dc.lft.to/lastmile_qr_scan"}, "is_reserved": 0, "fusion_lon": 0.0, "fusion_lat": 0.0, "lon": -77.00045566666667, "name": "7b8850b7b3ca816b6b5e34572afbd58b"}, {"bike_id": "5e94c3b5d1cae6219e85300d75a7c68c", "type": "electric_scooter", "is_disabled": 0, "lat": 38.956501833333334, "rental_uris": {"ios": "https://dc.lft.to/lastmile_qr_scan", "android": "https://dc.lft.to/lastmile_qr_scan"}, "is_reserved": 0, "fusion_lon": 0.0, "fusion_lat": 0.0, "lon": -77.019704, "name": "5e94c3b5d1cae6219e85300d75a7c68c"}, {"bike_id": "26d500a75bb04ca994ac5a7b8c881474", "type": "electric_scooter", "is_disabled": 0, "lat": 38.9326175, "rental_uris": {"ios": "https://dc.lft.to/lastmile_qr_scan", "android": "https://dc.lft.to/lastmile_qr_scan"}, "is_reserved": 0, "fusion_lon": 0.0, "fusion_lat": 0.0, "lon": -77.03502016666667, "name": "26d500a75bb04ca994ac5a7b8c881474"}, {"bike_id": "ceb2c2e8c55e09b0b364435206703f5d", "type": "electric_scooter", "is_disabled": 0, "lat": 38.916938333333334, "rental_uris": {"ios": "https://dc.lft.to/lastmile_qr_scan", "android": "https://dc.lft.to/lastmile_qr_scan"}, "is_reserved": 0, "fusion_lon": 0.0, "fusion_lat": 0.0, "lon": -77.02180783333333, "name": "ceb2c2e8c55e09b0b364435206703f5d"}, {"bike_id": "269a17c118ff29345a2214788f45a64d", "type": "electric_scooter", "is_disabled": 0, "lat": 38.86204683333333, "rental_uris": {"ios": "https://dc.lft.to/lastmile_qr_scan", "android": "https://dc.lft.to/lastmile_qr_scan"}, "is_reserved": 0, "fusion_lon": 0.0, "fusion_lat": 0.0, "lon": -76.99475333333334, "name": "269a17c118ff29345a2214788f45a64d"}, {"bike_id": "e03945353e5ae1d36d66cb658026218e", "type": "electric_scooter", "is_disabled": 0, "lat": 38.9176655, "rental_uris": {"ios": "https://dc.lft.to/lastmile_qr_scan", "android": "https://dc.lft.to/lastmile_qr_scan"}, "is_reserved": 0, "fusion_lon": 0.0, "fusion_lat": 0.0, "lon": -77.01493966666666, "name": "e03945353e5ae1d36d66cb658026218e"}, {"bike_id": "8d3c2127d9e8d9ab1bc07a948cd4f3eb", "type": "electric_scooter", "is_disabled": 0, "lat": 38.928577, "rental_uris": {"ios": "https://dc.lft.to/lastmile_qr_scan", "android": "https://dc.lft.to/lastmile_qr_scan"}, "is_reserved": 0, "fusion_lon": 0.0, "fusion_lat": 0.0, "lon": -77.0327275, "name": "8d3c2127d9e8d9ab1bc07a948cd4f3eb"}, {"bike_id": "3a8e948b67d3e4317966324951361cbf", "type": "electric_scooter", "is_disabled": 0, "lat": 38.90604616666667, "rental_uris": {"ios": "https://dc.lft.to/lastmile_qr_scan", "android": "https://dc.lft.to/lastmile_qr_scan"}, "is_reserved": 0, "fusion_lon": 0.0, "fusion_lat": 0.0, "lon": -77.01619566666666, "name": "3a8e948b67d3e4317966324951361cbf"}, {"bike_id": "bd56f8b06b6dd1368d9757654f6df07f", "type": "electric_scooter", "is_disabled": 0, "lat": 38.93092933333333, "rental_uris": {"ios": "https://dc.lft.to/lastmile_qr_scan", "android": "https://dc.lft.to/lastmile_qr_scan"}, "is_reserved": 0, "fusion_lon": 0.0, "fusion_lat": 0.0, "lon": -77.034772, "name": "bd56f8b06b6dd1368d9757654f6df07f"}, {"bike_id": "f1dbd120a963e2589e545c94b341ac20", "type": "electric_scooter", "is_disabled": 0, "lat": 38.9285605, "rental_uris": {"ios": "https://dc.lft.to/lastmile_qr_scan", "android": "https://dc.lft.to/lastmile_qr_scan"}, "is_reserved": 0, "fusion_lon": 0.0, "fusion_lat": 0.0, "lon": -77.03605533333334, "name": "f1dbd120a963e2589e545c94b341ac20"}, {"bike_id": "1533c0aee7c7f33860bdb5e8f50084fb", "type": "electric_scooter", "is_disabled": 0, "lat": 38.901410166666665, "rental_uris": {"ios": "https://dc.lft.to/lastmile_qr_scan", "android": "https://dc.lft.to/lastmile_qr_scan"}, "is_reserved": 0, "fusion_lon": 0.0, "fusion_lat": 0.0, "lon": -77.0387465, "name": "1533c0aee7c7f33860bdb5e8f50084fb"}, {"bike_id": "f2990c2e5e8c33a50fcf75b6162f967d", "type": "electric_scooter", "is_disabled": 0, "lat": 38.90935833333333, "rental_uris": {"ios": "https://dc.lft.to/lastmile_qr_scan", "android": "https://dc.lft.to/lastmile_qr_scan"}, "is_reserved": 0, "fusion_lon": 0.0, "fusion_lat": 0.0, "lon": -77.03194816666667, "name": "f2990c2e5e8c33a50fcf75b6162f967d"}, {"bike_id": "3d0f028ab190b6013cf66badb8345f05", "type": "electric_scooter", "is_disabled": 0, "lat": 38.90392466666667, "rental_uris": {"ios": "https://dc.lft.to/lastmile_qr_scan", "android": "https://dc.lft.to/lastmile_qr_scan"}, "is_reserved": 0, "fusion_lon": 0.0, "fusion_lat": 0.0, "lon": -77.06783316666667, "name": "3d0f028ab190b6013cf66badb8345f05"}, {"bike_id": "1a24156602272d29996a8a0979f82c51", "type": "electric_scooter", "is_disabled": 0, "lat": 38.915285, "rental_uris": {"ios": "https://dc.lft.to/lastmile_qr_scan", "android": "https://dc.lft.to/lastmile_qr_scan"}, "is_reserved": 0, "fusion_lon": 0.0, "fusion_lat": 0.0, "lon": -77.0200095, "name": "1a24156602272d29996a8a0979f82c51"}, {"bike_id": "202e27c7cd94bfa4990d63d42d5cd17f", "type": "electric_scooter", "is_disabled": 0, "lat": 38.909534666666666, "rental_uris": {"ios": "https://dc.lft.to/lastmile_qr_scan", "android": "https://dc.lft.to/lastmile_qr_scan"}, "is_reserved": 0, "fusion_lon": 0.0, "fusion_lat": 0.0, "lon": -77.04865666666667, "name": "202e27c7cd94bfa4990d63d42d5cd17f"}, {"bike_id": "e87f2d0be6c5af875c02cfc1fd300800", "type": "electric_scooter", "is_disabled": 0, "lat": 38.88428066666667, "rental_uris": {"ios": "https://dc.lft.to/lastmile_qr_scan", "android": "https://dc.lft.to/lastmile_qr_scan"}, "is_reserved": 0, "fusion_lon": 0.0, "fusion_lat": 0.0, "lon": -76.99570233333333, "name": "e87f2d0be6c5af875c02cfc1fd300800"}, {"bike_id": "4eed49ad2a621712af5e7cfff4b90e43", "type": "electric_scooter", "is_disabled": 0, "lat": 38.890313666666664, "rental_uris": {"ios": "https://dc.lft.to/lastmile_qr_scan", "android": "https://dc.lft.to/lastmile_qr_scan"}, "is_reserved": 0, "fusion_lon": 0.0, "fusion_lat": 0.0, "lon": -76.9375385, "name": "4eed49ad2a621712af5e7cfff4b90e43"}, {"bike_id": "8d6cde2425d21b139c35ecb2f5101365", "type": "electric_scooter", "is_disabled": 0, "lat": 38.918416666666666, "rental_uris": {"ios": "https://dc.lft.to/lastmile_qr_scan", "android": "https://dc.lft.to/lastmile_qr_scan"}, "is_reserved": 0, "fusion_lon": 0.0, "fusion_lat": 0.0, "lon": -76.96551433333333, "name": "8d6cde2425d21b139c35ecb2f5101365"}, {"bike_id": "c38a1bafc2d18891b03f1ec4e496b1dd", "type": "electric_scooter", "is_disabled": 0, "lat": 38.89806016666667, "rental_uris": {"ios": "https://dc.lft.to/lastmile_qr_scan", "android": "https://dc.lft.to/lastmile_qr_scan"}, "is_reserved": 0, "fusion_lon": 0.0, "fusion_lat": 0.0, "lon": -77.02485833333333, "name": "c38a1bafc2d18891b03f1ec4e496b1dd"}, {"bike_id": "a7f8aa53b8c65033933bd17c81817373", "type": "electric_scooter", "is_disabled": 0, "lat": 38.891957166666664, "rental_uris": {"ios": "https://dc.lft.to/lastmile_qr_scan", "android": "https://dc.lft.to/lastmile_qr_scan"}, "is_reserved": 0, "fusion_lon": 0.0, "fusion_lat": 0.0, "lon": -76.99940116666667, "name": "a7f8aa53b8c65033933bd17c81817373"}, {"bike_id": "feeba9daad2d92efa710fdc48ad68772", "type": "electric_scooter", "is_disabled": 0, "lat": 38.910331666666664, "rental_uris": {"ios": "https://dc.lft.to/lastmile_qr_scan", "android": "https://dc.lft.to/lastmile_qr_scan"}, "is_reserved": 0, "fusion_lon": 0.0, "fusion_lat": 0.0, "lon": -77.03804666666667, "name": "feeba9daad2d92efa710fdc48ad68772"}, {"bike_id": "5d65e6f3fdf5db9d7eade7d6be6698b7", "type": "electric_scooter", "is_disabled": 0, "lat": 38.9166765, "rental_uris": {"ios": "https://dc.lft.to/lastmile_qr_scan", "android": "https://dc.lft.to/lastmile_qr_scan"}, "is_reserved": 0, "fusion_lon": 0.0, "fusion_lat": 0.0, "lon": -77.023805, "name": "5d65e6f3fdf5db9d7eade7d6be6698b7"}, {"bike_id": "fa9607515d0c290b4b6fcdcc7e2506ac", "type": "electric_scooter", "is_disabled": 0, "lat": 38.89978283333333, "rental_uris": {"ios": "https://dc.lft.to/lastmile_qr_scan", "android": "https://dc.lft.to/lastmile_qr_scan"}, "is_reserved": 0, "fusion_lon": 0.0, "fusion_lat": 0.0, "lon": -77.0218265, "name": "fa9607515d0c290b4b6fcdcc7e2506ac"}, {"bike_id": "ee909895e270fd543027a6c017ab90ed", "type": "electric_scooter", "is_disabled": 0, "lat": 38.90791516666667, "rental_uris": {"ios": "https://dc.lft.to/lastmile_qr_scan", "android": "https://dc.lft.to/lastmile_qr_scan"}, "is_reserved": 0, "fusion_lon": 0.0, "fusion_lat": 0.0, "lon": -77.041756, "name": "ee909895e270fd543027a6c017ab90ed"}, {"bike_id": "045d3902ad2f22535ed07d1810381c4b", "type": "electric_scooter", "is_disabled": 0, "lat": 38.942901166666665, "rental_uris": {"ios": "https://dc.lft.to/lastmile_qr_scan", "android": "https://dc.lft.to/lastmile_qr_scan"}, "is_reserved": 0, "fusion_lon": 0.0, "fusion_lat": 0.0, "lon": -77.0217485, "name": "045d3902ad2f22535ed07d1810381c4b"}, {"bike_id": "09a5c16dcf078a5754b2bccfa2e22d79", "type": "electric_scooter", "is_disabled": 0, "lat": 38.90233533333333, "rental_uris": {"ios": "https://dc.lft.to/lastmile_qr_scan", "android": "https://dc.lft.to/lastmile_qr_scan"}, "is_reserved": 0, "fusion_lon": 0.0, "fusion_lat": 0.0, "lon": -77.02952083333334, "name": "09a5c16dcf078a5754b2bccfa2e22d79"}, {"bike_id": "505db520b8d889ae64b0d9ed292db7af", "type": "electric_scooter", "is_disabled": 0, "lat": 38.90982366666667, "rental_uris": {"ios": "https://dc.lft.to/lastmile_qr_scan", "android": "https://dc.lft.to/lastmile_qr_scan"}, "is_reserved": 0, "fusion_lon": 0.0, "fusion_lat": 0.0, "lon": -77.0220465, "name": "505db520b8d889ae64b0d9ed292db7af"}, {"bike_id": "46953c3f2e9e38323bccd4248dd347be", "type": "electric_scooter", "is_disabled": 0, "lat": 38.895024166666666, "rental_uris": {"ios": "https://dc.lft.to/lastmile_qr_scan", "android": "https://dc.lft.to/lastmile_qr_scan"}, "is_reserved": 0, "fusion_lon": 0.0, "fusion_lat": 0.0, "lon": -77.010754, "name": "46953c3f2e9e38323bccd4248dd347be"}, {"bike_id": "4fa15d647b79abd4b4079de579212fe6", "type": "electric_scooter", "is_disabled": 0, "lat": 38.912377, "rental_uris": {"ios": "https://dc.lft.to/lastmile_qr_scan", "android": "https://dc.lft.to/lastmile_qr_scan"}, "is_reserved": 0, "fusion_lon": 0.0, "fusion_lat": 0.0, "lon": -77.02223233333333, "name": "4fa15d647b79abd4b4079de579212fe6"}, {"bike_id": "fee7ec3f8a8b01c569a119cd3b2e6c98", "type": "electric_scooter", "is_disabled": 0, "lat": 38.907241166666665, "rental_uris": {"ios": "https://dc.lft.to/lastmile_qr_scan", "android": "https://dc.lft.to/lastmile_qr_scan"}, "is_reserved": 0, "fusion_lon": 0.0, "fusion_lat": 0.0, "lon": -77.02626683333334, "name": "fee7ec3f8a8b01c569a119cd3b2e6c98"}, {"bike_id": "4f9126b8a8ae031e72fb6b1e21c605e2", "type": "electric_scooter", "is_disabled": 0, "lat": 38.94067866666666, "rental_uris": {"ios": "https://dc.lft.to/lastmile_qr_scan", "android": "https://dc.lft.to/lastmile_qr_scan"}, "is_reserved": 0, "fusion_lon": 0.0, "fusion_lat": 0.0, "lon": -77.06110483333333, "name": "4f9126b8a8ae031e72fb6b1e21c605e2"}, {"bike_id": "82b9da0d029a8055d66b5d58f35dccf2", "type": "electric_scooter", "is_disabled": 0, "lat": 38.8786835, "rental_uris": {"ios": "https://dc.lft.to/lastmile_qr_scan", "android": "https://dc.lft.to/lastmile_qr_scan"}, "is_reserved": 0, "fusion_lon": 0.0, "fusion_lat": 0.0, "lon": -76.96984216666667, "name": "82b9da0d029a8055d66b5d58f35dccf2"}, {"bike_id": "5e2f804e254ceaab8ec8e58f27067cb5", "type": "electric_scooter", "is_disabled": 0, "lat": 38.87418816666667, "rental_uris": {"ios": "https://dc.lft.to/lastmile_qr_scan", "android": "https://dc.lft.to/lastmile_qr_scan"}, "is_reserved": 0, "fusion_lon": 0.0, "fusion_lat": 0.0, "lon": -76.9690745, "name": "5e2f804e254ceaab8ec8e58f27067cb5"}, {"bike_id": "e9ee94908c0f5917861bca29cf796e15", "type": "electric_scooter", "is_disabled": 0, "lat": 38.888458666666665, "rental_uris": {"ios": "https://dc.lft.to/lastmile_qr_scan", "android": "https://dc.lft.to/lastmile_qr_scan"}, "is_reserved": 0, "fusion_lon": 0.0, "fusion_lat": 0.0, "lon": -76.92681583333334, "name": "e9ee94908c0f5917861bca29cf796e15"}, {"bike_id": "cb416e564089159276d1b1a67547952e", "type": "electric_scooter", "is_disabled": 0, "lat": 38.924754666666665, "rental_uris": {"ios": "https://dc.lft.to/lastmile_qr_scan", "android": "https://dc.lft.to/lastmile_qr_scan"}, "is_reserved": 0, "fusion_lon": 0.0, "fusion_lat": 0.0, "lon": -77.02832866666667, "name": "cb416e564089159276d1b1a67547952e"}, {"bike_id": "1b6d501398f3abbaaffd54c7c78b0d6e", "type": "electric_scooter", "is_disabled": 0, "lat": 38.929084, "rental_uris": {"ios": "https://dc.lft.to/lastmile_qr_scan", "android": "https://dc.lft.to/lastmile_qr_scan"}, "is_reserved": 0, "fusion_lon": 0.0, "fusion_lat": 0.0, "lon": -77.02091266666666, "name": "1b6d501398f3abbaaffd54c7c78b0d6e"}, {"bike_id": "20c59db3146f70481861341b7603ac62", "type": "electric_scooter", "is_disabled": 0, "lat": 38.90643466666667, "rental_uris": {"ios": "https://dc.lft.to/lastmile_qr_scan", "android": "https://dc.lft.to/lastmile_qr_scan"}, "is_reserved": 0, "fusion_lon": 0.0, "fusion_lat": 0.0, "lon": -77.0146155, "name": "20c59db3146f70481861341b7603ac62"}, {"bike_id": "5146100f8d0dfb06fbeb2532ab1717b2", "type": "electric_scooter", "is_disabled": 0, "lat": 38.90742433333333, "rental_uris": {"ios": "https://dc.lft.to/lastmile_qr_scan", "android": "https://dc.lft.to/lastmile_qr_scan"}, "is_reserved": 0, "fusion_lon": 0.0, "fusion_lat": 0.0, "lon": -77.02387183333333, "name": "5146100f8d0dfb06fbeb2532ab1717b2"}, {"bike_id": "4b5cec6172a95d61e97b9bd3c95f9e4a", "type": "electric_scooter", "is_disabled": 0, "lat": 38.898646, "rental_uris": {"ios": "https://dc.lft.to/lastmile_qr_scan", "android": "https://dc.lft.to/lastmile_qr_scan"}, "is_reserved": 0, "fusion_lon": 0.0, "fusion_lat": 0.0, "lon": -77.0268445, "name": "4b5cec6172a95d61e97b9bd3c95f9e4a"}, {"bike_id": "ead8cf2cc8c09d253ffc6ed5192f4013", "type": "electric_scooter", "is_disabled": 0, "lat": 38.86682316666667, "rental_uris": {"ios": "https://dc.lft.to/lastmile_qr_scan", "android": "https://dc.lft.to/lastmile_qr_scan"}, "is_reserved": 0, "fusion_lon": 0.0, "fusion_lat": 0.0, "lon": -76.98578166666667, "name": "ead8cf2cc8c09d253ffc6ed5192f4013"}, {"bike_id": "10185e3ef68a6836414f8260ce2d7aa8", "type": "electric_scooter", "is_disabled": 0, "lat": 38.918581833333334, "rental_uris": {"ios": "https://dc.lft.to/lastmile_qr_scan", "android": "https://dc.lft.to/lastmile_qr_scan"}, "is_reserved": 0, "fusion_lon": 0.0, "fusion_lat": 0.0, "lon": -77.04182583333333, "name": "10185e3ef68a6836414f8260ce2d7aa8"}, {"bike_id": "5b33306a7b3ab1c8c2a13899e84107bf", "type": "electric_bike", "is_disabled": 0, "lat": 38.934873833333334, "rental_uris": {"ios": "https://dc.lft.to/lastmile_qr_scan", "android": "https://dc.lft.to/lastmile_qr_scan"}, "is_reserved": 0, "fusion_lon": 0.0, "fusion_lat": 0.0, "lon": -77.0301705, "name": "5b33306a7b3ab1c8c2a13899e84107bf"}, {"bike_id": "57a0c3d5b41cc5ad4bfd76b523a2d366", "type": "electric_scooter", "is_disabled": 0, "lat": 38.85317466666667, "rental_uris": {"ios": "https://dc.lft.to/lastmile_qr_scan", "android": "https://dc.lft.to/lastmile_qr_scan"}, "is_reserved": 0, "fusion_lon": 0.0, "fusion_lat": 0.0, "lon": -76.98035333333333, "name": "57a0c3d5b41cc5ad4bfd76b523a2d366"}, {"bike_id": "df37aad52d7f5f2f038e122078f3efce", "type": "electric_scooter", "is_disabled": 0, "lat": 38.88670533333333, "rental_uris": {"ios": "https://dc.lft.to/lastmile_qr_scan", "android": "https://dc.lft.to/lastmile_qr_scan"}, "is_reserved": 0, "fusion_lon": 0.0, "fusion_lat": 0.0, "lon": -77.01375866666666, "name": "df37aad52d7f5f2f038e122078f3efce"}, {"bike_id": "9bef040c00267a62966d986dac3cc1e1", "type": "electric_scooter", "is_disabled": 0, "lat": 38.916472, "rental_uris": {"ios": "https://dc.lft.to/lastmile_qr_scan", "android": "https://dc.lft.to/lastmile_qr_scan"}, "is_reserved": 0, "fusion_lon": 0.0, "fusion_lat": 0.0, "lon": -77.02183466666666, "name": "9bef040c00267a62966d986dac3cc1e1"}, {"bike_id": "f9969ce62c13f1dca12f3126e85506db", "type": "electric_scooter", "is_disabled": 0, "lat": 38.892199833333336, "rental_uris": {"ios": "https://dc.lft.to/lastmile_qr_scan", "android": "https://dc.lft.to/lastmile_qr_scan"}, "is_reserved": 0, "fusion_lon": 0.0, "fusion_lat": 0.0, "lon": -77.04309916666666, "name": "f9969ce62c13f1dca12f3126e85506db"}, {"bike_id": "16f7f69af039c8d5db1db2ef213e21c5", "type": "electric_bike", "is_disabled": 0, "lat": 38.879807, "rental_uris": {"ios": "https://dc.lft.to/lastmile_qr_scan", "android": "https://dc.lft.to/lastmile_qr_scan"}, "is_reserved": 0, "fusion_lon": 0.0, "fusion_lat": 0.0, "lon": -76.91601433333334, "name": "16f7f69af039c8d5db1db2ef213e21c5"}, {"bike_id": "bc6ac21526f98df9c9490e0fd7c31438", "type": "electric_scooter", "is_disabled": 0, "lat": 38.88855183333333, "rental_uris": {"ios": "https://dc.lft.to/lastmile_qr_scan", "android": "https://dc.lft.to/lastmile_qr_scan"}, "is_reserved": 0, "fusion_lon": 0.0, "fusion_lat": 0.0, "lon": -77.00052866666667, "name": "bc6ac21526f98df9c9490e0fd7c31438"}, {"bike_id": "9f45e215e6355a55d323152fba53b172", "type": "electric_scooter", "is_disabled": 0, "lat": 38.92151166666667, "rental_uris": {"ios": "https://dc.lft.to/lastmile_qr_scan", "android": "https://dc.lft.to/lastmile_qr_scan"}, "is_reserved": 0, "fusion_lon": 0.0, "fusion_lat": 0.0, "lon": -77.03871866666667, "name": "9f45e215e6355a55d323152fba53b172"}, {"bike_id": "41aa71afdd3076ac3fe938d96cc629b0", "type": "electric_scooter", "is_disabled": 0, "lat": 38.89203766666667, "rental_uris": {"ios": "https://dc.lft.to/lastmile_qr_scan", "android": "https://dc.lft.to/lastmile_qr_scan"}, "is_reserved": 0, "fusion_lon": 0.0, "fusion_lat": 0.0, "lon": -76.99932233333334, "name": "41aa71afdd3076ac3fe938d96cc629b0"}, {"bike_id": "0b4bd795252ccc32af63500c7971db8c", "type": "electric_scooter", "is_disabled": 0, "lat": 38.88062433333333, "rental_uris": {"ios": "https://dc.lft.to/lastmile_qr_scan", "android": "https://dc.lft.to/lastmile_qr_scan"}, "is_reserved": 0, "fusion_lon": 0.0, "fusion_lat": 0.0, "lon": -76.93218083333333, "name": "0b4bd795252ccc32af63500c7971db8c"}, {"bike_id": "5fbf0e20b97f067cb62cb1f27f518706", "type": "electric_scooter", "is_disabled": 0, "lat": 38.860209833333336, "rental_uris": {"ios": "https://dc.lft.to/lastmile_qr_scan", "android": "https://dc.lft.to/lastmile_qr_scan"}, "is_reserved": 0, "fusion_lon": 0.0, "fusion_lat": 0.0, "lon": -76.99687283333333, "name": "5fbf0e20b97f067cb62cb1f27f518706"}, {"bike_id": "1a5e5bbb5ef076574015dccacb02bfac", "type": "electric_scooter", "is_disabled": 0, "lat": 38.91862183333333, "rental_uris": {"ios": "https://dc.lft.to/lastmile_qr_scan", "android": "https://dc.lft.to/lastmile_qr_scan"}, "is_reserved": 0, "fusion_lon": 0.0, "fusion_lat": 0.0, "lon": -77.0476805, "name": "1a5e5bbb5ef076574015dccacb02bfac"}, {"bike_id": "64f3172ec925caaf08991c4d9413a494", "type": "electric_scooter", "is_disabled": 0, "lat": 38.9057935, "rental_uris": {"ios": "https://dc.lft.to/lastmile_qr_scan", "android": "https://dc.lft.to/lastmile_qr_scan"}, "is_reserved": 0, "fusion_lon": 0.0, "fusion_lat": 0.0, "lon": -77.023899, "name": "64f3172ec925caaf08991c4d9413a494"}, {"bike_id": "fe8c046ff7f944f1ccfa3d7a6b8446a3", "type": "electric_scooter", "is_disabled": 0, "lat": 38.89222683333333, "rental_uris": {"ios": "https://dc.lft.to/lastmile_qr_scan", "android": "https://dc.lft.to/lastmile_qr_scan"}, "is_reserved": 0, "fusion_lon": 0.0, "fusion_lat": 0.0, "lon": -77.03981566666667, "name": "fe8c046ff7f944f1ccfa3d7a6b8446a3"}, {"bike_id": "95fd11ab6fc772ae3bd05c481052ff34", "type": "electric_scooter", "is_disabled": 0, "lat": 38.92056433333333, "rental_uris": {"ios": "https://dc.lft.to/lastmile_qr_scan", "android": "https://dc.lft.to/lastmile_qr_scan"}, "is_reserved": 0, "fusion_lon": 0.0, "fusion_lat": 0.0, "lon": -77.042562, "name": "95fd11ab6fc772ae3bd05c481052ff34"}, {"bike_id": "af57bf85d44ca07634d3149ced3df611", "type": "electric_scooter", "is_disabled": 0, "lat": 38.9204495, "rental_uris": {"ios": "https://dc.lft.to/lastmile_qr_scan", "android": "https://dc.lft.to/lastmile_qr_scan"}, "is_reserved": 0, "fusion_lon": 0.0, "fusion_lat": 0.0, "lon": -76.99875683333333, "name": "af57bf85d44ca07634d3149ced3df611"}, {"bike_id": "10acddbfe859b70f800fcfffc8747a98", "type": "electric_scooter", "is_disabled": 0, "lat": 38.92036683333333, "rental_uris": {"ios": "https://dc.lft.to/lastmile_qr_scan", "android": "https://dc.lft.to/lastmile_qr_scan"}, "is_reserved": 0, "fusion_lon": 0.0, "fusion_lat": 0.0, "lon": -77.03396333333333, "name": "10acddbfe859b70f800fcfffc8747a98"}, {"bike_id": "baea515c33989679154dcd7935cc5cc4", "type": "electric_scooter", "is_disabled": 0, "lat": 38.90722733333333, "rental_uris": {"ios": "https://dc.lft.to/lastmile_qr_scan", "android": "https://dc.lft.to/lastmile_qr_scan"}, "is_reserved": 0, "fusion_lon": 0.0, "fusion_lat": 0.0, "lon": -77.04482416666667, "name": "baea515c33989679154dcd7935cc5cc4"}, {"bike_id": "e821d78969a7a38900eeb9db4a87964b", "type": "electric_scooter", "is_disabled": 0, "lat": 38.956183333333335, "rental_uris": {"ios": "https://dc.lft.to/lastmile_qr_scan", "android": "https://dc.lft.to/lastmile_qr_scan"}, "is_reserved": 0, "fusion_lon": 0.0, "fusion_lat": 0.0, "lon": -77.0102455, "name": "e821d78969a7a38900eeb9db4a87964b"}, {"bike_id": "fb73dd053958b39b0350d8611990df39", "type": "electric_scooter", "is_disabled": 0, "lat": 38.91184966666667, "rental_uris": {"ios": "https://dc.lft.to/lastmile_qr_scan", "android": "https://dc.lft.to/lastmile_qr_scan"}, "is_reserved": 0, "fusion_lon": 0.0, "fusion_lat": 0.0, "lon": -77.010592, "name": "fb73dd053958b39b0350d8611990df39"}, {"bike_id": "169e021c54506990312f8a72ef92044b", "type": "electric_scooter", "is_disabled": 0, "lat": 38.90227316666667, "rental_uris": {"ios": "https://dc.lft.to/lastmile_qr_scan", "android": "https://dc.lft.to/lastmile_qr_scan"}, "is_reserved": 0, "fusion_lon": 0.0, "fusion_lat": 0.0, "lon": -77.0534815, "name": "169e021c54506990312f8a72ef92044b"}, {"bike_id": "c700877b48129f5c6520c9fcc71b7a3b", "type": "electric_scooter", "is_disabled": 0, "lat": 38.87628483333334, "rental_uris": {"ios": "https://dc.lft.to/lastmile_qr_scan", "android": "https://dc.lft.to/lastmile_qr_scan"}, "is_reserved": 0, "fusion_lon": 0.0, "fusion_lat": 0.0, "lon": -76.96527533333334, "name": "c700877b48129f5c6520c9fcc71b7a3b"}, {"bike_id": "bb4200be24eccb80db9672ed211ff82b", "type": "electric_scooter", "is_disabled": 0, "lat": 38.939558, "rental_uris": {"ios": "https://dc.lft.to/lastmile_qr_scan", "android": "https://dc.lft.to/lastmile_qr_scan"}, "is_reserved": 0, "fusion_lon": 0.0, "fusion_lat": 0.0, "lon": -77.06070766666667, "name": "bb4200be24eccb80db9672ed211ff82b"}, {"bike_id": "4f841d4cdfd6fac4e0e05328e3d92460", "type": "electric_scooter", "is_disabled": 0, "lat": 38.8766225, "rental_uris": {"ios": "https://dc.lft.to/lastmile_qr_scan", "android": "https://dc.lft.to/lastmile_qr_scan"}, "is_reserved": 0, "fusion_lon": 0.0, "fusion_lat": 0.0, "lon": -77.00815566666667, "name": "4f841d4cdfd6fac4e0e05328e3d92460"}, {"bike_id": "a3a27483ae5c98d583007b285b65ded1", "type": "electric_scooter", "is_disabled": 0, "lat": 38.917206166666666, "rental_uris": {"ios": "https://dc.lft.to/lastmile_qr_scan", "android": "https://dc.lft.to/lastmile_qr_scan"}, "is_reserved": 0, "fusion_lon": 0.0, "fusion_lat": 0.0, "lon": -77.019028, "name": "a3a27483ae5c98d583007b285b65ded1"}, {"bike_id": "58b32bac47dac57adb4717193713c19b", "type": "electric_scooter", "is_disabled": 0, "lat": 38.90204966666667, "rental_uris": {"ios": "https://dc.lft.to/lastmile_qr_scan", "android": "https://dc.lft.to/lastmile_qr_scan"}, "is_reserved": 0, "fusion_lon": 0.0, "fusion_lat": 0.0, "lon": -77.02099183333333, "name": "58b32bac47dac57adb4717193713c19b"}, {"bike_id": "956670eeb18277c8c4ea560082e0102e", "type": "electric_scooter", "is_disabled": 0, "lat": 38.87444883333333, "rental_uris": {"ios": "https://dc.lft.to/lastmile_qr_scan", "android": "https://dc.lft.to/lastmile_qr_scan"}, "is_reserved": 0, "fusion_lon": 0.0, "fusion_lat": 0.0, "lon": -77.00931416666667, "name": "956670eeb18277c8c4ea560082e0102e"}, {"bike_id": "8131f143dd012763415df9169ab85822", "type": "electric_scooter", "is_disabled": 0, "lat": 38.94015616666667, "rental_uris": {"ios": "https://dc.lft.to/lastmile_qr_scan", "android": "https://dc.lft.to/lastmile_qr_scan"}, "is_reserved": 0, "fusion_lon": 0.0, "fusion_lat": 0.0, "lon": -77.02635216666667, "name": "8131f143dd012763415df9169ab85822"}, {"bike_id": "d0f1a5c48ad0ea09b0b19acaeed984b7", "type": "electric_scooter", "is_disabled": 0, "lat": 38.920705, "rental_uris": {"ios": "https://dc.lft.to/lastmile_qr_scan", "android": "https://dc.lft.to/lastmile_qr_scan"}, "is_reserved": 0, "fusion_lon": 0.0, "fusion_lat": 0.0, "lon": -77.02242966666667, "name": "d0f1a5c48ad0ea09b0b19acaeed984b7"}, {"bike_id": "0645e97245f3e2fd129d9020f0290726", "type": "electric_scooter", "is_disabled": 0, "lat": 38.897301666666664, "rental_uris": {"ios": "https://dc.lft.to/lastmile_qr_scan", "android": "https://dc.lft.to/lastmile_qr_scan"}, "is_reserved": 0, "fusion_lon": 0.0, "fusion_lat": 0.0, "lon": -77.02459683333333, "name": "0645e97245f3e2fd129d9020f0290726"}, {"bike_id": "ce6911f5d64e15cff1ddfa00c059139e", "type": "electric_scooter", "is_disabled": 0, "lat": 38.892912833333334, "rental_uris": {"ios": "https://dc.lft.to/lastmile_qr_scan", "android": "https://dc.lft.to/lastmile_qr_scan"}, "is_reserved": 0, "fusion_lon": 0.0, "fusion_lat": 0.0, "lon": -77.04488533333334, "name": "ce6911f5d64e15cff1ddfa00c059139e"}, {"bike_id": "bf5b4633e4035a8d119af842d18b75c6", "type": "electric_scooter", "is_disabled": 0, "lat": 38.93335883333334, "rental_uris": {"ios": "https://dc.lft.to/lastmile_qr_scan", "android": "https://dc.lft.to/lastmile_qr_scan"}, "is_reserved": 0, "fusion_lon": 0.0, "fusion_lat": 0.0, "lon": -77.03987383333333, "name": "bf5b4633e4035a8d119af842d18b75c6"}, {"bike_id": "ce61b2e89db51e97fbc3b45ca462cbc7", "type": "electric_scooter", "is_disabled": 0, "lat": 38.9117695, "rental_uris": {"ios": "https://dc.lft.to/lastmile_qr_scan", "android": "https://dc.lft.to/lastmile_qr_scan"}, "is_reserved": 0, "fusion_lon": 0.0, "fusion_lat": 0.0, "lon": -77.03210783333333, "name": "ce61b2e89db51e97fbc3b45ca462cbc7"}, {"bike_id": "ab9d54888af087f991015f2de89cde8c", "type": "electric_scooter", "is_disabled": 0, "lat": 38.8971605, "rental_uris": {"ios": "https://dc.lft.to/lastmile_qr_scan", "android": "https://dc.lft.to/lastmile_qr_scan"}, "is_reserved": 0, "fusion_lon": 0.0, "fusion_lat": 0.0, "lon": -77.00752283333334, "name": "ab9d54888af087f991015f2de89cde8c"}, {"bike_id": "556596cc2955447017b16f89a452eab1", "type": "electric_scooter", "is_disabled": 0, "lat": 38.9184255, "rental_uris": {"ios": "https://dc.lft.to/lastmile_qr_scan", "android": "https://dc.lft.to/lastmile_qr_scan"}, "is_reserved": 0, "fusion_lon": 0.0, "fusion_lat": 0.0, "lon": -76.96560416666667, "name": "556596cc2955447017b16f89a452eab1"}, {"bike_id": "851483bd35ea1ab738b2e8e73cb37522", "type": "electric_scooter", "is_disabled": 0, "lat": 38.942891833333334, "rental_uris": {"ios": "https://dc.lft.to/lastmile_qr_scan", "android": "https://dc.lft.to/lastmile_qr_scan"}, "is_reserved": 0, "fusion_lon": 0.0, "fusion_lat": 0.0, "lon": -77.0217565, "name": "851483bd35ea1ab738b2e8e73cb37522"}, {"bike_id": "e72c87a6b5715bd5e43913e19f1368da", "type": "electric_scooter", "is_disabled": 0, "lat": 38.922298166666664, "rental_uris": {"ios": "https://dc.lft.to/lastmile_qr_scan", "android": "https://dc.lft.to/lastmile_qr_scan"}, "is_reserved": 0, "fusion_lon": 0.0, "fusion_lat": 0.0, "lon": -77.04271816666666, "name": "e72c87a6b5715bd5e43913e19f1368da"}, {"bike_id": "107488feb3eb14f7df8ae586c836a226", "type": "electric_scooter", "is_disabled": 0, "lat": 38.91703016666666, "rental_uris": {"ios": "https://dc.lft.to/lastmile_qr_scan", "android": "https://dc.lft.to/lastmile_qr_scan"}, "is_reserved": 0, "fusion_lon": 0.0, "fusion_lat": 0.0, "lon": -77.0241815, "name": "107488feb3eb14f7df8ae586c836a226"}, {"bike_id": "a0ff2ff7b5bf5c0737023b28b01f90a1", "type": "electric_scooter", "is_disabled": 0, "lat": 38.920159, "rental_uris": {"ios": "https://dc.lft.to/lastmile_qr_scan", "android": "https://dc.lft.to/lastmile_qr_scan"}, "is_reserved": 0, "fusion_lon": 0.0, "fusion_lat": 0.0, "lon": -77.013238, "name": "a0ff2ff7b5bf5c0737023b28b01f90a1"}, {"bike_id": "224208e1e3a6cf7936b6e73326a6343b", "type": "electric_scooter", "is_disabled": 0, "lat": 38.9016495, "rental_uris": {"ios": "https://dc.lft.to/lastmile_qr_scan", "android": "https://dc.lft.to/lastmile_qr_scan"}, "is_reserved": 0, "fusion_lon": 0.0, "fusion_lat": 0.0, "lon": -77.03202416666667, "name": "224208e1e3a6cf7936b6e73326a6343b"}, {"bike_id": "b534711544f0f4ac2228e7c434474ad8", "type": "electric_scooter", "is_disabled": 0, "lat": 38.916278, "rental_uris": {"ios": "https://dc.lft.to/lastmile_qr_scan", "android": "https://dc.lft.to/lastmile_qr_scan"}, "is_reserved": 0, "fusion_lon": 0.0, "fusion_lat": 0.0, "lon": -77.03047316666667, "name": "b534711544f0f4ac2228e7c434474ad8"}, {"bike_id": "b084ccf5a6fbebaa7bc2473d823a216e", "type": "electric_scooter", "is_disabled": 0, "lat": 38.9324955, "rental_uris": {"ios": "https://dc.lft.to/lastmile_qr_scan", "android": "https://dc.lft.to/lastmile_qr_scan"}, "is_reserved": 0, "fusion_lon": 0.0, "fusion_lat": 0.0, "lon": -77.027315, "name": "b084ccf5a6fbebaa7bc2473d823a216e"}, {"bike_id": "972c1cf33f899ebf33e0704f358eff2d", "type": "electric_scooter", "is_disabled": 0, "lat": 38.914076, "rental_uris": {"ios": "https://dc.lft.to/lastmile_qr_scan", "android": "https://dc.lft.to/lastmile_qr_scan"}, "is_reserved": 0, "fusion_lon": 0.0, "fusion_lat": 0.0, "lon": -77.04, "name": "972c1cf33f899ebf33e0704f358eff2d"}, {"bike_id": "82330215acf9f9997e6bba1241093f1c", "type": "electric_scooter", "is_disabled": 0, "lat": 38.91997083333333, "rental_uris": {"ios": "https://dc.lft.to/lastmile_qr_scan", "android": "https://dc.lft.to/lastmile_qr_scan"}, "is_reserved": 0, "fusion_lon": 0.0, "fusion_lat": 0.0, "lon": -77.024698, "name": "82330215acf9f9997e6bba1241093f1c"}, {"bike_id": "df548c05b2a0059b17888bd60247c37d", "type": "electric_scooter", "is_disabled": 0, "lat": 38.88434766666666, "rental_uris": {"ios": "https://dc.lft.to/lastmile_qr_scan", "android": "https://dc.lft.to/lastmile_qr_scan"}, "is_reserved": 0, "fusion_lon": 0.0, "fusion_lat": 0.0, "lon": -77.0300585, "name": "df548c05b2a0059b17888bd60247c37d"}, {"bike_id": "b57f1e4dd8c9e34e1813c651eed9bd89", "type": "electric_scooter", "is_disabled": 0, "lat": 38.92331566666667, "rental_uris": {"ios": "https://dc.lft.to/lastmile_qr_scan", "android": "https://dc.lft.to/lastmile_qr_scan"}, "is_reserved": 0, "fusion_lon": 0.0, "fusion_lat": 0.0, "lon": -77.02301916666667, "name": "b57f1e4dd8c9e34e1813c651eed9bd89"}, {"bike_id": "274b6dbe1c2ac344e25fa02f40d69e2b", "type": "electric_scooter", "is_disabled": 0, "lat": 38.91420183333334, "rental_uris": {"ios": "https://dc.lft.to/lastmile_qr_scan", "android": "https://dc.lft.to/lastmile_qr_scan"}, "is_reserved": 0, "fusion_lon": 0.0, "fusion_lat": 0.0, "lon": -77.01986883333333, "name": "274b6dbe1c2ac344e25fa02f40d69e2b"}, {"bike_id": "687119999f7a2ff706b5d218db0843eb", "type": "electric_scooter", "is_disabled": 0, "lat": 38.92231483333333, "rental_uris": {"ios": "https://dc.lft.to/lastmile_qr_scan", "android": "https://dc.lft.to/lastmile_qr_scan"}, "is_reserved": 0, "fusion_lon": 0.0, "fusion_lat": 0.0, "lon": -77.042493, "name": "687119999f7a2ff706b5d218db0843eb"}, {"bike_id": "5610ae08dc52a3f31b5183bb48fad4bc", "type": "electric_scooter", "is_disabled": 0, "lat": 38.915626, "rental_uris": {"ios": "https://dc.lft.to/lastmile_qr_scan", "android": "https://dc.lft.to/lastmile_qr_scan"}, "is_reserved": 0, "fusion_lon": 0.0, "fusion_lat": 0.0, "lon": -77.02023333333334, "name": "5610ae08dc52a3f31b5183bb48fad4bc"}, {"bike_id": "bb1024544847dd306fb36e4fa40436b0", "type": "electric_scooter", "is_disabled": 0, "lat": 38.8853675, "rental_uris": {"ios": "https://dc.lft.to/lastmile_qr_scan", "android": "https://dc.lft.to/lastmile_qr_scan"}, "is_reserved": 0, "fusion_lon": 0.0, "fusion_lat": 0.0, "lon": -76.998367, "name": "bb1024544847dd306fb36e4fa40436b0"}, {"bike_id": "4b0acda74256bf917f418ee3873b23a9", "type": "electric_scooter", "is_disabled": 0, "lat": 38.9207005, "rental_uris": {"ios": "https://dc.lft.to/lastmile_qr_scan", "android": "https://dc.lft.to/lastmile_qr_scan"}, "is_reserved": 0, "fusion_lon": 0.0, "fusion_lat": 0.0, "lon": -77.04198116666667, "name": "4b0acda74256bf917f418ee3873b23a9"}, {"bike_id": "200865ceeb4079227c9e241340f6598d", "type": "electric_scooter", "is_disabled": 0, "lat": 38.931980833333334, "rental_uris": {"ios": "https://dc.lft.to/lastmile_qr_scan", "android": "https://dc.lft.to/lastmile_qr_scan"}, "is_reserved": 0, "fusion_lon": 0.0, "fusion_lat": 0.0, "lon": -77.02391533333333, "name": "200865ceeb4079227c9e241340f6598d"}, {"bike_id": "a5613f18a2475e3350fb9df6426beca0", "type": "electric_scooter", "is_disabled": 0, "lat": 38.90819416666667, "rental_uris": {"ios": "https://dc.lft.to/lastmile_qr_scan", "android": "https://dc.lft.to/lastmile_qr_scan"}, "is_reserved": 0, "fusion_lon": 0.0, "fusion_lat": 0.0, "lon": -76.99710683333333, "name": "a5613f18a2475e3350fb9df6426beca0"}, {"bike_id": "8ebdfe4a73f8eebed9172a8638b6f627", "type": "electric_scooter", "is_disabled": 0, "lat": 38.917664333333335, "rental_uris": {"ios": "https://dc.lft.to/lastmile_qr_scan", "android": "https://dc.lft.to/lastmile_qr_scan"}, "is_reserved": 0, "fusion_lon": 0.0, "fusion_lat": 0.0, "lon": -77.02964916666667, "name": "8ebdfe4a73f8eebed9172a8638b6f627"}, {"bike_id": "d3c0a18c6f6c9b8be03a53465b42f948", "type": "electric_scooter", "is_disabled": 0, "lat": 38.9232795, "rental_uris": {"ios": "https://dc.lft.to/lastmile_qr_scan", "android": "https://dc.lft.to/lastmile_qr_scan"}, "is_reserved": 0, "fusion_lon": 0.0, "fusion_lat": 0.0, "lon": -77.046226, "name": "d3c0a18c6f6c9b8be03a53465b42f948"}, {"bike_id": "7af9e6661a00625723dd058b974aece7", "type": "electric_scooter", "is_disabled": 0, "lat": 38.89836433333333, "rental_uris": {"ios": "https://dc.lft.to/lastmile_qr_scan", "android": "https://dc.lft.to/lastmile_qr_scan"}, "is_reserved": 0, "fusion_lon": 0.0, "fusion_lat": 0.0, "lon": -77.02780816666667, "name": "7af9e6661a00625723dd058b974aece7"}, {"bike_id": "25fff62a53a02cfc27f943a6d09b2d86", "type": "electric_bike", "is_disabled": 0, "lat": 39.01367333333334, "rental_uris": {"ios": "https://dc.lft.to/lastmile_qr_scan", "android": "https://dc.lft.to/lastmile_qr_scan"}, "is_reserved": 0, "fusion_lon": 0.0, "fusion_lat": 0.0, "lon": -76.92139333333333, "name": "25fff62a53a02cfc27f943a6d09b2d86"}, {"bike_id": "d2c25dc24572fab18e4f89bed173c098", "type": "electric_scooter", "is_disabled": 0, "lat": 38.95648516666667, "rental_uris": {"ios": "https://dc.lft.to/lastmile_qr_scan", "android": "https://dc.lft.to/lastmile_qr_scan"}, "is_reserved": 0, "fusion_lon": 0.0, "fusion_lat": 0.0, "lon": -77.024011, "name": "d2c25dc24572fab18e4f89bed173c098"}, {"bike_id": "d2fd8f3e9ec1e0e83b23c7dbac59b0cf", "type": "electric_scooter", "is_disabled": 0, "lat": 38.908934333333335, "rental_uris": {"ios": "https://dc.lft.to/lastmile_qr_scan", "android": "https://dc.lft.to/lastmile_qr_scan"}, "is_reserved": 0, "fusion_lon": 0.0, "fusion_lat": 0.0, "lon": -77.02296683333333, "name": "d2fd8f3e9ec1e0e83b23c7dbac59b0cf"}, {"bike_id": "225d69c6ef7520a0e9fde8daa32f39f2", "type": "electric_scooter", "is_disabled": 0, "lat": 38.923133, "rental_uris": {"ios": "https://dc.lft.to/lastmile_qr_scan", "android": "https://dc.lft.to/lastmile_qr_scan"}, "is_reserved": 0, "fusion_lon": 0.0, "fusion_lat": 0.0, "lon": -77.04319133333334, "name": "225d69c6ef7520a0e9fde8daa32f39f2"}, {"bike_id": "c42df06a374dd6e916fe239ba81cc123", "type": "electric_scooter", "is_disabled": 0, "lat": 38.916656333333336, "rental_uris": {"ios": "https://dc.lft.to/lastmile_qr_scan", "android": "https://dc.lft.to/lastmile_qr_scan"}, "is_reserved": 0, "fusion_lon": 0.0, "fusion_lat": 0.0, "lon": -77.03199116666667, "name": "c42df06a374dd6e916fe239ba81cc123"}, {"bike_id": "8d89e024636ca26f618cd9d42f6c44ea", "type": "electric_scooter", "is_disabled": 0, "lat": 38.898893666666666, "rental_uris": {"ios": "https://dc.lft.to/lastmile_qr_scan", "android": "https://dc.lft.to/lastmile_qr_scan"}, "is_reserved": 0, "fusion_lon": 0.0, "fusion_lat": 0.0, "lon": -76.97685683333333, "name": "8d89e024636ca26f618cd9d42f6c44ea"}, {"bike_id": "0a626653d09502cf109148567adf0f1e", "type": "electric_scooter", "is_disabled": 0, "lat": 38.921975833333335, "rental_uris": {"ios": "https://dc.lft.to/lastmile_qr_scan", "android": "https://dc.lft.to/lastmile_qr_scan"}, "is_reserved": 0, "fusion_lon": 0.0, "fusion_lat": 0.0, "lon": -77.02030316666666, "name": "0a626653d09502cf109148567adf0f1e"}, {"bike_id": "81a7363b1079ed624f4d379ced04d9ab", "type": "electric_scooter", "is_disabled": 0, "lat": 38.9145665, "rental_uris": {"ios": "https://dc.lft.to/lastmile_qr_scan", "android": "https://dc.lft.to/lastmile_qr_scan"}, "is_reserved": 0, "fusion_lon": 0.0, "fusion_lat": 0.0, "lon": -77.07106933333333, "name": "81a7363b1079ed624f4d379ced04d9ab"}, {"bike_id": "890f09a97fa98ca4ec0e600605c2d27c", "type": "electric_bike", "is_disabled": 0, "lat": 38.81936616666667, "rental_uris": {"ios": "https://dc.lft.to/lastmile_qr_scan", "android": "https://dc.lft.to/lastmile_qr_scan"}, "is_reserved": 0, "fusion_lon": 0.0, "fusion_lat": 0.0, "lon": -77.00203816666667, "name": "890f09a97fa98ca4ec0e600605c2d27c"}, {"bike_id": "982937817d7baef724e49decc539f66b", "type": "electric_scooter", "is_disabled": 0, "lat": 38.904939166666665, "rental_uris": {"ios": "https://dc.lft.to/lastmile_qr_scan", "android": "https://dc.lft.to/lastmile_qr_scan"}, "is_reserved": 0, "fusion_lon": 0.0, "fusion_lat": 0.0, "lon": -77.04114716666666, "name": "982937817d7baef724e49decc539f66b"}, {"bike_id": "236db6bd755d1ca0d4b2a585c0730956", "type": "electric_scooter", "is_disabled": 0, "lat": 38.89753566666667, "rental_uris": {"ios": "https://dc.lft.to/lastmile_qr_scan", "android": "https://dc.lft.to/lastmile_qr_scan"}, "is_reserved": 0, "fusion_lon": 0.0, "fusion_lat": 0.0, "lon": -77.02772716666666, "name": "236db6bd755d1ca0d4b2a585c0730956"},