{"data": {"bikes": [{"is_disabled": 0, "is_reserved": 0, "fusion_lat": 0.0, "lat": 38.88102816666667, "fusion_lon": 0.0, "rental_uris": {"ios": "https://dc.lft.to/lastmile_qr_scan", "android": "https://dc.lft.to/lastmile_qr_scan"}, "lon": -77.01236516666667, "bike_id": "89cf4acaab8d9f9a897741e90473ee04", "type": "electric_scooter", "name": "89cf4acaab8d9f9a897741e90473ee04"}, {"is_disabled": 0, "is_reserved": 0, "fusion_lat": 0.0, "lat": 38.88523166666667, "fusion_lon": 0.0, "rental_uris": {"ios": "https://dc.lft.to/lastmile_qr_scan", "android": "https://dc.lft.to/lastmile_qr_scan"}, "lon": -76.99616216666666, "bike_id": "012ad2e6e29e913fc8c928a7f6a7d50e", "type": "electric_scooter", "name": "012ad2e6e29e913fc8c928a7f6a7d50e"}, {"is_disabled": 0, "is_reserved": 0, "fusion_lat": 0.0, "lat": 39.0053475, "fusion_lon": 0.0, "rental_uris": {"ios": "https://dc.lft.to/lastmile_qr_scan", "android": "https://dc.lft.to/lastmile_qr_scan"}, "lon": -77.10401, "bike_id": "8fb36c0f222eaff46c9231feab8f8c32", "type": "electric_bike", "name": "8fb36c0f222eaff46c9231feab8f8c32"}, {"is_disabled": 0, "is_reserved": 0, "fusion_lat": 0.0, "lat": 38.92249616666667, "fusion_lon": 0.0, "rental_uris": {"ios": "https://dc.lft.to/lastmile_qr_scan", "android": "https://dc.lft.to/lastmile_qr_scan"}, "lon": -77.03078683333334, "bike_id": "6824907b0f0b2949cccdc9eb96e0d07d", "type": "electric_scooter", "name": "6824907b0f0b2949cccdc9eb96e0d07d"}, {"is_disabled": 0, "is_reserved": 0, "fusion_lat": 0.0, "lat": 38.907041666666665, "fusion_lon": 0.0, "rental_uris": {"ios": "https://dc.lft.to/lastmile_qr_scan", "android": "https://dc.lft.to/lastmile_qr_scan"}, "lon": -77.04667166666667, "bike_id": "3b0c67a7b4be47e0ac194d39c2a243a3", "type": "electric_scooter", "name": "3b0c67a7b4be47e0ac194d39c2a243a3"}, {"is_disabled": 0, "is_reserved": 0, "fusion_lat": 0.0, "lat": 38.91578766666667, "fusion_lon": 0.0, "rental_uris": {"ios": "https://dc.lft.to/lastmile_qr_scan", "android": "https://dc.lft.to/lastmile_qr_scan"}, "lon": -77.03660566666667, "bike_id": "843e714f84773450ec668f32912a1665", "type": "electric_scooter", "name": "843e714f84773450ec668f32912a1665"}, {"is_disabled": 0, "is_reserved": 0, "fusion_lat": 0.0, "lat": 38.965585, "fusion_lon": 0.0, "rental_uris": {"ios": "https://dc.lft.to/lastmile_qr_scan", "android": "https://dc.lft.to/lastmile_qr_scan"}, "lon": -77.02816066666666, "bike_id": "cf411a2729e28349cbc47844faffa1f2", "type": "electric_bike", "name": "cf411a2729e28349cbc47844faffa1f2"}, {"is_disabled": 0, "is_reserved": 0, "fusion_lat": 0.0, "lat": 38.973724, "fusion_lon": 0.0, "rental_uris": {"ios": "https://dc.lft.to/lastmile_qr_scan", "android": "https://dc.lft.to/lastmile_qr_scan"}, "lon": -77.018672, "bike_id": "2f43edfd07e335ce1f3418aaf74720bc", "type": "electric_scooter", "name": "2f43edfd07e335ce1f3418aaf74720bc"}, {"is_disabled": 0, "is_reserved": 0, "fusion_lat": 0.0, "lat": 38.917102166666666, "fusion_lon": 0.0, "rental_uris": {"ios": "https://dc.lft.to/lastmile_qr_scan", "android": "https://dc.lft.to/lastmile_qr_scan"}, "lon": -77.03856633333334, "bike_id": "6a3d7af1e6bfbd8945f3624e93813c10", "type": "electric_scooter", "name": "6a3d7af1e6bfbd8945f3624e93813c10"}, {"is_disabled": 0, "is_reserved": 0, "fusion_lat": 0.0, "lat": 38.879638666666665, "fusion_lon": 0.0, "rental_uris": {"ios": "https://dc.lft.to/lastmile_qr_scan", "android": "https://dc.lft.to/lastmile_qr_scan"}, "lon": -77.005855, "bike_id": "cdf448e7cf471de79b840d56a0502326", "type": "electric_scooter", "name": "cdf448e7cf471de79b840d56a0502326"}, {"is_disabled": 0, "is_reserved": 0, "fusion_lat": 0.0, "lat": 38.92094316666667, "fusion_lon": 0.0, "rental_uris": {"ios": "https://dc.lft.to/lastmile_qr_scan", "android": "https://dc.lft.to/lastmile_qr_scan"}, "lon": -77.01795016666667, "bike_id": "30daad312b9df074ef14a63396fa68e7", "type": "electric_scooter", "name": "30daad312b9df074ef14a63396fa68e7"}, {"is_disabled": 0, "is_reserved": 0, "fusion_lat": 0.0, "lat": 38.879494333333334, "fusion_lon": 0.0, "rental_uris": {"ios": "https://dc.lft.to/lastmile_qr_scan", "android": "https://dc.lft.to/lastmile_qr_scan"}, "lon": -77.0079815, "bike_id": "1c67db6c13e003f9dc7a3bf8d702fecf", "type": "electric_scooter", "name": "1c67db6c13e003f9dc7a3bf8d702fecf"}, {"is_disabled": 0, "is_reserved": 0, "fusion_lat": 0.0, "lat": 38.9283715, "fusion_lon": 0.0, "rental_uris": {"ios": "https://dc.lft.to/lastmile_qr_scan", "android": "https://dc.lft.to/lastmile_qr_scan"}, "lon": -77.03728883333333, "bike_id": "240322535019d444b6ee093616b6ccad", "type": "electric_scooter", "name": "240322535019d444b6ee093616b6ccad"}, {"is_disabled": 0, "is_reserved": 0, "fusion_lat": 0.0, "lat": 38.911337, "fusion_lon": 0.0, "rental_uris": {"ios": "https://dc.lft.to/lastmile_qr_scan", "android": "https://dc.lft.to/lastmile_qr_scan"}, "lon": -77.02202316666667, "bike_id": "6067252d2e21c7447f87a7d7653ec62c", "type": "electric_scooter", "name": "6067252d2e21c7447f87a7d7653ec62c"}, {"is_disabled": 0, "is_reserved": 0, "fusion_lat": 0.0, "lat": 38.95081733333333, "fusion_lon": 0.0, "rental_uris": {"ios": "https://dc.lft.to/lastmile_qr_scan", "android": "https://dc.lft.to/lastmile_qr_scan"}, "lon": -77.01204483333333, "bike_id": "a1fe0b75964e2538816f085d74114a74", "type": "electric_bike", "name": "a1fe0b75964e2538816f085d74114a74"}, {"is_disabled": 0, "is_reserved": 0, "fusion_lat": 0.0, "lat": 38.8485815, "fusion_lon": 0.0, "rental_uris": {"ios": "https://dc.lft.to/lastmile_qr_scan", "android": "https://dc.lft.to/lastmile_qr_scan"}, "lon": -77.06830466666666, "bike_id": "24d9faba3686bb54a649f74855192c1b", "type": "electric_bike", "name": "24d9faba3686bb54a649f74855192c1b"}, {"is_disabled": 0, "is_reserved": 0, "fusion_lat": 0.0, "lat": 38.927623833333335, "fusion_lon": 0.0, "rental_uris": {"ios": "https://dc.lft.to/lastmile_qr_scan", "android": "https://dc.lft.to/lastmile_qr_scan"}, "lon": -77.02894516666667, "bike_id": "d9bf740811f68f6a1c26cd7cf53edfa6", "type": "electric_scooter", "name": "d9bf740811f68f6a1c26cd7cf53edfa6"}, {"is_disabled": 0, "is_reserved": 0, "fusion_lat": 0.0, "lat": 38.897423, "fusion_lon": 0.0, "rental_uris": {"ios": "https://dc.lft.to/lastmile_qr_scan", "android": "https://dc.lft.to/lastmile_qr_scan"}, "lon": -76.99217616666667, "bike_id": "54055ad32381eedbbeb55eb8ffeb1dbb", "type": "electric_bike", "name": "54055ad32381eedbbeb55eb8ffeb1dbb"}, {"is_disabled": 0, "is_reserved": 0, "fusion_lat": 0.0, "lat": 38.929074666666665, "fusion_lon": 0.0, "rental_uris": {"ios": "https://dc.lft.to/lastmile_qr_scan", "android": "https://dc.lft.to/lastmile_qr_scan"}, "lon": -77.03274833333333, "bike_id": "38a0113542579bdb5d9beffa4f9b905e", "type": "electric_scooter", "name": "38a0113542579bdb5d9beffa4f9b905e"}, {"is_disabled": 0, "is_reserved": 0, "fusion_lat": 0.0, "lat": 38.876766333333336, "fusion_lon": 0.0, "rental_uris": {"ios": "https://dc.lft.to/lastmile_qr_scan", "android": "https://dc.lft.to/lastmile_qr_scan"}, "lon": -77.0145045, "bike_id": "2c0778ec8ea0dc70fae80bdf02a6280e", "type": "electric_bike", "name": "2c0778ec8ea0dc70fae80bdf02a6280e"}, {"is_disabled": 0, "is_reserved": 0, "fusion_lat": 0.0, "lat": 38.91563816666667, "fusion_lon": 0.0, "rental_uris": {"ios": "https://dc.lft.to/lastmile_qr_scan", "android": "https://dc.lft.to/lastmile_qr_scan"}, "lon": -77.0318125, "bike_id": "413747e0f19fc4dec003826db743cb38", "type": "electric_scooter", "name": "413747e0f19fc4dec003826db743cb38"}, {"is_disabled": 0, "is_reserved": 0, "fusion_lat": 0.0, "lat": 38.9358765, "fusion_lon": 0.0, "rental_uris": {"ios": "https://dc.lft.to/lastmile_qr_scan", "android": "https://dc.lft.to/lastmile_qr_scan"}, "lon": -77.02853533333334, "bike_id": "1f61dbf694d94f118f454cd48704e23a", "type": "electric_scooter", "name": "1f61dbf694d94f118f454cd48704e23a"}, {"is_disabled": 0, "is_reserved": 0, "fusion_lat": 0.0, "lat": 38.919572333333335, "fusion_lon": 0.0, "rental_uris": {"ios": "https://dc.lft.to/lastmile_qr_scan", "android": "https://dc.lft.to/lastmile_qr_scan"}, "lon": -77.07872616666667, "bike_id": "11fb4182fae1275a409e47d1cf2f5733", "type": "electric_scooter", "name": "11fb4182fae1275a409e47d1cf2f5733"}, {"is_disabled": 0, "is_reserved": 0, "fusion_lat": 0.0, "lat": 38.897191, "fusion_lon": 0.0, "rental_uris": {"ios": "https://dc.lft.to/lastmile_qr_scan", "android": "https://dc.lft.to/lastmile_qr_scan"}, "lon": -77.02800466666666, "bike_id": "9529f44531193310776a7b057483961d", "type": "electric_scooter", "name": "9529f44531193310776a7b057483961d"}, {"is_disabled": 0, "is_reserved": 0, "fusion_lat": 0.0, "lat": 38.90752966666667, "fusion_lon": 0.0, "rental_uris": {"ios": "https://dc.lft.to/lastmile_qr_scan", "android": "https://dc.lft.to/lastmile_qr_scan"}, "lon": -77.0012635, "bike_id": "d9c0e11f941b171a2c15a55867a5157d", "type": "electric_scooter", "name": "d9c0e11f941b171a2c15a55867a5157d"}, {"is_disabled": 0, "is_reserved": 0, "fusion_lat": 0.0, "lat": 38.94749383333333, "fusion_lon": 0.0, "rental_uris": {"ios": "https://dc.lft.to/lastmile_qr_scan", "android": "https://dc.lft.to/lastmile_qr_scan"}, "lon": -77.023559, "bike_id": "8303a4a137b365a313052d62ad054e0c", "type": "electric_scooter", "name": "8303a4a137b365a313052d62ad054e0c"}, {"is_disabled": 0, "is_reserved": 0, "fusion_lat": 0.0, "lat": 38.91821516666667, "fusion_lon": 0.0, "rental_uris": {"ios": "https://dc.lft.to/lastmile_qr_scan", "android": "https://dc.lft.to/lastmile_qr_scan"}, "lon": -77.0253175, "bike_id": "2af42700cae9be7acaa2c74ac0745327", "type": "electric_scooter", "name": "2af42700cae9be7acaa2c74ac0745327"}, {"is_disabled": 0, "is_reserved": 0, "fusion_lat": 0.0, "lat": 39.07468316666667, "fusion_lon": 0.0, "rental_uris": {"ios": "https://dc.lft.to/lastmile_qr_scan", "android": "https://dc.lft.to/lastmile_qr_scan"}, "lon": -77.11524666666666, "bike_id": "0d67f4a78dd51c2c579c841b25255a8b", "type": "electric_bike", "name": "0d67f4a78dd51c2c579c841b25255a8b"}, {"is_disabled": 0, "is_reserved": 0, "fusion_lat": 0.0, "lat": 38.936296, "fusion_lon": 0.0, "rental_uris": {"ios": "https://dc.lft.to/lastmile_qr_scan", "android": "https://dc.lft.to/lastmile_qr_scan"}, "lon": -77.03659766666667, "bike_id": "92f9a450f6847c04e15d157f31e4f6b5", "type": "electric_scooter", "name": "92f9a450f6847c04e15d157f31e4f6b5"}, {"is_disabled": 0, "is_reserved": 0, "fusion_lat": 0.0, "lat": 38.855928666666664, "fusion_lon": 0.0, "rental_uris": {"ios": "https://dc.lft.to/lastmile_qr_scan", "android": "https://dc.lft.to/lastmile_qr_scan"}, "lon": -76.97282183333333, "bike_id": "c2479db3752ecf121d5d4cee74bf5bba", "type": "electric_bike", "name": "c2479db3752ecf121d5d4cee74bf5bba"}, {"is_disabled": 0, "is_reserved": 0, "fusion_lat": 0.0, "lat": 38.929948833333334, "fusion_lon": 0.0, "rental_uris": {"ios": "https://dc.lft.to/lastmile_qr_scan", "android": "https://dc.lft.to/lastmile_qr_scan"}, "lon": -77.02214366666666, "bike_id": "0895249f99bed73b8052cad82b6678ae", "type": "electric_scooter", "name": "0895249f99bed73b8052cad82b6678ae"}, {"is_disabled": 0, "is_reserved": 0, "fusion_lat": 0.0, "lat": 38.892512833333335, "fusion_lon": 0.0, "rental_uris": {"ios": "https://dc.lft.to/lastmile_qr_scan", "android": "https://dc.lft.to/lastmile_qr_scan"}, "lon": -77.0465795, "bike_id": "201054ca90a9f2de88e4033fcde8302b", "type": "electric_scooter", "name": "201054ca90a9f2de88e4033fcde8302b"}, {"is_disabled": 0, "is_reserved": 0, "fusion_lat": 0.0, "lat": 38.804005333333336, "fusion_lon": 0.0, "rental_uris": {"ios": "https://dc.lft.to/lastmile_qr_scan", "android": "https://dc.lft.to/lastmile_qr_scan"}, "lon": -77.11323283333333, "bike_id": "053aaba552287c92c9ccae872494cbbd", "type": "electric_bike", "name": "053aaba552287c92c9ccae872494cbbd"}, {"is_disabled": 0, "is_reserved": 0, "fusion_lat": 0.0, "lat": 38.90197366666666, "fusion_lon": 0.0, "rental_uris": {"ios": "https://dc.lft.to/lastmile_qr_scan", "android": "https://dc.lft.to/lastmile_qr_scan"}, "lon": -77.02208916666666, "bike_id": "6bb93e0e5cda1fb7348abe74ad2d6fec", "type": "electric_scooter", "name": "6bb93e0e5cda1fb7348abe74ad2d6fec"}, {"is_disabled": 0, "is_reserved": 0, "fusion_lat": 0.0, "lat": 38.92107133333333, "fusion_lon": 0.0, "rental_uris": {"ios": "https://dc.lft.to/lastmile_qr_scan", "android": "https://dc.lft.to/lastmile_qr_scan"}, "lon": -77.046971, "bike_id": "2dc0d793ab38f786957724d19093f0be", "type": "electric_scooter", "name": "2dc0d793ab38f786957724d19093f0be"}, {"is_disabled": 0, "is_reserved": 0, "fusion_lat": 0.0, "lat": 38.907932333333335, "fusion_lon": 0.0, "rental_uris": {"ios": "https://dc.lft.to/lastmile_qr_scan", "android": "https://dc.lft.to/lastmile_qr_scan"}, "lon": -77.0106705, "bike_id": "47dd460bbf0a83fc6d25bd17c4d7d1b5", "type": "electric_scooter", "name": "47dd460bbf0a83fc6d25bd17c4d7d1b5"}, {"is_disabled": 0, "is_reserved": 0, "fusion_lat": 0.0, "lat": 38.922573166666666, "fusion_lon": 0.0, "rental_uris": {"ios": "https://dc.lft.to/lastmile_qr_scan", "android": "https://dc.lft.to/lastmile_qr_scan"}, "lon": -77.03658716666666, "bike_id": "da145ca866e00e6bd80ff45638270c1b", "type": "electric_scooter", "name": "da145ca866e00e6bd80ff45638270c1b"}, {"is_disabled": 0, "is_reserved": 0, "fusion_lat": 0.0, "lat": 38.928258, "fusion_lon": 0.0, "rental_uris": {"ios": "https://dc.lft.to/lastmile_qr_scan", "android": "https://dc.lft.to/lastmile_qr_scan"}, "lon": -77.02258933333333, "bike_id": "0262f7b174f50f04d842065fc5e2714f", "type": "electric_scooter", "name": "0262f7b174f50f04d842065fc5e2714f"}, {"is_disabled": 0, "is_reserved": 0, "fusion_lat": 0.0, "lat": 38.90274433333333, "fusion_lon": 0.0, "rental_uris": {"ios": "https://dc.lft.to/lastmile_qr_scan", "android": "https://dc.lft.to/lastmile_qr_scan"}, "lon": -77.01773333333334, "bike_id": "990bef0c0c92564df40e1fe1a47939f7", "type": "electric_scooter", "name": "990bef0c0c92564df40e1fe1a47939f7"}, {"is_disabled": 0, "is_reserved": 0, "fusion_lat": 0.0, "lat": 38.92709266666667, "fusion_lon": 0.0, "rental_uris": {"ios": "https://dc.lft.to/lastmile_qr_scan", "android": "https://dc.lft.to/lastmile_qr_scan"}, "lon": -77.0382445, "bike_id": "668f9927bbf9b517d096a4408f94d046", "type": "electric_scooter", "name": "668f9927bbf9b517d096a4408f94d046"}, {"is_disabled": 0, "is_reserved": 0, "fusion_lat": 0.0, "lat": 38.983684833333335, "fusion_lon": 0.0, "rental_uris": {"ios": "https://dc.lft.to/lastmile_qr_scan", "android": "https://dc.lft.to/lastmile_qr_scan"}, "lon": -76.98848166666667, "bike_id": "50dde1e3d5b14e81746b589b29ed93bd", "type": "electric_bike", "name": "50dde1e3d5b14e81746b589b29ed93bd"}, {"is_disabled": 0, "is_reserved": 0, "fusion_lat": 0.0, "lat": 38.9575705, "fusion_lon": 0.0, "rental_uris": {"ios": "https://dc.lft.to/lastmile_qr_scan", "android": "https://dc.lft.to/lastmile_qr_scan"}, "lon": -77.0206825, "bike_id": "cf08690bafad98e47bb2822cfd161770", "type": "electric_scooter", "name": "cf08690bafad98e47bb2822cfd161770"}, {"is_disabled": 0, "is_reserved": 0, "fusion_lat": 0.0, "lat": 38.9232775, "fusion_lon": 0.0, "rental_uris": {"ios": "https://dc.lft.to/lastmile_qr_scan", "android": "https://dc.lft.to/lastmile_qr_scan"}, "lon": -77.05682666666667, "bike_id": "1f43e1a119b064ce616d01ca36f44c01", "type": "electric_scooter", "name": "1f43e1a119b064ce616d01ca36f44c01"}, {"is_disabled": 0, "is_reserved": 0, "fusion_lat": 0.0, "lat": 38.855576, "fusion_lon": 0.0, "rental_uris": {"ios": "https://dc.lft.to/lastmile_qr_scan", "android": "https://dc.lft.to/lastmile_qr_scan"}, "lon": -77.06404, "bike_id": "d299283311ae06e1fe01fcf23d3a4498", "type": "electric_bike", "name": "d299283311ae06e1fe01fcf23d3a4498"}, {"is_disabled": 0, "is_reserved": 0, "fusion_lat": 0.0, "lat": 38.91816983333333, "fusion_lon": 0.0, "rental_uris": {"ios": "https://dc.lft.to/lastmile_qr_scan", "android": "https://dc.lft.to/lastmile_qr_scan"}, "lon": -77.040112, "bike_id": "8cd9a3c803ead2c2b4ec57f2b5f730c3", "type": "electric_scooter", "name": "8cd9a3c803ead2c2b4ec57f2b5f730c3"}, {"is_disabled": 0, "is_reserved": 0, "fusion_lat": 0.0, "lat": 38.8559195, "fusion_lon": 0.0, "rental_uris": {"ios": "https://dc.lft.to/lastmile_qr_scan", "android": "https://dc.lft.to/lastmile_qr_scan"}, "lon": -76.9856895, "bike_id": "7da10dabc321f9e47bf79fea5e414aa6", "type": "electric_scooter", "name": "7da10dabc321f9e47bf79fea5e414aa6"}, {"is_disabled": 0, "is_reserved": 0, "fusion_lat": 0.0, "lat": 38.894791166666664, "fusion_lon": 0.0, "rental_uris": {"ios": "https://dc.lft.to/lastmile_qr_scan", "android": "https://dc.lft.to/lastmile_qr_scan"}, "lon": -77.04172166666666, "bike_id": "16502341d0bd1cabaef8b6cf03430033", "type": "electric_scooter", "name": "16502341d0bd1cabaef8b6cf03430033"}, {"is_disabled": 0, "is_reserved": 0, "fusion_lat": 0.0, "lat": 38.84226066666667, "fusion_lon": 0.0, "rental_uris": {"ios": "https://dc.lft.to/lastmile_qr_scan", "android": "https://dc.lft.to/lastmile_qr_scan"}, "lon": -76.94893483333334, "bike_id": "d7f280caaa315832eb95d8aa54742d86", "type": "electric_bike", "name": "d7f280caaa315832eb95d8aa54742d86"}, {"is_disabled": 0, "is_reserved": 0, "fusion_lat": 0.0, "lat": 38.91922783333333, "fusion_lon": 0.0, "rental_uris": {"ios": "https://dc.lft.to/lastmile_qr_scan", "android": "https://dc.lft.to/lastmile_qr_scan"}, "lon": -77.0342325, "bike_id": "78928071e29e200eb21ac9cf909be948", "type": "electric_scooter", "name": "78928071e29e200eb21ac9cf909be948"}, {"is_disabled": 0, "is_reserved": 0, "fusion_lat": 0.0, "lat": 38.923298, "fusion_lon": 0.0, "rental_uris": {"ios": "https://dc.lft.to/lastmile_qr_scan", "android": "https://dc.lft.to/lastmile_qr_scan"}, "lon": -77.05683316666666, "bike_id": "effea3d04d0802aa103d86ef03ccafd0", "type": "electric_scooter", "name": "effea3d04d0802aa103d86ef03ccafd0"}, {"is_disabled": 0, "is_reserved": 0, "fusion_lat": 0.0, "lat": 38.8805665, "fusion_lon": 0.0, "rental_uris": {"ios": "https://dc.lft.to/lastmile_qr_scan", "android": "https://dc.lft.to/lastmile_qr_scan"}, "lon": -77.01755466666667, "bike_id": "1ad6e67841bab71f72e8a681206ab1b4", "type": "electric_scooter", "name": "1ad6e67841bab71f72e8a681206ab1b4"}, {"is_disabled": 0, "is_reserved": 0, "fusion_lat": 0.0, "lat": 38.882477, "fusion_lon": 0.0, "rental_uris": {"ios": "https://dc.lft.to/lastmile_qr_scan", "android": "https://dc.lft.to/lastmile_qr_scan"}, "lon": -76.9626765, "bike_id": "29d12da356ff3f2b513835d289181278", "type": "electric_bike", "name": "29d12da356ff3f2b513835d289181278"}, {"is_disabled": 0, "is_reserved": 0, "fusion_lat": 0.0, "lat": 38.919984666666664, "fusion_lon": 0.0, "rental_uris": {"ios": "https://dc.lft.to/lastmile_qr_scan", "android": "https://dc.lft.to/lastmile_qr_scan"}, "lon": -77.07967116666667, "bike_id": "c2f32a5205e61d74127811e2bec9b648", "type": "electric_bike", "name": "c2f32a5205e61d74127811e2bec9b648"}, {"is_disabled": 0, "is_reserved": 0, "fusion_lat": 0.0, "lat": 38.924496833333336, "fusion_lon": 0.0, "rental_uris": {"ios": "https://dc.lft.to/lastmile_qr_scan", "android": "https://dc.lft.to/lastmile_qr_scan"}, "lon": -77.02982266666666, "bike_id": "4d8181bc82349a34398cba47c738cf28", "type": "electric_scooter", "name": "4d8181bc82349a34398cba47c738cf28"}, {"is_disabled": 0, "is_reserved": 0, "fusion_lat": 0.0, "lat": 38.9215065, "fusion_lon": 0.0, "rental_uris": {"ios": "https://dc.lft.to/lastmile_qr_scan", "android": "https://dc.lft.to/lastmile_qr_scan"}, "lon": -77.0331215, "bike_id": "6d8f719727d2f1e4d9f573a61aa88e4b", "type": "electric_scooter", "name": "6d8f719727d2f1e4d9f573a61aa88e4b"}, {"is_disabled": 0, "is_reserved": 0, "fusion_lat": 0.0, "lat": 38.928706166666665, "fusion_lon": 0.0, "rental_uris": {"ios": "https://dc.lft.to/lastmile_qr_scan", "android": "https://dc.lft.to/lastmile_qr_scan"}, "lon": -77.03443466666667, "bike_id": "ab6f0a6c971c04c47c54fcb3256b3b68", "type": "electric_scooter", "name": "ab6f0a6c971c04c47c54fcb3256b3b68"}, {"is_disabled": 0, "is_reserved": 0, "fusion_lat": 0.0, "lat": 38.880803, "fusion_lon": 0.0, "rental_uris": {"ios": "https://dc.lft.to/lastmile_qr_scan", "android": "https://dc.lft.to/lastmile_qr_scan"}, "lon": -77.03258333333333, "bike_id": "0e41d16db4c86d68869d640dd3e4d281", "type": "electric_bike", "name": "0e41d16db4c86d68869d640dd3e4d281"}, {"is_disabled": 0, "is_reserved": 0, "fusion_lat": 0.0, "lat": 38.80739166666667, "fusion_lon": 0.0, "rental_uris": {"ios": "https://dc.lft.to/lastmile_qr_scan", "android": "https://dc.lft.to/lastmile_qr_scan"}, "lon": -77.0969035, "bike_id": "b0669c38cdacbe9886f53160596d7a2a", "type": "electric_bike", "name": "b0669c38cdacbe9886f53160596d7a2a"}, {"is_disabled": 0, "is_reserved": 0, "fusion_lat": 0.0, "lat": 38.9187885, "fusion_lon": 0.0, "rental_uris": {"ios": "https://dc.lft.to/lastmile_qr_scan", "android": "https://dc.lft.to/lastmile_qr_scan"}, "lon": -77.0444705, "bike_id": "c80287fc8251c522de37e89f97d2e5c4", "type": "electric_scooter", "name": "c80287fc8251c522de37e89f97d2e5c4"}, {"is_disabled": 0, "is_reserved": 0, "fusion_lat": 0.0, "lat": 38.882010333333334, "fusion_lon": 0.0, "rental_uris": {"ios": "https://dc.lft.to/lastmile_qr_scan", "android": "https://dc.lft.to/lastmile_qr_scan"}, "lon": -77.0285515, "bike_id": "4024822ec7750478391754cc7c49cdfa", "type": "electric_scooter", "name": "4024822ec7750478391754cc7c49cdfa"}, {"is_disabled": 0, "is_reserved": 0, "fusion_lat": 0.0, "lat": 38.89196116666667, "fusion_lon": 0.0, "rental_uris": {"ios": "https://dc.lft.to/lastmile_qr_scan", "android": "https://dc.lft.to/lastmile_qr_scan"}, "lon": -77.0223125, "bike_id": "b96ccee5eb24b7771588cfcf1400ce30", "type": "electric_scooter", "name": "b96ccee5eb24b7771588cfcf1400ce30"}, {"is_disabled": 0, "is_reserved": 0, "fusion_lat": 0.0, "lat": 38.905855, "fusion_lon": 0.0, "rental_uris": {"ios": "https://dc.lft.to/lastmile_qr_scan", "android": "https://dc.lft.to/lastmile_qr_scan"}, "lon": -77.03298166666667, "bike_id": "db40eca2d1424b52ae2522d206bb966e", "type": "electric_scooter", "name": "db40eca2d1424b52ae2522d206bb966e"}, {"is_disabled": 0, "is_reserved": 0, "fusion_lat": 0.0, "lat": 38.8766195, "fusion_lon": 0.0, "rental_uris": {"ios": "https://dc.lft.to/lastmile_qr_scan", "android": "https://dc.lft.to/lastmile_qr_scan"}, "lon": -77.00084066666666, "bike_id": "81a5f9ab6b4be27add958c7c8cdc60ec", "type": "electric_scooter", "name": "81a5f9ab6b4be27add958c7c8cdc60ec"}, {"is_disabled": 0, "is_reserved": 0, "fusion_lat": 0.0, "lat": 38.879355333333336, "fusion_lon": 0.0, "rental_uris": {"ios": "https://dc.lft.to/lastmile_qr_scan", "android": "https://dc.lft.to/lastmile_qr_scan"}, "lon": -77.008224, "bike_id": "306533120e8b423e4a613fb84f11e003", "type": "electric_scooter", "name": "306533120e8b423e4a613fb84f11e003"}, {"is_disabled": 0, "is_reserved": 0, "fusion_lat": 0.0, "lat": 38.900661166666666, "fusion_lon": 0.0, "rental_uris": {"ios": "https://dc.lft.to/lastmile_qr_scan", "android": "https://dc.lft.to/lastmile_qr_scan"}, "lon": -77.00758166666667, "bike_id": "2debffb304029199b54e15e3a2c29d6c", "type": "electric_scooter", "name": "2debffb304029199b54e15e3a2c29d6c"}, {"is_disabled": 0, "is_reserved": 0, "fusion_lat": 0.0, "lat": 38.9312745, "fusion_lon": 0.0, "rental_uris": {"ios": "https://dc.lft.to/lastmile_qr_scan", "android": "https://dc.lft.to/lastmile_qr_scan"}, "lon": -77.0219645, "bike_id": "ac86beafc76728f0df983b06e1c6e52d", "type": "electric_scooter", "name": "ac86beafc76728f0df983b06e1c6e52d"}, {"is_disabled": 0, "is_reserved": 0, "fusion_lat": 0.0, "lat": 39.026452666666664, "fusion_lon": 0.0, "rental_uris": {"ios": "https://dc.lft.to/lastmile_qr_scan", "android": "https://dc.lft.to/lastmile_qr_scan"}, "lon": -77.03687116666667, "bike_id": "26b3ca9114ea03f3a40b8df3c876129c", "type": "electric_bike", "name": "26b3ca9114ea03f3a40b8df3c876129c"}, {"is_disabled": 0, "is_reserved": 0, "fusion_lat": 0.0, "lat": 38.93065033333333, "fusion_lon": 0.0, "rental_uris": {"ios": "https://dc.lft.to/lastmile_qr_scan", "android": "https://dc.lft.to/lastmile_qr_scan"}, "lon": -77.040482, "bike_id": "eb4cd342482baceb5a316ee6affd782f", "type": "electric_scooter", "name": "eb4cd342482baceb5a316ee6affd782f"}, {"is_disabled": 0, "is_reserved": 0, "fusion_lat": 0.0, "lat": 38.91475066666667, "fusion_lon": 0.0, "rental_uris": {"ios": "https://dc.lft.to/lastmile_qr_scan", "android": "https://dc.lft.to/lastmile_qr_scan"}, "lon": -77.0092015, "bike_id": "32b89ed2cbadafb2acab49499f877a3d", "type": "electric_scooter", "name": "32b89ed2cbadafb2acab49499f877a3d"}, {"is_disabled": 0, "is_reserved": 0, "fusion_lat": 0.0, "lat": 38.9146465, "fusion_lon": 0.0, "rental_uris": {"ios": "https://dc.lft.to/lastmile_qr_scan", "android": "https://dc.lft.to/lastmile_qr_scan"}, "lon": -77.031957, "bike_id": "19e9e4ba484f2919922997050454b4b6", "type": "electric_scooter", "name": "19e9e4ba484f2919922997050454b4b6"}, {"is_disabled": 0, "is_reserved": 0, "fusion_lat": 0.0, "lat": 38.92596733333333, "fusion_lon": 0.0, "rental_uris": {"ios": "https://dc.lft.to/lastmile_qr_scan", "android": "https://dc.lft.to/lastmile_qr_scan"}, "lon": -77.05315916666666, "bike_id": "0c2769aecaee0ccdce41edac23f59795", "type": "electric_scooter", "name": "0c2769aecaee0ccdce41edac23f59795"}, {"is_disabled": 0, "is_reserved": 0, "fusion_lat": 0.0, "lat": 38.93028483333333, "fusion_lon": 0.0, "rental_uris": {"ios": "https://dc.lft.to/lastmile_qr_scan", "android": "https://dc.lft.to/lastmile_qr_scan"}, "lon": -77.0232715, "bike_id": "6f6700119d48bb70007ac3c4e99f8207", "type": "electric_scooter", "name": "6f6700119d48bb70007ac3c4e99f8207"}, {"is_disabled": 0, "is_reserved": 0, "fusion_lat": 0.0, "lat": 38.9433125, "fusion_lon": 0.0, "rental_uris": {"ios": "https://dc.lft.to/lastmile_qr_scan", "android": "https://dc.lft.to/lastmile_qr_scan"}, "lon": -77.02691233333333, "bike_id": "a1015f6c1508731aef42782e8c1d3fc4", "type": "electric_scooter", "name": "a1015f6c1508731aef42782e8c1d3fc4"}, {"is_disabled": 0, "is_reserved": 0, "fusion_lat": 0.0, "lat": 38.905108, "fusion_lon": 0.0, "rental_uris": {"ios": "https://dc.lft.to/lastmile_qr_scan", "android": "https://dc.lft.to/lastmile_qr_scan"}, "lon": -76.952029, "bike_id": "fa14a14d4f319cf1fdd7e8637535e8de", "type": "electric_scooter", "name": "fa14a14d4f319cf1fdd7e8637535e8de"}, {"is_disabled": 0, "is_reserved": 0, "fusion_lat": 0.0, "lat": 38.91415383333333, "fusion_lon": 0.0, "rental_uris": {"ios": "https://dc.lft.to/lastmile_qr_scan", "android": "https://dc.lft.to/lastmile_qr_scan"}, "lon": -77.05213866666666, "bike_id": "e4d995c5bdef87497cfa98ecbc9f30dd", "type": "electric_scooter", "name": "e4d995c5bdef87497cfa98ecbc9f30dd"}, {"is_disabled": 0, "is_reserved": 0, "fusion_lat": 0.0, "lat": 38.88622266666667, "fusion_lon": 0.0, "rental_uris": {"ios": "https://dc.lft.to/lastmile_qr_scan", "android": "https://dc.lft.to/lastmile_qr_scan"}, "lon": -76.92634366666667, "bike_id": "db9a9bb495a1e460ec2944ed06f47e6a", "type": "electric_scooter", "name": "db9a9bb495a1e460ec2944ed06f47e6a"}, {"is_disabled": 0, "is_reserved": 0, "fusion_lat": 0.0, "lat": 38.92364033333333, "fusion_lon": 0.0, "rental_uris": {"ios": "https://dc.lft.to/lastmile_qr_scan", "android": "https://dc.lft.to/lastmile_qr_scan"}, "lon": -77.0214085, "bike_id": "d8fae756dce171e17269bd032653b60d", "type": "electric_scooter", "name": "d8fae756dce171e17269bd032653b60d"}, {"is_disabled": 0, "is_reserved": 0, "fusion_lat": 0.0, "lat": 38.899983166666665, "fusion_lon": 0.0, "rental_uris": {"ios": "https://dc.lft.to/lastmile_qr_scan", "android": "https://dc.lft.to/lastmile_qr_scan"}, "lon": -77.02704816666666, "bike_id": "9ac370a7e308b795b1948109fa108d3f", "type": "electric_scooter", "name": "9ac370a7e308b795b1948109fa108d3f"}, {"is_disabled": 0, "is_reserved": 0, "fusion_lat": 0.0, "lat": 38.927487166666666, "fusion_lon": 0.0, "rental_uris": {"ios": "https://dc.lft.to/lastmile_qr_scan", "android": "https://dc.lft.to/lastmile_qr_scan"}, "lon": -77.03303866666667, "bike_id": "bc06f833dd2b2d2ee549ef56acbd4a71", "type": "electric_scooter", "name": "bc06f833dd2b2d2ee549ef56acbd4a71"}, {"is_disabled": 0, "is_reserved": 0, "fusion_lat": 0.0, "lat": 38.9238195, "fusion_lon": 0.0, "rental_uris": {"ios": "https://dc.lft.to/lastmile_qr_scan", "android": "https://dc.lft.to/lastmile_qr_scan"}, "lon": -77.03096483333333, "bike_id": "ec215c305e3ea919936d33d1f915619e", "type": "electric_scooter", "name": "ec215c305e3ea919936d33d1f915619e"}, {"is_disabled": 0, "is_reserved": 0, "fusion_lat": 0.0, "lat": 38.968006333333335, "fusion_lon": 0.0, "rental_uris": {"ios": "https://dc.lft.to/lastmile_qr_scan", "android": "https://dc.lft.to/lastmile_qr_scan"}, "lon": -77.02431283333334, "bike_id": "69e7398e9177af13849883caf1165fc8", "type": "electric_scooter", "name": "69e7398e9177af13849883caf1165fc8"}, {"is_disabled": 0, "is_reserved": 0, "fusion_lat": 0.0, "lat": 38.92586383333333, "fusion_lon": 0.0, "rental_uris": {"ios": "https://dc.lft.to/lastmile_qr_scan", "android": "https://dc.lft.to/lastmile_qr_scan"}, "lon": -77.04017366666666, "bike_id": "b7610d5cea306f9be2979448123bb683", "type": "electric_bike", "name": "b7610d5cea306f9be2979448123bb683"}, {"is_disabled": 0, "is_reserved": 0, "fusion_lat": 0.0, "lat": 38.91256383333333, "fusion_lon": 0.0, "rental_uris": {"ios": "https://dc.lft.to/lastmile_qr_scan", "android": "https://dc.lft.to/lastmile_qr_scan"}, "lon": -77.01950333333333, "bike_id": "8dfe724124df9806c294c95ffdddf45a", "type": "electric_scooter", "name": "8dfe724124df9806c294c95ffdddf45a"}, {"is_disabled": 0, "is_reserved": 0, "fusion_lat": 0.0, "lat": 38.9026435, "fusion_lon": 0.0, "rental_uris": {"ios": "https://dc.lft.to/lastmile_qr_scan", "android": "https://dc.lft.to/lastmile_qr_scan"}, "lon": -77.015433, "bike_id": "fcabf29126c314b00b8387462475b3d5", "type": "electric_scooter", "name": "fcabf29126c314b00b8387462475b3d5"}, {"is_disabled": 0, "is_reserved": 0, "fusion_lat": 0.0, "lat": 38.905880833333335, "fusion_lon": 0.0, "rental_uris": {"ios": "https://dc.lft.to/lastmile_qr_scan", "android": "https://dc.lft.to/lastmile_qr_scan"}, "lon": -77.0217845, "bike_id": "04daedd1b267e5ebf3fe2732e1cc56bb", "type": "electric_scooter", "name": "04daedd1b267e5ebf3fe2732e1cc56bb"}, {"is_disabled": 0, "is_reserved": 0, "fusion_lat": 0.0, "lat": 38.925416, "fusion_lon": 0.0, "rental_uris": {"ios": "https://dc.lft.to/lastmile_qr_scan", "android": "https://dc.lft.to/lastmile_qr_scan"}, "lon": -77.02264116666667, "bike_id": "0179173326dd24f1e9bc88d5fcb91d3d", "type": "electric_scooter", "name": "0179173326dd24f1e9bc88d5fcb91d3d"}, {"is_disabled": 0, "is_reserved": 0, "fusion_lat": 0.0, "lat": 38.88625566666666, "fusion_lon": 0.0, "rental_uris": {"ios": "https://dc.lft.to/lastmile_qr_scan", "android": "https://dc.lft.to/lastmile_qr_scan"}, "lon": -77.02829866666667, "bike_id": "9ed7d9c80b80551eed7f258d869d4094", "type": "electric_scooter", "name": "9ed7d9c80b80551eed7f258d869d4094"}, {"is_disabled": 0, "is_reserved": 0, "fusion_lat": 0.0, "lat": 38.9084455, "fusion_lon": 0.0, "rental_uris": {"ios": "https://dc.lft.to/lastmile_qr_scan", "android": "https://dc.lft.to/lastmile_qr_scan"}, "lon": -76.934466, "bike_id": "6c0eb0727483f2db4ba010e15a44f7b7", "type": "electric_scooter", "name": "6c0eb0727483f2db4ba010e15a44f7b7"}, {"is_disabled": 0, "is_reserved": 0, "fusion_lat": 0.0, "lat": 38.92607316666667, "fusion_lon": 0.0, "rental_uris": {"ios": "https://dc.lft.to/lastmile_qr_scan", "android": "https://dc.lft.to/lastmile_qr_scan"}, "lon": -77.07966166666667, "bike_id": "38aac0c73f03a1399b06d32b625ec8b4", "type": "electric_scooter", "name": "38aac0c73f03a1399b06d32b625ec8b4"}, {"is_disabled": 0, "is_reserved": 0, "fusion_lat": 0.0, "lat": 38.914169, "fusion_lon": 0.0, "rental_uris": {"ios": "https://dc.lft.to/lastmile_qr_scan", "android": "https://dc.lft.to/lastmile_qr_scan"}, "lon": -77.03178816666667, "bike_id": "ef085ba082c6ee44ab92386b430fcf80", "type": "electric_scooter", "name": "ef085ba082c6ee44ab92386b430fcf80"}, {"is_disabled": 0, "is_reserved": 0, "fusion_lat": 0.0, "lat": 38.904345666666664, "fusion_lon": 0.0, "rental_uris": {"ios": "https://dc.lft.to/lastmile_qr_scan", "android": "https://dc.lft.to/lastmile_qr_scan"}, "lon": -77.03121466666667, "bike_id": "1189a52864511b3646ffbc81dc72402a", "type": "electric_scooter", "name": "1189a52864511b3646ffbc81dc72402a"}, {"is_disabled": 0, "is_reserved": 0, "fusion_lat": 0.0, "lat": 38.9077825, "fusion_lon": 0.0, "rental_uris": {"ios": "https://dc.lft.to/lastmile_qr_scan", "android": "https://dc.lft.to/lastmile_qr_scan"}, "lon": -77.04503916666667, "bike_id": "d2758441e5660c1cd5eda0b461b9c7a8", "type": "electric_scooter", "name": "d2758441e5660c1cd5eda0b461b9c7a8"}, {"is_disabled": 0, "is_reserved": 0, "fusion_lat": 0.0, "lat": 38.9141735, "fusion_lon": 0.0, "rental_uris": {"ios": "https://dc.lft.to/lastmile_qr_scan", "android": "https://dc.lft.to/lastmile_qr_scan"}, "lon": -77.04003266666666, "bike_id": "87d6acd050cba75cfefdcd9f5e6f479c", "type": "electric_scooter", "name": "87d6acd050cba75cfefdcd9f5e6f479c"}, {"is_disabled": 0, "is_reserved": 0, "fusion_lat": 0.0, "lat": 38.9070775, "fusion_lon": 0.0, "rental_uris": {"ios": "https://dc.lft.to/lastmile_qr_scan", "android": "https://dc.lft.to/lastmile_qr_scan"}, "lon": -77.03214583333333, "bike_id": "7b9bfcba2406f1433b7ddc05b0c5b0f2", "type": "electric_scooter", "name": "7b9bfcba2406f1433b7ddc05b0c5b0f2"}, {"is_disabled": 0, "is_reserved": 0, "fusion_lat": 0.0, "lat": 38.919911166666665, "fusion_lon": 0.0, "rental_uris": {"ios": "https://dc.lft.to/lastmile_qr_scan", "android": "https://dc.lft.to/lastmile_qr_scan"}, "lon": -77.04162066666666, "bike_id": "1bf7f1795ddb4199ba85c22e4ef95279", "type": "electric_scooter", "name": "1bf7f1795ddb4199ba85c22e4ef95279"}, {"is_disabled": 0, "is_reserved": 0, "fusion_lat": 0.0, "lat": 38.9112595, "fusion_lon": 0.0, "rental_uris": {"ios": "https://dc.lft.to/lastmile_qr_scan", "android": "https://dc.lft.to/lastmile_qr_scan"}, "lon": -77.0208775, "bike_id": "74318da7c6100fcba315156b7d5e8940", "type": "electric_scooter", "name": "74318da7c6100fcba315156b7d5e8940"}, {"is_disabled": 0, "is_reserved": 0, "fusion_lat": 0.0, "lat": 38.90473633333333, "fusion_lon": 0.0, "rental_uris": {"ios": "https://dc.lft.to/lastmile_qr_scan", "android": "https://dc.lft.to/lastmile_qr_scan"}, "lon": -77.04862383333334, "bike_id": "394d5b49ec453757b00c83b89fc07e67", "type": "electric_scooter", "name": "394d5b49ec453757b00c83b89fc07e67"}, {"is_disabled": 0, "is_reserved": 0, "fusion_lat": 0.0, "lat": 38.904707, "fusion_lon": 0.0, "rental_uris": {"ios": "https://dc.lft.to/lastmile_qr_scan", "android": "https://dc.lft.to/lastmile_qr_scan"}, "lon": -76.950597, "bike_id": "0fc41b60d1c9646f545ad5e546bc3b3e", "type": "electric_scooter", "name": "0fc41b60d1c9646f545ad5e546bc3b3e"}, {"is_disabled": 0, "is_reserved": 0, "fusion_lat": 0.0, "lat": 38.9088535, "fusion_lon": 0.0, "rental_uris": {"ios": "https://dc.lft.to/lastmile_qr_scan", "android": "https://dc.lft.to/lastmile_qr_scan"}, "lon": -77.0439615, "bike_id": "4769d4bd16803ac2c5fc93616de7531a", "type": "electric_scooter", "name": "4769d4bd16803ac2c5fc93616de7531a"}, {"is_disabled": 0, "is_reserved": 0, "fusion_lat": 0.0, "lat": 38.930815833333334, "fusion_lon": 0.0, "rental_uris": {"ios": "https://dc.lft.to/lastmile_qr_scan", "android": "https://dc.lft.to/lastmile_qr_scan"}, "lon": -77.02809416666666, "bike_id": "17565b15c0d91836607f5c2d25e013ff", "type": "electric_scooter", "name": "17565b15c0d91836607f5c2d25e013ff"}, {"is_disabled": 0, "is_reserved": 0, "fusion_lat": 0.0, "lat": 38.85533366666667, "fusion_lon": 0.0, "rental_uris": {"ios": "https://dc.lft.to/lastmile_qr_scan", "android": "https://dc.lft.to/lastmile_qr_scan"}, "lon": -76.99175483333333, "bike_id": "d0ca7e483a0d674ebf148e89442d72b2", "type": "electric_scooter", "name": "d0ca7e483a0d674ebf148e89442d72b2"}, {"is_disabled": 0, "is_reserved": 0, "fusion_lat": 0.0, "lat": 38.875134, "fusion_lon": 0.0, "rental_uris": {"ios": "https://dc.lft.to/lastmile_qr_scan", "android": "https://dc.lft.to/lastmile_qr_scan"}, "lon": -77.11756516666667, "bike_id": "b78f0b14d1ca2ea5392ad87fcc8614f3", "type": "electric_bike", "name": "b78f0b14d1ca2ea5392ad87fcc8614f3"}, {"is_disabled": 0, "is_reserved": 0, "fusion_lat": 0.0, "lat": 38.9206265, "fusion_lon": 0.0, "rental_uris": {"ios": "https://dc.lft.to/lastmile_qr_scan", "android": "https://dc.lft.to/lastmile_qr_scan"}, "lon": -77.02417966666667, "bike_id": "6852ef6d8ca294b59c83d09999492116", "type": "electric_scooter", "name": "6852ef6d8ca294b59c83d09999492116"}, {"is_disabled": 0, "is_reserved": 0, "fusion_lat": 0.0, "lat": 38.89228216666667, "fusion_lon": 0.0, "rental_uris": {"ios": "https://dc.lft.to/lastmile_qr_scan", "android": "https://dc.lft.to/lastmile_qr_scan"}, "lon": -77.02785466666667, "bike_id": "e9de3c1764033708760415c99e9f69bd", "type": "electric_scooter", "name": "e9de3c1764033708760415c99e9f69bd"}, {"is_disabled": 0, "is_reserved": 0, "fusion_lat": 0.0, "lat": 38.88487583333333, "fusion_lon": 0.0, "rental_uris": {"ios": "https://dc.lft.to/lastmile_qr_scan", "android": "https://dc.lft.to/lastmile_qr_scan"}, "lon": -77.03477416666666, "bike_id": "31bdd58e5d67f9a786125f00c4ff1966", "type": "electric_scooter", "name": "31bdd58e5d67f9a786125f00c4ff1966"}, {"is_disabled": 0, "is_reserved": 0, "fusion_lat": 0.0, "lat": 38.90031116666667, "fusion_lon": 0.0, "rental_uris": {"ios": "https://dc.lft.to/lastmile_qr_scan", "android": "https://dc.lft.to/lastmile_qr_scan"}, "lon": -77.01196033333333, "bike_id": "717afe65b16f02456474e6c0cb76ed9c", "type": "electric_scooter", "name": "717afe65b16f02456474e6c0cb76ed9c"}, {"is_disabled": 0, "is_reserved": 0, "fusion_lat": 0.0, "lat": 38.92880183333333, "fusion_lon": 0.0, "rental_uris": {"ios": "https://dc.lft.to/lastmile_qr_scan", "android": "https://dc.lft.to/lastmile_qr_scan"}, "lon": -77.0260125, "bike_id": "398dee295d44a1ba40c7d86ce2e2d925", "type": "electric_scooter", "name": "398dee295d44a1ba40c7d86ce2e2d925"}, {"is_disabled": 0, "is_reserved": 0, "fusion_lat": 0.0, "lat": 38.9078275, "fusion_lon": 0.0, "rental_uris": {"ios": "https://dc.lft.to/lastmile_qr_scan", "android": "https://dc.lft.to/lastmile_qr_scan"}, "lon": -77.04661233333333, "bike_id": "423a6f27a85909e4f2b542a807748ed5", "type": "electric_scooter", "name": "423a6f27a85909e4f2b542a807748ed5"}, {"is_disabled": 0, "is_reserved": 0, "fusion_lat": 0.0, "lat": 38.932585833333334, "fusion_lon": 0.0, "rental_uris": {"ios": "https://dc.lft.to/lastmile_qr_scan", "android": "https://dc.lft.to/lastmile_qr_scan"}, "lon": -77.032814, "bike_id": "08147485478627eb31f2c650e55c8c68", "type": "electric_scooter", "name": "08147485478627eb31f2c650e55c8c68"}, {"is_disabled": 0, "is_reserved": 0, "fusion_lat": 0.0, "lat": 38.906388166666666, "fusion_lon": 0.0, "rental_uris": {"ios": "https://dc.lft.to/lastmile_qr_scan", "android": "https://dc.lft.to/lastmile_qr_scan"}, "lon": -77.024554, "bike_id": "946ca7630f932adb24f522cbbe3f6a5e", "type": "electric_scooter", "name": "946ca7630f932adb24f522cbbe3f6a5e"}, {"is_disabled": 0, "is_reserved": 0, "fusion_lat": 0.0, "lat": 38.88400516666667, "fusion_lon": 0.0, "rental_uris": {"ios": "https://dc.lft.to/lastmile_qr_scan", "android": "https://dc.lft.to/lastmile_qr_scan"}, "lon": -77.03043383333333, "bike_id": "0e7bc06279ec45c64765105336da9bc9", "type": "electric_scooter", "name": "0e7bc06279ec45c64765105336da9bc9"}, {"is_disabled": 0, "is_reserved": 0, "fusion_lat": 0.0, "lat": 38.9023945, "fusion_lon": 0.0, "rental_uris": {"ios": "https://dc.lft.to/lastmile_qr_scan", "android": "https://dc.lft.to/lastmile_qr_scan"}, "lon": -77.05320133333333, "bike_id": "aea8e3aab8997ef8f99d6771e1cb664c", "type": "electric_scooter", "name": "aea8e3aab8997ef8f99d6771e1cb664c"}, {"is_disabled": 0, "is_reserved": 0, "fusion_lat": 0.0, "lat": 38.93619783333333, "fusion_lon": 0.0, "rental_uris": {"ios": "https://dc.lft.to/lastmile_qr_scan", "android": "https://dc.lft.to/lastmile_qr_scan"}, "lon": -77.0388355, "bike_id": "db175eae1d4116b2d7c51fc45427ee14", "type": "electric_scooter", "name": "db175eae1d4116b2d7c51fc45427ee14"}, {"is_disabled": 0, "is_reserved": 0, "fusion_lat": 0.0, "lat": 38.928661, "fusion_lon": 0.0, "rental_uris": {"ios": "https://dc.lft.to/lastmile_qr_scan", "android": "https://dc.lft.to/lastmile_qr_scan"}, "lon": -77.0345225, "bike_id": "6362a136f460e6944f15faff79513650", "type": "electric_scooter", "name": "6362a136f460e6944f15faff79513650"}, {"is_disabled": 0, "is_reserved": 0, "fusion_lat": 0.0, "lat": 38.9003495, "fusion_lon": 0.0, "rental_uris": {"ios": "https://dc.lft.to/lastmile_qr_scan", "android": "https://dc.lft.to/lastmile_qr_scan"}, "lon": -76.99841833333333, "bike_id": "2b7c45cec68fcd56576fa541cf0e96d4", "type": "electric_scooter", "name": "2b7c45cec68fcd56576fa541cf0e96d4"}, {"is_disabled": 0, "is_reserved": 0, "fusion_lat": 0.0, "lat": 38.90271533333333, "fusion_lon": 0.0, "rental_uris": {"ios": "https://dc.lft.to/lastmile_qr_scan", "android": "https://dc.lft.to/lastmile_qr_scan"}, "lon": -77.00197433333334, "bike_id": "9f821e1a2be550d921621b24c6f22a5e", "type": "electric_scooter", "name": "9f821e1a2be550d921621b24c6f22a5e"}, {"is_disabled": 0, "is_reserved": 0, "fusion_lat": 0.0, "lat": 38.90887933333333, "fusion_lon": 0.0, "rental_uris": {"ios": "https://dc.lft.to/lastmile_qr_scan", "android": "https://dc.lft.to/lastmile_qr_scan"}, "lon": -76.99785766666666, "bike_id": "f5004f76d2045d7f5e02c42edadcccaa", "type": "electric_scooter", "name": "f5004f76d2045d7f5e02c42edadcccaa"}, {"is_disabled": 0, "is_reserved": 0, "fusion_lat": 0.0, "lat": 38.91905466666667, "fusion_lon": 0.0, "rental_uris": {"ios": "https://dc.lft.to/lastmile_qr_scan", "android": "https://dc.lft.to/lastmile_qr_scan"}, "lon": -77.10179566666666, "bike_id": "f249abcb6929ab76c863792c5fa733be", "type": "electric_bike", "name": "f249abcb6929ab76c863792c5fa733be"}, {"is_disabled": 0, "is_reserved": 0, "fusion_lat": 0.0, "lat": 38.91908466666667, "fusion_lon": 0.0, "rental_uris": {"ios": "https://dc.lft.to/lastmile_qr_scan", "android": "https://dc.lft.to/lastmile_qr_scan"}, "lon": -77.04461, "bike_id": "b33937783f07e2bf7ac6050864b298e1", "type": "electric_scooter", "name": "b33937783f07e2bf7ac6050864b298e1"}, {"is_disabled": 0, "is_reserved": 0, "fusion_lat": 0.0, "lat": 38.835869, "fusion_lon": 0.0, "rental_uris": {"ios": "https://dc.lft.to/lastmile_qr_scan", "android": "https://dc.lft.to/lastmile_qr_scan"}, "lon": -76.990259, "bike_id": "bdfb7bbf159c42ffa0b2edaf92fa7369", "type": "electric_bike", "name": "bdfb7bbf159c42ffa0b2edaf92fa7369"}, {"is_disabled": 0, "is_reserved": 0, "fusion_lat": 0.0, "lat": 38.925187333333334, "fusion_lon": 0.0, "rental_uris": {"ios": "https://dc.lft.to/lastmile_qr_scan", "android": "https://dc.lft.to/lastmile_qr_scan"}, "lon": -77.02961216666667, "bike_id": "11b6e7c9d07e9c39433ea5e9de6357e2", "type": "electric_scooter", "name": "11b6e7c9d07e9c39433ea5e9de6357e2"}, {"is_disabled": 0, "is_reserved": 0, "fusion_lat": 0.0, "lat": 38.893364, "fusion_lon": 0.0, "rental_uris": {"ios": "https://dc.lft.to/lastmile_qr_scan", "android": "https://dc.lft.to/lastmile_qr_scan"}, "lon": -76.92890533333333, "bike_id": "9e5116f0255be98f64d1267bf9a74b29", "type": "electric_scooter", "name": "9e5116f0255be98f64d1267bf9a74b29"}, {"is_disabled": 0, "is_reserved": 0, "fusion_lat": 0.0, "lat": 38.961845, "fusion_lon": 0.0, "rental_uris": {"ios": "https://dc.lft.to/lastmile_qr_scan", "android": "https://dc.lft.to/lastmile_qr_scan"}, "lon": -77.09901616666667, "bike_id": "da9cc1ecf91eef5572f0e6296564f171", "type": "electric_bike", "name": "da9cc1ecf91eef5572f0e6296564f171"}, {"is_disabled": 0, "is_reserved": 0, "fusion_lat": 0.0, "lat": 38.896817, "fusion_lon": 0.0, "rental_uris": {"ios": "https://dc.lft.to/lastmile_qr_scan", "android": "https://dc.lft.to/lastmile_qr_scan"}, "lon": -77.02390533333333, "bike_id": "22b1a565dfb30a2d254bf57263b1f20b", "type": "electric_scooter", "name": "22b1a565dfb30a2d254bf57263b1f20b"}, {"is_disabled": 0, "is_reserved": 0, "fusion_lat": 0.0, "lat": 38.87709666666667, "fusion_lon": 0.0, "rental_uris": {"ios": "https://dc.lft.to/lastmile_qr_scan", "android": "https://dc.lft.to/lastmile_qr_scan"}, "lon": -77.01640933333333, "bike_id": "1c2a2501814f6ba54989cff6cafad484", "type": "electric_scooter", "name": "1c2a2501814f6ba54989cff6cafad484"}, {"is_disabled": 0, "is_reserved": 0, "fusion_lat": 0.0, "lat": 38.89224933333333, "fusion_lon": 0.0, "rental_uris": {"ios": "https://dc.lft.to/lastmile_qr_scan", "android": "https://dc.lft.to/lastmile_qr_scan"}, "lon": -77.04685783333333, "bike_id": "5e72c417164d1963bdaffb9be696d13d", "type": "electric_scooter", "name": "5e72c417164d1963bdaffb9be696d13d"}, {"is_disabled": 0, "is_reserved": 0, "fusion_lat": 0.0, "lat": 38.91559133333333, "fusion_lon": 0.0, "rental_uris": {"ios": "https://dc.lft.to/lastmile_qr_scan", "android": "https://dc.lft.to/lastmile_qr_scan"}, "lon": -77.03152983333334, "bike_id": "aaa15d9e30f92a3dba41a846a56ab481", "type": "electric_scooter", "name": "aaa15d9e30f92a3dba41a846a56ab481"}, {"is_disabled": 0, "is_reserved": 0, "fusion_lat": 0.0, "lat": 38.89387283333333, "fusion_lon": 0.0, "rental_uris": {"ios": "https://dc.lft.to/lastmile_qr_scan", "android": "https://dc.lft.to/lastmile_qr_scan"}, "lon": -77.04432783333333, "bike_id": "f9952e2be85d5aafee14db0c699a79a8", "type": "electric_scooter", "name": "f9952e2be85d5aafee14db0c699a79a8"}, {"is_disabled": 0, "is_reserved": 0, "fusion_lat": 0.0, "lat": 38.9155395, "fusion_lon": 0.0, "rental_uris": {"ios": "https://dc.lft.to/lastmile_qr_scan", "android": "https://dc.lft.to/lastmile_qr_scan"}, "lon": -77.041831, "bike_id": "2826ed7cd4d85fbf3684f626fcd686ec", "type": "electric_scooter", "name": "2826ed7cd4d85fbf3684f626fcd686ec"}, {"is_disabled": 0, "is_reserved": 0, "fusion_lat": 0.0, "lat": 38.90524033333333, "fusion_lon": 0.0, "rental_uris": {"ios": "https://dc.lft.to/lastmile_qr_scan", "android": "https://dc.lft.to/lastmile_qr_scan"}, "lon": -77.06581383333334, "bike_id": "c1f97304c7e6da5888ee14dfed276b58", "type": "electric_scooter", "name": "c1f97304c7e6da5888ee14dfed276b58"}, {"is_disabled": 0, "is_reserved": 0, "fusion_lat": 0.0, "lat": 38.957752, "fusion_lon": 0.0, "rental_uris": {"ios": "https://dc.lft.to/lastmile_qr_scan", "android": "https://dc.lft.to/lastmile_qr_scan"}, "lon": -77.0240915, "bike_id": "aceb90bf92b18788feb4f711fdd0a8b0", "type": "electric_scooter", "name": "aceb90bf92b18788feb4f711fdd0a8b0"}, {"is_disabled": 0, "is_reserved": 0, "fusion_lat": 0.0, "lat": 38.921504, "fusion_lon": 0.0, "rental_uris": {"ios": "https://dc.lft.to/lastmile_qr_scan", "android": "https://dc.lft.to/lastmile_qr_scan"}, "lon": -77.035066, "bike_id": "053385a51a7e43727154bbe2243b2a96", "type": "electric_scooter", "name": "053385a51a7e43727154bbe2243b2a96"}, {"is_disabled": 0, "is_reserved": 0, "fusion_lat": 0.0, "lat": 38.9176695, "fusion_lon": 0.0, "rental_uris": {"ios": "https://dc.lft.to/lastmile_qr_scan", "android": "https://dc.lft.to/lastmile_qr_scan"}, "lon": -77.02212216666666, "bike_id": "fd2136db0b969009bd0fe7ba0eaadd10", "type": "electric_scooter", "name": "fd2136db0b969009bd0fe7ba0eaadd10"}, {"is_disabled": 0, "is_reserved": 0, "fusion_lat": 0.0, "lat": 38.91514816666667, "fusion_lon": 0.0, "rental_uris": {"ios": "https://dc.lft.to/lastmile_qr_scan", "android": "https://dc.lft.to/lastmile_qr_scan"}, "lon": -77.01839616666666, "bike_id": "1000030d115c51d5a54faf6476cb9b83", "type": "electric_scooter", "name": "1000030d115c51d5a54faf6476cb9b83"}, {"is_disabled": 0, "is_reserved": 0, "fusion_lat": 0.0, "lat": 38.9296875, "fusion_lon": 0.0, "rental_uris": {"ios": "https://dc.lft.to/lastmile_qr_scan", "android": "https://dc.lft.to/lastmile_qr_scan"}, "lon": -77.0282585, "bike_id": "c35cf1f7a705fa263316aa06f3292ed8", "type": "electric_scooter", "name": "c35cf1f7a705fa263316aa06f3292ed8"}, {"is_disabled": 0, "is_reserved": 0, "fusion_lat": 0.0, "lat": 38.9217285, "fusion_lon": 0.0, "rental_uris": {"ios": "https://dc.lft.to/lastmile_qr_scan", "android": "https://dc.lft.to/lastmile_qr_scan"}, "lon": -77.02686033333333, "bike_id": "0d5252f40076a36f38d4073e41205067", "type": "electric_scooter", "name": "0d5252f40076a36f38d4073e41205067"}, {"is_disabled": 0, "is_reserved": 0, "fusion_lat": 0.0, "lat": 38.90639383333333, "fusion_lon": 0.0, "rental_uris": {"ios": "https://dc.lft.to/lastmile_qr_scan", "android": "https://dc.lft.to/lastmile_qr_scan"}, "lon": -77.06898133333334, "bike_id": "3d8de3d18da978678d122c40e6f7bdcc", "type": "electric_scooter", "name": "3d8de3d18da978678d122c40e6f7bdcc"}, {"is_disabled": 0, "is_reserved": 0, "fusion_lat": 0.0, "lat": 38.876438666666665, "fusion_lon": 0.0, "rental_uris": {"ios": "https://dc.lft.to/lastmile_qr_scan", "android": "https://dc.lft.to/lastmile_qr_scan"}, "lon": -77.00837783333333, "bike_id": "eda21c75a0fa84e7e9699c4a1ab88870", "type": "electric_scooter", "name": "eda21c75a0fa84e7e9699c4a1ab88870"}, {"is_disabled": 0, "is_reserved": 0, "fusion_lat": 0.0, "lat": 38.917121333333334, "fusion_lon": 0.0, "rental_uris": {"ios": "https://dc.lft.to/lastmile_qr_scan", "android": "https://dc.lft.to/lastmile_qr_scan"}, "lon": -77.0394945, "bike_id": "578ae44eba00c208aa175fdefbdb1269", "type": "electric_scooter", "name": "578ae44eba00c208aa175fdefbdb1269"}, {"is_disabled": 0, "is_reserved": 0, "fusion_lat": 0.0, "lat": 38.9063895, "fusion_lon": 0.0, "rental_uris": {"ios": "https://dc.lft.to/lastmile_qr_scan", "android": "https://dc.lft.to/lastmile_qr_scan"}, "lon": -77.04152316666666, "bike_id": "8adce0e938e31869727f388c24cc8118", "type": "electric_scooter", "name": "8adce0e938e31869727f388c24cc8118"}, {"is_disabled": 0, "is_reserved": 0, "fusion_lat": 0.0, "lat": 38.891708666666666, "fusion_lon": 0.0, "rental_uris": {"ios": "https://dc.lft.to/lastmile_qr_scan", "android": "https://dc.lft.to/lastmile_qr_scan"}, "lon": -77.01551, "bike_id": "765260f3e0538c0e574275a8c8457b90", "type": "electric_scooter", "name": "765260f3e0538c0e574275a8c8457b90"}, {"is_disabled": 0, "is_reserved": 0, "fusion_lat": 0.0, "lat": 38.92572833333333, "fusion_lon": 0.0, "rental_uris": {"ios": "https://dc.lft.to/lastmile_qr_scan", "android": "https://dc.lft.to/lastmile_qr_scan"}, "lon": -77.031448, "bike_id": "748f75566899bfbb97894e38a413229c", "type": "electric_scooter", "name": "748f75566899bfbb97894e38a413229c"}, {"is_disabled": 0, "is_reserved": 0, "fusion_lat": 0.0, "lat": 38.895417333333334, "fusion_lon": 0.0, "rental_uris": {"ios": "https://dc.lft.to/lastmile_qr_scan", "android": "https://dc.lft.to/lastmile_qr_scan"}, "lon": -77.01654166666667, "bike_id": "fe9a643a707ae27a1d872cbe12905a53", "type": "electric_scooter", "name": "fe9a643a707ae27a1d872cbe12905a53"}, {"is_disabled": 0, "is_reserved": 0, "fusion_lat": 0.0, "lat": 38.909239, "fusion_lon": 0.0, "rental_uris": {"ios": "https://dc.lft.to/lastmile_qr_scan", "android": "https://dc.lft.to/lastmile_qr_scan"}, "lon": -76.99909233333334, "bike_id": "1403b8666a07cae8fafc0967e6662991", "type": "electric_scooter", "name": "1403b8666a07cae8fafc0967e6662991"}, {"is_disabled": 0, "is_reserved": 0, "fusion_lat": 0.0, "lat": 38.9076495, "fusion_lon": 0.0, "rental_uris": {"ios": "https://dc.lft.to/lastmile_qr_scan", "android": "https://dc.lft.to/lastmile_qr_scan"}, "lon": -76.99917733333334, "bike_id": "65b5085ae50e6494308116f04a41ed39", "type": "electric_scooter", "name": "65b5085ae50e6494308116f04a41ed39"}, {"is_disabled": 0, "is_reserved": 0, "fusion_lat": 0.0, "lat": 38.918149166666666, "fusion_lon": 0.0, "rental_uris": {"ios": "https://dc.lft.to/lastmile_qr_scan", "android": "https://dc.lft.to/lastmile_qr_scan"}, "lon": -77.024752, "bike_id": "11809efbd0e2693042a368f5cd4eb312", "type": "electric_scooter", "name": "11809efbd0e2693042a368f5cd4eb312"}, {"is_disabled": 0, "is_reserved": 0, "fusion_lat": 0.0, "lat": 38.90978616666666, "fusion_lon": 0.0, "rental_uris": {"ios": "https://dc.lft.to/lastmile_qr_scan", "android": "https://dc.lft.to/lastmile_qr_scan"}, "lon": -77.03182766666667, "bike_id": "a62d604dc552b357ea64b024331cc907", "type": "electric_scooter", "name": "a62d604dc552b357ea64b024331cc907"}, {"is_disabled": 0, "is_reserved": 0, "fusion_lat": 0.0, "lat": 38.891740166666665, "fusion_lon": 0.0, "rental_uris": {"ios": "https://dc.lft.to/lastmile_qr_scan", "android": "https://dc.lft.to/lastmile_qr_scan"}, "lon": -77.0156015, "bike_id": "9f15cfcb89050c7d935b57da3a75b0be", "type": "electric_scooter", "name": "9f15cfcb89050c7d935b57da3a75b0be"}, {"is_disabled": 0, "is_reserved": 0, "fusion_lat": 0.0, "lat": 38.9205245, "fusion_lon": 0.0, "rental_uris": {"ios": "https://dc.lft.to/lastmile_qr_scan", "android": "https://dc.lft.to/lastmile_qr_scan"}, "lon": -77.03330966666667, "bike_id": "b56eb7f586e85fe9f54e715e28ee7eec", "type": "electric_scooter", "name": "b56eb7f586e85fe9f54e715e28ee7eec"}, {"is_disabled": 0, "is_reserved": 0, "fusion_lat": 0.0, "lat": 38.912888333333335, "fusion_lon": 0.0, "rental_uris": {"ios": "https://dc.lft.to/lastmile_qr_scan", "android": "https://dc.lft.to/lastmile_qr_scan"}, "lon": -77.023039, "bike_id": "cf9dc7f9698b2f9f6580919f5146be7e", "type": "electric_scooter", "name": "cf9dc7f9698b2f9f6580919f5146be7e"}, {"is_disabled": 0, "is_reserved": 0, "fusion_lat": 0.0, "lat": 38.907286, "fusion_lon": 0.0, "rental_uris": {"ios": "https://dc.lft.to/lastmile_qr_scan", "android": "https://dc.lft.to/lastmile_qr_scan"}, "lon": -77.02728583333334, "bike_id": "3c7662cec7653d88e7c49d0e3d905fd1", "type": "electric_scooter", "name": "3c7662cec7653d88e7c49d0e3d905fd1"}, {"is_disabled": 0, "is_reserved": 0, "fusion_lat": 0.0, "lat": 38.906794, "fusion_lon": 0.0, "rental_uris": {"ios": "https://dc.lft.to/lastmile_qr_scan", "android": "https://dc.lft.to/lastmile_qr_scan"}, "lon": -77.0271015, "bike_id": "ab62aaafdc50cd40531372c2aa0db948", "type": "electric_scooter", "name": "ab62aaafdc50cd40531372c2aa0db948"}, {"is_disabled": 0, "is_reserved": 0, "fusion_lat": 0.0, "lat": 38.925450166666664, "fusion_lon": 0.0, "rental_uris": {"ios": "https://dc.lft.to/lastmile_qr_scan", "android": "https://dc.lft.to/lastmile_qr_scan"}, "lon": -77.02565533333333, "bike_id": "33a960a3cabfe593ed7215f40a8fe082", "type": "electric_scooter", "name": "33a960a3cabfe593ed7215f40a8fe082"}, {"is_disabled": 0, "is_reserved": 0, "fusion_lat": 0.0, "lat": 38.95593783333333, "fusion_lon": 0.0, "rental_uris": {"ios": "https://dc.lft.to/lastmile_qr_scan", "android": "https://dc.lft.to/lastmile_qr_scan"}, "lon": -77.028123, "bike_id": "993413440ef62309b825f51e5507eca4", "type": "electric_scooter", "name": "993413440ef62309b825f51e5507eca4"}, {"is_disabled": 0, "is_reserved": 0, "fusion_lat": 0.0, "lat": 38.8579005, "fusion_lon": 0.0, "rental_uris": {"ios": "https://dc.lft.to/lastmile_qr_scan", "android": "https://dc.lft.to/lastmile_qr_scan"}, "lon": -77.0996385, "bike_id": "3d2b1a3550af9676e5379744f6dc1051", "type": "electric_bike", "name": "3d2b1a3550af9676e5379744f6dc1051"}, {"is_disabled": 0, "is_reserved": 0, "fusion_lat": 0.0, "lat": 38.95138133333333, "fusion_lon": 0.0, "rental_uris": {"ios": "https://dc.lft.to/lastmile_qr_scan", "android": "https://dc.lft.to/lastmile_qr_scan"}, "lon": -76.966203, "bike_id": "36895ce68f140509b62760f737d5301d", "type": "electric_bike", "name": "36895ce68f140509b62760f737d5301d"}, {"is_disabled": 0, "is_reserved": 0, "fusion_lat": 0.0, "lat": 38.91896883333333, "fusion_lon": 0.0, "rental_uris": {"ios": "https://dc.lft.to/lastmile_qr_scan", "android": "https://dc.lft.to/lastmile_qr_scan"}, "lon": -77.03515516666667, "bike_id": "5ab0d1c61398ee5d18fa2dddd55435e8", "type": "electric_scooter", "name": "5ab0d1c61398ee5d18fa2dddd55435e8"}, {"is_disabled": 0, "is_reserved": 0, "fusion_lat": 0.0, "lat": 38.906343, "fusion_lon": 0.0, "rental_uris": {"ios": "https://dc.lft.to/lastmile_qr_scan", "android": "https://dc.lft.to/lastmile_qr_scan"}, "lon": -77.00578216666666, "bike_id": "0e78033463004365c7d12dac2a6b51de", "type": "electric_scooter", "name": "0e78033463004365c7d12dac2a6b51de"}, {"is_disabled": 0, "is_reserved": 0, "fusion_lat": 0.0, "lat": 38.926959833333335, "fusion_lon": 0.0, "rental_uris": {"ios": "https://dc.lft.to/lastmile_qr_scan", "android": "https://dc.lft.to/lastmile_qr_scan"}, "lon": -76.99790883333333, "bike_id": "02601e2991a91fe1b8a129e9ad2f458d", "type": "electric_scooter", "name": "02601e2991a91fe1b8a129e9ad2f458d"}, {"is_disabled": 0, "is_reserved": 0, "fusion_lat": 0.0, "lat": 38.92511566666667, "fusion_lon": 0.0, "rental_uris": {"ios": "https://dc.lft.to/lastmile_qr_scan", "android": "https://dc.lft.to/lastmile_qr_scan"}, "lon": -77.02439266666667, "bike_id": "8ee8afad2f41c1e13cc20c65aa5f30fb", "type": "electric_scooter", "name": "8ee8afad2f41c1e13cc20c65aa5f30fb"}, {"is_disabled": 0, "is_reserved": 0, "fusion_lat": 0.0, "lat": 38.9154325, "fusion_lon": 0.0, "rental_uris": {"ios": "https://dc.lft.to/lastmile_qr_scan", "android": "https://dc.lft.to/lastmile_qr_scan"}, "lon": -77.04452583333334, "bike_id": "61abc289416de159eadaac7f32ff40f8", "type": "electric_scooter", "name": "61abc289416de159eadaac7f32ff40f8"}, {"is_disabled": 0, "is_reserved": 0, "fusion_lat": 0.0, "lat": 38.95237083333333, "fusion_lon": 0.0, "rental_uris": {"ios": "https://dc.lft.to/lastmile_qr_scan", "android": "https://dc.lft.to/lastmile_qr_scan"}, "lon": -76.98247066666667, "bike_id": "d6610318b8295e6dfb26d41592fe5540", "type": "electric_bike", "name": "d6610318b8295e6dfb26d41592fe5540"}, {"is_disabled": 0, "is_reserved": 0, "fusion_lat": 0.0, "lat": 38.87925933333333, "fusion_lon": 0.0, "rental_uris": {"ios": "https://dc.lft.to/lastmile_qr_scan", "android": "https://dc.lft.to/lastmile_qr_scan"}, "lon": -77.0087075, "bike_id": "3553755f98c29f89220d08f143f6bcfa", "type": "electric_bike", "name": "3553755f98c29f89220d08f143f6bcfa"}, {"is_disabled": 0, "is_reserved": 0, "fusion_lat": 0.0, "lat": 38.930662, "fusion_lon": 0.0, "rental_uris": {"ios": "https://dc.lft.to/lastmile_qr_scan", "android": "https://dc.lft.to/lastmile_qr_scan"}, "lon": -77.03945916666666, "bike_id": "8b16cb63486cf3243596e2a6c8caf492", "type": "electric_scooter", "name": "8b16cb63486cf3243596e2a6c8caf492"}, {"is_disabled": 0, "is_reserved": 0, "fusion_lat": 0.0, "lat": 38.915835, "fusion_lon": 0.0, "rental_uris": {"ios": "https://dc.lft.to/lastmile_qr_scan", "android": "https://dc.lft.to/lastmile_qr_scan"}, "lon": -77.02000083333333, "bike_id": "4ccc55b95b5a8e5f213194a98d4f8c1b", "type": "electric_scooter", "name": "4ccc55b95b5a8e5f213194a98d4f8c1b"}, {"is_disabled": 0, "is_reserved": 0, "fusion_lat": 0.0, "lat": 38.90070883333333, "fusion_lon": 0.0, "rental_uris": {"ios": "https://dc.lft.to/lastmile_qr_scan", "android": "https://dc.lft.to/lastmile_qr_scan"}, "lon": -76.949794, "bike_id": "fa53d0659f1da1809695408ca519e5bc", "type": "electric_scooter", "name": "fa53d0659f1da1809695408ca519e5bc"}, {"is_disabled": 0, "is_reserved": 0, "fusion_lat": 0.0, "lat": 38.92047566666667, "fusion_lon": 0.0, "rental_uris": {"ios": "https://dc.lft.to/lastmile_qr_scan", "android": "https://dc.lft.to/lastmile_qr_scan"}, "lon": -77.02358266666667, "bike_id": "ee01f66e6ade43dd6adafc50fed9a8e6", "type": "electric_scooter", "name": "ee01f66e6ade43dd6adafc50fed9a8e6"}, {"is_disabled": 0, "is_reserved": 0, "fusion_lat": 0.0, "lat": 38.941751833333335, "fusion_lon": 0.0, "rental_uris": {"ios": "https://dc.lft.to/lastmile_qr_scan", "android": "https://dc.lft.to/lastmile_qr_scan"}, "lon": -77.015327, "bike_id": "fee6be4af3596e44f905cc0b532a2a32", "type": "electric_scooter", "name": "fee6be4af3596e44f905cc0b532a2a32"}, {"is_disabled": 0, "is_reserved": 0, "fusion_lat": 0.0, "lat": 38.90937683333333, "fusion_lon": 0.0, "rental_uris": {"ios": "https://dc.lft.to/lastmile_qr_scan", "android": "https://dc.lft.to/lastmile_qr_scan"}, "lon": -77.04726033333333, "bike_id": "2700a5c49ea0e27db3861f9427e125d1", "type": "electric_scooter", "name": "2700a5c49ea0e27db3861f9427e125d1"}, {"is_disabled": 0, "is_reserved": 0, "fusion_lat": 0.0, "lat": 38.909802666666664, "fusion_lon": 0.0, "rental_uris": {"ios": "https://dc.lft.to/lastmile_qr_scan", "android": "https://dc.lft.to/lastmile_qr_scan"}, "lon": -77.02414833333333, "bike_id": "5285f82f51d2762b10612d4813e431f1", "type": "electric_scooter", "name": "5285f82f51d2762b10612d4813e431f1"}, {"is_disabled": 0, "is_reserved": 0, "fusion_lat": 0.0, "lat": 38.914775166666665, "fusion_lon": 0.0, "rental_uris": {"ios": "https://dc.lft.to/lastmile_qr_scan", "android": "https://dc.lft.to/lastmile_qr_scan"}, "lon": -77.01887733333334, "bike_id": "4be7b3ea9a46653cfe5398a09cdd9b9b", "type": "electric_scooter", "name": "4be7b3ea9a46653cfe5398a09cdd9b9b"}, {"is_disabled": 0, "is_reserved": 0, "fusion_lat": 0.0, "lat": 38.9154175, "fusion_lon": 0.0, "rental_uris": {"ios": "https://dc.lft.to/lastmile_qr_scan", "android": "https://dc.lft.to/lastmile_qr_scan"}, "lon": -77.044501, "bike_id": "7e7e2e384fe10fb85f1f247b0dd57bba", "type": "electric_scooter", "name": "7e7e2e384fe10fb85f1f247b0dd57bba"}, {"is_disabled": 0, "is_reserved": 0, "fusion_lat": 0.0, "lat": 38.921669666666666, "fusion_lon": 0.0, "rental_uris": {"ios": "https://dc.lft.to/lastmile_qr_scan", "android": "https://dc.lft.to/lastmile_qr_scan"}, "lon": -77.042291, "bike_id": "d056aef872cb2386e60686c1613ef73f", "type": "electric_scooter", "name": "d056aef872cb2386e60686c1613ef73f"}, {"is_disabled": 0, "is_reserved": 0, "fusion_lat": 0.0, "lat": 38.942884166666666, "fusion_lon": 0.0, "rental_uris": {"ios": "https://dc.lft.to/lastmile_qr_scan", "android": "https://dc.lft.to/lastmile_qr_scan"}, "lon": -77.02174216666667, "bike_id": "f8711985ecf6871f46583fc861300db2", "type": "electric_scooter", "name": "f8711985ecf6871f46583fc861300db2"}, {"is_disabled": 0, "is_reserved": 0, "fusion_lat": 0.0, "lat": 38.9142115, "fusion_lon": 0.0, "rental_uris": {"ios": "https://dc.lft.to/lastmile_qr_scan", "android": "https://dc.lft.to/lastmile_qr_scan"}, "lon": -77.03173383333333, "bike_id": "71a5cb4b90fb7437c9dc8288dc392b45", "type": "electric_scooter", "name": "71a5cb4b90fb7437c9dc8288dc392b45"}, {"is_disabled": 0, "is_reserved": 0, "fusion_lat": 0.0, "lat": 38.896686833333334, "fusion_lon": 0.0, "rental_uris": {"ios": "https://dc.lft.to/lastmile_qr_scan", "android": "https://dc.lft.to/lastmile_qr_scan"}, "lon": -76.9490775, "bike_id": "29bfa61f91e034c782b70af0053ba15c", "type": "electric_scooter", "name": "29bfa61f91e034c782b70af0053ba15c"}, {"is_disabled": 0, "is_reserved": 0, "fusion_lat": 0.0, "lat": 38.86781783333333, "fusion_lon": 0.0, "rental_uris": {"ios": "https://dc.lft.to/lastmile_qr_scan", "android": "https://dc.lft.to/lastmile_qr_scan"}, "lon": -77.06624583333333, "bike_id": "079351e58eae75616e55a2e1c31fd776", "type": "electric_bike", "name": "079351e58eae75616e55a2e1c31fd776"}, {"is_disabled": 0, "is_reserved": 0, "fusion_lat": 0.0, "lat": 38.92777183333333, "fusion_lon": 0.0, "rental_uris": {"ios": "https://dc.lft.to/lastmile_qr_scan", "android": "https://dc.lft.to/lastmile_qr_scan"}, "lon": -77.0526055, "bike_id": "f9da4fae8a8a8223a3273d667ce1b51c", "type": "electric_scooter", "name": "f9da4fae8a8a8223a3273d667ce1b51c"}, {"is_disabled": 0, "is_reserved": 0, "fusion_lat": 0.0, "lat": 38.8996875, "fusion_lon": 0.0, "rental_uris": {"ios": "https://dc.lft.to/lastmile_qr_scan", "android": "https://dc.lft.to/lastmile_qr_scan"}, "lon": -76.99477866666666, "bike_id": "9eaf12b431342e2509169757b87d9c07", "type": "electric_scooter", "name": "9eaf12b431342e2509169757b87d9c07"}, {"is_disabled": 0, "is_reserved": 0, "fusion_lat": 0.0, "lat": 38.93065816666667, "fusion_lon": 0.0, "rental_uris": {"ios": "https://dc.lft.to/lastmile_qr_scan", "android": "https://dc.lft.to/lastmile_qr_scan"}, "lon": -77.04049283333333, "bike_id": "cdf47ab9a8af414cdf4aff154d16fdcf", "type": "electric_scooter", "name": "cdf47ab9a8af414cdf4aff154d16fdcf"}, {"is_disabled": 0, "is_reserved": 0, "fusion_lat": 0.0, "lat": 38.92526733333333, "fusion_lon": 0.0, "rental_uris": {"ios": "https://dc.lft.to/lastmile_qr_scan", "android": "https://dc.lft.to/lastmile_qr_scan"}, "lon": -77.03888016666667, "bike_id": "c76acce257da9621d9f0650a7f9348ae", "type": "electric_scooter", "name": "c76acce257da9621d9f0650a7f9348ae"}, {"is_disabled": 0, "is_reserved": 0, "fusion_lat": 0.0, "lat": 38.923195666666665, "fusion_lon": 0.0, "rental_uris": {"ios": "https://dc.lft.to/lastmile_qr_scan", "android": "https://dc.lft.to/lastmile_qr_scan"}, "lon": -77.041459, "bike_id": "eacf429e003821f86384bace4bcdc77a", "type": "electric_scooter", "name": "eacf429e003821f86384bace4bcdc77a"}, {"is_disabled": 0, "is_reserved": 0, "fusion_lat": 0.0, "lat": 38.9361185, "fusion_lon": 0.0, "rental_uris": {"ios": "https://dc.lft.to/lastmile_qr_scan", "android": "https://dc.lft.to/lastmile_qr_scan"}, "lon": -77.055857, "bike_id": "655ff11db61b8e5fe26d0fe25caf51ab", "type": "electric_scooter", "name": "655ff11db61b8e5fe26d0fe25caf51ab"}, {"is_disabled": 0, "is_reserved": 0, "fusion_lat": 0.0, "lat": 38.921427333333334, "fusion_lon": 0.0, "rental_uris": {"ios": "https://dc.lft.to/lastmile_qr_scan", "android": "https://dc.lft.to/lastmile_qr_scan"}, "lon": -77.03654366666666, "bike_id": "b6f3969a3ae0e691b90ec7302c00e192", "type": "electric_scooter", "name": "b6f3969a3ae0e691b90ec7302c00e192"}, {"is_disabled": 0, "is_reserved": 0, "fusion_lat": 0.0, "lat": 38.982140333333334, "fusion_lon": 0.0, "rental_uris": {"ios": "https://dc.lft.to/lastmile_qr_scan", "android": "https://dc.lft.to/lastmile_qr_scan"}, "lon": -76.978147, "bike_id": "623b6e1c28b36107d4aafb5a06cf2f6b", "type": "electric_bike", "name": "623b6e1c28b36107d4aafb5a06cf2f6b"}, {"is_disabled": 0, "is_reserved": 0, "fusion_lat": 0.0, "lat": 38.91269033333333, "fusion_lon": 0.0, "rental_uris": {"ios": "https://dc.lft.to/lastmile_qr_scan", "android": "https://dc.lft.to/lastmile_qr_scan"}, "lon": -77.02232133333334, "bike_id": "4d93adb98b2f784ce2191d1fbec728f1", "type": "electric_scooter", "name": "4d93adb98b2f784ce2191d1fbec728f1"}, {"is_disabled": 0, "is_reserved": 0, "fusion_lat": 0.0, "lat": 38.87111433333333, "fusion_lon": 0.0, "rental_uris": {"ios": "https://dc.lft.to/lastmile_qr_scan", "android": "https://dc.lft.to/lastmile_qr_scan"}, "lon": -77.0078215, "bike_id": "f7fa736a2b9e18adba54505e96a070df", "type": "electric_scooter", "name": "f7fa736a2b9e18adba54505e96a070df"}, {"is_disabled": 0, "is_reserved": 0, "fusion_lat": 0.0, "lat": 38.880783666666666, "fusion_lon": 0.0, "rental_uris": {"ios": "https://dc.lft.to/lastmile_qr_scan", "android": "https://dc.lft.to/lastmile_qr_scan"}, "lon": -76.98532266666666, "bike_id": "b0848ff9abe5daa4f22c718448c9d485", "type": "electric_bike", "name": "b0848ff9abe5daa4f22c718448c9d485"}, {"is_disabled": 0, "is_reserved": 0, "fusion_lat": 0.0, "lat": 38.875251666666664, "fusion_lon": 0.0, "rental_uris": {"ios": "https://dc.lft.to/lastmile_qr_scan", "android": "https://dc.lft.to/lastmile_qr_scan"}, "lon": -77.012293, "bike_id": "dab093ceb839ef8488a14ec7804ffa85", "type": "electric_scooter", "name": "dab093ceb839ef8488a14ec7804ffa85"}, {"is_disabled": 0, "is_reserved": 0, "fusion_lat": 0.0, "lat": 38.949114, "fusion_lon": 0.0, "rental_uris": {"ios": "https://dc.lft.to/lastmile_qr_scan", "android": "https://dc.lft.to/lastmile_qr_scan"}, "lon": -77.02081133333333, "bike_id": "086c4361c55c2ad01049d6a1e17cacc8", "type": "electric_scooter", "name": "086c4361c55c2ad01049d6a1e17cacc8"}, {"is_disabled": 0, "is_reserved": 0, "fusion_lat": 0.0, "lat": 38.9155345, "fusion_lon": 0.0, "rental_uris": {"ios": "https://dc.lft.to/lastmile_qr_scan", "android": "https://dc.lft.to/lastmile_qr_scan"}, "lon": -77.00367383333334, "bike_id": "274b8ac6199f9deb5e24648eccbeadaf", "type": "electric_scooter", "name": "274b8ac6199f9deb5e24648eccbeadaf"}, {"is_disabled": 0, "is_reserved": 0, "fusion_lat": 0.0, "lat": 38.92705216666667, "fusion_lon": 0.0, "rental_uris": {"ios": "https://dc.lft.to/lastmile_qr_scan", "android": "https://dc.lft.to/lastmile_qr_scan"}, "lon": -76.960796, "bike_id": "1a76b3b693f71fc25d71c86126e023b0", "type": "electric_scooter", "name": "1a76b3b693f71fc25d71c86126e023b0"}, {"is_disabled": 0, "is_reserved": 0, "fusion_lat": 0.0, "lat": 38.9252415, "fusion_lon": 0.0, "rental_uris": {"ios": "https://dc.lft.to/lastmile_qr_scan", "android": "https://dc.lft.to/lastmile_qr_scan"}, "lon": -77.0385135, "bike_id": "442d4bf9276b4b7730412d0a2049784f", "type": "electric_scooter", "name": "442d4bf9276b4b7730412d0a2049784f"}, {"is_disabled": 0, "is_reserved": 0, "fusion_lat": 0.0, "lat": 38.90167683333333, "fusion_lon": 0.0, "rental_uris": {"ios": "https://dc.lft.to/lastmile_qr_scan", "android": "https://dc.lft.to/lastmile_qr_scan"}, "lon": -77.0238115, "bike_id": "6e360d784bedc6e0fd49a5268c36fedf", "type": "electric_scooter", "name": "6e360d784bedc6e0fd49a5268c36fedf"}, {"is_disabled": 0, "is_reserved": 0, "fusion_lat": 0.0, "lat": 38.916210166666666, "fusion_lon": 0.0, "rental_uris": {"ios": "https://dc.lft.to/lastmile_qr_scan", "android": "https://dc.lft.to/lastmile_qr_scan"}, "lon": -77.02111016666667, "bike_id": "d3432316a67f6d88a3759f343186f058", "type": "electric_scooter", "name": "d3432316a67f6d88a3759f343186f058"}, {"is_disabled": 0, "is_reserved": 0, "fusion_lat": 0.0, "lat": 38.91815716666667, "fusion_lon": 0.0, "rental_uris": {"ios": "https://dc.lft.to/lastmile_qr_scan", "android": "https://dc.lft.to/lastmile_qr_scan"}, "lon": -77.02533333333334, "bike_id": "589fe192f42782a450bf3892c6254d9e", "type": "electric_scooter", "name": "589fe192f42782a450bf3892c6254d9e"}, {"is_disabled": 0, "is_reserved": 0, "fusion_lat": 0.0, "lat": 38.90530966666667, "fusion_lon": 0.0, "rental_uris": {"ios": "https://dc.lft.to/lastmile_qr_scan", "android": "https://dc.lft.to/lastmile_qr_scan"}, "lon": -77.04867033333333, "bike_id": "bc3c1d05822839927de3aa6ef319f4ae", "type": "electric_scooter", "name": "bc3c1d05822839927de3aa6ef319f4ae"}, {"is_disabled": 0, "is_reserved": 0, "fusion_lat": 0.0, "lat": 38.91211666666667, "fusion_lon": 0.0, "rental_uris": {"ios": "https://dc.lft.to/lastmile_qr_scan", "android": "https://dc.lft.to/lastmile_qr_scan"}, "lon": -77.07593266666667, "bike_id": "d2f7a4e68260bae1fcc4d666cd197b91", "type": "electric_scooter", "name": "d2f7a4e68260bae1fcc4d666cd197b91"}, {"is_disabled": 0, "is_reserved": 0, "fusion_lat": 0.0, "lat": 38.92109133333334, "fusion_lon": 0.0, "rental_uris": {"ios": "https://dc.lft.to/lastmile_qr_scan", "android": "https://dc.lft.to/lastmile_qr_scan"}, "lon": -77.02187833333333, "bike_id": "8112cd950e30812a295f9b5baffddb9f", "type": "electric_scooter", "name": "8112cd950e30812a295f9b5baffddb9f"}, {"is_disabled": 0, "is_reserved": 0, "fusion_lat": 0.0, "lat": 38.905120833333335, "fusion_lon": 0.0, "rental_uris": {"ios": "https://dc.lft.to/lastmile_qr_scan", "android": "https://dc.lft.to/lastmile_qr_scan"}, "lon": -76.9520055, "bike_id": "e05017024bb972edd3c23d20041074e5", "type": "electric_scooter", "name": "e05017024bb972edd3c23d20041074e5"}, {"is_disabled": 0, "is_reserved": 0, "fusion_lat": 0.0, "lat": 38.9003375, "fusion_lon": 0.0, "rental_uris": {"ios": "https://dc.lft.to/lastmile_qr_scan", "android": "https://dc.lft.to/lastmile_qr_scan"}, "lon": -77.00209033333333, "bike_id": "ad33d3600f631c4ab2c77f2f4f7a448b", "type": "electric_scooter", "name": "ad33d3600f631c4ab2c77f2f4f7a448b"}, {"is_disabled": 0, "is_reserved": 0, "fusion_lat": 0.0, "lat": 38.917671166666665, "fusion_lon": 0.0, "rental_uris": {"ios": "https://dc.lft.to/lastmile_qr_scan", "android": "https://dc.lft.to/lastmile_qr_scan"}, "lon": -77.02953266666667, "bike_id": "7086167a14f936e3ccae1989cc0d0135", "type": "electric_scooter", "name": "7086167a14f936e3ccae1989cc0d0135"}, {"is_disabled": 0, "is_reserved": 0, "fusion_lat": 0.0, "lat": 38.918041333333335, "fusion_lon": 0.0, "rental_uris": {"ios": "https://dc.lft.to/lastmile_qr_scan", "android": "https://dc.lft.to/lastmile_qr_scan"}, "lon": -77.02491683333334, "bike_id": "e1c581c05032bd299ad473d1abc17fd6", "type": "electric_scooter", "name": "e1c581c05032bd299ad473d1abc17fd6"}, {"is_disabled": 0, "is_reserved": 0, "fusion_lat": 0.0, "lat": 38.9125495, "fusion_lon": 0.0, "rental_uris": {"ios": "https://dc.lft.to/lastmile_qr_scan", "android": "https://dc.lft.to/lastmile_qr_scan"}, "lon": -77.03829433333334, "bike_id": "7dfcd0e5eab4d33f7542c6934da48771", "type": "electric_scooter", "name": "7dfcd0e5eab4d33f7542c6934da48771"}, {"is_disabled": 0, "is_reserved": 0, "fusion_lat": 0.0, "lat": 38.896019833333334, "fusion_lon": 0.0, "rental_uris": {"ios": "https://dc.lft.to/lastmile_qr_scan", "android": "https://dc.lft.to/lastmile_qr_scan"}, "lon": -77.045061, "bike_id": "7a21d09587d5485d86930a6247dc91dd", "type": "electric_scooter", "name": "7a21d09587d5485d86930a6247dc91dd"}, {"is_disabled": 0, "is_reserved": 0, "fusion_lat": 0.0, "lat": 38.89986283333333, "fusion_lon": 0.0, "rental_uris": {"ios": "https://dc.lft.to/lastmile_qr_scan", "android": "https://dc.lft.to/lastmile_qr_scan"}, "lon": -77.02682266666666, "bike_id": "1094823bc2fee21fa8d4a3232a210253", "type": "electric_scooter", "name": "1094823bc2fee21fa8d4a3232a210253"}, {"is_disabled": 0, "is_reserved": 0, "fusion_lat": 0.0, "lat": 38.9217245, "fusion_lon": 0.0, "rental_uris": {"ios": "https://dc.lft.to/lastmile_qr_scan", "android": "https://dc.lft.to/lastmile_qr_scan"}, "lon": -77.04230833333334, "bike_id": "d1e2dbd28af074bc32ae9c83d3f75ba1", "type": "electric_scooter", "name": "d1e2dbd28af074bc32ae9c83d3f75ba1"}, {"is_disabled": 0, "is_reserved": 0, "fusion_lat": 0.0, "lat": 38.87285516666667, "fusion_lon": 0.0, "rental_uris": {"ios": "https://dc.lft.to/lastmile_qr_scan", "android": "https://dc.lft.to/lastmile_qr_scan"}, "lon": -77.0099035, "bike_id": "33937741e47f8e6b20ce2153035376c4", "type": "electric_scooter", "name": "33937741e47f8e6b20ce2153035376c4"}, {"is_disabled": 0, "is_reserved": 0, "fusion_lat": 0.0, "lat": 38.8563905, "fusion_lon": 0.0, "rental_uris": {"ios": "https://dc.lft.to/lastmile_qr_scan", "android": "https://dc.lft.to/lastmile_qr_scan"}, "lon": -77.0683025, "bike_id": "a5266b56b157bd75d0ad00453331ecf7", "type": "electric_bike", "name": "a5266b56b157bd75d0ad00453331ecf7"}, {"is_disabled": 0, "is_reserved": 0, "fusion_lat": 0.0, "lat": 38.9009285, "fusion_lon": 0.0, "rental_uris": {"ios": "https://dc.lft.to/lastmile_qr_scan", "android": "https://dc.lft.to/lastmile_qr_scan"}, "lon": -77.03796566666666, "bike_id": "ed94708ca15d706b5492dbc55c442ef9", "type": "electric_scooter", "name": "ed94708ca15d706b5492dbc55c442ef9"}, {"is_disabled": 0, "is_reserved": 0, "fusion_lat": 0.0, "lat": 38.882197, "fusion_lon": 0.0, "rental_uris": {"ios": "https://dc.lft.to/lastmile_qr_scan", "android": "https://dc.lft.to/lastmile_qr_scan"}, "lon": -76.997346, "bike_id": "3a741813774c08e6821865b0ff6ab081", "type": "electric_scooter", "name": "3a741813774c08e6821865b0ff6ab081"}, {"is_disabled": 0, "is_reserved": 0, "fusion_lat": 0.0, "lat": 38.865637666666665, "fusion_lon": 0.0, "rental_uris": {"ios": "https://dc.lft.to/lastmile_qr_scan", "android": "https://dc.lft.to/lastmile_qr_scan"}, "lon": -76.97469383333333, "bike_id": "f13f4e73bf5080ccb16c7489616df3ad", "type": "electric_bike", "name": "f13f4e73bf5080ccb16c7489616df3ad"}, {"is_disabled": 0, "is_reserved": 0, "fusion_lat": 0.0, "lat": 38.90105333333333, "fusion_lon": 0.0, "rental_uris": {"ios": "https://dc.lft.to/lastmile_qr_scan", "android": "https://dc.lft.to/lastmile_qr_scan"}, "lon": -77.0180715, "bike_id": "2c97701836a5877c6db08613f5747e5d", "type": "electric_scooter", "name": "2c97701836a5877c6db08613f5747e5d"}, {"is_disabled": 0, "is_reserved": 0, "fusion_lat": 0.0, "lat": 38.824297333333334, "fusion_lon": 0.0, "rental_uris": {"ios": "https://dc.lft.to/lastmile_qr_scan", "android": "https://dc.lft.to/lastmile_qr_scan"}, "lon": -77.1204155, "bike_id": "d59d22b7bf6045e11001e7a6f5ad2d09", "type": "electric_bike", "name": "d59d22b7bf6045e11001e7a6f5ad2d09"}, {"is_disabled": 0, "is_reserved": 0, "fusion_lat": 0.0, "lat": 38.92063866666667, "fusion_lon": 0.0, "rental_uris": {"ios": "https://dc.lft.to/lastmile_qr_scan", "android": "https://dc.lft.to/lastmile_qr_scan"}, "lon": -77.02418566666667, "bike_id": "00a37bccbb3a5fcdf6e148a03fb50f69", "type": "electric_scooter", "name": "00a37bccbb3a5fcdf6e148a03fb50f69"}, {"is_disabled": 0, "is_reserved": 0, "fusion_lat": 0.0, "lat": 38.892719166666666, "fusion_lon": 0.0, "rental_uris": {"ios": "https://dc.lft.to/lastmile_qr_scan", "android": "https://dc.lft.to/lastmile_qr_scan"}, "lon": -77.0465135, "bike_id": "b62cc130d51312fce0f23a030b5918b3", "type": "electric_scooter", "name": "b62cc130d51312fce0f23a030b5918b3"}, {"is_disabled": 0, "is_reserved": 0, "fusion_lat": 0.0, "lat": 38.92488383333333, "fusion_lon": 0.0, "rental_uris": {"ios": "https://dc.lft.to/lastmile_qr_scan", "android": "https://dc.lft.to/lastmile_qr_scan"}, "lon": -77.02626316666667, "bike_id": "1a81a24a124143d059697b840853a2a4", "type": "electric_scooter", "name": "1a81a24a124143d059697b840853a2a4"}, {"is_disabled": 0, "is_reserved": 0, "fusion_lat": 0.0, "lat": 38.878555, "fusion_lon": 0.0, "rental_uris": {"ios": "https://dc.lft.to/lastmile_qr_scan", "android": "https://dc.lft.to/lastmile_qr_scan"}, "lon": -77.01877, "bike_id": "cdbf1daaf9562caea2b7deb1a79b0bb8", "type": "electric_scooter", "name": "cdbf1daaf9562caea2b7deb1a79b0bb8"}, {"is_disabled": 0, "is_reserved": 0, "fusion_lat": 0.0, "lat": 38.8873545, "fusion_lon": 0.0, "rental_uris": {"ios": "https://dc.lft.to/lastmile_qr_scan", "android": "https://dc.lft.to/lastmile_qr_scan"}, "lon": -76.98352933333334, "bike_id": "574c4d97f65f1d821e19355e998d0266", "type": "electric_bike", "name": "574c4d97f65f1d821e19355e998d0266"}, {"is_disabled": 0, "is_reserved": 0, "fusion_lat": 0.0, "lat": 38.9592945, "fusion_lon": 0.0, "rental_uris": {"ios": "https://dc.lft.to/lastmile_qr_scan", "android": "https://dc.lft.to/lastmile_qr_scan"}, "lon": -76.925336, "bike_id": "c5e39a99a20add6e0bf929baa0fa4d17", "type": "electric_bike", "name": "c5e39a99a20add6e0bf929baa0fa4d17"}, {"is_disabled": 0, "is_reserved": 0, "fusion_lat": 0.0, "lat": 38.86371666666667, "fusion_lon": 0.0, "rental_uris": {"ios": "https://dc.lft.to/lastmile_qr_scan", "android": "https://dc.lft.to/lastmile_qr_scan"}, "lon": -77.0136455, "bike_id": "b827c7947e6e3eb4600475adad8c328e", "type": "electric_scooter", "name": "b827c7947e6e3eb4600475adad8c328e"}, {"is_disabled": 0, "is_reserved": 0, "fusion_lat": 0.0, "lat": 38.85514883333333, "fusion_lon": 0.0, "rental_uris": {"ios": "https://dc.lft.to/lastmile_qr_scan", "android": "https://dc.lft.to/lastmile_qr_scan"}, "lon": -77.10155833333333, "bike_id": "b1a6fd9a93a9343ba805667646149ede", "type": "electric_bike", "name": "b1a6fd9a93a9343ba805667646149ede"}, {"is_disabled": 0, "is_reserved": 0, "fusion_lat": 0.0, "lat": 38.9325545, "fusion_lon": 0.0, "rental_uris": {"ios": "https://dc.lft.to/lastmile_qr_scan", "android": "https://dc.lft.to/lastmile_qr_scan"}, "lon": -77.03293083333334, "bike_id": "f866a4c82260ead91b5d55559d4c3a6f", "type": "electric_scooter", "name": "f866a4c82260ead91b5d55559d4c3a6f"}, {"is_disabled": 0, "is_reserved": 0, "fusion_lat": 0.0, "lat": 38.927221333333335, "fusion_lon": 0.0, "rental_uris": {"ios": "https://dc.lft.to/lastmile_qr_scan", "android": "https://dc.lft.to/lastmile_qr_scan"}, "lon": -77.0514135, "bike_id": "5d6bda2d8450b855d67f3359eed516bd", "type": "electric_scooter", "name": "5d6bda2d8450b855d67f3359eed516bd"}, {"is_disabled": 0, "is_reserved": 0, "fusion_lat": 0.0, "lat": 38.899967333333336, "fusion_lon": 0.0, "rental_uris": {"ios": "https://dc.lft.to/lastmile_qr_scan", "android": "https://dc.lft.to/lastmile_qr_scan"}, "lon": -77.02683233333333, "bike_id": "b14361dc0e40344dbed3c7158683be19", "type": "electric_scooter", "name": "b14361dc0e40344dbed3c7158683be19"}, {"is_disabled": 0, "is_reserved": 0, "fusion_lat": 0.0, "lat": 38.92738716666667, "fusion_lon": 0.0, "rental_uris": {"ios": "https://dc.lft.to/lastmile_qr_scan", "android": "https://dc.lft.to/lastmile_qr_scan"}, "lon": -77.0230665, "bike_id": "acd517398eb8f3d3a88b03137df1d53c", "type": "electric_scooter", "name": "acd517398eb8f3d3a88b03137df1d53c"}, {"is_disabled": 0, "is_reserved": 0, "fusion_lat": 0.0, "lat": 38.931469, "fusion_lon": 0.0, "rental_uris": {"ios": "https://dc.lft.to/lastmile_qr_scan", "android": "https://dc.lft.to/lastmile_qr_scan"}, "lon": -77.07848916666667, "bike_id": "10f9fcb8da6bc2f9ef8f2e8d35a0b67e", "type": "electric_scooter", "name": "10f9fcb8da6bc2f9ef8f2e8d35a0b67e"}, {"is_disabled": 0, "is_reserved": 0, "fusion_lat": 0.0, "lat": 38.953633833333335, "fusion_lon": 0.0, "rental_uris": {"ios": "https://dc.lft.to/lastmile_qr_scan", "android": "https://dc.lft.to/lastmile_qr_scan"}, "lon": -76.9429665, "bike_id": "f0045ab7c030defc18513f6ac37a41aa", "type": "electric_bike", "name": "f0045ab7c030defc18513f6ac37a41aa"}, {"is_disabled": 0, "is_reserved": 0, "fusion_lat": 0.0, "lat": 38.8917335, "fusion_lon": 0.0, "rental_uris": {"ios": "https://dc.lft.to/lastmile_qr_scan", "android": "https://dc.lft.to/lastmile_qr_scan"}, "lon": -77.01563316666666, "bike_id": "a19e22bd4d20aa90ef01df63637c01e7", "type": "electric_scooter", "name": "a19e22bd4d20aa90ef01df63637c01e7"}, {"is_disabled": 0, "is_reserved": 0, "fusion_lat": 0.0, "lat": 38.894422, "fusion_lon": 0.0, "rental_uris": {"ios": "https://dc.lft.to/lastmile_qr_scan", "android": "https://dc.lft.to/lastmile_qr_scan"}, "lon": -76.98000333333333, "bike_id": "948698a19fc461e70589f101fb50a87b", "type": "electric_scooter", "name": "948698a19fc461e70589f101fb50a87b"}, {"is_disabled": 0, "is_reserved": 0, "fusion_lat": 0.0, "lat": 38.939760166666666, "fusion_lon": 0.0, "rental_uris": {"ios": "https://dc.lft.to/lastmile_qr_scan", "android": "https://dc.lft.to/lastmile_qr_scan"}, "lon": -77.034349, "bike_id": "fa509e0c8da40c2a59a42f0c74ccc960", "type": "electric_scooter", "name": "fa509e0c8da40c2a59a42f0c74ccc960"}, {"is_disabled": 0, "is_reserved": 0, "fusion_lat": 0.0, "lat": 38.837696, "fusion_lon": 0.0, "rental_uris": {"ios": "https://dc.lft.to/lastmile_qr_scan", "android": "https://dc.lft.to/lastmile_qr_scan"}, "lon": -76.99858, "bike_id": "fb8a303d79c4aa810453ed686a59b6a6", "type": "electric_scooter", "name": "fb8a303d79c4aa810453ed686a59b6a6"}, {"is_disabled": 0, "is_reserved": 0, "fusion_lat": 0.0, "lat": 38.90342666666667, "fusion_lon": 0.0, "rental_uris": {"ios": "https://dc.lft.to/lastmile_qr_scan", "android": "https://dc.lft.to/lastmile_qr_scan"}, "lon": -76.9757405, "bike_id": "0474e4117d99967eafc527da96e7a1e6", "type": "electric_scooter", "name": "0474e4117d99967eafc527da96e7a1e6"}, {"is_disabled": 0, "is_reserved": 0, "fusion_lat": 0.0, "lat": 38.905995, "fusion_lon": 0.0, "rental_uris": {"ios": "https://dc.lft.to/lastmile_qr_scan", "android": "https://dc.lft.to/lastmile_qr_scan"}, "lon": -77.041534, "bike_id": "4e5f0de5ade537f1fee7e49c0f3818fc", "type": "electric_scooter", "name": "4e5f0de5ade537f1fee7e49c0f3818fc"}, {"is_disabled": 0, "is_reserved": 0, "fusion_lat": 0.0, "lat": 39.003826, "fusion_lon": 0.0, "rental_uris": {"ios": "https://dc.lft.to/lastmile_qr_scan", "android": "https://dc.lft.to/lastmile_qr_scan"}, "lon": -77.01291416666666, "bike_id": "d53199419900d085ca69449290161972", "type": "electric_bike", "name": "d53199419900d085ca69449290161972"}, {"is_disabled": 0, "is_reserved": 0, "fusion_lat": 0.0, "lat": 38.90089966666667, "fusion_lon": 0.0, "rental_uris": {"ios": "https://dc.lft.to/lastmile_qr_scan", "android": "https://dc.lft.to/lastmile_qr_scan"}, "lon": -77.05062366666667, "bike_id": "8a28e0c11a5c81fd23a0b6ce13888252", "type": "electric_scooter", "name": "8a28e0c11a5c81fd23a0b6ce13888252"}, {"is_disabled": 0, "is_reserved": 0, "fusion_lat": 0.0, "lat": 38.91913816666667, "fusion_lon": 0.0, "rental_uris": {"ios": "https://dc.lft.to/lastmile_qr_scan", "android": "https://dc.lft.to/lastmile_qr_scan"}, "lon": -77.03175366666666, "bike_id": "bd944efda9f8e908ed6b02452cbf73d2", "type": "electric_scooter", "name": "bd944efda9f8e908ed6b02452cbf73d2"}, {"is_disabled": 0, "is_reserved": 0, "fusion_lat": 0.0, "lat": 38.913661166666664, "fusion_lon": 0.0, "rental_uris": {"ios": "https://dc.lft.to/lastmile_qr_scan", "android": "https://dc.lft.to/lastmile_qr_scan"}, "lon": -77.02055366666667, "bike_id": "53ea2bcf5a2fae64a09853c322dc2be2", "type": "electric_scooter", "name": "53ea2bcf5a2fae64a09853c322dc2be2"}, {"is_disabled": 0, "is_reserved": 0, "fusion_lat": 0.0, "lat": 38.90956366666666, "fusion_lon": 0.0, "rental_uris": {"ios": "https://dc.lft.to/lastmile_qr_scan", "android": "https://dc.lft.to/lastmile_qr_scan"}, "lon": -77.02279283333333, "bike_id": "c63d8a8b628e0e68d803d45fcdd8a82e", "type": "electric_scooter", "name": "c63d8a8b628e0e68d803d45fcdd8a82e"}, {"is_disabled": 0, "is_reserved": 0, "fusion_lat": 0.0, "lat": 38.92241683333334, "fusion_lon": 0.0, "rental_uris": {"ios": "https://dc.lft.to/lastmile_qr_scan", "android": "https://dc.lft.to/lastmile_qr_scan"}, "lon": -77.03894533333333, "bike_id": "9c7369adecb4da03a93246cc3957488f", "type": "electric_scooter", "name": "9c7369adecb4da03a93246cc3957488f"}, {"is_disabled": 0, "is_reserved": 0, "fusion_lat": 0.0, "lat": 38.90256616666667, "fusion_lon": 0.0, "rental_uris": {"ios": "https://dc.lft.to/lastmile_qr_scan", "android": "https://dc.lft.to/lastmile_qr_scan"}, "lon": -77.00167533333334, "bike_id": "ef4584c4ab2a8496040c7aeab73bd516", "type": "electric_scooter", "name": "ef4584c4ab2a8496040c7aeab73bd516"}, {"is_disabled": 0, "is_reserved": 0, "fusion_lat": 0.0, "lat": 38.92521266666667, "fusion_lon": 0.0, "rental_uris": {"ios": "https://dc.lft.to/lastmile_qr_scan", "android": "https://dc.lft.to/lastmile_qr_scan"}, "lon": -77.03845216666667, "bike_id": "1daec2eaf5e3f7dba0f04329334df413", "type": "electric_scooter", "name": "1daec2eaf5e3f7dba0f04329334df413"}, {"is_disabled": 0, "is_reserved": 0, "fusion_lat": 0.0, "lat": 38.9082635, "fusion_lon": 0.0, "rental_uris": {"ios": "https://dc.lft.to/lastmile_qr_scan", "android": "https://dc.lft.to/lastmile_qr_scan"}, "lon": -76.98263966666667, "bike_id": "6c04516e615e0aaa4e2b80aeb555c1d7", "type": "electric_scooter", "name": "6c04516e615e0aaa4e2b80aeb555c1d7"}, {"is_disabled": 0, "is_reserved": 0, "fusion_lat": 0.0, "lat": 38.831584, "fusion_lon": 0.0, "rental_uris": {"ios": "https://dc.lft.to/lastmile_qr_scan", "android": "https://dc.lft.to/lastmile_qr_scan"}, "lon": -76.995711, "bike_id": "5d6f99bb00c71e073cfeb876f0448475", "type": "electric_bike", "name": "5d6f99bb00c71e073cfeb876f0448475"}, {"is_disabled": 0, "is_reserved": 0, "fusion_lat": 0.0, "lat": 38.870895166666664, "fusion_lon": 0.0, "rental_uris": {"ios": "https://dc.lft.to/lastmile_qr_scan", "android": "https://dc.lft.to/lastmile_qr_scan"}, "lon": -77.1333215, "bike_id": "ddba0b357de2dd13bfae6748c9e16b3f", "type": "electric_bike", "name": "ddba0b357de2dd13bfae6748c9e16b3f"}, {"is_disabled": 0, "is_reserved": 0, "fusion_lat": 0.0, "lat": 38.90782516666667, "fusion_lon": 0.0, "rental_uris": {"ios": "https://dc.lft.to/lastmile_qr_scan", "android": "https://dc.lft.to/lastmile_qr_scan"}, "lon": -77.04511433333333, "bike_id": "07f2cb665c554255c3234dc0dcc2420e", "type": "electric_scooter", "name": "07f2cb665c554255c3234dc0dcc2420e"}, {"is_disabled": 0, "is_reserved": 0, "fusion_lat": 0.0, "lat": 38.90200183333333, "fusion_lon": 0.0, "rental_uris": {"ios": "https://dc.lft.to/lastmile_qr_scan", "android": "https://dc.lft.to/lastmile_qr_scan"}, "lon": -77.033962, "bike_id": "2bb123d1fdd4a971243bcb63397927ee", "type": "electric_scooter", "name": "2bb123d1fdd4a971243bcb63397927ee"}, {"is_disabled": 0, "is_reserved": 0, "fusion_lat": 0.0, "lat": 38.84647016666667, "fusion_lon": 0.0, "rental_uris": {"ios": "https://dc.lft.to/lastmile_qr_scan", "android": "https://dc.lft.to/lastmile_qr_scan"}, "lon": -77.003648, "bike_id": "f2df257c13cf6da4990ef4c4124eee9c", "type": "electric_scooter", "name": "f2df257c13cf6da4990ef4c4124eee9c"}, {"is_disabled": 0, "is_reserved": 0, "fusion_lat": 0.0, "lat": 38.8802305, "fusion_lon": 0.0, "rental_uris": {"ios": "https://dc.lft.to/lastmile_qr_scan", "android": "https://dc.lft.to/lastmile_qr_scan"}, "lon": -76.9431945, "bike_id": "04f25474010aee6a629e803bb5f92f90", "type": "electric_scooter", "name": "04f25474010aee6a629e803bb5f92f90"}, {"is_disabled": 0, "is_reserved": 0, "fusion_lat": 0.0, "lat": 38.90042583333334, "fusion_lon": 0.0, "rental_uris": {"ios": "https://dc.lft.to/lastmile_qr_scan", "android": "https://dc.lft.to/lastmile_qr_scan"}, "lon": -77.01784083333334, "bike_id": "a7b94af4799ea1bf041b8f96203dd32e", "type": "electric_scooter", "name": "a7b94af4799ea1bf041b8f96203dd32e"}, {"is_disabled": 0, "is_reserved": 0, "fusion_lat": 0.0, "lat": 38.88710533333333, "fusion_lon": 0.0, "rental_uris": {"ios": "https://dc.lft.to/lastmile_qr_scan", "android": "https://dc.lft.to/lastmile_qr_scan"}, "lon": -76.983444, "bike_id": "ef8a7a3a1546f2fcb712d87ea9a2d5df", "type": "electric_scooter", "name": "ef8a7a3a1546f2fcb712d87ea9a2d5df"}, {"is_disabled": 0, "is_reserved": 0, "fusion_lat": 0.0, "lat": 38.917269833333336, "fusion_lon": 0.0, "rental_uris": {"ios": "https://dc.lft.to/lastmile_qr_scan", "android": "https://dc.lft.to/lastmile_qr_scan"}, "lon": -77.03313616666667, "bike_id": "5fed0b79caf85ad0c167aec8561aeb0d", "type": "electric_scooter", "name": "5fed0b79caf85ad0c167aec8561aeb0d"}, {"is_disabled": 0, "is_reserved": 0, "fusion_lat": 0.0, "lat": 38.9058245, "fusion_lon": 0.0, "rental_uris": {"ios": "https://dc.lft.to/lastmile_qr_scan", "android": "https://dc.lft.to/lastmile_qr_scan"}, "lon": -77.05139416666667, "bike_id": "f5d52808f5bde911f77a38a4ac83ffc5", "type": "electric_scooter", "name": "f5d52808f5bde911f77a38a4ac83ffc5"}, {"is_disabled": 0, "is_reserved": 0, "fusion_lat": 0.0, "lat": 38.90259266666666, "fusion_lon": 0.0, "rental_uris": {"ios": "https://dc.lft.to/lastmile_qr_scan", "android": "https://dc.lft.to/lastmile_qr_scan"}, "lon": -77.0017215, "bike_id": "6c8c3c6506b31e310ef766bb1410dacc", "type": "electric_scooter", "name": "6c8c3c6506b31e310ef766bb1410dacc"}, {"is_disabled": 0, "is_reserved": 0, "fusion_lat": 0.0, "lat": 38.908343333333335, "fusion_lon": 0.0, "rental_uris": {"ios": "https://dc.lft.to/lastmile_qr_scan", "android": "https://dc.lft.to/lastmile_qr_scan"}, "lon": -77.07308583333334, "bike_id": "aa3b9207fc04fb00d386cfb1a1c5e18b", "type": "electric_scooter", "name": "aa3b9207fc04fb00d386cfb1a1c5e18b"}, {"is_disabled": 0, "is_reserved": 0, "fusion_lat": 0.0, "lat": 38.92483216666667, "fusion_lon": 0.0, "rental_uris": {"ios": "https://dc.lft.to/lastmile_qr_scan", "android": "https://dc.lft.to/lastmile_qr_scan"}, "lon": -77.02796866666667, "bike_id": "9364f4ba2bf39c86a4296f340f543519", "type": "electric_scooter", "name": "9364f4ba2bf39c86a4296f340f543519"}, {"is_disabled": 0, "is_reserved": 0, "fusion_lat": 0.0, "lat": 38.920580666666666, "fusion_lon": 0.0, "rental_uris": {"ios": "https://dc.lft.to/lastmile_qr_scan", "android": "https://dc.lft.to/lastmile_qr_scan"}, "lon": -77.025093, "bike_id": "3b688a76d88bb98f3309ed1212dc7684", "type": "electric_scooter", "name": "3b688a76d88bb98f3309ed1212dc7684"}, {"is_disabled": 0, "is_reserved": 0, "fusion_lat": 0.0, "lat": 38.93453683333333, "fusion_lon": 0.0, "rental_uris": {"ios": "https://dc.lft.to/lastmile_qr_scan", "android": "https://dc.lft.to/lastmile_qr_scan"}, "lon": -77.02836766666667, "bike_id": "1815ada194fcc44b366a52c20abc0d34", "type": "electric_scooter", "name": "1815ada194fcc44b366a52c20abc0d34"}, {"is_disabled": 0, "is_reserved": 0, "fusion_lat": 0.0, "lat": 38.92785033333333, "fusion_lon": 0.0, "rental_uris": {"ios": "https://dc.lft.to/lastmile_qr_scan", "android": "https://dc.lft.to/lastmile_qr_scan"}, "lon": -77.03147783333333, "bike_id": "ab97b84f6b11a8dde84f28c0ff3ccf8f", "type": "electric_scooter", "name": "ab97b84f6b11a8dde84f28c0ff3ccf8f"}, {"is_disabled": 0, "is_reserved": 0, "fusion_lat": 0.0, "lat": 38.89687983333334, "fusion_lon": 0.0, "rental_uris": {"ios": "https://dc.lft.to/lastmile_qr_scan", "android": "https://dc.lft.to/lastmile_qr_scan"}, "lon": -77.02403733333334, "bike_id": "b5733af38e68de955c3363655e984f62", "type": "electric_scooter", "name": "b5733af38e68de955c3363655e984f62"}, {"is_disabled": 0, "is_reserved": 0, "fusion_lat": 0.0, "lat": 38.9319675, "fusion_lon": 0.0, "rental_uris": {"ios": "https://dc.lft.to/lastmile_qr_scan", "android": "https://dc.lft.to/lastmile_qr_scan"}, "lon": -77.02354433333333, "bike_id": "89aed2acdea77d142eb4a2be21b8b35e", "type": "electric_scooter", "name": "89aed2acdea77d142eb4a2be21b8b35e"}, {"is_disabled": 0, "is_reserved": 0, "fusion_lat": 0.0, "lat": 38.917905, "fusion_lon": 0.0, "rental_uris": {"ios": "https://dc.lft.to/lastmile_qr_scan", "android": "https://dc.lft.to/lastmile_qr_scan"}, "lon": -77.02319666666666, "bike_id": "23c26f989c4620382e85ace0ac86f777", "type": "electric_scooter", "name": "23c26f989c4620382e85ace0ac86f777"}, {"is_disabled": 0, "is_reserved": 0, "fusion_lat": 0.0, "lat": 38.896222, "fusion_lon": 0.0, "rental_uris": {"ios": "https://dc.lft.to/lastmile_qr_scan", "android": "https://dc.lft.to/lastmile_qr_scan"}, "lon": -76.907503, "bike_id": "d02726271deeb8e92670ef9460a0b5d3", "type": "electric_bike", "name": "d02726271deeb8e92670ef9460a0b5d3"}, {"is_disabled": 0, "is_reserved": 0, "fusion_lat": 0.0, "lat": 38.90158616666667, "fusion_lon": 0.0, "rental_uris": {"ios": "https://dc.lft.to/lastmile_qr_scan", "android": "https://dc.lft.to/lastmile_qr_scan"}, "lon": -77.05335683333334, "bike_id": "ef1e38d207f86e9d33a2728885f590cc", "type": "electric_scooter", "name": "ef1e38d207f86e9d33a2728885f590cc"}, {"is_disabled": 0, "is_reserved": 0, "fusion_lat": 0.0, "lat": 38.91916766666667, "fusion_lon": 0.0, "rental_uris": {"ios": "https://dc.lft.to/lastmile_qr_scan", "android": "https://dc.lft.to/lastmile_qr_scan"}, "lon": -77.0119035, "bike_id": "06a9c0a02618b90c3f011ee93ca7b562", "type": "electric_scooter", "name": "06a9c0a02618b90c3f011ee93ca7b562"}, {"is_disabled": 0, "is_reserved": 0, "fusion_lat": 0.0, "lat": 38.95875566666667, "fusion_lon": 0.0, "rental_uris": {"ios": "https://dc.lft.to/lastmile_qr_scan", "android": "https://dc.lft.to/lastmile_qr_scan"}, "lon": -77.01400966666667, "bike_id": "c940b71e95378c8163761138d040071a", "type": "electric_bike", "name": "c940b71e95378c8163761138d040071a"}, {"is_disabled": 0, "is_reserved": 0, "fusion_lat": 0.0, "lat": 38.922609, "fusion_lon": 0.0, "rental_uris": {"ios": "https://dc.lft.to/lastmile_qr_scan", "android": "https://dc.lft.to/lastmile_qr_scan"}, "lon": -77.0342205, "bike_id": "2a7076eda075c4b031029ffb814a0ba2", "type": "electric_scooter", "name": "2a7076eda075c4b031029ffb814a0ba2"}, {"is_disabled": 0, "is_reserved": 0, "fusion_lat": 0.0, "lat": 38.87886483333333, "fusion_lon": 0.0, "rental_uris": {"ios": "https://dc.lft.to/lastmile_qr_scan", "android": "https://dc.lft.to/lastmile_qr_scan"}, "lon": -76.9654545, "bike_id": "67d0d2a0317460c51d9cd86c93c323f5", "type": "electric_scooter", "name": "67d0d2a0317460c51d9cd86c93c323f5"}, {"is_disabled": 0, "is_reserved": 0, "fusion_lat": 0.0, "lat": 38.92329316666667, "fusion_lon": 0.0, "rental_uris": {"ios": "https://dc.lft.to/lastmile_qr_scan", "android": "https://dc.lft.to/lastmile_qr_scan"}, "lon": -77.03667466666667, "bike_id": "ff1d9d60110a313ed123877baf30a4c6", "type": "electric_scooter", "name": "ff1d9d60110a313ed123877baf30a4c6"}, {"is_disabled": 0, "is_reserved": 0, "fusion_lat": 0.0, "lat": 38.956863166666665, "fusion_lon": 0.0, "rental_uris": {"ios": "https://dc.lft.to/lastmile_qr_scan", "android": "https://dc.lft.to/lastmile_qr_scan"}, "lon": -77.02230716666666, "bike_id": "842731bb9b841fbe94e46230f21132c2", "type": "electric_scooter", "name": "842731bb9b841fbe94e46230f21132c2"}, {"is_disabled": 0, "is_reserved": 0, "fusion_lat": 0.0, "lat": 38.91989083333333, "fusion_lon": 0.0, "rental_uris": {"ios": "https://dc.lft.to/lastmile_qr_scan", "android": "https://dc.lft.to/lastmile_qr_scan"}, "lon": -77.01792483333334, "bike_id": "06484a9390d47d2b6cd3f6bf1a5b4a1d", "type": "electric_scooter", "name": "06484a9390d47d2b6cd3f6bf1a5b4a1d"}, {"is_disabled": 0, "is_reserved": 0, "fusion_lat": 0.0, "lat": 38.917135333333334, "fusion_lon": 0.0, "rental_uris": {"ios": "https://dc.lft.to/lastmile_qr_scan", "android": "https://dc.lft.to/lastmile_qr_scan"}, "lon": -77.03472883333333, "bike_id": "d6e4ecdacc2070b9b495a4c998944db8", "type": "electric_scooter", "name": "d6e4ecdacc2070b9b495a4c998944db8"}, {"is_disabled": 0, "is_reserved": 0, "fusion_lat": 0.0, "lat": 38.911242666666666, "fusion_lon": 0.0, "rental_uris": {"ios": "https://dc.lft.to/lastmile_qr_scan", "android": "https://dc.lft.to/lastmile_qr_scan"}, "lon": -76.99746616666667, "bike_id": "b3ef8c69e273c74605eb4fc8e9ef3b87", "type": "electric_scooter", "name": "b3ef8c69e273c74605eb4fc8e9ef3b87"}, {"is_disabled": 0, "is_reserved": 0, "fusion_lat": 0.0, "lat": 38.9386335, "fusion_lon": 0.0, "rental_uris": {"ios": "https://dc.lft.to/lastmile_qr_scan", "android": "https://dc.lft.to/lastmile_qr_scan"}, "lon": -77.02596516666667, "bike_id": "96a5541f75662568ed21214f13984929", "type": "electric_scooter", "name": "96a5541f75662568ed21214f13984929"}, {"is_disabled": 0, "is_reserved": 0, "fusion_lat": 0.0, "lat": 38.892223666666666, "fusion_lon": 0.0, "rental_uris": {"ios": "https://dc.lft.to/lastmile_qr_scan", "android": "https://dc.lft.to/lastmile_qr_scan"}, "lon": -77.04686533333333, "bike_id": "b00ddadd3876d967001c695658444cb7", "type": "electric_scooter", "name": "b00ddadd3876d967001c695658444cb7"}, {"is_disabled": 0, "is_reserved": 0, "fusion_lat": 0.0, "lat": 38.90261116666667, "fusion_lon": 0.0, "rental_uris": {"ios": "https://dc.lft.to/lastmile_qr_scan", "android": "https://dc.lft.to/lastmile_qr_scan"}, "lon": -77.02763216666666, "bike_id": "ab3a2b2e60533aba7fd1a58db6238fc0", "type": "electric_scooter", "name": "ab3a2b2e60533aba7fd1a58db6238fc0"}, {"is_disabled": 0, "is_reserved": 0, "fusion_lat": 0.0, "lat": 38.96778533333333, "fusion_lon": 0.0, "rental_uris": {"ios": "https://dc.lft.to/lastmile_qr_scan", "android": "https://dc.lft.to/lastmile_qr_scan"}, "lon": -76.99645416666667, "bike_id": "5869e633d34a093f093c32320c0626fe", "type": "electric_bike", "name": "5869e633d34a093f093c32320c0626fe"}, {"is_disabled": 0, "is_reserved": 0, "fusion_lat": 0.0, "lat": 38.920565833333335, "fusion_lon": 0.0, "rental_uris": {"ios": "https://dc.lft.to/lastmile_qr_scan", "android": "https://dc.lft.to/lastmile_qr_scan"}, "lon": -77.03394566666667, "bike_id": "748e671614a60a900fa9d94ca4dd268d", "type": "electric_scooter", "name": "748e671614a60a900fa9d94ca4dd268d"}, {"is_disabled": 0, "is_reserved": 0, "fusion_lat": 0.0, "lat": 38.939029166666664, "fusion_lon": 0.0, "rental_uris": {"ios": "https://dc.lft.to/lastmile_qr_scan", "android": "https://dc.lft.to/lastmile_qr_scan"}, "lon": -77.03279866666666, "bike_id": "d600d2f69a01174178d56cbf869bff1b", "type": "electric_scooter", "name": "d600d2f69a01174178d56cbf869bff1b"}, {"is_disabled": 0, "is_reserved": 0, "fusion_lat": 0.0, "lat": 38.91711766666667, "fusion_lon": 0.0, "rental_uris": {"ios": "https://dc.lft.to/lastmile_qr_scan", "android": "https://dc.lft.to/lastmile_qr_scan"}, "lon": -77.03162966666666, "bike_id": "60382d3ca7ebbb6719e8ef8e43b0e75c", "type": "electric_scooter", "name": "60382d3ca7ebbb6719e8ef8e43b0e75c"}, {"is_disabled": 0, "is_reserved": 0, "fusion_lat": 0.0, "lat": 38.898712333333336, "fusion_lon": 0.0, "rental_uris": {"ios": "https://dc.lft.to/lastmile_qr_scan", "android": "https://dc.lft.to/lastmile_qr_scan"}, "lon": -77.05006266666666, "bike_id": "11e363688bcc2bef33d6e23e2c243020", "type": "electric_scooter", "name": "11e363688bcc2bef33d6e23e2c243020"}, {"is_disabled": 0, "is_reserved": 0, "fusion_lat": 0.0, "lat": 38.914047, "fusion_lon": 0.0, "rental_uris": {"ios": "https://dc.lft.to/lastmile_qr_scan", "android": "https://dc.lft.to/lastmile_qr_scan"}, "lon": -77.01148716666667, "bike_id": "a6ac49abdad72ee55637a4b9bc45d79d", "type": "electric_scooter", "name": "a6ac49abdad72ee55637a4b9bc45d79d"}, {"is_disabled": 0, "is_reserved": 0, "fusion_lat": 0.0, "lat": 38.892206, "fusion_lon": 0.0, "rental_uris": {"ios": "https://dc.lft.to/lastmile_qr_scan", "android": "https://dc.lft.to/lastmile_qr_scan"},