{"data": {"bikes": [{"bike_id": "3fba1aef80da5b116f6083385da8ac3d", "is_reserved": 0, "name": "3fba1aef80da5b116f6083385da8ac3d", "lat": 38.863935833333336, "fusion_lat": 0.0, "lon": -77.20106083333333, "is_disabled": 0, "fusion_lon": 0.0, "rental_uris": {"android": "https://dc.lft.to/lastmile_qr_scan", "ios": "https://dc.lft.to/lastmile_qr_scan"}, "type": "electric_bike"}, {"bike_id": "7b2be0d6568be33d61ba3a151c6541ba", "is_reserved": 0, "name": "7b2be0d6568be33d61ba3a151c6541ba", "lat": 38.911061, "fusion_lat": 0.0, "lon": -77.00669883333333, "is_disabled": 0, "fusion_lon": 0.0, "rental_uris": {"android": "https://dc.lft.to/lastmile_qr_scan", "ios": "https://dc.lft.to/lastmile_qr_scan"}, "type": "electric_scooter"}, {"bike_id": "9699e19f29c825b813534946eca8dba2", "is_reserved": 0, "name": "9699e19f29c825b813534946eca8dba2", "lat": 38.905673666666665, "fusion_lat": 0.0, "lon": -77.02420583333334, "is_disabled": 0, "fusion_lon": 0.0, "rental_uris": {"android": "https://dc.lft.to/lastmile_qr_scan", "ios": "https://dc.lft.to/lastmile_qr_scan"}, "type": "electric_scooter"}, {"bike_id": "b347fe3e324609abecf1d5df27e54822", "is_reserved": 0, "name": "b347fe3e324609abecf1d5df27e54822", "lat": 38.9026875, "fusion_lat": 0.0, "lon": -77.02764883333333, "is_disabled": 0, "fusion_lon": 0.0, "rental_uris": {"android": "https://dc.lft.to/lastmile_qr_scan", "ios": "https://dc.lft.to/lastmile_qr_scan"}, "type": "electric_scooter"}, {"bike_id": "f2659aacab48d385275a9b06f3bc804e", "is_reserved": 0, "name": "f2659aacab48d385275a9b06f3bc804e", "lat": 38.909723166666666, "fusion_lat": 0.0, "lon": -77.0519155, "is_disabled": 0, "fusion_lon": 0.0, "rental_uris": {"android": "https://dc.lft.to/lastmile_qr_scan", "ios": "https://dc.lft.to/lastmile_qr_scan"}, "type": "electric_scooter"}, {"bike_id": "fa42a5aad94754ae89300c0bc6c82b2a", "is_reserved": 0, "name": "fa42a5aad94754ae89300c0bc6c82b2a", "lat": 38.9247815, "fusion_lat": 0.0, "lon": -77.03764016666666, "is_disabled": 0, "fusion_lon": 0.0, "rental_uris": {"android": "https://dc.lft.to/lastmile_qr_scan", "ios": "https://dc.lft.to/lastmile_qr_scan"}, "type": "electric_scooter"}, {"bike_id": "ea29615220c75b741c096d69347a9938", "is_reserved": 0, "name": "ea29615220c75b741c096d69347a9938", "lat": 38.898439, "fusion_lat": 0.0, "lon": -77.013595, "is_disabled": 0, "fusion_lon": 0.0, "rental_uris": {"android": "https://dc.lft.to/lastmile_qr_scan", "ios": "https://dc.lft.to/lastmile_qr_scan"}, "type": "electric_bike"}, {"bike_id": "faf73733f4203f284ad759ce2c5491fa", "is_reserved": 0, "name": "faf73733f4203f284ad759ce2c5491fa", "lat": 38.92421816666667, "fusion_lat": 0.0, "lon": -76.9972675, "is_disabled": 0, "fusion_lon": 0.0, "rental_uris": {"android": "https://dc.lft.to/lastmile_qr_scan", "ios": "https://dc.lft.to/lastmile_qr_scan"}, "type": "electric_scooter"}, {"bike_id": "845b2198bce08e07db6ead00eb0d0840", "is_reserved": 0, "name": "845b2198bce08e07db6ead00eb0d0840", "lat": 38.90348916666667, "fusion_lat": 0.0, "lon": -77.05295683333334, "is_disabled": 0, "fusion_lon": 0.0, "rental_uris": {"android": "https://dc.lft.to/lastmile_qr_scan", "ios": "https://dc.lft.to/lastmile_qr_scan"}, "type": "electric_scooter"}, {"bike_id": "9ec6b19cea7c24907de7274fed8604c8", "is_reserved": 0, "name": "9ec6b19cea7c24907de7274fed8604c8", "lat": 38.8874375, "fusion_lat": 0.0, "lon": -77.02124483333333, "is_disabled": 0, "fusion_lon": 0.0, "rental_uris": {"android": "https://dc.lft.to/lastmile_qr_scan", "ios": "https://dc.lft.to/lastmile_qr_scan"}, "type": "electric_scooter"}, {"bike_id": "3192872840ca4f9413529e102103cf93", "is_reserved": 0, "name": "3192872840ca4f9413529e102103cf93", "lat": 38.90264033333333, "fusion_lat": 0.0, "lon": -77.025998, "is_disabled": 0, "fusion_lon": 0.0, "rental_uris": {"android": "https://dc.lft.to/lastmile_qr_scan", "ios": "https://dc.lft.to/lastmile_qr_scan"}, "type": "electric_scooter"}, {"bike_id": "23e0bc0623ea104dffdb3a4fccea8c81", "is_reserved": 0, "name": "23e0bc0623ea104dffdb3a4fccea8c81", "lat": 38.965886, "fusion_lat": 0.0, "lon": -77.015944, "is_disabled": 0, "fusion_lon": 0.0, "rental_uris": {"android": "https://dc.lft.to/lastmile_qr_scan", "ios": "https://dc.lft.to/lastmile_qr_scan"}, "type": "electric_scooter"}, {"bike_id": "82c27f1b8278273d59375cd052fb57d3", "is_reserved": 0, "name": "82c27f1b8278273d59375cd052fb57d3", "lat": 38.887706666666666, "fusion_lat": 0.0, "lon": -77.02366033333334, "is_disabled": 0, "fusion_lon": 0.0, "rental_uris": {"android": "https://dc.lft.to/lastmile_qr_scan", "ios": "https://dc.lft.to/lastmile_qr_scan"}, "type": "electric_scooter"}, {"bike_id": "70e3e3330a17a211d8b421b3c8a83836", "is_reserved": 0, "name": "70e3e3330a17a211d8b421b3c8a83836", "lat": 38.871815833333336, "fusion_lat": 0.0, "lon": -77.00606883333333, "is_disabled": 0, "fusion_lon": 0.0, "rental_uris": {"android": "https://dc.lft.to/lastmile_qr_scan", "ios": "https://dc.lft.to/lastmile_qr_scan"}, "type": "electric_scooter"}, {"bike_id": "ce123a3e1f08a1641c548d9f252fa8e9", "is_reserved": 0, "name": "ce123a3e1f08a1641c548d9f252fa8e9", "lat": 38.90111916666667, "fusion_lat": 0.0, "lon": -76.9741985, "is_disabled": 0, "fusion_lon": 0.0, "rental_uris": {"android": "https://dc.lft.to/lastmile_qr_scan", "ios": "https://dc.lft.to/lastmile_qr_scan"}, "type": "electric_scooter"}, {"bike_id": "78537e2a0cefa3145d1580d844cbf0ec", "is_reserved": 0, "name": "78537e2a0cefa3145d1580d844cbf0ec", "lat": 38.922956666666664, "fusion_lat": 0.0, "lon": -77.0232535, "is_disabled": 0, "fusion_lon": 0.0, "rental_uris": {"android": "https://dc.lft.to/lastmile_qr_scan", "ios": "https://dc.lft.to/lastmile_qr_scan"}, "type": "electric_scooter"}, {"bike_id": "79edec6253eb1ca4fda7d6f4e2099ba0", "is_reserved": 0, "name": "79edec6253eb1ca4fda7d6f4e2099ba0", "lat": 38.912568666666665, "fusion_lat": 0.0, "lon": -77.03302066666667, "is_disabled": 0, "fusion_lon": 0.0, "rental_uris": {"android": "https://dc.lft.to/lastmile_qr_scan", "ios": "https://dc.lft.to/lastmile_qr_scan"}, "type": "electric_scooter"}, {"bike_id": "eae582ffe1c96e9f77f26df82232dd3b", "is_reserved": 0, "name": "eae582ffe1c96e9f77f26df82232dd3b", "lat": 38.90807233333334, "fusion_lat": 0.0, "lon": -77.03454833333333, "is_disabled": 0, "fusion_lon": 0.0, "rental_uris": {"android": "https://dc.lft.to/lastmile_qr_scan", "ios": "https://dc.lft.to/lastmile_qr_scan"}, "type": "electric_scooter"}, {"bike_id": "885a9196616ad22788adc46be02a795c", "is_reserved": 0, "name": "885a9196616ad22788adc46be02a795c", "lat": 38.91943033333333, "fusion_lat": 0.0, "lon": -77.02486016666667, "is_disabled": 0, "fusion_lon": 0.0, "rental_uris": {"android": "https://dc.lft.to/lastmile_qr_scan", "ios": "https://dc.lft.to/lastmile_qr_scan"}, "type": "electric_scooter"}, {"bike_id": "1c08e41c03875b566fe33d7c7d143d7b", "is_reserved": 0, "name": "1c08e41c03875b566fe33d7c7d143d7b", "lat": 38.9226425, "fusion_lat": 0.0, "lon": -77.01869916666666, "is_disabled": 0, "fusion_lon": 0.0, "rental_uris": {"android": "https://dc.lft.to/lastmile_qr_scan", "ios": "https://dc.lft.to/lastmile_qr_scan"}, "type": "electric_scooter"}, {"bike_id": "11346a87470ceda658328a69b06ec9c2", "is_reserved": 0, "name": "11346a87470ceda658328a69b06ec9c2", "lat": 38.896095, "fusion_lat": 0.0, "lon": -77.0442715, "is_disabled": 0, "fusion_lon": 0.0, "rental_uris": {"android": "https://dc.lft.to/lastmile_qr_scan", "ios": "https://dc.lft.to/lastmile_qr_scan"}, "type": "electric_scooter"}, {"bike_id": "db52a298d0bf5fbd57e925811c1da317", "is_reserved": 0, "name": "db52a298d0bf5fbd57e925811c1da317", "lat": 38.926134166666664, "fusion_lat": 0.0, "lon": -77.075681, "is_disabled": 0, "fusion_lon": 0.0, "rental_uris": {"android": "https://dc.lft.to/lastmile_qr_scan", "ios": "https://dc.lft.to/lastmile_qr_scan"}, "type": "electric_scooter"}, {"bike_id": "2e447001542ca860d1c81001ee9e2781", "is_reserved": 0, "name": "2e447001542ca860d1c81001ee9e2781", "lat": 38.910419, "fusion_lat": 0.0, "lon": -77.04381283333333, "is_disabled": 0, "fusion_lon": 0.0, "rental_uris": {"android": "https://dc.lft.to/lastmile_qr_scan", "ios": "https://dc.lft.to/lastmile_qr_scan"}, "type": "electric_scooter"}, {"bike_id": "3ca37ed900494939aede9c9401a833ad", "is_reserved": 0, "name": "3ca37ed900494939aede9c9401a833ad", "lat": 38.91705616666667, "fusion_lat": 0.0, "lon": -77.0406805, "is_disabled": 0, "fusion_lon": 0.0, "rental_uris": {"android": "https://dc.lft.to/lastmile_qr_scan", "ios": "https://dc.lft.to/lastmile_qr_scan"}, "type": "electric_scooter"}, {"bike_id": "3e8e1ac40ae00d301edec061c5cb7a86", "is_reserved": 0, "name": "3e8e1ac40ae00d301edec061c5cb7a86", "lat": 38.9288365, "fusion_lat": 0.0, "lon": -77.013955, "is_disabled": 0, "fusion_lon": 0.0, "rental_uris": {"android": "https://dc.lft.to/lastmile_qr_scan", "ios": "https://dc.lft.to/lastmile_qr_scan"}, "type": "electric_scooter"}, {"bike_id": "b10b59a14e276603ed9e022739adbc4b", "is_reserved": 0, "name": "b10b59a14e276603ed9e022739adbc4b", "lat": 38.90370166666666, "fusion_lat": 0.0, "lon": -77.0384895, "is_disabled": 0, "fusion_lon": 0.0, "rental_uris": {"android": "https://dc.lft.to/lastmile_qr_scan", "ios": "https://dc.lft.to/lastmile_qr_scan"}, "type": "electric_scooter"}, {"bike_id": "4869d692b50b7222684b576753ccf20c", "is_reserved": 0, "name": "4869d692b50b7222684b576753ccf20c", "lat": 38.91929666666667, "fusion_lat": 0.0, "lon": -77.01807133333334, "is_disabled": 0, "fusion_lon": 0.0, "rental_uris": {"android": "https://dc.lft.to/lastmile_qr_scan", "ios": "https://dc.lft.to/lastmile_qr_scan"}, "type": "electric_scooter"}, {"bike_id": "e332eaa669dfa0045002121985c7eefa", "is_reserved": 0, "name": "e332eaa669dfa0045002121985c7eefa", "lat": 38.90891533333333, "fusion_lat": 0.0, "lon": -77.00295083333333, "is_disabled": 0, "fusion_lon": 0.0, "rental_uris": {"android": "https://dc.lft.to/lastmile_qr_scan", "ios": "https://dc.lft.to/lastmile_qr_scan"}, "type": "electric_scooter"}, {"bike_id": "bf9aa7798b9b883f5a6f057929d9af87", "is_reserved": 0, "name": "bf9aa7798b9b883f5a6f057929d9af87", "lat": 38.907372, "fusion_lat": 0.0, "lon": -77.02382833333333, "is_disabled": 0, "fusion_lon": 0.0, "rental_uris": {"android": "https://dc.lft.to/lastmile_qr_scan", "ios": "https://dc.lft.to/lastmile_qr_scan"}, "type": "electric_scooter"}, {"bike_id": "1a1d7ceedde704a5b1abfff911126134", "is_reserved": 0, "name": "1a1d7ceedde704a5b1abfff911126134", "lat": 38.940811, "fusion_lat": 0.0, "lon": -77.02638033333334, "is_disabled": 0, "fusion_lon": 0.0, "rental_uris": {"android": "https://dc.lft.to/lastmile_qr_scan", "ios": "https://dc.lft.to/lastmile_qr_scan"}, "type": "electric_scooter"}, {"bike_id": "42f5706552061699ba4a4af0b14f77f5", "is_reserved": 0, "name": "42f5706552061699ba4a4af0b14f77f5", "lat": 38.927421833333334, "fusion_lat": 0.0, "lon": -77.022486, "is_disabled": 0, "fusion_lon": 0.0, "rental_uris": {"android": "https://dc.lft.to/lastmile_qr_scan", "ios": "https://dc.lft.to/lastmile_qr_scan"}, "type": "electric_scooter"}, {"bike_id": "6b9db6b81be9829bf975e672205519f1", "is_reserved": 0, "name": "6b9db6b81be9829bf975e672205519f1", "lat": 38.92057033333333, "fusion_lat": 0.0, "lon": -77.03391216666667, "is_disabled": 0, "fusion_lon": 0.0, "rental_uris": {"android": "https://dc.lft.to/lastmile_qr_scan", "ios": "https://dc.lft.to/lastmile_qr_scan"}, "type": "electric_scooter"}, {"bike_id": "26182592121b137b63f98c5b16886d3c", "is_reserved": 0, "name": "26182592121b137b63f98c5b16886d3c", "lat": 38.90062316666667, "fusion_lat": 0.0, "lon": -77.02626433333333, "is_disabled": 0, "fusion_lon": 0.0, "rental_uris": {"android": "https://dc.lft.to/lastmile_qr_scan", "ios": "https://dc.lft.to/lastmile_qr_scan"}, "type": "electric_scooter"}, {"bike_id": "0f7a9b73be1a2bcb4eeb82bb883b4cb1", "is_reserved": 0, "name": "0f7a9b73be1a2bcb4eeb82bb883b4cb1", "lat": 38.873816833333336, "fusion_lat": 0.0, "lon": -77.0003965, "is_disabled": 0, "fusion_lon": 0.0, "rental_uris": {"android": "https://dc.lft.to/lastmile_qr_scan", "ios": "https://dc.lft.to/lastmile_qr_scan"}, "type": "electric_scooter"}, {"bike_id": "f920c8c5a080282ffceab8999e342338", "is_reserved": 0, "name": "f920c8c5a080282ffceab8999e342338", "lat": 38.902422666666666, "fusion_lat": 0.0, "lon": -77.04711533333334, "is_disabled": 0, "fusion_lon": 0.0, "rental_uris": {"android": "https://dc.lft.to/lastmile_qr_scan", "ios": "https://dc.lft.to/lastmile_qr_scan"}, "type": "electric_scooter"}, {"bike_id": "a81d6732982f5e21a33467242f649d0d", "is_reserved": 0, "name": "a81d6732982f5e21a33467242f649d0d", "lat": 38.9007455, "fusion_lat": 0.0, "lon": -77.0271125, "is_disabled": 0, "fusion_lon": 0.0, "rental_uris": {"android": "https://dc.lft.to/lastmile_qr_scan", "ios": "https://dc.lft.to/lastmile_qr_scan"}, "type": "electric_scooter"}, {"bike_id": "e278bf74a3f33b7453bae787971225b1", "is_reserved": 0, "name": "e278bf74a3f33b7453bae787971225b1", "lat": 38.919166833333335, "fusion_lat": 0.0, "lon": -77.02407066666666, "is_disabled": 0, "fusion_lon": 0.0, "rental_uris": {"android": "https://dc.lft.to/lastmile_qr_scan", "ios": "https://dc.lft.to/lastmile_qr_scan"}, "type": "electric_scooter"}, {"bike_id": "c1660d126c3492dfa3aeebaa4f96ede4", "is_reserved": 0, "name": "c1660d126c3492dfa3aeebaa4f96ede4", "lat": 38.91023333333333, "fusion_lat": 0.0, "lon": -77.04249166666666, "is_disabled": 0, "fusion_lon": 0.0, "rental_uris": {"android": "https://dc.lft.to/lastmile_qr_scan", "ios": "https://dc.lft.to/lastmile_qr_scan"}, "type": "electric_scooter"}, {"bike_id": "b792956348e0796e5ddbf19d70f6013e", "is_reserved": 0, "name": "b792956348e0796e5ddbf19d70f6013e", "lat": 38.909646333333335, "fusion_lat": 0.0, "lon": -77.0342775, "is_disabled": 0, "fusion_lon": 0.0, "rental_uris": {"android": "https://dc.lft.to/lastmile_qr_scan", "ios": "https://dc.lft.to/lastmile_qr_scan"}, "type": "electric_scooter"}, {"bike_id": "ba091db1f279b15490d8633f778aee8d", "is_reserved": 0, "name": "ba091db1f279b15490d8633f778aee8d", "lat": 38.862564166666665, "fusion_lat": 0.0, "lon": -76.98349283333333, "is_disabled": 0, "fusion_lon": 0.0, "rental_uris": {"android": "https://dc.lft.to/lastmile_qr_scan", "ios": "https://dc.lft.to/lastmile_qr_scan"}, "type": "electric_bike"}, {"bike_id": "18dfd8e97d675a43e5ca383c2528b95d", "is_reserved": 0, "name": "18dfd8e97d675a43e5ca383c2528b95d", "lat": 38.927634833333336, "fusion_lat": 0.0, "lon": -76.97346066666667, "is_disabled": 0, "fusion_lon": 0.0, "rental_uris": {"android": "https://dc.lft.to/lastmile_qr_scan", "ios": "https://dc.lft.to/lastmile_qr_scan"}, "type": "electric_scooter"}, {"bike_id": "d6b6822053e77eb198ff14b6fd9d85b3", "is_reserved": 0, "name": "d6b6822053e77eb198ff14b6fd9d85b3", "lat": 38.9110725, "fusion_lat": 0.0, "lon": -77.04201616666667, "is_disabled": 0, "fusion_lon": 0.0, "rental_uris": {"android": "https://dc.lft.to/lastmile_qr_scan", "ios": "https://dc.lft.to/lastmile_qr_scan"}, "type": "electric_scooter"}, {"bike_id": "f8bbc0a32d624a37bfb3167ed4d7f5d7", "is_reserved": 0, "name": "f8bbc0a32d624a37bfb3167ed4d7f5d7", "lat": 38.92493233333333, "fusion_lat": 0.0, "lon": -77.23337566666666, "is_disabled": 0, "fusion_lon": 0.0, "rental_uris": {"android": "https://dc.lft.to/lastmile_qr_scan", "ios": "https://dc.lft.to/lastmile_qr_scan"}, "type": "electric_bike"}, {"bike_id": "a0ed66a2a1912d63e52677a558fa6765", "is_reserved": 0, "name": "a0ed66a2a1912d63e52677a558fa6765", "lat": 38.9102645, "fusion_lat": 0.0, "lon": -77.04245416666667, "is_disabled": 0, "fusion_lon": 0.0, "rental_uris": {"android": "https://dc.lft.to/lastmile_qr_scan", "ios": "https://dc.lft.to/lastmile_qr_scan"}, "type": "electric_scooter"}, {"bike_id": "89cf001db12f67404d3f48d70cb3fec6", "is_reserved": 0, "name": "89cf001db12f67404d3f48d70cb3fec6", "lat": 38.96675483333333, "fusion_lat": 0.0, "lon": -77.02291666666666, "is_disabled": 0, "fusion_lon": 0.0, "rental_uris": {"android": "https://dc.lft.to/lastmile_qr_scan", "ios": "https://dc.lft.to/lastmile_qr_scan"}, "type": "electric_bike"}, {"bike_id": "a49466680e71d1c4559271ff92e0c619", "is_reserved": 0, "name": "a49466680e71d1c4559271ff92e0c619", "lat": 38.923336, "fusion_lat": 0.0, "lon": -77.0470725, "is_disabled": 0, "fusion_lon": 0.0, "rental_uris": {"android": "https://dc.lft.to/lastmile_qr_scan", "ios": "https://dc.lft.to/lastmile_qr_scan"}, "type": "electric_scooter"}, {"bike_id": "45b50159b04d3f47c8185624a458411a", "is_reserved": 0, "name": "45b50159b04d3f47c8185624a458411a", "lat": 38.928767666666666, "fusion_lat": 0.0, "lon": -77.03219616666667, "is_disabled": 0, "fusion_lon": 0.0, "rental_uris": {"android": "https://dc.lft.to/lastmile_qr_scan", "ios": "https://dc.lft.to/lastmile_qr_scan"}, "type": "electric_scooter"}, {"bike_id": "7d5daa070da62e7a4713db59f3c9ece2", "is_reserved": 0, "name": "7d5daa070da62e7a4713db59f3c9ece2", "lat": 38.90130766666667, "fusion_lat": 0.0, "lon": -77.05470016666666, "is_disabled": 0, "fusion_lon": 0.0, "rental_uris": {"android": "https://dc.lft.to/lastmile_qr_scan", "ios": "https://dc.lft.to/lastmile_qr_scan"}, "type": "electric_scooter"}, {"bike_id": "ece8860347f68e4875e7bf64784e0a8a", "is_reserved": 0, "name": "ece8860347f68e4875e7bf64784e0a8a", "lat": 38.90094633333333, "fusion_lat": 0.0, "lon": -77.05688733333334, "is_disabled": 0, "fusion_lon": 0.0, "rental_uris": {"android": "https://dc.lft.to/lastmile_qr_scan", "ios": "https://dc.lft.to/lastmile_qr_scan"}, "type": "electric_scooter"}, {"bike_id": "5fe028c0c444e3d17fdc811aec5d1308", "is_reserved": 0, "name": "5fe028c0c444e3d17fdc811aec5d1308", "lat": 38.90669583333333, "fusion_lat": 0.0, "lon": -77.02709316666666, "is_disabled": 0, "fusion_lon": 0.0, "rental_uris": {"android": "https://dc.lft.to/lastmile_qr_scan", "ios": "https://dc.lft.to/lastmile_qr_scan"}, "type": "electric_scooter"}, {"bike_id": "24dc17448b79e6973919caff7a57a70e", "is_reserved": 0, "name": "24dc17448b79e6973919caff7a57a70e", "lat": 38.9073815, "fusion_lat": 0.0, "lon": -77.029514, "is_disabled": 0, "fusion_lon": 0.0, "rental_uris": {"android": "https://dc.lft.to/lastmile_qr_scan", "ios": "https://dc.lft.to/lastmile_qr_scan"}, "type": "electric_scooter"}, {"bike_id": "ad417a3b3d130493a4f63f0f5d53599a", "is_reserved": 0, "name": "ad417a3b3d130493a4f63f0f5d53599a", "lat": 38.9056405, "fusion_lat": 0.0, "lon": -76.98145716666667, "is_disabled": 0, "fusion_lon": 0.0, "rental_uris": {"android": "https://dc.lft.to/lastmile_qr_scan", "ios": "https://dc.lft.to/lastmile_qr_scan"}, "type": "electric_scooter"}, {"bike_id": "89ddcc9b1811ebffe1d632749627f729", "is_reserved": 0, "name": "89ddcc9b1811ebffe1d632749627f729", "lat": 38.89975866666666, "fusion_lat": 0.0, "lon": -77.03166, "is_disabled": 0, "fusion_lon": 0.0, "rental_uris": {"android": "https://dc.lft.to/lastmile_qr_scan", "ios": "https://dc.lft.to/lastmile_qr_scan"}, "type": "electric_scooter"}, {"bike_id": "160bbfa3f266e80ed45df918074bed4c", "is_reserved": 0, "name": "160bbfa3f266e80ed45df918074bed4c", "lat": 38.901959, "fusion_lat": 0.0, "lon": -77.02370366666666, "is_disabled": 0, "fusion_lon": 0.0, "rental_uris": {"android": "https://dc.lft.to/lastmile_qr_scan", "ios": "https://dc.lft.to/lastmile_qr_scan"}, "type": "electric_scooter"}, {"bike_id": "432e65257cc1854f306055953676600a", "is_reserved": 0, "name": "432e65257cc1854f306055953676600a", "lat": 38.91049683333333, "fusion_lat": 0.0, "lon": -77.03839666666667, "is_disabled": 0, "fusion_lon": 0.0, "rental_uris": {"android": "https://dc.lft.to/lastmile_qr_scan", "ios": "https://dc.lft.to/lastmile_qr_scan"}, "type": "electric_scooter"}, {"bike_id": "08ba83f8d64b081bcf3f9ac68185dcb6", "is_reserved": 0, "name": "08ba83f8d64b081bcf3f9ac68185dcb6", "lat": 38.90947283333333, "fusion_lat": 0.0, "lon": -77.02713183333333, "is_disabled": 0, "fusion_lon": 0.0, "rental_uris": {"android": "https://dc.lft.to/lastmile_qr_scan", "ios": "https://dc.lft.to/lastmile_qr_scan"}, "type": "electric_scooter"}, {"bike_id": "82928e6a1517a5c73660f298ef60ddef", "is_reserved": 0, "name": "82928e6a1517a5c73660f298ef60ddef", "lat": 38.88730916666667, "fusion_lat": 0.0, "lon": -77.0318475, "is_disabled": 0, "fusion_lon": 0.0, "rental_uris": {"android": "https://dc.lft.to/lastmile_qr_scan", "ios": "https://dc.lft.to/lastmile_qr_scan"}, "type": "electric_scooter"}, {"bike_id": "fff7e77ee8a499b367e6ba22c68f30df", "is_reserved": 0, "name": "fff7e77ee8a499b367e6ba22c68f30df", "lat": 38.91695033333333, "fusion_lat": 0.0, "lon": -77.0264345, "is_disabled": 0, "fusion_lon": 0.0, "rental_uris": {"android": "https://dc.lft.to/lastmile_qr_scan", "ios": "https://dc.lft.to/lastmile_qr_scan"}, "type": "electric_scooter"}, {"bike_id": "c6e185cfd0bed65e29231ff5ad5c4717", "is_reserved": 0, "name": "c6e185cfd0bed65e29231ff5ad5c4717", "lat": 38.914749, "fusion_lat": 0.0, "lon": -77.0461215, "is_disabled": 0, "fusion_lon": 0.0, "rental_uris": {"android": "https://dc.lft.to/lastmile_qr_scan", "ios": "https://dc.lft.to/lastmile_qr_scan"}, "type": "electric_scooter"}, {"bike_id": "0de6342a79b1c085a29d05a65aab260a", "is_reserved": 0, "name": "0de6342a79b1c085a29d05a65aab260a", "lat": 38.87659416666666, "fusion_lat": 0.0, "lon": -77.00079366666667, "is_disabled": 0, "fusion_lon": 0.0, "rental_uris": {"android": "https://dc.lft.to/lastmile_qr_scan", "ios": "https://dc.lft.to/lastmile_qr_scan"}, "type": "electric_scooter"}, {"bike_id": "609c14141109e430dbf56c87de0d739b", "is_reserved": 0, "name": "609c14141109e430dbf56c87de0d739b", "lat": 38.92868433333334, "fusion_lat": 0.0, "lon": -77.01402216666666, "is_disabled": 0, "fusion_lon": 0.0, "rental_uris": {"android": "https://dc.lft.to/lastmile_qr_scan", "ios": "https://dc.lft.to/lastmile_qr_scan"}, "type": "electric_scooter"}, {"bike_id": "a2b013988adfa05caf8bef0cf2202c4d", "is_reserved": 0, "name": "a2b013988adfa05caf8bef0cf2202c4d", "lat": 38.8749145, "fusion_lat": 0.0, "lon": -77.00279733333333, "is_disabled": 0, "fusion_lon": 0.0, "rental_uris": {"android": "https://dc.lft.to/lastmile_qr_scan", "ios": "https://dc.lft.to/lastmile_qr_scan"}, "type": "electric_scooter"}, {"bike_id": "219b172477d29cfb79efe23f84fb6ebf", "is_reserved": 0, "name": "219b172477d29cfb79efe23f84fb6ebf", "lat": 38.92683683333333, "fusion_lat": 0.0, "lon": -77.03141483333333, "is_disabled": 0, "fusion_lon": 0.0, "rental_uris": {"android": "https://dc.lft.to/lastmile_qr_scan", "ios": "https://dc.lft.to/lastmile_qr_scan"}, "type": "electric_scooter"}, {"bike_id": "7956fefb36d08c13aca7a2ecb23f5f34", "is_reserved": 0, "name": "7956fefb36d08c13aca7a2ecb23f5f34", "lat": 38.91797433333333, "fusion_lat": 0.0, "lon": -77.03186633333334, "is_disabled": 0, "fusion_lon": 0.0, "rental_uris": {"android": "https://dc.lft.to/lastmile_qr_scan", "ios": "https://dc.lft.to/lastmile_qr_scan"}, "type": "electric_scooter"}, {"bike_id": "2f6bf5c149f497a476e166e164acbbc8", "is_reserved": 0, "name": "2f6bf5c149f497a476e166e164acbbc8", "lat": 38.95407216666667, "fusion_lat": 0.0, "lon": -77.0279485, "is_disabled": 0, "fusion_lon": 0.0, "rental_uris": {"android": "https://dc.lft.to/lastmile_qr_scan", "ios": "https://dc.lft.to/lastmile_qr_scan"}, "type": "electric_scooter"}, {"bike_id": "906606c428f5bd4faa5d4f5544d23286", "is_reserved": 0, "name": "906606c428f5bd4faa5d4f5544d23286", "lat": 38.92465166666667, "fusion_lat": 0.0, "lon": -77.052327, "is_disabled": 0, "fusion_lon": 0.0, "rental_uris": {"android": "https://dc.lft.to/lastmile_qr_scan", "ios": "https://dc.lft.to/lastmile_qr_scan"}, "type": "electric_scooter"}, {"bike_id": "e12b05507aa1c60583ef4d20c450c006", "is_reserved": 0, "name": "e12b05507aa1c60583ef4d20c450c006", "lat": 38.8602365, "fusion_lat": 0.0, "lon": -77.128044, "is_disabled": 0, "fusion_lon": 0.0, "rental_uris": {"android": "https://dc.lft.to/lastmile_qr_scan", "ios": "https://dc.lft.to/lastmile_qr_scan"}, "type": "electric_bike"}, {"bike_id": "5ce3be5f1dfebf32abc888a99dffb361", "is_reserved": 0, "name": "5ce3be5f1dfebf32abc888a99dffb361", "lat": 38.9172435, "fusion_lat": 0.0, "lon": -77.01902583333333, "is_disabled": 0, "fusion_lon": 0.0, "rental_uris": {"android": "https://dc.lft.to/lastmile_qr_scan", "ios": "https://dc.lft.to/lastmile_qr_scan"}, "type": "electric_scooter"}, {"bike_id": "09b8cee6ac88f2b16169a345a7671b42", "is_reserved": 0, "name": "09b8cee6ac88f2b16169a345a7671b42", "lat": 38.9169175, "fusion_lat": 0.0, "lon": -77.02954316666667, "is_disabled": 0, "fusion_lon": 0.0, "rental_uris": {"android": "https://dc.lft.to/lastmile_qr_scan", "ios": "https://dc.lft.to/lastmile_qr_scan"}, "type": "electric_scooter"}, {"bike_id": "56389ab7021e9d24cf0cee0e558babd2", "is_reserved": 0, "name": "56389ab7021e9d24cf0cee0e558babd2", "lat": 38.8666305, "fusion_lat": 0.0, "lon": -76.98897616666666, "is_disabled": 0, "fusion_lon": 0.0, "rental_uris": {"android": "https://dc.lft.to/lastmile_qr_scan", "ios": "https://dc.lft.to/lastmile_qr_scan"}, "type": "electric_scooter"}, {"bike_id": "3833448454ad7d2ddff7e7689bb68e6f", "is_reserved": 0, "name": "3833448454ad7d2ddff7e7689bb68e6f", "lat": 38.899196333333336, "fusion_lat": 0.0, "lon": -77.0402165, "is_disabled": 0, "fusion_lon": 0.0, "rental_uris": {"android": "https://dc.lft.to/lastmile_qr_scan", "ios": "https://dc.lft.to/lastmile_qr_scan"}, "type": "electric_scooter"}, {"bike_id": "df1ba830fb6f78f4a5df3e1892828bba", "is_reserved": 0, "name": "df1ba830fb6f78f4a5df3e1892828bba", "lat": 38.954693166666665, "fusion_lat": 0.0, "lon": -77.00916116666667, "is_disabled": 0, "fusion_lon": 0.0, "rental_uris": {"android": "https://dc.lft.to/lastmile_qr_scan", "ios": "https://dc.lft.to/lastmile_qr_scan"}, "type": "electric_scooter"}, {"bike_id": "2425864ab8d96905ac1222699172265b", "is_reserved": 0, "name": "2425864ab8d96905ac1222699172265b", "lat": 38.89849533333334, "fusion_lat": 0.0, "lon": -76.95036783333333, "is_disabled": 0, "fusion_lon": 0.0, "rental_uris": {"android": "https://dc.lft.to/lastmile_qr_scan", "ios": "https://dc.lft.to/lastmile_qr_scan"}, "type": "electric_scooter"}, {"bike_id": "c0a3b55f839e4629ad240e805c00ec29", "is_reserved": 0, "name": "c0a3b55f839e4629ad240e805c00ec29", "lat": 38.92476583333333, "fusion_lat": 0.0, "lon": -77.03046316666666, "is_disabled": 0, "fusion_lon": 0.0, "rental_uris": {"android": "https://dc.lft.to/lastmile_qr_scan", "ios": "https://dc.lft.to/lastmile_qr_scan"}, "type": "electric_scooter"}, {"bike_id": "b21c0884a42fc6cdc4b4131917f2218e", "is_reserved": 0, "name": "b21c0884a42fc6cdc4b4131917f2218e", "lat": 38.9212275, "fusion_lat": 0.0, "lon": -77.23675966666667, "is_disabled": 0, "fusion_lon": 0.0, "rental_uris": {"android": "https://dc.lft.to/lastmile_qr_scan", "ios": "https://dc.lft.to/lastmile_qr_scan"}, "type": "electric_bike"}, {"bike_id": "f7c9a5a7809c3406a54273e92d233b6b", "is_reserved": 0, "name": "f7c9a5a7809c3406a54273e92d233b6b", "lat": 38.87642833333334, "fusion_lat": 0.0, "lon": -77.00330683333334, "is_disabled": 0, "fusion_lon": 0.0, "rental_uris": {"android": "https://dc.lft.to/lastmile_qr_scan", "ios": "https://dc.lft.to/lastmile_qr_scan"}, "type": "electric_scooter"}, {"bike_id": "2f047b2a088d8c884c508278ec10fd01", "is_reserved": 0, "name": "2f047b2a088d8c884c508278ec10fd01", "lat": 38.905750833333336, "fusion_lat": 0.0, "lon": -77.04688233333333, "is_disabled": 0, "fusion_lon": 0.0, "rental_uris": {"android": "https://dc.lft.to/lastmile_qr_scan", "ios": "https://dc.lft.to/lastmile_qr_scan"}, "type": "electric_scooter"}, {"bike_id": "f7458810de306ca372b0f44c5cae12ef", "is_reserved": 0, "name": "f7458810de306ca372b0f44c5cae12ef", "lat": 38.9192245, "fusion_lat": 0.0, "lon": -77.03175683333333, "is_disabled": 0, "fusion_lon": 0.0, "rental_uris": {"android": "https://dc.lft.to/lastmile_qr_scan", "ios": "https://dc.lft.to/lastmile_qr_scan"}, "type": "electric_scooter"}, {"bike_id": "cfabeb5313e905355b48f9218a7c13bb", "is_reserved": 0, "name": "cfabeb5313e905355b48f9218a7c13bb", "lat": 38.89614733333333, "fusion_lat": 0.0, "lon": -77.02131333333334, "is_disabled": 0, "fusion_lon": 0.0, "rental_uris": {"android": "https://dc.lft.to/lastmile_qr_scan", "ios": "https://dc.lft.to/lastmile_qr_scan"}, "type": "electric_bike"}, {"bike_id": "c6a6da46c6297b6a5b2caaef8d3a77c9", "is_reserved": 0, "name": "c6a6da46c6297b6a5b2caaef8d3a77c9", "lat": 38.90362416666667, "fusion_lat": 0.0, "lon": -77.0297225, "is_disabled": 0, "fusion_lon": 0.0, "rental_uris": {"android": "https://dc.lft.to/lastmile_qr_scan", "ios": "https://dc.lft.to/lastmile_qr_scan"}, "type": "electric_scooter"}, {"bike_id": "42a883d7a3a7bb8963729a28f4b40d97", "is_reserved": 0, "name": "42a883d7a3a7bb8963729a28f4b40d97", "lat": 38.9064805, "fusion_lat": 0.0, "lon": -77.03155183333334, "is_disabled": 0, "fusion_lon": 0.0, "rental_uris": {"android": "https://dc.lft.to/lastmile_qr_scan", "ios": "https://dc.lft.to/lastmile_qr_scan"}, "type": "electric_scooter"}, {"bike_id": "b309f11b42aa93bc61fd94db6e9f611a", "is_reserved": 0, "name": "b309f11b42aa93bc61fd94db6e9f611a", "lat": 38.8989595, "fusion_lat": 0.0, "lon": -77.02720816666667, "is_disabled": 0, "fusion_lon": 0.0, "rental_uris": {"android": "https://dc.lft.to/lastmile_qr_scan", "ios": "https://dc.lft.to/lastmile_qr_scan"}, "type": "electric_scooter"}, {"bike_id": "0b4560d54b21565dfb0e9b1cb9259d8c", "is_reserved": 0, "name": "0b4560d54b21565dfb0e9b1cb9259d8c", "lat": 38.9413855, "fusion_lat": 0.0, "lon": -77.0249635, "is_disabled": 0, "fusion_lon": 0.0, "rental_uris": {"android": "https://dc.lft.to/lastmile_qr_scan", "ios": "https://dc.lft.to/lastmile_qr_scan"}, "type": "electric_scooter"}, {"bike_id": "d0c41ba1309d7ef705d250dd1fb657ee", "is_reserved": 0, "name": "d0c41ba1309d7ef705d250dd1fb657ee", "lat": 38.91572266666667, "fusion_lat": 0.0, "lon": -76.98392883333334, "is_disabled": 0, "fusion_lon": 0.0, "rental_uris": {"android": "https://dc.lft.to/lastmile_qr_scan", "ios": "https://dc.lft.to/lastmile_qr_scan"}, "type": "electric_scooter"}, {"bike_id": "ad83eaf449bce8b552ca7121b62c3aab", "is_reserved": 0, "name": "ad83eaf449bce8b552ca7121b62c3aab", "lat": 38.8877195, "fusion_lat": 0.0, "lon": -77.02368166666666, "is_disabled": 0, "fusion_lon": 0.0, "rental_uris": {"android": "https://dc.lft.to/lastmile_qr_scan", "ios": "https://dc.lft.to/lastmile_qr_scan"}, "type": "electric_scooter"}, {"bike_id": "78a7053196c2f8039e20ef77009a5aa9", "is_reserved": 0, "name": "78a7053196c2f8039e20ef77009a5aa9", "lat": 38.92846516666667, "fusion_lat": 0.0, "lon": -77.01583, "is_disabled": 0, "fusion_lon": 0.0, "rental_uris": {"android": "https://dc.lft.to/lastmile_qr_scan", "ios": "https://dc.lft.to/lastmile_qr_scan"}, "type": "electric_scooter"}, {"bike_id": "7a3e0f6e090b10498cf77721be0420a9", "is_reserved": 0, "name": "7a3e0f6e090b10498cf77721be0420a9", "lat": 38.90010616666667, "fusion_lat": 0.0, "lon": -76.99350266666667, "is_disabled": 0, "fusion_lon": 0.0, "rental_uris": {"android": "https://dc.lft.to/lastmile_qr_scan", "ios": "https://dc.lft.to/lastmile_qr_scan"}, "type": "electric_scooter"}, {"bike_id": "99cd231e12e769fe6078687410233f08", "is_reserved": 0, "name": "99cd231e12e769fe6078687410233f08", "lat": 38.892206333333334, "fusion_lat": 0.0, "lon": -77.0263235, "is_disabled": 0, "fusion_lon": 0.0, "rental_uris": {"android": "https://dc.lft.to/lastmile_qr_scan", "ios": "https://dc.lft.to/lastmile_qr_scan"}, "type": "electric_scooter"}, {"bike_id": "c01fb9dbc7d20364982f3423c7da7df0", "is_reserved": 0, "name": "c01fb9dbc7d20364982f3423c7da7df0", "lat": 38.8428075, "fusion_lat": 0.0, "lon": -77.04499533333333, "is_disabled": 0, "fusion_lon": 0.0, "rental_uris": {"android": "https://dc.lft.to/lastmile_qr_scan", "ios": "https://dc.lft.to/lastmile_qr_scan"}, "type": "electric_bike"}, {"bike_id": "c21fa7da19183f1cc5ca4d39c3242b99", "is_reserved": 0, "name": "c21fa7da19183f1cc5ca4d39c3242b99", "lat": 38.88749333333333, "fusion_lat": 0.0, "lon": -76.99604916666667, "is_disabled": 0, "fusion_lon": 0.0, "rental_uris": {"android": "https://dc.lft.to/lastmile_qr_scan", "ios": "https://dc.lft.to/lastmile_qr_scan"}, "type": "electric_scooter"}, {"bike_id": "fbb151b55082ac9e2fff90230b9271f3", "is_reserved": 0, "name": "fbb151b55082ac9e2fff90230b9271f3", "lat": 38.927502833333335, "fusion_lat": 0.0, "lon": -77.02449433333334, "is_disabled": 0, "fusion_lon": 0.0, "rental_uris": {"android": "https://dc.lft.to/lastmile_qr_scan", "ios": "https://dc.lft.to/lastmile_qr_scan"}, "type": "electric_scooter"}, {"bike_id": "218710a366857f2081d3fceb36ff1e4b", "is_reserved": 0, "name": "218710a366857f2081d3fceb36ff1e4b", "lat": 38.9562675, "fusion_lat": 0.0, "lon": -77.0199845, "is_disabled": 0, "fusion_lon": 0.0, "rental_uris": {"android": "https://dc.lft.to/lastmile_qr_scan", "ios": "https://dc.lft.to/lastmile_qr_scan"}, "type": "electric_scooter"}, {"bike_id": "e58f4a7f0b40fec1eec3f9a3dfc4e663", "is_reserved": 0, "name": "e58f4a7f0b40fec1eec3f9a3dfc4e663", "lat": 38.911077166666665, "fusion_lat": 0.0, "lon": -77.04839166666666, "is_disabled": 0, "fusion_lon": 0.0, "rental_uris": {"android": "https://dc.lft.to/lastmile_qr_scan", "ios": "https://dc.lft.to/lastmile_qr_scan"}, "type": "electric_scooter"}, {"bike_id": "c2758770d2b17198e37bab5a939e1f25", "is_reserved": 0, "name": "c2758770d2b17198e37bab5a939e1f25", "lat": 38.85801716666667, "fusion_lat": 0.0, "lon": -77.05138916666667, "is_disabled": 0, "fusion_lon": 0.0, "rental_uris": {"android": "https://dc.lft.to/lastmile_qr_scan", "ios": "https://dc.lft.to/lastmile_qr_scan"}, "type": "electric_bike"}, {"bike_id": "dacc23c38240e474e477f0f04c5df87f", "is_reserved": 0, "name": "dacc23c38240e474e477f0f04c5df87f", "lat": 38.93696516666667, "fusion_lat": 0.0, "lon": -77.0559495, "is_disabled": 0, "fusion_lon": 0.0, "rental_uris": {"android": "https://dc.lft.to/lastmile_qr_scan", "ios": "https://dc.lft.to/lastmile_qr_scan"}, "type": "electric_scooter"}, {"bike_id": "1699f31368e89f7a1dcb104617724bc0", "is_reserved": 0, "name": "1699f31368e89f7a1dcb104617724bc0", "lat": 38.903315666666664, "fusion_lat": 0.0, "lon": -76.97525966666667, "is_disabled": 0, "fusion_lon": 0.0, "rental_uris": {"android": "https://dc.lft.to/lastmile_qr_scan", "ios": "https://dc.lft.to/lastmile_qr_scan"}, "type": "electric_bike"}, {"bike_id": "66b6e104673824d2e5310f97a8587f81", "is_reserved": 0, "name": "66b6e104673824d2e5310f97a8587f81", "lat": 38.89510466666667, "fusion_lat": 0.0, "lon": -77.01604083333334, "is_disabled": 0, "fusion_lon": 0.0, "rental_uris": {"android": "https://dc.lft.to/lastmile_qr_scan", "ios": "https://dc.lft.to/lastmile_qr_scan"}, "type": "electric_scooter"}, {"bike_id": "d37ede88e262b7e05aecd03ba0548326", "is_reserved": 0, "name": "d37ede88e262b7e05aecd03ba0548326", "lat": 38.93566783333333, "fusion_lat": 0.0, "lon": -77.074592, "is_disabled": 0, "fusion_lon": 0.0, "rental_uris": {"android": "https://dc.lft.to/lastmile_qr_scan", "ios": "https://dc.lft.to/lastmile_qr_scan"}, "type": "electric_scooter"}, {"bike_id": "408085d14f3868a6b71087aa635959c3", "is_reserved": 0, "name": "408085d14f3868a6b71087aa635959c3", "lat": 38.902634666666664, "fusion_lat": 0.0, "lon": -77.03425433333334, "is_disabled": 0, "fusion_lon": 0.0, "rental_uris": {"android": "https://dc.lft.to/lastmile_qr_scan", "ios": "https://dc.lft.to/lastmile_qr_scan"}, "type": "electric_scooter"}, {"bike_id": "f283765a9f29bc1da16691c433021345", "is_reserved": 0, "name": "f283765a9f29bc1da16691c433021345", "lat": 38.908349, "fusion_lat": 0.0, "lon": -77.04307516666667, "is_disabled": 0, "fusion_lon": 0.0, "rental_uris": {"android": "https://dc.lft.to/lastmile_qr_scan", "ios": "https://dc.lft.to/lastmile_qr_scan"}, "type": "electric_scooter"}, {"bike_id": "e52de25c9edc6f7e2af54b2af19bef7f", "is_reserved": 0, "name": "e52de25c9edc6f7e2af54b2af19bef7f", "lat": 38.92156216666667, "fusion_lat": 0.0, "lon": -77.03381183333333, "is_disabled": 0, "fusion_lon": 0.0, "rental_uris": {"android": "https://dc.lft.to/lastmile_qr_scan", "ios": "https://dc.lft.to/lastmile_qr_scan"}, "type": "electric_scooter"}, {"bike_id": "58ad69c278b451cf2ae9a9608687ae2e", "is_reserved": 0, "name": "58ad69c278b451cf2ae9a9608687ae2e", "lat": 38.910288, "fusion_lat": 0.0, "lon": -77.0331665, "is_disabled": 0, "fusion_lon": 0.0, "rental_uris": {"android": "https://dc.lft.to/lastmile_qr_scan", "ios": "https://dc.lft.to/lastmile_qr_scan"}, "type": "electric_scooter"}, {"bike_id": "e9804d4553fa223093b6e8f28e067322", "is_reserved": 0, "name": "e9804d4553fa223093b6e8f28e067322", "lat": 38.89726433333333, "fusion_lat": 0.0, "lon": -77.00377216666666, "is_disabled": 0, "fusion_lon": 0.0, "rental_uris": {"android": "https://dc.lft.to/lastmile_qr_scan", "ios": "https://dc.lft.to/lastmile_qr_scan"}, "type": "electric_scooter"}, {"bike_id": "f1960ddd60fa96c9495ae918f7a6b5ab", "is_reserved": 0, "name": "f1960ddd60fa96c9495ae918f7a6b5ab", "lat": 38.903931166666666, "fusion_lat": 0.0, "lon": -76.98293783333334, "is_disabled": 0, "fusion_lon": 0.0, "rental_uris": {"android": "https://dc.lft.to/lastmile_qr_scan", "ios": "https://dc.lft.to/lastmile_qr_scan"}, "type": "electric_scooter"}, {"bike_id": "2238c3750c59b68b9f0fda3bece97eba", "is_reserved": 0, "name": "2238c3750c59b68b9f0fda3bece97eba", "lat": 38.908218833333336, "fusion_lat": 0.0, "lon": -77.03187166666666, "is_disabled": 0, "fusion_lon": 0.0, "rental_uris": {"android": "https://dc.lft.to/lastmile_qr_scan", "ios": "https://dc.lft.to/lastmile_qr_scan"}, "type": "electric_scooter"}, {"bike_id": "a110c36c0196de506ac42dd9cabc0883", "is_reserved": 0, "name": "a110c36c0196de506ac42dd9cabc0883", "lat": 38.9044505, "fusion_lat": 0.0, "lon": -77.058111, "is_disabled": 0, "fusion_lon": 0.0, "rental_uris": {"android": "https://dc.lft.to/lastmile_qr_scan", "ios": "https://dc.lft.to/lastmile_qr_scan"}, "type": "electric_scooter"}, {"bike_id": "19e2297e0184a2d85144a9616a3d2c40", "is_reserved": 0, "name": "19e2297e0184a2d85144a9616a3d2c40", "lat": 38.92659833333333, "fusion_lat": 0.0, "lon": -77.02433283333333, "is_disabled": 0, "fusion_lon": 0.0, "rental_uris": {"android": "https://dc.lft.to/lastmile_qr_scan", "ios": "https://dc.lft.to/lastmile_qr_scan"}, "type": "electric_scooter"}, {"bike_id": "d608ac3d5a6b0a83020fd2e7947b035f", "is_reserved": 0, "name": "d608ac3d5a6b0a83020fd2e7947b035f", "lat": 38.9134355, "fusion_lat": 0.0, "lon": -77.03721233333333, "is_disabled": 0, "fusion_lon": 0.0, "rental_uris": {"android": "https://dc.lft.to/lastmile_qr_scan", "ios": "https://dc.lft.to/lastmile_qr_scan"}, "type": "electric_scooter"}, {"bike_id": "c37869035ac8c6d313456c9e938b79a5", "is_reserved": 0, "name": "c37869035ac8c6d313456c9e938b79a5", "lat": 38.899192166666666, "fusion_lat": 0.0, "lon": -77.0513505, "is_disabled": 0, "fusion_lon": 0.0, "rental_uris": {"android": "https://dc.lft.to/lastmile_qr_scan", "ios": "https://dc.lft.to/lastmile_qr_scan"}, "type": "electric_scooter"}, {"bike_id": "5017db633c508a6f647b6ce17aae6821", "is_reserved": 0, "name": "5017db633c508a6f647b6ce17aae6821", "lat": 38.89608833333333, "fusion_lat": 0.0, "lon": -77.0450535, "is_disabled": 0, "fusion_lon": 0.0, "rental_uris": {"android": "https://dc.lft.to/lastmile_qr_scan", "ios": "https://dc.lft.to/lastmile_qr_scan"}, "type": "electric_scooter"}, {"bike_id": "0c32ab21403c40ed521c80d80efc4842", "is_reserved": 0, "name": "0c32ab21403c40ed521c80d80efc4842", "lat": 38.89570833333333, "fusion_lat": 0.0, "lon": -77.02159666666667, "is_disabled": 0, "fusion_lon": 0.0, "rental_uris": {"android": "https://dc.lft.to/lastmile_qr_scan", "ios": "https://dc.lft.to/lastmile_qr_scan"}, "type": "electric_scooter"}, {"bike_id": "2e6bb671cfb0553353aaa39e2dc7a90b", "is_reserved": 0, "name": "2e6bb671cfb0553353aaa39e2dc7a90b", "lat": 38.881850666666665, "fusion_lat": 0.0, "lon": -76.99032066666666, "is_disabled": 0, "fusion_lon": 0.0, "rental_uris": {"android": "https://dc.lft.to/lastmile_qr_scan", "ios": "https://dc.lft.to/lastmile_qr_scan"}, "type": "electric_scooter"}, {"bike_id": "51a2111c05a3f4c85e05f081750115ff", "is_reserved": 0, "name": "51a2111c05a3f4c85e05f081750115ff", "lat": 38.9004765, "fusion_lat": 0.0, "lon": -77.02967666666666, "is_disabled": 0, "fusion_lon": 0.0, "rental_uris": {"android": "https://dc.lft.to/lastmile_qr_scan", "ios": "https://dc.lft.to/lastmile_qr_scan"}, "type": "electric_scooter"}, {"bike_id": "dc8cd166a3749d89b7a60b1552923692", "is_reserved": 0, "name": "dc8cd166a3749d89b7a60b1552923692", "lat": 38.9039415, "fusion_lat": 0.0, "lon": -76.9894175, "is_disabled": 0, "fusion_lon": 0.0, "rental_uris": {"android": "https://dc.lft.to/lastmile_qr_scan", "ios": "https://dc.lft.to/lastmile_qr_scan"}, "type": "electric_scooter"}, {"bike_id": "8b62ac53ebf68fe7d93eb027fb29c0be", "is_reserved": 0, "name": "8b62ac53ebf68fe7d93eb027fb29c0be", "lat": 38.909833666666664, "fusion_lat": 0.0, "lon": -77.0334515, "is_disabled": 0, "fusion_lon": 0.0, "rental_uris": {"android": "https://dc.lft.to/lastmile_qr_scan", "ios": "https://dc.lft.to/lastmile_qr_scan"}, "type": "electric_scooter"}, {"bike_id": "b283a84f92ca870b39d4b9f0ca53d936", "is_reserved": 0, "name": "b283a84f92ca870b39d4b9f0ca53d936", "lat": 38.89962466666667, "fusion_lat": 0.0, "lon": -77.0161375, "is_disabled": 0, "fusion_lon": 0.0, "rental_uris": {"android": "https://dc.lft.to/lastmile_qr_scan", "ios": "https://dc.lft.to/lastmile_qr_scan"}, "type": "electric_scooter"}, {"bike_id": "1f4bcf47b79fe7dcf86399f6ec10ac6f", "is_reserved": 0, "name": "1f4bcf47b79fe7dcf86399f6ec10ac6f", "lat": 38.925861, "fusion_lat": 0.0, "lon": -77.03635633333333, "is_disabled": 0, "fusion_lon": 0.0, "rental_uris": {"android": "https://dc.lft.to/lastmile_qr_scan", "ios": "https://dc.lft.to/lastmile_qr_scan"}, "type": "electric_scooter"}, {"bike_id": "0ff8eb8fb801e035fa5afa7843c2367a", "is_reserved": 0, "name": "0ff8eb8fb801e035fa5afa7843c2367a", "lat": 38.887257, "fusion_lat": 0.0, "lon": -77.01765866666666, "is_disabled": 0, "fusion_lon": 0.0, "rental_uris": {"android": "https://dc.lft.to/lastmile_qr_scan", "ios": "https://dc.lft.to/lastmile_qr_scan"}, "type": "electric_scooter"}, {"bike_id": "542e5b814b789acf088a4d11ae014582", "is_reserved": 0, "name": "542e5b814b789acf088a4d11ae014582", "lat": 38.91418916666667, "fusion_lat": 0.0, "lon": -77.01072583333334, "is_disabled": 0, "fusion_lon": 0.0, "rental_uris": {"android": "https://dc.lft.to/lastmile_qr_scan", "ios": "https://dc.lft.to/lastmile_qr_scan"}, "type": "electric_scooter"}, {"bike_id": "baf4ad27e0d01c9931a2c6f388319fd6", "is_reserved": 0, "name": "baf4ad27e0d01c9931a2c6f388319fd6", "lat": 38.90963166666667, "fusion_lat": 0.0, "lon": -77.03945283333333, "is_disabled": 0, "fusion_lon": 0.0, "rental_uris": {"android": "https://dc.lft.to/lastmile_qr_scan", "ios": "https://dc.lft.to/lastmile_qr_scan"}, "type": "electric_scooter"}, {"bike_id": "b8d03343f7749bf548e3619e61fe2065", "is_reserved": 0, "name": "b8d03343f7749bf548e3619e61fe2065", "lat": 38.9289395, "fusion_lat": 0.0, "lon": -77.0227755, "is_disabled": 0, "fusion_lon": 0.0, "rental_uris": {"android": "https://dc.lft.to/lastmile_qr_scan", "ios": "https://dc.lft.to/lastmile_qr_scan"}, "type": "electric_scooter"}, {"bike_id": "012fa29d878c0a9f0b2bd3cb9510f022", "is_reserved": 0, "name": "012fa29d878c0a9f0b2bd3cb9510f022", "lat": 38.9199405, "fusion_lat": 0.0, "lon": -77.032818, "is_disabled": 0, "fusion_lon": 0.0, "rental_uris": {"android": "https://dc.lft.to/lastmile_qr_scan", "ios": "https://dc.lft.to/lastmile_qr_scan"}, "type": "electric_scooter"}, {"bike_id": "28a0793a4f388ea11e4e8b552d954b92", "is_reserved": 0, "name": "28a0793a4f388ea11e4e8b552d954b92", "lat": 38.887100333333336, "fusion_lat": 0.0, "lon": -77.031593, "is_disabled": 0, "fusion_lon": 0.0, "rental_uris": {"android": "https://dc.lft.to/lastmile_qr_scan", "ios": "https://dc.lft.to/lastmile_qr_scan"}, "type": "electric_scooter"}, {"bike_id": "eefecf389d28aac1c313fa96be7b143d", "is_reserved": 0, "name": "eefecf389d28aac1c313fa96be7b143d", "lat": 38.838306, "fusion_lat": 0.0, "lon": -76.99681183333334, "is_disabled": 0, "fusion_lon": 0.0, "rental_uris": {"android": "https://dc.lft.to/lastmile_qr_scan", "ios": "https://dc.lft.to/lastmile_qr_scan"}, "type": "electric_bike"}, {"bike_id": "2d019db072e12d8f0fa9ba590d119b55", "is_reserved": 0, "name": "2d019db072e12d8f0fa9ba590d119b55", "lat": 38.917652333333336, "fusion_lat": 0.0, "lon": -77.015007, "is_disabled": 0, "fusion_lon": 0.0, "rental_uris": {"android": "https://dc.lft.to/lastmile_qr_scan", "ios": "https://dc.lft.to/lastmile_qr_scan"}, "type": "electric_scooter"}, {"bike_id": "222d99e95996ca51504bda870463a717", "is_reserved": 0, "name": "222d99e95996ca51504bda870463a717", "lat": 38.90638116666667, "fusion_lat": 0.0, "lon": -77.04171866666667, "is_disabled": 0, "fusion_lon": 0.0, "rental_uris": {"android": "https://dc.lft.to/lastmile_qr_scan", "ios": "https://dc.lft.to/lastmile_qr_scan"}, "type": "electric_scooter"}, {"bike_id": "56ee128efa8a534f336f0ff52d6c7790", "is_reserved": 0, "name": "56ee128efa8a534f336f0ff52d6c7790", "lat": 38.912697, "fusion_lat": 0.0, "lon": -77.01676383333333, "is_disabled": 0, "fusion_lon": 0.0, "rental_uris": {"android": "https://dc.lft.to/lastmile_qr_scan", "ios": "https://dc.lft.to/lastmile_qr_scan"}, "type": "electric_scooter"}, {"bike_id": "efc5e909a68819818d32217ad71ecb83", "is_reserved": 0, "name": "efc5e909a68819818d32217ad71ecb83", "lat": 38.930769833333336, "fusion_lat": 0.0, "lon": -77.0341045, "is_disabled": 0, "fusion_lon": 0.0, "rental_uris": {"android": "https://dc.lft.to/lastmile_qr_scan", "ios": "https://dc.lft.to/lastmile_qr_scan"}, "type": "electric_scooter"}, {"bike_id": "d94a4f80a5cddc44d34c23dc3a0e1888", "is_reserved": 0, "name": "d94a4f80a5cddc44d34c23dc3a0e1888", "lat": 38.928357166666665, "fusion_lat": 0.0, "lon": -77.00598433333333, "is_disabled": 0, "fusion_lon": 0.0, "rental_uris": {"android": "https://dc.lft.to/lastmile_qr_scan", "ios": "https://dc.lft.to/lastmile_qr_scan"}, "type": "electric_scooter"}, {"bike_id": "f9506b8657658621a237fd02037fb77a", "is_reserved": 0, "name": "f9506b8657658621a237fd02037fb77a", "lat": 38.89230716666667, "fusion_lat": 0.0, "lon": -76.9881385, "is_disabled": 0, "fusion_lon": 0.0, "rental_uris": {"android": "https://dc.lft.to/lastmile_qr_scan", "ios": "https://dc.lft.to/lastmile_qr_scan"}, "type": "electric_scooter"}, {"bike_id": "b038a243f05761e7d62fa8a873d90f8f", "is_reserved": 0, "name": "b038a243f05761e7d62fa8a873d90f8f", "lat": 38.91415666666666, "fusion_lat": 0.0, "lon": -77.03023466666667, "is_disabled": 0, "fusion_lon": 0.0, "rental_uris": {"android": "https://dc.lft.to/lastmile_qr_scan", "ios": "https://dc.lft.to/lastmile_qr_scan"}, "type": "electric_scooter"}, {"bike_id": "d98cc0624e2954743357f313dc8995aa", "is_reserved": 0, "name": "d98cc0624e2954743357f313dc8995aa", "lat": 38.90284416666667, "fusion_lat": 0.0, "lon": -77.0227115, "is_disabled": 0, "fusion_lon": 0.0, "rental_uris": {"android": "https://dc.lft.to/lastmile_qr_scan", "ios": "https://dc.lft.to/lastmile_qr_scan"}, "type": "electric_scooter"}, {"bike_id": "30c2543a37bed956fb4eee8cab2955b9", "is_reserved": 0, "name": "30c2543a37bed956fb4eee8cab2955b9", "lat": 38.91254216666667, "fusion_lat": 0.0, "lon": -77.03127466666666, "is_disabled": 0, "fusion_lon": 0.0, "rental_uris": {"android": "https://dc.lft.to/lastmile_qr_scan", "ios": "https://dc.lft.to/lastmile_qr_scan"}, "type": "electric_scooter"}, {"bike_id": "d17f2c39ffe687b5233e55b92cae2015", "is_reserved": 0, "name": "d17f2c39ffe687b5233e55b92cae2015", "lat": 38.90532283333334, "fusion_lat": 0.0, "lon": -77.049539, "is_disabled": 0, "fusion_lon": 0.0, "rental_uris": {"android": "https://dc.lft.to/lastmile_qr_scan", "ios": "https://dc.lft.to/lastmile_qr_scan"}, "type": "electric_scooter"}, {"bike_id": "111ab88633de33416d3915f3dd766ec8", "is_reserved": 0, "name": "111ab88633de33416d3915f3dd766ec8", "lat": 38.921829, "fusion_lat": 0.0, "lon": -77.04024966666667, "is_disabled": 0, "fusion_lon": 0.0, "rental_uris": {"android": "https://dc.lft.to/lastmile_qr_scan", "ios": "https://dc.lft.to/lastmile_qr_scan"}, "type": "electric_scooter"}, {"bike_id": "fcadb70755f78b51c8df3fefee9c7c16", "is_reserved": 0, "name": "fcadb70755f78b51c8df3fefee9c7c16", "lat": 38.907132, "fusion_lat": 0.0, "lon": -77.05052533333334, "is_disabled": 0, "fusion_lon": 0.0, "rental_uris": {"android": "https://dc.lft.to/lastmile_qr_scan", "ios": "https://dc.lft.to/lastmile_qr_scan"}, "type": "electric_scooter"}, {"bike_id": "e1684d0a753b891aec30962b7e32207d", "is_reserved": 0, "name": "e1684d0a753b891aec30962b7e32207d", "lat": 38.80677883333333, "fusion_lat": 0.0, "lon": -77.06917933333334, "is_disabled": 0, "fusion_lon": 0.0, "rental_uris": {"android": "https://dc.lft.to/lastmile_qr_scan", "ios": "https://dc.lft.to/lastmile_qr_scan"}, "type": "electric_bike"}, {"bike_id": "8babd0dc7eb28340ac93cdd38b19c4aa", "is_reserved": 0, "name": "8babd0dc7eb28340ac93cdd38b19c4aa", "lat": 38.901627833333336, "fusion_lat": 0.0, "lon": -76.99265516666667, "is_disabled": 0, "fusion_lon": 0.0, "rental_uris": {"android": "https://dc.lft.to/lastmile_qr_scan", "ios": "https://dc.lft.to/lastmile_qr_scan"}, "type": "electric_scooter"}, {"bike_id": "4b19660310bf75c32b542f8c2418e228", "is_reserved": 0, "name": "4b19660310bf75c32b542f8c2418e228", "lat": 38.922544333333335, "fusion_lat": 0.0, "lon": -77.01971983333334, "is_disabled": 0, "fusion_lon": 0.0, "rental_uris": {"android": "https://dc.lft.to/lastmile_qr_scan", "ios": "https://dc.lft.to/lastmile_qr_scan"}, "type": "electric_scooter"}, {"bike_id": "b1fd1977de308a4caa0ce99880ba598e", "is_reserved": 0, "name": "b1fd1977de308a4caa0ce99880ba598e", "lat": 38.92796933333333, "fusion_lat": 0.0, "lon": -77.02723233333333, "is_disabled": 0, "fusion_lon": 0.0, "rental_uris": {"android": "https://dc.lft.to/lastmile_qr_scan", "ios": "https://dc.lft.to/lastmile_qr_scan"}, "type": "electric_scooter"}, {"bike_id": "b84dbc31f1083c65d319f4f364241dfb", "is_reserved": 0, "name": "b84dbc31f1083c65d319f4f364241dfb", "lat": 38.83247683333333, "fusion_lat": 0.0, "lon": -77.0072155, "is_disabled": 0, "fusion_lon": 0.0, "rental_uris": {"android": "https://dc.lft.to/lastmile_qr_scan", "ios": "https://dc.lft.to/lastmile_qr_scan"}, "type": "electric_bike"}, {"bike_id": "74eee4aff76d137099cdef9ec7720e0b", "is_reserved": 0, "name": "74eee4aff76d137099cdef9ec7720e0b", "lat": 38.8923535, "fusion_lat": 0.0, "lon": -77.02383366666666, "is_disabled": 0, "fusion_lon": 0.0, "rental_uris": {"android": "https://dc.lft.to/lastmile_qr_scan", "ios": "https://dc.lft.to/lastmile_qr_scan"}, "type": "electric_scooter"}, {"bike_id": "e1eff9052eba747016e8ab8f05dfb208", "is_reserved": 0, "name": "e1eff9052eba747016e8ab8f05dfb208", "lat": 38.93347083333333, "fusion_lat": 0.0, "lon": -76.99436066666667, "is_disabled": 0, "fusion_lon": 0.0, "rental_uris": {"android": "https://dc.lft.to/lastmile_qr_scan", "ios": "https://dc.lft.to/lastmile_qr_scan"}, "type": "electric_scooter"}, {"bike_id": "aa048fa9ccca8e91f43507789a63ce1c", "is_reserved": 0, "name": "aa048fa9ccca8e91f43507789a63ce1c", "lat": 38.91408366666667, "fusion_lat": 0.0, "lon": -77.0084935, "is_disabled": 0, "fusion_lon": 0.0, "rental_uris": {"android": "https://dc.lft.to/lastmile_qr_scan", "ios": "https://dc.lft.to/lastmile_qr_scan"}, "type": "electric_scooter"}, {"bike_id": "af2fbf8494b7484ba009271f6c3eff16", "is_reserved": 0, "name": "af2fbf8494b7484ba009271f6c3eff16", "lat": 38.902218833333336, "fusion_lat": 0.0, "lon": -77.061453, "is_disabled": 0, "fusion_lon": 0.0, "rental_uris": {"android": "https://dc.lft.to/lastmile_qr_scan", "ios": "https://dc.lft.to/lastmile_qr_scan"}, "type": "electric_scooter"}, {"bike_id": "c00c2ca2a016cb9391db1d91c3c4cfd8", "is_reserved": 0, "name": "c00c2ca2a016cb9391db1d91c3c4cfd8", "lat": 38.896357333333334, "fusion_lat": 0.0, "lon": -77.026847, "is_disabled": 0, "fusion_lon": 0.0, "rental_uris": {"android": "https://dc.lft.to/lastmile_qr_scan", "ios": "https://dc.lft.to/lastmile_qr_scan"}, "type": "electric_scooter"}, {"bike_id": "8bb47f30ce9417247b67fdae44497273", "is_reserved": 0, "name": "8bb47f30ce9417247b67fdae44497273", "lat": 38.907534, "fusion_lat": 0.0, "lon": -77.0415565, "is_disabled": 0, "fusion_lon": 0.0, "rental_uris": {"android": "https://dc.lft.to/lastmile_qr_scan", "ios": "https://dc.lft.to/lastmile_qr_scan"}, "type": "electric_scooter"}, {"bike_id": "c6e55c8f40f6eb2122524d7844aad022", "is_reserved": 0, "name": "c6e55c8f40f6eb2122524d7844aad022", "lat": 38.91662783333334, "fusion_lat": 0.0, "lon": -77.04385866666667, "is_disabled": 0, "fusion_lon": 0.0, "rental_uris": {"android": "https://dc.lft.to/lastmile_qr_scan", "ios": "https://dc.lft.to/lastmile_qr_scan"}, "type": "electric_scooter"}, {"bike_id": "0b9ec9157f9e4fcc32a1112ca0a2ef53", "is_reserved": 0, "name": "0b9ec9157f9e4fcc32a1112ca0a2ef53", "lat": 38.923186666666666, "fusion_lat": 0.0, "lon": -77.03405883333333, "is_disabled": 0, "fusion_lon": 0.0, "rental_uris": {"android": "https://dc.lft.to/lastmile_qr_scan", "ios": "https://dc.lft.to/lastmile_qr_scan"}, "type": "electric_scooter"}, {"bike_id": "569cdd92714ca7a77fc17bccdeaaf30f", "is_reserved": 0, "name": "569cdd92714ca7a77fc17bccdeaaf30f", "lat": 38.90367783333333, "fusion_lat": 0.0, "lon": -77.038446, "is_disabled": 0, "fusion_lon": 0.0, "rental_uris": {"android": "https://dc.lft.to/lastmile_qr_scan", "ios": "https://dc.lft.to/lastmile_qr_scan"}, "type": "electric_scooter"}, {"bike_id": "65806cd6dd5560b82ab8380a29f0f2bb", "is_reserved": 0, "name": "65806cd6dd5560b82ab8380a29f0f2bb", "lat": 38.9001175, "fusion_lat": 0.0, "lon": -77.046751, "is_disabled": 0, "fusion_lon": 0.0, "rental_uris": {"android": "https://dc.lft.to/lastmile_qr_scan", "ios": "https://dc.lft.to/lastmile_qr_scan"}, "type": "electric_bike"}, {"bike_id": "a031d25e79eddda508110465ceb8eb21", "is_reserved": 0, "name": "a031d25e79eddda508110465ceb8eb21", "lat": 38.892429166666666, "fusion_lat": 0.0, "lon": -77.03342883333333, "is_disabled": 0, "fusion_lon": 0.0, "rental_uris": {"android": "https://dc.lft.to/lastmile_qr_scan", "ios": "https://dc.lft.to/lastmile_qr_scan"}, "type": "electric_scooter"}, {"bike_id": "153f376e601e6a123ebbea8d23e15468", "is_reserved": 0, "name": "153f376e601e6a123ebbea8d23e15468", "lat": 38.89212666666667, "fusion_lat": 0.0, "lon": -77.04866683333333, "is_disabled": 0, "fusion_lon": 0.0, "rental_uris": {"android": "https://dc.lft.to/lastmile_qr_scan", "ios": "https://dc.lft.to/lastmile_qr_scan"}, "type": "electric_scooter"}, {"bike_id": "973de6b4515cefed27e455e9dcc21caf", "is_reserved": 0, "name": "973de6b4515cefed27e455e9dcc21caf", "lat": 38.94737683333334, "fusion_lat": 0.0, "lon": -77.01612783333333, "is_disabled": 0, "fusion_lon": 0.0, "rental_uris": {"android": "https://dc.lft.to/lastmile_qr_scan", "ios": "https://dc.lft.to/lastmile_qr_scan"}, "type": "electric_scooter"}, {"bike_id": "0d61c50830cb9e3f455f42df354bc7ef", "is_reserved": 0, "name": "0d61c50830cb9e3f455f42df354bc7ef", "lat": 38.93479983333334, "fusion_lat": 0.0, "lon": -77.0271055, "is_disabled": 0, "fusion_lon": 0.0, "rental_uris": {"android": "https://dc.lft.to/lastmile_qr_scan", "ios": "https://dc.lft.to/lastmile_qr_scan"}, "type": "electric_scooter"}, {"bike_id": "4cee54a064095b598f4cbc7841c8049c", "is_reserved": 0, "name": "4cee54a064095b598f4cbc7841c8049c", "lat": 38.9047285, "fusion_lat": 0.0, "lon": -77.00733916666667, "is_disabled": 0, "fusion_lon": 0.0, "rental_uris": {"android": "https://dc.lft.to/lastmile_qr_scan", "ios": "https://dc.lft.to/lastmile_qr_scan"}, "type": "electric_scooter"}, {"bike_id": "d8d1debb4644be9c12358d6dd86473cd", "is_reserved": 0, "name": "d8d1debb4644be9c12358d6dd86473cd", "lat": 38.906875166666666, "fusion_lat": 0.0, "lon": -77.038479, "is_disabled": 0, "fusion_lon": 0.0, "rental_uris": {"android": "https://dc.lft.to/lastmile_qr_scan", "ios": "https://dc.lft.to/lastmile_qr_scan"}, "type": "electric_scooter"}, {"bike_id": "874dc96eef562a83c1b1c7c7323da3f2", "is_reserved": 0, "name": "874dc96eef562a83c1b1c7c7323da3f2", "lat": 38.912958333333336, "fusion_lat": 0.0, "lon": -77.02226983333334, "is_disabled": 0, "fusion_lon": 0.0, "rental_uris": {"android": "https://dc.lft.to/lastmile_qr_scan", "ios": "https://dc.lft.to/lastmile_qr_scan"}, "type": "electric_scooter"}, {"bike_id": "2c3faa4147c81a651a2d004a18e73f2d", "is_reserved": 0, "name": "2c3faa4147c81a651a2d004a18e73f2d", "lat": 38.899054166666666, "fusion_lat": 0.0, "lon": -76.94551466666667, "is_disabled": 0, "fusion_lon": 0.0, "rental_uris": {"android": "https://dc.lft.to/lastmile_qr_scan", "ios": "https://dc.lft.to/lastmile_qr_scan"}, "type": "electric_scooter"}, {"bike_id": "3a7b5319ff56dd69b14d8ae43ee2b98d", "is_reserved": 0, "name": "3a7b5319ff56dd69b14d8ae43ee2b98d", "lat": 38.911824333333335, "fusion_lat": 0.0, "lon": -77.0413035, "is_disabled": 0, "fusion_lon": 0.0, "rental_uris": {"android": "https://dc.lft.to/lastmile_qr_scan", "ios": "https://dc.lft.to/lastmile_qr_scan"}, "type": "electric_scooter"}, {"bike_id": "b064dd0859c93be89f33fc04a102cf6d", "is_reserved": 0, "name": "b064dd0859c93be89f33fc04a102cf6d", "lat": 38.90562416666667, "fusion_lat": 0.0, "lon": -77.02428133333333, "is_disabled": 0, "fusion_lon": 0.0, "rental_uris": {"android": "https://dc.lft.to/lastmile_qr_scan", "ios": "https://dc.lft.to/lastmile_qr_scan"}, "type": "electric_scooter"}, {"bike_id": "a9746959f158f8d7d37116ebc9877426", "is_reserved": 0, "name": "a9746959f158f8d7d37116ebc9877426", "lat": 38.8988745, "fusion_lat": 0.0, "lon": -76.93176533333333, "is_disabled": 0, "fusion_lon": 0.0, "rental_uris": {"android": "https://dc.lft.to/lastmile_qr_scan", "ios": "https://dc.lft.to/lastmile_qr_scan"}, "type": "electric_scooter"}, {"bike_id": "b6c9dd3710ef97e2148f75199c7cb5df", "is_reserved": 0, "name": "b6c9dd3710ef97e2148f75199c7cb5df", "lat": 38.892256833333334, "fusion_lat": 0.0, "lon": -77.04091883333334, "is_disabled": 0, "fusion_lon": 0.0, "rental_uris": {"android": "https://dc.lft.to/lastmile_qr_scan", "ios": "https://dc.lft.to/lastmile_qr_scan"}, "type": "electric_scooter"}, {"bike_id": "3372e5d6d65ddb171f98b32fe451d85e", "is_reserved": 0, "name": "3372e5d6d65ddb171f98b32fe451d85e", "lat": 38.8922145, "fusion_lat": 0.0, "lon": -77.02222666666667, "is_disabled": 0, "fusion_lon": 0.0, "rental_uris": {"android": "https://dc.lft.to/lastmile_qr_scan", "ios": "https://dc.lft.to/lastmile_qr_scan"}, "type": "electric_scooter"}, {"bike_id": "8e9d1b358f8c6f1a5214a75e91c45937", "is_reserved": 0, "name": "8e9d1b358f8c6f1a5214a75e91c45937", "lat": 38.91226533333333, "fusion_lat": 0.0, "lon": -76.98995333333333, "is_disabled": 0, "fusion_lon": 0.0, "rental_uris": {"android": "https://dc.lft.to/lastmile_qr_scan", "ios": "https://dc.lft.to/lastmile_qr_scan"}, "type": "electric_scooter"}, {"bike_id": "4ebf66d5098cda2ee7752ef11bee6d6d", "is_reserved": 0, "name": "4ebf66d5098cda2ee7752ef11bee6d6d", "lat": 38.92554416666667, "fusion_lat": 0.0, "lon": -77.04062266666666, "is_disabled": 0, "fusion_lon": 0.0, "rental_uris": {"android": "https://dc.lft.to/lastmile_qr_scan", "ios": "https://dc.lft.to/lastmile_qr_scan"}, "type": "electric_scooter"}, {"bike_id": "ade2fecfa36b1f0be5e6b6d106af46c5", "is_reserved": 0, "name": "ade2fecfa36b1f0be5e6b6d106af46c5", "lat": 38.914993, "fusion_lat": 0.0, "lon": -77.01221216666667, "is_disabled": 0, "fusion_lon": 0.0, "rental_uris": {"android": "https://dc.lft.to/lastmile_qr_scan", "ios": "https://dc.lft.to/lastmile_qr_scan"}, "type": "electric_scooter"}, {"bike_id": "1094c4584552433845d59542142300c3", "is_reserved": 0, "name": "1094c4584552433845d59542142300c3", "lat": 38.934002666666665, "fusion_lat": 0.0, "lon": -77.03988416666667, "is_disabled": 0, "fusion_lon": 0.0, "rental_uris": {"android": "https://dc.lft.to/lastmile_qr_scan", "ios": "https://dc.lft.to/lastmile_qr_scan"}, "type": "electric_scooter"}, {"bike_id": "e64cc13dd3b8676ca1dbc1311196b946", "is_reserved": 0, "name": "e64cc13dd3b8676ca1dbc1311196b946", "lat": 39.0360825, "fusion_lat": 0.0, "lon": -77.05536466666666, "is_disabled": 0, "fusion_lon": 0.0, "rental_uris": {"android": "https://dc.lft.to/lastmile_qr_scan", "ios": "https://dc.lft.to/lastmile_qr_scan"}, "type": "electric_bike"}, {"bike_id": "a4ebb994348d0317ffa32f3e10a75eca", "is_reserved": 0, "name": "a4ebb994348d0317ffa32f3e10a75eca", "lat": 38.886257666666666, "fusion_lat": 0.0, "lon": -77.02823866666667, "is_disabled": 0, "fusion_lon": 0.0, "rental_uris": {"android": "https://dc.lft.to/lastmile_qr_scan", "ios": "https://dc.lft.to/lastmile_qr_scan"}, "type": "electric_scooter"}, {"bike_id": "a49adfaa90319689b2acdb74bfe7334b", "is_reserved": 0, "name": "a49adfaa90319689b2acdb74bfe7334b", "lat": 38.924496, "fusion_lat": 0.0, "lon": -77.02132583333334, "is_disabled": 0, "fusion_lon": 0.0, "rental_uris": {"android": "https://dc.lft.to/lastmile_qr_scan", "ios": "https://dc.lft.to/lastmile_qr_scan"}, "type": "electric_scooter"}, {"bike_id": "28bc4f672aa737a0b71512e8e68c303a", "is_reserved": 0, "name": "28bc4f672aa737a0b71512e8e68c303a", "lat": 38.90640233333333, "fusion_lat": 0.0, "lon": -77.00602966666666, "is_disabled": 0, "fusion_lon": 0.0, "rental_uris": {"android": "https://dc.lft.to/lastmile_qr_scan", "ios": "https://dc.lft.to/lastmile_qr_scan"}, "type": "electric_scooter"}, {"bike_id": "f0ece34e4e223f4958bfe86e6be774b5", "is_reserved": 0, "name": "f0ece34e4e223f4958bfe86e6be774b5", "lat": 38.917959, "fusion_lat": 0.0, "lon": -77.02704416666667, "is_disabled": 0, "fusion_lon": 0.0, "rental_uris": {"android": "https://dc.lft.to/lastmile_qr_scan", "ios": "https://dc.lft.to/lastmile_qr_scan"}, "type": "electric_scooter"}, {"bike_id": "50fbbe7761be2f0eb7871b80705d2b98", "is_reserved": 0, "name": "50fbbe7761be2f0eb7871b80705d2b98", "lat": 38.905509333333335, "fusion_lat": 0.0, "lon": -77.00594366666667, "is_disabled": 0, "fusion_lon": 0.0, "rental_uris": {"android": "https://dc.lft.to/lastmile_qr_scan", "ios": "https://dc.lft.to/lastmile_qr_scan"}, "type": "electric_scooter"}, {"bike_id": "f251ec3ad25d164ab5a6df6f2eedc33f", "is_reserved": 0, "name": "f251ec3ad25d164ab5a6df6f2eedc33f", "lat": 38.91920733333333, "fusion_lat": 0.0, "lon": -77.0303835, "is_disabled": 0, "fusion_lon": 0.0, "rental_uris": {"android": "https://dc.lft.to/lastmile_qr_scan", "ios": "https://dc.lft.to/lastmile_qr_scan"}, "type": "electric_scooter"}, {"bike_id": "dbd3eb373755f736ec1cbecdd2065565", "is_reserved": 0, "name": "dbd3eb373755f736ec1cbecdd2065565", "lat": 38.901990166666664, "fusion_lat": 0.0, "lon": -77.050639, "is_disabled": 0, "fusion_lon": 0.0, "rental_uris": {"android": "https://dc.lft.to/lastmile_qr_scan", "ios": "https://dc.lft.to/lastmile_qr_scan"}, "type": "electric_scooter"}, {"bike_id": "6b40976818ee5b914028a2441e1a6ff5", "is_reserved": 0, "name": "6b40976818ee5b914028a2441e1a6ff5", "lat": 38.93276133333333, "fusion_lat": 0.0, "lon": -77.04080766666667, "is_disabled": 0, "fusion_lon": 0.0, "rental_uris": {"android": "https://dc.lft.to/lastmile_qr_scan", "ios": "https://dc.lft.to/lastmile_qr_scan"}, "type": "electric_scooter"}, {"bike_id": "c98f2a0c0308d1296194b5fbd1281aa3", "is_reserved": 0, "name": "c98f2a0c0308d1296194b5fbd1281aa3", "lat": 38.91670966666667, "fusion_lat": 0.0, "lon": -77.0238415, "is_disabled": 0, "fusion_lon": 0.0, "rental_uris": {"android": "https://dc.lft.to/lastmile_qr_scan", "ios": "https://dc.lft.to/lastmile_qr_scan"}, "type": "electric_scooter"}, {"bike_id": "efd4c9550bedd189ffcb450f710c2493", "is_reserved": 0, "name": "efd4c9550bedd189ffcb450f710c2493", "lat": 38.914710666666664, "fusion_lat": 0.0, "lon": -77.0383325, "is_disabled": 0, "fusion_lon": 0.0, "rental_uris": {"android": "https://dc.lft.to/lastmile_qr_scan", "ios": "https://dc.lft.to/lastmile_qr_scan"}, "type": "electric_scooter"}, {"bike_id": "87c17afebce2a4fcceb98c658e469882", "is_reserved": 0, "name": "87c17afebce2a4fcceb98c658e469882", "lat": 38.9223945, "fusion_lat": 0.0, "lon": -77.073115, "is_disabled": 0, "fusion_lon": 0.0, "rental_uris": {"android": "https://dc.lft.to/lastmile_qr_scan", "ios": "https://dc.lft.to/lastmile_qr_scan"}, "type": "electric_scooter"}, {"bike_id": "92d7a13c852ade99823174182f0d7bcc", "is_reserved": 0, "name": "92d7a13c852ade99823174182f0d7bcc", "lat": 38.907581666666665, "fusion_lat": 0.0, "lon": -77.0415205, "is_disabled": 0, "fusion_lon": 0.0, "rental_uris": {"android": "https://dc.lft.to/lastmile_qr_scan", "ios": "https://dc.lft.to/lastmile_qr_scan"}, "type": "electric_scooter"}, {"bike_id": "fab7733bf98ab19d2398e4f00b7db880", "is_reserved": 0, "name": "fab7733bf98ab19d2398e4f00b7db880", "lat": 38.8873105, "fusion_lat": 0.0, "lon": -77.0238195, "is_disabled": 0, "fusion_lon": 0.0, "rental_uris": {"android": "https://dc.lft.to/lastmile_qr_scan", "ios": "https://dc.lft.to/lastmile_qr_scan"}, "type": "electric_scooter"}, {"bike_id": "330777b4015f4df4c79c51ce424e557b", "is_reserved": 0, "name": "330777b4015f4df4c79c51ce424e557b", "lat": 38.900658666666665, "fusion_lat": 0.0, "lon": -77.03444983333333, "is_disabled": 0, "fusion_lon": 0.0, "rental_uris": {"android": "https://dc.lft.to/lastmile_qr_scan", "ios": "https://dc.lft.to/lastmile_qr_scan"}, "type": "electric_scooter"}, {"bike_id": "f4fed80e0543c9b29aa394ae1e3822f5", "is_reserved": 0, "name": "f4fed80e0543c9b29aa394ae1e3822f5", "lat": 38.8945065, "fusion_lat": 0.0, "lon": -76.97805933333333, "is_disabled": 0, "fusion_lon": 0.0, "rental_uris": {"android": "https://dc.lft.to/lastmile_qr_scan", "ios": "https://dc.lft.to/lastmile_qr_scan"}, "type": "electric_scooter"}, {"bike_id": "8e85fce8791b3a1d0fa322c5b7c67ccc", "is_reserved": 0, "name": "8e85fce8791b3a1d0fa322c5b7c67ccc", "lat": 38.9027395, "fusion_lat": 0.0, "lon": -77.05305333333334, "is_disabled": 0, "fusion_lon": 0.0, "rental_uris": {"android": "https://dc.lft.to/lastmile_qr_scan", "ios": "https://dc.lft.to/lastmile_qr_scan"}, "type": "electric_scooter"}, {"bike_id": "1ba03a67e646a694c3f2b93830ebac6a", "is_reserved": 0, "name": "1ba03a67e646a694c3f2b93830ebac6a", "lat": 38.9001105, "fusion_lat": 0.0, "lon": -76.99317166666667, "is_disabled": 0, "fusion_lon": 0.0, "rental_uris": {"android": "https://dc.lft.to/lastmile_qr_scan", "ios": "https://dc.lft.to/lastmile_qr_scan"}, "type": "electric_scooter"}, {"bike_id": "9ba7bd7b43f51e72bc9f7e09cfa8b6c3", "is_reserved": 0, "name": "9ba7bd7b43f51e72bc9f7e09cfa8b6c3", "lat": 38.92173566666666, "fusion_lat": 0.0, "lon": -77.02102933333333, "is_disabled": 0, "fusion_lon": 0.0, "rental_uris": {"android": "https://dc.lft.to/lastmile_qr_scan", "ios": "https://dc.lft.to/lastmile_qr_scan"}, "type": "electric_scooter"}, {"bike_id": "907805cad25e8195c1b90ad1616790a7", "is_reserved": 0, "name": "907805cad25e8195c1b90ad1616790a7", "lat": 38.90362483333333, "fusion_lat": 0.0, "lon": -77.0384425, "is_disabled": 0, "fusion_lon": 0.0, "rental_uris": {"android": "https://dc.lft.to/lastmile_qr_scan", "ios": "https://dc.lft.to/lastmile_qr_scan"}, "type": "electric_scooter"}, {"bike_id": "324c14cdd3ab5baebab763d59b90f021", "is_reserved": 0, "name": "324c14cdd3ab5baebab763d59b90f021", "lat": 38.91705683333333, "fusion_lat": 0.0, "lon": -77.02892, "is_disabled": 0, "fusion_lon": 0.0, "rental_uris": {"android": "https://dc.lft.to/lastmile_qr_scan", "ios": "https://dc.lft.to/lastmile_qr_scan"}, "type": "electric_scooter"}, {"bike_id": "9e140cb07712d70ea36e6cfdad29b0d4", "is_reserved": 0, "name": "9e140cb07712d70ea36e6cfdad29b0d4", "lat": 38.913177, "fusion_lat": 0.0, "lon": -77.036483, "is_disabled": 0, "fusion_lon": 0.0, "rental_uris": {"android": "https://dc.lft.to/lastmile_qr_scan", "ios": "https://dc.lft.to/lastmile_qr_scan"}, "type": "electric_scooter"}, {"bike_id": "273adb002170a66c2c9b25b63679bc06", "is_reserved": 0, "name": "273adb002170a66c2c9b25b63679bc06", "lat": 38.90898466666667, "fusion_lat": 0.0, "lon": -77.04398383333333, "is_disabled": 0, "fusion_lon": 0.0, "rental_uris": {"android": "https://dc.lft.to/lastmile_qr_scan", "ios": "https://dc.lft.to/lastmile_qr_scan"}, "type": "electric_scooter"}, {"bike_id": "e886c74d5e5403895f0a168e372b9dd3", "is_reserved": 0, "name": "e886c74d5e5403895f0a168e372b9dd3", "lat": 38.897558, "fusion_lat": 0.0, "lon": -77.02717166666666, "is_disabled": 0, "fusion_lon": 0.0, "rental_uris": {"android": "https://dc.lft.to/lastmile_qr_scan", "ios": "https://dc.lft.to/lastmile_qr_scan"}, "type": "electric_scooter"}, {"bike_id": "62708c14fdd7d21b3b4463451cc9bf65", "is_reserved": 0, "name": "62708c14fdd7d21b3b4463451cc9bf65", "lat": 38.89713483333333, "fusion_lat": 0.0, "lon": -77.007933, "is_disabled": 0, "fusion_lon": 0.0, "rental_uris": {"android": "https://dc.lft.to/lastmile_qr_scan", "ios": "https://dc.lft.to/lastmile_qr_scan"}, "type": "electric_scooter"}, {"bike_id": "fcb839576a881f8e7c3e3546f4829e67", "is_reserved": 0, "name": "fcb839576a881f8e7c3e3546f4829e67", "lat": 38.90162216666667, "fusion_lat": 0.0, "lon": -77.02606666666667, "is_disabled": 0, "fusion_lon": 0.0, "rental_uris": {"android": "https://dc.lft.to/lastmile_qr_scan", "ios": "https://dc.lft.to/lastmile_qr_scan"}, "type": "electric_scooter"}, {"bike_id": "68067f918afd3f9c30b3704039d7429a", "is_reserved": 0, "name": "68067f918afd3f9c30b3704039d7429a", "lat": 38.92017416666667, "fusion_lat": 0.0, "lon": -77.0316855, "is_disabled": 0, "fusion_lon": 0.0, "rental_uris": {"android": "https://dc.lft.to/lastmile_qr_scan", "ios": "https://dc.lft.to/lastmile_qr_scan"}, "type": "electric_scooter"}, {"bike_id": "7c7804ee791f0d34c61655045ee1ddf1", "is_reserved": 0, "name": "7c7804ee791f0d34c61655045ee1ddf1", "lat": 38.95423666666667, "fusion_lat": 0.0, "lon": -77.02761383333333, "is_disabled": 0, "fusion_lon": 0.0, "rental_uris": {"android": "https://dc.lft.to/lastmile_qr_scan", "ios": "https://dc.lft.to/lastmile_qr_scan"}, "type": "electric_scooter"}, {"bike_id": "43c77ea061fcbb5682e49c01d3aa4f73", "is_reserved": 0, "name": "43c77ea061fcbb5682e49c01d3aa4f73", "lat": 38.919580333333336, "fusion_lat": 0.0, "lon": -76.992047, "is_disabled": 0, "fusion_lon": 0.0, "rental_uris": {"android": "https://dc.lft.to/lastmile_qr_scan", "ios": "https://dc.lft.to/lastmile_qr_scan"}, "type": "electric_bike"}, {"bike_id": "1feaef71c65c96ab7ba60ab9d335db18", "is_reserved": 0, "name": "1feaef71c65c96ab7ba60ab9d335db18", "lat": 38.918507166666664, "fusion_lat": 0.0, "lon": -77.023182, "is_disabled": 0, "fusion_lon": 0.0, "rental_uris": {"android": "https://dc.lft.to/lastmile_qr_scan", "ios": "https://dc.lft.to/lastmile_qr_scan"}, "type": "electric_scooter"}, {"bike_id": "5cdbf2c2e662a458538efcb6ba8105df", "is_reserved": 0, "name": "5cdbf2c2e662a458538efcb6ba8105df", "lat": 38.900041, "fusion_lat": 0.0, "lon": -76.99842883333334, "is_disabled": 0, "fusion_lon": 0.0, "rental_uris": {"android": "https://dc.lft.to/lastmile_qr_scan", "ios": "https://dc.lft.to/lastmile_qr_scan"}, "type": "electric_scooter"}, {"bike_id": "d2bbc2d8391737714201fe6467c8fa9a", "is_reserved": 0, "name": "d2bbc2d8391737714201fe6467c8fa9a", "lat": 38.9098755, "fusion_lat": 0.0, "lon": -77.03201166666666, "is_disabled": 0, "fusion_lon": 0.0, "rental_uris": {"android": "https://dc.lft.to/lastmile_qr_scan", "ios": "https://dc.lft.to/lastmile_qr_scan"}, "type": "electric_scooter"}, {"bike_id": "49cd28102759bd50810f8cd7f9d4c8a8", "is_reserved": 0, "name": "49cd28102759bd50810f8cd7f9d4c8a8", "lat": 38.91630983333334, "fusion_lat": 0.0, "lon": -77.05073566666667, "is_disabled": 0, "fusion_lon": 0.0, "rental_uris": {"android": "https://dc.lft.to/lastmile_qr_scan", "ios": "https://dc.lft.to/lastmile_qr_scan"}, "type": "electric_scooter"}, {"bike_id": "2bd6410eb0600d168e7486d27f0bd085", "is_reserved": 0, "name": "2bd6410eb0600d168e7486d27f0bd085", "lat": 38.91272816666667, "fusion_lat": 0.0, "lon": -77.023861, "is_disabled": 0, "fusion_lon": 0.0, "rental_uris": {"android": "https://dc.lft.to/lastmile_qr_scan", "ios": "https://dc.lft.to/lastmile_qr_scan"}, "type": "electric_scooter"}, {"bike_id": "9db9fd5a9bb77c6ad5d074635b0e1ca3", "is_reserved": 0, "name": "9db9fd5a9bb77c6ad5d074635b0e1ca3", "lat": 38.88931133333333, "fusion_lat": 0.0, "lon": -77.015082, "is_disabled": 0, "fusion_lon": 0.0, "rental_uris": {"android": "https://dc.lft.to/lastmile_qr_scan", "ios": "https://dc.lft.to/lastmile_qr_scan"}, "type": "electric_scooter"}, {"bike_id": "88c45708902ac5721e554e48dd1818e8", "is_reserved": 0, "name": "88c45708902ac5721e554e48dd1818e8", "lat": 38.89357966666667, "fusion_lat": 0.0, "lon": -76.9865625, "is_disabled": 0, "fusion_lon": 0.0, "rental_uris": {"android": "https://dc.lft.to/lastmile_qr_scan", "ios": "https://dc.lft.to/lastmile_qr_scan"}, "type": "electric_scooter"}, {"bike_id": "a3cd92e80167ffab9c1440e19c8f241e", "is_reserved": 0, "name": "a3cd92e80167ffab9c1440e19c8f241e", "lat": 39.00483583333333, "fusion_lat": 0.0, "lon": -77.02184083333333, "is_disabled": 0, "fusion_lon": 0.0, "rental_uris": {"android": "https://dc.lft.to/lastmile_qr_scan", "ios": "https://dc.lft.to/lastmile_qr_scan"}, "type": "electric_bike"}, {"bike_id": "1404de6a338d6e5f0837077d3c839b3e", "is_reserved": 0, "name": "1404de6a338d6e5f0837077d3c839b3e", "lat": 38.92365933333333, "fusion_lat": 0.0, "lon": -77.0195475, "is_disabled": 0, "fusion_lon": 0.0, "rental_uris": {"android": "https://dc.lft.to/lastmile_qr_scan", "ios": "https://dc.lft.to/lastmile_qr_scan"}, "type": "electric_scooter"}, {"bike_id": "2f5e50467b32f62f65d17c2f905dd1b9", "is_reserved": 0, "name": "2f5e50467b32f62f65d17c2f905dd1b9", "lat": 38.94182933333333, "fusion_lat": 0.0, "lon": -77.024864, "is_disabled": 0, "fusion_lon": 0.0, "rental_uris": {"android": "https://dc.lft.to/lastmile_qr_scan", "ios": "https://dc.lft.to/lastmile_qr_scan"}, "type": "electric_scooter"}, {"bike_id": "19971473221f24150d6058e475cd89a5", "is_reserved": 0, "name": "19971473221f24150d6058e475cd89a5", "lat": 38.916827166666664, "fusion_lat": 0.0, "lon": -77.03850083333333, "is_disabled": 0, "fusion_lon": 0.0, "rental_uris": {"android": "https://dc.lft.to/lastmile_qr_scan", "ios": "https://dc.lft.to/lastmile_qr_scan"}, "type": "electric_scooter"}, {"bike_id": "67b20bb457c72aeb04aad17e44fd73be", "is_reserved": 0, "name": "67b20bb457c72aeb04aad17e44fd73be", "lat": 38.83577583333334, "fusion_lat": 0.0, "lon": -76.99009283333334, "is_disabled": 0, "fusion_lon": 0.0, "rental_uris": {"android": "https://dc.lft.to/lastmile_qr_scan", "ios": "https://dc.lft.to/lastmile_qr_scan"}, "type": "electric_bike"}, {"bike_id": "e82beae534ad6a37d29368233668fd4e", "is_reserved": 0, "name": "e82beae534ad6a37d29368233668fd4e", "lat": 38.915458666666666, "fusion_lat": 0.0, "lon": -77.01218683333333, "is_disabled": 0, "fusion_lon": 0.0, "rental_uris": {"android": "https://dc.lft.to/lastmile_qr_scan", "ios": "https://dc.lft.to/lastmile_qr_scan"}, "type": "electric_scooter"}, {"bike_id": "cb4a1b575e84ebb60cd913e85b283a7d", "is_reserved": 0, "name": "cb4a1b575e84ebb60cd913e85b283a7d", "lat": 38.9222075, "fusion_lat": 0.0, "lon": -77.02120966666666, "is_disabled": 0, "fusion_lon": 0.0, "rental_uris": {"android": "https://dc.lft.to/lastmile_qr_scan", "ios": "https://dc.lft.to/lastmile_qr_scan"}, "type": "electric_scooter"}, {"bike_id": "1e36e7aaccc8020da499a3fe8b0a225e", "is_reserved": 0, "name": "1e36e7aaccc8020da499a3fe8b0a225e", "lat": 38.9015795, "fusion_lat": 0.0, "lon": -77.0161475, "is_disabled": 0, "fusion_lon": 0.0, "rental_uris": {"android": "https://dc.lft.to/lastmile_qr_scan", "ios": "https://dc.lft.to/lastmile_qr_scan"}, "type": "electric_scooter"}, {"bike_id": "5920f43255be0e1733594d4b07ff1d46", "is_reserved": 0, "name": "5920f43255be0e1733594d4b07ff1d46", "lat": 38.90020066666666, "fusion_lat": 0.0, "lon": -76.99773066666667, "is_disabled": 0, "fusion_lon": 0.0, "rental_uris": {"android": "https://dc.lft.to/lastmile_qr_scan", "ios": "https://dc.lft.to/lastmile_qr_scan"}, "type": "electric_bike"}, {"bike_id": "da914d4483aaeeab2ae78fac005ad6e9", "is_reserved": 0, "name": "da914d4483aaeeab2ae78fac005ad6e9", "lat": 38.87660866666667, "fusion_lat": 0.0, "lon": -77.00316383333333, "is_disabled": 0, "fusion_lon": 0.0, "rental_uris": {"android": "https://dc.lft.to/lastmile_qr_scan", "ios": "https://dc.lft.to/lastmile_qr_scan"}, "type": "electric_scooter"}, {"bike_id": "395f1d96cafa35a345bc3aaf7ecb0892", "is_reserved": 0, "name": "395f1d96cafa35a345bc3aaf7ecb0892", "lat": 38.90571, "fusion_lat": 0.0, "lon": -77.02205383333333, "is_disabled": 0, "fusion_lon": 0.0, "rental_uris": {"android": "https://dc.lft.to/lastmile_qr_scan", "ios": "https://dc.lft.to/lastmile_qr_scan"}, "type": "electric_scooter"}, {"bike_id": "6800e88d14a2a68ad1d855da00e28344", "is_reserved": 0, "name": "6800e88d14a2a68ad1d855da00e28344", "lat": 38.904861833333335, "fusion_lat": 0.0, "lon": -77.002042, "is_disabled": 0, "fusion_lon": 0.0, "rental_uris": {"android": "https://dc.lft.to/lastmile_qr_scan", "ios": "https://dc.lft.to/lastmile_qr_scan"}, "type": "electric_scooter"}, {"bike_id": "0ae2a12dd845cc877bb41632d6b6a0bd", "is_reserved": 0, "name": "0ae2a12dd845cc877bb41632d6b6a0bd", "lat": 38.89895716666667, "fusion_lat": 0.0, "lon": -76.98496316666666, "is_disabled": 0, "fusion_lon": 0.0, "rental_uris": {"android": "https://dc.lft.to/lastmile_qr_scan", "ios": "https://dc.lft.to/lastmile_qr_scan"}, "type": "electric_scooter"}, {"bike_id": "c19f8ee3c2afbdc2e772b0c2e6092583", "is_reserved": 0, "name": "c19f8ee3c2afbdc2e772b0c2e6092583", "lat": 38.904574333333336, "fusion_lat": 0.0, "lon": -77.06282133333333, "is_disabled": 0, "fusion_lon": 0.0, "rental_uris": {"android": "https://dc.lft.to/lastmile_qr_scan", "ios": "https://dc.lft.to/lastmile_qr_scan"}, "type": "electric_scooter"}, {"bike_id": "367910c7053b0eb20fdd547073b8c2dc", "is_reserved": 0, "name": "367910c7053b0eb20fdd547073b8c2dc", "lat": 38.8872755, "fusion_lat": 0.0, "lon": -77.0176525, "is_disabled": 0, "fusion_lon": 0.0, "rental_uris": {"android": "https://dc.lft.to/lastmile_qr_scan", "ios": "https://dc.lft.to/lastmile_qr_scan"}, "type": "electric_scooter"}, {"bike_id": "2aa7fe65dfcef2e7ade4fc5e1c93eb27", "is_reserved": 0, "name": "2aa7fe65dfcef2e7ade4fc5e1c93eb27", "lat": 38.892193666666664, "fusion_lat": 0.0, "lon": -77.02627483333333, "is_disabled": 0, "fusion_lon": 0.0, "rental_uris": {"android": "https://dc.lft.to/lastmile_qr_scan", "ios": "https://dc.lft.to/lastmile_qr_scan"}, "type": "electric_scooter"}, {"bike_id": "e684177fda3ca52b69104ab04d3b507c", "is_reserved": 0, "name": "e684177fda3ca52b69104ab04d3b507c", "lat": 38.903832333333334, "fusion_lat": 0.0, "lon": -77.06806933333333, "is_disabled": 0, "fusion_lon": 0.0, "rental_uris": {"android": "https://dc.lft.to/lastmile_qr_scan", "ios": "https://dc.lft.to/lastmile_qr_scan"}, "type": "electric_scooter"}, {"bike_id": "54fd0e46639ccbbc022de07f7ba7bbf3", "is_reserved": 0, "name": "54fd0e46639ccbbc022de07f7ba7bbf3", "lat": 38.9045545, "fusion_lat": 0.0, "lon": -77.00163016666667, "is_disabled": 0, "fusion_lon": 0.0, "rental_uris": {"android": "https://dc.lft.to/lastmile_qr_scan", "ios": "https://dc.lft.to/lastmile_qr_scan"}, "type": "electric_scooter"}, {"bike_id": "54b1eba89a30e3f6b7a2ab49f12e4d02", "is_reserved": 0, "name": "54b1eba89a30e3f6b7a2ab49f12e4d02", "lat": 38.9225595, "fusion_lat": 0.0, "lon": -77.03519666666666, "is_disabled": 0, "fusion_lon": 0.0, "rental_uris": {"android": "https://dc.lft.to/lastmile_qr_scan", "ios": "https://dc.lft.to/lastmile_qr_scan"}, "type": "electric_scooter"}, {"bike_id": "1133970de08edee20a055619ef287915", "is_reserved": 0, "name": "1133970de08edee20a055619ef287915", "lat": 38.885363, "fusion_lat": 0.0, "lon": -77.0006455, "is_disabled": 0, "fusion_lon": 0.0, "rental_uris": {"android": "https://dc.lft.to/lastmile_qr_scan", "ios": "https://dc.lft.to/lastmile_qr_scan"}, "type": "electric_scooter"}, {"bike_id": "51cd9c44a0883cae597c74f6cf5cfeb1", "is_reserved": 0, "name": "51cd9c44a0883cae597c74f6cf5cfeb1", "lat": 38.90604033333334, "fusion_lat": 0.0, "lon": -77.0568875, "is_disabled": 0, "fusion_lon": 0.0, "rental_uris": {"android": "https://dc.lft.to/lastmile_qr_scan", "ios": "https://dc.lft.to/lastmile_qr_scan"}, "type": "electric_scooter"}, {"bike_id": "da93224e86944fc6ec9cf7c2341c4cdb", "is_reserved": 0, "name": "da93224e86944fc6ec9cf7c2341c4cdb", "lat": 38.91645616666667, "fusion_lat": 0.0, "lon": -77.03197583333333, "is_disabled": 0, "fusion_lon": 0.0, "rental_uris": {"android": "https://dc.lft.to/lastmile_qr_scan", "ios": "https://dc.lft.to/lastmile_qr_scan"}, "type": "electric_scooter"}, {"bike_id": "094dd6eee9d0bf468bb0ba80ce4223ba", "is_reserved": 0, "name": "094dd6eee9d0bf468bb0ba80ce4223ba", "lat": 38.916864, "fusion_lat": 0.0, "lon": -77.02346566666667, "is_disabled": 0, "fusion_lon": 0.0, "rental_uris": {"android": "https://dc.lft.to/lastmile_qr_scan", "ios": "https://dc.lft.to/lastmile_qr_scan"}, "type": "electric_scooter"}, {"bike_id": "8ea3577b293b67f09578400e8ef7aef3", "is_reserved": 0, "name": "8ea3577b293b67f09578400e8ef7aef3", "lat": 38.88538, "fusion_lat": 0.0, "lon": -77.00064983333333, "is_disabled": 0, "fusion_lon": 0.0, "rental_uris": {"android": "https://dc.lft.to/lastmile_qr_scan", "ios": "https://dc.lft.to/lastmile_qr_scan"}, "type": "electric_scooter"}, {"bike_id": "1daf0427524abdcb4a409a4ee47b0870", "is_reserved": 0, "name": "1daf0427524abdcb4a409a4ee47b0870", "lat": 38.90215516666667, "fusion_lat": 0.0, "lon": -77.02349516666666, "is_disabled": 0, "fusion_lon": 0.0, "rental_uris": {"android": "https://dc.lft.to/lastmile_qr_scan", "ios": "https://dc.lft.to/lastmile_qr_scan"}, "type": "electric_scooter"}, {"bike_id": "ff6481957f53db5360d39ae1dd91bbf6", "is_reserved": 0, "name": "ff6481957f53db5360d39ae1dd91bbf6", "lat": 38.87667416666667, "fusion_lat": 0.0, "lon": -76.992751, "is_disabled": 0, "fusion_lon": 0.0, "rental_uris": {"android": "https://dc.lft.to/lastmile_qr_scan", "ios": "https://dc.lft.to/lastmile_qr_scan"}, "type": "electric_scooter"}, {"bike_id": "28a70c20758983ecbf51cc2972527417", "is_reserved": 0, "name": "28a70c20758983ecbf51cc2972527417", "lat": 38.923445, "fusion_lat": 0.0, "lon": -77.05174933333333, "is_disabled": 0, "fusion_lon": 0.0, "rental_uris": {"android": "https://dc.lft.to/lastmile_qr_scan", "ios": "https://dc.lft.to/lastmile_qr_scan"}, "type": "electric_scooter"}, {"bike_id": "0ee18547cb02706bdfa0271a3f8b874c", "is_reserved": 0, "name": "0ee18547cb02706bdfa0271a3f8b874c", "lat": 38.91876466666667, "fusion_lat": 0.0, "lon": -77.04183233333333, "is_disabled": 0, "fusion_lon": 0.0, "rental_uris": {"android": "https://dc.lft.to/lastmile_qr_scan", "ios": "https://dc.lft.to/lastmile_qr_scan"}, "type": "electric_scooter"}, {"bike_id": "623934485b4a271d458f207ed744fffa", "is_reserved": 0, "name": "623934485b4a271d458f207ed744fffa", "lat": 38.89390933333333, "fusion_lat": 0.0, "lon": -76.92307066666666, "is_disabled": 0, "fusion_lon": 0.0, "rental_uris": {"android": "https://dc.lft.to/lastmile_qr_scan", "ios": "https://dc.lft.to/lastmile_qr_scan"}, "type": "electric_scooter"}, {"bike_id": "fc844b623ac815fe7c38ef64514f71a2", "is_reserved": 0, "name": "fc844b623ac815fe7c38ef64514f71a2", "lat": 38.943356333333334, "fusion_lat": 0.0, "lon": -76.98314933333333, "is_disabled": 0, "fusion_lon": 0.0, "rental_uris": {"android": "https://dc.lft.to/lastmile_qr_scan", "ios": "https://dc.lft.to/lastmile_qr_scan"}, "type": "electric_scooter"}, {"bike_id": "1a7487352e4d75d994ba09cb48477fce", "is_reserved": 0, "name": "1a7487352e4d75d994ba09cb48477fce", "lat": 38.9003915, "fusion_lat": 0.0, "lon": -76.9984625, "is_disabled": 0, "fusion_lon": 0.0, "rental_uris": {"android": "https://dc.lft.to/lastmile_qr_scan", "ios": "https://dc.lft.to/lastmile_qr_scan"}, "type": "electric_scooter"}, {"bike_id": "f58979b8a06c0c8ea9bac8c40399d5ef", "is_reserved": 0, "name": "f58979b8a06c0c8ea9bac8c40399d5ef", "lat": 38.90568416666667, "fusion_lat": 0.0, "lon": -77.00599816666667, "is_disabled": 0, "fusion_lon": 0.0, "rental_uris": {"android": "https://dc.lft.to/lastmile_qr_scan", "ios": "https://dc.lft.to/lastmile_qr_scan"}, "type": "electric_scooter"}, {"bike_id": "cbe09a32d031ff8c37771b529b471291", "is_reserved": 0, "name": "cbe09a32d031ff8c37771b529b471291", "lat": 38.95360133333333, "fusion_lat": 0.0, "lon": -76.98098566666667, "is_disabled": 0, "fusion_lon": 0.0, "rental_uris": {"android": "https://dc.lft.to/lastmile_qr_scan", "ios": "https://dc.lft.to/lastmile_qr_scan"}, "type": "electric_bike"}, {"bike_id": "66be56378996d5b2bbf61ba967ebd6c8", "is_reserved": 0, "name": "66be56378996d5b2bbf61ba967ebd6c8", "lat": 38.89514583333333, "fusion_lat": 0.0, "lon": -77.00362333333334, "is_disabled": 0, "fusion_lon": 0.0, "rental_uris": {"android": "https://dc.lft.to/lastmile_qr_scan", "ios": "https://dc.lft.to/lastmile_qr_scan"}, "type": "electric_scooter"}, {"bike_id": "c2a07dcaf8e562eaedfb0fea1151fa46", "is_reserved": 0, "name": "c2a07dcaf8e562eaedfb0fea1151fa46", "lat": 38.924233666666666, "fusion_lat": 0.0, "lon": -77.05748216666667, "is_disabled": 0, "fusion_lon": 0.0, "rental_uris": {"android": "https://dc.lft.to/lastmile_qr_scan", "ios": "https://dc.lft.to/lastmile_qr_scan"}, "type": "electric_scooter"}, {"bike_id": "6556f5ed2df417307600dec57298bde5", "is_reserved": 0, "name": "6556f5ed2df417307600dec57298bde5", "lat": 38.912224, "fusion_lat": 0.0, "lon": -77.03187483333333, "is_disabled": 0, "fusion_lon": 0.0, "rental_uris": {"android": "https://dc.lft.to/lastmile_qr_scan", "ios": "https://dc.lft.to/lastmile_qr_scan"}, "type": "electric_scooter"}, {"bike_id": "f17209a51687d18bc71b3089c87cbee1", "is_reserved": 0, "name": "f17209a51687d18bc71b3089c87cbee1", "lat": 38.87373066666667, "fusion_lat": 0.0, "lon": -77.00128133333334, "is_disabled": 0, "fusion_lon": 0.0, "rental_uris": {"android": "https://dc.lft.to/lastmile_qr_scan", "ios": "https://dc.lft.to/lastmile_qr_scan"}, "type": "electric_scooter"}, {"bike_id": "3729f2c9488b83b6828d3892c2918f6f", "is_reserved": 0, "name": "3729f2c9488b83b6828d3892c2918f6f", "lat": 38.9171995, "fusion_lat": 0.0, "lon": -77.02701016666667, "is_disabled": 0, "fusion_lon": 0.0, "rental_uris": {"android": "https://dc.lft.to/lastmile_qr_scan", "ios": "https://dc.lft.to/lastmile_qr_scan"}, "type": "electric_scooter"}, {"bike_id": "32eb5bf3ce0e78cf8bee8c1c4656f910", "is_reserved": 0, "name": "32eb5bf3ce0e78cf8bee8c1c4656f910", "lat": 38.90851633333333, "fusion_lat": 0.0, "lon": -77.01971266666666, "is_disabled": 0, "fusion_lon": 0.0, "rental_uris": {"android": "https://dc.lft.to/lastmile_qr_scan", "ios": "https://dc.lft.to/lastmile_qr_scan"}, "type": "electric_scooter"}, {"bike_id": "e4873c8dff2cee1bde27599573167f4b", "is_reserved": 0, "name": "e4873c8dff2cee1bde27599573167f4b", "lat": 38.89222933333333, "fusion_lat": 0.0, "lon": -77.02631416666667, "is_disabled": 0, "fusion_lon": 0.0, "rental_uris": {"android": "https://dc.lft.to/lastmile_qr_scan", "ios": "https://dc.lft.to/lastmile_qr_scan"}, "type": "electric_scooter"}, {"bike_id": "49bd42e3d2ec0f80b15d03951641eeca", "is_reserved": 0, "name": "49bd42e3d2ec0f80b15d03951641eeca", "lat": 38.91612933333333, "fusion_lat": 0.0, "lon": -77.03185983333333, "is_disabled": 0, "fusion_lon": 0.0, "rental_uris": {"android": "https://dc.lft.to/lastmile_qr_scan", "ios": "https://dc.lft.to/lastmile_qr_scan"}, "type": "electric_scooter"}, {"bike_id": "60d7d77a3e349f713047dadf8770faca", "is_reserved": 0, "name": "60d7d77a3e349f713047dadf8770faca", "lat": 38.90181666666667, "fusion_lat": 0.0, "lon": -77.02722583333333, "is_disabled": 0, "fusion_lon": 0.0, "rental_uris": {"android": "https://dc.lft.to/lastmile_qr_scan", "ios": "https://dc.lft.to/lastmile_qr_scan"}, "type": "electric_scooter"}, {"bike_id": "d9a25ea53c80e9d4b191bf2ebe133935", "is_reserved": 0, "name": "d9a25ea53c80e9d4b191bf2ebe133935", "lat": 38.92369333333333, "fusion_lat": 0.0, "lon": -77.019486, "is_disabled": 0, "fusion_lon": 0.0, "rental_uris": {"android": "https://dc.lft.to/lastmile_qr_scan", "ios": "https://dc.lft.to/lastmile_qr_scan"}, "type": "electric_scooter"}, {"bike_id": "3dc41e132a06a8b6920d874204c53e31", "is_reserved": 0, "name": "3dc41e132a06a8b6920d874204c53e31", "lat": 38.884919333333336, "fusion_lat": 0.0, "lon": -76.98056383333333, "is_disabled": 0, "fusion_lon": 0.0, "rental_uris": {"android": "https://dc.lft.to/lastmile_qr_scan", "ios": "https://dc.lft.to/lastmile_qr_scan"}, "type": "electric_scooter"}, {"bike_id": "835adf99cd8612aa7186597a15e61c87", "is_reserved": 0, "name": "835adf99cd8612aa7186597a15e61c87", "lat": 38.9012725, "fusion_lat": 0.0, "lon": -77.0435785, "is_disabled": 0, "fusion_lon": 0.0, "rental_uris": {"android": "https://dc.lft.to/lastmile_qr_scan", "ios": "https://dc.lft.to/lastmile_qr_scan"}, "type": "electric_scooter"}, {"bike_id": "1c72e15f916bc1f8e5353dc5142706c5", "is_reserved": 0, "name": "1c72e15f916bc1f8e5353dc5142706c5", "lat": 38.8673575, "fusion_lat": 0.0, "lon": -76.98787833333333, "is_disabled": 0, "fusion_lon": 0.0, "rental_uris": {"android": "https://dc.lft.to/lastmile_qr_scan", "ios": "https://dc.lft.to/lastmile_qr_scan"}, "type": "electric_scooter"}, {"bike_id": "af75d3eeb581355344c58cfd78f54776", "is_reserved": 0, "name": "af75d3eeb581355344c58cfd78f54776", "lat": 38.96183, "fusion_lat": 0.0, "lon": -77.05265416666667, "is_disabled": 0, "fusion_lon": 0.0, "rental_uris": {"android": "https://dc.lft.to/lastmile_qr_scan", "ios": "https://dc.lft.to/lastmile_qr_scan"}, "type": "electric_bike"}, {"bike_id": "8c28278a627807feeb2e79f8384a0904", "is_reserved": 0, "name": "8c28278a627807feeb2e79f8384a0904", "lat": 38.9657555, "fusion_lat": 0.0, "lon": -77.00265483333334, "is_disabled": 0, "fusion_lon": 0.0, "rental_uris": {"android": "https://dc.lft.to/lastmile_qr_scan", "ios": "https://dc.lft.to/lastmile_qr_scan"}, "type": "electric_scooter"}, {"bike_id": "d0a91144546bb48a221b9413838ac565", "is_reserved": 0, "name": "d0a91144546bb48a221b9413838ac565", "lat": 38.8860885, "fusion_lat": 0.0, "lon": -76.99535966666667, "is_disabled": 0, "fusion_lon": 0.0, "rental_uris": {"android": "https://dc.lft.to/lastmile_qr_scan", "ios": "https://dc.lft.to/lastmile_qr_scan"}, "type": "electric_scooter"}, {"bike_id": "f1a8dd509e71a6b00e5bb21dd0177314", "is_reserved": 0, "name": "f1a8dd509e71a6b00e5bb21dd0177314", "lat": 38.898437666666666, "fusion_lat": 0.0, "lon": -77.03041133333333, "is_disabled": 0, "fusion_lon": 0.0, "rental_uris": {"android": "https://dc.lft.to/lastmile_qr_scan", "ios": "https://dc.lft.to/lastmile_qr_scan"}, "type": "electric_scooter"}, {"bike_id": "9bb02fbcbd3a8662376e69d709d77657", "is_reserved": 0, "name": "9bb02fbcbd3a8662376e69d709d77657", "lat": 38.9048925, "fusion_lat": 0.0, "lon": -77.02112383333333, "is_disabled": 0, "fusion_lon": 0.0, "rental_uris": {"android": "https://dc.lft.to/lastmile_qr_scan", "ios": "https://dc.lft.to/lastmile_qr_scan"}, "type": "electric_scooter"}, {"bike_id": "387b1709250a367b5229d78410ba21d7", "is_reserved": 0, "name": "387b1709250a367b5229d78410ba21d7", "lat": 38.904915333333335, "fusion_lat": 0.0, "lon": -77.06276133333333, "is_disabled": 0, "fusion_lon": 0.0, "rental_uris": {"android": "https://dc.lft.to/lastmile_qr_scan", "ios": "https://dc.lft.to/lastmile_qr_scan"}, "type": "electric_scooter"}, {"bike_id": "aa27713d4b69a8a9e2e7d1886c1dbe00", "is_reserved": 0, "name": "aa27713d4b69a8a9e2e7d1886c1dbe00", "lat": 38.896109833333334, "fusion_lat": 0.0, "lon": -77.01336666666667, "is_disabled": 0, "fusion_lon": 0.0, "rental_uris": {"android": "https://dc.lft.to/lastmile_qr_scan", "ios": "https://dc.lft.to/lastmile_qr_scan"}, "type": "electric_scooter"}, {"bike_id": "0c92bcc57448e616d7455b2beb0e5291", "is_reserved": 0, "name": "0c92bcc57448e616d7455b2beb0e5291", "lat": 38.9091955, "fusion_lat": 0.0, "lon": -76.99963633333333, "is_disabled": 0, "fusion_lon": 0.0, "rental_uris": {"android": "https://dc.lft.to/lastmile_qr_scan", "ios": "https://dc.lft.to/lastmile_qr_scan"}, "type": "electric_scooter"}, {"bike_id": "a057f931c12f62fb9e3b280b0f090169", "is_reserved": 0, "name": "a057f931c12f62fb9e3b280b0f090169", "lat": 38.898951333333336, "fusion_lat": 0.0, "lon": -77.03932616666667, "is_disabled": 0, "fusion_lon": 0.0, "rental_uris": {"android": "https://dc.lft.to/lastmile_qr_scan", "ios": "https://dc.lft.to/lastmile_qr_scan"}, "type": "electric_scooter"}, {"bike_id": "ce4547504073361a4298b355ddde49d8", "is_reserved": 0, "name": "ce4547504073361a4298b355ddde49d8", "lat": 38.900290166666665, "fusion_lat": 0.0, "lon": -76.99629433333334, "is_disabled": 0, "fusion_lon": 0.0, "rental_uris": {"android": "https://dc.lft.to/lastmile_qr_scan", "ios": "https://dc.lft.to/lastmile_qr_scan"}, "type": "electric_scooter"}, {"bike_id": "2c08f7b97035a0d49e7fd7c9bad937d0", "is_reserved": 0, "name": "2c08f7b97035a0d49e7fd7c9bad937d0", "lat": 38.92326466666667, "fusion_lat": 0.0, "lon": -77.040189, "is_disabled": 0, "fusion_lon": 0.0, "rental_uris": {"android": "https://dc.lft.to/lastmile_qr_scan", "ios": "https://dc.lft.to/lastmile_qr_scan"}, "type": "electric_scooter"}, {"bike_id": "9ddadb3e0f8c4bd181c0cea326dd8ed3", "is_reserved": 0, "name": "9ddadb3e0f8c4bd181c0cea326dd8ed3", "lat": 38.917154, "fusion_lat": 0.0, "lon": -77.02294966666666, "is_disabled": 0, "fusion_lon": 0.0, "rental_uris": {"android": "https://dc.lft.to/lastmile_qr_scan", "ios": "https://dc.lft.to/lastmile_qr_scan"}, "type": "electric_scooter"}, {"bike_id": "94decc6fc1e8e47df8b6be154b9adeb9", "is_reserved": 0, "name": "94decc6fc1e8e47df8b6be154b9adeb9", "lat": 38.91603666666666, "fusion_lat": 0.0, "lon": -77.04163633333333, "is_disabled": 0, "fusion_lon": 0.0, "rental_uris": {"android": "https://dc.lft.to/lastmile_qr_scan", "ios": "https://dc.lft.to/lastmile_qr_scan"}, "type": "electric_scooter"}, {"bike_id": "aa461370199d2ae4860220cec346366e", "is_reserved": 0, "name": "aa461370199d2ae4860220cec346366e", "lat": 38.89557033333333, "fusion_lat": 0.0, "lon": -76.948742, "is_disabled": 0, "fusion_lon": 0.0, "rental_uris": {"android": "https://dc.lft.to/lastmile_qr_scan", "ios": "https://dc.lft.to/lastmile_qr_scan"}, "type": "electric_scooter"}, {"bike_id": "606c66182151037e965a9c90492f0c74", "is_reserved": 0, "name": "606c66182151037e965a9c90492f0c74", "lat": 38.9079895, "fusion_lat": 0.0, "lon": -77.02962133333334, "is_disabled": 0, "fusion_lon": 0.0, "rental_uris": {"android": "https://dc.lft.to/lastmile_qr_scan", "ios": "https://dc.lft.to/lastmile_qr_scan"}, "type": "electric_scooter"}, {"bike_id": "c3994cf33dc94a3fb34f5910f9ff744b", "is_reserved": 0, "name": "c3994cf33dc94a3fb34f5910f9ff744b", "lat": 38.905355, "fusion_lat": 0.0, "lon": -76.99799383333334, "is_disabled": 0, "fusion_lon": 0.0, "rental_uris": {"android": "https://dc.lft.to/lastmile_qr_scan", "ios": "https://dc.lft.to/lastmile_qr_scan"}, "type": "electric_bike"}, {"bike_id": "267895e3bb1fcdced7b233bbd76c8956", "is_reserved": 0, "name": "267895e3bb1fcdced7b233bbd76c8956", "lat": 38.90934283333333, "fusion_lat": 0.0, "lon": -77.0280795, "is_disabled": 0, "fusion_lon": 0.0, "rental_uris": {"android": "https://dc.lft.to/lastmile_qr_scan", "ios": "https://dc.lft.to/lastmile_qr_scan"}, "type": "electric_scooter"}, {"bike_id": "d874aafc05a14b9e60f0ee3f4eeba519", "is_reserved": 0, "name": "d874aafc05a14b9e60f0ee3f4eeba519", "lat": 38.87749766666666, "fusion_lat": 0.0, "lon": -77.00336816666666, "is_disabled": 0, "fusion_lon": 0.0, "rental_uris": {"android": "https://dc.lft.to/lastmile_qr_scan", "ios": "https://dc.lft.to/lastmile_qr_scan"}, "type": "electric_scooter"}, {"bike_id": "633bfa0e73fbf352024a9942059cf964", "is_reserved": 0, "name": "633bfa0e73fbf352024a9942059cf964", "lat": 38.900345333333334, "fusion_lat": 0.0, "lon": -76.99837, "is_disabled": 0, "fusion_lon": 0.0, "rental_uris": {"android": "https://dc.lft.to/lastmile_qr_scan", "ios": "https://dc.lft.to/lastmile_qr_scan"}, "type": "electric_scooter"}, {"bike_id": "44333f7314ab2f6915df541dfce9d34a", "is_reserved": 0, "name": "44333f7314ab2f6915df541dfce9d34a", "lat": 38.996776833333335, "fusion_lat": 0.0, "lon": -77.0255445, "is_disabled": 0, "fusion_lon": 0.0, "rental_uris": {"android": "https://dc.lft.to/lastmile_qr_scan", "ios": "https://dc.lft.to/lastmile_qr_scan"}, "type": "electric_bike"}, {"bike_id": "a343cab0ad40c1e5b7b92d2b1c7519a1", "is_reserved": 0, "name": "a343cab0ad40c1e5b7b92d2b1c7519a1", "lat": 38.9148505, "fusion_lat": 0.0, "lon": -77.042629, "is_disabled": 0, "fusion_lon": 0.0, "rental_uris": {"android": "https://dc.lft.to/lastmile_qr_scan", "ios": "https://dc.lft.to/lastmile_qr_scan"}, "type": "electric_scooter"}, {"bike_id": "075b05e6352b59ac1149f963766641fc", "is_reserved": 0, "name": "075b05e6352b59ac1149f963766641fc", "lat": 38.9242305, "fusion_lat": 0.0, "lon": -77.02705783333333, "is_disabled": 0, "fusion_lon": 0.0, "rental_uris": {"android": "https://dc.lft.to/lastmile_qr_scan", "ios": "https://dc.lft.to/lastmile_qr_scan"}, "type": "electric_scooter"}, {"bike_id": "c0f331497e55cdf87a0c1d9dc0790668", "is_reserved": 0, "name": "c0f331497e55cdf87a0c1d9dc0790668", "lat": 38.900193333333334, "fusion_lat": 0.0, "lon": -76.99972433333333, "is_disabled": 0, "fusion_lon": 0.0, "rental_uris": {"android": "https://dc.lft.to/lastmile_qr_scan", "ios": "https://dc.lft.to/lastmile_qr_scan"}, "type": "electric_scooter"}, {"bike_id": "24010bfbbfd939143c632aa96d7e02c6", "is_reserved": 0, "name": "24010bfbbfd939143c632aa96d7e02c6", "lat": 38.915809333333335, "fusion_lat": 0.0, "lon": -77.03214633333333, "is_disabled": 0, "fusion_lon": 0.0, "rental_uris": {"android": "https://dc.lft.to/lastmile_qr_scan", "ios": "https://dc.lft.to/lastmile_qr_scan"}, "type": "electric_scooter"}, {"bike_id": "7f55aa019fc9e423b7b79003798ed6e1", "is_reserved": 0, "name": "7f55aa019fc9e423b7b79003798ed6e1", "lat": 38.9075435, "fusion_lat": 0.0, "lon": -77.03584416666666, "is_disabled": 0, "fusion_lon": 0.0, "rental_uris": {"android": "https://dc.lft.to/lastmile_qr_scan", "ios": "https://dc.lft.to/lastmile_qr_scan"}, "type": "electric_scooter"}, {"bike_id": "3442346b4aaa935da634f87292737f06", "is_reserved": 0, "name": "3442346b4aaa935da634f87292737f06", "lat": 38.928444666666664, "fusion_lat": 0.0, "lon": -77.02053916666667, "is_disabled": 0, "fusion_lon": 0.0, "rental_uris": {"android": "https://dc.lft.to/lastmile_qr_scan", "ios": "https://dc.lft.to/lastmile_qr_scan"}, "type": "electric_bike"}, {"bike_id": "5e0fc0e54b18db2182d56ec3b6b8c041", "is_reserved": 0, "name": "5e0fc0e54b18db2182d56ec3b6b8c041", "lat": 38.912812833333334, "fusion_lat": 0.0, "lon": -77.03646083333334, "is_disabled": 0, "fusion_lon": 0.0, "rental_uris": {"android": "https://dc.lft.to/lastmile_qr_scan", "ios": "https://dc.lft.to/lastmile_qr_scan"}, "type": "electric_scooter"}, {"bike_id": "d5b1d54eaae430c462ea064cf743be01", "is_reserved": 0, "name": "d5b1d54eaae430c462ea064cf743be01", "lat": 38.897484166666665, "fusion_lat": 0.0, "lon": -77.03305783333333, "is_disabled": 0, "fusion_lon": 0.0, "rental_uris": {"android": "https://dc.lft.to/lastmile_qr_scan", "ios": "https://dc.lft.to/lastmile_qr_scan"}, "type": "electric_scooter"}, {"bike_id": "1bd7da6f733605552025624062cd614f", "is_reserved": 0, "name": "1bd7da6f733605552025624062cd614f", "lat": 38.90815633333333, "fusion_lat": 0.0, "lon": -77.0416595, "is_disabled": 0, "fusion_lon": 0.0, "rental_uris": {"android": "https://dc.lft.to/lastmile_qr_scan", "ios": "https://dc.lft.to/lastmile_qr_scan"}, "type": "electric_scooter"}, {"bike_id": "11d7c4094e7b6b215a3a56bf9e5c1dfe", "is_reserved": 0, "name": "11d7c4094e7b6b215a3a56bf9e5c1dfe", "lat": 38.901289, "fusion_lat": 0.0, "lon": -77.043543, "is_disabled": 0, "fusion_lon": 0.0, "rental_uris": {"android": "https://dc.lft.to/lastmile_qr_scan", "ios": "https://dc.lft.to/lastmile_qr_scan"}, "type": "electric_scooter"}, {"bike_id": "cc86cb8679a367ba252967388fb4f18d", "is_reserved": 0, "name": "cc86cb8679a367ba252967388fb4f18d", "lat": 38.898033833333336, "fusion_lat": 0.0, "lon": -77.04611916666667, "is_disabled": 0, "fusion_lon": 0.0, "rental_uris": {"android": "https://dc.lft.to/lastmile_qr_scan", "ios": "https://dc.lft.to/lastmile_qr_scan"}, "type": "electric_scooter"}, {"bike_id": "8ec15a3243b22e28ef74a1d0feded321", "is_reserved": 0, "name": "8ec15a3243b22e28ef74a1d0feded321", "lat": 38.90564916666666, "fusion_lat": 0.0, "lon": -77.0081385, "is_disabled": 0, "fusion_lon": 0.0, "rental_uris": {"android": "https://dc.lft.to/lastmile_qr_scan", "ios": "https://dc.lft.to/lastmile_qr_scan"}, "type": "electric_scooter"},