{"data": {"bikes": [{"is_disabled": 0, "is_reserved": 0, "type": "electric_scooter", "lon": -76.99169133333334, "fusion_lon": 0.0, "lat": 38.8977505, "rental_uris": {"android": "https://dc.lft.to/lastmile_qr_scan", "ios": "https://dc.lft.to/lastmile_qr_scan"}, "fusion_lat": 0.0, "name": "b0b4c11e6b866d5a5baa13e2eaa92580", "bike_id": "b0b4c11e6b866d5a5baa13e2eaa92580"}, {"is_disabled": 0, "is_reserved": 0, "type": "electric_scooter", "lon": -77.04794866666667, "fusion_lon": 0.0, "lat": 38.89373166666667, "rental_uris": {"android": "https://dc.lft.to/lastmile_qr_scan", "ios": "https://dc.lft.to/lastmile_qr_scan"}, "fusion_lat": 0.0, "name": "86c2a6aeddd8808a569eac2da7f5b91e", "bike_id": "86c2a6aeddd8808a569eac2da7f5b91e"}, {"is_disabled": 0, "is_reserved": 0, "type": "electric_scooter", "lon": -77.0416525, "fusion_lon": 0.0, "lat": 38.90864916666666, "rental_uris": {"android": "https://dc.lft.to/lastmile_qr_scan", "ios": "https://dc.lft.to/lastmile_qr_scan"}, "fusion_lat": 0.0, "name": "544fb4f870afca3dfac150feb1ddfaa7", "bike_id": "544fb4f870afca3dfac150feb1ddfaa7"}, {"is_disabled": 0, "is_reserved": 0, "type": "electric_scooter", "lon": -77.0321395, "fusion_lon": 0.0, "lat": 38.936153, "rental_uris": {"android": "https://dc.lft.to/lastmile_qr_scan", "ios": "https://dc.lft.to/lastmile_qr_scan"}, "fusion_lat": 0.0, "name": "3af05d8bcbbe0aa4af26d36721a9253c", "bike_id": "3af05d8bcbbe0aa4af26d36721a9253c"}, {"is_disabled": 0, "is_reserved": 0, "type": "electric_scooter", "lon": -76.990302, "fusion_lon": 0.0, "lat": 38.9287265, "rental_uris": {"android": "https://dc.lft.to/lastmile_qr_scan", "ios": "https://dc.lft.to/lastmile_qr_scan"}, "fusion_lat": 0.0, "name": "a1dec2d5aec6d476463a785225d2bb43", "bike_id": "a1dec2d5aec6d476463a785225d2bb43"}, {"is_disabled": 0, "is_reserved": 0, "type": "electric_scooter", "lon": -77.071082, "fusion_lon": 0.0, "lat": 38.919646, "rental_uris": {"android": "https://dc.lft.to/lastmile_qr_scan", "ios": "https://dc.lft.to/lastmile_qr_scan"}, "fusion_lat": 0.0, "name": "9621a7e18a467526abda0d9d96c3465c", "bike_id": "9621a7e18a467526abda0d9d96c3465c"}, {"is_disabled": 0, "is_reserved": 0, "type": "electric_scooter", "lon": -77.02951383333334, "fusion_lon": 0.0, "lat": 38.89548216666667, "rental_uris": {"android": "https://dc.lft.to/lastmile_qr_scan", "ios": "https://dc.lft.to/lastmile_qr_scan"}, "fusion_lat": 0.0, "name": "d200b133bed44a967fa760eb2fbc1a1e", "bike_id": "d200b133bed44a967fa760eb2fbc1a1e"}, {"is_disabled": 0, "is_reserved": 0, "type": "electric_scooter", "lon": -77.03760766666667, "fusion_lon": 0.0, "lat": 38.906773666666666, "rental_uris": {"android": "https://dc.lft.to/lastmile_qr_scan", "ios": "https://dc.lft.to/lastmile_qr_scan"}, "fusion_lat": 0.0, "name": "37148a101c822a5628c2e00a38f051bb", "bike_id": "37148a101c822a5628c2e00a38f051bb"}, {"is_disabled": 0, "is_reserved": 0, "type": "electric_scooter", "lon": -77.04484066666667, "fusion_lon": 0.0, "lat": 38.924274833333335, "rental_uris": {"android": "https://dc.lft.to/lastmile_qr_scan", "ios": "https://dc.lft.to/lastmile_qr_scan"}, "fusion_lat": 0.0, "name": "b3d040eb12cd57bcf41c01cc7987699e", "bike_id": "b3d040eb12cd57bcf41c01cc7987699e"}, {"is_disabled": 0, "is_reserved": 0, "type": "electric_bike", "lon": -77.05109666666667, "fusion_lon": 0.0, "lat": 38.94554516666667, "rental_uris": {"android": "https://dc.lft.to/lastmile_qr_scan", "ios": "https://dc.lft.to/lastmile_qr_scan"}, "fusion_lat": 0.0, "name": "63e1d356acade7401363ffc6a0a2af10", "bike_id": "63e1d356acade7401363ffc6a0a2af10"}, {"is_disabled": 0, "is_reserved": 0, "type": "electric_bike", "lon": -77.10713683333333, "fusion_lon": 0.0, "lat": 38.8557285, "rental_uris": {"android": "https://dc.lft.to/lastmile_qr_scan", "ios": "https://dc.lft.to/lastmile_qr_scan"}, "fusion_lat": 0.0, "name": "b3911189b750efd9477caa9cd1a0e84b", "bike_id": "b3911189b750efd9477caa9cd1a0e84b"}, {"is_disabled": 0, "is_reserved": 0, "type": "electric_scooter", "lon": -77.02545383333333, "fusion_lon": 0.0, "lat": 38.90726183333334, "rental_uris": {"android": "https://dc.lft.to/lastmile_qr_scan", "ios": "https://dc.lft.to/lastmile_qr_scan"}, "fusion_lat": 0.0, "name": "d5e6dae6c2f0f3059c07472bd50124ee", "bike_id": "d5e6dae6c2f0f3059c07472bd50124ee"}, {"is_disabled": 0, "is_reserved": 0, "type": "electric_scooter", "lon": -77.02779016666666, "fusion_lon": 0.0, "lat": 38.892206333333334, "rental_uris": {"android": "https://dc.lft.to/lastmile_qr_scan", "ios": "https://dc.lft.to/lastmile_qr_scan"}, "fusion_lat": 0.0, "name": "043d98072365e5d908f41494a69ddc08", "bike_id": "043d98072365e5d908f41494a69ddc08"}, {"is_disabled": 0, "is_reserved": 0, "type": "electric_scooter", "lon": -77.06362166666666, "fusion_lon": 0.0, "lat": 38.94416616666667, "rental_uris": {"android": "https://dc.lft.to/lastmile_qr_scan", "ios": "https://dc.lft.to/lastmile_qr_scan"}, "fusion_lat": 0.0, "name": "90b5e3390b5915bb9165017ff3288208", "bike_id": "90b5e3390b5915bb9165017ff3288208"}, {"is_disabled": 0, "is_reserved": 0, "type": "electric_scooter", "lon": -76.99873166666667, "fusion_lon": 0.0, "lat": 38.920561666666664, "rental_uris": {"android": "https://dc.lft.to/lastmile_qr_scan", "ios": "https://dc.lft.to/lastmile_qr_scan"}, "fusion_lat": 0.0, "name": "513d24968614241fc110b196abb8fd39", "bike_id": "513d24968614241fc110b196abb8fd39"}, {"is_disabled": 0, "is_reserved": 0, "type": "electric_scooter", "lon": -77.0020785, "fusion_lon": 0.0, "lat": 38.89494233333333, "rental_uris": {"android": "https://dc.lft.to/lastmile_qr_scan", "ios": "https://dc.lft.to/lastmile_qr_scan"}, "fusion_lat": 0.0, "name": "08e7253d66e8d60fe1b2650de0bd26db", "bike_id": "08e7253d66e8d60fe1b2650de0bd26db"}, {"is_disabled": 0, "is_reserved": 0, "type": "electric_scooter", "lon": -77.032051, "fusion_lon": 0.0, "lat": 38.919056, "rental_uris": {"android": "https://dc.lft.to/lastmile_qr_scan", "ios": "https://dc.lft.to/lastmile_qr_scan"}, "fusion_lat": 0.0, "name": "a134e24e90f65aebcdf004c4600d9051", "bike_id": "a134e24e90f65aebcdf004c4600d9051"}, {"is_disabled": 0, "is_reserved": 0, "type": "electric_scooter", "lon": -77.00252466666667, "fusion_lon": 0.0, "lat": 38.90265766666667, "rental_uris": {"android": "https://dc.lft.to/lastmile_qr_scan", "ios": "https://dc.lft.to/lastmile_qr_scan"}, "fusion_lat": 0.0, "name": "5fb10cb315eaa5b322f210a75daf36a0", "bike_id": "5fb10cb315eaa5b322f210a75daf36a0"}, {"is_disabled": 0, "is_reserved": 0, "type": "electric_scooter", "lon": -77.0402935, "fusion_lon": 0.0, "lat": 38.917878, "rental_uris": {"android": "https://dc.lft.to/lastmile_qr_scan", "ios": "https://dc.lft.to/lastmile_qr_scan"}, "fusion_lat": 0.0, "name": "55660b2d1973a15ada749ba63907255a", "bike_id": "55660b2d1973a15ada749ba63907255a"}, {"is_disabled": 0, "is_reserved": 0, "type": "electric_scooter", "lon": -77.03884833333333, "fusion_lon": 0.0, "lat": 38.934292666666664, "rental_uris": {"android": "https://dc.lft.to/lastmile_qr_scan", "ios": "https://dc.lft.to/lastmile_qr_scan"}, "fusion_lat": 0.0, "name": "909c054d5daeb3d72c43171a7aa91fab", "bike_id": "909c054d5daeb3d72c43171a7aa91fab"}, {"is_disabled": 0, "is_reserved": 0, "type": "electric_scooter", "lon": -77.01008533333334, "fusion_lon": 0.0, "lat": 38.86710383333333, "rental_uris": {"android": "https://dc.lft.to/lastmile_qr_scan", "ios": "https://dc.lft.to/lastmile_qr_scan"}, "fusion_lat": 0.0, "name": "c8a87004e992bf0fdf43d40dc8005e22", "bike_id": "c8a87004e992bf0fdf43d40dc8005e22"}, {"is_disabled": 0, "is_reserved": 0, "type": "electric_scooter", "lon": -77.01415816666666, "fusion_lon": 0.0, "lat": 38.928099333333336, "rental_uris": {"android": "https://dc.lft.to/lastmile_qr_scan", "ios": "https://dc.lft.to/lastmile_qr_scan"}, "fusion_lat": 0.0, "name": "058c00635cb4523770d534d7231543e8", "bike_id": "058c00635cb4523770d534d7231543e8"}, {"is_disabled": 0, "is_reserved": 0, "type": "electric_scooter", "lon": -77.03234933333333, "fusion_lon": 0.0, "lat": 38.9249855, "rental_uris": {"android": "https://dc.lft.to/lastmile_qr_scan", "ios": "https://dc.lft.to/lastmile_qr_scan"}, "fusion_lat": 0.0, "name": "de44c300bfb18aacb842419c7d0b7f12", "bike_id": "de44c300bfb18aacb842419c7d0b7f12"}, {"is_disabled": 0, "is_reserved": 0, "type": "electric_scooter", "lon": -77.021319, "fusion_lon": 0.0, "lat": 38.91605533333333, "rental_uris": {"android": "https://dc.lft.to/lastmile_qr_scan", "ios": "https://dc.lft.to/lastmile_qr_scan"}, "fusion_lat": 0.0, "name": "0e019ae8ca6d30263b7dbbbf67d21dbc", "bike_id": "0e019ae8ca6d30263b7dbbbf67d21dbc"}, {"is_disabled": 0, "is_reserved": 0, "type": "electric_scooter", "lon": -77.03350033333334, "fusion_lon": 0.0, "lat": 38.89630916666667, "rental_uris": {"android": "https://dc.lft.to/lastmile_qr_scan", "ios": "https://dc.lft.to/lastmile_qr_scan"}, "fusion_lat": 0.0, "name": "452aeff96dd68c42c88103b40695dedf", "bike_id": "452aeff96dd68c42c88103b40695dedf"}, {"is_disabled": 0, "is_reserved": 0, "type": "electric_scooter", "lon": -77.06120033333333, "fusion_lon": 0.0, "lat": 38.943673, "rental_uris": {"android": "https://dc.lft.to/lastmile_qr_scan", "ios": "https://dc.lft.to/lastmile_qr_scan"}, "fusion_lat": 0.0, "name": "f5f2227e4a6ea9a0418413e2d6d984e0", "bike_id": "f5f2227e4a6ea9a0418413e2d6d984e0"}, {"is_disabled": 0, "is_reserved": 0, "type": "electric_scooter", "lon": -77.03802433333334, "fusion_lon": 0.0, "lat": 38.935939166666664, "rental_uris": {"android": "https://dc.lft.to/lastmile_qr_scan", "ios": "https://dc.lft.to/lastmile_qr_scan"}, "fusion_lat": 0.0, "name": "b514f1121fbef7613d2d20113574563b", "bike_id": "b514f1121fbef7613d2d20113574563b"}, {"is_disabled": 0, "is_reserved": 0, "type": "electric_bike", "lon": -77.01228183333333, "fusion_lon": 0.0, "lat": 38.95084133333334, "rental_uris": {"android": "https://dc.lft.to/lastmile_qr_scan", "ios": "https://dc.lft.to/lastmile_qr_scan"}, "fusion_lat": 0.0, "name": "f9ed6f55f85c5a6c926262f4f5ac4742", "bike_id": "f9ed6f55f85c5a6c926262f4f5ac4742"}, {"is_disabled": 0, "is_reserved": 0, "type": "electric_scooter", "lon": -77.0178375, "fusion_lon": 0.0, "lat": 38.8769705, "rental_uris": {"android": "https://dc.lft.to/lastmile_qr_scan", "ios": "https://dc.lft.to/lastmile_qr_scan"}, "fusion_lat": 0.0, "name": "5a74a314c6dfd5f7c0ad9fedfc1ac94c", "bike_id": "5a74a314c6dfd5f7c0ad9fedfc1ac94c"}, {"is_disabled": 0, "is_reserved": 0, "type": "electric_scooter", "lon": -77.03056783333334, "fusion_lon": 0.0, "lat": 38.901259333333336, "rental_uris": {"android": "https://dc.lft.to/lastmile_qr_scan", "ios": "https://dc.lft.to/lastmile_qr_scan"}, "fusion_lat": 0.0, "name": "c88f00a2c6978674054f2ec0b7e0f890", "bike_id": "c88f00a2c6978674054f2ec0b7e0f890"}, {"is_disabled": 0, "is_reserved": 0, "type": "electric_scooter", "lon": -76.94209233333333, "fusion_lon": 0.0, "lat": 38.889931833333335, "rental_uris": {"android": "https://dc.lft.to/lastmile_qr_scan", "ios": "https://dc.lft.to/lastmile_qr_scan"}, "fusion_lat": 0.0, "name": "cfa1ef2dd9ee80d8cf222fef5b20a305", "bike_id": "cfa1ef2dd9ee80d8cf222fef5b20a305"}, {"is_disabled": 0, "is_reserved": 0, "type": "electric_bike", "lon": -76.9097385, "fusion_lon": 0.0, "lat": 38.854395, "rental_uris": {"android": "https://dc.lft.to/lastmile_qr_scan", "ios": "https://dc.lft.to/lastmile_qr_scan"}, "fusion_lat": 0.0, "name": "2d818095756da5f9cf30ce76341260ed", "bike_id": "2d818095756da5f9cf30ce76341260ed"}, {"is_disabled": 0, "is_reserved": 0, "type": "electric_scooter", "lon": -77.0513515, "fusion_lon": 0.0, "lat": 38.907156, "rental_uris": {"android": "https://dc.lft.to/lastmile_qr_scan", "ios": "https://dc.lft.to/lastmile_qr_scan"}, "fusion_lat": 0.0, "name": "21758c4c8cea37d6de40b0f09f1966b1", "bike_id": "21758c4c8cea37d6de40b0f09f1966b1"}, {"is_disabled": 0, "is_reserved": 0, "type": "electric_scooter", "lon": -77.03155, "fusion_lon": 0.0, "lat": 38.928134166666666, "rental_uris": {"android": "https://dc.lft.to/lastmile_qr_scan", "ios": "https://dc.lft.to/lastmile_qr_scan"}, "fusion_lat": 0.0, "name": "0f3b020fe739ee2904c80873ce43c22a", "bike_id": "0f3b020fe739ee2904c80873ce43c22a"}, {"is_disabled": 0, "is_reserved": 0, "type": "electric_scooter", "lon": -77.011931, "fusion_lon": 0.0, "lat": 38.89528033333333, "rental_uris": {"android": "https://dc.lft.to/lastmile_qr_scan", "ios": "https://dc.lft.to/lastmile_qr_scan"}, "fusion_lat": 0.0, "name": "5a89ecf2d85cdaa04a7dc73a2bdc6d88", "bike_id": "5a89ecf2d85cdaa04a7dc73a2bdc6d88"}, {"is_disabled": 0, "is_reserved": 0, "type": "electric_scooter", "lon": -77.02165666666667, "fusion_lon": 0.0, "lat": 38.92610766666667, "rental_uris": {"android": "https://dc.lft.to/lastmile_qr_scan", "ios": "https://dc.lft.to/lastmile_qr_scan"}, "fusion_lat": 0.0, "name": "e8e308ff576bed28814bae045c9193b0", "bike_id": "e8e308ff576bed28814bae045c9193b0"}, {"is_disabled": 0, "is_reserved": 0, "type": "electric_scooter", "lon": -77.03632833333333, "fusion_lon": 0.0, "lat": 38.930492, "rental_uris": {"android": "https://dc.lft.to/lastmile_qr_scan", "ios": "https://dc.lft.to/lastmile_qr_scan"}, "fusion_lat": 0.0, "name": "80210c84fecdd8b2d065ff1053838ef9", "bike_id": "80210c84fecdd8b2d065ff1053838ef9"}, {"is_disabled": 0, "is_reserved": 0, "type": "electric_scooter", "lon": -76.9963205, "fusion_lon": 0.0, "lat": 38.846215666666666, "rental_uris": {"android": "https://dc.lft.to/lastmile_qr_scan", "ios": "https://dc.lft.to/lastmile_qr_scan"}, "fusion_lat": 0.0, "name": "b719fe57c6d3b9562264dc8649b576d5", "bike_id": "b719fe57c6d3b9562264dc8649b576d5"}, {"is_disabled": 0, "is_reserved": 0, "type": "electric_scooter", "lon": -77.04367233333333, "fusion_lon": 0.0, "lat": 38.90415316666667, "rental_uris": {"android": "https://dc.lft.to/lastmile_qr_scan", "ios": "https://dc.lft.to/lastmile_qr_scan"}, "fusion_lat": 0.0, "name": "9c9b2c96d82b9cd369e13873423e6ece", "bike_id": "9c9b2c96d82b9cd369e13873423e6ece"}, {"is_disabled": 0, "is_reserved": 0, "type": "electric_bike", "lon": -76.987482, "fusion_lon": 0.0, "lat": 38.98821916666667, "rental_uris": {"android": "https://dc.lft.to/lastmile_qr_scan", "ios": "https://dc.lft.to/lastmile_qr_scan"}, "fusion_lat": 0.0, "name": "13c6aa9fe8c17591cd0b6326760c6b4f", "bike_id": "13c6aa9fe8c17591cd0b6326760c6b4f"}, {"is_disabled": 0, "is_reserved": 0, "type": "electric_scooter", "lon": -77.0175905, "fusion_lon": 0.0, "lat": 38.87689866666667, "rental_uris": {"android": "https://dc.lft.to/lastmile_qr_scan", "ios": "https://dc.lft.to/lastmile_qr_scan"}, "fusion_lat": 0.0, "name": "e6253f3ce314fbfa9073428fd9744f23", "bike_id": "e6253f3ce314fbfa9073428fd9744f23"}, {"is_disabled": 0, "is_reserved": 0, "type": "electric_bike", "lon": -76.92891416666667, "fusion_lon": 0.0, "lat": 38.978452833333336, "rental_uris": {"android": "https://dc.lft.to/lastmile_qr_scan", "ios": "https://dc.lft.to/lastmile_qr_scan"}, "fusion_lat": 0.0, "name": "12cccb8c2fc9efa50e543b62b434595b", "bike_id": "12cccb8c2fc9efa50e543b62b434595b"}, {"is_disabled": 0, "is_reserved": 0, "type": "electric_scooter", "lon": -77.03618, "fusion_lon": 0.0, "lat": 38.90480066666667, "rental_uris": {"android": "https://dc.lft.to/lastmile_qr_scan", "ios": "https://dc.lft.to/lastmile_qr_scan"}, "fusion_lat": 0.0, "name": "253666504331acb5b44bb12aa60f5ffd", "bike_id": "253666504331acb5b44bb12aa60f5ffd"}, {"is_disabled": 0, "is_reserved": 0, "type": "electric_scooter", "lon": -76.93355916666667, "fusion_lon": 0.0, "lat": 38.88794, "rental_uris": {"android": "https://dc.lft.to/lastmile_qr_scan", "ios": "https://dc.lft.to/lastmile_qr_scan"}, "fusion_lat": 0.0, "name": "52882f58d4992b027cd942a19d9b8c3c", "bike_id": "52882f58d4992b027cd942a19d9b8c3c"}, {"is_disabled": 0, "is_reserved": 0, "type": "electric_scooter", "lon": -77.04995783333334, "fusion_lon": 0.0, "lat": 38.91567033333333, "rental_uris": {"android": "https://dc.lft.to/lastmile_qr_scan", "ios": "https://dc.lft.to/lastmile_qr_scan"}, "fusion_lat": 0.0, "name": "036a7e8ae823a5ce525a93542a45d205", "bike_id": "036a7e8ae823a5ce525a93542a45d205"}, {"is_disabled": 0, "is_reserved": 0, "type": "electric_scooter", "lon": -77.04059516666666, "fusion_lon": 0.0, "lat": 38.908746666666666, "rental_uris": {"android": "https://dc.lft.to/lastmile_qr_scan", "ios": "https://dc.lft.to/lastmile_qr_scan"}, "fusion_lat": 0.0, "name": "b773e6cef26c9cf019becd962c8b0e87", "bike_id": "b773e6cef26c9cf019becd962c8b0e87"}, {"is_disabled": 0, "is_reserved": 0, "type": "electric_scooter", "lon": -77.01771066666667, "fusion_lon": 0.0, "lat": 38.9009625, "rental_uris": {"android": "https://dc.lft.to/lastmile_qr_scan", "ios": "https://dc.lft.to/lastmile_qr_scan"}, "fusion_lat": 0.0, "name": "99abe1e14b0817446ca54d102442cb89", "bike_id": "99abe1e14b0817446ca54d102442cb89"}, {"is_disabled": 0, "is_reserved": 0, "type": "electric_scooter", "lon": -77.02653916666667, "fusion_lon": 0.0, "lat": 38.89217683333333, "rental_uris": {"android": "https://dc.lft.to/lastmile_qr_scan", "ios": "https://dc.lft.to/lastmile_qr_scan"}, "fusion_lat": 0.0, "name": "8b4769bc8417f6024c6fc9921bf14ff0", "bike_id": "8b4769bc8417f6024c6fc9921bf14ff0"}, {"is_disabled": 0, "is_reserved": 0, "type": "electric_scooter", "lon": -77.0053265, "fusion_lon": 0.0, "lat": 38.8746925, "rental_uris": {"android": "https://dc.lft.to/lastmile_qr_scan", "ios": "https://dc.lft.to/lastmile_qr_scan"}, "fusion_lat": 0.0, "name": "6e59e36916ddb3c99da55134d0418b02", "bike_id": "6e59e36916ddb3c99da55134d0418b02"}, {"is_disabled": 0, "is_reserved": 0, "type": "electric_scooter", "lon": -77.02783883333333, "fusion_lon": 0.0, "lat": 38.8921975, "rental_uris": {"android": "https://dc.lft.to/lastmile_qr_scan", "ios": "https://dc.lft.to/lastmile_qr_scan"}, "fusion_lat": 0.0, "name": "a8585383b927b7882c4d3794fff8b5e4", "bike_id": "a8585383b927b7882c4d3794fff8b5e4"}, {"is_disabled": 0, "is_reserved": 0, "type": "electric_scooter", "lon": -77.0297275, "fusion_lon": 0.0, "lat": 38.90720783333333, "rental_uris": {"android": "https://dc.lft.to/lastmile_qr_scan", "ios": "https://dc.lft.to/lastmile_qr_scan"}, "fusion_lat": 0.0, "name": "5bb14cc0abdb5d1e192f1ed99d9af981", "bike_id": "5bb14cc0abdb5d1e192f1ed99d9af981"}, {"is_disabled": 0, "is_reserved": 0, "type": "electric_scooter", "lon": -76.97950066666667, "fusion_lon": 0.0, "lat": 38.90498866666667, "rental_uris": {"android": "https://dc.lft.to/lastmile_qr_scan", "ios": "https://dc.lft.to/lastmile_qr_scan"}, "fusion_lat": 0.0, "name": "1cefb07db6e21032e6bd3aea92ea7246", "bike_id": "1cefb07db6e21032e6bd3aea92ea7246"}, {"is_disabled": 0, "is_reserved": 0, "type": "electric_scooter", "lon": -77.020081, "fusion_lon": 0.0, "lat": 38.92411366666666, "rental_uris": {"android": "https://dc.lft.to/lastmile_qr_scan", "ios": "https://dc.lft.to/lastmile_qr_scan"}, "fusion_lat": 0.0, "name": "5629f30171849a41ce7ed87b2d233579", "bike_id": "5629f30171849a41ce7ed87b2d233579"}, {"is_disabled": 0, "is_reserved": 0, "type": "electric_scooter", "lon": -77.02159816666666, "fusion_lon": 0.0, "lat": 38.89414883333333, "rental_uris": {"android": "https://dc.lft.to/lastmile_qr_scan", "ios": "https://dc.lft.to/lastmile_qr_scan"}, "fusion_lat": 0.0, "name": "4f454152cba6e94b6d25afa6921728af", "bike_id": "4f454152cba6e94b6d25afa6921728af"}, {"is_disabled": 0, "is_reserved": 0, "type": "electric_scooter", "lon": -77.028114, "fusion_lon": 0.0, "lat": 38.896402333333334, "rental_uris": {"android": "https://dc.lft.to/lastmile_qr_scan", "ios": "https://dc.lft.to/lastmile_qr_scan"}, "fusion_lat": 0.0, "name": "6902e22e0be3f42dd1155056a74ea5ce", "bike_id": "6902e22e0be3f42dd1155056a74ea5ce"}, {"is_disabled": 0, "is_reserved": 0, "type": "electric_scooter", "lon": -77.00570766666667, "fusion_lon": 0.0, "lat": 38.885078, "rental_uris": {"android": "https://dc.lft.to/lastmile_qr_scan", "ios": "https://dc.lft.to/lastmile_qr_scan"}, "fusion_lat": 0.0, "name": "11c1fe5d30abe0cc408ec22281d14691", "bike_id": "11c1fe5d30abe0cc408ec22281d14691"}, {"is_disabled": 0, "is_reserved": 0, "type": "electric_scooter", "lon": -77.0452955, "fusion_lon": 0.0, "lat": 38.90375433333333, "rental_uris": {"android": "https://dc.lft.to/lastmile_qr_scan", "ios": "https://dc.lft.to/lastmile_qr_scan"}, "fusion_lat": 0.0, "name": "2203b3dd9afb6f96f0514575f169d715", "bike_id": "2203b3dd9afb6f96f0514575f169d715"}, {"is_disabled": 0, "is_reserved": 0, "type": "electric_scooter", "lon": -77.03438033333333, "fusion_lon": 0.0, "lat": 38.902673, "rental_uris": {"android": "https://dc.lft.to/lastmile_qr_scan", "ios": "https://dc.lft.to/lastmile_qr_scan"}, "fusion_lat": 0.0, "name": "a710cd875c97654de5e0216f8d2a8d64", "bike_id": "a710cd875c97654de5e0216f8d2a8d64"}, {"is_disabled": 0, "is_reserved": 0, "type": "electric_scooter", "lon": -77.03332583333334, "fusion_lon": 0.0, "lat": 38.91706033333333, "rental_uris": {"android": "https://dc.lft.to/lastmile_qr_scan", "ios": "https://dc.lft.to/lastmile_qr_scan"}, "fusion_lat": 0.0, "name": "3d7a9e40f5099ddbc329e3d9454547b6", "bike_id": "3d7a9e40f5099ddbc329e3d9454547b6"}, {"is_disabled": 0, "is_reserved": 0, "type": "electric_scooter", "lon": -77.04626133333333, "fusion_lon": 0.0, "lat": 38.918084, "rental_uris": {"android": "https://dc.lft.to/lastmile_qr_scan", "ios": "https://dc.lft.to/lastmile_qr_scan"}, "fusion_lat": 0.0, "name": "1ab1de44c82f4800ebd676e692060bdf", "bike_id": "1ab1de44c82f4800ebd676e692060bdf"}, {"is_disabled": 0, "is_reserved": 0, "type": "electric_scooter", "lon": -77.043333, "fusion_lon": 0.0, "lat": 38.92242066666667, "rental_uris": {"android": "https://dc.lft.to/lastmile_qr_scan", "ios": "https://dc.lft.to/lastmile_qr_scan"}, "fusion_lat": 0.0, "name": "e74f2e806fd910e9d12ad51ec5b00abf", "bike_id": "e74f2e806fd910e9d12ad51ec5b00abf"}, {"is_disabled": 0, "is_reserved": 0, "type": "electric_scooter", "lon": -77.019751, "fusion_lon": 0.0, "lat": 38.87776183333333, "rental_uris": {"android": "https://dc.lft.to/lastmile_qr_scan", "ios": "https://dc.lft.to/lastmile_qr_scan"}, "fusion_lat": 0.0, "name": "71ed5888cfabcf9737df96e170ac9de0", "bike_id": "71ed5888cfabcf9737df96e170ac9de0"}, {"is_disabled": 0, "is_reserved": 0, "type": "electric_scooter", "lon": -77.0384235, "fusion_lon": 0.0, "lat": 38.9265365, "rental_uris": {"android": "https://dc.lft.to/lastmile_qr_scan", "ios": "https://dc.lft.to/lastmile_qr_scan"}, "fusion_lat": 0.0, "name": "2551bfcd7e880e27855f6a53e6e256fb", "bike_id": "2551bfcd7e880e27855f6a53e6e256fb"}, {"is_disabled": 0, "is_reserved": 0, "type": "electric_scooter", "lon": -77.01017466666667, "fusion_lon": 0.0, "lat": 38.906196, "rental_uris": {"android": "https://dc.lft.to/lastmile_qr_scan", "ios": "https://dc.lft.to/lastmile_qr_scan"}, "fusion_lat": 0.0, "name": "f7655e306cba1e05c63111083c43f321", "bike_id": "f7655e306cba1e05c63111083c43f321"}, {"is_disabled": 0, "is_reserved": 0, "type": "electric_scooter", "lon": -77.04329166666666, "fusion_lon": 0.0, "lat": 38.89832633333333, "rental_uris": {"android": "https://dc.lft.to/lastmile_qr_scan", "ios": "https://dc.lft.to/lastmile_qr_scan"}, "fusion_lat": 0.0, "name": "f8f588b8d90e4e083d5eaf58b2a38bae", "bike_id": "f8f588b8d90e4e083d5eaf58b2a38bae"}, {"is_disabled": 0, "is_reserved": 0, "type": "electric_scooter", "lon": -77.035669, "fusion_lon": 0.0, "lat": 38.90380066666667, "rental_uris": {"android": "https://dc.lft.to/lastmile_qr_scan", "ios": "https://dc.lft.to/lastmile_qr_scan"}, "fusion_lat": 0.0, "name": "12c5f63674d15d82fd7af471041af808", "bike_id": "12c5f63674d15d82fd7af471041af808"}, {"is_disabled": 0, "is_reserved": 0, "type": "electric_scooter", "lon": -77.003384, "fusion_lon": 0.0, "lat": 38.89356, "rental_uris": {"android": "https://dc.lft.to/lastmile_qr_scan", "ios": "https://dc.lft.to/lastmile_qr_scan"}, "fusion_lat": 0.0, "name": "c40fa4dd0057564407adbfbaadfbad0a", "bike_id": "c40fa4dd0057564407adbfbaadfbad0a"}, {"is_disabled": 0, "is_reserved": 0, "type": "electric_scooter", "lon": -77.0235115, "fusion_lon": 0.0, "lat": 38.922638, "rental_uris": {"android": "https://dc.lft.to/lastmile_qr_scan", "ios": "https://dc.lft.to/lastmile_qr_scan"}, "fusion_lat": 0.0, "name": "382a5f7455e317a30b129304b826c68e", "bike_id": "382a5f7455e317a30b129304b826c68e"}, {"is_disabled": 0, "is_reserved": 0, "type": "electric_bike", "lon": -77.08799933333333, "fusion_lon": 0.0, "lat": 38.831749, "rental_uris": {"android": "https://dc.lft.to/lastmile_qr_scan", "ios": "https://dc.lft.to/lastmile_qr_scan"}, "fusion_lat": 0.0, "name": "1b281d6d60a211d68ddc508903bff1d0", "bike_id": "1b281d6d60a211d68ddc508903bff1d0"}, {"is_disabled": 0, "is_reserved": 0, "type": "electric_bike", "lon": -76.952069, "fusion_lon": 0.0, "lat": 38.93668133333333, "rental_uris": {"android": "https://dc.lft.to/lastmile_qr_scan", "ios": "https://dc.lft.to/lastmile_qr_scan"}, "fusion_lat": 0.0, "name": "ab2d53fe5cfe7a8cac45f8b588c61df7", "bike_id": "ab2d53fe5cfe7a8cac45f8b588c61df7"}, {"is_disabled": 0, "is_reserved": 0, "type": "electric_scooter", "lon": -76.98729116666667, "fusion_lon": 0.0, "lat": 38.86715133333333, "rental_uris": {"android": "https://dc.lft.to/lastmile_qr_scan", "ios": "https://dc.lft.to/lastmile_qr_scan"}, "fusion_lat": 0.0, "name": "e209ac35d794dab04635cbddebf53bf5", "bike_id": "e209ac35d794dab04635cbddebf53bf5"}, {"is_disabled": 0, "is_reserved": 0, "type": "electric_scooter", "lon": -77.0319655, "fusion_lon": 0.0, "lat": 38.907512, "rental_uris": {"android": "https://dc.lft.to/lastmile_qr_scan", "ios": "https://dc.lft.to/lastmile_qr_scan"}, "fusion_lat": 0.0, "name": "6a32702b2f689bbce317dfdcd3ec0dab", "bike_id": "6a32702b2f689bbce317dfdcd3ec0dab"}, {"is_disabled": 0, "is_reserved": 0, "type": "electric_scooter", "lon": -77.042458, "fusion_lon": 0.0, "lat": 38.91786366666667, "rental_uris": {"android": "https://dc.lft.to/lastmile_qr_scan", "ios": "https://dc.lft.to/lastmile_qr_scan"}, "fusion_lat": 0.0, "name": "59f0959c254f241e95f28f3e2c8b6a3a", "bike_id": "59f0959c254f241e95f28f3e2c8b6a3a"}, {"is_disabled": 0, "is_reserved": 0, "type": "electric_scooter", "lon": -77.051314, "fusion_lon": 0.0, "lat": 38.90492833333333, "rental_uris": {"android": "https://dc.lft.to/lastmile_qr_scan", "ios": "https://dc.lft.to/lastmile_qr_scan"}, "fusion_lat": 0.0, "name": "1ba9d97e7a0f167e73b39bb8c144a225", "bike_id": "1ba9d97e7a0f167e73b39bb8c144a225"}, {"is_disabled": 0, "is_reserved": 0, "type": "electric_scooter", "lon": -77.00335266666667, "fusion_lon": 0.0, "lat": 38.89356083333333, "rental_uris": {"android": "https://dc.lft.to/lastmile_qr_scan", "ios": "https://dc.lft.to/lastmile_qr_scan"}, "fusion_lat": 0.0, "name": "be7ae77e2f5033b2e8c200c28b543a1d", "bike_id": "be7ae77e2f5033b2e8c200c28b543a1d"}, {"is_disabled": 0, "is_reserved": 0, "type": "electric_scooter", "lon": -77.0033795, "fusion_lon": 0.0, "lat": 38.90462216666667, "rental_uris": {"android": "https://dc.lft.to/lastmile_qr_scan", "ios": "https://dc.lft.to/lastmile_qr_scan"}, "fusion_lat": 0.0, "name": "0ef13bb82098ac9e5f9cb721b607fc2b", "bike_id": "0ef13bb82098ac9e5f9cb721b607fc2b"}, {"is_disabled": 0, "is_reserved": 0, "type": "electric_scooter", "lon": -77.02221416666667, "fusion_lon": 0.0, "lat": 38.929111166666665, "rental_uris": {"android": "https://dc.lft.to/lastmile_qr_scan", "ios": "https://dc.lft.to/lastmile_qr_scan"}, "fusion_lat": 0.0, "name": "f52d75b9cb433301f639e237989271d1", "bike_id": "f52d75b9cb433301f639e237989271d1"}, {"is_disabled": 0, "is_reserved": 0, "type": "electric_scooter", "lon": -77.0364445, "fusion_lon": 0.0, "lat": 38.922801, "rental_uris": {"android": "https://dc.lft.to/lastmile_qr_scan", "ios": "https://dc.lft.to/lastmile_qr_scan"}, "fusion_lat": 0.0, "name": "679513ff696b1735c62f853581d2da59", "bike_id": "679513ff696b1735c62f853581d2da59"}, {"is_disabled": 0, "is_reserved": 0, "type": "electric_scooter", "lon": -77.0512295, "fusion_lon": 0.0, "lat": 38.9059245, "rental_uris": {"android": "https://dc.lft.to/lastmile_qr_scan", "ios": "https://dc.lft.to/lastmile_qr_scan"}, "fusion_lat": 0.0, "name": "8703639a4054470f17e1bcf90c10b955", "bike_id": "8703639a4054470f17e1bcf90c10b955"}, {"is_disabled": 0, "is_reserved": 0, "type": "electric_scooter", "lon": -77.05107183333334, "fusion_lon": 0.0, "lat": 38.92363666666667, "rental_uris": {"android": "https://dc.lft.to/lastmile_qr_scan", "ios": "https://dc.lft.to/lastmile_qr_scan"}, "fusion_lat": 0.0, "name": "a1a96c831095e0ccba64065b2edba5df", "bike_id": "a1a96c831095e0ccba64065b2edba5df"}, {"is_disabled": 0, "is_reserved": 0, "type": "electric_bike", "lon": -77.09582566666667, "fusion_lon": 0.0, "lat": 38.837854166666666, "rental_uris": {"android": "https://dc.lft.to/lastmile_qr_scan", "ios": "https://dc.lft.to/lastmile_qr_scan"}, "fusion_lat": 0.0, "name": "a1e527a70e0bc84a3542887cc1820012", "bike_id": "a1e527a70e0bc84a3542887cc1820012"}, {"is_disabled": 0, "is_reserved": 0, "type": "electric_scooter", "lon": -76.95209283333334, "fusion_lon": 0.0, "lat": 38.892478, "rental_uris": {"android": "https://dc.lft.to/lastmile_qr_scan", "ios": "https://dc.lft.to/lastmile_qr_scan"}, "fusion_lat": 0.0, "name": "03d8644c587ecbfa332e028801c6832d", "bike_id": "03d8644c587ecbfa332e028801c6832d"}, {"is_disabled": 0, "is_reserved": 0, "type": "electric_scooter", "lon": -77.0433785, "fusion_lon": 0.0, "lat": 38.89818066666667, "rental_uris": {"android": "https://dc.lft.to/lastmile_qr_scan", "ios": "https://dc.lft.to/lastmile_qr_scan"}, "fusion_lat": 0.0, "name": "a8eda2bebb20e3151ae61f31a0a8b6eb", "bike_id": "a8eda2bebb20e3151ae61f31a0a8b6eb"}, {"is_disabled": 0, "is_reserved": 0, "type": "electric_scooter", "lon": -77.042206, "fusion_lon": 0.0, "lat": 38.91673566666667, "rental_uris": {"android": "https://dc.lft.to/lastmile_qr_scan", "ios": "https://dc.lft.to/lastmile_qr_scan"}, "fusion_lat": 0.0, "name": "215d845a84c336a449c66bc0195c7648", "bike_id": "215d845a84c336a449c66bc0195c7648"}, {"is_disabled": 0, "is_reserved": 0, "type": "electric_scooter", "lon": -76.99061833333333, "fusion_lon": 0.0, "lat": 38.900316333333336, "rental_uris": {"android": "https://dc.lft.to/lastmile_qr_scan", "ios": "https://dc.lft.to/lastmile_qr_scan"}, "fusion_lat": 0.0, "name": "0e99a3590cbddad633c1dfde305fd39f", "bike_id": "0e99a3590cbddad633c1dfde305fd39f"}, {"is_disabled": 0, "is_reserved": 0, "type": "electric_scooter", "lon": -77.04340716666667, "fusion_lon": 0.0, "lat": 38.902738666666664, "rental_uris": {"android": "https://dc.lft.to/lastmile_qr_scan", "ios": "https://dc.lft.to/lastmile_qr_scan"}, "fusion_lat": 0.0, "name": "3c3a59af051b026a0f99f477acb6125c", "bike_id": "3c3a59af051b026a0f99f477acb6125c"}, {"is_disabled": 0, "is_reserved": 0, "type": "electric_scooter", "lon": -77.00300966666667, "fusion_lon": 0.0, "lat": 38.89198433333333, "rental_uris": {"android": "https://dc.lft.to/lastmile_qr_scan", "ios": "https://dc.lft.to/lastmile_qr_scan"}, "fusion_lat": 0.0, "name": "e6663770b5b5876581df61899492dab9", "bike_id": "e6663770b5b5876581df61899492dab9"}, {"is_disabled": 0, "is_reserved": 0, "type": "electric_bike", "lon": -76.98164466666667, "fusion_lon": 0.0, "lat": 38.95962633333333, "rental_uris": {"android": "https://dc.lft.to/lastmile_qr_scan", "ios": "https://dc.lft.to/lastmile_qr_scan"}, "fusion_lat": 0.0, "name": "0e04263759d17e9b48511e030f721ae4", "bike_id": "0e04263759d17e9b48511e030f721ae4"}, {"is_disabled": 0, "is_reserved": 0, "type": "electric_scooter", "lon": -76.95673633333334, "fusion_lon": 0.0, "lat": 38.88765933333333, "rental_uris": {"android": "https://dc.lft.to/lastmile_qr_scan", "ios": "https://dc.lft.to/lastmile_qr_scan"}, "fusion_lat": 0.0, "name": "39c10d1bb2bbf21af52aac70c48dd24f", "bike_id": "39c10d1bb2bbf21af52aac70c48dd24f"}, {"is_disabled": 0, "is_reserved": 0, "type": "electric_scooter", "lon": -77.00251933333334, "fusion_lon": 0.0, "lat": 38.952424, "rental_uris": {"android": "https://dc.lft.to/lastmile_qr_scan", "ios": "https://dc.lft.to/lastmile_qr_scan"}, "fusion_lat": 0.0, "name": "18e2319edb0b0430a8afbea2e88ba6c3", "bike_id": "18e2319edb0b0430a8afbea2e88ba6c3"}, {"is_disabled": 0, "is_reserved": 0, "type": "electric_scooter", "lon": -76.9918895, "fusion_lon": 0.0, "lat": 38.92581783333333, "rental_uris": {"android": "https://dc.lft.to/lastmile_qr_scan", "ios": "https://dc.lft.to/lastmile_qr_scan"}, "fusion_lat": 0.0, "name": "1a63c2c58d5310c209866d7e6cd409ad", "bike_id": "1a63c2c58d5310c209866d7e6cd409ad"}, {"is_disabled": 0, "is_reserved": 0, "type": "electric_scooter", "lon": -77.05456283333334, "fusion_lon": 0.0, "lat": 38.928996833333336, "rental_uris": {"android": "https://dc.lft.to/lastmile_qr_scan", "ios": "https://dc.lft.to/lastmile_qr_scan"}, "fusion_lat": 0.0, "name": "ad3e42a700b20bb335f4ed02e59b3db5", "bike_id": "ad3e42a700b20bb335f4ed02e59b3db5"}, {"is_disabled": 0, "is_reserved": 0, "type": "electric_scooter", "lon": -77.02716883333333, "fusion_lon": 0.0, "lat": 38.91669666666667, "rental_uris": {"android": "https://dc.lft.to/lastmile_qr_scan", "ios": "https://dc.lft.to/lastmile_qr_scan"}, "fusion_lat": 0.0, "name": "df218506287695cdabb2627299f711f6", "bike_id": "df218506287695cdabb2627299f711f6"}, {"is_disabled": 0, "is_reserved": 0, "type": "electric_scooter", "lon": -77.046826, "fusion_lon": 0.0, "lat": 38.89223066666667, "rental_uris": {"android": "https://dc.lft.to/lastmile_qr_scan", "ios": "https://dc.lft.to/lastmile_qr_scan"}, "fusion_lat": 0.0, "name": "c502f74a3f4659376c06c27446666f63", "bike_id": "c502f74a3f4659376c06c27446666f63"}, {"is_disabled": 0, "is_reserved": 0, "type": "electric_scooter", "lon": -77.03438183333333, "fusion_lon": 0.0, "lat": 38.93424366666667, "rental_uris": {"android": "https://dc.lft.to/lastmile_qr_scan", "ios": "https://dc.lft.to/lastmile_qr_scan"}, "fusion_lat": 0.0, "name": "f9e23401bd9932fd9dd8e92df846600f", "bike_id": "f9e23401bd9932fd9dd8e92df846600f"}, {"is_disabled": 0, "is_reserved": 0, "type": "electric_scooter", "lon": -76.93360266666667, "fusion_lon": 0.0, "lat": 38.89896983333333, "rental_uris": {"android": "https://dc.lft.to/lastmile_qr_scan", "ios": "https://dc.lft.to/lastmile_qr_scan"}, "fusion_lat": 0.0, "name": "11cfb44bb200cf2c3b85c31dfb1b6679", "bike_id": "11cfb44bb200cf2c3b85c31dfb1b6679"}, {"is_disabled": 0, "is_reserved": 0, "type": "electric_bike", "lon": -76.93413483333333, "fusion_lon": 0.0, "lat": 38.946247, "rental_uris": {"android": "https://dc.lft.to/lastmile_qr_scan", "ios": "https://dc.lft.to/lastmile_qr_scan"}, "fusion_lat": 0.0, "name": "da5da86c4a76a339f683804633d25d01", "bike_id": "da5da86c4a76a339f683804633d25d01"}, {"is_disabled": 0, "is_reserved": 0, "type": "electric_scooter", "lon": -77.0275445, "fusion_lon": 0.0, "lat": 38.881524166666665, "rental_uris": {"android": "https://dc.lft.to/lastmile_qr_scan", "ios": "https://dc.lft.to/lastmile_qr_scan"}, "fusion_lat": 0.0, "name": "81201cbc7fc25bb593ffaaab370d1f35", "bike_id": "81201cbc7fc25bb593ffaaab370d1f35"}, {"is_disabled": 0, "is_reserved": 0, "type": "electric_scooter", "lon": -77.02179166666667, "fusion_lon": 0.0, "lat": 38.91310133333333, "rental_uris": {"android": "https://dc.lft.to/lastmile_qr_scan", "ios": "https://dc.lft.to/lastmile_qr_scan"}, "fusion_lat": 0.0, "name": "658095f14cdf79049260bff7ac2f1aad", "bike_id": "658095f14cdf79049260bff7ac2f1aad"}, {"is_disabled": 0, "is_reserved": 0, "type": "electric_scooter", "lon": -76.965445, "fusion_lon": 0.0, "lat": 38.918862, "rental_uris": {"android": "https://dc.lft.to/lastmile_qr_scan", "ios": "https://dc.lft.to/lastmile_qr_scan"}, "fusion_lat": 0.0, "name": "d065023f072bd55845f7c3efe2e95ed1", "bike_id": "d065023f072bd55845f7c3efe2e95ed1"}, {"is_disabled": 0, "is_reserved": 0, "type": "electric_scooter", "lon": -77.04407183333333, "fusion_lon": 0.0, "lat": 38.90135016666667, "rental_uris": {"android": "https://dc.lft.to/lastmile_qr_scan", "ios": "https://dc.lft.to/lastmile_qr_scan"}, "fusion_lat": 0.0, "name": "2ba1196fd2338c2a711882de3b40b4a0", "bike_id": "2ba1196fd2338c2a711882de3b40b4a0"}, {"is_disabled": 0, "is_reserved": 0, "type": "electric_scooter", "lon": -77.0158585, "fusion_lon": 0.0, "lat": 38.87659016666667, "rental_uris": {"android": "https://dc.lft.to/lastmile_qr_scan", "ios": "https://dc.lft.to/lastmile_qr_scan"}, "fusion_lat": 0.0, "name": "fb18647fcda4084ea8da6b64baa26149", "bike_id": "fb18647fcda4084ea8da6b64baa26149"}, {"is_disabled": 0, "is_reserved": 0, "type": "electric_scooter", "lon": -77.059715, "fusion_lon": 0.0, "lat": 38.905239, "rental_uris": {"android": "https://dc.lft.to/lastmile_qr_scan", "ios": "https://dc.lft.to/lastmile_qr_scan"}, "fusion_lat": 0.0, "name": "9c9b6a8c026700820d9b902b6c7ba530", "bike_id": "9c9b6a8c026700820d9b902b6c7ba530"}, {"is_disabled": 0, "is_reserved": 0, "type": "electric_scooter", "lon": -77.012552, "fusion_lon": 0.0, "lat": 38.87630383333333, "rental_uris": {"android": "https://dc.lft.to/lastmile_qr_scan", "ios": "https://dc.lft.to/lastmile_qr_scan"}, "fusion_lat": 0.0, "name": "ee2c6ff480d8cc1a7251bd0e3af0b0c9", "bike_id": "ee2c6ff480d8cc1a7251bd0e3af0b0c9"}, {"is_disabled": 0, "is_reserved": 0, "type": "electric_scooter", "lon": -77.028416, "fusion_lon": 0.0, "lat": 38.934253166666664, "rental_uris": {"android": "https://dc.lft.to/lastmile_qr_scan", "ios": "https://dc.lft.to/lastmile_qr_scan"}, "fusion_lat": 0.0, "name": "7060233fd7022d7044be448329ecb76f", "bike_id": "7060233fd7022d7044be448329ecb76f"}, {"is_disabled": 0, "is_reserved": 0, "type": "electric_scooter", "lon": -77.03506933333334, "fusion_lon": 0.0, "lat": 38.935919166666665, "rental_uris": {"android": "https://dc.lft.to/lastmile_qr_scan", "ios": "https://dc.lft.to/lastmile_qr_scan"}, "fusion_lat": 0.0, "name": "14efeda8f6e65cce0c89838e5270da56", "bike_id": "14efeda8f6e65cce0c89838e5270da56"}, {"is_disabled": 0, "is_reserved": 0, "type": "electric_scooter", "lon": -77.02367916666667, "fusion_lon": 0.0, "lat": 38.887701666666665, "rental_uris": {"android": "https://dc.lft.to/lastmile_qr_scan", "ios": "https://dc.lft.to/lastmile_qr_scan"}, "fusion_lat": 0.0, "name": "7db5a6e865e2db9e3ad3328569746b56", "bike_id": "7db5a6e865e2db9e3ad3328569746b56"}, {"is_disabled": 0, "is_reserved": 0, "type": "electric_scooter", "lon": -77.02125433333333, "fusion_lon": 0.0, "lat": 38.887497, "rental_uris": {"android": "https://dc.lft.to/lastmile_qr_scan", "ios": "https://dc.lft.to/lastmile_qr_scan"}, "fusion_lat": 0.0, "name": "9f6aab24ea2e1cc38749af660c811558", "bike_id": "9f6aab24ea2e1cc38749af660c811558"}, {"is_disabled": 0, "is_reserved": 0, "type": "electric_scooter", "lon": -76.97911216666667, "fusion_lon": 0.0, "lat": 38.89432216666667, "rental_uris": {"android": "https://dc.lft.to/lastmile_qr_scan", "ios": "https://dc.lft.to/lastmile_qr_scan"}, "fusion_lat": 0.0, "name": "022f7c7aa2e059c5a03774ea0221e48f", "bike_id": "022f7c7aa2e059c5a03774ea0221e48f"}, {"is_disabled": 0, "is_reserved": 0, "type": "electric_scooter", "lon": -77.03205233333334, "fusion_lon": 0.0, "lat": 38.93961633333333, "rental_uris": {"android": "https://dc.lft.to/lastmile_qr_scan", "ios": "https://dc.lft.to/lastmile_qr_scan"}, "fusion_lat": 0.0, "name": "de23a323937e60f15cb7e7e35da29479", "bike_id": "de23a323937e60f15cb7e7e35da29479"}, {"is_disabled": 0, "is_reserved": 0, "type": "electric_scooter", "lon": -77.01497216666667, "fusion_lon": 0.0, "lat": 38.956470833333334, "rental_uris": {"android": "https://dc.lft.to/lastmile_qr_scan", "ios": "https://dc.lft.to/lastmile_qr_scan"}, "fusion_lat": 0.0, "name": "2b1812b540adf42d8664db84972c893a", "bike_id": "2b1812b540adf42d8664db84972c893a"}, {"is_disabled": 0, "is_reserved": 0, "type": "electric_scooter", "lon": -77.0310125, "fusion_lon": 0.0, "lat": 38.925724, "rental_uris": {"android": "https://dc.lft.to/lastmile_qr_scan", "ios": "https://dc.lft.to/lastmile_qr_scan"}, "fusion_lat": 0.0, "name": "9a270d0be87e76e5e75699a325373915", "bike_id": "9a270d0be87e76e5e75699a325373915"}, {"is_disabled": 0, "is_reserved": 0, "type": "electric_scooter", "lon": -77.05074366666666, "fusion_lon": 0.0, "lat": 38.9008525, "rental_uris": {"android": "https://dc.lft.to/lastmile_qr_scan", "ios": "https://dc.lft.to/lastmile_qr_scan"}, "fusion_lat": 0.0, "name": "88412533aca484284b986acb154dd82f", "bike_id": "88412533aca484284b986acb154dd82f"}, {"is_disabled": 0, "is_reserved": 0, "type": "electric_scooter", "lon": -77.04177616666666, "fusion_lon": 0.0, "lat": 38.91909533333333, "rental_uris": {"android": "https://dc.lft.to/lastmile_qr_scan", "ios": "https://dc.lft.to/lastmile_qr_scan"}, "fusion_lat": 0.0, "name": "7be8e95a0efbe1e62d585c4aba333379", "bike_id": "7be8e95a0efbe1e62d585c4aba333379"}, {"is_disabled": 0, "is_reserved": 0, "type": "electric_bike", "lon": -77.106902, "fusion_lon": 0.0, "lat": 38.93582083333333, "rental_uris": {"android": "https://dc.lft.to/lastmile_qr_scan", "ios": "https://dc.lft.to/lastmile_qr_scan"}, "fusion_lat": 0.0, "name": "ea4eadb29a15c4cd99b4707d9acc322a", "bike_id": "ea4eadb29a15c4cd99b4707d9acc322a"}, {"is_disabled": 0, "is_reserved": 0, "type": "electric_scooter", "lon": -77.01951566666666, "fusion_lon": 0.0, "lat": 38.92256483333333, "rental_uris": {"android": "https://dc.lft.to/lastmile_qr_scan", "ios": "https://dc.lft.to/lastmile_qr_scan"}, "fusion_lat": 0.0, "name": "aba4ccc24144b8efa22bd566a462734c", "bike_id": "aba4ccc24144b8efa22bd566a462734c"}, {"is_disabled": 0, "is_reserved": 0, "type": "electric_scooter", "lon": -77.02210983333333, "fusion_lon": 0.0, "lat": 38.89585616666667, "rental_uris": {"android": "https://dc.lft.to/lastmile_qr_scan", "ios": "https://dc.lft.to/lastmile_qr_scan"}, "fusion_lat": 0.0, "name": "73c093161612b9cabfbdc7728e13fc00", "bike_id": "73c093161612b9cabfbdc7728e13fc00"}, {"is_disabled": 0, "is_reserved": 0, "type": "electric_scooter", "lon": -77.00334716666667, "fusion_lon": 0.0, "lat": 38.89358766666667, "rental_uris": {"android": "https://dc.lft.to/lastmile_qr_scan", "ios": "https://dc.lft.to/lastmile_qr_scan"}, "fusion_lat": 0.0, "name": "edbbe8711bf167aa12744a69463bff91", "bike_id": "edbbe8711bf167aa12744a69463bff91"}, {"is_disabled": 0, "is_reserved": 0, "type": "electric_bike", "lon": -76.98760683333333, "fusion_lon": 0.0, "lat": 38.85785416666667, "rental_uris": {"android": "https://dc.lft.to/lastmile_qr_scan", "ios": "https://dc.lft.to/lastmile_qr_scan"}, "fusion_lat": 0.0, "name": "37cd55569b613e8749b88b81868cc5a7", "bike_id": "37cd55569b613e8749b88b81868cc5a7"}, {"is_disabled": 0, "is_reserved": 0, "type": "electric_scooter", "lon": -77.03316966666667, "fusion_lon": 0.0, "lat": 38.91417933333334, "rental_uris": {"android": "https://dc.lft.to/lastmile_qr_scan", "ios": "https://dc.lft.to/lastmile_qr_scan"}, "fusion_lat": 0.0, "name": "a8762d2c0e9effa5f65dddce863831ee", "bike_id": "a8762d2c0e9effa5f65dddce863831ee"}, {"is_disabled": 0, "is_reserved": 0, "type": "electric_scooter", "lon": -76.986593, "fusion_lon": 0.0, "lat": 38.9014645, "rental_uris": {"android": "https://dc.lft.to/lastmile_qr_scan", "ios": "https://dc.lft.to/lastmile_qr_scan"}, "fusion_lat": 0.0, "name": "741ffa273603fbeaadaf986b7ce89343", "bike_id": "741ffa273603fbeaadaf986b7ce89343"}, {"is_disabled": 0, "is_reserved": 0, "type": "electric_scooter", "lon": -77.01399166666667, "fusion_lon": 0.0, "lat": 38.8803305, "rental_uris": {"android": "https://dc.lft.to/lastmile_qr_scan", "ios": "https://dc.lft.to/lastmile_qr_scan"}, "fusion_lat": 0.0, "name": "1eb79040593ad308e662589fa143f764", "bike_id": "1eb79040593ad308e662589fa143f764"}, {"is_disabled": 0, "is_reserved": 0, "type": "electric_scooter", "lon": -77.04415633333333, "fusion_lon": 0.0, "lat": 38.91774866666667, "rental_uris": {"android": "https://dc.lft.to/lastmile_qr_scan", "ios": "https://dc.lft.to/lastmile_qr_scan"}, "fusion_lat": 0.0, "name": "97ead35c93666dec700f6bcdfc1458e7", "bike_id": "97ead35c93666dec700f6bcdfc1458e7"}, {"is_disabled": 0, "is_reserved": 0, "type": "electric_scooter", "lon": -77.0293135, "fusion_lon": 0.0, "lat": 38.896429, "rental_uris": {"android": "https://dc.lft.to/lastmile_qr_scan", "ios": "https://dc.lft.to/lastmile_qr_scan"}, "fusion_lat": 0.0, "name": "861c0a258f78d612d2514b9d3510380b", "bike_id": "861c0a258f78d612d2514b9d3510380b"}, {"is_disabled": 0, "is_reserved": 0, "type": "electric_scooter", "lon": -76.99491783333333, "fusion_lon": 0.0, "lat": 38.899728, "rental_uris": {"android": "https://dc.lft.to/lastmile_qr_scan", "ios": "https://dc.lft.to/lastmile_qr_scan"}, "fusion_lat": 0.0, "name": "54d1ffdc96669a6ba613f85a51ba215f", "bike_id": "54d1ffdc96669a6ba613f85a51ba215f"}, {"is_disabled": 0, "is_reserved": 0, "type": "electric_scooter", "lon": -77.03445416666666, "fusion_lon": 0.0, "lat": 38.9040315, "rental_uris": {"android": "https://dc.lft.to/lastmile_qr_scan", "ios": "https://dc.lft.to/lastmile_qr_scan"}, "fusion_lat": 0.0, "name": "cd868cff57c086bea72b6d38eaa76ccd", "bike_id": "cd868cff57c086bea72b6d38eaa76ccd"}, {"is_disabled": 0, "is_reserved": 0, "type": "electric_scooter", "lon": -77.0344285, "fusion_lon": 0.0, "lat": 38.90250533333333, "rental_uris": {"android": "https://dc.lft.to/lastmile_qr_scan", "ios": "https://dc.lft.to/lastmile_qr_scan"}, "fusion_lat": 0.0, "name": "6da51ea64739314fc9f5a711b808a785", "bike_id": "6da51ea64739314fc9f5a711b808a785"}, {"is_disabled": 0, "is_reserved": 0, "type": "electric_scooter", "lon": -77.0318355, "fusion_lon": 0.0, "lat": 38.88340083333333, "rental_uris": {"android": "https://dc.lft.to/lastmile_qr_scan", "ios": "https://dc.lft.to/lastmile_qr_scan"}, "fusion_lat": 0.0, "name": "f88e02afbc07de15d1d07533c4b080e3", "bike_id": "f88e02afbc07de15d1d07533c4b080e3"}, {"is_disabled": 0, "is_reserved": 0, "type": "electric_scooter", "lon": -77.02647316666666, "fusion_lon": 0.0, "lat": 38.892172, "rental_uris": {"android": "https://dc.lft.to/lastmile_qr_scan", "ios": "https://dc.lft.to/lastmile_qr_scan"}, "fusion_lat": 0.0, "name": "3f9689b8b8184c0bf3109aa240816b18", "bike_id": "3f9689b8b8184c0bf3109aa240816b18"}, {"is_disabled": 0, "is_reserved": 0, "type": "electric_scooter", "lon": -76.999042, "fusion_lon": 0.0, "lat": 38.9565495, "rental_uris": {"android": "https://dc.lft.to/lastmile_qr_scan", "ios": "https://dc.lft.to/lastmile_qr_scan"}, "fusion_lat": 0.0, "name": "954d897c6c3bc3da23a98b54a6857663", "bike_id": "954d897c6c3bc3da23a98b54a6857663"}, {"is_disabled": 0, "is_reserved": 0, "type": "electric_scooter", "lon": -77.040097, "fusion_lon": 0.0, "lat": 38.91043033333333, "rental_uris": {"android": "https://dc.lft.to/lastmile_qr_scan", "ios": "https://dc.lft.to/lastmile_qr_scan"}, "fusion_lat": 0.0, "name": "93f603fc9aca2a53e5f37ece42ce5366", "bike_id": "93f603fc9aca2a53e5f37ece42ce5366"}, {"is_disabled": 0, "is_reserved": 0, "type": "electric_bike", "lon": -76.98022616666667, "fusion_lon": 0.0, "lat": 38.8875885, "rental_uris": {"android": "https://dc.lft.to/lastmile_qr_scan", "ios": "https://dc.lft.to/lastmile_qr_scan"}, "fusion_lat": 0.0, "name": "79055e0250f3e22b46314a6f2d1f513e", "bike_id": "79055e0250f3e22b46314a6f2d1f513e"}, {"is_disabled": 0, "is_reserved": 0, "type": "electric_scooter", "lon": -77.00768883333333, "fusion_lon": 0.0, "lat": 38.8767215, "rental_uris": {"android": "https://dc.lft.to/lastmile_qr_scan", "ios": "https://dc.lft.to/lastmile_qr_scan"}, "fusion_lat": 0.0, "name": "b781ccbc79fd718a39f7fd032cc47036", "bike_id": "b781ccbc79fd718a39f7fd032cc47036"}, {"is_disabled": 0, "is_reserved": 0, "type": "electric_scooter", "lon": -77.03863683333333, "fusion_lon": 0.0, "lat": 38.91708083333333, "rental_uris": {"android": "https://dc.lft.to/lastmile_qr_scan", "ios": "https://dc.lft.to/lastmile_qr_scan"}, "fusion_lat": 0.0, "name": "7c47019722c00936ab6fa1ce7167b1e5", "bike_id": "7c47019722c00936ab6fa1ce7167b1e5"}, {"is_disabled": 0, "is_reserved": 0, "type": "electric_scooter", "lon": -77.03473533333333, "fusion_lon": 0.0, "lat": 38.91825266666667, "rental_uris": {"android": "https://dc.lft.to/lastmile_qr_scan", "ios": "https://dc.lft.to/lastmile_qr_scan"}, "fusion_lat": 0.0, "name": "886b003d2d0e8fb98ae3d7d23d81e3da", "bike_id": "886b003d2d0e8fb98ae3d7d23d81e3da"}, {"is_disabled": 0, "is_reserved": 0, "type": "electric_scooter", "lon": -76.94892833333333, "fusion_lon": 0.0, "lat": 38.89535583333333, "rental_uris": {"android": "https://dc.lft.to/lastmile_qr_scan", "ios": "https://dc.lft.to/lastmile_qr_scan"}, "fusion_lat": 0.0, "name": "c89324684755934432b95d6e58b93a10", "bike_id": "c89324684755934432b95d6e58b93a10"}, {"is_disabled": 0, "is_reserved": 0, "type": "electric_scooter", "lon": -77.00916616666666, "fusion_lon": 0.0, "lat": 38.89546416666666, "rental_uris": {"android": "https://dc.lft.to/lastmile_qr_scan", "ios": "https://dc.lft.to/lastmile_qr_scan"}, "fusion_lat": 0.0, "name": "2d28ce2ffd278821c7148f1655903583", "bike_id": "2d28ce2ffd278821c7148f1655903583"}, {"is_disabled": 0, "is_reserved": 0, "type": "electric_scooter", "lon": -77.04948666666667, "fusion_lon": 0.0, "lat": 38.899374333333334, "rental_uris": {"android": "https://dc.lft.to/lastmile_qr_scan", "ios": "https://dc.lft.to/lastmile_qr_scan"}, "fusion_lat": 0.0, "name": "1829391f5e4b2941f8b915bbce521c75", "bike_id": "1829391f5e4b2941f8b915bbce521c75"}, {"is_disabled": 0, "is_reserved": 0, "type": "electric_scooter", "lon": -77.08620266666667, "fusion_lon": 0.0, "lat": 38.95873983333333, "rental_uris": {"android": "https://dc.lft.to/lastmile_qr_scan", "ios": "https://dc.lft.to/lastmile_qr_scan"}, "fusion_lat": 0.0, "name": "259133e6ee224d21d0bdfd820dfac540", "bike_id": "259133e6ee224d21d0bdfd820dfac540"}, {"is_disabled": 0, "is_reserved": 0, "type": "electric_scooter", "lon": -77.03413166666667, "fusion_lon": 0.0, "lat": 38.909653, "rental_uris": {"android": "https://dc.lft.to/lastmile_qr_scan", "ios": "https://dc.lft.to/lastmile_qr_scan"}, "fusion_lat": 0.0, "name": "5ab4ae76d4b4901b15655a6378706e83", "bike_id": "5ab4ae76d4b4901b15655a6378706e83"}, {"is_disabled": 0, "is_reserved": 0, "type": "electric_scooter", "lon": -77.03163116666667, "fusion_lon": 0.0, "lat": 38.920999333333334, "rental_uris": {"android": "https://dc.lft.to/lastmile_qr_scan", "ios": "https://dc.lft.to/lastmile_qr_scan"}, "fusion_lat": 0.0, "name": "9ef94df824b4a9e2e4ec13a75de46686", "bike_id": "9ef94df824b4a9e2e4ec13a75de46686"}, {"is_disabled": 0, "is_reserved": 0, "type": "electric_scooter", "lon": -77.029541, "fusion_lon": 0.0, "lat": 38.903534666666665, "rental_uris": {"android": "https://dc.lft.to/lastmile_qr_scan", "ios": "https://dc.lft.to/lastmile_qr_scan"}, "fusion_lat": 0.0, "name": "8d2a85883af22a78785a78b752af94ee", "bike_id": "8d2a85883af22a78785a78b752af94ee"}, {"is_disabled": 0, "is_reserved": 0, "type": "electric_scooter", "lon": -77.02980833333334, "fusion_lon": 0.0, "lat": 38.9474085, "rental_uris": {"android": "https://dc.lft.to/lastmile_qr_scan", "ios": "https://dc.lft.to/lastmile_qr_scan"}, "fusion_lat": 0.0, "name": "1e1a0290f9bd8db46b0aa0815df532bf", "bike_id": "1e1a0290f9bd8db46b0aa0815df532bf"}, {"is_disabled": 0, "is_reserved": 0, "type": "electric_bike", "lon": -76.994867, "fusion_lon": 0.0, "lat": 38.9205855, "rental_uris": {"android": "https://dc.lft.to/lastmile_qr_scan", "ios": "https://dc.lft.to/lastmile_qr_scan"}, "fusion_lat": 0.0, "name": "a28ee8337847aa974f0f478e6cf794ac", "bike_id": "a28ee8337847aa974f0f478e6cf794ac"}, {"is_disabled": 0, "is_reserved": 0, "type": "electric_scooter", "lon": -76.986552, "fusion_lon": 0.0, "lat": 38.91314166666667, "rental_uris": {"android": "https://dc.lft.to/lastmile_qr_scan", "ios": "https://dc.lft.to/lastmile_qr_scan"}, "fusion_lat": 0.0, "name": "dfb82c4270eae00e2f1a343f1694f5fa", "bike_id": "dfb82c4270eae00e2f1a343f1694f5fa"}, {"is_disabled": 0, "is_reserved": 0, "type": "electric_scooter", "lon": -77.0434905, "fusion_lon": 0.0, "lat": 38.90343716666667, "rental_uris": {"android": "https://dc.lft.to/lastmile_qr_scan", "ios": "https://dc.lft.to/lastmile_qr_scan"}, "fusion_lat": 0.0, "name": "43b0b0434bcc8e7adaee7229ed325609", "bike_id": "43b0b0434bcc8e7adaee7229ed325609"}, {"is_disabled": 0, "is_reserved": 0, "type": "electric_bike", "lon": -76.93205933333333, "fusion_lon": 0.0, "lat": 38.87230133333333, "rental_uris": {"android": "https://dc.lft.to/lastmile_qr_scan", "ios": "https://dc.lft.to/lastmile_qr_scan"}, "fusion_lat": 0.0, "name": "6548cc1ab374287a2352f15caaca977e", "bike_id": "6548cc1ab374287a2352f15caaca977e"}, {"is_disabled": 0, "is_reserved": 0, "type": "electric_scooter", "lon": -77.0216305, "fusion_lon": 0.0, "lat": 38.92614433333333, "rental_uris": {"android": "https://dc.lft.to/lastmile_qr_scan", "ios": "https://dc.lft.to/lastmile_qr_scan"}, "fusion_lat": 0.0, "name": "270341eca453d436a555e48a41748613", "bike_id": "270341eca453d436a555e48a41748613"}, {"is_disabled": 0, "is_reserved": 0, "type": "electric_scooter", "lon": -77.00590033333333, "fusion_lon": 0.0, "lat": 38.92754733333334, "rental_uris": {"android": "https://dc.lft.to/lastmile_qr_scan", "ios": "https://dc.lft.to/lastmile_qr_scan"}, "fusion_lat": 0.0, "name": "a75d7dab3c895364e25d4ff29f6cc84a", "bike_id": "a75d7dab3c895364e25d4ff29f6cc84a"}, {"is_disabled": 0, "is_reserved": 0, "type": "electric_scooter", "lon": -77.03435616666667, "fusion_lon": 0.0, "lat": 38.91806916666667, "rental_uris": {"android": "https://dc.lft.to/lastmile_qr_scan", "ios": "https://dc.lft.to/lastmile_qr_scan"}, "fusion_lat": 0.0, "name": "fb5969d175916e5072f7eef235d554f9", "bike_id": "fb5969d175916e5072f7eef235d554f9"}, {"is_disabled": 0, "is_reserved": 0, "type": "electric_scooter", "lon": -77.01850233333333, "fusion_lon": 0.0, "lat": 38.9542925, "rental_uris": {"android": "https://dc.lft.to/lastmile_qr_scan", "ios": "https://dc.lft.to/lastmile_qr_scan"}, "fusion_lat": 0.0, "name": "03145b6bd9e0a23fe8afd92a3d2e4b22", "bike_id": "03145b6bd9e0a23fe8afd92a3d2e4b22"}, {"is_disabled": 0, "is_reserved": 0, "type": "electric_scooter", "lon": -76.98073883333333, "fusion_lon": 0.0, "lat": 38.91933366666667, "rental_uris": {"android": "https://dc.lft.to/lastmile_qr_scan", "ios": "https://dc.lft.to/lastmile_qr_scan"}, "fusion_lat": 0.0, "name": "e350f0565e3b772910758e04ed8373fe", "bike_id": "e350f0565e3b772910758e04ed8373fe"}, {"is_disabled": 0, "is_reserved": 0, "type": "electric_scooter", "lon": -77.00760983333333, "fusion_lon": 0.0, "lat": 38.876721333333336, "rental_uris": {"android": "https://dc.lft.to/lastmile_qr_scan", "ios": "https://dc.lft.to/lastmile_qr_scan"}, "fusion_lat": 0.0, "name": "52fa86f980b045e46695eefcf3340d0e", "bike_id": "52fa86f980b045e46695eefcf3340d0e"}, {"is_disabled": 0, "is_reserved": 0, "type": "electric_scooter", "lon": -76.99119833333333, "fusion_lon": 0.0, "lat": 38.90142266666667, "rental_uris": {"android": "https://dc.lft.to/lastmile_qr_scan", "ios": "https://dc.lft.to/lastmile_qr_scan"}, "fusion_lat": 0.0, "name": "2a222bdf7d734bf795c0a1e21021fb92", "bike_id": "2a222bdf7d734bf795c0a1e21021fb92"}, {"is_disabled": 0, "is_reserved": 0, "type": "electric_scooter", "lon": -77.0436265, "fusion_lon": 0.0, "lat": 38.911139666666664, "rental_uris": {"android": "https://dc.lft.to/lastmile_qr_scan", "ios": "https://dc.lft.to/lastmile_qr_scan"}, "fusion_lat": 0.0, "name": "d3c80582bf5f5489f655066183c9af4e", "bike_id": "d3c80582bf5f5489f655066183c9af4e"}, {"is_disabled": 0, "is_reserved": 0, "type": "electric_scooter", "lon": -77.03773766666667, "fusion_lon": 0.0, "lat": 38.916915833333334, "rental_uris": {"android": "https://dc.lft.to/lastmile_qr_scan", "ios": "https://dc.lft.to/lastmile_qr_scan"}, "fusion_lat": 0.0, "name": "89470f7c600725a891e374b13d91d8df", "bike_id": "89470f7c600725a891e374b13d91d8df"}, {"is_disabled": 0, "is_reserved": 0, "type": "electric_scooter", "lon": -77.01875883333334, "fusion_lon": 0.0, "lat": 38.91485483333334, "rental_uris": {"android": "https://dc.lft.to/lastmile_qr_scan", "ios": "https://dc.lft.to/lastmile_qr_scan"}, "fusion_lat": 0.0, "name": "190d9a24145f9c9923fd4b0c2eeec229", "bike_id": "190d9a24145f9c9923fd4b0c2eeec229"}, {"is_disabled": 0, "is_reserved": 0, "type": "electric_scooter", "lon": -77.04107083333334, "fusion_lon": 0.0, "lat": 38.90581816666667, "rental_uris": {"android": "https://dc.lft.to/lastmile_qr_scan", "ios": "https://dc.lft.to/lastmile_qr_scan"}, "fusion_lat": 0.0, "name": "dda1e64e86bfe70ab1ce9e5055926abf", "bike_id": "dda1e64e86bfe70ab1ce9e5055926abf"}, {"is_disabled": 0, "is_reserved": 0, "type": "electric_scooter", "lon": -77.02650666666666, "fusion_lon": 0.0, "lat": 38.93864716666667, "rental_uris": {"android": "https://dc.lft.to/lastmile_qr_scan", "ios": "https://dc.lft.to/lastmile_qr_scan"}, "fusion_lat": 0.0, "name": "2f89bd1bfe14db5c34a304bdfd43549e", "bike_id": "2f89bd1bfe14db5c34a304bdfd43549e"}, {"is_disabled": 0, "is_reserved": 0, "type": "electric_scooter", "lon": -77.03249616666666, "fusion_lon": 0.0, "lat": 38.92114266666667, "rental_uris": {"android": "https://dc.lft.to/lastmile_qr_scan", "ios": "https://dc.lft.to/lastmile_qr_scan"}, "fusion_lat": 0.0, "name": "7c992904f7f699968b3a662892b9a229", "bike_id": "7c992904f7f699968b3a662892b9a229"}, {"is_disabled": 0, "is_reserved": 0, "type": "electric_scooter", "lon": -77.01379266666666, "fusion_lon": 0.0, "lat": 38.870839833333335, "rental_uris": {"android": "https://dc.lft.to/lastmile_qr_scan", "ios": "https://dc.lft.to/lastmile_qr_scan"}, "fusion_lat": 0.0, "name": "c95df32c550684aa933ff8ac909cd555", "bike_id": "c95df32c550684aa933ff8ac909cd555"}, {"is_disabled": 0, "is_reserved": 0, "type": "electric_scooter", "lon": -76.94195483333333, "fusion_lon": 0.0, "lat": 38.893717, "rental_uris": {"android": "https://dc.lft.to/lastmile_qr_scan", "ios": "https://dc.lft.to/lastmile_qr_scan"}, "fusion_lat": 0.0, "name": "ec76fc6ed9ce7009e888ee6b2b234660", "bike_id": "ec76fc6ed9ce7009e888ee6b2b234660"}, {"is_disabled": 0, "is_reserved": 0, "type": "electric_scooter", "lon": -77.0196935, "fusion_lon": 0.0, "lat": 38.89369166666667, "rental_uris": {"android": "https://dc.lft.to/lastmile_qr_scan", "ios": "https://dc.lft.to/lastmile_qr_scan"}, "fusion_lat": 0.0, "name": "8741d295bbd79d329b47faeb1073256f", "bike_id": "8741d295bbd79d329b47faeb1073256f"}, {"is_disabled": 0, "is_reserved": 0, "type": "electric_scooter", "lon": -77.01610816666667, "fusion_lon": 0.0, "lat": 38.887427833333334, "rental_uris": {"android": "https://dc.lft.to/lastmile_qr_scan", "ios": "https://dc.lft.to/lastmile_qr_scan"}, "fusion_lat": 0.0, "name": "5093acc30cb500f19a216beda9235c0d", "bike_id": "5093acc30cb500f19a216beda9235c0d"}, {"is_disabled": 0, "is_reserved": 0, "type": "electric_scooter", "lon": -77.02305433333333, "fusion_lon": 0.0, "lat": 38.918326, "rental_uris": {"android": "https://dc.lft.to/lastmile_qr_scan", "ios": "https://dc.lft.to/lastmile_qr_scan"}, "fusion_lat": 0.0, "name": "c9bd2bdd63c1d2fd77b38cf2147b7234", "bike_id": "c9bd2bdd63c1d2fd77b38cf2147b7234"}, {"is_disabled": 0, "is_reserved": 0, "type": "electric_scooter", "lon": -77.0856375, "fusion_lon": 0.0, "lat": 38.9335705, "rental_uris": {"android": "https://dc.lft.to/lastmile_qr_scan", "ios": "https://dc.lft.to/lastmile_qr_scan"}, "fusion_lat": 0.0, "name": "60a8cbd1aa17951dad31b6b2307579db", "bike_id": "60a8cbd1aa17951dad31b6b2307579db"}, {"is_disabled": 0, "is_reserved": 0, "type": "electric_scooter", "lon": -77.03258866666667, "fusion_lon": 0.0, "lat": 38.904613833333336, "rental_uris": {"android": "https://dc.lft.to/lastmile_qr_scan", "ios": "https://dc.lft.to/lastmile_qr_scan"}, "fusion_lat": 0.0, "name": "307ad66583e6660b59dffac613bd1294", "bike_id": "307ad66583e6660b59dffac613bd1294"}, {"is_disabled": 0, "is_reserved": 0, "type": "electric_scooter", "lon": -77.03156516666667, "fusion_lon": 0.0, "lat": 38.90369066666667, "rental_uris": {"android": "https://dc.lft.to/lastmile_qr_scan", "ios": "https://dc.lft.to/lastmile_qr_scan"}, "fusion_lat": 0.0, "name": "ac3a6a47807a94f59b53c6731c59b5ba", "bike_id": "ac3a6a47807a94f59b53c6731c59b5ba"}, {"is_disabled": 0, "is_reserved": 0, "type": "electric_scooter", "lon": -76.9964885, "fusion_lon": 0.0, "lat": 38.88718016666667, "rental_uris": {"android": "https://dc.lft.to/lastmile_qr_scan", "ios": "https://dc.lft.to/lastmile_qr_scan"}, "fusion_lat": 0.0, "name": "6e367de2441ca838b6637c6847289650", "bike_id": "6e367de2441ca838b6637c6847289650"}, {"is_disabled": 0, "is_reserved": 0, "type": "electric_scooter", "lon": -77.05788033333333, "fusion_lon": 0.0, "lat": 38.905102166666666, "rental_uris": {"android": "https://dc.lft.to/lastmile_qr_scan", "ios": "https://dc.lft.to/lastmile_qr_scan"}, "fusion_lat": 0.0, "name": "d7c18323b9e1bc81f5a0a71588a27020", "bike_id": "d7c18323b9e1bc81f5a0a71588a27020"}, {"is_disabled": 0, "is_reserved": 0, "type": "electric_scooter", "lon": -77.03399716666667, "fusion_lon": 0.0, "lat": 38.9070595, "rental_uris": {"android": "https://dc.lft.to/lastmile_qr_scan", "ios": "https://dc.lft.to/lastmile_qr_scan"}, "fusion_lat": 0.0, "name": "7c8fbc57642f9765b17d498e0a9cb747", "bike_id": "7c8fbc57642f9765b17d498e0a9cb747"}, {"is_disabled": 0, "is_reserved": 0, "type": "electric_scooter", "lon": -77.04040916666666, "fusion_lon": 0.0, "lat": 38.90556933333333, "rental_uris": {"android": "https://dc.lft.to/lastmile_qr_scan", "ios": "https://dc.lft.to/lastmile_qr_scan"}, "fusion_lat": 0.0, "name": "badc1b97b8cec536f06e07e9b1cd0d22", "bike_id": "badc1b97b8cec536f06e07e9b1cd0d22"}, {"is_disabled": 0, "is_reserved": 0, "type": "electric_scooter", "lon": -77.0430015, "fusion_lon": 0.0, "lat": 38.913312, "rental_uris": {"android": "https://dc.lft.to/lastmile_qr_scan", "ios": "https://dc.lft.to/lastmile_qr_scan"}, "fusion_lat": 0.0, "name": "9cbb67eefd1bbbf8c2574e0a051ef0ae", "bike_id": "9cbb67eefd1bbbf8c2574e0a051ef0ae"}, {"is_disabled": 0, "is_reserved": 0, "type": "electric_scooter", "lon": -77.04240416666667, "fusion_lon": 0.0, "lat": 38.91927866666666, "rental_uris": {"android": "https://dc.lft.to/lastmile_qr_scan", "ios": "https://dc.lft.to/lastmile_qr_scan"}, "fusion_lat": 0.0, "name": "14e5951611de1d267908d5f10affb8d1", "bike_id": "14e5951611de1d267908d5f10affb8d1"}, {"is_disabled": 0, "is_reserved": 0, "type": "electric_bike", "lon": -77.08487766666667, "fusion_lon": 0.0, "lat": 38.89055, "rental_uris": {"android": "https://dc.lft.to/lastmile_qr_scan", "ios": "https://dc.lft.to/lastmile_qr_scan"}, "fusion_lat": 0.0, "name": "2fd2a97619444555734e43f7c8fbb755", "bike_id": "2fd2a97619444555734e43f7c8fbb755"}, {"is_disabled": 0, "is_reserved": 0, "type": "electric_scooter", "lon": -77.0138565, "fusion_lon": 0.0, "lat": 38.91008866666667, "rental_uris": {"android": "https://dc.lft.to/lastmile_qr_scan", "ios": "https://dc.lft.to/lastmile_qr_scan"}, "fusion_lat": 0.0, "name": "329dd1bb5577dd81d2b0415bd0acc5d3", "bike_id": "329dd1bb5577dd81d2b0415bd0acc5d3"}, {"is_disabled": 0, "is_reserved": 0, "type": "electric_scooter", "lon": -77.0232115, "fusion_lon": 0.0, "lat": 38.87887383333333, "rental_uris": {"android": "https://dc.lft.to/lastmile_qr_scan", "ios": "https://dc.lft.to/lastmile_qr_scan"}, "fusion_lat": 0.0, "name": "fafa26546530b5d50a7159492298dac7", "bike_id": "fafa26546530b5d50a7159492298dac7"}, {"is_disabled": 0, "is_reserved": 0, "type": "electric_scooter", "lon": -77.02246166666667, "fusion_lon": 0.0, "lat": 38.89217816666667, "rental_uris": {"android": "https://dc.lft.to/lastmile_qr_scan", "ios": "https://dc.lft.to/lastmile_qr_scan"}, "fusion_lat": 0.0, "name": "16b33e2bfd212972f7d9d3cd2dd50af1", "bike_id": "16b33e2bfd212972f7d9d3cd2dd50af1"}, {"is_disabled": 0, "is_reserved": 0, "type": "electric_scooter", "lon": -77.02156333333333, "fusion_lon": 0.0, "lat": 38.926028, "rental_uris": {"android": "https://dc.lft.to/lastmile_qr_scan", "ios": "https://dc.lft.to/lastmile_qr_scan"}, "fusion_lat": 0.0, "name": "dc018112138b412bdab2e80d672cf00f", "bike_id": "dc018112138b412bdab2e80d672cf00f"}, {"is_disabled": 0, "is_reserved": 0, "type": "electric_scooter", "lon": -77.07248483333333, "fusion_lon": 0.0, "lat": 38.90784283333333, "rental_uris": {"android": "https://dc.lft.to/lastmile_qr_scan", "ios": "https://dc.lft.to/lastmile_qr_scan"}, "fusion_lat": 0.0, "name": "ff0528b35ceab75b787f5229d7e04262", "bike_id": "ff0528b35ceab75b787f5229d7e04262"}, {"is_disabled": 0, "is_reserved": 0, "type": "electric_scooter", "lon": -77.046833, "fusion_lon": 0.0, "lat": 38.89223716666667, "rental_uris": {"android": "https://dc.lft.to/lastmile_qr_scan", "ios": "https://dc.lft.to/lastmile_qr_scan"}, "fusion_lat": 0.0, "name": "a26baf376f8a0bcbd2b244efddd64f8d", "bike_id": "a26baf376f8a0bcbd2b244efddd64f8d"}, {"is_disabled": 0, "is_reserved": 0, "type": "electric_scooter", "lon": -77.0334225, "fusion_lon": 0.0, "lat": 38.91702883333333, "rental_uris": {"android": "https://dc.lft.to/lastmile_qr_scan", "ios": "https://dc.lft.to/lastmile_qr_scan"}, "fusion_lat": 0.0, "name": "c04a7478cd10e3ad6bb1926ac0621b89", "bike_id": "c04a7478cd10e3ad6bb1926ac0621b89"}, {"is_disabled": 0, "is_reserved": 0, "type": "electric_scooter", "lon": -77.02321033333334, "fusion_lon": 0.0, "lat": 38.9090665, "rental_uris": {"android": "https://dc.lft.to/lastmile_qr_scan", "ios": "https://dc.lft.to/lastmile_qr_scan"}, "fusion_lat": 0.0, "name": "6ed8f0ed1c66964584093d9f2ae90f70", "bike_id": "6ed8f0ed1c66964584093d9f2ae90f70"}, {"is_disabled": 0, "is_reserved": 0, "type": "electric_scooter", "lon": -77.03311383333333, "fusion_lon": 0.0, "lat": 38.956172333333335, "rental_uris": {"android": "https://dc.lft.to/lastmile_qr_scan", "ios": "https://dc.lft.to/lastmile_qr_scan"}, "fusion_lat": 0.0, "name": "1e661c7f2f46aecd89fe572b4f3e5e42", "bike_id": "1e661c7f2f46aecd89fe572b4f3e5e42"}, {"is_disabled": 0, "is_reserved": 0, "type": "electric_scooter", "lon": -77.000894, "fusion_lon": 0.0, "lat": 38.89408683333333, "rental_uris": {"android": "https://dc.lft.to/lastmile_qr_scan", "ios": "https://dc.lft.to/lastmile_qr_scan"}, "fusion_lat": 0.0, "name": "cfdd143b629914daf20032214a9ab96c", "bike_id": "cfdd143b629914daf20032214a9ab96c"}, {"is_disabled": 0, "is_reserved": 0, "type": "electric_scooter", "lon": -77.03490066666667, "fusion_lon": 0.0, "lat": 38.92151966666667, "rental_uris": {"android": "https://dc.lft.to/lastmile_qr_scan", "ios": "https://dc.lft.to/lastmile_qr_scan"}, "fusion_lat": 0.0, "name": "97d446aa84131fb0abebe38afb891e4f", "bike_id": "97d446aa84131fb0abebe38afb891e4f"}, {"is_disabled": 0, "is_reserved": 0, "type": "electric_scooter", "lon": -77.02990633333333, "fusion_lon": 0.0, "lat": 38.897484666666664, "rental_uris": {"android": "https://dc.lft.to/lastmile_qr_scan", "ios": "https://dc.lft.to/lastmile_qr_scan"}, "fusion_lat": 0.0, "name": "63f4f8cc492cc95cf186693e198e04a3", "bike_id": "63f4f8cc492cc95cf186693e198e04a3"}, {"is_disabled": 0, "is_reserved": 0, "type": "electric_scooter", "lon": -77.004118, "fusion_lon": 0.0, "lat": 38.877039833333335, "rental_uris": {"android": "https://dc.lft.to/lastmile_qr_scan", "ios": "https://dc.lft.to/lastmile_qr_scan"}, "fusion_lat": 0.0, "name": "a0672e6fcc726aebf60d85357426b969", "bike_id": "a0672e6fcc726aebf60d85357426b969"}, {"is_disabled": 0, "is_reserved": 0, "type": "electric_scooter", "lon": -77.02563166666667, "fusion_lon": 0.0, "lat": 38.89225016666666, "rental_uris": {"android": "https://dc.lft.to/lastmile_qr_scan", "ios": "https://dc.lft.to/lastmile_qr_scan"}, "fusion_lat": 0.0, "name": "bad29008ac56b59b04e6b5587a41de23", "bike_id": "bad29008ac56b59b04e6b5587a41de23"}, {"is_disabled": 0, "is_reserved": 0, "type": "electric_scooter", "lon": -77.046766, "fusion_lon": 0.0, "lat": 38.907389, "rental_uris": {"android": "https://dc.lft.to/lastmile_qr_scan", "ios": "https://dc.lft.to/lastmile_qr_scan"}, "fusion_lat": 0.0, "name": "1f2342c00b0f775ff7dd204aa264a577", "bike_id": "1f2342c00b0f775ff7dd204aa264a577"}, {"is_disabled": 0, "is_reserved": 0, "type": "electric_scooter", "lon": -77.00360233333333, "fusion_lon": 0.0, "lat": 38.894982666666664, "rental_uris": {"android": "https://dc.lft.to/lastmile_qr_scan", "ios": "https://dc.lft.to/lastmile_qr_scan"}, "fusion_lat": 0.0, "name": "fad0b51f1226448f60c53489c7d94feb", "bike_id": "fad0b51f1226448f60c53489c7d94feb"}, {"is_disabled": 0, "is_reserved": 0, "type": "electric_scooter", "lon": -77.06113266666667, "fusion_lon": 0.0, "lat": 38.94372366666666, "rental_uris": {"android": "https://dc.lft.to/lastmile_qr_scan", "ios": "https://dc.lft.to/lastmile_qr_scan"}, "fusion_lat": 0.0, "name": "57f17214ed53e78810899e0854da1ff6", "bike_id": "57f17214ed53e78810899e0854da1ff6"}, {"is_disabled": 0, "is_reserved": 0, "type": "electric_scooter", "lon": -77.03199066666667, "fusion_lon": 0.0, "lat": 38.91596766666667, "rental_uris": {"android": "https://dc.lft.to/lastmile_qr_scan", "ios": "https://dc.lft.to/lastmile_qr_scan"}, "fusion_lat": 0.0, "name": "6e6bc354123a8ffe297bdd6f0e301c99", "bike_id": "6e6bc354123a8ffe297bdd6f0e301c99"}, {"is_disabled": 0, "is_reserved": 0, "type": "electric_scooter", "lon": -77.03562683333334, "fusion_lon": 0.0, "lat": 38.927443833333335, "rental_uris": {"android": "https://dc.lft.to/lastmile_qr_scan", "ios": "https://dc.lft.to/lastmile_qr_scan"}, "fusion_lat": 0.0, "name": "c93651a67b678a5bb27072792e8e811b", "bike_id": "c93651a67b678a5bb27072792e8e811b"}, {"is_disabled": 0, "is_reserved": 0, "type": "electric_scooter", "lon": -77.03446883333334, "fusion_lon": 0.0, "lat": 38.93433666666667, "rental_uris": {"android": "https://dc.lft.to/lastmile_qr_scan", "ios": "https://dc.lft.to/lastmile_qr_scan"}, "fusion_lat": 0.0, "name": "a79ab20b24ad7ee32398a6c707f8ead6", "bike_id": "a79ab20b24ad7ee32398a6c707f8ead6"}, {"is_disabled": 0, "is_reserved": 0, "type": "electric_bike", "lon": -76.92927816666666, "fusion_lon": 0.0, "lat": 38.902889333333334, "rental_uris": {"android": "https://dc.lft.to/lastmile_qr_scan", "ios": "https://dc.lft.to/lastmile_qr_scan"}, "fusion_lat": 0.0, "name": "b72a27ad532dad77f2addbb059a5bb56", "bike_id": "b72a27ad532dad77f2addbb059a5bb56"}, {"is_disabled": 0, "is_reserved": 0, "type": "electric_scooter", "lon": -77.03438983333334, "fusion_lon": 0.0, "lat": 38.91807383333333, "rental_uris": {"android": "https://dc.lft.to/lastmile_qr_scan", "ios": "https://dc.lft.to/lastmile_qr_scan"}, "fusion_lat": 0.0, "name": "b27480ed00d27ff9db46e37be0f8b2f4", "bike_id": "b27480ed00d27ff9db46e37be0f8b2f4"}, {"is_disabled": 0, "is_reserved": 0, "type": "electric_scooter", "lon": -77.03890316666667, "fusion_lon": 0.0, "lat": 38.92221383333333, "rental_uris": {"android": "https://dc.lft.to/lastmile_qr_scan", "ios": "https://dc.lft.to/lastmile_qr_scan"}, "fusion_lat": 0.0, "name": "9de927b8919075f9cfb20c0805229aab", "bike_id": "9de927b8919075f9cfb20c0805229aab"}, {"is_disabled": 0, "is_reserved": 0, "type": "electric_scooter", "lon": -77.03829683333333, "fusion_lon": 0.0, "lat": 38.91112366666667, "rental_uris": {"android": "https://dc.lft.to/lastmile_qr_scan", "ios": "https://dc.lft.to/lastmile_qr_scan"}, "fusion_lat": 0.0, "name": "9baa5ae3b6dd98e559647fd06bc399d2", "bike_id": "9baa5ae3b6dd98e559647fd06bc399d2"}, {"is_disabled": 0, "is_reserved": 0, "type": "electric_scooter", "lon": -77.0357995, "fusion_lon": 0.0, "lat": 38.907612666666665, "rental_uris": {"android": "https://dc.lft.to/lastmile_qr_scan", "ios": "https://dc.lft.to/lastmile_qr_scan"}, "fusion_lat": 0.0, "name": "2e75382a223ad35a414fca0334ea6609", "bike_id": "2e75382a223ad35a414fca0334ea6609"}, {"is_disabled": 0, "is_reserved": 0, "type": "electric_scooter", "lon": -77.030943, "fusion_lon": 0.0, "lat": 38.93536366666667, "rental_uris": {"android": "https://dc.lft.to/lastmile_qr_scan", "ios": "https://dc.lft.to/lastmile_qr_scan"}, "fusion_lat": 0.0, "name": "ff1178fa1c12adbd0c5b3b3e7dcd4346", "bike_id": "ff1178fa1c12adbd0c5b3b3e7dcd4346"}, {"is_disabled": 0, "is_reserved": 0, "type": "electric_scooter", "lon": -77.02498666666666, "fusion_lon": 0.0, "lat": 38.902692333333334, "rental_uris": {"android": "https://dc.lft.to/lastmile_qr_scan", "ios": "https://dc.lft.to/lastmile_qr_scan"}, "fusion_lat": 0.0, "name": "d49e8d855b2b63b9812c8caef1239e26", "bike_id": "d49e8d855b2b63b9812c8caef1239e26"}, {"is_disabled": 0, "is_reserved": 0, "type": "electric_scooter", "lon": -77.00461416666667, "fusion_lon": 0.0, "lat": 38.87698733333333, "rental_uris": {"android": "https://dc.lft.to/lastmile_qr_scan", "ios": "https://dc.lft.to/lastmile_qr_scan"}, "fusion_lat": 0.0, "name": "2184b5fd16be3135c9c179e32010d7f9", "bike_id": "2184b5fd16be3135c9c179e32010d7f9"}, {"is_disabled": 0, "is_reserved": 0, "type": "electric_scooter", "lon": -77.02559816666667, "fusion_lon": 0.0, "lat": 38.892237333333334, "rental_uris": {"android": "https://dc.lft.to/lastmile_qr_scan", "ios": "https://dc.lft.to/lastmile_qr_scan"}, "fusion_lat": 0.0, "name": "96bba731bcf356217ec596aa6b667b2b", "bike_id": "96bba731bcf356217ec596aa6b667b2b"}, {"is_disabled": 0, "is_reserved": 0, "type": "electric_scooter", "lon": -77.039288, "fusion_lon": 0.0, "lat": 38.902834, "rental_uris": {"android": "https://dc.lft.to/lastmile_qr_scan", "ios": "https://dc.lft.to/lastmile_qr_scan"}, "fusion_lat": 0.0, "name": "3efea1d15dd166775a29db7e57c2a18a", "bike_id": "3efea1d15dd166775a29db7e57c2a18a"}, {"is_disabled": 0, "is_reserved": 0, "type": "electric_scooter", "lon": -77.032406, "fusion_lon": 0.0, "lat": 38.90111866666667, "rental_uris": {"android": "https://dc.lft.to/lastmile_qr_scan", "ios": "https://dc.lft.to/lastmile_qr_scan"}, "fusion_lat": 0.0, "name": "568d64e11d55339df814c7d4cecf9eb3", "bike_id": "568d64e11d55339df814c7d4cecf9eb3"}, {"is_disabled": 0, "is_reserved": 0, "type": "electric_scooter", "lon": -77.02598566666667, "fusion_lon": 0.0, "lat": 38.975871833333336, "rental_uris": {"android": "https://dc.lft.to/lastmile_qr_scan", "ios": "https://dc.lft.to/lastmile_qr_scan"}, "fusion_lat": 0.0, "name": "6606b87c8bd150d801ee3ba8c4d77565", "bike_id": "6606b87c8bd150d801ee3ba8c4d77565"}, {"is_disabled": 0, "is_reserved": 0, "type": "electric_bike", "lon": -77.04963133333334, "fusion_lon": 0.0, "lat": 38.855124833333335, "rental_uris": {"android": "https://dc.lft.to/lastmile_qr_scan", "ios": "https://dc.lft.to/lastmile_qr_scan"}, "fusion_lat": 0.0, "name": "3b907327626a30900f98559a7c516f32", "bike_id": "3b907327626a30900f98559a7c516f32"}, {"is_disabled": 0, "is_reserved": 0, "type": "electric_bike", "lon": -76.96178483333334, "fusion_lon": 0.0, "lat": 38.9186035, "rental_uris": {"android": "https://dc.lft.to/lastmile_qr_scan", "ios": "https://dc.lft.to/lastmile_qr_scan"}, "fusion_lat": 0.0, "name": "104b5719a363011c38d7f951c4c3a9a0", "bike_id": "104b5719a363011c38d7f951c4c3a9a0"}, {"is_disabled": 0, "is_reserved": 0, "type": "electric_scooter", "lon": -77.03356383333333, "fusion_lon": 0.0, "lat": 38.924416, "rental_uris": {"android": "https://dc.lft.to/lastmile_qr_scan", "ios": "https://dc.lft.to/lastmile_qr_scan"}, "fusion_lat": 0.0, "name": "e73ccec82cb368c61eba242c70cf5ea1", "bike_id": "e73ccec82cb368c61eba242c70cf5ea1"}, {"is_disabled": 0, "is_reserved": 0, "type": "electric_scooter", "lon": -76.93383633333333, "fusion_lon": 0.0, "lat": 38.899087, "rental_uris": {"android": "https://dc.lft.to/lastmile_qr_scan", "ios": "https://dc.lft.to/lastmile_qr_scan"}, "fusion_lat": 0.0, "name": "6b6e7a26c7b1b6b50347c0d4ade0103c", "bike_id": "6b6e7a26c7b1b6b50347c0d4ade0103c"}, {"is_disabled": 0, "is_reserved": 0, "type": "electric_scooter", "lon": -76.99875133333333, "fusion_lon": 0.0, "lat": 38.900170833333334, "rental_uris": {"android": "https://dc.lft.to/lastmile_qr_scan", "ios": "https://dc.lft.to/lastmile_qr_scan"}, "fusion_lat": 0.0, "name": "fce4783e6a4b17223040dd3dc7ec0f5d", "bike_id": "fce4783e6a4b17223040dd3dc7ec0f5d"}, {"is_disabled": 0, "is_reserved": 0, "type": "electric_scooter", "lon": -77.01175683333334, "fusion_lon": 0.0, "lat": 38.870787166666666, "rental_uris": {"android": "https://dc.lft.to/lastmile_qr_scan", "ios": "https://dc.lft.to/lastmile_qr_scan"}, "fusion_lat": 0.0, "name": "167d88899548e805999f6077f29973ce", "bike_id": "167d88899548e805999f6077f29973ce"}, {"is_disabled": 0, "is_reserved": 0, "type": "electric_bike", "lon": -77.00585716666667, "fusion_lon": 0.0, "lat": 38.83690683333333, "rental_uris": {"android": "https://dc.lft.to/lastmile_qr_scan", "ios": "https://dc.lft.to/lastmile_qr_scan"}, "fusion_lat": 0.0, "name": "a8e38c04cd6e64a81c56c5fadd18164e", "bike_id": "a8e38c04cd6e64a81c56c5fadd18164e"}, {"is_disabled": 0, "is_reserved": 0, "type": "electric_scooter", "lon": -77.0396175, "fusion_lon": 0.0, "lat": 38.90716616666667, "rental_uris": {"android": "https://dc.lft.to/lastmile_qr_scan", "ios": "https://dc.lft.to/lastmile_qr_scan"}, "fusion_lat": 0.0, "name": "aeb2d2229eef58cccb583fc1587f78f9", "bike_id": "aeb2d2229eef58cccb583fc1587f78f9"}, {"is_disabled": 0, "is_reserved": 0, "type": "electric_scooter", "lon": -77.02658533333333, "fusion_lon": 0.0, "lat": 38.8921865, "rental_uris": {"android": "https://dc.lft.to/lastmile_qr_scan", "ios": "https://dc.lft.to/lastmile_qr_scan"}, "fusion_lat": 0.0, "name": "0d0f44f6df2aa62e6591f8994e1a6750", "bike_id": "0d0f44f6df2aa62e6591f8994e1a6750"}, {"is_disabled": 0, "is_reserved": 0, "type": "electric_scooter", "lon": -77.00417983333334, "fusion_lon": 0.0, "lat": 38.9112775, "rental_uris": {"android": "https://dc.lft.to/lastmile_qr_scan", "ios": "https://dc.lft.to/lastmile_qr_scan"}, "fusion_lat": 0.0, "name": "bb2165cd8fc0fd871cdd42d4c053afd4", "bike_id": "bb2165cd8fc0fd871cdd42d4c053afd4"}, {"is_disabled": 0, "is_reserved": 0, "type": "electric_scooter", "lon": -77.02624116666667, "fusion_lon": 0.0, "lat": 38.933428666666664, "rental_uris": {"android": "https://dc.lft.to/lastmile_qr_scan", "ios": "https://dc.lft.to/lastmile_qr_scan"}, "fusion_lat": 0.0, "name": "220a1e7c7dba5b44e61adc09ad2065db", "bike_id": "220a1e7c7dba5b44e61adc09ad2065db"}, {"is_disabled": 0, "is_reserved": 0, "type": "electric_bike", "lon": -77.1142825, "fusion_lon": 0.0, "lat": 38.85245966666667, "rental_uris": {"android": "https://dc.lft.to/lastmile_qr_scan", "ios": "https://dc.lft.to/lastmile_qr_scan"}, "fusion_lat": 0.0, "name": "c4130f210f05e1769362eef5c3c63ed0", "bike_id": "c4130f210f05e1769362eef5c3c63ed0"}, {"is_disabled": 0, "is_reserved": 0, "type": "electric_scooter", "lon": -77.0321255, "fusion_lon": 0.0, "lat": 38.925846666666665, "rental_uris": {"android": "https://dc.lft.to/lastmile_qr_scan", "ios": "https://dc.lft.to/lastmile_qr_scan"}, "fusion_lat": 0.0, "name": "4035cf132be0bc94b688d4997af179f9", "bike_id": "4035cf132be0bc94b688d4997af179f9"}, {"is_disabled": 0, "is_reserved": 0, "type": "electric_scooter", "lon": -77.016618, "fusion_lon": 0.0, "lat": 38.881177666666666, "rental_uris": {"android": "https://dc.lft.to/lastmile_qr_scan", "ios": "https://dc.lft.to/lastmile_qr_scan"}, "fusion_lat": 0.0, "name": "28763f7415a686f3720f2bb00a10ea02", "bike_id": "28763f7415a686f3720f2bb00a10ea02"}, {"is_disabled": 0, "is_reserved": 0, "type": "electric_scooter", "lon": -76.9895275, "fusion_lon": 0.0, "lat": 38.84401116666667, "rental_uris": {"android": "https://dc.lft.to/lastmile_qr_scan", "ios": "https://dc.lft.to/lastmile_qr_scan"}, "fusion_lat": 0.0, "name": "0a5fa49e86fd07dcd3fcc92945340082", "bike_id": "0a5fa49e86fd07dcd3fcc92945340082"}, {"is_disabled": 0, "is_reserved": 0, "type": "electric_scooter", "lon": -77.06351766666667, "fusion_lon": 0.0, "lat": 38.944397333333335, "rental_uris": {"android": "https://dc.lft.to/lastmile_qr_scan", "ios": "https://dc.lft.to/lastmile_qr_scan"}, "fusion_lat": 0.0, "name": "1407f8d412aa8782ffa4d86bcf059049", "bike_id": "1407f8d412aa8782ffa4d86bcf059049"}, {"is_disabled": 0, "is_reserved": 0, "type": "electric_scooter", "lon": -77.02199433333334, "fusion_lon": 0.0, "lat": 38.92230833333333, "rental_uris": {"android": "https://dc.lft.to/lastmile_qr_scan", "ios": "https://dc.lft.to/lastmile_qr_scan"}, "fusion_lat": 0.0, "name": "f50a732d0df6d11983f383fdff33a097", "bike_id": "f50a732d0df6d11983f383fdff33a097"}, {"is_disabled": 0, "is_reserved": 0, "type": "electric_scooter", "lon": -77.09100983333333, "fusion_lon": 0.0, "lat": 38.956349333333335, "rental_uris": {"android": "https://dc.lft.to/lastmile_qr_scan", "ios": "https://dc.lft.to/lastmile_qr_scan"}, "fusion_lat": 0.0, "name": "31b1c679621e947a02cce792c4070a04", "bike_id": "31b1c679621e947a02cce792c4070a04"}, {"is_disabled": 0, "is_reserved": 0, "type": "electric_scooter", "lon": -77.04373283333334, "fusion_lon": 0.0, "lat": 38.925731999999996, "rental_uris": {"android": "https://dc.lft.to/lastmile_qr_scan", "ios": "https://dc.lft.to/lastmile_qr_scan"}, "fusion_lat": 0.0, "name": "93d6aeed285dc451b80b14378c21c793", "bike_id": "93d6aeed285dc451b80b14378c21c793"}, {"is_disabled": 0, "is_reserved": 0, "type": "electric_scooter", "lon": -77.04612116666667, "fusion_lon": 0.0, "lat": 38.905793833333334, "rental_uris": {"android": "https://dc.lft.to/lastmile_qr_scan", "ios": "https://dc.lft.to/lastmile_qr_scan"}, "fusion_lat": 0.0, "name": "2d231f796f8620ecd25f984b29f09b65", "bike_id": "2d231f796f8620ecd25f984b29f09b65"}, {"is_disabled": 0, "is_reserved": 0, "type": "electric_scooter", "lon": -77.00920466666666, "fusion_lon": 0.0, "lat": 38.898396, "rental_uris": {"android": "https://dc.lft.to/lastmile_qr_scan", "ios": "https://dc.lft.to/lastmile_qr_scan"}, "fusion_lat": 0.0, "name": "b6d37e79ca5f091dc5ef9b56b30b2a64", "bike_id": "b6d37e79ca5f091dc5ef9b56b30b2a64"}, {"is_disabled": 0, "is_reserved": 0, "type": "electric_scooter", "lon": -76.9946205, "fusion_lon": 0.0, "lat": 38.861968166666664, "rental_uris": {"android": "https://dc.lft.to/lastmile_qr_scan", "ios": "https://dc.lft.to/lastmile_qr_scan"}, "fusion_lat": 0.0, "name": "8c34bff825ca2386f0b1e158f25da0cd", "bike_id": "8c34bff825ca2386f0b1e158f25da0cd"}, {"is_disabled": 0, "is_reserved": 0, "type": "electric_scooter", "lon": -77.00574516666667, "fusion_lon": 0.0, "lat": 38.885057833333335, "rental_uris": {"android": "https://dc.lft.to/lastmile_qr_scan", "ios": "https://dc.lft.to/lastmile_qr_scan"}, "fusion_lat": 0.0, "name": "71b6bf876ae2c333874e6de99f7e6ddf", "bike_id": "71b6bf876ae2c333874e6de99f7e6ddf"}, {"is_disabled": 0, "is_reserved": 0, "type": "electric_scooter", "lon": -77.03854133333333, "fusion_lon": 0.0, "lat": 38.91840466666667, "rental_uris": {"android": "https://dc.lft.to/lastmile_qr_scan", "ios": "https://dc.lft.to/lastmile_qr_scan"}, "fusion_lat": 0.0, "name": "0ca4a669b2d4dc1a6185c4a07b37f7eb", "bike_id": "0ca4a669b2d4dc1a6185c4a07b37f7eb"}, {"is_disabled": 0, "is_reserved": 0, "type": "electric_scooter", "lon": -77.0273415, "fusion_lon": 0.0, "lat": 38.9048675, "rental_uris": {"android": "https://dc.lft.to/lastmile_qr_scan", "ios": "https://dc.lft.to/lastmile_qr_scan"}, "fusion_lat": 0.0, "name": "c72e5c777f5df0faf3c5d26b77e53a77", "bike_id": "c72e5c777f5df0faf3c5d26b77e53a77"}, {"is_disabled": 0, "is_reserved": 0, "type": "electric_scooter", "lon": -77.0199735, "fusion_lon": 0.0, "lat": 38.966268, "rental_uris": {"android": "https://dc.lft.to/lastmile_qr_scan", "ios": "https://dc.lft.to/lastmile_qr_scan"}, "fusion_lat": 0.0, "name": "dd327dc8ccf42ca8dd201b20c7488b11", "bike_id": "dd327dc8ccf42ca8dd201b20c7488b11"}, {"is_disabled": 0, "is_reserved": 0, "type": "electric_scooter", "lon": -77.01514216666666, "fusion_lon": 0.0, "lat": 38.9103245, "rental_uris": {"android": "https://dc.lft.to/lastmile_qr_scan", "ios": "https://dc.lft.to/lastmile_qr_scan"}, "fusion_lat": 0.0, "name": "50bd2407c04a59f10a1e21233937ba32", "bike_id": "50bd2407c04a59f10a1e21233937ba32"}, {"is_disabled": 0, "is_reserved": 0, "type": "electric_scooter", "lon": -77.04581483333334, "fusion_lon": 0.0, "lat": 38.92417366666667, "rental_uris": {"android": "https://dc.lft.to/lastmile_qr_scan", "ios": "https://dc.lft.to/lastmile_qr_scan"}, "fusion_lat": 0.0, "name": "ec09cfb4cc66b2c984d8378cb0c87262", "bike_id": "ec09cfb4cc66b2c984d8378cb0c87262"}, {"is_disabled": 0, "is_reserved": 0, "type": "electric_scooter", "lon": -77.04233133333334, "fusion_lon": 0.0, "lat": 38.90562966666667, "rental_uris": {"android": "https://dc.lft.to/lastmile_qr_scan", "ios": "https://dc.lft.to/lastmile_qr_scan"}, "fusion_lat": 0.0, "name": "5b193c83e3825aec37e8621c6596f3c6", "bike_id": "5b193c83e3825aec37e8621c6596f3c6"}, {"is_disabled": 0, "is_reserved": 0, "type": "electric_scooter", "lon": -77.03206933333334, "fusion_lon": 0.0, "lat": 38.91538216666667, "rental_uris": {"android": "https://dc.lft.to/lastmile_qr_scan", "ios": "https://dc.lft.to/lastmile_qr_scan"}, "fusion_lat": 0.0, "name": "af3888249a3dbdf670237513eef1bdf8", "bike_id": "af3888249a3dbdf670237513eef1bdf8"}, {"is_disabled": 0, "is_reserved": 0, "type": "electric_scooter", "lon": -77.0271865, "fusion_lon": 0.0, "lat": 38.91099666666667, "rental_uris": {"android": "https://dc.lft.to/lastmile_qr_scan", "ios": "https://dc.lft.to/lastmile_qr_scan"}, "fusion_lat": 0.0, "name": "4a9130a21e5919d7a04f9f7c1f70b858", "bike_id": "4a9130a21e5919d7a04f9f7c1f70b858"}, {"is_disabled": 0, "is_reserved": 0, "type": "electric_bike", "lon": -77.07085516666666, "fusion_lon": 0.0, "lat": 38.90625033333333, "rental_uris": {"android": "https://dc.lft.to/lastmile_qr_scan", "ios": "https://dc.lft.to/lastmile_qr_scan"}, "fusion_lat": 0.0, "name": "416611f3219af0be1c2ce39e7cdbfa3b", "bike_id": "416611f3219af0be1c2ce39e7cdbfa3b"}, {"is_disabled": 0, "is_reserved": 0, "type": "electric_bike", "lon": -77.03895383333334, "fusion_lon": 0.0, "lat": 38.943923833333336, "rental_uris": {"android": "https://dc.lft.to/lastmile_qr_scan", "ios": "https://dc.lft.to/lastmile_qr_scan"}, "fusion_lat": 0.0, "name": "1dd6dd42c0c6efa5abcee8bcfc6044b1", "bike_id": "1dd6dd42c0c6efa5abcee8bcfc6044b1"}, {"is_disabled": 0, "is_reserved": 0, "type": "electric_scooter", "lon": -77.009168, "fusion_lon": 0.0, "lat": 38.896403166666666, "rental_uris": {"android": "https://dc.lft.to/lastmile_qr_scan", "ios": "https://dc.lft.to/lastmile_qr_scan"}, "fusion_lat": 0.0, "name": "dcd4d55a19171e71da89fb0d1c77d36a", "bike_id": "dcd4d55a19171e71da89fb0d1c77d36a"}, {"is_disabled": 0, "is_reserved": 0, "type": "electric_scooter", "lon": -77.04171716666667, "fusion_lon": 0.0, "lat": 38.92008633333333, "rental_uris": {"android": "https://dc.lft.to/lastmile_qr_scan", "ios": "https://dc.lft.to/lastmile_qr_scan"}, "fusion_lat": 0.0, "name": "b17d32c9c2a367d9a06d68605fc74fed", "bike_id": "b17d32c9c2a367d9a06d68605fc74fed"}, {"is_disabled": 0, "is_reserved": 0, "type": "electric_scooter", "lon": -77.031106, "fusion_lon": 0.0, "lat": 38.920296666666665, "rental_uris": {"android": "https://dc.lft.to/lastmile_qr_scan", "ios": "https://dc.lft.to/lastmile_qr_scan"}, "fusion_lat": 0.0, "name": "3076fbbdd532736ee7d2b020e040186c", "bike_id": "3076fbbdd532736ee7d2b020e040186c"}, {"is_disabled": 0, "is_reserved": 0, "type": "electric_scooter", "lon": -77.036139, "fusion_lon": 0.0, "lat": 38.9233335, "rental_uris": {"android": "https://dc.lft.to/lastmile_qr_scan", "ios": "https://dc.lft.to/lastmile_qr_scan"}, "fusion_lat": 0.0, "name": "bb58bbace0e2dafc9db9c55359574c24", "bike_id": "bb58bbace0e2dafc9db9c55359574c24"}, {"is_disabled": 0, "is_reserved": 0, "type": "electric_scooter", "lon": -77.03704766666667, "fusion_lon": 0.0, "lat": 38.92643066666667, "rental_uris": {"android": "https://dc.lft.to/lastmile_qr_scan", "ios": "https://dc.lft.to/lastmile_qr_scan"}, "fusion_lat": 0.0, "name": "405ccc0508bf36b10cab3e61da35e934", "bike_id": "405ccc0508bf36b10cab3e61da35e934"}, {"is_disabled": 0, "is_reserved": 0, "type": "electric_bike", "lon": -77.04898916666667, "fusion_lon": 0.0, "lat": 38.87494733333333, "rental_uris": {"android": "https://dc.lft.to/lastmile_qr_scan", "ios": "https://dc.lft.to/lastmile_qr_scan"}, "fusion_lat": 0.0, "name": "0f2b96c91fb27794cf1c160613895619", "bike_id": "0f2b96c91fb27794cf1c160613895619"}, {"is_disabled": 0, "is_reserved": 0, "type": "electric_scooter", "lon": -77.02822483333334, "fusion_lon": 0.0, "lat": 38.88579133333333, "rental_uris": {"android": "https://dc.lft.to/lastmile_qr_scan", "ios": "https://dc.lft.to/lastmile_qr_scan"}, "fusion_lat": 0.0, "name": "e28318eb43e92267b04d0b01827b2552", "bike_id": "e28318eb43e92267b04d0b01827b2552"}, {"is_disabled": 0, "is_reserved": 0, "type": "electric_scooter", "lon": -77.03832333333334, "fusion_lon": 0.0, "lat": 38.9148605, "rental_uris": {"android": "https://dc.lft.to/lastmile_qr_scan", "ios": "https://dc.lft.to/lastmile_qr_scan"}, "fusion_lat": 0.0, "name": "da850797aece91214d4e241ae73949fa", "bike_id": "da850797aece91214d4e241ae73949fa"}, {"is_disabled": 0, "is_reserved": 0, "type": "electric_scooter", "lon": -77.00325683333334, "fusion_lon": 0.0, "lat": 38.90728333333333, "rental_uris": {"android": "https://dc.lft.to/lastmile_qr_scan", "ios": "https://dc.lft.to/lastmile_qr_scan"}, "fusion_lat": 0.0, "name": "bf6448fabaa8e7be77595c39bef35457", "bike_id": "bf6448fabaa8e7be77595c39bef35457"}, {"is_disabled": 0, "is_reserved": 0, "type": "electric_scooter", "lon": -77.028031, "fusion_lon": 0.0, "lat": 38.911010166666664, "rental_uris": {"android": "https://dc.lft.to/lastmile_qr_scan", "ios": "https://dc.lft.to/lastmile_qr_scan"}, "fusion_lat": 0.0, "name": "2dde4b18d806234e0b9768af2951b73e", "bike_id": "2dde4b18d806234e0b9768af2951b73e"}, {"is_disabled": 0, "is_reserved": 0, "type": "electric_scooter", "lon": -77.03361616666666, "fusion_lon": 0.0, "lat": 38.90213116666666, "rental_uris": {"android": "https://dc.lft.to/lastmile_qr_scan", "ios": "https://dc.lft.to/lastmile_qr_scan"}, "fusion_lat": 0.0, "name": "8d063553fc2129afc688315fc72f2056", "bike_id": "8d063553fc2129afc688315fc72f2056"}, {"is_disabled": 0, "is_reserved": 0, "type": "electric_scooter", "lon": -77.0352695, "fusion_lon": 0.0, "lat": 38.92149833333333, "rental_uris": {"android": "https://dc.lft.to/lastmile_qr_scan", "ios": "https://dc.lft.to/lastmile_qr_scan"}, "fusion_lat": 0.0, "name": "fb57e968b2eaee2a89a4cc634677fa78", "bike_id": "fb57e968b2eaee2a89a4cc634677fa78"}, {"is_disabled": 0, "is_reserved": 0, "type": "electric_scooter", "lon": -77.02929416666667, "fusion_lon": 0.0, "lat": 38.91413166666667, "rental_uris": {"android": "https://dc.lft.to/lastmile_qr_scan", "ios": "https://dc.lft.to/lastmile_qr_scan"}, "fusion_lat": 0.0, "name": "a9dd26ed551431f63a2f49b6c1d6c6d9", "bike_id": "a9dd26ed551431f63a2f49b6c1d6c6d9"}, {"is_disabled": 0, "is_reserved": 0, "type": "electric_scooter", "lon": -77.03506716666666, "fusion_lon": 0.0, "lat": 38.92330716666667, "rental_uris": {"android": "https://dc.lft.to/lastmile_qr_scan", "ios": "https://dc.lft.to/lastmile_qr_scan"}, "fusion_lat": 0.0, "name": "df6ef1d1b784b816e96ae2329e349da6", "bike_id": "df6ef1d1b784b816e96ae2329e349da6"}, {"is_disabled": 0, "is_reserved": 0, "type": "electric_scooter", "lon": -77.04336166666667, "fusion_lon": 0.0, "lat": 38.892287833333334, "rental_uris": {"android": "https://dc.lft.to/lastmile_qr_scan", "ios": "https://dc.lft.to/lastmile_qr_scan"}, "fusion_lat": 0.0, "name": "908968865ca901a38ae46be4d2b91fe8", "bike_id": "908968865ca901a38ae46be4d2b91fe8"}, {"is_disabled": 0, "is_reserved": 0, "type": "electric_bike", "lon": -77.1003025, "fusion_lon": 0.0, "lat": 38.990655833333335, "rental_uris": {"android": "https://dc.lft.to/lastmile_qr_scan", "ios": "https://dc.lft.to/lastmile_qr_scan"}, "fusion_lat": 0.0, "name": "6ee0f3a33f2aaefec73dab00b54074ac", "bike_id": "6ee0f3a33f2aaefec73dab00b54074ac"}, {"is_disabled": 0, "is_reserved": 0, "type": "electric_scooter", "lon": -77.0141685, "fusion_lon": 0.0, "lat": 38.92831416666667, "rental_uris": {"android": "https://dc.lft.to/lastmile_qr_scan", "ios": "https://dc.lft.to/lastmile_qr_scan"}, "fusion_lat": 0.0, "name": "aafeb9285e1ac30a32e60900e6cf02b6", "bike_id": "aafeb9285e1ac30a32e60900e6cf02b6"}, {"is_disabled": 0, "is_reserved": 0, "type": "electric_scooter", "lon": -77.02154516666667, "fusion_lon": 0.0, "lat": 38.92602633333333, "rental_uris": {"android": "https://dc.lft.to/lastmile_qr_scan", "ios": "https://dc.lft.to/lastmile_qr_scan"}, "fusion_lat": 0.0, "name": "32782fba7961f1f2819aa1a732ca190d", "bike_id": "32782fba7961f1f2819aa1a732ca190d"}, {"is_disabled": 0, "is_reserved": 0, "type": "electric_scooter", "lon": -77.0057905, "fusion_lon": 0.0, "lat": 38.87517316666667, "rental_uris": {"android": "https://dc.lft.to/lastmile_qr_scan", "ios": "https://dc.lft.to/lastmile_qr_scan"}, "fusion_lat": 0.0, "name": "03aa43fc510132f803a3d6e950018e2a", "bike_id": "03aa43fc510132f803a3d6e950018e2a"}, {"is_disabled": 0, "is_reserved": 0, "type": "electric_scooter", "lon": -77.0334115, "fusion_lon": 0.0, "lat": 38.96797566666667, "rental_uris": {"android": "https://dc.lft.to/lastmile_qr_scan", "ios": "https://dc.lft.to/lastmile_qr_scan"}, "fusion_lat": 0.0, "name": "61c0031412d4dfe5653781edebdf7197", "bike_id": "61c0031412d4dfe5653781edebdf7197"}, {"is_disabled": 0, "is_reserved": 0, "type": "electric_bike", "lon": -76.87494033333333, "fusion_lon": 0.0, "lat": 38.990915, "rental_uris": {"android": "https://dc.lft.to/lastmile_qr_scan", "ios": "https://dc.lft.to/lastmile_qr_scan"}, "fusion_lat": 0.0, "name": "71702f581bbc9cbe2f840e622a6488d3", "bike_id": "71702f581bbc9cbe2f840e622a6488d3"}, {"is_disabled": 0, "is_reserved": 0, "type": "electric_scooter", "lon": -77.0179175, "fusion_lon": 0.0, "lat": 38.94117833333333, "rental_uris": {"android": "https://dc.lft.to/lastmile_qr_scan", "ios": "https://dc.lft.to/lastmile_qr_scan"}, "fusion_lat": 0.0, "name": "2164a05e7b8019fd92a1c8c7a1dffd70", "bike_id": "2164a05e7b8019fd92a1c8c7a1dffd70"}, {"is_disabled": 0, "is_reserved": 0, "type": "electric_scooter", "lon": -77.01388616666667, "fusion_lon": 0.0, "lat": 38.92859833333333, "rental_uris": {"android": "https://dc.lft.to/lastmile_qr_scan", "ios": "https://dc.lft.to/lastmile_qr_scan"}, "fusion_lat": 0.0, "name": "761734fe4326f132b83f7ca01331c5ce", "bike_id": "761734fe4326f132b83f7ca01331c5ce"}, {"is_disabled": 0, "is_reserved": 0, "type": "electric_bike", "lon": -76.97333066666667, "fusion_lon": 0.0, "lat": 38.850651, "rental_uris": {"android": "https://dc.lft.to/lastmile_qr_scan", "ios": "https://dc.lft.to/lastmile_qr_scan"}, "fusion_lat": 0.0, "name": "2b3fd6b17684910c1caa751478e97783", "bike_id": "2b3fd6b17684910c1caa751478e97783"}, {"is_disabled": 0, "is_reserved": 0, "type": "electric_scooter", "lon": -77.02484616666666, "fusion_lon": 0.0, "lat": 38.916162, "rental_uris": {"android": "https://dc.lft.to/lastmile_qr_scan", "ios": "https://dc.lft.to/lastmile_qr_scan"}, "fusion_lat": 0.0, "name": "fde5acb1c581faf6282d6b96930d363d", "bike_id": "fde5acb1c581faf6282d6b96930d363d"}, {"is_disabled": 0, "is_reserved": 0, "type": "electric_scooter", "lon": -77.03470216666666, "fusion_lon": 0.0, "lat": 38.902647, "rental_uris": {"android": "https://dc.lft.to/lastmile_qr_scan", "ios": "https://dc.lft.to/lastmile_qr_scan"}, "fusion_lat": 0.0, "name": "34f46a0d71014655518a8055f6f961cd", "bike_id": "34f46a0d71014655518a8055f6f961cd"}, {"is_disabled": 0, "is_reserved": 0, "type": "electric_scooter", "lon": -77.0401895, "fusion_lon": 0.0, "lat": 38.9218995, "rental_uris": {"android": "https://dc.lft.to/lastmile_qr_scan", "ios": "https://dc.lft.to/lastmile_qr_scan"}, "fusion_lat": 0.0, "name": "9287f54ee2367415e6ae9b74a0d55dc3", "bike_id": "9287f54ee2367415e6ae9b74a0d55dc3"}, {"is_disabled": 0, "is_reserved": 0, "type": "electric_scooter", "lon": -77.02954316666667, "fusion_lon": 0.0, "lat": 38.89666533333333, "rental_uris": {"android": "https://dc.lft.to/lastmile_qr_scan", "ios": "https://dc.lft.to/lastmile_qr_scan"}, "fusion_lat": 0.0, "name": "2c5ae9b1876cc5b2f99eff2480a52b1e", "bike_id": "2c5ae9b1876cc5b2f99eff2480a52b1e"}, {"is_disabled": 0, "is_reserved": 0, "type": "electric_scooter", "lon": -77.04237166666667, "fusion_lon": 0.0, "lat": 38.9340965, "rental_uris": {"android": "https://dc.lft.to/lastmile_qr_scan", "ios": "https://dc.lft.to/lastmile_qr_scan"}, "fusion_lat": 0.0, "name": "41de6f18a0d0594981b0cbafbece531d", "bike_id": "41de6f18a0d0594981b0cbafbece531d"}, {"is_disabled": 0, "is_reserved": 0, "type": "electric_scooter", "lon": -77.0412575, "fusion_lon": 0.0, "lat": 38.9234405, "rental_uris": {"android": "https://dc.lft.to/lastmile_qr_scan", "ios": "https://dc.lft.to/lastmile_qr_scan"}, "fusion_lat": 0.0, "name": "fe1c54b8192da025207258782914cc87", "bike_id": "fe1c54b8192da025207258782914cc87"}, {"is_disabled": 0, "is_reserved": 0, "type": "electric_scooter", "lon": -77.05090783333333, "fusion_lon": 0.0, "lat": 38.92343133333333, "rental_uris": {"android": "https://dc.lft.to/lastmile_qr_scan", "ios": "https://dc.lft.to/lastmile_qr_scan"}, "fusion_lat": 0.0, "name": "79060fae499277864ff49c55da9bd5ed", "bike_id": "79060fae499277864ff49c55da9bd5ed"}, {"is_disabled": 0, "is_reserved": 0, "type": "electric_bike", "lon": -76.9892015, "fusion_lon": 0.0, "lat": 38.86736, "rental_uris": {"android": "https://dc.lft.to/lastmile_qr_scan", "ios": "https://dc.lft.to/lastmile_qr_scan"}, "fusion_lat": 0.0, "name": "bfcd1f3abddfec762e4ca6246bba33ba", "bike_id": "bfcd1f3abddfec762e4ca6246bba33ba"}, {"is_disabled": 0, "is_reserved": 0, "type": "electric_scooter", "lon": -77.04174283333333, "fusion_lon": 0.0, "lat": 38.90527983333333, "rental_uris": {"android": "https://dc.lft.to/lastmile_qr_scan", "ios": "https://dc.lft.to/lastmile_qr_scan"}, "fusion_lat": 0.0, "name": "ad65c901a124dd04f71a810d35aa38b0", "bike_id": "ad65c901a124dd04f71a810d35aa38b0"}, {"is_disabled": 0, "is_reserved": 0, "type": "electric_scooter", "lon": -77.03213433333333, "fusion_lon": 0.0, "lat": 38.911270333333334, "rental_uris": {"android": "https://dc.lft.to/lastmile_qr_scan", "ios": "https://dc.lft.to/lastmile_qr_scan"}, "fusion_lat": 0.0, "name": "e5a531ef98b4266d76dc61abe575c4c8", "bike_id": "e5a531ef98b4266d76dc61abe575c4c8"}, {"is_disabled": 0, "is_reserved": 0, "type": "electric_scooter", "lon": -77.02083016666667, "fusion_lon": 0.0, "lat": 38.89752383333333, "rental_uris": {"android": "https://dc.lft.to/lastmile_qr_scan", "ios": "https://dc.lft.to/lastmile_qr_scan"}, "fusion_lat": 0.0, "name": "11118521f0863bf408681d33c500c356", "bike_id": "11118521f0863bf408681d33c500c356"}, {"is_disabled": 0, "is_reserved": 0, "type": "electric_scooter", "lon": -77.02727283333333, "fusion_lon": 0.0, "lat": 38.904914833333336, "rental_uris": {"android": "https://dc.lft.to/lastmile_qr_scan", "ios": "https://dc.lft.to/lastmile_qr_scan"}, "fusion_lat": 0.0, "name": "8d534ff738b3e32f84e065032a9b4351", "bike_id": "8d534ff738b3e32f84e065032a9b4351"}, {"is_disabled": 0, "is_reserved": 0, "type": "electric_scooter", "lon": -77.044182, "fusion_lon": 0.0, "lat": 38.90952733333334, "rental_uris": {"android": "https://dc.lft.to/lastmile_qr_scan", "ios": "https://dc.lft.to/lastmile_qr_scan"}, "fusion_lat": 0.0, "name": "8e79dc040205d0158ce09dfad38998df", "bike_id": "8e79dc040205d0158ce09dfad38998df"}, {"is_disabled": 0, "is_reserved": 0, "type": "electric_bike", "lon": -76.98489083333334, "fusion_lon": 0.0, "lat": 38.8793745, "rental_uris": {"android": "https://dc.lft.to/lastmile_qr_scan", "ios": "https://dc.lft.to/lastmile_qr_scan"}, "fusion_lat": 0.0, "name": "ec718a54bbc55acc0b48fcc02c25abad", "bike_id": "ec718a54bbc55acc0b48fcc02c25abad"}, {"is_disabled": 0, "is_reserved": 0, "type": "electric_scooter", "lon": -77.044838, "fusion_lon": 0.0, "lat": 38.913751166666664, "rental_uris": {"android": "https://dc.lft.to/lastmile_qr_scan", "ios": "https://dc.lft.to/lastmile_qr_scan"}, "fusion_lat": 0.0, "name": "566f39cd3ca5c786eb0b24bdceffa8a3", "bike_id": "566f39cd3ca5c786eb0b24bdceffa8a3"}, {"is_disabled": 0, "is_reserved": 0, "type": "electric_scooter", "lon": -77.04041966666666, "fusion_lon": 0.0, "lat": 38.90463333333334, "rental_uris": {"android": "https://dc.lft.to/lastmile_qr_scan", "ios": "https://dc.lft.to/lastmile_qr_scan"}, "fusion_lat": 0.0, "name": "e0cd29e51202f72edca0cb48b69ef3be", "bike_id": "e0cd29e51202f72edca0cb48b69ef3be"}, {"is_disabled": 0, "is_reserved": 0, "type": "electric_scooter", "lon": -77.03882766666666, "fusion_lon": 0.0, "lat": 38.92256666666667, "rental_uris": {"android": "https://dc.lft.to/lastmile_qr_scan", "ios": "https://dc.lft.to/lastmile_qr_scan"}, "fusion_lat": 0.0, "name": "01c3df906e2886dd2e2a01b1b9b208be", "bike_id": "01c3df906e2886dd2e2a01b1b9b208be"}, {"is_disabled": 0, "is_reserved": 0, "type": "electric_scooter", "lon": -77.0217885, "fusion_lon": 0.0, "lat": 38.89903233333333, "rental_uris": {"android": "https://dc.lft.to/lastmile_qr_scan", "ios": "https://dc.lft.to/lastmile_qr_scan"}, "fusion_lat": 0.0, "name": "4485b757526d641f926b8dd60c623be5", "bike_id": "4485b757526d641f926b8dd60c623be5"},