{"data": {"bikes": [{"is_reserved": 0, "type": "electric_scooter", "bike_id": "ec865da8f74b001db08095377ef06b23", "lat": 38.92073383333334, "lon": -77.03212616666667, "rental_uris": {"android": "https://dc.lft.to/lastmile_qr_scan", "ios": "https://dc.lft.to/lastmile_qr_scan"}, "is_disabled": 0, "fusion_lat": 0.0, "name": "ec865da8f74b001db08095377ef06b23", "fusion_lon": 0.0}, {"is_reserved": 0, "type": "electric_scooter", "bike_id": "0919ebbcb7e123d53605a0f80add5234", "lat": 38.9155645, "lon": -77.03102033333333, "rental_uris": {"android": "https://dc.lft.to/lastmile_qr_scan", "ios": "https://dc.lft.to/lastmile_qr_scan"}, "is_disabled": 0, "fusion_lat": 0.0, "name": "0919ebbcb7e123d53605a0f80add5234", "fusion_lon": 0.0}, {"is_reserved": 0, "type": "electric_scooter", "bike_id": "abcbb213d0a731e494c43be4d09b93e6", "lat": 38.916876, "lon": -77.02889366666666, "rental_uris": {"android": "https://dc.lft.to/lastmile_qr_scan", "ios": "https://dc.lft.to/lastmile_qr_scan"}, "is_disabled": 0, "fusion_lat": 0.0, "name": "abcbb213d0a731e494c43be4d09b93e6", "fusion_lon": 0.0}, {"is_reserved": 0, "type": "electric_scooter", "bike_id": "6c791d5469ce74ab4c874f7486d331f6", "lat": 38.93406816666667, "lon": -77.03990983333334, "rental_uris": {"android": "https://dc.lft.to/lastmile_qr_scan", "ios": "https://dc.lft.to/lastmile_qr_scan"}, "is_disabled": 0, "fusion_lat": 0.0, "name": "6c791d5469ce74ab4c874f7486d331f6", "fusion_lon": 0.0}, {"is_reserved": 0, "type": "electric_scooter", "bike_id": "aa9a707aadb870c896a5d064d075fae7", "lat": 38.89848966666667, "lon": -77.02494016666667, "rental_uris": {"android": "https://dc.lft.to/lastmile_qr_scan", "ios": "https://dc.lft.to/lastmile_qr_scan"}, "is_disabled": 0, "fusion_lat": 0.0, "name": "aa9a707aadb870c896a5d064d075fae7", "fusion_lon": 0.0}, {"is_reserved": 0, "type": "electric_scooter", "bike_id": "9e76dc841c02ebf1ef0d7150584b90a5", "lat": 38.887276166666666, "lon": -76.9837465, "rental_uris": {"android": "https://dc.lft.to/lastmile_qr_scan", "ios": "https://dc.lft.to/lastmile_qr_scan"}, "is_disabled": 0, "fusion_lat": 0.0, "name": "9e76dc841c02ebf1ef0d7150584b90a5", "fusion_lon": 0.0}, {"is_reserved": 0, "type": "electric_scooter", "bike_id": "244537a4f0d16c5d69b1c6f1b87b781f", "lat": 38.919446, "lon": -77.04796116666667, "rental_uris": {"android": "https://dc.lft.to/lastmile_qr_scan", "ios": "https://dc.lft.to/lastmile_qr_scan"}, "is_disabled": 0, "fusion_lat": 0.0, "name": "244537a4f0d16c5d69b1c6f1b87b781f", "fusion_lon": 0.0}, {"is_reserved": 0, "type": "electric_scooter", "bike_id": "0781d8a2ffa20c7e0f6c536305f63995", "lat": 38.9308395, "lon": -77.02805616666667, "rental_uris": {"android": "https://dc.lft.to/lastmile_qr_scan", "ios": "https://dc.lft.to/lastmile_qr_scan"}, "is_disabled": 0, "fusion_lat": 0.0, "name": "0781d8a2ffa20c7e0f6c536305f63995", "fusion_lon": 0.0}, {"is_reserved": 0, "type": "electric_scooter", "bike_id": "74389ff70a9d5ebadd90611d400ff957", "lat": 38.889918, "lon": -77.00077283333333, "rental_uris": {"android": "https://dc.lft.to/lastmile_qr_scan", "ios": "https://dc.lft.to/lastmile_qr_scan"}, "is_disabled": 0, "fusion_lat": 0.0, "name": "74389ff70a9d5ebadd90611d400ff957", "fusion_lon": 0.0}, {"is_reserved": 0, "type": "electric_scooter", "bike_id": "1d1aab7b4a3b3fce9a3aa8194c1eade9", "lat": 38.925731, "lon": -76.99503783333333, "rental_uris": {"android": "https://dc.lft.to/lastmile_qr_scan", "ios": "https://dc.lft.to/lastmile_qr_scan"}, "is_disabled": 0, "fusion_lat": 0.0, "name": "1d1aab7b4a3b3fce9a3aa8194c1eade9", "fusion_lon": 0.0}, {"is_reserved": 0, "type": "electric_scooter", "bike_id": "56ee79c8d8da8d26af3e059dc377b091", "lat": 38.904066, "lon": -77.0677165, "rental_uris": {"android": "https://dc.lft.to/lastmile_qr_scan", "ios": "https://dc.lft.to/lastmile_qr_scan"}, "is_disabled": 0, "fusion_lat": 0.0, "name": "56ee79c8d8da8d26af3e059dc377b091", "fusion_lon": 0.0}, {"is_reserved": 0, "type": "electric_scooter", "bike_id": "d374c89e5a60f79353894ff31319aa90", "lat": 38.89937583333333, "lon": -77.0146155, "rental_uris": {"android": "https://dc.lft.to/lastmile_qr_scan", "ios": "https://dc.lft.to/lastmile_qr_scan"}, "is_disabled": 0, "fusion_lat": 0.0, "name": "d374c89e5a60f79353894ff31319aa90", "fusion_lon": 0.0}, {"is_reserved": 0, "type": "electric_scooter", "bike_id": "efcf142599780d6fdd0f1855b2d0909d", "lat": 38.923178166666666, "lon": -77.04129516666667, "rental_uris": {"android": "https://dc.lft.to/lastmile_qr_scan", "ios": "https://dc.lft.to/lastmile_qr_scan"}, "is_disabled": 0, "fusion_lat": 0.0, "name": "efcf142599780d6fdd0f1855b2d0909d", "fusion_lon": 0.0}, {"is_reserved": 0, "type": "electric_scooter", "bike_id": "f82dcf77da129fed271710ef0b65fee2", "lat": 38.916233166666665, "lon": -77.04866666666666, "rental_uris": {"android": "https://dc.lft.to/lastmile_qr_scan", "ios": "https://dc.lft.to/lastmile_qr_scan"}, "is_disabled": 0, "fusion_lat": 0.0, "name": "f82dcf77da129fed271710ef0b65fee2", "fusion_lon": 0.0}, {"is_reserved": 0, "type": "electric_scooter", "bike_id": "efde6f22cff74e2b5b95abc991932d8e", "lat": 38.920843, "lon": -77.01375716666666, "rental_uris": {"android": "https://dc.lft.to/lastmile_qr_scan", "ios": "https://dc.lft.to/lastmile_qr_scan"}, "is_disabled": 0, "fusion_lat": 0.0, "name": "efde6f22cff74e2b5b95abc991932d8e", "fusion_lon": 0.0}, {"is_reserved": 0, "type": "electric_scooter", "bike_id": "5cc3f1d31759c2e6584caeb4e38a9412", "lat": 38.90194533333333, "lon": -77.0215395, "rental_uris": {"android": "https://dc.lft.to/lastmile_qr_scan", "ios": "https://dc.lft.to/lastmile_qr_scan"}, "is_disabled": 0, "fusion_lat": 0.0, "name": "5cc3f1d31759c2e6584caeb4e38a9412", "fusion_lon": 0.0}, {"is_reserved": 0, "type": "electric_bike", "bike_id": "a0bad054bdc4b8f84928b13bcc3b928e", "lat": 38.899564166666664, "lon": -76.98566383333333, "rental_uris": {"android": "https://dc.lft.to/lastmile_qr_scan", "ios": "https://dc.lft.to/lastmile_qr_scan"}, "is_disabled": 0, "fusion_lat": 0.0, "name": "a0bad054bdc4b8f84928b13bcc3b928e", "fusion_lon": 0.0}, {"is_reserved": 0, "type": "electric_scooter", "bike_id": "53a4f6ff157cf1992719085c72d706a8", "lat": 38.893778, "lon": -77.02830816666666, "rental_uris": {"android": "https://dc.lft.to/lastmile_qr_scan", "ios": "https://dc.lft.to/lastmile_qr_scan"}, "is_disabled": 0, "fusion_lat": 0.0, "name": "53a4f6ff157cf1992719085c72d706a8", "fusion_lon": 0.0}, {"is_reserved": 0, "type": "electric_bike", "bike_id": "03ef8d207d5c339592f3d1d5b5da4526", "lat": 38.88688583333333, "lon": -76.99016866666666, "rental_uris": {"android": "https://dc.lft.to/lastmile_qr_scan", "ios": "https://dc.lft.to/lastmile_qr_scan"}, "is_disabled": 0, "fusion_lat": 0.0, "name": "03ef8d207d5c339592f3d1d5b5da4526", "fusion_lon": 0.0}, {"is_reserved": 0, "type": "electric_bike", "bike_id": "5d2a2a4b377fb5b4e3f19534f98cd907", "lat": 38.94564616666667, "lon": -76.95840233333334, "rental_uris": {"android": "https://dc.lft.to/lastmile_qr_scan", "ios": "https://dc.lft.to/lastmile_qr_scan"}, "is_disabled": 0, "fusion_lat": 0.0, "name": "5d2a2a4b377fb5b4e3f19534f98cd907", "fusion_lon": 0.0}, {"is_reserved": 0, "type": "electric_scooter", "bike_id": "77f9b2315eb9dda040afa0b2fd6a27e0", "lat": 38.879301166666664, "lon": -77.01660233333334, "rental_uris": {"android": "https://dc.lft.to/lastmile_qr_scan", "ios": "https://dc.lft.to/lastmile_qr_scan"}, "is_disabled": 0, "fusion_lat": 0.0, "name": "77f9b2315eb9dda040afa0b2fd6a27e0", "fusion_lon": 0.0}, {"is_reserved": 0, "type": "electric_scooter", "bike_id": "0cc86c206c9f538e95711853366ebccd", "lat": 38.8747165, "lon": -77.0054775, "rental_uris": {"android": "https://dc.lft.to/lastmile_qr_scan", "ios": "https://dc.lft.to/lastmile_qr_scan"}, "is_disabled": 0, "fusion_lat": 0.0, "name": "0cc86c206c9f538e95711853366ebccd", "fusion_lon": 0.0}, {"is_reserved": 0, "type": "electric_scooter", "bike_id": "ce61b3b7816573c3520df033fd65b01c", "lat": 38.89735616666667, "lon": -77.0216765, "rental_uris": {"android": "https://dc.lft.to/lastmile_qr_scan", "ios": "https://dc.lft.to/lastmile_qr_scan"}, "is_disabled": 0, "fusion_lat": 0.0, "name": "ce61b3b7816573c3520df033fd65b01c", "fusion_lon": 0.0}, {"is_reserved": 0, "type": "electric_scooter", "bike_id": "bb125cd0431d793882b59c4ba1bf86f9", "lat": 38.91927116666667, "lon": -77.0461995, "rental_uris": {"android": "https://dc.lft.to/lastmile_qr_scan", "ios": "https://dc.lft.to/lastmile_qr_scan"}, "is_disabled": 0, "fusion_lat": 0.0, "name": "bb125cd0431d793882b59c4ba1bf86f9", "fusion_lon": 0.0}, {"is_reserved": 0, "type": "electric_scooter", "bike_id": "aefff0ad46547e850f15d387d1d87291", "lat": 38.9079715, "lon": -77.0281115, "rental_uris": {"android": "https://dc.lft.to/lastmile_qr_scan", "ios": "https://dc.lft.to/lastmile_qr_scan"}, "is_disabled": 0, "fusion_lat": 0.0, "name": "aefff0ad46547e850f15d387d1d87291", "fusion_lon": 0.0}, {"is_reserved": 0, "type": "electric_scooter", "bike_id": "df0023d21596651a7f699a15befaa037", "lat": 38.8995515, "lon": -77.053896, "rental_uris": {"android": "https://dc.lft.to/lastmile_qr_scan", "ios": "https://dc.lft.to/lastmile_qr_scan"}, "is_disabled": 0, "fusion_lat": 0.0, "name": "df0023d21596651a7f699a15befaa037", "fusion_lon": 0.0}, {"is_reserved": 0, "type": "electric_scooter", "bike_id": "03479bdb5e4b883e2fa31edd23d39026", "lat": 38.9238225, "lon": -77.02887833333334, "rental_uris": {"android": "https://dc.lft.to/lastmile_qr_scan", "ios": "https://dc.lft.to/lastmile_qr_scan"}, "is_disabled": 0, "fusion_lat": 0.0, "name": "03479bdb5e4b883e2fa31edd23d39026", "fusion_lon": 0.0}, {"is_reserved": 0, "type": "electric_scooter", "bike_id": "be7bc099cf8e384c64b50ca4de4815ef", "lat": 38.90094416666667, "lon": -77.01879033333333, "rental_uris": {"android": "https://dc.lft.to/lastmile_qr_scan", "ios": "https://dc.lft.to/lastmile_qr_scan"}, "is_disabled": 0, "fusion_lat": 0.0, "name": "be7bc099cf8e384c64b50ca4de4815ef", "fusion_lon": 0.0}, {"is_reserved": 0, "type": "electric_bike", "bike_id": "2f86fb00858164f88e3c4d855c7c6181", "lat": 38.9587585, "lon": -76.970504, "rental_uris": {"android": "https://dc.lft.to/lastmile_qr_scan", "ios": "https://dc.lft.to/lastmile_qr_scan"}, "is_disabled": 0, "fusion_lat": 0.0, "name": "2f86fb00858164f88e3c4d855c7c6181", "fusion_lon": 0.0}, {"is_reserved": 0, "type": "electric_scooter", "bike_id": "19b3dc6261338ba0c421fc48e63d99dc", "lat": 38.90101833333333, "lon": -76.98103016666667, "rental_uris": {"android": "https://dc.lft.to/lastmile_qr_scan", "ios": "https://dc.lft.to/lastmile_qr_scan"}, "is_disabled": 0, "fusion_lat": 0.0, "name": "19b3dc6261338ba0c421fc48e63d99dc", "fusion_lon": 0.0}, {"is_reserved": 0, "type": "electric_scooter", "bike_id": "e3710ef8b7031de26d294c7a22373447", "lat": 38.896229166666664, "lon": -76.99728283333333, "rental_uris": {"android": "https://dc.lft.to/lastmile_qr_scan", "ios": "https://dc.lft.to/lastmile_qr_scan"}, "is_disabled": 0, "fusion_lat": 0.0, "name": "e3710ef8b7031de26d294c7a22373447", "fusion_lon": 0.0}, {"is_reserved": 0, "type": "electric_bike", "bike_id": "261920c7ab3d096e6d3cbed107d23f2f", "lat": 38.841055833333336, "lon": -77.08946933333333, "rental_uris": {"android": "https://dc.lft.to/lastmile_qr_scan", "ios": "https://dc.lft.to/lastmile_qr_scan"}, "is_disabled": 0, "fusion_lat": 0.0, "name": "261920c7ab3d096e6d3cbed107d23f2f", "fusion_lon": 0.0}, {"is_reserved": 0, "type": "electric_scooter", "bike_id": "e380fd16a739bba0bac22d148cdac9c3", "lat": 38.88768366666667, "lon": -76.99164166666667, "rental_uris": {"android": "https://dc.lft.to/lastmile_qr_scan", "ios": "https://dc.lft.to/lastmile_qr_scan"}, "is_disabled": 0, "fusion_lat": 0.0, "name": "e380fd16a739bba0bac22d148cdac9c3", "fusion_lon": 0.0}, {"is_reserved": 0, "type": "electric_scooter", "bike_id": "87b6c9ed97450b6f26baf9fced358398", "lat": 38.931213666666665, "lon": -77.02312216666667, "rental_uris": {"android": "https://dc.lft.to/lastmile_qr_scan", "ios": "https://dc.lft.to/lastmile_qr_scan"}, "is_disabled": 0, "fusion_lat": 0.0, "name": "87b6c9ed97450b6f26baf9fced358398", "fusion_lon": 0.0}, {"is_reserved": 0, "type": "electric_scooter", "bike_id": "4fc60d566f6e7a7dfc7ea024e75931f5", "lat": 38.93627516666667, "lon": -77.059017, "rental_uris": {"android": "https://dc.lft.to/lastmile_qr_scan", "ios": "https://dc.lft.to/lastmile_qr_scan"}, "is_disabled": 0, "fusion_lat": 0.0, "name": "4fc60d566f6e7a7dfc7ea024e75931f5", "fusion_lon": 0.0}, {"is_reserved": 0, "type": "electric_scooter", "bike_id": "229b3725c7799ce4a60e194676ff72ab", "lat": 38.9014595, "lon": -77.03452133333333, "rental_uris": {"android": "https://dc.lft.to/lastmile_qr_scan", "ios": "https://dc.lft.to/lastmile_qr_scan"}, "is_disabled": 0, "fusion_lat": 0.0, "name": "229b3725c7799ce4a60e194676ff72ab", "fusion_lon": 0.0}, {"is_reserved": 0, "type": "electric_scooter", "bike_id": "7b7f49262d0dd843637461de08f2e290", "lat": 38.9001695, "lon": -76.99168916666666, "rental_uris": {"android": "https://dc.lft.to/lastmile_qr_scan", "ios": "https://dc.lft.to/lastmile_qr_scan"}, "is_disabled": 0, "fusion_lat": 0.0, "name": "7b7f49262d0dd843637461de08f2e290", "fusion_lon": 0.0}, {"is_reserved": 0, "type": "electric_scooter", "bike_id": "41e38a1d794cd89a8bddca8736cf010c", "lat": 38.923972666666664, "lon": -77.05053383333333, "rental_uris": {"android": "https://dc.lft.to/lastmile_qr_scan", "ios": "https://dc.lft.to/lastmile_qr_scan"}, "is_disabled": 0, "fusion_lat": 0.0, "name": "41e38a1d794cd89a8bddca8736cf010c", "fusion_lon": 0.0}, {"is_reserved": 0, "type": "electric_scooter", "bike_id": "6ac27123c9cfcf7b54342d9d61962b70", "lat": 38.90226666666667, "lon": -77.05128416666666, "rental_uris": {"android": "https://dc.lft.to/lastmile_qr_scan", "ios": "https://dc.lft.to/lastmile_qr_scan"}, "is_disabled": 0, "fusion_lat": 0.0, "name": "6ac27123c9cfcf7b54342d9d61962b70", "fusion_lon": 0.0}, {"is_reserved": 0, "type": "electric_scooter", "bike_id": "7b4140968eb4422a098dac6dc338a5dc", "lat": 38.90261116666667, "lon": -77.04143583333334, "rental_uris": {"android": "https://dc.lft.to/lastmile_qr_scan", "ios": "https://dc.lft.to/lastmile_qr_scan"}, "is_disabled": 0, "fusion_lat": 0.0, "name": "7b4140968eb4422a098dac6dc338a5dc", "fusion_lon": 0.0}, {"is_reserved": 0, "type": "electric_scooter", "bike_id": "193defa200668a910eaa86fa5e8a15d3", "lat": 38.88303333333333, "lon": -76.94852683333333, "rental_uris": {"android": "https://dc.lft.to/lastmile_qr_scan", "ios": "https://dc.lft.to/lastmile_qr_scan"}, "is_disabled": 0, "fusion_lat": 0.0, "name": "193defa200668a910eaa86fa5e8a15d3", "fusion_lon": 0.0}, {"is_reserved": 0, "type": "electric_scooter", "bike_id": "3b339e2d4f34c47103ac489dd9b41fb3", "lat": 38.9100985, "lon": -76.994122, "rental_uris": {"android": "https://dc.lft.to/lastmile_qr_scan", "ios": "https://dc.lft.to/lastmile_qr_scan"}, "is_disabled": 0, "fusion_lat": 0.0, "name": "3b339e2d4f34c47103ac489dd9b41fb3", "fusion_lon": 0.0}, {"is_reserved": 0, "type": "electric_scooter", "bike_id": "379fc90b9a94709526a0ca790e4e88ce", "lat": 38.91240633333334, "lon": -77.03856966666666, "rental_uris": {"android": "https://dc.lft.to/lastmile_qr_scan", "ios": "https://dc.lft.to/lastmile_qr_scan"}, "is_disabled": 0, "fusion_lat": 0.0, "name": "379fc90b9a94709526a0ca790e4e88ce", "fusion_lon": 0.0}, {"is_reserved": 0, "type": "electric_scooter", "bike_id": "97b8c2853d6afb83ecf927450eb46f9a", "lat": 38.940091833333334, "lon": -77.02735183333333, "rental_uris": {"android": "https://dc.lft.to/lastmile_qr_scan", "ios": "https://dc.lft.to/lastmile_qr_scan"}, "is_disabled": 0, "fusion_lat": 0.0, "name": "97b8c2853d6afb83ecf927450eb46f9a", "fusion_lon": 0.0}, {"is_reserved": 0, "type": "electric_scooter", "bike_id": "aef9fb6ad34296b5ee27a2a957fd6466", "lat": 38.90564916666666, "lon": -76.9977295, "rental_uris": {"android": "https://dc.lft.to/lastmile_qr_scan", "ios": "https://dc.lft.to/lastmile_qr_scan"}, "is_disabled": 0, "fusion_lat": 0.0, "name": "aef9fb6ad34296b5ee27a2a957fd6466", "fusion_lon": 0.0}, {"is_reserved": 0, "type": "electric_scooter", "bike_id": "545264f4d70218997f5044689c229337", "lat": 38.94977433333333, "lon": -77.02446133333333, "rental_uris": {"android": "https://dc.lft.to/lastmile_qr_scan", "ios": "https://dc.lft.to/lastmile_qr_scan"}, "is_disabled": 0, "fusion_lat": 0.0, "name": "545264f4d70218997f5044689c229337", "fusion_lon": 0.0}, {"is_reserved": 0, "type": "electric_scooter", "bike_id": "7c44e4680a0c1edb54e60af9b6470fa5", "lat": 38.89953766666667, "lon": -77.053911, "rental_uris": {"android": "https://dc.lft.to/lastmile_qr_scan", "ios": "https://dc.lft.to/lastmile_qr_scan"}, "is_disabled": 0, "fusion_lat": 0.0, "name": "7c44e4680a0c1edb54e60af9b6470fa5", "fusion_lon": 0.0}, {"is_reserved": 0, "type": "electric_scooter", "bike_id": "14ba173a99f3eea9fb2490fc4f48ea34", "lat": 38.928743, "lon": -77.0344645, "rental_uris": {"android": "https://dc.lft.to/lastmile_qr_scan", "ios": "https://dc.lft.to/lastmile_qr_scan"}, "is_disabled": 0, "fusion_lat": 0.0, "name": "14ba173a99f3eea9fb2490fc4f48ea34", "fusion_lon": 0.0}, {"is_reserved": 0, "type": "electric_bike", "bike_id": "cc365595720c4bf9025b281e745c73cb", "lat": 38.95599083333333, "lon": -76.99532916666666, "rental_uris": {"android": "https://dc.lft.to/lastmile_qr_scan", "ios": "https://dc.lft.to/lastmile_qr_scan"}, "is_disabled": 0, "fusion_lat": 0.0, "name": "cc365595720c4bf9025b281e745c73cb", "fusion_lon": 0.0}, {"is_reserved": 0, "type": "electric_scooter", "bike_id": "975898ac8b5e8edd920e692a346b7acf", "lat": 38.904613, "lon": -77.0032835, "rental_uris": {"android": "https://dc.lft.to/lastmile_qr_scan", "ios": "https://dc.lft.to/lastmile_qr_scan"}, "is_disabled": 0, "fusion_lat": 0.0, "name": "975898ac8b5e8edd920e692a346b7acf", "fusion_lon": 0.0}, {"is_reserved": 0, "type": "electric_scooter", "bike_id": "29a0e1786e7ee4e30707b27a0576924c", "lat": 38.924484, "lon": -77.02031866666667, "rental_uris": {"android": "https://dc.lft.to/lastmile_qr_scan", "ios": "https://dc.lft.to/lastmile_qr_scan"}, "is_disabled": 0, "fusion_lat": 0.0, "name": "29a0e1786e7ee4e30707b27a0576924c", "fusion_lon": 0.0}, {"is_reserved": 0, "type": "electric_scooter", "bike_id": "8804723585d47ba82852c1ff4151f27a", "lat": 38.913207666666665, "lon": -77.014429, "rental_uris": {"android": "https://dc.lft.to/lastmile_qr_scan", "ios": "https://dc.lft.to/lastmile_qr_scan"}, "is_disabled": 0, "fusion_lat": 0.0, "name": "8804723585d47ba82852c1ff4151f27a", "fusion_lon": 0.0}, {"is_reserved": 0, "type": "electric_scooter", "bike_id": "6e11fd9a3f7ced3dc2065dbd2a36890c", "lat": 38.901045, "lon": -77.01610533333333, "rental_uris": {"android": "https://dc.lft.to/lastmile_qr_scan", "ios": "https://dc.lft.to/lastmile_qr_scan"}, "is_disabled": 0, "fusion_lat": 0.0, "name": "6e11fd9a3f7ced3dc2065dbd2a36890c", "fusion_lon": 0.0}, {"is_reserved": 0, "type": "electric_bike", "bike_id": "42c11e1550efa52e2fb5cac64c9c47c8", "lat": 38.908028333333334, "lon": -77.02385533333333, "rental_uris": {"android": "https://dc.lft.to/lastmile_qr_scan", "ios": "https://dc.lft.to/lastmile_qr_scan"}, "is_disabled": 0, "fusion_lat": 0.0, "name": "42c11e1550efa52e2fb5cac64c9c47c8", "fusion_lon": 0.0}, {"is_reserved": 0, "type": "electric_scooter", "bike_id": "98614e84121adddc3a0426b2e54ca340", "lat": 38.88749266666667, "lon": -77.01740083333334, "rental_uris": {"android": "https://dc.lft.to/lastmile_qr_scan", "ios": "https://dc.lft.to/lastmile_qr_scan"}, "is_disabled": 0, "fusion_lat": 0.0, "name": "98614e84121adddc3a0426b2e54ca340", "fusion_lon": 0.0}, {"is_reserved": 0, "type": "electric_scooter", "bike_id": "abc3b3ca72a3e772fe8ea456a136b9b1", "lat": 38.937841, "lon": -77.07449583333333, "rental_uris": {"android": "https://dc.lft.to/lastmile_qr_scan", "ios": "https://dc.lft.to/lastmile_qr_scan"}, "is_disabled": 0, "fusion_lat": 0.0, "name": "abc3b3ca72a3e772fe8ea456a136b9b1", "fusion_lon": 0.0}, {"is_reserved": 0, "type": "electric_scooter", "bike_id": "adf1b4ddd923c600f5def9272fff532a", "lat": 38.8545835, "lon": -76.97237333333334, "rental_uris": {"android": "https://dc.lft.to/lastmile_qr_scan", "ios": "https://dc.lft.to/lastmile_qr_scan"}, "is_disabled": 0, "fusion_lat": 0.0, "name": "adf1b4ddd923c600f5def9272fff532a", "fusion_lon": 0.0}, {"is_reserved": 0, "type": "electric_scooter", "bike_id": "2834eb42120724d1e1c77490b5aefe36", "lat": 38.92756583333333, "lon": -77.02307316666666, "rental_uris": {"android": "https://dc.lft.to/lastmile_qr_scan", "ios": "https://dc.lft.to/lastmile_qr_scan"}, "is_disabled": 0, "fusion_lat": 0.0, "name": "2834eb42120724d1e1c77490b5aefe36", "fusion_lon": 0.0}, {"is_reserved": 0, "type": "electric_scooter", "bike_id": "83d1267afed85d3d693ff288dd21a1a1", "lat": 38.907890333333334, "lon": -76.99975733333333, "rental_uris": {"android": "https://dc.lft.to/lastmile_qr_scan", "ios": "https://dc.lft.to/lastmile_qr_scan"}, "is_disabled": 0, "fusion_lat": 0.0, "name": "83d1267afed85d3d693ff288dd21a1a1", "fusion_lon": 0.0}, {"is_reserved": 0, "type": "electric_bike", "bike_id": "75c77869fe3bf80c1bdb4512075b1c6e", "lat": 38.88935383333333, "lon": -76.913273, "rental_uris": {"android": "https://dc.lft.to/lastmile_qr_scan", "ios": "https://dc.lft.to/lastmile_qr_scan"}, "is_disabled": 0, "fusion_lat": 0.0, "name": "75c77869fe3bf80c1bdb4512075b1c6e", "fusion_lon": 0.0}, {"is_reserved": 0, "type": "electric_scooter", "bike_id": "34c8ae6c8f7fd2b15825437ccf65561a", "lat": 38.901489833333336, "lon": -77.05134716666667, "rental_uris": {"android": "https://dc.lft.to/lastmile_qr_scan", "ios": "https://dc.lft.to/lastmile_qr_scan"}, "is_disabled": 0, "fusion_lat": 0.0, "name": "34c8ae6c8f7fd2b15825437ccf65561a", "fusion_lon": 0.0}, {"is_reserved": 0, "type": "electric_scooter", "bike_id": "d82d64ff2347a37c5420fbfe2bbc0acb", "lat": 38.907234, "lon": -77.02545333333333, "rental_uris": {"android": "https://dc.lft.to/lastmile_qr_scan", "ios": "https://dc.lft.to/lastmile_qr_scan"}, "is_disabled": 0, "fusion_lat": 0.0, "name": "d82d64ff2347a37c5420fbfe2bbc0acb", "fusion_lon": 0.0}, {"is_reserved": 0, "type": "electric_scooter", "bike_id": "8bddb5fd762710890840a240a73f846f", "lat": 38.904015666666666, "lon": -77.02735833333334, "rental_uris": {"android": "https://dc.lft.to/lastmile_qr_scan", "ios": "https://dc.lft.to/lastmile_qr_scan"}, "is_disabled": 0, "fusion_lat": 0.0, "name": "8bddb5fd762710890840a240a73f846f", "fusion_lon": 0.0}, {"is_reserved": 0, "type": "electric_scooter", "bike_id": "d76224abc156c526de75c4528b94a623", "lat": 38.92022333333333, "lon": -77.039741, "rental_uris": {"android": "https://dc.lft.to/lastmile_qr_scan", "ios": "https://dc.lft.to/lastmile_qr_scan"}, "is_disabled": 0, "fusion_lat": 0.0, "name": "d76224abc156c526de75c4528b94a623", "fusion_lon": 0.0}, {"is_reserved": 0, "type": "electric_scooter", "bike_id": "acbdb2473c6dfdf58eba05ebc563dcf1", "lat": 38.9071785, "lon": -77.0460685, "rental_uris": {"android": "https://dc.lft.to/lastmile_qr_scan", "ios": "https://dc.lft.to/lastmile_qr_scan"}, "is_disabled": 0, "fusion_lat": 0.0, "name": "acbdb2473c6dfdf58eba05ebc563dcf1", "fusion_lon": 0.0}, {"is_reserved": 0, "type": "electric_scooter", "bike_id": "26f380786787aa66458aea872823b74c", "lat": 38.921654833333335, "lon": -77.03392483333333, "rental_uris": {"android": "https://dc.lft.to/lastmile_qr_scan", "ios": "https://dc.lft.to/lastmile_qr_scan"}, "is_disabled": 0, "fusion_lat": 0.0, "name": "26f380786787aa66458aea872823b74c", "fusion_lon": 0.0}, {"is_reserved": 0, "type": "electric_scooter", "bike_id": "ef65d135cdbb71c7ee26494418a0fe33", "lat": 38.891962166666666, "lon": -77.02229366666667, "rental_uris": {"android": "https://dc.lft.to/lastmile_qr_scan", "ios": "https://dc.lft.to/lastmile_qr_scan"}, "is_disabled": 0, "fusion_lat": 0.0, "name": "ef65d135cdbb71c7ee26494418a0fe33", "fusion_lon": 0.0}, {"is_reserved": 0, "type": "electric_bike", "bike_id": "42470219df6085fecc9940681e9c3e9a", "lat": 38.87086033333333, "lon": -77.13332316666667, "rental_uris": {"android": "https://dc.lft.to/lastmile_qr_scan", "ios": "https://dc.lft.to/lastmile_qr_scan"}, "is_disabled": 0, "fusion_lat": 0.0, "name": "42470219df6085fecc9940681e9c3e9a", "fusion_lon": 0.0}, {"is_reserved": 0, "type": "electric_scooter", "bike_id": "77fc11f3369ebc73fc2940f4ad120877", "lat": 38.892301333333336, "lon": -77.03183316666667, "rental_uris": {"android": "https://dc.lft.to/lastmile_qr_scan", "ios": "https://dc.lft.to/lastmile_qr_scan"}, "is_disabled": 0, "fusion_lat": 0.0, "name": "77fc11f3369ebc73fc2940f4ad120877", "fusion_lon": 0.0}, {"is_reserved": 0, "type": "electric_scooter", "bike_id": "1cd4d05cd004dd1c21b83bb0c2d8ddb1", "lat": 38.92212833333333, "lon": -77.02026716666667, "rental_uris": {"android": "https://dc.lft.to/lastmile_qr_scan", "ios": "https://dc.lft.to/lastmile_qr_scan"}, "is_disabled": 0, "fusion_lat": 0.0, "name": "1cd4d05cd004dd1c21b83bb0c2d8ddb1", "fusion_lon": 0.0}, {"is_reserved": 0, "type": "electric_scooter", "bike_id": "cfd5f7736df0343f513f4bc10d8429c9", "lat": 38.8976655, "lon": -77.047763, "rental_uris": {"android": "https://dc.lft.to/lastmile_qr_scan", "ios": "https://dc.lft.to/lastmile_qr_scan"}, "is_disabled": 0, "fusion_lat": 0.0, "name": "cfd5f7736df0343f513f4bc10d8429c9", "fusion_lon": 0.0}, {"is_reserved": 0, "type": "electric_scooter", "bike_id": "f3e7e6c48a5ee93c5fef4ed785a0cb4c", "lat": 38.9188545, "lon": -77.0431065, "rental_uris": {"android": "https://dc.lft.to/lastmile_qr_scan", "ios": "https://dc.lft.to/lastmile_qr_scan"}, "is_disabled": 0, "fusion_lat": 0.0, "name": "f3e7e6c48a5ee93c5fef4ed785a0cb4c", "fusion_lon": 0.0}, {"is_reserved": 0, "type": "electric_scooter", "bike_id": "6ddae59e750e1406e34787a5a93fcb59", "lat": 38.9188215, "lon": -77.04309833333333, "rental_uris": {"android": "https://dc.lft.to/lastmile_qr_scan", "ios": "https://dc.lft.to/lastmile_qr_scan"}, "is_disabled": 0, "fusion_lat": 0.0, "name": "6ddae59e750e1406e34787a5a93fcb59", "fusion_lon": 0.0}, {"is_reserved": 0, "type": "electric_scooter", "bike_id": "5c3f663e7fb9cfb7708395db47ade5fa", "lat": 38.91188066666667, "lon": -77.00252033333334, "rental_uris": {"android": "https://dc.lft.to/lastmile_qr_scan", "ios": "https://dc.lft.to/lastmile_qr_scan"}, "is_disabled": 0, "fusion_lat": 0.0, "name": "5c3f663e7fb9cfb7708395db47ade5fa", "fusion_lon": 0.0}, {"is_reserved": 0, "type": "electric_scooter", "bike_id": "81695d5c6ebe80228a8d1588e42737ec", "lat": 38.910204666666665, "lon": -76.99370533333334, "rental_uris": {"android": "https://dc.lft.to/lastmile_qr_scan", "ios": "https://dc.lft.to/lastmile_qr_scan"}, "is_disabled": 0, "fusion_lat": 0.0, "name": "81695d5c6ebe80228a8d1588e42737ec", "fusion_lon": 0.0}, {"is_reserved": 0, "type": "electric_scooter", "bike_id": "3d851cdb7d96c00dce0d32dfb7530d4d", "lat": 38.874761666666664, "lon": -77.0033775, "rental_uris": {"android": "https://dc.lft.to/lastmile_qr_scan", "ios": "https://dc.lft.to/lastmile_qr_scan"}, "is_disabled": 0, "fusion_lat": 0.0, "name": "3d851cdb7d96c00dce0d32dfb7530d4d", "fusion_lon": 0.0}, {"is_reserved": 0, "type": "electric_scooter", "bike_id": "634b92b2872b3810a07ef9edce7e8c61", "lat": 38.892227166666665, "lon": -77.04365283333334, "rental_uris": {"android": "https://dc.lft.to/lastmile_qr_scan", "ios": "https://dc.lft.to/lastmile_qr_scan"}, "is_disabled": 0, "fusion_lat": 0.0, "name": "634b92b2872b3810a07ef9edce7e8c61", "fusion_lon": 0.0}, {"is_reserved": 0, "type": "electric_scooter", "bike_id": "3ddd2dfaba66ad43174abc3341d42a82", "lat": 38.95961466666667, "lon": -77.07261066666666, "rental_uris": {"android": "https://dc.lft.to/lastmile_qr_scan", "ios": "https://dc.lft.to/lastmile_qr_scan"}, "is_disabled": 0, "fusion_lat": 0.0, "name": "3ddd2dfaba66ad43174abc3341d42a82", "fusion_lon": 0.0}, {"is_reserved": 0, "type": "electric_scooter", "bike_id": "afcaff79a2480e8b9e7a871ee877c904", "lat": 38.91540716666667, "lon": -77.03205416666667, "rental_uris": {"android": "https://dc.lft.to/lastmile_qr_scan", "ios": "https://dc.lft.to/lastmile_qr_scan"}, "is_disabled": 0, "fusion_lat": 0.0, "name": "afcaff79a2480e8b9e7a871ee877c904", "fusion_lon": 0.0}, {"is_reserved": 0, "type": "electric_bike", "bike_id": "c96af7c50b49a825aed557712ac63fca", "lat": 38.93266366666667, "lon": -77.0723105, "rental_uris": {"android": "https://dc.lft.to/lastmile_qr_scan", "ios": "https://dc.lft.to/lastmile_qr_scan"}, "is_disabled": 0, "fusion_lat": 0.0, "name": "c96af7c50b49a825aed557712ac63fca", "fusion_lon": 0.0}, {"is_reserved": 0, "type": "electric_scooter", "bike_id": "3d5a11337d9aaab4d4ec265a414abbab", "lat": 38.899868166666664, "lon": -77.0075885, "rental_uris": {"android": "https://dc.lft.to/lastmile_qr_scan", "ios": "https://dc.lft.to/lastmile_qr_scan"}, "is_disabled": 0, "fusion_lat": 0.0, "name": "3d5a11337d9aaab4d4ec265a414abbab", "fusion_lon": 0.0}, {"is_reserved": 0, "type": "electric_scooter", "bike_id": "a19b01c34c3ee223f32604efd07d85f4", "lat": 38.89745966666667, "lon": -76.99382816666666, "rental_uris": {"android": "https://dc.lft.to/lastmile_qr_scan", "ios": "https://dc.lft.to/lastmile_qr_scan"}, "is_disabled": 0, "fusion_lat": 0.0, "name": "a19b01c34c3ee223f32604efd07d85f4", "fusion_lon": 0.0}, {"is_reserved": 0, "type": "electric_scooter", "bike_id": "f3b8a2a4051f40e7064966cdb1d345d4", "lat": 38.87988883333333, "lon": -76.98489216666667, "rental_uris": {"android": "https://dc.lft.to/lastmile_qr_scan", "ios": "https://dc.lft.to/lastmile_qr_scan"}, "is_disabled": 0, "fusion_lat": 0.0, "name": "f3b8a2a4051f40e7064966cdb1d345d4", "fusion_lon": 0.0}, {"is_reserved": 0, "type": "electric_scooter", "bike_id": "424b2b127c0ecffd2c005cb534f5b66f", "lat": 38.89650483333333, "lon": -77.03300616666667, "rental_uris": {"android": "https://dc.lft.to/lastmile_qr_scan", "ios": "https://dc.lft.to/lastmile_qr_scan"}, "is_disabled": 0, "fusion_lat": 0.0, "name": "424b2b127c0ecffd2c005cb534f5b66f", "fusion_lon": 0.0}, {"is_reserved": 0, "type": "electric_scooter", "bike_id": "0a90f96c7cb88051f45372afdc56f0f0", "lat": 38.90564283333333, "lon": -77.0058085, "rental_uris": {"android": "https://dc.lft.to/lastmile_qr_scan", "ios": "https://dc.lft.to/lastmile_qr_scan"}, "is_disabled": 0, "fusion_lat": 0.0, "name": "0a90f96c7cb88051f45372afdc56f0f0", "fusion_lon": 0.0}, {"is_reserved": 0, "type": "electric_scooter", "bike_id": "8f7706e8f91ea1220f399f549843f90a", "lat": 38.92340683333333, "lon": -77.05673316666666, "rental_uris": {"android": "https://dc.lft.to/lastmile_qr_scan", "ios": "https://dc.lft.to/lastmile_qr_scan"}, "is_disabled": 0, "fusion_lat": 0.0, "name": "8f7706e8f91ea1220f399f549843f90a", "fusion_lon": 0.0}, {"is_reserved": 0, "type": "electric_scooter", "bike_id": "a3d0c609d0d71c1b26632ea83da23b4e", "lat": 38.933559, "lon": -77.03425033333333, "rental_uris": {"android": "https://dc.lft.to/lastmile_qr_scan", "ios": "https://dc.lft.to/lastmile_qr_scan"}, "is_disabled": 0, "fusion_lat": 0.0, "name": "a3d0c609d0d71c1b26632ea83da23b4e", "fusion_lon": 0.0}, {"is_reserved": 0, "type": "electric_scooter", "bike_id": "ff0254477ea477af72e5bceb51259a0d", "lat": 38.91923033333333, "lon": -77.04812283333334, "rental_uris": {"android": "https://dc.lft.to/lastmile_qr_scan", "ios": "https://dc.lft.to/lastmile_qr_scan"}, "is_disabled": 0, "fusion_lat": 0.0, "name": "ff0254477ea477af72e5bceb51259a0d", "fusion_lon": 0.0}, {"is_reserved": 0, "type": "electric_bike", "bike_id": "f4f7e39830ad750abfb5ff43a6b636ac", "lat": 38.94475, "lon": -76.98691116666667, "rental_uris": {"android": "https://dc.lft.to/lastmile_qr_scan", "ios": "https://dc.lft.to/lastmile_qr_scan"}, "is_disabled": 0, "fusion_lat": 0.0, "name": "f4f7e39830ad750abfb5ff43a6b636ac", "fusion_lon": 0.0}, {"is_reserved": 0, "type": "electric_scooter", "bike_id": "3c364a947492e0b94199ece4409dd497", "lat": 38.9602155, "lon": -77.07154083333333, "rental_uris": {"android": "https://dc.lft.to/lastmile_qr_scan", "ios": "https://dc.lft.to/lastmile_qr_scan"}, "is_disabled": 0, "fusion_lat": 0.0, "name": "3c364a947492e0b94199ece4409dd497", "fusion_lon": 0.0}, {"is_reserved": 0, "type": "electric_scooter", "bike_id": "26f0c8c10daafc859a84f7f2c1c0797e", "lat": 38.9039435, "lon": -77.01623516666666, "rental_uris": {"android": "https://dc.lft.to/lastmile_qr_scan", "ios": "https://dc.lft.to/lastmile_qr_scan"}, "is_disabled": 0, "fusion_lat": 0.0, "name": "26f0c8c10daafc859a84f7f2c1c0797e", "fusion_lon": 0.0}, {"is_reserved": 0, "type": "electric_scooter", "bike_id": "d299cd6c11853ae9ecee11e3a92e18bc", "lat": 38.91113166666667, "lon": -77.03830716666667, "rental_uris": {"android": "https://dc.lft.to/lastmile_qr_scan", "ios": "https://dc.lft.to/lastmile_qr_scan"}, "is_disabled": 0, "fusion_lat": 0.0, "name": "d299cd6c11853ae9ecee11e3a92e18bc", "fusion_lon": 0.0}, {"is_reserved": 0, "type": "electric_scooter", "bike_id": "62324bc9f71ac47e1bf6c37c11f2ee29", "lat": 38.931331, "lon": -77.023029, "rental_uris": {"android": "https://dc.lft.to/lastmile_qr_scan", "ios": "https://dc.lft.to/lastmile_qr_scan"}, "is_disabled": 0, "fusion_lat": 0.0, "name": "62324bc9f71ac47e1bf6c37c11f2ee29", "fusion_lon": 0.0}, {"is_reserved": 0, "type": "electric_scooter", "bike_id": "3000a80465b3523f1fe84d3d1cbe5b06", "lat": 38.8982545, "lon": -77.02373433333334, "rental_uris": {"android": "https://dc.lft.to/lastmile_qr_scan", "ios": "https://dc.lft.to/lastmile_qr_scan"}, "is_disabled": 0, "fusion_lat": 0.0, "name": "3000a80465b3523f1fe84d3d1cbe5b06", "fusion_lon": 0.0}, {"is_reserved": 0, "type": "electric_bike", "bike_id": "bd67e48beea5fc604450f4ac52e6efba", "lat": 38.83632016666667, "lon": -77.00286716666666, "rental_uris": {"android": "https://dc.lft.to/lastmile_qr_scan", "ios": "https://dc.lft.to/lastmile_qr_scan"}, "is_disabled": 0, "fusion_lat": 0.0, "name": "bd67e48beea5fc604450f4ac52e6efba", "fusion_lon": 0.0}, {"is_reserved": 0, "type": "electric_scooter", "bike_id": "d39e55a9cb39ed56a68b1ea5da424cf4", "lat": 38.904048833333334, "lon": -77.04903116666667, "rental_uris": {"android": "https://dc.lft.to/lastmile_qr_scan", "ios": "https://dc.lft.to/lastmile_qr_scan"}, "is_disabled": 0, "fusion_lat": 0.0, "name": "d39e55a9cb39ed56a68b1ea5da424cf4", "fusion_lon": 0.0}, {"is_reserved": 0, "type": "electric_bike", "bike_id": "06fd053da251739d6d5f84554eb7ca72", "lat": 38.857912, "lon": -77.09963483333334, "rental_uris": {"android": "https://dc.lft.to/lastmile_qr_scan", "ios": "https://dc.lft.to/lastmile_qr_scan"}, "is_disabled": 0, "fusion_lat": 0.0, "name": "06fd053da251739d6d5f84554eb7ca72", "fusion_lon": 0.0}, {"is_reserved": 0, "type": "electric_bike", "bike_id": "39012d23d97792249040de16aea0558a", "lat": 38.965571833333335, "lon": -77.01628433333333, "rental_uris": {"android": "https://dc.lft.to/lastmile_qr_scan", "ios": "https://dc.lft.to/lastmile_qr_scan"}, "is_disabled": 0, "fusion_lat": 0.0, "name": "39012d23d97792249040de16aea0558a", "fusion_lon": 0.0}, {"is_reserved": 0, "type": "electric_scooter", "bike_id": "3148c6b02d6361cb8bcaa774e84a8f83", "lat": 38.9062715, "lon": -77.02819366666667, "rental_uris": {"android": "https://dc.lft.to/lastmile_qr_scan", "ios": "https://dc.lft.to/lastmile_qr_scan"}, "is_disabled": 0, "fusion_lat": 0.0, "name": "3148c6b02d6361cb8bcaa774e84a8f83", "fusion_lon": 0.0}, {"is_reserved": 0, "type": "electric_scooter", "bike_id": "2ea856dc9b79539bb741eb91012d3c28", "lat": 38.95476333333333, "lon": -77.06988016666666, "rental_uris": {"android": "https://dc.lft.to/lastmile_qr_scan", "ios": "https://dc.lft.to/lastmile_qr_scan"}, "is_disabled": 0, "fusion_lat": 0.0, "name": "2ea856dc9b79539bb741eb91012d3c28", "fusion_lon": 0.0}, {"is_reserved": 0, "type": "electric_scooter", "bike_id": "1f338541bff23db45dfd4c40784d2f86", "lat": 38.92164433333333, "lon": -77.03229366666666, "rental_uris": {"android": "https://dc.lft.to/lastmile_qr_scan", "ios": "https://dc.lft.to/lastmile_qr_scan"}, "is_disabled": 0, "fusion_lat": 0.0, "name": "1f338541bff23db45dfd4c40784d2f86", "fusion_lon": 0.0}, {"is_reserved": 0, "type": "electric_scooter", "bike_id": "5b490b3f1890951d0bb90ab79e2ed933", "lat": 38.898525166666666, "lon": -76.99032816666667, "rental_uris": {"android": "https://dc.lft.to/lastmile_qr_scan", "ios": "https://dc.lft.to/lastmile_qr_scan"}, "is_disabled": 0, "fusion_lat": 0.0, "name": "5b490b3f1890951d0bb90ab79e2ed933", "fusion_lon": 0.0}, {"is_reserved": 0, "type": "electric_scooter", "bike_id": "a77b2f2e625c0250de51ec43ec2291cc", "lat": 38.85653166666667, "lon": -76.99675133333334, "rental_uris": {"android": "https://dc.lft.to/lastmile_qr_scan", "ios": "https://dc.lft.to/lastmile_qr_scan"}, "is_disabled": 0, "fusion_lat": 0.0, "name": "a77b2f2e625c0250de51ec43ec2291cc", "fusion_lon": 0.0}, {"is_reserved": 0, "type": "electric_scooter", "bike_id": "d5a3243d8ff4b8caf03f2887a3415fe4", "lat": 38.912842833333336, "lon": -77.072775, "rental_uris": {"android": "https://dc.lft.to/lastmile_qr_scan", "ios": "https://dc.lft.to/lastmile_qr_scan"}, "is_disabled": 0, "fusion_lat": 0.0, "name": "d5a3243d8ff4b8caf03f2887a3415fe4", "fusion_lon": 0.0}, {"is_reserved": 0, "type": "electric_scooter", "bike_id": "61c5c4931f9f8feeb742a688d6a574ab", "lat": 38.9003805, "lon": -76.988453, "rental_uris": {"android": "https://dc.lft.to/lastmile_qr_scan", "ios": "https://dc.lft.to/lastmile_qr_scan"}, "is_disabled": 0, "fusion_lat": 0.0, "name": "61c5c4931f9f8feeb742a688d6a574ab", "fusion_lon": 0.0}, {"is_reserved": 0, "type": "electric_scooter", "bike_id": "f44930f15c252691a21bcfb070be794a", "lat": 38.93192533333333, "lon": -77.02555683333334, "rental_uris": {"android": "https://dc.lft.to/lastmile_qr_scan", "ios": "https://dc.lft.to/lastmile_qr_scan"}, "is_disabled": 0, "fusion_lat": 0.0, "name": "f44930f15c252691a21bcfb070be794a", "fusion_lon": 0.0}, {"is_reserved": 0, "type": "electric_bike", "bike_id": "a9521458f4710350d5cd1db5f95eafd0", "lat": 38.894647166666665, "lon": -77.10365783333333, "rental_uris": {"android": "https://dc.lft.to/lastmile_qr_scan", "ios": "https://dc.lft.to/lastmile_qr_scan"}, "is_disabled": 0, "fusion_lat": 0.0, "name": "a9521458f4710350d5cd1db5f95eafd0", "fusion_lon": 0.0}, {"is_reserved": 0, "type": "electric_scooter", "bike_id": "37935791d1d04a23e51b0f5105f1709d", "lat": 38.907925, "lon": -77.00200666666667, "rental_uris": {"android": "https://dc.lft.to/lastmile_qr_scan", "ios": "https://dc.lft.to/lastmile_qr_scan"}, "is_disabled": 0, "fusion_lat": 0.0, "name": "37935791d1d04a23e51b0f5105f1709d", "fusion_lon": 0.0}, {"is_reserved": 0, "type": "electric_scooter", "bike_id": "7c1a06d268e96bf3ded647ecefcac866", "lat": 38.908447333333335, "lon": -77.04357266666666, "rental_uris": {"android": "https://dc.lft.to/lastmile_qr_scan", "ios": "https://dc.lft.to/lastmile_qr_scan"}, "is_disabled": 0, "fusion_lat": 0.0, "name": "7c1a06d268e96bf3ded647ecefcac866", "fusion_lon": 0.0}, {"is_reserved": 0, "type": "electric_scooter", "bike_id": "dbf147dd28f1986749ad37f7a9e54d83", "lat": 38.91076283333334, "lon": -77.01615483333333, "rental_uris": {"android": "https://dc.lft.to/lastmile_qr_scan", "ios": "https://dc.lft.to/lastmile_qr_scan"}, "is_disabled": 0, "fusion_lat": 0.0, "name": "dbf147dd28f1986749ad37f7a9e54d83", "fusion_lon": 0.0}, {"is_reserved": 0, "type": "electric_scooter", "bike_id": "247f7c4aa79d7dc390a667c27b0812b8", "lat": 38.904508666666665, "lon": -76.99622883333333, "rental_uris": {"android": "https://dc.lft.to/lastmile_qr_scan", "ios": "https://dc.lft.to/lastmile_qr_scan"}, "is_disabled": 0, "fusion_lat": 0.0, "name": "247f7c4aa79d7dc390a667c27b0812b8", "fusion_lon": 0.0}, {"is_reserved": 0, "type": "electric_scooter", "bike_id": "dd9140b3976eaabbf8f84a35b4f3fe7b", "lat": 38.874967, "lon": -77.000303, "rental_uris": {"android": "https://dc.lft.to/lastmile_qr_scan", "ios": "https://dc.lft.to/lastmile_qr_scan"}, "is_disabled": 0, "fusion_lat": 0.0, "name": "dd9140b3976eaabbf8f84a35b4f3fe7b", "fusion_lon": 0.0}, {"is_reserved": 0, "type": "electric_scooter", "bike_id": "0ac5e4985c4ab157449fda3594a49c02", "lat": 38.9169835, "lon": -77.0529585, "rental_uris": {"android": "https://dc.lft.to/lastmile_qr_scan", "ios": "https://dc.lft.to/lastmile_qr_scan"}, "is_disabled": 0, "fusion_lat": 0.0, "name": "0ac5e4985c4ab157449fda3594a49c02", "fusion_lon": 0.0}, {"is_reserved": 0, "type": "electric_scooter", "bike_id": "f7aba1763452c812a98b6d733295d21a", "lat": 38.90783783333333, "lon": -77.00945333333334, "rental_uris": {"android": "https://dc.lft.to/lastmile_qr_scan", "ios": "https://dc.lft.to/lastmile_qr_scan"}, "is_disabled": 0, "fusion_lat": 0.0, "name": "f7aba1763452c812a98b6d733295d21a", "fusion_lon": 0.0}, {"is_reserved": 0, "type": "electric_scooter", "bike_id": "34abe4bba74b83eecc041c3a2677caa5", "lat": 38.89293166666667, "lon": -77.01971416666666, "rental_uris": {"android": "https://dc.lft.to/lastmile_qr_scan", "ios": "https://dc.lft.to/lastmile_qr_scan"}, "is_disabled": 0, "fusion_lat": 0.0, "name": "34abe4bba74b83eecc041c3a2677caa5", "fusion_lon": 0.0}, {"is_reserved": 0, "type": "electric_scooter", "bike_id": "9c3a1f6b7ffa104683ffe6674e61a9b7", "lat": 38.89745283333333, "lon": -77.00989116666666, "rental_uris": {"android": "https://dc.lft.to/lastmile_qr_scan", "ios": "https://dc.lft.to/lastmile_qr_scan"}, "is_disabled": 0, "fusion_lat": 0.0, "name": "9c3a1f6b7ffa104683ffe6674e61a9b7", "fusion_lon": 0.0}, {"is_reserved": 0, "type": "electric_scooter", "bike_id": "62b5731b30b42cc9f4ff120d1d3e970c", "lat": 38.93134633333333, "lon": -77.01989233333333, "rental_uris": {"android": "https://dc.lft.to/lastmile_qr_scan", "ios": "https://dc.lft.to/lastmile_qr_scan"}, "is_disabled": 0, "fusion_lat": 0.0, "name": "62b5731b30b42cc9f4ff120d1d3e970c", "fusion_lon": 0.0}, {"is_reserved": 0, "type": "electric_scooter", "bike_id": "05d1cf6a07eda7e756a3da64a006bcca", "lat": 38.951549, "lon": -77.018689, "rental_uris": {"android": "https://dc.lft.to/lastmile_qr_scan", "ios": "https://dc.lft.to/lastmile_qr_scan"}, "is_disabled": 0, "fusion_lat": 0.0, "name": "05d1cf6a07eda7e756a3da64a006bcca", "fusion_lon": 0.0}, {"is_reserved": 0, "type": "electric_scooter", "bike_id": "af7fadfaffbdf64f7490cb600f614a29", "lat": 38.904006333333335, "lon": -77.02738933333333, "rental_uris": {"android": "https://dc.lft.to/lastmile_qr_scan", "ios": "https://dc.lft.to/lastmile_qr_scan"}, "is_disabled": 0, "fusion_lat": 0.0, "name": "af7fadfaffbdf64f7490cb600f614a29", "fusion_lon": 0.0}, {"is_reserved": 0, "type": "electric_scooter", "bike_id": "5302c97c2a7651fe4b8b43a6f1da0bc2", "lat": 38.923444, "lon": -77.03489016666667, "rental_uris": {"android": "https://dc.lft.to/lastmile_qr_scan", "ios": "https://dc.lft.to/lastmile_qr_scan"}, "is_disabled": 0, "fusion_lat": 0.0, "name": "5302c97c2a7651fe4b8b43a6f1da0bc2", "fusion_lon": 0.0}, {"is_reserved": 0, "type": "electric_scooter", "bike_id": "3ecebbc90875983a9bc4b2c062a2bb60", "lat": 38.900286333333334, "lon": -77.01774183333333, "rental_uris": {"android": "https://dc.lft.to/lastmile_qr_scan", "ios": "https://dc.lft.to/lastmile_qr_scan"}, "is_disabled": 0, "fusion_lat": 0.0, "name": "3ecebbc90875983a9bc4b2c062a2bb60", "fusion_lon": 0.0}, {"is_reserved": 0, "type": "electric_scooter", "bike_id": "cab95ebef343c05999a33cc25afbd59b", "lat": 38.9432435, "lon": -77.07576433333334, "rental_uris": {"android": "https://dc.lft.to/lastmile_qr_scan", "ios": "https://dc.lft.to/lastmile_qr_scan"}, "is_disabled": 0, "fusion_lat": 0.0, "name": "cab95ebef343c05999a33cc25afbd59b", "fusion_lon": 0.0}, {"is_reserved": 0, "type": "electric_scooter", "bike_id": "92720e852b4dd8edcd36f4123f1eb011", "lat": 38.926606166666666, "lon": -77.0361955, "rental_uris": {"android": "https://dc.lft.to/lastmile_qr_scan", "ios": "https://dc.lft.to/lastmile_qr_scan"}, "is_disabled": 0, "fusion_lat": 0.0, "name": "92720e852b4dd8edcd36f4123f1eb011", "fusion_lon": 0.0}, {"is_reserved": 0, "type": "electric_scooter", "bike_id": "0571682b3710c81f0266e0c46a25d28b", "lat": 38.90731666666667, "lon": -77.04758866666667, "rental_uris": {"android": "https://dc.lft.to/lastmile_qr_scan", "ios": "https://dc.lft.to/lastmile_qr_scan"}, "is_disabled": 0, "fusion_lat": 0.0, "name": "0571682b3710c81f0266e0c46a25d28b", "fusion_lon": 0.0}, {"is_reserved": 0, "type": "electric_scooter", "bike_id": "efa4173ea343bff73525c7a7c089a444", "lat": 38.9291495, "lon": -77.02192533333333, "rental_uris": {"android": "https://dc.lft.to/lastmile_qr_scan", "ios": "https://dc.lft.to/lastmile_qr_scan"}, "is_disabled": 0, "fusion_lat": 0.0, "name": "efa4173ea343bff73525c7a7c089a444", "fusion_lon": 0.0}, {"is_reserved": 0, "type": "electric_bike", "bike_id": "31eff1126f75e5175614befdff0aab2e", "lat": 38.8750005, "lon": -77.13691633333333, "rental_uris": {"android": "https://dc.lft.to/lastmile_qr_scan", "ios": "https://dc.lft.to/lastmile_qr_scan"}, "is_disabled": 0, "fusion_lat": 0.0, "name": "31eff1126f75e5175614befdff0aab2e", "fusion_lon": 0.0}, {"is_reserved": 0, "type": "electric_scooter", "bike_id": "19352fd41425c44c531cd5b4fdf32d69", "lat": 38.883794, "lon": -77.04612216666666, "rental_uris": {"android": "https://dc.lft.to/lastmile_qr_scan", "ios": "https://dc.lft.to/lastmile_qr_scan"}, "is_disabled": 0, "fusion_lat": 0.0, "name": "19352fd41425c44c531cd5b4fdf32d69", "fusion_lon": 0.0}, {"is_reserved": 0, "type": "electric_scooter", "bike_id": "f73145a9765c8a642175f2218c05ce57", "lat": 38.889968333333336, "lon": -77.00153633333333, "rental_uris": {"android": "https://dc.lft.to/lastmile_qr_scan", "ios": "https://dc.lft.to/lastmile_qr_scan"}, "is_disabled": 0, "fusion_lat": 0.0, "name": "f73145a9765c8a642175f2218c05ce57", "fusion_lon": 0.0}, {"is_reserved": 0, "type": "electric_scooter", "bike_id": "da0498a2fbacee1f03562f49f3a06a90", "lat": 38.918118166666666, "lon": -77.03961883333334, "rental_uris": {"android": "https://dc.lft.to/lastmile_qr_scan", "ios": "https://dc.lft.to/lastmile_qr_scan"}, "is_disabled": 0, "fusion_lat": 0.0, "name": "da0498a2fbacee1f03562f49f3a06a90", "fusion_lon": 0.0}, {"is_reserved": 0, "type": "electric_scooter", "bike_id": "690403375084859a0900fa7594389351", "lat": 38.924453, "lon": -77.04031083333334, "rental_uris": {"android": "https://dc.lft.to/lastmile_qr_scan", "ios": "https://dc.lft.to/lastmile_qr_scan"}, "is_disabled": 0, "fusion_lat": 0.0, "name": "690403375084859a0900fa7594389351", "fusion_lon": 0.0}, {"is_reserved": 0, "type": "electric_bike", "bike_id": "c5bcd161776ebca3e59d3c4ed3e430df", "lat": 38.912494833333334, "lon": -77.0466115, "rental_uris": {"android": "https://dc.lft.to/lastmile_qr_scan", "ios": "https://dc.lft.to/lastmile_qr_scan"}, "is_disabled": 0, "fusion_lat": 0.0, "name": "c5bcd161776ebca3e59d3c4ed3e430df", "fusion_lon": 0.0}, {"is_reserved": 0, "type": "electric_scooter", "bike_id": "9c6f1f6959b5fefb5a65263e774e49ed", "lat": 38.90069616666667, "lon": -77.04536166666666, "rental_uris": {"android": "https://dc.lft.to/lastmile_qr_scan", "ios": "https://dc.lft.to/lastmile_qr_scan"}, "is_disabled": 0, "fusion_lat": 0.0, "name": "9c6f1f6959b5fefb5a65263e774e49ed", "fusion_lon": 0.0}, {"is_reserved": 0, "type": "electric_bike", "bike_id": "dec93b65e7a72a0abf30770761689bda", "lat": 38.91223933333333, "lon": -77.06597933333333, "rental_uris": {"android": "https://dc.lft.to/lastmile_qr_scan", "ios": "https://dc.lft.to/lastmile_qr_scan"}, "is_disabled": 0, "fusion_lat": 0.0, "name": "dec93b65e7a72a0abf30770761689bda", "fusion_lon": 0.0}, {"is_reserved": 0, "type": "electric_scooter", "bike_id": "2b2612f8bb960cd221cfd079a1db4ddd", "lat": 38.914667333333334, "lon": -77.00211333333333, "rental_uris": {"android": "https://dc.lft.to/lastmile_qr_scan", "ios": "https://dc.lft.to/lastmile_qr_scan"}, "is_disabled": 0, "fusion_lat": 0.0, "name": "2b2612f8bb960cd221cfd079a1db4ddd", "fusion_lon": 0.0}, {"is_reserved": 0, "type": "electric_scooter", "bike_id": "97a70feb43161d3a67d9c74ad7355514", "lat": 38.90735183333334, "lon": -77.04474283333333, "rental_uris": {"android": "https://dc.lft.to/lastmile_qr_scan", "ios": "https://dc.lft.to/lastmile_qr_scan"}, "is_disabled": 0, "fusion_lat": 0.0, "name": "97a70feb43161d3a67d9c74ad7355514", "fusion_lon": 0.0}, {"is_reserved": 0, "type": "electric_scooter", "bike_id": "44be9366f7fe96dff8889d1618c8a642", "lat": 38.898726833333335, "lon": -77.01998966666666, "rental_uris": {"android": "https://dc.lft.to/lastmile_qr_scan", "ios": "https://dc.lft.to/lastmile_qr_scan"}, "is_disabled": 0, "fusion_lat": 0.0, "name": "44be9366f7fe96dff8889d1618c8a642", "fusion_lon": 0.0}, {"is_reserved": 0, "type": "electric_scooter", "bike_id": "cfac2e98871765add705f24e0ccaf2ae", "lat": 38.90977133333333, "lon": -77.0240755, "rental_uris": {"android": "https://dc.lft.to/lastmile_qr_scan", "ios": "https://dc.lft.to/lastmile_qr_scan"}, "is_disabled": 0, "fusion_lat": 0.0, "name": "cfac2e98871765add705f24e0ccaf2ae", "fusion_lon": 0.0}, {"is_reserved": 0, "type": "electric_scooter", "bike_id": "802c80d6b20f86cc1992cdece2d31261", "lat": 38.870873, "lon": -77.01373166666667, "rental_uris": {"android": "https://dc.lft.to/lastmile_qr_scan", "ios": "https://dc.lft.to/lastmile_qr_scan"}, "is_disabled": 0, "fusion_lat": 0.0, "name": "802c80d6b20f86cc1992cdece2d31261", "fusion_lon": 0.0}, {"is_reserved": 0, "type": "electric_bike", "bike_id": "393b82180dfef6c9d9dffc2eb380db8f", "lat": 38.912313, "lon": -77.04778283333333, "rental_uris": {"android": "https://dc.lft.to/lastmile_qr_scan", "ios": "https://dc.lft.to/lastmile_qr_scan"}, "is_disabled": 0, "fusion_lat": 0.0, "name": "393b82180dfef6c9d9dffc2eb380db8f", "fusion_lon": 0.0}, {"is_reserved": 0, "type": "electric_scooter", "bike_id": "ec83d8300f89320fa95e5143a75d7a8c", "lat": 38.892283166666665, "lon": -77.0160655, "rental_uris": {"android": "https://dc.lft.to/lastmile_qr_scan", "ios": "https://dc.lft.to/lastmile_qr_scan"}, "is_disabled": 0, "fusion_lat": 0.0, "name": "ec83d8300f89320fa95e5143a75d7a8c", "fusion_lon": 0.0}, {"is_reserved": 0, "type": "electric_scooter", "bike_id": "17cd91b9f2c10afeb4dd83de39045f00", "lat": 38.9240425, "lon": -76.951551, "rental_uris": {"android": "https://dc.lft.to/lastmile_qr_scan", "ios": "https://dc.lft.to/lastmile_qr_scan"}, "is_disabled": 0, "fusion_lat": 0.0, "name": "17cd91b9f2c10afeb4dd83de39045f00", "fusion_lon": 0.0}, {"is_reserved": 0, "type": "electric_scooter", "bike_id": "8645344847e07a48768372b68b75f62f", "lat": 38.89883116666667, "lon": -77.04884516666667, "rental_uris": {"android": "https://dc.lft.to/lastmile_qr_scan", "ios": "https://dc.lft.to/lastmile_qr_scan"}, "is_disabled": 0, "fusion_lat": 0.0, "name": "8645344847e07a48768372b68b75f62f", "fusion_lon": 0.0}, {"is_reserved": 0, "type": "electric_scooter", "bike_id": "52ae28c2f9a44b2ed71bc8b3dd01abf4", "lat": 38.899319166666665, "lon": -77.0185415, "rental_uris": {"android": "https://dc.lft.to/lastmile_qr_scan", "ios": "https://dc.lft.to/lastmile_qr_scan"}, "is_disabled": 0, "fusion_lat": 0.0, "name": "52ae28c2f9a44b2ed71bc8b3dd01abf4", "fusion_lon": 0.0}, {"is_reserved": 0, "type": "electric_scooter", "bike_id": "161abdca7f04ff3c81d9a99d42a7f590", "lat": 38.903779666666665, "lon": -77.02848516666667, "rental_uris": {"android": "https://dc.lft.to/lastmile_qr_scan", "ios": "https://dc.lft.to/lastmile_qr_scan"}, "is_disabled": 0, "fusion_lat": 0.0, "name": "161abdca7f04ff3c81d9a99d42a7f590", "fusion_lon": 0.0}, {"is_reserved": 0, "type": "electric_scooter", "bike_id": "6dc6c825239b53c25c72d29eb93bf8be", "lat": 38.900414166666664, "lon": -77.03204616666666, "rental_uris": {"android": "https://dc.lft.to/lastmile_qr_scan", "ios": "https://dc.lft.to/lastmile_qr_scan"}, "is_disabled": 0, "fusion_lat": 0.0, "name": "6dc6c825239b53c25c72d29eb93bf8be", "fusion_lon": 0.0}, {"is_reserved": 0, "type": "electric_scooter", "bike_id": "e6574169caba6f27c0c7667c59b54860", "lat": 38.900429833333334, "lon": -76.99035466666666, "rental_uris": {"android": "https://dc.lft.to/lastmile_qr_scan", "ios": "https://dc.lft.to/lastmile_qr_scan"}, "is_disabled": 0, "fusion_lat": 0.0, "name": "e6574169caba6f27c0c7667c59b54860", "fusion_lon": 0.0}, {"is_reserved": 0, "type": "electric_scooter", "bike_id": "52af5517bf7d7952b16355b4a949fd07", "lat": 38.933870666666664, "lon": -77.02391933333334, "rental_uris": {"android": "https://dc.lft.to/lastmile_qr_scan", "ios": "https://dc.lft.to/lastmile_qr_scan"}, "is_disabled": 0, "fusion_lat": 0.0, "name": "52af5517bf7d7952b16355b4a949fd07", "fusion_lon": 0.0}, {"is_reserved": 0, "type": "electric_scooter", "bike_id": "1d17180b884049664803cfdc45e6de86", "lat": 38.920865, "lon": -77.02297116666666, "rental_uris": {"android": "https://dc.lft.to/lastmile_qr_scan", "ios": "https://dc.lft.to/lastmile_qr_scan"}, "is_disabled": 0, "fusion_lat": 0.0, "name": "1d17180b884049664803cfdc45e6de86", "fusion_lon": 0.0}, {"is_reserved": 0, "type": "electric_scooter", "bike_id": "90304117fd30f22cfc9f6921c5f59af3", "lat": 38.92486066666667, "lon": -77.03186166666667, "rental_uris": {"android": "https://dc.lft.to/lastmile_qr_scan", "ios": "https://dc.lft.to/lastmile_qr_scan"}, "is_disabled": 0, "fusion_lat": 0.0, "name": "90304117fd30f22cfc9f6921c5f59af3", "fusion_lon": 0.0}, {"is_reserved": 0, "type": "electric_scooter", "bike_id": "fce247e85374221df074e11c8a42a8f3", "lat": 38.90488033333333, "lon": -77.068633, "rental_uris": {"android": "https://dc.lft.to/lastmile_qr_scan", "ios": "https://dc.lft.to/lastmile_qr_scan"}, "is_disabled": 0, "fusion_lat": 0.0, "name": "fce247e85374221df074e11c8a42a8f3", "fusion_lon": 0.0}, {"is_reserved": 0, "type": "electric_scooter", "bike_id": "09a31432967ce396cc38a95e3378d26b", "lat": 38.926055166666664, "lon": -77.0215785, "rental_uris": {"android": "https://dc.lft.to/lastmile_qr_scan", "ios": "https://dc.lft.to/lastmile_qr_scan"}, "is_disabled": 0, "fusion_lat": 0.0, "name": "09a31432967ce396cc38a95e3378d26b", "fusion_lon": 0.0}, {"is_reserved": 0, "type": "electric_scooter", "bike_id": "92a22daea686e2a7554005253d01cf12", "lat": 38.93754883333333, "lon": -77.02930816666667, "rental_uris": {"android": "https://dc.lft.to/lastmile_qr_scan", "ios": "https://dc.lft.to/lastmile_qr_scan"}, "is_disabled": 0, "fusion_lat": 0.0, "name": "92a22daea686e2a7554005253d01cf12", "fusion_lon": 0.0}, {"is_reserved": 0, "type": "electric_bike", "bike_id": "71e2dd23248be7579e71ee4e0682c752", "lat": 38.943048833333336, "lon": -77.027448, "rental_uris": {"android": "https://dc.lft.to/lastmile_qr_scan", "ios": "https://dc.lft.to/lastmile_qr_scan"}, "is_disabled": 0, "fusion_lat": 0.0, "name": "71e2dd23248be7579e71ee4e0682c752", "fusion_lon": 0.0}, {"is_reserved": 0, "type": "electric_scooter", "bike_id": "49f8ef7fae5d5399aa5ce0c8947880ea", "lat": 38.9054585, "lon": -77.056887, "rental_uris": {"android": "https://dc.lft.to/lastmile_qr_scan", "ios": "https://dc.lft.to/lastmile_qr_scan"}, "is_disabled": 0, "fusion_lat": 0.0, "name": "49f8ef7fae5d5399aa5ce0c8947880ea", "fusion_lon": 0.0}, {"is_reserved": 0, "type": "electric_scooter", "bike_id": "53ad4c44b19c1ba2e3c0e102a81edf46", "lat": 38.876855666666664, "lon": -76.99624583333333, "rental_uris": {"android": "https://dc.lft.to/lastmile_qr_scan", "ios": "https://dc.lft.to/lastmile_qr_scan"}, "is_disabled": 0, "fusion_lat": 0.0, "name": "53ad4c44b19c1ba2e3c0e102a81edf46", "fusion_lon": 0.0}, {"is_reserved": 0, "type": "electric_scooter", "bike_id": "94a1eb016720e4b5c7f9600cfe45349d", "lat": 38.9015715, "lon": -77.03204733333334, "rental_uris": {"android": "https://dc.lft.to/lastmile_qr_scan", "ios": "https://dc.lft.to/lastmile_qr_scan"}, "is_disabled": 0, "fusion_lat": 0.0, "name": "94a1eb016720e4b5c7f9600cfe45349d", "fusion_lon": 0.0}, {"is_reserved": 0, "type": "electric_scooter", "bike_id": "907228d23f8570738f2d012a93c65069", "lat": 38.9211095, "lon": -77.04693433333334, "rental_uris": {"android": "https://dc.lft.to/lastmile_qr_scan", "ios": "https://dc.lft.to/lastmile_qr_scan"}, "is_disabled": 0, "fusion_lat": 0.0, "name": "907228d23f8570738f2d012a93c65069", "fusion_lon": 0.0}, {"is_reserved": 0, "type": "electric_bike", "bike_id": "7f2d5b436cb51347ec6f676832505af6", "lat": 38.83937516666667, "lon": -77.07898066666667, "rental_uris": {"android": "https://dc.lft.to/lastmile_qr_scan", "ios": "https://dc.lft.to/lastmile_qr_scan"}, "is_disabled": 0, "fusion_lat": 0.0, "name": "7f2d5b436cb51347ec6f676832505af6", "fusion_lon": 0.0}, {"is_reserved": 0, "type": "electric_scooter", "bike_id": "29054500e22c450e4687570c83c79e48", "lat": 38.910745666666664, "lon": -77.02727816666666, "rental_uris": {"android": "https://dc.lft.to/lastmile_qr_scan", "ios": "https://dc.lft.to/lastmile_qr_scan"}, "is_disabled": 0, "fusion_lat": 0.0, "name": "29054500e22c450e4687570c83c79e48", "fusion_lon": 0.0}, {"is_reserved": 0, "type": "electric_scooter", "bike_id": "b0cf542450bb6e024de8c003d42a9f9f", "lat": 38.90252483333333, "lon": -77.03352333333333, "rental_uris": {"android": "https://dc.lft.to/lastmile_qr_scan", "ios": "https://dc.lft.to/lastmile_qr_scan"}, "is_disabled": 0, "fusion_lat": 0.0, "name": "b0cf542450bb6e024de8c003d42a9f9f", "fusion_lon": 0.0}, {"is_reserved": 0, "type": "electric_scooter", "bike_id": "06cbf2ecec45a18c2aabbcc1290441cf", "lat": 38.9233085, "lon": -77.053947, "rental_uris": {"android": "https://dc.lft.to/lastmile_qr_scan", "ios": "https://dc.lft.to/lastmile_qr_scan"}, "is_disabled": 0, "fusion_lat": 0.0, "name": "06cbf2ecec45a18c2aabbcc1290441cf", "fusion_lon": 0.0}, {"is_reserved": 0, "type": "electric_scooter", "bike_id": "6ee78af596e55a1d6221cb943491f643", "lat": 38.92327783333333, "lon": -77.05446033333334, "rental_uris": {"android": "https://dc.lft.to/lastmile_qr_scan", "ios": "https://dc.lft.to/lastmile_qr_scan"}, "is_disabled": 0, "fusion_lat": 0.0, "name": "6ee78af596e55a1d6221cb943491f643", "fusion_lon": 0.0}, {"is_reserved": 0, "type": "electric_scooter", "bike_id": "4e1d0b9f9c641a2b75a06729c915024d", "lat": 38.930007333333336, "lon": -77.0379945, "rental_uris": {"android": "https://dc.lft.to/lastmile_qr_scan", "ios": "https://dc.lft.to/lastmile_qr_scan"}, "is_disabled": 0, "fusion_lat": 0.0, "name": "4e1d0b9f9c641a2b75a06729c915024d", "fusion_lon": 0.0}, {"is_reserved": 0, "type": "electric_scooter", "bike_id": "1201dfd6f0c6762d6d4a8f5d65ab0f4d", "lat": 38.92604883333333, "lon": -77.03669416666666, "rental_uris": {"android": "https://dc.lft.to/lastmile_qr_scan", "ios": "https://dc.lft.to/lastmile_qr_scan"}, "is_disabled": 0, "fusion_lat": 0.0, "name": "1201dfd6f0c6762d6d4a8f5d65ab0f4d", "fusion_lon": 0.0}, {"is_reserved": 0, "type": "electric_scooter", "bike_id": "b4f1e3a8f850668898cf6421f7987e59", "lat": 38.89231366666667, "lon": -77.03182616666666, "rental_uris": {"android": "https://dc.lft.to/lastmile_qr_scan", "ios": "https://dc.lft.to/lastmile_qr_scan"}, "is_disabled": 0, "fusion_lat": 0.0, "name": "b4f1e3a8f850668898cf6421f7987e59", "fusion_lon": 0.0}, {"is_reserved": 0, "type": "electric_scooter", "bike_id": "2be22c2341fbacb5b562441f9233a294", "lat": 38.90173016666667, "lon": -77.024869, "rental_uris": {"android": "https://dc.lft.to/lastmile_qr_scan", "ios": "https://dc.lft.to/lastmile_qr_scan"}, "is_disabled": 0, "fusion_lat": 0.0, "name": "2be22c2341fbacb5b562441f9233a294", "fusion_lon": 0.0}, {"is_reserved": 0, "type": "electric_scooter", "bike_id": "9c78e1cf82f5317c6172f752f8cd2fc6", "lat": 38.900426333333336, "lon": -77.00194616666667, "rental_uris": {"android": "https://dc.lft.to/lastmile_qr_scan", "ios": "https://dc.lft.to/lastmile_qr_scan"}, "is_disabled": 0, "fusion_lat": 0.0, "name": "9c78e1cf82f5317c6172f752f8cd2fc6", "fusion_lon": 0.0}, {"is_reserved": 0, "type": "electric_scooter", "bike_id": "54f0c797b2a8d3d71a318b58a49ec921", "lat": 38.918181, "lon": -77.04544566666667, "rental_uris": {"android": "https://dc.lft.to/lastmile_qr_scan", "ios": "https://dc.lft.to/lastmile_qr_scan"}, "is_disabled": 0, "fusion_lat": 0.0, "name": "54f0c797b2a8d3d71a318b58a49ec921", "fusion_lon": 0.0}, {"is_reserved": 0, "type": "electric_scooter", "bike_id": "61b1dde6cbe5ec857fc949eb4bba01d3", "lat": 38.8991115, "lon": -77.0271045, "rental_uris": {"android": "https://dc.lft.to/lastmile_qr_scan", "ios": "https://dc.lft.to/lastmile_qr_scan"}, "is_disabled": 0, "fusion_lat": 0.0, "name": "61b1dde6cbe5ec857fc949eb4bba01d3", "fusion_lon": 0.0}, {"is_reserved": 0, "type": "electric_scooter", "bike_id": "72ab6605df368499dd4e71d3181d44c6", "lat": 38.9210965, "lon": -77.03191, "rental_uris": {"android": "https://dc.lft.to/lastmile_qr_scan", "ios": "https://dc.lft.to/lastmile_qr_scan"}, "is_disabled": 0, "fusion_lat": 0.0, "name": "72ab6605df368499dd4e71d3181d44c6", "fusion_lon": 0.0}, {"is_reserved": 0, "type": "electric_scooter", "bike_id": "4a35bb48ff185a9bd778e618fcc8db3f", "lat": 38.8922575, "lon": -77.0463885, "rental_uris": {"android": "https://dc.lft.to/lastmile_qr_scan", "ios": "https://dc.lft.to/lastmile_qr_scan"}, "is_disabled": 0, "fusion_lat": 0.0, "name": "4a35bb48ff185a9bd778e618fcc8db3f", "fusion_lon": 0.0}, {"is_reserved": 0, "type": "electric_scooter", "bike_id": "f530e991eaecd0261a6f46a60d12a037", "lat": 38.920214, "lon": -77.01060933333333, "rental_uris": {"android": "https://dc.lft.to/lastmile_qr_scan", "ios": "https://dc.lft.to/lastmile_qr_scan"}, "is_disabled": 0, "fusion_lat": 0.0, "name": "f530e991eaecd0261a6f46a60d12a037", "fusion_lon": 0.0}, {"is_reserved": 0, "type": "electric_scooter", "bike_id": "8d2a3264710e16ac5102337fe7d13d66", "lat": 38.950214333333335, "lon": -77.067497, "rental_uris": {"android": "https://dc.lft.to/lastmile_qr_scan", "ios": "https://dc.lft.to/lastmile_qr_scan"}, "is_disabled": 0, "fusion_lat": 0.0, "name": "8d2a3264710e16ac5102337fe7d13d66", "fusion_lon": 0.0}, {"is_reserved": 0, "type": "electric_scooter", "bike_id": "bb96017c3c5b0f1b6511120f3cd327c3", "lat": 38.9223915, "lon": -77.04019466666666, "rental_uris": {"android": "https://dc.lft.to/lastmile_qr_scan", "ios": "https://dc.lft.to/lastmile_qr_scan"}, "is_disabled": 0, "fusion_lat": 0.0, "name": "bb96017c3c5b0f1b6511120f3cd327c3", "fusion_lon": 0.0}, {"is_reserved": 0, "type": "electric_scooter", "bike_id": "0c32b8fa7927653115ad514c184c5940", "lat": 38.93409283333333, "lon": -77.04545533333334, "rental_uris": {"android": "https://dc.lft.to/lastmile_qr_scan", "ios": "https://dc.lft.to/lastmile_qr_scan"}, "is_disabled": 0, "fusion_lat": 0.0, "name": "0c32b8fa7927653115ad514c184c5940", "fusion_lon": 0.0}, {"is_reserved": 0, "type": "electric_scooter", "bike_id": "b0b6338f17a9947e045d0a78dbf92091", "lat": 38.8990435, "lon": -77.039506, "rental_uris": {"android": "https://dc.lft.to/lastmile_qr_scan", "ios": "https://dc.lft.to/lastmile_qr_scan"}, "is_disabled": 0, "fusion_lat": 0.0, "name": "b0b6338f17a9947e045d0a78dbf92091", "fusion_lon": 0.0}, {"is_reserved": 0, "type": "electric_scooter", "bike_id": "94d63a2fc7e43781fa67ef54255a13e2", "lat": 38.92060816666667, "lon": -77.029476, "rental_uris": {"android": "https://dc.lft.to/lastmile_qr_scan", "ios": "https://dc.lft.to/lastmile_qr_scan"}, "is_disabled": 0, "fusion_lat": 0.0, "name": "94d63a2fc7e43781fa67ef54255a13e2", "fusion_lon": 0.0}, {"is_reserved": 0, "type": "electric_bike", "bike_id": "5e4f0c8fbbf60e89632de7e7a4d08f47", "lat": 38.9520425, "lon": -77.0027175, "rental_uris": {"android": "https://dc.lft.to/lastmile_qr_scan", "ios": "https://dc.lft.to/lastmile_qr_scan"}, "is_disabled": 0, "fusion_lat": 0.0, "name": "5e4f0c8fbbf60e89632de7e7a4d08f47", "fusion_lon": 0.0}, {"is_reserved": 0, "type": "electric_scooter", "bike_id": "5f3303a0b9c157f412916466e7e4567e", "lat": 38.945117333333336, "lon": -77.03366633333333, "rental_uris": {"android": "https://dc.lft.to/lastmile_qr_scan", "ios": "https://dc.lft.to/lastmile_qr_scan"}, "is_disabled": 0, "fusion_lat": 0.0, "name": "5f3303a0b9c157f412916466e7e4567e", "fusion_lon": 0.0}, {"is_reserved": 0, "type": "electric_scooter", "bike_id": "a42527cf01660b6b1df2a953f3d7aac1", "lat": 38.8953415, "lon": -77.011253, "rental_uris": {"android": "https://dc.lft.to/lastmile_qr_scan", "ios": "https://dc.lft.to/lastmile_qr_scan"}, "is_disabled": 0, "fusion_lat": 0.0, "name": "a42527cf01660b6b1df2a953f3d7aac1", "fusion_lon": 0.0}, {"is_reserved": 0, "type": "electric_scooter", "bike_id": "df0588be972b1ff6ca7faed14f9adf35", "lat": 38.90038716666667, "lon": -76.99633433333334, "rental_uris": {"android": "https://dc.lft.to/lastmile_qr_scan", "ios": "https://dc.lft.to/lastmile_qr_scan"}, "is_disabled": 0, "fusion_lat": 0.0, "name": "df0588be972b1ff6ca7faed14f9adf35", "fusion_lon": 0.0}, {"is_reserved": 0, "type": "electric_scooter", "bike_id": "0b6b823c395dcf6c190e8727e17bbca4", "lat": 38.89514716666667, "lon": -77.022031, "rental_uris": {"android": "https://dc.lft.to/lastmile_qr_scan", "ios": "https://dc.lft.to/lastmile_qr_scan"}, "is_disabled": 0, "fusion_lat": 0.0, "name": "0b6b823c395dcf6c190e8727e17bbca4", "fusion_lon": 0.0}, {"is_reserved": 0, "type": "electric_scooter", "bike_id": "85034a0cd9a7981302431af57df3ae96", "lat": 38.93282383333333, "lon": -77.03935983333334, "rental_uris": {"android": "https://dc.lft.to/lastmile_qr_scan", "ios": "https://dc.lft.to/lastmile_qr_scan"}, "is_disabled": 0, "fusion_lat": 0.0, "name": "85034a0cd9a7981302431af57df3ae96", "fusion_lon": 0.0}, {"is_reserved": 0, "type": "electric_scooter", "bike_id": "a37f216c78e803e3fe9caa179ac16be6", "lat": 38.93089633333334, "lon": -77.02552, "rental_uris": {"android": "https://dc.lft.to/lastmile_qr_scan", "ios": "https://dc.lft.to/lastmile_qr_scan"}, "is_disabled": 0, "fusion_lat": 0.0, "name": "a37f216c78e803e3fe9caa179ac16be6", "fusion_lon": 0.0}, {"is_reserved": 0, "type": "electric_scooter", "bike_id": "798edf8156258bea4fb4c8f48ed7da96", "lat": 38.918194166666666, "lon": -77.036177, "rental_uris": {"android": "https://dc.lft.to/lastmile_qr_scan", "ios": "https://dc.lft.to/lastmile_qr_scan"}, "is_disabled": 0, "fusion_lat": 0.0, "name": "798edf8156258bea4fb4c8f48ed7da96", "fusion_lon": 0.0}, {"is_reserved": 0, "type": "electric_scooter", "bike_id": "1b0d80424dbff63f4c985cfd111d1c5d", "lat": 38.879310333333336, "lon": -77.003775, "rental_uris": {"android": "https://dc.lft.to/lastmile_qr_scan", "ios": "https://dc.lft.to/lastmile_qr_scan"}, "is_disabled": 0, "fusion_lat": 0.0, "name": "1b0d80424dbff63f4c985cfd111d1c5d", "fusion_lon": 0.0}, {"is_reserved": 0, "type": "electric_scooter", "bike_id": "3291ffb2007bad3284156fe55fe01901", "lat": 38.907929, "lon": -77.01077816666667, "rental_uris": {"android": "https://dc.lft.to/lastmile_qr_scan", "ios": "https://dc.lft.to/lastmile_qr_scan"}, "is_disabled": 0, "fusion_lat": 0.0, "name": "3291ffb2007bad3284156fe55fe01901", "fusion_lon": 0.0}, {"is_reserved": 0, "type": "electric_bike", "bike_id": "deb8c0294eb9ab4b0fb10aeca302ef15", "lat": 38.974886166666664, "lon": -77.01818933333334, "rental_uris": {"android": "https://dc.lft.to/lastmile_qr_scan", "ios": "https://dc.lft.to/lastmile_qr_scan"}, "is_disabled": 0, "fusion_lat": 0.0, "name": "deb8c0294eb9ab4b0fb10aeca302ef15", "fusion_lon": 0.0}, {"is_reserved": 0, "type": "electric_scooter", "bike_id": "48b7d17a3bfca8a40dccd70d20e2cc27", "lat": 38.897563, "lon": -77.03045583333333, "rental_uris": {"android": "https://dc.lft.to/lastmile_qr_scan", "ios": "https://dc.lft.to/lastmile_qr_scan"}, "is_disabled": 0, "fusion_lat": 0.0, "name": "48b7d17a3bfca8a40dccd70d20e2cc27", "fusion_lon": 0.0}, {"is_reserved": 0, "type": "electric_scooter", "bike_id": "dfcb2d4bb7d9cb4e5eb8b3ffbdf25645", "lat": 38.88399066666667, "lon": -76.93043766666666, "rental_uris": {"android": "https://dc.lft.to/lastmile_qr_scan", "ios": "https://dc.lft.to/lastmile_qr_scan"}, "is_disabled": 0, "fusion_lat": 0.0, "name": "dfcb2d4bb7d9cb4e5eb8b3ffbdf25645", "fusion_lon": 0.0}, {"is_reserved": 0, "type": "electric_scooter", "bike_id": "258cb5cd1e6fcdaf21457cd48875f622", "lat": 38.900891666666666, "lon": -77.05732166666667, "rental_uris": {"android": "https://dc.lft.to/lastmile_qr_scan", "ios": "https://dc.lft.to/lastmile_qr_scan"}, "is_disabled": 0, "fusion_lat": 0.0, "name": "258cb5cd1e6fcdaf21457cd48875f622", "fusion_lon": 0.0}, {"is_reserved": 0, "type": "electric_scooter", "bike_id": "3ee1e9c688ab0dd6982277c490cfcd8d", "lat": 38.92976816666667, "lon": -77.03930266666667, "rental_uris": {"android": "https://dc.lft.to/lastmile_qr_scan", "ios": "https://dc.lft.to/lastmile_qr_scan"}, "is_disabled": 0, "fusion_lat": 0.0, "name": "3ee1e9c688ab0dd6982277c490cfcd8d", "fusion_lon": 0.0}, {"is_reserved": 0, "type": "electric_scooter", "bike_id": "b9aa245eaabefa850611eaf286fce509", "lat": 38.90891283333333, "lon": -76.99135016666666, "rental_uris": {"android": "https://dc.lft.to/lastmile_qr_scan", "ios": "https://dc.lft.to/lastmile_qr_scan"}, "is_disabled": 0, "fusion_lat": 0.0, "name": "b9aa245eaabefa850611eaf286fce509", "fusion_lon": 0.0}, {"is_reserved": 0, "type": "electric_scooter", "bike_id": "1e2a31f923230b1ace6c3b14524c360e", "lat": 38.89838983333333, "lon": -77.03353433333334, "rental_uris": {"android": "https://dc.lft.to/lastmile_qr_scan", "ios": "https://dc.lft.to/lastmile_qr_scan"}, "is_disabled": 0, "fusion_lat": 0.0, "name": "1e2a31f923230b1ace6c3b14524c360e", "fusion_lon": 0.0}, {"is_reserved": 0, "type": "electric_scooter", "bike_id": "8fcdee3c238921498d7074516899855b", "lat": 38.896837, "lon": -76.93531933333334, "rental_uris": {"android": "https://dc.lft.to/lastmile_qr_scan", "ios": "https://dc.lft.to/lastmile_qr_scan"}, "is_disabled": 0, "fusion_lat": 0.0, "name": "8fcdee3c238921498d7074516899855b", "fusion_lon": 0.0}, {"is_reserved": 0, "type": "electric_scooter", "bike_id": "4b8e23f70df44fe2c7f5d53d82753e60", "lat": 38.896190833333335, "lon": -76.97682316666666, "rental_uris": {"android": "https://dc.lft.to/lastmile_qr_scan", "ios": "https://dc.lft.to/lastmile_qr_scan"}, "is_disabled": 0, "fusion_lat": 0.0, "name": "4b8e23f70df44fe2c7f5d53d82753e60", "fusion_lon": 0.0}, {"is_reserved": 0, "type": "electric_scooter", "bike_id": "3418b7677e5d1708945354596f149565", "lat": 38.9266765, "lon": -77.01464933333334, "rental_uris": {"android": "https://dc.lft.to/lastmile_qr_scan", "ios": "https://dc.lft.to/lastmile_qr_scan"}, "is_disabled": 0, "fusion_lat": 0.0, "name": "3418b7677e5d1708945354596f149565", "fusion_lon": 0.0}, {"is_reserved": 0, "type": "electric_scooter", "bike_id": "310e4b7f0837a5bca62808fba7fa152a", "lat": 38.913332833333335, "lon": -77.024413, "rental_uris": {"android": "https://dc.lft.to/lastmile_qr_scan", "ios": "https://dc.lft.to/lastmile_qr_scan"}, "is_disabled": 0, "fusion_lat": 0.0, "name": "310e4b7f0837a5bca62808fba7fa152a", "fusion_lon": 0.0}, {"is_reserved": 0, "type": "electric_scooter", "bike_id": "e1785d0ab149f20b0d73d2daa4ac2893", "lat": 38.8873725, "lon": -77.01530383333333, "rental_uris": {"android": "https://dc.lft.to/lastmile_qr_scan", "ios": "https://dc.lft.to/lastmile_qr_scan"}, "is_disabled": 0, "fusion_lat": 0.0, "name": "e1785d0ab149f20b0d73d2daa4ac2893", "fusion_lon": 0.0}, {"is_reserved": 0, "type": "electric_scooter", "bike_id": "be6cad9d0f371069cd71a30e62a9b932", "lat": 38.900465, "lon": -77.00185666666667, "rental_uris": {"android": "https://dc.lft.to/lastmile_qr_scan", "ios": "https://dc.lft.to/lastmile_qr_scan"}, "is_disabled": 0, "fusion_lat": 0.0, "name": "be6cad9d0f371069cd71a30e62a9b932", "fusion_lon": 0.0}, {"is_reserved": 0, "type": "electric_scooter", "bike_id": "f0f662087e460b085483b29f4c9723e5", "lat": 38.892722666666664, "lon": -76.9299555, "rental_uris": {"android": "https://dc.lft.to/lastmile_qr_scan", "ios": "https://dc.lft.to/lastmile_qr_scan"}, "is_disabled": 0, "fusion_lat": 0.0, "name": "f0f662087e460b085483b29f4c9723e5", "fusion_lon": 0.0}, {"is_reserved": 0, "type": "electric_scooter", "bike_id": "dfd01ca86ab794f780ab4ac91680bcd1", "lat": 38.9072905, "lon": -77.00702133333333, "rental_uris": {"android": "https://dc.lft.to/lastmile_qr_scan", "ios": "https://dc.lft.to/lastmile_qr_scan"}, "is_disabled": 0, "fusion_lat": 0.0, "name": "dfd01ca86ab794f780ab4ac91680bcd1", "fusion_lon": 0.0}, {"is_reserved": 0, "type": "electric_scooter", "bike_id": "b5f821f15daa5a9d5e9b8756415aac27", "lat": 38.90962416666667, "lon": -77.03347733333334, "rental_uris": {"android": "https://dc.lft.to/lastmile_qr_scan", "ios": "https://dc.lft.to/lastmile_qr_scan"}, "is_disabled": 0, "fusion_lat": 0.0, "name": "b5f821f15daa5a9d5e9b8756415aac27", "fusion_lon": 0.0}, {"is_reserved": 0, "type": "electric_bike", "bike_id": "3da4054a84173784beb08ec41081494a", "lat": 38.84790816666667, "lon": -77.00463116666667, "rental_uris": {"android": "https://dc.lft.to/lastmile_qr_scan", "ios": "https://dc.lft.to/lastmile_qr_scan"}, "is_disabled": 0, "fusion_lat": 0.0, "name": "3da4054a84173784beb08ec41081494a", "fusion_lon": 0.0}, {"is_reserved": 0, "type": "electric_scooter", "bike_id": "05b8b922e312d40af1a1bbe450c983b1", "lat": 38.898522, "lon": -77.02852066666667, "rental_uris": {"android": "https://dc.lft.to/lastmile_qr_scan", "ios": "https://dc.lft.to/lastmile_qr_scan"}, "is_disabled": 0, "fusion_lat": 0.0, "name": "05b8b922e312d40af1a1bbe450c983b1", "fusion_lon": 0.0}, {"is_reserved": 0, "type": "electric_scooter", "bike_id": "3ebe03116c8e769cfa8db54884ccf87a", "lat": 38.892270833333335, "lon": -77.046846, "rental_uris": {"android": "https://dc.lft.to/lastmile_qr_scan", "ios": "https://dc.lft.to/lastmile_qr_scan"}, "is_disabled": 0, "fusion_lat": 0.0, "name": "3ebe03116c8e769cfa8db54884ccf87a", "fusion_lon": 0.0}, {"is_reserved": 0, "type": "electric_scooter", "bike_id": "92234114b262779a6d6ebb443efe281b", "lat": 38.920823666666664, "lon": -77.02459316666666, "rental_uris": {"android": "https://dc.lft.to/lastmile_qr_scan", "ios": "https://dc.lft.to/lastmile_qr_scan"}, "is_disabled": 0, "fusion_lat": 0.0, "name": "92234114b262779a6d6ebb443efe281b", "fusion_lon": 0.0}, {"is_reserved": 0, "type": "electric_scooter", "bike_id": "8cbaf675345f3511673d6bb07f3379f8", "lat": 38.897279166666664, "lon": -76.99514916666666, "rental_uris": {"android": "https://dc.lft.to/lastmile_qr_scan", "ios": "https://dc.lft.to/lastmile_qr_scan"}, "is_disabled": 0, "fusion_lat": 0.0, "name": "8cbaf675345f3511673d6bb07f3379f8", "fusion_lon": 0.0}, {"is_reserved": 0, "type": "electric_bike", "bike_id": "7dfb09b555b7925c5a2aed59bd5d7ef7", "lat": 38.824292166666666, "lon": -77.12033033333333, "rental_uris": {"android": "https://dc.lft.to/lastmile_qr_scan", "ios": "https://dc.lft.to/lastmile_qr_scan"}, "is_disabled": 0, "fusion_lat": 0.0, "name": "7dfb09b555b7925c5a2aed59bd5d7ef7", "fusion_lon": 0.0}, {"is_reserved": 0, "type": "electric_scooter", "bike_id": "61e79339ca1cdd60bc786384b4205f3f", "lat": 38.90978833333333, "lon": -77.03247216666666, "rental_uris": {"android": "https://dc.lft.to/lastmile_qr_scan", "ios": "https://dc.lft.to/lastmile_qr_scan"}, "is_disabled": 0, "fusion_lat": 0.0, "name": "61e79339ca1cdd60bc786384b4205f3f", "fusion_lon": 0.0}, {"is_reserved": 0, "type": "electric_scooter", "bike_id": "02954a8412a7f272974333a5e384a4cb", "lat": 38.920221166666664, "lon": -77.02049583333333, "rental_uris": {"android": "https://dc.lft.to/lastmile_qr_scan", "ios": "https://dc.lft.to/lastmile_qr_scan"}, "is_disabled": 0, "fusion_lat": 0.0, "name": "02954a8412a7f272974333a5e384a4cb", "fusion_lon": 0.0}, {"is_reserved": 0, "type": "electric_scooter", "bike_id": "6d25ddd97c34d32784e91086dff3db1e", "lat": 38.90141283333333, "lon": -77.05124466666666, "rental_uris": {"android": "https://dc.lft.to/lastmile_qr_scan", "ios": "https://dc.lft.to/lastmile_qr_scan"}, "is_disabled": 0, "fusion_lat": 0.0, "name": "6d25ddd97c34d32784e91086dff3db1e", "fusion_lon": 0.0}, {"is_reserved": 0, "type": "electric_scooter", "bike_id": "38315d0408e1d6205f355e10708b6a1b", "lat": 38.89968316666667, "lon": -76.99035516666666, "rental_uris": {"android": "https://dc.lft.to/lastmile_qr_scan", "ios": "https://dc.lft.to/lastmile_qr_scan"}, "is_disabled": 0, "fusion_lat": 0.0, "name": "38315d0408e1d6205f355e10708b6a1b", "fusion_lon": 0.0}, {"is_reserved": 0, "type": "electric_scooter", "bike_id": "70537c4c48042c9bf5841a18646f0e82", "lat": 38.924859, "lon": -77.02271483333334, "rental_uris": {"android": "https://dc.lft.to/lastmile_qr_scan", "ios": "https://dc.lft.to/lastmile_qr_scan"}, "is_disabled": 0, "fusion_lat": 0.0, "name": "70537c4c48042c9bf5841a18646f0e82", "fusion_lon": 0.0}, {"is_reserved": 0, "type": "electric_scooter", "bike_id": "35387f839b16dde53f5ebbd8bc181bab", "lat": 38.921786166666664, "lon": -77.01039083333333, "rental_uris": {"android": "https://dc.lft.to/lastmile_qr_scan", "ios": "https://dc.lft.to/lastmile_qr_scan"}, "is_disabled": 0, "fusion_lat": 0.0, "name": "35387f839b16dde53f5ebbd8bc181bab", "fusion_lon": 0.0}, {"is_reserved": 0, "type": "electric_bike", "bike_id": "cef405ec97bba1cf26403cf85586b4a5", "lat": 38.949529166666665, "lon": -77.01614916666666, "rental_uris": {"android": "https://dc.lft.to/lastmile_qr_scan", "ios": "https://dc.lft.to/lastmile_qr_scan"}, "is_disabled": 0, "fusion_lat": 0.0, "name": "cef405ec97bba1cf26403cf85586b4a5", "fusion_lon": 0.0}, {"is_reserved": 0, "type": "electric_scooter", "bike_id": "7b98f9147b685407e0f83b572bcd5542", "lat": 38.91783566666667, "lon": -77.02976183333334, "rental_uris": {"android": "https://dc.lft.to/lastmile_qr_scan", "ios": "https://dc.lft.to/lastmile_qr_scan"}, "is_disabled": 0, "fusion_lat": 0.0, "name": "7b98f9147b685407e0f83b572bcd5542", "fusion_lon": 0.0}, {"is_reserved": 0, "type": "electric_scooter", "bike_id": "ceaca7508ac5b9de50c8448e3e33135e", "lat": 38.9099435, "lon": -77.04423166666666, "rental_uris": {"android": "https://dc.lft.to/lastmile_qr_scan", "ios": "https://dc.lft.to/lastmile_qr_scan"}, "is_disabled": 0, "fusion_lat": 0.0, "name": "ceaca7508ac5b9de50c8448e3e33135e", "fusion_lon": 0.0}, {"is_reserved": 0, "type": "electric_scooter", "bike_id": "bd4ff9f9215b2524d672f1895bc2af15", "lat": 38.927321, "lon": -77.041784, "rental_uris": {"android": "https://dc.lft.to/lastmile_qr_scan", "ios": "https://dc.lft.to/lastmile_qr_scan"}, "is_disabled": 0, "fusion_lat": 0.0, "name": "bd4ff9f9215b2524d672f1895bc2af15", "fusion_lon": 0.0}, {"is_reserved": 0, "type": "electric_scooter", "bike_id": "6bc47613fa297a1cd191811599f59908", "lat": 38.90065466666667, "lon": -77.03371583333333, "rental_uris": {"android": "https://dc.lft.to/lastmile_qr_scan", "ios": "https://dc.lft.to/lastmile_qr_scan"}, "is_disabled": 0, "fusion_lat": 0.0, "name": "6bc47613fa297a1cd191811599f59908", "fusion_lon": 0.0}, {"is_reserved": 0, "type": "electric_scooter", "bike_id": "5ba9f3eb62f8e64384e9ad7917e2f392", "lat": 38.9248595, "lon": -77.03193066666667, "rental_uris": {"android": "https://dc.lft.to/lastmile_qr_scan", "ios": "https://dc.lft.to/lastmile_qr_scan"}, "is_disabled": 0, "fusion_lat": 0.0, "name": "5ba9f3eb62f8e64384e9ad7917e2f392", "fusion_lon": 0.0}, {"is_reserved": 0, "type": "electric_scooter", "bike_id": "a4f5358489e478ce1f833a87497f09dc", "lat": 38.8800355, "lon": -77.0053895, "rental_uris": {"android": "https://dc.lft.to/lastmile_qr_scan", "ios": "https://dc.lft.to/lastmile_qr_scan"}, "is_disabled": 0, "fusion_lat": 0.0, "name": "a4f5358489e478ce1f833a87497f09dc", "fusion_lon": 0.0}, {"is_reserved": 0, "type": "electric_scooter", "bike_id": "04f5098cd36f5855bb1b10e23b155e46", "lat": 38.900170833333334, "lon": -77.0069285, "rental_uris": {"android": "https://dc.lft.to/lastmile_qr_scan", "ios": "https://dc.lft.to/lastmile_qr_scan"}, "is_disabled": 0, "fusion_lat": 0.0, "name": "04f5098cd36f5855bb1b10e23b155e46", "fusion_lon": 0.0}, {"is_reserved": 0, "type": "electric_scooter", "bike_id": "751ec474b3e876d87f6ea22ebc41ee74", "lat": 38.92659783333333, "lon": -77.04137716666666, "rental_uris": {"android": "https://dc.lft.to/lastmile_qr_scan", "ios": "https://dc.lft.to/lastmile_qr_scan"}, "is_disabled": 0, "fusion_lat": 0.0, "name": "751ec474b3e876d87f6ea22ebc41ee74", "fusion_lon": 0.0}, {"is_reserved": 0, "type": "electric_scooter", "bike_id": "a709aec02fb0035bbe426849dfec253a", "lat": 38.915553, "lon": -77.03106366666667, "rental_uris": {"android": "https://dc.lft.to/lastmile_qr_scan", "ios": "https://dc.lft.to/lastmile_qr_scan"}, "is_disabled": 0, "fusion_lat": 0.0, "name": "a709aec02fb0035bbe426849dfec253a", "fusion_lon": 0.0}, {"is_reserved": 0, "type": "electric_scooter", "bike_id": "8fe5d1c2f7cdc4cecc2c330810b0afe5", "lat": 38.903449, "lon": -77.02588666666666, "rental_uris": {"android": "https://dc.lft.to/lastmile_qr_scan", "ios": "https://dc.lft.to/lastmile_qr_scan"}, "is_disabled": 0, "fusion_lat": 0.0, "name": "8fe5d1c2f7cdc4cecc2c330810b0afe5", "fusion_lon": 0.0}, {"is_reserved": 0, "type": "electric_scooter", "bike_id": "5c085e08a7abf2e29f1caa6139d1aaba", "lat": 38.92927266666667, "lon": -77.02008016666667, "rental_uris": {"android": "https://dc.lft.to/lastmile_qr_scan", "ios": "https://dc.lft.to/lastmile_qr_scan"}, "is_disabled": 0, "fusion_lat": 0.0, "name": "5c085e08a7abf2e29f1caa6139d1aaba", "fusion_lon": 0.0}, {"is_reserved": 0, "type": "electric_scooter", "bike_id": "6969eac70af309bc86e3168d25358b23", "lat": 38.915841, "lon": -77.01234233333334, "rental_uris": {"android": "https://dc.lft.to/lastmile_qr_scan", "ios": "https://dc.lft.to/lastmile_qr_scan"}, "is_disabled": 0, "fusion_lat": 0.0, "name": "6969eac70af309bc86e3168d25358b23", "fusion_lon": 0.0}, {"is_reserved": 0, "type": "electric_scooter", "bike_id": "180cb6c7cbbfe1f6baf7f92cc3f971a0", "lat": 38.88634533333333, "lon": -77.01286216666666, "rental_uris": {"android": "https://dc.lft.to/lastmile_qr_scan", "ios": "https://dc.lft.to/lastmile_qr_scan"}, "is_disabled": 0, "fusion_lat": 0.0, "name": "180cb6c7cbbfe1f6baf7f92cc3f971a0", "fusion_lon": 0.0}, {"is_reserved": 0, "type": "electric_scooter", "bike_id": "c0a8b7655de4124a79d1d6eccf594e54", "lat": 38.89957533333333, "lon": -76.97557716666667, "rental_uris": {"android": "https://dc.lft.to/lastmile_qr_scan", "ios": "https://dc.lft.to/lastmile_qr_scan"}, "is_disabled": 0, "fusion_lat": 0.0, "name": "c0a8b7655de4124a79d1d6eccf594e54", "fusion_lon": 0.0}, {"is_reserved": 0, "type": "electric_scooter", "bike_id": "783a24ab5c29895bfa5b6c8090ceb37a", "lat": 38.92385783333334, "lon": -77.0366565, "rental_uris": {"android": "https://dc.lft.to/lastmile_qr_scan", "ios": "https://dc.lft.to/lastmile_qr_scan"}, "is_disabled": 0, "fusion_lat": 0.0, "name": "783a24ab5c29895bfa5b6c8090ceb37a", "fusion_lon": 0.0}, {"is_reserved": 0, "type": "electric_scooter", "bike_id": "cb78c9a6a4f0bbf4eca636998b92859c", "lat": 38.90262766666667, "lon": -77.019955, "rental_uris": {"android": "https://dc.lft.to/lastmile_qr_scan", "ios": "https://dc.lft.to/lastmile_qr_scan"}, "is_disabled": 0, "fusion_lat": 0.0, "name": "cb78c9a6a4f0bbf4eca636998b92859c", "fusion_lon": 0.0}, {"is_reserved": 0, "type": "electric_scooter", "bike_id": "302a845b84bd39f568ac366da881703d", "lat": 38.92246766666667, "lon": -77.0223985, "rental_uris": {"android": "https://dc.lft.to/lastmile_qr_scan", "ios": "https://dc.lft.to/lastmile_qr_scan"}, "is_disabled": 0, "fusion_lat": 0.0, "name": "302a845b84bd39f568ac366da881703d", "fusion_lon": 0.0}, {"is_reserved": 0, "type": "electric_scooter", "bike_id": "f48d8017ef8b91c79c4896d0fdea923c", "lat": 38.88741816666667, "lon": -77.01349483333334, "rental_uris": {"android": "https://dc.lft.to/lastmile_qr_scan", "ios": "https://dc.lft.to/lastmile_qr_scan"}, "is_disabled": 0, "fusion_lat": 0.0, "name": "f48d8017ef8b91c79c4896d0fdea923c", "fusion_lon": 0.0}, {"is_reserved": 0, "type": "electric_scooter", "bike_id": "0268c98c2127dc30b6cbcba721a7ca49", "lat": 38.944427166666664, "lon": -77.02912266666667, "rental_uris": {"android": "https://dc.lft.to/lastmile_qr_scan", "ios": "https://dc.lft.to/lastmile_qr_scan"}, "is_disabled": 0, "fusion_lat": 0.0, "name": "0268c98c2127dc30b6cbcba721a7ca49", "fusion_lon": 0.0}, {"is_reserved": 0, "type": "electric_bike", "bike_id": "4eaa88db900af2bf59ff9b51c3b3584f", "lat": 38.94515833333333, "lon": -77.00675866666667, "rental_uris": {"android": "https://dc.lft.to/lastmile_qr_scan", "ios": "https://dc.lft.to/lastmile_qr_scan"}, "is_disabled": 0, "fusion_lat": 0.0, "name": "4eaa88db900af2bf59ff9b51c3b3584f", "fusion_lon": 0.0}, {"is_reserved": 0, "type": "electric_scooter", "bike_id": "324b4faea2f3a5e815a023aa86d60b89", "lat": 38.924215333333336, "lon": -77.02011383333334, "rental_uris": {"android": "https://dc.lft.to/lastmile_qr_scan", "ios": "https://dc.lft.to/lastmile_qr_scan"}, "is_disabled": 0, "fusion_lat": 0.0, "name": "324b4faea2f3a5e815a023aa86d60b89", "fusion_lon": 0.0}, {"is_reserved": 0, "type": "electric_bike", "bike_id": "cd0ac1bee190ddb1bcdc20f3eba3c7b1", "lat": 38.877326, "lon": -77.1184985, "rental_uris": {"android": "https://dc.lft.to/lastmile_qr_scan", "ios": "https://dc.lft.to/lastmile_qr_scan"}, "is_disabled": 0, "fusion_lat": 0.0, "name": "cd0ac1bee190ddb1bcdc20f3eba3c7b1", "fusion_lon": 0.0}, {"is_reserved": 0, "type": "electric_scooter", "bike_id": "817779f978b74d31458b4dbe4315eeea", "lat": 38.883849, "lon": -77.02995666666666, "rental_uris": {"android": "https://dc.lft.to/lastmile_qr_scan", "ios": "https://dc.lft.to/lastmile_qr_scan"}, "is_disabled": 0, "fusion_lat": 0.0, "name": "817779f978b74d31458b4dbe4315eeea", "fusion_lon": 0.0}, {"is_reserved": 0, "type": "electric_scooter", "bike_id": "4b16e0dac79d027cd3be0350bd12c232", "lat": 38.934009833333334, "lon": -77.02845066666667, "rental_uris": {"android": "https://dc.lft.to/lastmile_qr_scan", "ios": "https://dc.lft.to/lastmile_qr_scan"}, "is_disabled": 0, "fusion_lat": 0.0, "name": "4b16e0dac79d027cd3be0350bd12c232", "fusion_lon": 0.0}, {"is_reserved": 0, "type": "electric_scooter", "bike_id": "5226ac429a20f05acbca442097207e2b", "lat": 38.898871166666666, "lon": -76.99359383333334, "rental_uris": {"android": "https://dc.lft.to/lastmile_qr_scan", "ios": "https://dc.lft.to/lastmile_qr_scan"}, "is_disabled": 0, "fusion_lat": 0.0, "name": "5226ac429a20f05acbca442097207e2b", "fusion_lon": 0.0}, {"is_reserved": 0, "type": "electric_scooter", "bike_id": "fbaff950b162741edd0e1b8518e0e93f", "lat": 38.89230716666667, "lon": -77.044886, "rental_uris": {"android": "https://dc.lft.to/lastmile_qr_scan", "ios": "https://dc.lft.to/lastmile_qr_scan"}, "is_disabled": 0, "fusion_lat": 0.0, "name": "fbaff950b162741edd0e1b8518e0e93f", "fusion_lon": 0.0}, {"is_reserved": 0, "type": "electric_scooter", "bike_id": "f332e0828044feed9653798c93a1ed77", "lat": 38.902324166666666, "lon": -77.02837666666667, "rental_uris": {"android": "https://dc.lft.to/lastmile_qr_scan", "ios": "https://dc.lft.to/lastmile_qr_scan"}, "is_disabled": 0, "fusion_lat": 0.0, "name": "f332e0828044feed9653798c93a1ed77", "fusion_lon": 0.0}, {"is_reserved": 0, "type": "electric_scooter", "bike_id": "14c0d6cf5e6dc845b56953a21ff85723", "lat": 38.93373883333334, "lon": -77.03467916666666, "rental_uris": {"android": "https://dc.lft.to/lastmile_qr_scan", "ios": "https://dc.lft.to/lastmile_qr_scan"}, "is_disabled": 0, "fusion_lat": 0.0, "name": "14c0d6cf5e6dc845b56953a21ff85723", "fusion_lon": 0.0}, {"is_reserved": 0, "type": "electric_scooter", "bike_id": "29dee5fd886de19fec4abd0d31d85772", "lat": 38.897360666666664, "lon": -77.03254, "rental_uris": {"android": "https://dc.lft.to/lastmile_qr_scan", "ios": "https://dc.lft.to/lastmile_qr_scan"}, "is_disabled": 0, "fusion_lat": 0.0, "name": "29dee5fd886de19fec4abd0d31d85772", "fusion_lon": 0.0}, {"is_reserved": 0, "type": "electric_scooter", "bike_id": "b667d5b1b2483b235b3a7b5f3af80ecf", "lat": 38.89718233333333, "lon": -77.05359416666667, "rental_uris": {"android": "https://dc.lft.to/lastmile_qr_scan", "ios": "https://dc.lft.to/lastmile_qr_scan"}, "is_disabled": 0, "fusion_lat": 0.0, "name": "b667d5b1b2483b235b3a7b5f3af80ecf", "fusion_lon": 0.0}, {"is_reserved": 0, "type": "electric_scooter", "bike_id": "154987f27fb2e424bc8c8c3523df1bc8", "lat": 38.91637466666667, "lon": -77.048101, "rental_uris": {"android": "https://dc.lft.to/lastmile_qr_scan", "ios": "https://dc.lft.to/lastmile_qr_scan"}, "is_disabled": 0, "fusion_lat": 0.0, "name": "154987f27fb2e424bc8c8c3523df1bc8", "fusion_lon": 0.0}, {"is_reserved": 0, "type": "electric_scooter", "bike_id": "ebcc073b66978640f2d472da0f0b44e7", "lat": 38.90727566666666, "lon": -77.0399895, "rental_uris": {"android": "https://dc.lft.to/lastmile_qr_scan", "ios": "https://dc.lft.to/lastmile_qr_scan"}, "is_disabled": 0, "fusion_lat": 0.0, "name": "ebcc073b66978640f2d472da0f0b44e7", "fusion_lon": 0.0}, {"is_reserved": 0, "type": "electric_scooter", "bike_id": "357bb3b3c1b346de86437f71c65c9afc", "lat": 38.899056333333334, "lon": -77.0035285, "rental_uris": {"android": "https://dc.lft.to/lastmile_qr_scan", "ios": "https://dc.lft.to/lastmile_qr_scan"}, "is_disabled": 0, "fusion_lat": 0.0, "name": "357bb3b3c1b346de86437f71c65c9afc", "fusion_lon": 0.0}, {"is_reserved": 0, "type": "electric_scooter", "bike_id": "0e41b40e239b23bfe5bec9042fdf4977", "lat": 38.92249483333333, "lon": -77.02882616666666, "rental_uris": {"android": "https://dc.lft.to/lastmile_qr_scan", "ios": "https://dc.lft.to/lastmile_qr_scan"}, "is_disabled": 0, "fusion_lat": 0.0, "name": "0e41b40e239b23bfe5bec9042fdf4977", "fusion_lon": 0.0}, {"is_reserved": 0, "type": "electric_bike", "bike_id": "9f7c437db0102c31cb8fde9fe7dc9a29", "lat": 38.807328, "lon": -76.9925475, "rental_uris": {"android": "https://dc.lft.to/lastmile_qr_scan", "ios": "https://dc.lft.to/lastmile_qr_scan"}, "is_disabled": 0, "fusion_lat": 0.0, "name": "9f7c437db0102c31cb8fde9fe7dc9a29", "fusion_lon": 0.0}, {"is_reserved": 0, "type": "electric_scooter", "bike_id": "8f19b59e210768e997a66d8c063df44b", "lat": 38.90164433333333, "lon": -77.02818716666667, "rental_uris": {"android": "https://dc.lft.to/lastmile_qr_scan", "ios": "https://dc.lft.to/lastmile_qr_scan"}, "is_disabled": 0, "fusion_lat": 0.0, "name": "8f19b59e210768e997a66d8c063df44b", "fusion_lon": 0.0}, {"is_reserved": 0, "type": "electric_scooter", "bike_id": "2c3bc1a2509f1f1a362a6d2b2df54f13", "lat": 38.90180466666666, "lon": -76.9289105, "rental_uris": {"android": "https://dc.lft.to/lastmile_qr_scan", "ios": "https://dc.lft.to/lastmile_qr_scan"}, "is_disabled": 0, "fusion_lat": 0.0, "name": "2c3bc1a2509f1f1a362a6d2b2df54f13", "fusion_lon": 0.0}, {"is_reserved": 0, "type": "electric_scooter", "bike_id": "ffd906299ca84636e8766d0c707406e7", "lat": 38.92433116666667, "lon": -77.02243083333333, "rental_uris": {"android": "https://dc.lft.to/lastmile_qr_scan", "ios": "https://dc.lft.to/lastmile_qr_scan"}, "is_disabled": 0, "fusion_lat": 0.0, "name": "ffd906299ca84636e8766d0c707406e7", "fusion_lon": 0.0}, {"is_reserved": 0, "type": "electric_scooter", "bike_id": "89a8394efdbbad740ca109982438a637", "lat": 38.905480833333336, "lon": -77.0569925, "rental_uris": {"android": "https://dc.lft.to/lastmile_qr_scan", "ios": "https://dc.lft.to/lastmile_qr_scan"}, "is_disabled": 0, "fusion_lat": 0.0, "name": "89a8394efdbbad740ca109982438a637", "fusion_lon": 0.0}, {"is_reserved": 0, "type": "electric_scooter", "bike_id": "595f5a82c263e278ce3d4e1c13964756", "lat": 38.87215283333333, "lon": -77.01543216666667, "rental_uris": {"android": "https://dc.lft.to/lastmile_qr_scan", "ios": "https://dc.lft.to/lastmile_qr_scan"}, "is_disabled": 0, "fusion_lat": 0.0, "name": "595f5a82c263e278ce3d4e1c13964756", "fusion_lon": 0.0}, {"is_reserved": 0, "type": "electric_scooter", "bike_id": "eec37caf32ecddf73cdb20319dd98dba", "lat": 38.88325416666667, "lon": -77.00954966666667, "rental_uris": {"android": "https://dc.lft.to/lastmile_qr_scan", "ios": "https://dc.lft.to/lastmile_qr_scan"}, "is_disabled": 0, "fusion_lat": 0.0, "name": "eec37caf32ecddf73cdb20319dd98dba", "fusion_lon": 0.0}, {"is_reserved": 0, "type": "electric_scooter", "bike_id": "786efd2d1618c9678fbf1fcef8b97be8", "lat": 38.903979666666665, "lon": -77.05386766666666, "rental_uris": {"android": "https://dc.lft.to/lastmile_qr_scan", "ios": "https://dc.lft.to/lastmile_qr_scan"}, "is_disabled": 0, "fusion_lat": 0.0, "name": "786efd2d1618c9678fbf1fcef8b97be8", "fusion_lon": 0.0}, {"is_reserved": 0, "type": "electric_scooter", "bike_id": "96d2293ba827c56b0a08fbd858915668", "lat": 38.91396566666667, "lon": -77.019849, "rental_uris": {"android": "https://dc.lft.to/lastmile_qr_scan", "ios": "https://dc.lft.to/lastmile_qr_scan"}, "is_disabled": 0, "fusion_lat": 0.0, "name": "96d2293ba827c56b0a08fbd858915668", "fusion_lon": 0.0}, {"is_reserved": 0, "type": "electric_scooter", "bike_id": "4bd409e0902668569e618d88ed0a2a2c", "lat": 38.899595, "lon": -77.05092333333333, "rental_uris": {"android": "https://dc.lft.to/lastmile_qr_scan", "ios": "https://dc.lft.to/lastmile_qr_scan"}, "is_disabled": 0, "fusion_lat": 0.0, "name": "4bd409e0902668569e618d88ed0a2a2c", "fusion_lon": 0.0}, {"is_reserved": 0, "type": "electric_scooter", "bike_id": "1303fd2134fb7bbef0303158c405a9b9", "lat": 38.92233916666667, "lon": -77.02329283333333, "rental_uris": {"android": "https://dc.lft.to/lastmile_qr_scan", "ios": "https://dc.lft.to/lastmile_qr_scan"}, "is_disabled": 0, "fusion_lat": 0.0, "name": "1303fd2134fb7bbef0303158c405a9b9", "fusion_lon": 0.0}, {"is_reserved": 0, "type": "electric_bike", "bike_id": "b2a32baaf0c9587befee2d6e0963478c", "lat": 38.78398833333333, "lon": -77.12076433333333, "rental_uris": {"android": "https://dc.lft.to/lastmile_qr_scan", "ios": "https://dc.lft.to/lastmile_qr_scan"}, "is_disabled": 0, "fusion_lat": 0.0, "name": "b2a32baaf0c9587befee2d6e0963478c", "fusion_lon": 0.0}, {"is_reserved": 0, "type": "electric_scooter", "bike_id": "2839d7c7410fcde8e3447f36e4281f92", "lat": 38.918933, "lon": -77.03454983333333, "rental_uris": {"android": "https://dc.lft.to/lastmile_qr_scan", "ios": "https://dc.lft.to/lastmile_qr_scan"}, "is_disabled": 0, "fusion_lat": 0.0, "name": "2839d7c7410fcde8e3447f36e4281f92", "fusion_lon": 0.0}, {"is_reserved": 0, "type": "electric_scooter", "bike_id": "85665fa52164d7c32c9600ba40067db5", "lat": 38.973804666666666, "lon": -77.018113, "rental_uris": {"android": "https://dc.lft.to/lastmile_qr_scan", "ios": "https://dc.lft.to/lastmile_qr_scan"}, "is_disabled": 0, "fusion_lat": 0.0, "name": "85665fa52164d7c32c9600ba40067db5", "fusion_lon": 0.0}, {"is_reserved": 0, "type": "electric_scooter", "bike_id": "c7d585ecc52060fa3df202f6f38a9386", "lat": 38.913154, "lon": -77.0365055, "rental_uris": {"android": "https://dc.lft.to/lastmile_qr_scan", "ios": "https://dc.lft.to/lastmile_qr_scan"}, "is_disabled": 0, "fusion_lat": 0.0, "name": "c7d585ecc52060fa3df202f6f38a9386", "fusion_lon": 0.0}, {"is_reserved": 0, "type": "electric_scooter", "bike_id": "fcd28eb6fe7a21e3def3bb5a1734b3fb", "lat": 38.92485933333333, "lon": -77.02270983333334, "rental_uris": {"android": "https://dc.lft.to/lastmile_qr_scan", "ios": "https://dc.lft.to/lastmile_qr_scan"}, "is_disabled": 0, "fusion_lat": 0.0, "name": "fcd28eb6fe7a21e3def3bb5a1734b3fb", "fusion_lon": 0.0}, {"is_reserved": 0, "type": "electric_scooter", "bike_id": "1ad7bdaab89506b68cba62156bb34952", "lat": 38.921103333333335, "lon": -77.03185116666667, "rental_uris": {"android": "https://dc.lft.to/lastmile_qr_scan", "ios": "https://dc.lft.to/lastmile_qr_scan"}, "is_disabled": 0, "fusion_lat": 0.0, "name": "1ad7bdaab89506b68cba62156bb34952", "fusion_lon": 0.0}, {"is_reserved": 0, "type": "electric_scooter", "bike_id": "4a073658cd05bd2736b8f60014327893", "lat": 38.90379033333333, "lon": -77.031399, "rental_uris": {"android": "https://dc.lft.to/lastmile_qr_scan", "ios": "https://dc.lft.to/lastmile_qr_scan"}, "is_disabled": 0, "fusion_lat": 0.0, "name": "4a073658cd05bd2736b8f60014327893", "fusion_lon": 0.0}, {"is_reserved": 0, "type": "electric_scooter", "bike_id": "2204788f71b7db8f8277dbbe409a96aa", "lat": 38.89952183333333, "lon": -76.98190416666667, "rental_uris": {"android": "https://dc.lft.to/lastmile_qr_scan", "ios": "https://dc.lft.to/lastmile_qr_scan"}, "is_disabled": 0, "fusion_lat": 0.0, "name": "2204788f71b7db8f8277dbbe409a96aa", "fusion_lon": 0.0}, {"is_reserved": 0, "type": "electric_scooter", "bike_id": "078a38422ead699efa3bfff82336b41d", "lat": 38.933374666666666, "lon": -77.08180933333334, "rental_uris": {"android": "https://dc.lft.to/lastmile_qr_scan", "ios": "https://dc.lft.to/lastmile_qr_scan"}, "is_disabled": 0, "fusion_lat": 0.0, "name": "078a38422ead699efa3bfff82336b41d", "fusion_lon": 0.0}, {"is_reserved": 0, "type": "electric_scooter", "bike_id": "7c0a878dd3cf50aa5739fbe574a3fbf1", "lat": 38.921406, "lon": -77.04702833333333, "rental_uris": {"android": "https://dc.lft.to/lastmile_qr_scan", "ios": "https://dc.lft.to/lastmile_qr_scan"}, "is_disabled": 0, "fusion_lat": 0.0, "name": "7c0a878dd3cf50aa5739fbe574a3fbf1", "fusion_lon": 0.0}, {"is_reserved": 0, "type": "electric_scooter", "bike_id": "f145b1f33c4aef6ef26525915b2171d7", "lat": 38.90667716666667, "lon": -77.0271345, "rental_uris": {"android": "https://dc.lft.to/lastmile_qr_scan", "ios": "https://dc.lft.to/lastmile_qr_scan"}, "is_disabled": 0, "fusion_lat": 0.0, "name": "f145b1f33c4aef6ef26525915b2171d7", "fusion_lon": 0.0}, {"is_reserved": 0, "type": "electric_scooter", "bike_id": "1fb6cdd29abd54ead03bbea534f05b69", "lat": 38.89564016666667, "lon": -77.0111425, "rental_uris": {"android": "https://dc.lft.to/lastmile_qr_scan", "ios": "https://dc.lft.to/lastmile_qr_scan"}, "is_disabled": 0, "fusion_lat": 0.0, "name": "1fb6cdd29abd54ead03bbea534f05b69", "fusion_lon": 0.0}, {"is_reserved": 0, "type": "electric_scooter", "bike_id": "4b4a5915032e8d52fb7d80525d8f3d18", "lat": 38.90730833333333, "lon": -77.02440033333333, "rental_uris": {"android": "https://dc.lft.to/lastmile_qr_scan", "ios": "https://dc.lft.to/lastmile_qr_scan"}, "is_disabled": 0, "fusion_lat": 0.0, "name": "4b4a5915032e8d52fb7d80525d8f3d18", "fusion_lon": 0.0}, {"is_reserved": 0, "type": "electric_scooter", "bike_id": "4f29143734b6fc412fc72e36ddc75a4d", "lat": 38.91990883333333, "lon": -77.03468516666666, "rental_uris": {"android": "https://dc.lft.to/lastmile_qr_scan", "ios": "https://dc.lft.to/lastmile_qr_scan"}, "is_disabled": 0, "fusion_lat": 0.0, "name": "4f29143734b6fc412fc72e36ddc75a4d", "fusion_lon": 0.0}, {"is_reserved": 0, "type": "electric_scooter", "bike_id": "03eb73cedba9dd66a6b92d209eaf2bf8", "lat": 38.926144, "lon": -77.05650583333333, "rental_uris": {"android": "https://dc.lft.to/lastmile_qr_scan", "ios": "https://dc.lft.to/lastmile_qr_scan"}, "is_disabled": 0, "fusion_lat": 0.0, "name": "03eb73cedba9dd66a6b92d209eaf2bf8", "fusion_lon": 0.0}, {"is_reserved": 0, "type": "electric_scooter", "bike_id": "76fae8027e4fc5f58561815aa8a589fc", "lat": 38.93277366666667, "lon": -76.98538616666667, "rental_uris": {"android": "https://dc.lft.to/lastmile_qr_scan", "ios": "https://dc.lft.to/lastmile_qr_scan"}, "is_disabled": 0, "fusion_lat": 0.0, "name": "76fae8027e4fc5f58561815aa8a589fc", "fusion_lon": 0.0}, {"is_reserved": 0, "type": "electric_scooter", "bike_id": "258a75e201ab15a0c08704f637dc7ce8", "lat": 38.8963595, "lon": -77.03206566666667, "rental_uris": {"android": "https://dc.lft.to/lastmile_qr_scan", "ios": "https://dc.lft.to/lastmile_qr_scan"}, "is_disabled": 0, "fusion_lat": 0.0, "name": "258a75e201ab15a0c08704f637dc7ce8", "fusion_lon": 0.0}, {"is_reserved": 0, "type": "electric_bike", "bike_id": "c227d81026cd97df5578086d45bdb6ef", "lat": 38.8692375, "lon": -76.95957866666667, "rental_uris": {"android": "https://dc.lft.to/lastmile_qr_scan", "ios": "https://dc.lft.to/lastmile_qr_scan"}, "is_disabled": 0, "fusion_lat": 0.0, "name": "c227d81026cd97df5578086d45bdb6ef", "fusion_lon": 0.0}, {"is_reserved": 0, "type": "electric_scooter", "bike_id": "ccaa342e4e4cb13f6885282d49455b89", "lat": 38.937039666666664, "lon": -77.05598533333334, "rental_uris": {"android": "https://dc.lft.to/lastmile_qr_scan", "ios": "https://dc.lft.to/lastmile_qr_scan"}, "is_disabled": 0, "fusion_lat": 0.0, "name": "ccaa342e4e4cb13f6885282d49455b89", "fusion_lon": 0.0}, {"is_reserved": 0, "type": "electric_scooter", "bike_id": "66e78376b50e63dd2b69bc004063ea18", "lat": 38.9107665, "lon": -77.01624633333333, "rental_uris": {"android": "https://dc.lft.to/lastmile_qr_scan", "ios": "https://dc.lft.to/lastmile_qr_scan"}, "is_disabled": 0, "fusion_lat": 0.0, "name": "66e78376b50e63dd2b69bc004063ea18", "fusion_lon": 0.0}, {"is_reserved": 0, "type": "electric_scooter", "bike_id": "397691c2c717f2b727babe7b92d9a0f5", "lat": 38.895263666666665, "lon": -76.992081, "rental_uris": {"android": "https://dc.lft.to/lastmile_qr_scan", "ios": "https://dc.lft.to/lastmile_qr_scan"}, "is_disabled": 0, "fusion_lat": 0.0, "name": "397691c2c717f2b727babe7b92d9a0f5", "fusion_lon": 0.0},