{"data": {"bikes": [{"fusion_lon": 0.0, "name": "8ef7079c6a103cc37a9754f7479ed8ca", "rental_uris": {"android": "https://dc.lft.to/lastmile_qr_scan", "ios": "https://dc.lft.to/lastmile_qr_scan"}, "lat": 38.909968, "bike_id": "8ef7079c6a103cc37a9754f7479ed8ca", "is_disabled": 0, "lon": -77.04012966666667, "is_reserved": 0, "fusion_lat": 0.0, "type": "electric_scooter"}, {"fusion_lon": 0.0, "name": "a6723af8bfffaa2f7825588ddab4af31", "rental_uris": {"android": "https://dc.lft.to/lastmile_qr_scan", "ios": "https://dc.lft.to/lastmile_qr_scan"}, "lat": 38.91259766666667, "bike_id": "a6723af8bfffaa2f7825588ddab4af31", "is_disabled": 0, "lon": -77.04556116666667, "is_reserved": 0, "fusion_lat": 0.0, "type": "electric_scooter"}, {"fusion_lon": 0.0, "name": "3c25cfbb9450cf87c98831b6e1895d9f", "rental_uris": {"android": "https://dc.lft.to/lastmile_qr_scan", "ios": "https://dc.lft.to/lastmile_qr_scan"}, "lat": 38.8005095, "bike_id": "3c25cfbb9450cf87c98831b6e1895d9f", "is_disabled": 0, "lon": -77.12838233333333, "is_reserved": 0, "fusion_lat": 0.0, "type": "electric_bike"}, {"fusion_lon": 0.0, "name": "3249687f7f1b6f4de77d3efa9679ef3d", "rental_uris": {"android": "https://dc.lft.to/lastmile_qr_scan", "ios": "https://dc.lft.to/lastmile_qr_scan"}, "lat": 38.9004875, "bike_id": "3249687f7f1b6f4de77d3efa9679ef3d", "is_disabled": 0, "lon": -77.001986, "is_reserved": 0, "fusion_lat": 0.0, "type": "electric_scooter"}, {"fusion_lon": 0.0, "name": "f2daa263a64c8780caeb24dfc96b059c", "rental_uris": {"android": "https://dc.lft.to/lastmile_qr_scan", "ios": "https://dc.lft.to/lastmile_qr_scan"}, "lat": 38.9062025, "bike_id": "f2daa263a64c8780caeb24dfc96b059c", "is_disabled": 0, "lon": -77.05141816666666, "is_reserved": 0, "fusion_lat": 0.0, "type": "electric_scooter"}, {"fusion_lon": 0.0, "name": "1003ba1a8aa0dcad887fc0be5ba26215", "rental_uris": {"android": "https://dc.lft.to/lastmile_qr_scan", "ios": "https://dc.lft.to/lastmile_qr_scan"}, "lat": 38.894214166666664, "bike_id": "1003ba1a8aa0dcad887fc0be5ba26215", "is_disabled": 0, "lon": -76.99774083333334, "is_reserved": 0, "fusion_lat": 0.0, "type": "electric_scooter"}, {"fusion_lon": 0.0, "name": "eb03b01e4ef178e38564abd0d9c9f6d6", "rental_uris": {"android": "https://dc.lft.to/lastmile_qr_scan", "ios": "https://dc.lft.to/lastmile_qr_scan"}, "lat": 38.89222083333333, "bike_id": "eb03b01e4ef178e38564abd0d9c9f6d6", "is_disabled": 0, "lon": -77.0437035, "is_reserved": 0, "fusion_lat": 0.0, "type": "electric_scooter"}, {"fusion_lon": 0.0, "name": "55f094cdded436d9b2c0997ed0d34a7c", "rental_uris": {"android": "https://dc.lft.to/lastmile_qr_scan", "ios": "https://dc.lft.to/lastmile_qr_scan"}, "lat": 38.931126166666665, "bike_id": "55f094cdded436d9b2c0997ed0d34a7c", "is_disabled": 0, "lon": -77.035075, "is_reserved": 0, "fusion_lat": 0.0, "type": "electric_scooter"}, {"fusion_lon": 0.0, "name": "99d664e58b61dd34cc14631a4e0af205", "rental_uris": {"android": "https://dc.lft.to/lastmile_qr_scan", "ios": "https://dc.lft.to/lastmile_qr_scan"}, "lat": 38.94406383333333, "bike_id": "99d664e58b61dd34cc14631a4e0af205", "is_disabled": 0, "lon": -77.0637255, "is_reserved": 0, "fusion_lat": 0.0, "type": "electric_scooter"}, {"fusion_lon": 0.0, "name": "4c394b24f7b8ce948f6d5e3aa96df358", "rental_uris": {"android": "https://dc.lft.to/lastmile_qr_scan", "ios": "https://dc.lft.to/lastmile_qr_scan"}, "lat": 38.928177, "bike_id": "4c394b24f7b8ce948f6d5e3aa96df358", "is_disabled": 0, "lon": -77.02242616666666, "is_reserved": 0, "fusion_lat": 0.0, "type": "electric_scooter"}, {"fusion_lon": 0.0, "name": "0ec9e6c5fdd676bb5997b559cb52b797", "rental_uris": {"android": "https://dc.lft.to/lastmile_qr_scan", "ios": "https://dc.lft.to/lastmile_qr_scan"}, "lat": 38.884372666666664, "bike_id": "0ec9e6c5fdd676bb5997b559cb52b797", "is_disabled": 0, "lon": -76.95770949999999, "is_reserved": 0, "fusion_lat": 0.0, "type": "electric_scooter"}, {"fusion_lon": 0.0, "name": "031f2f4a3dd9d27cbbfbf2abedd3556a", "rental_uris": {"android": "https://dc.lft.to/lastmile_qr_scan", "ios": "https://dc.lft.to/lastmile_qr_scan"}, "lat": 38.915767333333335, "bike_id": "031f2f4a3dd9d27cbbfbf2abedd3556a", "is_disabled": 0, "lon": -77.01236216666666, "is_reserved": 0, "fusion_lat": 0.0, "type": "electric_scooter"}, {"fusion_lon": 0.0, "name": "aec157ee65b862514bbb422981dfdef2", "rental_uris": {"android": "https://dc.lft.to/lastmile_qr_scan", "ios": "https://dc.lft.to/lastmile_qr_scan"}, "lat": 38.92171283333333, "bike_id": "aec157ee65b862514bbb422981dfdef2", "is_disabled": 0, "lon": -77.040075, "is_reserved": 0, "fusion_lat": 0.0, "type": "electric_scooter"}, {"fusion_lon": 0.0, "name": "7ee513b1f39e6ebd130f86702c8b26a0", "rental_uris": {"android": "https://dc.lft.to/lastmile_qr_scan", "ios": "https://dc.lft.to/lastmile_qr_scan"}, "lat": 38.917992, "bike_id": "7ee513b1f39e6ebd130f86702c8b26a0", "is_disabled": 0, "lon": -77.034475, "is_reserved": 0, "fusion_lat": 0.0, "type": "electric_scooter"}, {"fusion_lon": 0.0, "name": "a65da639fb0b5a765057cd35bd3a2529", "rental_uris": {"android": "https://dc.lft.to/lastmile_qr_scan", "ios": "https://dc.lft.to/lastmile_qr_scan"}, "lat": 38.89484366666667, "bike_id": "a65da639fb0b5a765057cd35bd3a2529", "is_disabled": 0, "lon": -76.99519283333333, "is_reserved": 0, "fusion_lat": 0.0, "type": "electric_scooter"}, {"fusion_lon": 0.0, "name": "8a4297369ae68b8c09ab68963801b28a", "rental_uris": {"android": "https://dc.lft.to/lastmile_qr_scan", "ios": "https://dc.lft.to/lastmile_qr_scan"}, "lat": 38.833062, "bike_id": "8a4297369ae68b8c09ab68963801b28a", "is_disabled": 0, "lon": -77.08412916666667, "is_reserved": 0, "fusion_lat": 0.0, "type": "electric_bike"}, {"fusion_lon": 0.0, "name": "ba4704a592d1ef4fd26ab903f550dc64", "rental_uris": {"android": "https://dc.lft.to/lastmile_qr_scan", "ios": "https://dc.lft.to/lastmile_qr_scan"}, "lat": 38.905629166666664, "bike_id": "ba4704a592d1ef4fd26ab903f550dc64", "is_disabled": 0, "lon": -77.00581783333334, "is_reserved": 0, "fusion_lat": 0.0, "type": "electric_scooter"}, {"fusion_lon": 0.0, "name": "997f2d365178ea9287cbbd414bd93758", "rental_uris": {"android": "https://dc.lft.to/lastmile_qr_scan", "ios": "https://dc.lft.to/lastmile_qr_scan"}, "lat": 38.91263333333333, "bike_id": "997f2d365178ea9287cbbd414bd93758", "is_disabled": 0, "lon": -77.03874933333333, "is_reserved": 0, "fusion_lat": 0.0, "type": "electric_scooter"}, {"fusion_lon": 0.0, "name": "f1ab5647ddc72e2f0b43c10c667f8c9d", "rental_uris": {"android": "https://dc.lft.to/lastmile_qr_scan", "ios": "https://dc.lft.to/lastmile_qr_scan"}, "lat": 38.899055, "bike_id": "f1ab5647ddc72e2f0b43c10c667f8c9d", "is_disabled": 0, "lon": -77.02452966666667, "is_reserved": 0, "fusion_lat": 0.0, "type": "electric_scooter"}, {"fusion_lon": 0.0, "name": "0df554c5305cbe11d0add34042059dd4", "rental_uris": {"android": "https://dc.lft.to/lastmile_qr_scan", "ios": "https://dc.lft.to/lastmile_qr_scan"}, "lat": 38.918259666666664, "bike_id": "0df554c5305cbe11d0add34042059dd4", "is_disabled": 0, "lon": -77.02300616666666, "is_reserved": 0, "fusion_lat": 0.0, "type": "electric_scooter"}, {"fusion_lon": 0.0, "name": "bb20e65d709fdb5b3b30749ebd2675b7", "rental_uris": {"android": "https://dc.lft.to/lastmile_qr_scan", "ios": "https://dc.lft.to/lastmile_qr_scan"}, "lat": 38.90367766666667, "bike_id": "bb20e65d709fdb5b3b30749ebd2675b7", "is_disabled": 0, "lon": -77.00580766666667, "is_reserved": 0, "fusion_lat": 0.0, "type": "electric_scooter"}, {"fusion_lon": 0.0, "name": "68b59fa5966310ffbba01435d7112a45", "rental_uris": {"android": "https://dc.lft.to/lastmile_qr_scan", "ios": "https://dc.lft.to/lastmile_qr_scan"}, "lat": 38.875733, "bike_id": "68b59fa5966310ffbba01435d7112a45", "is_disabled": 0, "lon": -77.005735, "is_reserved": 0, "fusion_lat": 0.0, "type": "electric_scooter"}, {"fusion_lon": 0.0, "name": "98eda0d25e4367adeeba32671b7d76ab", "rental_uris": {"android": "https://dc.lft.to/lastmile_qr_scan", "ios": "https://dc.lft.to/lastmile_qr_scan"}, "lat": 38.91516933333333, "bike_id": "98eda0d25e4367adeeba32671b7d76ab", "is_disabled": 0, "lon": -77.01226466666667, "is_reserved": 0, "fusion_lat": 0.0, "type": "electric_scooter"}, {"fusion_lon": 0.0, "name": "f38df7e659cb7d96761ba79f2e5b6214", "rental_uris": {"android": "https://dc.lft.to/lastmile_qr_scan", "ios": "https://dc.lft.to/lastmile_qr_scan"}, "lat": 38.884978833333335, "bike_id": "f38df7e659cb7d96761ba79f2e5b6214", "is_disabled": 0, "lon": -77.02006383333334, "is_reserved": 0, "fusion_lat": 0.0, "type": "electric_scooter"}, {"fusion_lon": 0.0, "name": "5f0052b74fefa14a5eb4a919a815983e", "rental_uris": {"android": "https://dc.lft.to/lastmile_qr_scan", "ios": "https://dc.lft.to/lastmile_qr_scan"}, "lat": 38.87674766666667, "bike_id": "5f0052b74fefa14a5eb4a919a815983e", "is_disabled": 0, "lon": -77.01448766666667, "is_reserved": 0, "fusion_lat": 0.0, "type": "electric_bike"}, {"fusion_lon": 0.0, "name": "71966b1c752f6f559787dde3d3999b9a", "rental_uris": {"android": "https://dc.lft.to/lastmile_qr_scan", "ios": "https://dc.lft.to/lastmile_qr_scan"}, "lat": 38.930584333333336, "bike_id": "71966b1c752f6f559787dde3d3999b9a", "is_disabled": 0, "lon": -77.02325466666667, "is_reserved": 0, "fusion_lat": 0.0, "type": "electric_scooter"}, {"fusion_lon": 0.0, "name": "90b8289960055468a1a0155f10d37d8c", "rental_uris": {"android": "https://dc.lft.to/lastmile_qr_scan", "ios": "https://dc.lft.to/lastmile_qr_scan"}, "lat": 38.9284775, "bike_id": "90b8289960055468a1a0155f10d37d8c", "is_disabled": 0, "lon": -77.05427916666666, "is_reserved": 0, "fusion_lat": 0.0, "type": "electric_scooter"}, {"fusion_lon": 0.0, "name": "9b925bae2119c796c1663926c4260f09", "rental_uris": {"android": "https://dc.lft.to/lastmile_qr_scan", "ios": "https://dc.lft.to/lastmile_qr_scan"}, "lat": 38.95735283333333, "bike_id": "9b925bae2119c796c1663926c4260f09", "is_disabled": 0, "lon": -77.02419366666666, "is_reserved": 0, "fusion_lat": 0.0, "type": "electric_scooter"}, {"fusion_lon": 0.0, "name": "4103de7ef64097787c99f91543cd41d8", "rental_uris": {"android": "https://dc.lft.to/lastmile_qr_scan", "ios": "https://dc.lft.to/lastmile_qr_scan"}, "lat": 38.926334833333335, "bike_id": "4103de7ef64097787c99f91543cd41d8", "is_disabled": 0, "lon": -77.037138, "is_reserved": 0, "fusion_lat": 0.0, "type": "electric_scooter"}, {"fusion_lon": 0.0, "name": "d98dbf2e67be6caf81128bcd0eb8716b", "rental_uris": {"android": "https://dc.lft.to/lastmile_qr_scan", "ios": "https://dc.lft.to/lastmile_qr_scan"}, "lat": 38.92619, "bike_id": "d98dbf2e67be6caf81128bcd0eb8716b", "is_disabled": 0, "lon": -77.0367785, "is_reserved": 0, "fusion_lat": 0.0, "type": "electric_scooter"}, {"fusion_lon": 0.0, "name": "f3d2b53755be7564888b9f8b5246730a", "rental_uris": {"android": "https://dc.lft.to/lastmile_qr_scan", "ios": "https://dc.lft.to/lastmile_qr_scan"}, "lat": 38.90360183333333, "bike_id": "f3d2b53755be7564888b9f8b5246730a", "is_disabled": 0, "lon": -77.026188, "is_reserved": 0, "fusion_lat": 0.0, "type": "electric_scooter"}, {"fusion_lon": 0.0, "name": "50b0130bb23d3802d0d625a218f1b9d4", "rental_uris": {"android": "https://dc.lft.to/lastmile_qr_scan", "ios": "https://dc.lft.to/lastmile_qr_scan"}, "lat": 38.92470183333333, "bike_id": "50b0130bb23d3802d0d625a218f1b9d4", "is_disabled": 0, "lon": -77.05243033333333, "is_reserved": 0, "fusion_lat": 0.0, "type": "electric_scooter"}, {"fusion_lon": 0.0, "name": "0911a457801188d9765f07ca5a3baf26", "rental_uris": {"android": "https://dc.lft.to/lastmile_qr_scan", "ios": "https://dc.lft.to/lastmile_qr_scan"}, "lat": 38.8945735, "bike_id": "0911a457801188d9765f07ca5a3baf26", "is_disabled": 0, "lon": -77.02106083333334, "is_reserved": 0, "fusion_lat": 0.0, "type": "electric_scooter"}, {"fusion_lon": 0.0, "name": "0080c203be050f463abff82a7bf70020", "rental_uris": {"android": "https://dc.lft.to/lastmile_qr_scan", "ios": "https://dc.lft.to/lastmile_qr_scan"}, "lat": 38.9329795, "bike_id": "0080c203be050f463abff82a7bf70020", "is_disabled": 0, "lon": -77.08534966666667, "is_reserved": 0, "fusion_lat": 0.0, "type": "electric_scooter"}, {"fusion_lon": 0.0, "name": "34bddf7dc850d91a0ee37b825129e13b", "rental_uris": {"android": "https://dc.lft.to/lastmile_qr_scan", "ios": "https://dc.lft.to/lastmile_qr_scan"}, "lat": 38.920476666666666, "bike_id": "34bddf7dc850d91a0ee37b825129e13b", "is_disabled": 0, "lon": -77.048221, "is_reserved": 0, "fusion_lat": 0.0, "type": "electric_scooter"}, {"fusion_lon": 0.0, "name": "39610ba0c8d660aff8a1f2b2454e8035", "rental_uris": {"android": "https://dc.lft.to/lastmile_qr_scan", "ios": "https://dc.lft.to/lastmile_qr_scan"}, "lat": 38.906515666666664, "bike_id": "39610ba0c8d660aff8a1f2b2454e8035", "is_disabled": 0, "lon": -77.0343795, "is_reserved": 0, "fusion_lat": 0.0, "type": "electric_scooter"}, {"fusion_lon": 0.0, "name": "70c3769d3cc4cdcaac8894d0ecb4eb89", "rental_uris": {"android": "https://dc.lft.to/lastmile_qr_scan", "ios": "https://dc.lft.to/lastmile_qr_scan"}, "lat": 38.91121416666667, "bike_id": "70c3769d3cc4cdcaac8894d0ecb4eb89", "is_disabled": 0, "lon": -77.03831366666667, "is_reserved": 0, "fusion_lat": 0.0, "type": "electric_scooter"}, {"fusion_lon": 0.0, "name": "e22173c0b2bdf51ae8a6b4d36d8cd67b", "rental_uris": {"android": "https://dc.lft.to/lastmile_qr_scan", "ios": "https://dc.lft.to/lastmile_qr_scan"}, "lat": 38.922397, "bike_id": "e22173c0b2bdf51ae8a6b4d36d8cd67b", "is_disabled": 0, "lon": -77.0465255, "is_reserved": 0, "fusion_lat": 0.0, "type": "electric_scooter"}, {"fusion_lon": 0.0, "name": "d690dd20326f3b9b7e9f96fdbe717631", "rental_uris": {"android": "https://dc.lft.to/lastmile_qr_scan", "ios": "https://dc.lft.to/lastmile_qr_scan"}, "lat": 38.813301, "bike_id": "d690dd20326f3b9b7e9f96fdbe717631", "is_disabled": 0, "lon": -77.050868, "is_reserved": 0, "fusion_lat": 0.0, "type": "electric_bike"}, {"fusion_lon": 0.0, "name": "81cb4546e7260f076ef054dd682f6fe0", "rental_uris": {"android": "https://dc.lft.to/lastmile_qr_scan", "ios": "https://dc.lft.to/lastmile_qr_scan"}, "lat": 39.01095016666667, "bike_id": "81cb4546e7260f076ef054dd682f6fe0", "is_disabled": 0, "lon": -77.04954766666667, "is_reserved": 0, "fusion_lat": 0.0, "type": "electric_bike"}, {"fusion_lon": 0.0, "name": "ef3d3896e5261383fe1f48c530cd88fa", "rental_uris": {"android": "https://dc.lft.to/lastmile_qr_scan", "ios": "https://dc.lft.to/lastmile_qr_scan"}, "lat": 38.920369, "bike_id": "ef3d3896e5261383fe1f48c530cd88fa", "is_disabled": 0, "lon": -76.97960733333333, "is_reserved": 0, "fusion_lat": 0.0, "type": "electric_bike"}, {"fusion_lon": 0.0, "name": "93c24b4d94b28192ce47c9727e0e6123", "rental_uris": {"android": "https://dc.lft.to/lastmile_qr_scan", "ios": "https://dc.lft.to/lastmile_qr_scan"}, "lat": 38.914831666666664, "bike_id": "93c24b4d94b28192ce47c9727e0e6123", "is_disabled": 0, "lon": -77.03252383333333, "is_reserved": 0, "fusion_lat": 0.0, "type": "electric_scooter"}, {"fusion_lon": 0.0, "name": "641f62c82aa2577c95e4bdd88b3cef6f", "rental_uris": {"android": "https://dc.lft.to/lastmile_qr_scan", "ios": "https://dc.lft.to/lastmile_qr_scan"}, "lat": 38.92600066666667, "bike_id": "641f62c82aa2577c95e4bdd88b3cef6f", "is_disabled": 0, "lon": -77.02154733333333, "is_reserved": 0, "fusion_lat": 0.0, "type": "electric_scooter"}, {"fusion_lon": 0.0, "name": "c9bc399edfc861b9a0cec6741abe31c4", "rental_uris": {"android": "https://dc.lft.to/lastmile_qr_scan", "ios": "https://dc.lft.to/lastmile_qr_scan"}, "lat": 38.88504566666667, "bike_id": "c9bc399edfc861b9a0cec6741abe31c4", "is_disabled": 0, "lon": -77.00221533333334, "is_reserved": 0, "fusion_lat": 0.0, "type": "electric_scooter"}, {"fusion_lon": 0.0, "name": "886ad1ead5744004dd32d06909301898", "rental_uris": {"android": "https://dc.lft.to/lastmile_qr_scan", "ios": "https://dc.lft.to/lastmile_qr_scan"}, "lat": 38.897683, "bike_id": "886ad1ead5744004dd32d06909301898", "is_disabled": 0, "lon": -76.976933, "is_reserved": 0, "fusion_lat": 0.0, "type": "electric_scooter"}, {"fusion_lon": 0.0, "name": "3cfbce02a54ce1374d94b68c4cbd0b9f", "rental_uris": {"android": "https://dc.lft.to/lastmile_qr_scan", "ios": "https://dc.lft.to/lastmile_qr_scan"}, "lat": 38.9052755, "bike_id": "3cfbce02a54ce1374d94b68c4cbd0b9f", "is_disabled": 0, "lon": -77.06382733333334, "is_reserved": 0, "fusion_lat": 0.0, "type": "electric_scooter"}, {"fusion_lon": 0.0, "name": "f0e4545841759877d771015d3d16f9db", "rental_uris": {"android": "https://dc.lft.to/lastmile_qr_scan", "ios": "https://dc.lft.to/lastmile_qr_scan"}, "lat": 38.9070965, "bike_id": "f0e4545841759877d771015d3d16f9db", "is_disabled": 0, "lon": -77.029894, "is_reserved": 0, "fusion_lat": 0.0, "type": "electric_scooter"}, {"fusion_lon": 0.0, "name": "535f113301f2c8600488953bf3836368", "rental_uris": {"android": "https://dc.lft.to/lastmile_qr_scan", "ios": "https://dc.lft.to/lastmile_qr_scan"}, "lat": 38.90122433333333, "bike_id": "535f113301f2c8600488953bf3836368", "is_disabled": 0, "lon": -77.04994266666667, "is_reserved": 0, "fusion_lat": 0.0, "type": "electric_bike"}, {"fusion_lon": 0.0, "name": "cc617b3952430fd29ffd8ff1398283b5", "rental_uris": {"android": "https://dc.lft.to/lastmile_qr_scan", "ios": "https://dc.lft.to/lastmile_qr_scan"}, "lat": 38.9132525, "bike_id": "cc617b3952430fd29ffd8ff1398283b5", "is_disabled": 0, "lon": -77.0320115, "is_reserved": 0, "fusion_lat": 0.0, "type": "electric_scooter"}, {"fusion_lon": 0.0, "name": "2f3216ccab95ba81339524f3bb976963", "rental_uris": {"android": "https://dc.lft.to/lastmile_qr_scan", "ios": "https://dc.lft.to/lastmile_qr_scan"}, "lat": 38.90390516666667, "bike_id": "2f3216ccab95ba81339524f3bb976963", "is_disabled": 0, "lon": -77.02835116666667, "is_reserved": 0, "fusion_lat": 0.0, "type": "electric_scooter"}, {"fusion_lon": 0.0, "name": "7881c3c6525d02a368d67ae23b597a1b", "rental_uris": {"android": "https://dc.lft.to/lastmile_qr_scan", "ios": "https://dc.lft.to/lastmile_qr_scan"}, "lat": 38.935716166666666, "bike_id": "7881c3c6525d02a368d67ae23b597a1b", "is_disabled": 0, "lon": -77.021268, "is_reserved": 0, "fusion_lat": 0.0, "type": "electric_bike"}, {"fusion_lon": 0.0, "name": "fb2a758ef8676abce1f994b3d3604e22", "rental_uris": {"android": "https://dc.lft.to/lastmile_qr_scan", "ios": "https://dc.lft.to/lastmile_qr_scan"}, "lat": 38.89484266666667, "bike_id": "fb2a758ef8676abce1f994b3d3604e22", "is_disabled": 0, "lon": -76.97775683333333, "is_reserved": 0, "fusion_lat": 0.0, "type": "electric_bike"}, {"fusion_lon": 0.0, "name": "52629afa5fb654943fb078c0eb433004", "rental_uris": {"android": "https://dc.lft.to/lastmile_qr_scan", "ios": "https://dc.lft.to/lastmile_qr_scan"}, "lat": 38.907289666666664, "bike_id": "52629afa5fb654943fb078c0eb433004", "is_disabled": 0, "lon": -77.01309, "is_reserved": 0, "fusion_lat": 0.0, "type": "electric_scooter"}, {"fusion_lon": 0.0, "name": "65295527dea42a0827ca30491c8621d6", "rental_uris": {"android": "https://dc.lft.to/lastmile_qr_scan", "ios": "https://dc.lft.to/lastmile_qr_scan"}, "lat": 38.913615666666665, "bike_id": "65295527dea42a0827ca30491c8621d6", "is_disabled": 0, "lon": -77.02000166666667, "is_reserved": 0, "fusion_lat": 0.0, "type": "electric_scooter"}, {"fusion_lon": 0.0, "name": "9b98d99195d430564484d36762edfcd5", "rental_uris": {"android": "https://dc.lft.to/lastmile_qr_scan", "ios": "https://dc.lft.to/lastmile_qr_scan"}, "lat": 38.92312316666667, "bike_id": "9b98d99195d430564484d36762edfcd5", "is_disabled": 0, "lon": -77.03023433333334, "is_reserved": 0, "fusion_lat": 0.0, "type": "electric_scooter"}, {"fusion_lon": 0.0, "name": "323d6b582239254564f91a5148d85250", "rental_uris": {"android": "https://dc.lft.to/lastmile_qr_scan", "ios": "https://dc.lft.to/lastmile_qr_scan"}, "lat": 38.90226116666667, "bike_id": "323d6b582239254564f91a5148d85250", "is_disabled": 0, "lon": -77.01748316666666, "is_reserved": 0, "fusion_lat": 0.0, "type": "electric_scooter"}, {"fusion_lon": 0.0, "name": "1f82d05bc4a116b17f7686f1e74f96c0", "rental_uris": {"android": "https://dc.lft.to/lastmile_qr_scan", "ios": "https://dc.lft.to/lastmile_qr_scan"}, "lat": 38.80385116666667, "bike_id": "1f82d05bc4a116b17f7686f1e74f96c0", "is_disabled": 0, "lon": -76.9881485, "is_reserved": 0, "fusion_lat": 0.0, "type": "electric_bike"}, {"fusion_lon": 0.0, "name": "c4096f31d0a13b0faad0b5969df7964e", "rental_uris": {"android": "https://dc.lft.to/lastmile_qr_scan", "ios": "https://dc.lft.to/lastmile_qr_scan"}, "lat": 38.9072925, "bike_id": "c4096f31d0a13b0faad0b5969df7964e", "is_disabled": 0, "lon": -77.02544516666667, "is_reserved": 0, "fusion_lat": 0.0, "type": "electric_scooter"}, {"fusion_lon": 0.0, "name": "8c001448ac907d9f30deed4d9000297f", "rental_uris": {"android": "https://dc.lft.to/lastmile_qr_scan", "ios": "https://dc.lft.to/lastmile_qr_scan"}, "lat": 38.92384066666666, "bike_id": "8c001448ac907d9f30deed4d9000297f", "is_disabled": 0, "lon": -76.995981, "is_reserved": 0, "fusion_lat": 0.0, "type": "electric_scooter"}, {"fusion_lon": 0.0, "name": "c041884c7331b8a00955a57ab5f745e9", "rental_uris": {"android": "https://dc.lft.to/lastmile_qr_scan", "ios": "https://dc.lft.to/lastmile_qr_scan"}, "lat": 38.905765333333335, "bike_id": "c041884c7331b8a00955a57ab5f745e9", "is_disabled": 0, "lon": -77.0348625, "is_reserved": 0, "fusion_lat": 0.0, "type": "electric_scooter"}, {"fusion_lon": 0.0, "name": "de94b9017c6d9e2cf7b397de81bb3b85", "rental_uris": {"android": "https://dc.lft.to/lastmile_qr_scan", "ios": "https://dc.lft.to/lastmile_qr_scan"}, "lat": 38.91889833333333, "bike_id": "de94b9017c6d9e2cf7b397de81bb3b85", "is_disabled": 0, "lon": -77.027499, "is_reserved": 0, "fusion_lat": 0.0, "type": "electric_scooter"}, {"fusion_lon": 0.0, "name": "9730229c9b898595db78bb4fbb93f436", "rental_uris": {"android": "https://dc.lft.to/lastmile_qr_scan", "ios": "https://dc.lft.to/lastmile_qr_scan"}, "lat": 38.880228333333335, "bike_id": "9730229c9b898595db78bb4fbb93f436", "is_disabled": 0, "lon": -76.9432415, "is_reserved": 0, "fusion_lat": 0.0, "type": "electric_scooter"}, {"fusion_lon": 0.0, "name": "85b78160e89da9a000c2e3e25d280133", "rental_uris": {"android": "https://dc.lft.to/lastmile_qr_scan", "ios": "https://dc.lft.to/lastmile_qr_scan"}, "lat": 38.89683616666667, "bike_id": "85b78160e89da9a000c2e3e25d280133", "is_disabled": 0, "lon": -76.93667883333333, "is_reserved": 0, "fusion_lat": 0.0, "type": "electric_scooter"}, {"fusion_lon": 0.0, "name": "41b4345d73de68195ebb00570276708f", "rental_uris": {"android": "https://dc.lft.to/lastmile_qr_scan", "ios": "https://dc.lft.to/lastmile_qr_scan"}, "lat": 38.86658933333333, "bike_id": "41b4345d73de68195ebb00570276708f", "is_disabled": 0, "lon": -76.97912266666667, "is_reserved": 0, "fusion_lat": 0.0, "type": "electric_scooter"}, {"fusion_lon": 0.0, "name": "bf3f3b9acecf426a3537ced0c1f750e3", "rental_uris": {"android": "https://dc.lft.to/lastmile_qr_scan", "ios": "https://dc.lft.to/lastmile_qr_scan"}, "lat": 38.90377433333333, "bike_id": "bf3f3b9acecf426a3537ced0c1f750e3", "is_disabled": 0, "lon": -77.01767533333333, "is_reserved": 0, "fusion_lat": 0.0, "type": "electric_scooter"}, {"fusion_lon": 0.0, "name": "263d6f5985db423ae3b65bb8456a0d78", "rental_uris": {"android": "https://dc.lft.to/lastmile_qr_scan", "ios": "https://dc.lft.to/lastmile_qr_scan"}, "lat": 38.911183666666666, "bike_id": "263d6f5985db423ae3b65bb8456a0d78", "is_disabled": 0, "lon": -77.0220065, "is_reserved": 0, "fusion_lat": 0.0, "type": "electric_scooter"}, {"fusion_lon": 0.0, "name": "0aaaa4d4c8c4eff2e5a29fb6efe5eca6", "rental_uris": {"android": "https://dc.lft.to/lastmile_qr_scan", "ios": "https://dc.lft.to/lastmile_qr_scan"}, "lat": 38.91335516666667, "bike_id": "0aaaa4d4c8c4eff2e5a29fb6efe5eca6", "is_disabled": 0, "lon": -76.988986, "is_reserved": 0, "fusion_lat": 0.0, "type": "electric_scooter"}, {"fusion_lon": 0.0, "name": "100a0415e2fcb057dbc73b2fe5445f00", "rental_uris": {"android": "https://dc.lft.to/lastmile_qr_scan", "ios": "https://dc.lft.to/lastmile_qr_scan"}, "lat": 38.907621666666664, "bike_id": "100a0415e2fcb057dbc73b2fe5445f00", "is_disabled": 0, "lon": -77.0179065, "is_reserved": 0, "fusion_lat": 0.0, "type": "electric_scooter"}, {"fusion_lon": 0.0, "name": "8ca0b3c8240fdff3944279cc94b9ca5d", "rental_uris": {"android": "https://dc.lft.to/lastmile_qr_scan", "ios": "https://dc.lft.to/lastmile_qr_scan"}, "lat": 38.8521725, "bike_id": "8ca0b3c8240fdff3944279cc94b9ca5d", "is_disabled": 0, "lon": -76.99430866666667, "is_reserved": 0, "fusion_lat": 0.0, "type": "electric_scooter"}, {"fusion_lon": 0.0, "name": "28ed46917a28a990015c9477cdaa9f9d", "rental_uris": {"android": "https://dc.lft.to/lastmile_qr_scan", "ios": "https://dc.lft.to/lastmile_qr_scan"}, "lat": 38.9015405, "bike_id": "28ed46917a28a990015c9477cdaa9f9d", "is_disabled": 0, "lon": -76.92134383333334, "is_reserved": 0, "fusion_lat": 0.0, "type": "electric_scooter"}, {"fusion_lon": 0.0, "name": "ee068fcf16a748e962fdf952ce150e17", "rental_uris": {"android": "https://dc.lft.to/lastmile_qr_scan", "ios": "https://dc.lft.to/lastmile_qr_scan"}, "lat": 38.936176333333336, "bike_id": "ee068fcf16a748e962fdf952ce150e17", "is_disabled": 0, "lon": -77.03212866666667, "is_reserved": 0, "fusion_lat": 0.0, "type": "electric_scooter"}, {"fusion_lon": 0.0, "name": "1eba636901068789710e8bd4fdbae629", "rental_uris": {"android": "https://dc.lft.to/lastmile_qr_scan", "ios": "https://dc.lft.to/lastmile_qr_scan"}, "lat": 38.8754675, "bike_id": "1eba636901068789710e8bd4fdbae629", "is_disabled": 0, "lon": -77.00586216666666, "is_reserved": 0, "fusion_lat": 0.0, "type": "electric_scooter"}, {"fusion_lon": 0.0, "name": "14f714163a7ed5fbcbb4631b44c9de68", "rental_uris": {"android": "https://dc.lft.to/lastmile_qr_scan", "ios": "https://dc.lft.to/lastmile_qr_scan"}, "lat": 38.928542666666665, "bike_id": "14f714163a7ed5fbcbb4631b44c9de68", "is_disabled": 0, "lon": -77.0542545, "is_reserved": 0, "fusion_lat": 0.0, "type": "electric_scooter"}, {"fusion_lon": 0.0, "name": "adebcb5e63e23b80f7156b3395cc7c49", "rental_uris": {"android": "https://dc.lft.to/lastmile_qr_scan", "ios": "https://dc.lft.to/lastmile_qr_scan"}, "lat": 38.905265666666665, "bike_id": "adebcb5e63e23b80f7156b3395cc7c49", "is_disabled": 0, "lon": -77.06172783333334, "is_reserved": 0, "fusion_lat": 0.0, "type": "electric_scooter"}, {"fusion_lon": 0.0, "name": "5a98643c56a0b511da5d4fa097969f53", "rental_uris": {"android": "https://dc.lft.to/lastmile_qr_scan", "ios": "https://dc.lft.to/lastmile_qr_scan"}, "lat": 38.87174433333333, "bike_id": "5a98643c56a0b511da5d4fa097969f53", "is_disabled": 0, "lon": -77.00624766666667, "is_reserved": 0, "fusion_lat": 0.0, "type": "electric_scooter"}, {"fusion_lon": 0.0, "name": "11ba76bc625d45fed10d3150da00fa76", "rental_uris": {"android": "https://dc.lft.to/lastmile_qr_scan", "ios": "https://dc.lft.to/lastmile_qr_scan"}, "lat": 38.919492, "bike_id": "11ba76bc625d45fed10d3150da00fa76", "is_disabled": 0, "lon": -77.01788933333333, "is_reserved": 0, "fusion_lat": 0.0, "type": "electric_scooter"}, {"fusion_lon": 0.0, "name": "8e5d42bcc717a2a188675b3e55e358b6", "rental_uris": {"android": "https://dc.lft.to/lastmile_qr_scan", "ios": "https://dc.lft.to/lastmile_qr_scan"}, "lat": 38.9180285, "bike_id": "8e5d42bcc717a2a188675b3e55e358b6", "is_disabled": 0, "lon": -77.03438966666667, "is_reserved": 0, "fusion_lat": 0.0, "type": "electric_scooter"}, {"fusion_lon": 0.0, "name": "2833a41723cd1e779139de7f69a81fdc", "rental_uris": {"android": "https://dc.lft.to/lastmile_qr_scan", "ios": "https://dc.lft.to/lastmile_qr_scan"}, "lat": 38.92934066666667, "bike_id": "2833a41723cd1e779139de7f69a81fdc", "is_disabled": 0, "lon": -76.99576116666667, "is_reserved": 0, "fusion_lat": 0.0, "type": "electric_scooter"}, {"fusion_lon": 0.0, "name": "0230344fa452ffed3db2a50206b6eb01", "rental_uris": {"android": "https://dc.lft.to/lastmile_qr_scan", "ios": "https://dc.lft.to/lastmile_qr_scan"}, "lat": 38.838099166666666, "bike_id": "0230344fa452ffed3db2a50206b6eb01", "is_disabled": 0, "lon": -77.09524766666667, "is_reserved": 0, "fusion_lat": 0.0, "type": "electric_bike"}, {"fusion_lon": 0.0, "name": "0882c2472230fb60b11308a81b67d329", "rental_uris": {"android": "https://dc.lft.to/lastmile_qr_scan", "ios": "https://dc.lft.to/lastmile_qr_scan"}, "lat": 38.895972666666665, "bike_id": "0882c2472230fb60b11308a81b67d329", "is_disabled": 0, "lon": -77.0116645, "is_reserved": 0, "fusion_lat": 0.0, "type": "electric_scooter"}, {"fusion_lon": 0.0, "name": "a79ecb675f22e13fbda74bc37354d615", "rental_uris": {"android": "https://dc.lft.to/lastmile_qr_scan", "ios": "https://dc.lft.to/lastmile_qr_scan"}, "lat": 38.876333333333335, "bike_id": "a79ecb675f22e13fbda74bc37354d615", "is_disabled": 0, "lon": -77.01657016666667, "is_reserved": 0, "fusion_lat": 0.0, "type": "electric_scooter"}, {"fusion_lon": 0.0, "name": "91f821fbf9f8246eb0383bf874a51c29", "rental_uris": {"android": "https://dc.lft.to/lastmile_qr_scan", "ios": "https://dc.lft.to/lastmile_qr_scan"}, "lat": 38.89947733333333, "bike_id": "91f821fbf9f8246eb0383bf874a51c29", "is_disabled": 0, "lon": -77.0478845, "is_reserved": 0, "fusion_lat": 0.0, "type": "electric_scooter"}, {"fusion_lon": 0.0, "name": "8f0b8855ccc534a7c53bdd2585d8a560", "rental_uris": {"android": "https://dc.lft.to/lastmile_qr_scan", "ios": "https://dc.lft.to/lastmile_qr_scan"}, "lat": 38.90063416666667, "bike_id": "8f0b8855ccc534a7c53bdd2585d8a560", "is_disabled": 0, "lon": -76.9274535, "is_reserved": 0, "fusion_lat": 0.0, "type": "electric_scooter"}, {"fusion_lon": 0.0, "name": "e1a8430feecf465bbba61e6ba77869b3", "rental_uris": {"android": "https://dc.lft.to/lastmile_qr_scan", "ios": "https://dc.lft.to/lastmile_qr_scan"}, "lat": 38.878632, "bike_id": "e1a8430feecf465bbba61e6ba77869b3", "is_disabled": 0, "lon": -76.99166033333333, "is_reserved": 0, "fusion_lat": 0.0, "type": "electric_scooter"}, {"fusion_lon": 0.0, "name": "23cec2729ce8fd73bc782d948828a9ef", "rental_uris": {"android": "https://dc.lft.to/lastmile_qr_scan", "ios": "https://dc.lft.to/lastmile_qr_scan"}, "lat": 38.898900833333336, "bike_id": "23cec2729ce8fd73bc782d948828a9ef", "is_disabled": 0, "lon": -77.03282033333333, "is_reserved": 0, "fusion_lat": 0.0, "type": "electric_scooter"}, {"fusion_lon": 0.0, "name": "4ff7fa0a4847548fb8611ced7ce8259a", "rental_uris": {"android": "https://dc.lft.to/lastmile_qr_scan", "ios": "https://dc.lft.to/lastmile_qr_scan"}, "lat": 38.8862075, "bike_id": "4ff7fa0a4847548fb8611ced7ce8259a", "is_disabled": 0, "lon": -76.99020116666667, "is_reserved": 0, "fusion_lat": 0.0, "type": "electric_scooter"}, {"fusion_lon": 0.0, "name": "a844e73260458e931a58a6010b44e9fd", "rental_uris": {"android": "https://dc.lft.to/lastmile_qr_scan", "ios": "https://dc.lft.to/lastmile_qr_scan"}, "lat": 38.961194166666665, "bike_id": "a844e73260458e931a58a6010b44e9fd", "is_disabled": 0, "lon": -77.02794, "is_reserved": 0, "fusion_lat": 0.0, "type": "electric_scooter"}, {"fusion_lon": 0.0, "name": "42bc1b708ebae50fcefcd371255cac12", "rental_uris": {"android": "https://dc.lft.to/lastmile_qr_scan", "ios": "https://dc.lft.to/lastmile_qr_scan"}, "lat": 38.935245333333334, "bike_id": "42bc1b708ebae50fcefcd371255cac12", "is_disabled": 0, "lon": -77.028486, "is_reserved": 0, "fusion_lat": 0.0, "type": "electric_scooter"}, {"fusion_lon": 0.0, "name": "f4d9bb8008abed07a385a95ae96ff35a", "rental_uris": {"android": "https://dc.lft.to/lastmile_qr_scan", "ios": "https://dc.lft.to/lastmile_qr_scan"}, "lat": 38.89740033333333, "bike_id": "f4d9bb8008abed07a385a95ae96ff35a", "is_disabled": 0, "lon": -77.02609416666667, "is_reserved": 0, "fusion_lat": 0.0, "type": "electric_scooter"}, {"fusion_lon": 0.0, "name": "cc06b8a778b773713bac504ec3ad7b64", "rental_uris": {"android": "https://dc.lft.to/lastmile_qr_scan", "ios": "https://dc.lft.to/lastmile_qr_scan"}, "lat": 38.90532816666666, "bike_id": "cc06b8a778b773713bac504ec3ad7b64", "is_disabled": 0, "lon": -77.00589433333333, "is_reserved": 0, "fusion_lat": 0.0, "type": "electric_scooter"}, {"fusion_lon": 0.0, "name": "bff5e28c6b4b9c5a433a5cea0a154024", "rental_uris": {"android": "https://dc.lft.to/lastmile_qr_scan", "ios": "https://dc.lft.to/lastmile_qr_scan"}, "lat": 38.94381383333333, "bike_id": "bff5e28c6b4b9c5a433a5cea0a154024", "is_disabled": 0, "lon": -77.06044383333334, "is_reserved": 0, "fusion_lat": 0.0, "type": "electric_scooter"}, {"fusion_lon": 0.0, "name": "3073cd4b1ab4e3eb4371ddd0a62fbb28", "rental_uris": {"android": "https://dc.lft.to/lastmile_qr_scan", "ios": "https://dc.lft.to/lastmile_qr_scan"}, "lat": 38.900303666666666, "bike_id": "3073cd4b1ab4e3eb4371ddd0a62fbb28", "is_disabled": 0, "lon": -76.99616233333333, "is_reserved": 0, "fusion_lat": 0.0, "type": "electric_scooter"}, {"fusion_lon": 0.0, "name": "57ec048841acf742ed82e009eaed0bd8", "rental_uris": {"android": "https://dc.lft.to/lastmile_qr_scan", "ios": "https://dc.lft.to/lastmile_qr_scan"}, "lat": 38.915524166666664, "bike_id": "57ec048841acf742ed82e009eaed0bd8", "is_disabled": 0, "lon": -77.0325535, "is_reserved": 0, "fusion_lat": 0.0, "type": "electric_scooter"}, {"fusion_lon": 0.0, "name": "0346a78d4d20e2d9abd0c56383d0ae53", "rental_uris": {"android": "https://dc.lft.to/lastmile_qr_scan", "ios": "https://dc.lft.to/lastmile_qr_scan"}, "lat": 38.92226083333333, "bike_id": "0346a78d4d20e2d9abd0c56383d0ae53", "is_disabled": 0, "lon": -77.04309133333334, "is_reserved": 0, "fusion_lat": 0.0, "type": "electric_scooter"}, {"fusion_lon": 0.0, "name": "2061d41978258cd03089ac6fbf742923", "rental_uris": {"android": "https://dc.lft.to/lastmile_qr_scan", "ios": "https://dc.lft.to/lastmile_qr_scan"}, "lat": 38.920917833333334, "bike_id": "2061d41978258cd03089ac6fbf742923", "is_disabled": 0, "lon": -77.023236, "is_reserved": 0, "fusion_lat": 0.0, "type": "electric_scooter"}, {"fusion_lon": 0.0, "name": "c3d5742a4e9fc3f788f796fd09383812", "rental_uris": {"android": "https://dc.lft.to/lastmile_qr_scan", "ios": "https://dc.lft.to/lastmile_qr_scan"}, "lat": 38.90775983333333, "bike_id": "c3d5742a4e9fc3f788f796fd09383812", "is_disabled": 0, "lon": -77.01832266666666, "is_reserved": 0, "fusion_lat": 0.0, "type": "electric_scooter"}, {"fusion_lon": 0.0, "name": "c3a476960aa97d37560a55e5ced20dbd", "rental_uris": {"android": "https://dc.lft.to/lastmile_qr_scan", "ios": "https://dc.lft.to/lastmile_qr_scan"}, "lat": 38.93097316666667, "bike_id": "c3a476960aa97d37560a55e5ced20dbd", "is_disabled": 0, "lon": -77.0266345, "is_reserved": 0, "fusion_lat": 0.0, "type": "electric_scooter"}, {"fusion_lon": 0.0, "name": "d295c5c5fe898941ccda327229accda8", "rental_uris": {"android": "https://dc.lft.to/lastmile_qr_scan", "ios": "https://dc.lft.to/lastmile_qr_scan"}, "lat": 38.932619333333335, "bike_id": "d295c5c5fe898941ccda327229accda8", "is_disabled": 0, "lon": -77.02068066666666, "is_reserved": 0, "fusion_lat": 0.0, "type": "electric_bike"}, {"fusion_lon": 0.0, "name": "b9b42dfd12cb181df6ec6c61505ee471", "rental_uris": {"android": "https://dc.lft.to/lastmile_qr_scan", "ios": "https://dc.lft.to/lastmile_qr_scan"}, "lat": 38.917071166666666, "bike_id": "b9b42dfd12cb181df6ec6c61505ee471", "is_disabled": 0, "lon": -77.03145766666667, "is_reserved": 0, "fusion_lat": 0.0, "type": "electric_scooter"}, {"fusion_lon": 0.0, "name": "496e53743035c17b881162fd3dd27163", "rental_uris": {"android": "https://dc.lft.to/lastmile_qr_scan", "ios": "https://dc.lft.to/lastmile_qr_scan"}, "lat": 38.908308166666664, "bike_id": "496e53743035c17b881162fd3dd27163", "is_disabled": 0, "lon": -77.00230916666666, "is_reserved": 0, "fusion_lat": 0.0, "type": "electric_scooter"}, {"fusion_lon": 0.0, "name": "fa3e11ba006d3d723c4bf30acd47787a", "rental_uris": {"android": "https://dc.lft.to/lastmile_qr_scan", "ios": "https://dc.lft.to/lastmile_qr_scan"}, "lat": 38.914170666666664, "bike_id": "fa3e11ba006d3d723c4bf30acd47787a", "is_disabled": 0, "lon": -77.01800933333334, "is_reserved": 0, "fusion_lat": 0.0, "type": "electric_scooter"}, {"fusion_lon": 0.0, "name": "1c2ae5345cd541d88542fc6963542380", "rental_uris": {"android": "https://dc.lft.to/lastmile_qr_scan", "ios": "https://dc.lft.to/lastmile_qr_scan"}, "lat": 38.9097865, "bike_id": "1c2ae5345cd541d88542fc6963542380", "is_disabled": 0, "lon": -77.03412633333333, "is_reserved": 0, "fusion_lat": 0.0, "type": "electric_scooter"}, {"fusion_lon": 0.0, "name": "bea44bb9b2fe5bb65c374c5e21e17bd8", "rental_uris": {"android": "https://dc.lft.to/lastmile_qr_scan", "ios": "https://dc.lft.to/lastmile_qr_scan"}, "lat": 38.90838766666667, "bike_id": "bea44bb9b2fe5bb65c374c5e21e17bd8", "is_disabled": 0, "lon": -77.04350933333333, "is_reserved": 0, "fusion_lat": 0.0, "type": "electric_scooter"}, {"fusion_lon": 0.0, "name": "d2ea7a28148ee481b432a6aee65b689f", "rental_uris": {"android": "https://dc.lft.to/lastmile_qr_scan", "ios": "https://dc.lft.to/lastmile_qr_scan"}, "lat": 38.845094333333336, "bike_id": "d2ea7a28148ee481b432a6aee65b689f", "is_disabled": 0, "lon": -76.99352933333333, "is_reserved": 0, "fusion_lat": 0.0, "type": "electric_bike"}, {"fusion_lon": 0.0, "name": "9094ba992ea813e9a65ae994bf35dd89", "rental_uris": {"android": "https://dc.lft.to/lastmile_qr_scan", "ios": "https://dc.lft.to/lastmile_qr_scan"}, "lat": 38.909895166666665, "bike_id": "9094ba992ea813e9a65ae994bf35dd89", "is_disabled": 0, "lon": -77.00908266666667, "is_reserved": 0, "fusion_lat": 0.0, "type": "electric_scooter"}, {"fusion_lon": 0.0, "name": "25051d8f000685bed791395e94106430", "rental_uris": {"android": "https://dc.lft.to/lastmile_qr_scan", "ios": "https://dc.lft.to/lastmile_qr_scan"}, "lat": 38.9089835, "bike_id": "25051d8f000685bed791395e94106430", "is_disabled": 0, "lon": -77.04055316666667, "is_reserved": 0, "fusion_lat": 0.0, "type": "electric_scooter"}, {"fusion_lon": 0.0, "name": "f89c3f5564c8cb66bba7234502d741fc", "rental_uris": {"android": "https://dc.lft.to/lastmile_qr_scan", "ios": "https://dc.lft.to/lastmile_qr_scan"}, "lat": 38.894783833333335, "bike_id": "f89c3f5564c8cb66bba7234502d741fc", "is_disabled": 0, "lon": -77.020169, "is_reserved": 0, "fusion_lat": 0.0, "type": "electric_scooter"}, {"fusion_lon": 0.0, "name": "c8493dec6256341f8de2990a44a48794", "rental_uris": {"android": "https://dc.lft.to/lastmile_qr_scan", "ios": "https://dc.lft.to/lastmile_qr_scan"}, "lat": 38.920891, "bike_id": "c8493dec6256341f8de2990a44a48794", "is_disabled": 0, "lon": -77.004418, "is_reserved": 0, "fusion_lat": 0.0, "type": "electric_scooter"}, {"fusion_lon": 0.0, "name": "72dd0e80eaf8573d36327734f78ef795", "rental_uris": {"android": "https://dc.lft.to/lastmile_qr_scan", "ios": "https://dc.lft.to/lastmile_qr_scan"}, "lat": 38.916979833333336, "bike_id": "72dd0e80eaf8573d36327734f78ef795", "is_disabled": 0, "lon": -77.03467, "is_reserved": 0, "fusion_lat": 0.0, "type": "electric_scooter"}, {"fusion_lon": 0.0, "name": "95bcde1bff86b29ca6dd883af4446d13", "rental_uris": {"android": "https://dc.lft.to/lastmile_qr_scan", "ios": "https://dc.lft.to/lastmile_qr_scan"}, "lat": 38.9098005, "bike_id": "95bcde1bff86b29ca6dd883af4446d13", "is_disabled": 0, "lon": -77.0734095, "is_reserved": 0, "fusion_lat": 0.0, "type": "electric_scooter"}, {"fusion_lon": 0.0, "name": "01f108f32d0758fa646286aefc2deb3e", "rental_uris": {"android": "https://dc.lft.to/lastmile_qr_scan", "ios": "https://dc.lft.to/lastmile_qr_scan"}, "lat": 38.929186333333334, "bike_id": "01f108f32d0758fa646286aefc2deb3e", "is_disabled": 0, "lon": -77.03242383333334, "is_reserved": 0, "fusion_lat": 0.0, "type": "electric_scooter"}, {"fusion_lon": 0.0, "name": "df7b6cb961281fc68c0bf378bd38c407", "rental_uris": {"android": "https://dc.lft.to/lastmile_qr_scan", "ios": "https://dc.lft.to/lastmile_qr_scan"}, "lat": 38.92260683333333, "bike_id": "df7b6cb961281fc68c0bf378bd38c407", "is_disabled": 0, "lon": -77.036647, "is_reserved": 0, "fusion_lat": 0.0, "type": "electric_scooter"}, {"fusion_lon": 0.0, "name": "ec583dfd6a5fd1d4c7b9b66b2d12d525", "rental_uris": {"android": "https://dc.lft.to/lastmile_qr_scan", "ios": "https://dc.lft.to/lastmile_qr_scan"}, "lat": 38.93060116666667, "bike_id": "ec583dfd6a5fd1d4c7b9b66b2d12d525", "is_disabled": 0, "lon": -77.02787633333334, "is_reserved": 0, "fusion_lat": 0.0, "type": "electric_scooter"}, {"fusion_lon": 0.0, "name": "54c3a6b4ec236bda7193a27283c0d026", "rental_uris": {"android": "https://dc.lft.to/lastmile_qr_scan", "ios": "https://dc.lft.to/lastmile_qr_scan"}, "lat": 38.90933533333333, "bike_id": "54c3a6b4ec236bda7193a27283c0d026", "is_disabled": 0, "lon": -77.04431916666667, "is_reserved": 0, "fusion_lat": 0.0, "type": "electric_scooter"}, {"fusion_lon": 0.0, "name": "a01cb3c7d08dcad288c0c485453f7a95", "rental_uris": {"android": "https://dc.lft.to/lastmile_qr_scan", "ios": "https://dc.lft.to/lastmile_qr_scan"}, "lat": 38.9070375, "bike_id": "a01cb3c7d08dcad288c0c485453f7a95", "is_disabled": 0, "lon": -77.040818, "is_reserved": 0, "fusion_lat": 0.0, "type": "electric_scooter"}, {"fusion_lon": 0.0, "name": "a027a58b8e06715cf2a42b0f81171612", "rental_uris": {"android": "https://dc.lft.to/lastmile_qr_scan", "ios": "https://dc.lft.to/lastmile_qr_scan"}, "lat": 38.91178633333333, "bike_id": "a027a58b8e06715cf2a42b0f81171612", "is_disabled": 0, "lon": -77.03208033333334, "is_reserved": 0, "fusion_lat": 0.0, "type": "electric_scooter"}, {"fusion_lon": 0.0, "name": "092de07699eb89f8a50bcb474f94d331", "rental_uris": {"android": "https://dc.lft.to/lastmile_qr_scan", "ios": "https://dc.lft.to/lastmile_qr_scan"}, "lat": 38.90972883333333, "bike_id": "092de07699eb89f8a50bcb474f94d331", "is_disabled": 0, "lon": -77.032169, "is_reserved": 0, "fusion_lat": 0.0, "type": "electric_scooter"}, {"fusion_lon": 0.0, "name": "53b23c77a2f50e22ace0ba152060618d", "rental_uris": {"android": "https://dc.lft.to/lastmile_qr_scan", "ios": "https://dc.lft.to/lastmile_qr_scan"}, "lat": 38.89542466666666, "bike_id": "53b23c77a2f50e22ace0ba152060618d", "is_disabled": 0, "lon": -77.01146466666667, "is_reserved": 0, "fusion_lat": 0.0, "type": "electric_scooter"}, {"fusion_lon": 0.0, "name": "ba2e0944668a5b5ee1052319f092aaba", "rental_uris": {"android": "https://dc.lft.to/lastmile_qr_scan", "ios": "https://dc.lft.to/lastmile_qr_scan"}, "lat": 38.91563283333333, "bike_id": "ba2e0944668a5b5ee1052319f092aaba", "is_disabled": 0, "lon": -77.01973416666667, "is_reserved": 0, "fusion_lat": 0.0, "type": "electric_scooter"}, {"fusion_lon": 0.0, "name": "5fc391da6dd21b5db80609219c710bc9", "rental_uris": {"android": "https://dc.lft.to/lastmile_qr_scan", "ios": "https://dc.lft.to/lastmile_qr_scan"}, "lat": 38.906658166666666, "bike_id": "5fc391da6dd21b5db80609219c710bc9", "is_disabled": 0, "lon": -77.03806433333334, "is_reserved": 0, "fusion_lat": 0.0, "type": "electric_scooter"}, {"fusion_lon": 0.0, "name": "ad24d31068936c8822591503c85f4935", "rental_uris": {"android": "https://dc.lft.to/lastmile_qr_scan", "ios": "https://dc.lft.to/lastmile_qr_scan"}, "lat": 38.90213766666667, "bike_id": "ad24d31068936c8822591503c85f4935", "is_disabled": 0, "lon": -77.04578233333334, "is_reserved": 0, "fusion_lat": 0.0, "type": "electric_scooter"}, {"fusion_lon": 0.0, "name": "eabd605b42e46dcd94bd73a218437299", "rental_uris": {"android": "https://dc.lft.to/lastmile_qr_scan", "ios": "https://dc.lft.to/lastmile_qr_scan"}, "lat": 38.87555016666666, "bike_id": "eabd605b42e46dcd94bd73a218437299", "is_disabled": 0, "lon": -77.0059645, "is_reserved": 0, "fusion_lat": 0.0, "type": "electric_scooter"}, {"fusion_lon": 0.0, "name": "be02857b8fee5f11963800891ccb81d0", "rental_uris": {"android": "https://dc.lft.to/lastmile_qr_scan", "ios": "https://dc.lft.to/lastmile_qr_scan"}, "lat": 38.9321855, "bike_id": "be02857b8fee5f11963800891ccb81d0", "is_disabled": 0, "lon": -77.02698083333334, "is_reserved": 0, "fusion_lat": 0.0, "type": "electric_scooter"}, {"fusion_lon": 0.0, "name": "260ff6dbac37172b537ca3b080126013", "rental_uris": {"android": "https://dc.lft.to/lastmile_qr_scan", "ios": "https://dc.lft.to/lastmile_qr_scan"}, "lat": 38.91486583333333, "bike_id": "260ff6dbac37172b537ca3b080126013", "is_disabled": 0, "lon": -77.00218866666667, "is_reserved": 0, "fusion_lat": 0.0, "type": "electric_scooter"}, {"fusion_lon": 0.0, "name": "6034169798e4a5b0e3b4775756fd4b80", "rental_uris": {"android": "https://dc.lft.to/lastmile_qr_scan", "ios": "https://dc.lft.to/lastmile_qr_scan"}, "lat": 38.921888, "bike_id": "6034169798e4a5b0e3b4775756fd4b80", "is_disabled": 0, "lon": -77.03516866666666, "is_reserved": 0, "fusion_lat": 0.0, "type": "electric_scooter"}, {"fusion_lon": 0.0, "name": "625b9e050ddee6a47a87eb994a99cc30", "rental_uris": {"android": "https://dc.lft.to/lastmile_qr_scan", "ios": "https://dc.lft.to/lastmile_qr_scan"}, "lat": 38.920910666666664, "bike_id": "625b9e050ddee6a47a87eb994a99cc30", "is_disabled": 0, "lon": -77.0251735, "is_reserved": 0, "fusion_lat": 0.0, "type": "electric_scooter"}, {"fusion_lon": 0.0, "name": "63eebb602b41ad77434987f982387324", "rental_uris": {"android": "https://dc.lft.to/lastmile_qr_scan", "ios": "https://dc.lft.to/lastmile_qr_scan"}, "lat": 38.929783666666665, "bike_id": "63eebb602b41ad77434987f982387324", "is_disabled": 0, "lon": -77.03237016666667, "is_reserved": 0, "fusion_lat": 0.0, "type": "electric_scooter"}, {"fusion_lon": 0.0, "name": "e1d56e184486e52c87a610b50c7dec62", "rental_uris": {"android": "https://dc.lft.to/lastmile_qr_scan", "ios": "https://dc.lft.to/lastmile_qr_scan"}, "lat": 38.937349833333336, "bike_id": "e1d56e184486e52c87a610b50c7dec62", "is_disabled": 0, "lon": -77.024431, "is_reserved": 0, "fusion_lat": 0.0, "type": "electric_scooter"}, {"fusion_lon": 0.0, "name": "19ded6b0b0e541b2174968a6706e8b96", "rental_uris": {"android": "https://dc.lft.to/lastmile_qr_scan", "ios": "https://dc.lft.to/lastmile_qr_scan"}, "lat": 38.887406666666664, "bike_id": "19ded6b0b0e541b2174968a6706e8b96", "is_disabled": 0, "lon": -77.02577066666667, "is_reserved": 0, "fusion_lat": 0.0, "type": "electric_scooter"}, {"fusion_lon": 0.0, "name": "8c4be8d3c808cace0028fef9d2a4fa0a", "rental_uris": {"android": "https://dc.lft.to/lastmile_qr_scan", "ios": "https://dc.lft.to/lastmile_qr_scan"}, "lat": 38.92960266666667, "bike_id": "8c4be8d3c808cace0028fef9d2a4fa0a", "is_disabled": 0, "lon": -77.0114865, "is_reserved": 0, "fusion_lat": 0.0, "type": "electric_scooter"}, {"fusion_lon": 0.0, "name": "52184b264a8a6e6bc9861372890509c7", "rental_uris": {"android": "https://dc.lft.to/lastmile_qr_scan", "ios": "https://dc.lft.to/lastmile_qr_scan"}, "lat": 38.95107566666667, "bike_id": "52184b264a8a6e6bc9861372890509c7", "is_disabled": 0, "lon": -77.013111, "is_reserved": 0, "fusion_lat": 0.0, "type": "electric_scooter"}, {"fusion_lon": 0.0, "name": "f0dc734c4a625721ed6f966ac9e6c245", "rental_uris": {"android": "https://dc.lft.to/lastmile_qr_scan", "ios": "https://dc.lft.to/lastmile_qr_scan"}, "lat": 38.906602166666666, "bike_id": "f0dc734c4a625721ed6f966ac9e6c245", "is_disabled": 0, "lon": -77.05017216666667, "is_reserved": 0, "fusion_lat": 0.0, "type": "electric_scooter"}, {"fusion_lon": 0.0, "name": "003185d0363d2297adac08f92ecee50c", "rental_uris": {"android": "https://dc.lft.to/lastmile_qr_scan", "ios": "https://dc.lft.to/lastmile_qr_scan"}, "lat": 38.9003055, "bike_id": "003185d0363d2297adac08f92ecee50c", "is_disabled": 0, "lon": -77.011973, "is_reserved": 0, "fusion_lat": 0.0, "type": "electric_scooter"}, {"fusion_lon": 0.0, "name": "242b2aeb71c99bd2ffe01bf6e4c59183", "rental_uris": {"android": "https://dc.lft.to/lastmile_qr_scan", "ios": "https://dc.lft.to/lastmile_qr_scan"}, "lat": 38.930515666666665, "bike_id": "242b2aeb71c99bd2ffe01bf6e4c59183", "is_disabled": 0, "lon": -77.07351516666667, "is_reserved": 0, "fusion_lat": 0.0, "type": "electric_bike"}, {"fusion_lon": 0.0, "name": "0739c1a91f59b25d1131549d9a5df64c", "rental_uris": {"android": "https://dc.lft.to/lastmile_qr_scan", "ios": "https://dc.lft.to/lastmile_qr_scan"}, "lat": 38.89973166666667, "bike_id": "0739c1a91f59b25d1131549d9a5df64c", "is_disabled": 0, "lon": -77.02712416666667, "is_reserved": 0, "fusion_lat": 0.0, "type": "electric_scooter"}, {"fusion_lon": 0.0, "name": "d1c99511da089d5ff8a8d376d29773c5", "rental_uris": {"android": "https://dc.lft.to/lastmile_qr_scan", "ios": "https://dc.lft.to/lastmile_qr_scan"}, "lat": 38.957149333333334, "bike_id": "d1c99511da089d5ff8a8d376d29773c5", "is_disabled": 0, "lon": -77.002304, "is_reserved": 0, "fusion_lat": 0.0, "type": "electric_scooter"}, {"fusion_lon": 0.0, "name": "9d818a126bc90fb16cca62815c1e2c34", "rental_uris": {"android": "https://dc.lft.to/lastmile_qr_scan", "ios": "https://dc.lft.to/lastmile_qr_scan"}, "lat": 38.916359166666666, "bike_id": "9d818a126bc90fb16cca62815c1e2c34", "is_disabled": 0, "lon": -77.04583533333333, "is_reserved": 0, "fusion_lat": 0.0, "type": "electric_scooter"}, {"fusion_lon": 0.0, "name": "2b3c4efe004fb89d3a18461f79ac2ad9", "rental_uris": {"android": "https://dc.lft.to/lastmile_qr_scan", "ios": "https://dc.lft.to/lastmile_qr_scan"}, "lat": 38.92143733333333, "bike_id": "2b3c4efe004fb89d3a18461f79ac2ad9", "is_disabled": 0, "lon": -77.03539583333334, "is_reserved": 0, "fusion_lat": 0.0, "type": "electric_scooter"}, {"fusion_lon": 0.0, "name": "f7c0c5af59889b3d2339ab46f31f2e18", "rental_uris": {"android": "https://dc.lft.to/lastmile_qr_scan", "ios": "https://dc.lft.to/lastmile_qr_scan"}, "lat": 38.912683, "bike_id": "f7c0c5af59889b3d2339ab46f31f2e18", "is_disabled": 0, "lon": -77.03335983333334, "is_reserved": 0, "fusion_lat": 0.0, "type": "electric_scooter"}, {"fusion_lon": 0.0, "name": "86774fe0249b6bb515f312d4b5a95fc7", "rental_uris": {"android": "https://dc.lft.to/lastmile_qr_scan", "ios": "https://dc.lft.to/lastmile_qr_scan"}, "lat": 38.839296166666664, "bike_id": "86774fe0249b6bb515f312d4b5a95fc7", "is_disabled": 0, "lon": -77.07902333333334, "is_reserved": 0, "fusion_lat": 0.0, "type": "electric_bike"}, {"fusion_lon": 0.0, "name": "25dc3fecc1b08c16fabad02dc5205904", "rental_uris": {"android": "https://dc.lft.to/lastmile_qr_scan", "ios": "https://dc.lft.to/lastmile_qr_scan"}, "lat": 38.9207215, "bike_id": "25dc3fecc1b08c16fabad02dc5205904", "is_disabled": 0, "lon": -77.02441333333333, "is_reserved": 0, "fusion_lat": 0.0, "type": "electric_scooter"}, {"fusion_lon": 0.0, "name": "65fd613b9bd7b7a974a76fa40307cd8c", "rental_uris": {"android": "https://dc.lft.to/lastmile_qr_scan", "ios": "https://dc.lft.to/lastmile_qr_scan"}, "lat": 38.88883233333333, "bike_id": "65fd613b9bd7b7a974a76fa40307cd8c", "is_disabled": 0, "lon": -76.990357, "is_reserved": 0, "fusion_lat": 0.0, "type": "electric_scooter"}, {"fusion_lon": 0.0, "name": "e18bc683a23251a1bcf8756ecbe7d351", "rental_uris": {"android": "https://dc.lft.to/lastmile_qr_scan", "ios": "https://dc.lft.to/lastmile_qr_scan"}, "lat": 38.92631133333333, "bike_id": "e18bc683a23251a1bcf8756ecbe7d351", "is_disabled": 0, "lon": -77.037147, "is_reserved": 0, "fusion_lat": 0.0, "type": "electric_scooter"}, {"fusion_lon": 0.0, "name": "01eb0a755878ecfebe22e34a0f1c0e58", "rental_uris": {"android": "https://dc.lft.to/lastmile_qr_scan", "ios": "https://dc.lft.to/lastmile_qr_scan"}, "lat": 38.923457, "bike_id": "01eb0a755878ecfebe22e34a0f1c0e58", "is_disabled": 0, "lon": -77.0509185, "is_reserved": 0, "fusion_lat": 0.0, "type": "electric_scooter"}, {"fusion_lon": 0.0, "name": "e956e5ce548d2cb0cf4434737ba9d98f", "rental_uris": {"android": "https://dc.lft.to/lastmile_qr_scan", "ios": "https://dc.lft.to/lastmile_qr_scan"}, "lat": 38.90339266666667, "bike_id": "e956e5ce548d2cb0cf4434737ba9d98f", "is_disabled": 0, "lon": -76.97615466666667, "is_reserved": 0, "fusion_lat": 0.0, "type": "electric_scooter"}, {"fusion_lon": 0.0, "name": "ef796b172a658c412e4fa9e3bb31c3fd", "rental_uris": {"android": "https://dc.lft.to/lastmile_qr_scan", "ios": "https://dc.lft.to/lastmile_qr_scan"}, "lat": 38.890995333333336, "bike_id": "ef796b172a658c412e4fa9e3bb31c3fd", "is_disabled": 0, "lon": -77.00210733333333, "is_reserved": 0, "fusion_lat": 0.0, "type": "electric_scooter"}, {"fusion_lon": 0.0, "name": "77461c348cfe2e817c8e6fab7a730bec", "rental_uris": {"android": "https://dc.lft.to/lastmile_qr_scan", "ios": "https://dc.lft.to/lastmile_qr_scan"}, "lat": 38.90563683333333, "bike_id": "77461c348cfe2e817c8e6fab7a730bec", "is_disabled": 0, "lon": -77.00597516666667, "is_reserved": 0, "fusion_lat": 0.0, "type": "electric_scooter"}, {"fusion_lon": 0.0, "name": "760ea29a0fc4dd757f1bc60859c8957a", "rental_uris": {"android": "https://dc.lft.to/lastmile_qr_scan", "ios": "https://dc.lft.to/lastmile_qr_scan"}, "lat": 38.91894033333333, "bike_id": "760ea29a0fc4dd757f1bc60859c8957a", "is_disabled": 0, "lon": -77.10178766666667, "is_reserved": 0, "fusion_lat": 0.0, "type": "electric_bike"}, {"fusion_lon": 0.0, "name": "a67bea0f9a5321c54eeaa59ed167692c", "rental_uris": {"android": "https://dc.lft.to/lastmile_qr_scan", "ios": "https://dc.lft.to/lastmile_qr_scan"}, "lat": 38.93060666666667, "bike_id": "a67bea0f9a5321c54eeaa59ed167692c", "is_disabled": 0, "lon": -77.027905, "is_reserved": 0, "fusion_lat": 0.0, "type": "electric_scooter"}, {"fusion_lon": 0.0, "name": "26ef9600479e9ccd6bc25cf2f6ddb339", "rental_uris": {"android": "https://dc.lft.to/lastmile_qr_scan", "ios": "https://dc.lft.to/lastmile_qr_scan"}, "lat": 38.891414166666664, "bike_id": "26ef9600479e9ccd6bc25cf2f6ddb339", "is_disabled": 0, "lon": -76.9995015, "is_reserved": 0, "fusion_lat": 0.0, "type": "electric_scooter"}, {"fusion_lon": 0.0, "name": "7bb1c15639336792231a0f622ba95f1a", "rental_uris": {"android": "https://dc.lft.to/lastmile_qr_scan", "ios": "https://dc.lft.to/lastmile_qr_scan"}, "lat": 38.835876666666664, "bike_id": "7bb1c15639336792231a0f622ba95f1a", "is_disabled": 0, "lon": -76.9902965, "is_reserved": 0, "fusion_lat": 0.0, "type": "electric_bike"}, {"fusion_lon": 0.0, "name": "32fcffecdcc5c107abfe8eb2c662f7b4", "rental_uris": {"android": "https://dc.lft.to/lastmile_qr_scan", "ios": "https://dc.lft.to/lastmile_qr_scan"}, "lat": 38.96400516666667, "bike_id": "32fcffecdcc5c107abfe8eb2c662f7b4", "is_disabled": 0, "lon": -77.02585783333333, "is_reserved": 0, "fusion_lat": 0.0, "type": "electric_scooter"}, {"fusion_lon": 0.0, "name": "6e19ef7f1a66454c1d7314e876a8042b", "rental_uris": {"android": "https://dc.lft.to/lastmile_qr_scan", "ios": "https://dc.lft.to/lastmile_qr_scan"}, "lat": 38.88819383333333, "bike_id": "6e19ef7f1a66454c1d7314e876a8042b", "is_disabled": 0, "lon": -76.97704483333334, "is_reserved": 0, "fusion_lat": 0.0, "type": "electric_scooter"}, {"fusion_lon": 0.0, "name": "a2b1c2953bf1aa9f2cb2f5345e8a6fdb", "rental_uris": {"android": "https://dc.lft.to/lastmile_qr_scan", "ios": "https://dc.lft.to/lastmile_qr_scan"}, "lat": 38.92879683333334, "bike_id": "a2b1c2953bf1aa9f2cb2f5345e8a6fdb", "is_disabled": 0, "lon": -77.02602366666666, "is_reserved": 0, "fusion_lat": 0.0, "type": "electric_scooter"}, {"fusion_lon": 0.0, "name": "da62511cef78673310864792172f2085", "rental_uris": {"android": "https://dc.lft.to/lastmile_qr_scan", "ios": "https://dc.lft.to/lastmile_qr_scan"}, "lat": 38.9162325, "bike_id": "da62511cef78673310864792172f2085", "is_disabled": 0, "lon": -77.00189583333334, "is_reserved": 0, "fusion_lat": 0.0, "type": "electric_scooter"}, {"fusion_lon": 0.0, "name": "8151aee180def60deee0f0b5788e06a1", "rental_uris": {"android": "https://dc.lft.to/lastmile_qr_scan", "ios": "https://dc.lft.to/lastmile_qr_scan"}, "lat": 38.922514666666665, "bike_id": "8151aee180def60deee0f0b5788e06a1", "is_disabled": 0, "lon": -77.0435765, "is_reserved": 0, "fusion_lat": 0.0, "type": "electric_scooter"}, {"fusion_lon": 0.0, "name": "4525d0bd2101d46c847f32e7a05314ce", "rental_uris": {"android": "https://dc.lft.to/lastmile_qr_scan", "ios": "https://dc.lft.to/lastmile_qr_scan"}, "lat": 38.926471166666666, "bike_id": "4525d0bd2101d46c847f32e7a05314ce", "is_disabled": 0, "lon": -77.04059316666667, "is_reserved": 0, "fusion_lat": 0.0, "type": "electric_scooter"}, {"fusion_lon": 0.0, "name": "a69691e27bd19d695d5d1d1ebac589c9", "rental_uris": {"android": "https://dc.lft.to/lastmile_qr_scan", "ios": "https://dc.lft.to/lastmile_qr_scan"}, "lat": 38.87596833333333, "bike_id": "a69691e27bd19d695d5d1d1ebac589c9", "is_disabled": 0, "lon": -77.00579283333333, "is_reserved": 0, "fusion_lat": 0.0, "type": "electric_scooter"}, {"fusion_lon": 0.0, "name": "cd0cd2515cad19d1b812c593a0892c51", "rental_uris": {"android": "https://dc.lft.to/lastmile_qr_scan", "ios": "https://dc.lft.to/lastmile_qr_scan"}, "lat": 38.898818166666665, "bike_id": "cd0cd2515cad19d1b812c593a0892c51", "is_disabled": 0, "lon": -76.988413, "is_reserved": 0, "fusion_lat": 0.0, "type": "electric_scooter"}, {"fusion_lon": 0.0, "name": "9ec639e1e8560c6e243f24520db0537d", "rental_uris": {"android": "https://dc.lft.to/lastmile_qr_scan", "ios": "https://dc.lft.to/lastmile_qr_scan"}, "lat": 38.8789095, "bike_id": "9ec639e1e8560c6e243f24520db0537d", "is_disabled": 0, "lon": -77.02202733333333, "is_reserved": 0, "fusion_lat": 0.0, "type": "electric_scooter"}, {"fusion_lon": 0.0, "name": "152710656faf0785240db309c9247abd", "rental_uris": {"android": "https://dc.lft.to/lastmile_qr_scan", "ios": "https://dc.lft.to/lastmile_qr_scan"}, "lat": 38.92669166666667, "bike_id": "152710656faf0785240db309c9247abd", "is_disabled": 0, "lon": -77.0302625, "is_reserved": 0, "fusion_lat": 0.0, "type": "electric_scooter"}, {"fusion_lon": 0.0, "name": "da2bfba5548982de426cae0cb2fa536a", "rental_uris": {"android": "https://dc.lft.to/lastmile_qr_scan", "ios": "https://dc.lft.to/lastmile_qr_scan"}, "lat": 38.91693683333333, "bike_id": "da2bfba5548982de426cae0cb2fa536a", "is_disabled": 0, "lon": -77.03112683333333, "is_reserved": 0, "fusion_lat": 0.0, "type": "electric_scooter"}, {"fusion_lon": 0.0, "name": "be0bf651ddb55d782c28a157bdd0b828", "rental_uris": {"android": "https://dc.lft.to/lastmile_qr_scan", "ios": "https://dc.lft.to/lastmile_qr_scan"}, "lat": 38.90513266666667, "bike_id": "be0bf651ddb55d782c28a157bdd0b828", "is_disabled": 0, "lon": -77.00219283333334, "is_reserved": 0, "fusion_lat": 0.0, "type": "electric_scooter"}, {"fusion_lon": 0.0, "name": "55387f163723baf5a266cb4dbef910bf", "rental_uris": {"android": "https://dc.lft.to/lastmile_qr_scan", "ios": "https://dc.lft.to/lastmile_qr_scan"}, "lat": 38.926148166666664, "bike_id": "55387f163723baf5a266cb4dbef910bf", "is_disabled": 0, "lon": -77.02163683333333, "is_reserved": 0, "fusion_lat": 0.0, "type": "electric_scooter"}, {"fusion_lon": 0.0, "name": "21058eee333ca73e742784769cb967fc", "rental_uris": {"android": "https://dc.lft.to/lastmile_qr_scan", "ios": "https://dc.lft.to/lastmile_qr_scan"}, "lat": 38.892268333333334, "bike_id": "21058eee333ca73e742784769cb967fc", "is_disabled": 0, "lon": -77.01724566666667, "is_reserved": 0, "fusion_lat": 0.0, "type": "electric_scooter"}, {"fusion_lon": 0.0, "name": "3eac4ac5c3f927934607ead0e08a485c", "rental_uris": {"android": "https://dc.lft.to/lastmile_qr_scan", "ios": "https://dc.lft.to/lastmile_qr_scan"}, "lat": 38.926021, "bike_id": "3eac4ac5c3f927934607ead0e08a485c", "is_disabled": 0, "lon": -77.02156966666666, "is_reserved": 0, "fusion_lat": 0.0, "type": "electric_scooter"}, {"fusion_lon": 0.0, "name": "784d44ddde05189bbd1279b9a326b261", "rental_uris": {"android": "https://dc.lft.to/lastmile_qr_scan", "ios": "https://dc.lft.to/lastmile_qr_scan"}, "lat": 38.9089045, "bike_id": "784d44ddde05189bbd1279b9a326b261", "is_disabled": 0, "lon": -76.9912495, "is_reserved": 0, "fusion_lat": 0.0, "type": "electric_scooter"}, {"fusion_lon": 0.0, "name": "96d64e64a63781c8866d9ae3102bd950", "rental_uris": {"android": "https://dc.lft.to/lastmile_qr_scan", "ios": "https://dc.lft.to/lastmile_qr_scan"}, "lat": 38.894976, "bike_id": "96d64e64a63781c8866d9ae3102bd950", "is_disabled": 0, "lon": -77.00212733333333, "is_reserved": 0, "fusion_lat": 0.0, "type": "electric_scooter"}, {"fusion_lon": 0.0, "name": "82427a030153b400d2caa98ba47aa105", "rental_uris": {"android": "https://dc.lft.to/lastmile_qr_scan", "ios": "https://dc.lft.to/lastmile_qr_scan"}, "lat": 38.900142833333334, "bike_id": "82427a030153b400d2caa98ba47aa105", "is_disabled": 0, "lon": -76.93026966666666, "is_reserved": 0, "fusion_lat": 0.0, "type": "electric_scooter"}, {"fusion_lon": 0.0, "name": "a1fa21b9a92c859af02fc025a0abeeb1", "rental_uris": {"android": "https://dc.lft.to/lastmile_qr_scan", "ios": "https://dc.lft.to/lastmile_qr_scan"}, "lat": 38.89303316666667, "bike_id": "a1fa21b9a92c859af02fc025a0abeeb1", "is_disabled": 0, "lon": -76.92986383333333, "is_reserved": 0, "fusion_lat": 0.0, "type": "electric_scooter"}, {"fusion_lon": 0.0, "name": "b79d39866f8ff07991a6f679bd60a433", "rental_uris": {"android": "https://dc.lft.to/lastmile_qr_scan", "ios": "https://dc.lft.to/lastmile_qr_scan"}, "lat": 38.900507, "bike_id": "b79d39866f8ff07991a6f679bd60a433", "is_disabled": 0, "lon": -77.001954, "is_reserved": 0, "fusion_lat": 0.0, "type": "electric_scooter"}, {"fusion_lon": 0.0, "name": "353a95371567ed24db3d055d6b4ea5e7", "rental_uris": {"android": "https://dc.lft.to/lastmile_qr_scan", "ios": "https://dc.lft.to/lastmile_qr_scan"}, "lat": 38.89553166666666, "bike_id": "353a95371567ed24db3d055d6b4ea5e7", "is_disabled": 0, "lon": -77.1274845, "is_reserved": 0, "fusion_lat": 0.0, "type": "electric_bike"}, {"fusion_lon": 0.0, "name": "d187f2fa0af7dccf8b9b84e8db8cb1f3", "rental_uris": {"android": "https://dc.lft.to/lastmile_qr_scan", "ios": "https://dc.lft.to/lastmile_qr_scan"}, "lat": 38.880743833333334, "bike_id": "d187f2fa0af7dccf8b9b84e8db8cb1f3", "is_disabled": 0, "lon": -77.03721666666667, "is_reserved": 0, "fusion_lat": 0.0, "type": "electric_scooter"}, {"fusion_lon": 0.0, "name": "b0d736a7e126b1f09e5b4c653714be86", "rental_uris": {"android": "https://dc.lft.to/lastmile_qr_scan", "ios": "https://dc.lft.to/lastmile_qr_scan"}, "lat": 38.920675833333334, "bike_id": "b0d736a7e126b1f09e5b4c653714be86", "is_disabled": 0, "lon": -77.02443066666666, "is_reserved": 0, "fusion_lat": 0.0, "type": "electric_scooter"}, {"fusion_lon": 0.0, "name": "55b9f8be392c7ec23986dd90fe093784", "rental_uris": {"android": "https://dc.lft.to/lastmile_qr_scan", "ios": "https://dc.lft.to/lastmile_qr_scan"}, "lat": 38.92382516666667, "bike_id": "55b9f8be392c7ec23986dd90fe093784", "is_disabled": 0, "lon": -77.036666, "is_reserved": 0, "fusion_lat": 0.0, "type": "electric_scooter"}, {"fusion_lon": 0.0, "name": "3b2a99efb63cb81f2e43d8aa4ede9adb", "rental_uris": {"android": "https://dc.lft.to/lastmile_qr_scan", "ios": "https://dc.lft.to/lastmile_qr_scan"}, "lat": 38.905745833333334, "bike_id": "3b2a99efb63cb81f2e43d8aa4ede9adb", "is_disabled": 0, "lon": -77.034834, "is_reserved": 0, "fusion_lat": 0.0, "type": "electric_scooter"}, {"fusion_lon": 0.0, "name": "36818038a62fe9a8ed455d3807f1925e", "rental_uris": {"android": "https://dc.lft.to/lastmile_qr_scan", "ios": "https://dc.lft.to/lastmile_qr_scan"}, "lat": 38.91556933333333, "bike_id": "36818038a62fe9a8ed455d3807f1925e", "is_disabled": 0, "lon": -77.03670583333333, "is_reserved": 0, "fusion_lat": 0.0, "type": "electric_scooter"}, {"fusion_lon": 0.0, "name": "1fa1fc5bc871ae4ebac00aba31b75f8c", "rental_uris": {"android": "https://dc.lft.to/lastmile_qr_scan", "ios": "https://dc.lft.to/lastmile_qr_scan"}, "lat": 38.8935825, "bike_id": "1fa1fc5bc871ae4ebac00aba31b75f8c", "is_disabled": 0, "lon": -76.98460233333333, "is_reserved": 0, "fusion_lat": 0.0, "type": "electric_scooter"}, {"fusion_lon": 0.0, "name": "9b2e48e00f84813840c59fb8198d6b79", "rental_uris": {"android": "https://dc.lft.to/lastmile_qr_scan", "ios": "https://dc.lft.to/lastmile_qr_scan"}, "lat": 38.902003666666666, "bike_id": "9b2e48e00f84813840c59fb8198d6b79", "is_disabled": 0, "lon": -77.061272, "is_reserved": 0, "fusion_lat": 0.0, "type": "electric_scooter"}, {"fusion_lon": 0.0, "name": "9383658a30795b9c08bcf2167dd4eb86", "rental_uris": {"android": "https://dc.lft.to/lastmile_qr_scan", "ios": "https://dc.lft.to/lastmile_qr_scan"}, "lat": 38.90194983333333, "bike_id": "9383658a30795b9c08bcf2167dd4eb86", "is_disabled": 0, "lon": -77.0218755, "is_reserved": 0, "fusion_lat": 0.0, "type": "electric_scooter"}, {"fusion_lon": 0.0, "name": "6f2f7eb98c3478243acd0c37579fef6a", "rental_uris": {"android": "https://dc.lft.to/lastmile_qr_scan", "ios": "https://dc.lft.to/lastmile_qr_scan"}, "lat": 38.919614833333334, "bike_id": "6f2f7eb98c3478243acd0c37579fef6a", "is_disabled": 0, "lon": -77.0238235, "is_reserved": 0, "fusion_lat": 0.0, "type": "electric_scooter"}, {"fusion_lon": 0.0, "name": "59553f4feda01bb40cd4a7c424e97691", "rental_uris": {"android": "https://dc.lft.to/lastmile_qr_scan", "ios": "https://dc.lft.to/lastmile_qr_scan"}, "lat": 38.8731445, "bike_id": "59553f4feda01bb40cd4a7c424e97691", "is_disabled": 0, "lon": -77.013909, "is_reserved": 0, "fusion_lat": 0.0, "type": "electric_scooter"}, {"fusion_lon": 0.0, "name": "7a06883ebc7a493489de8bb60d81c345", "rental_uris": {"android": "https://dc.lft.to/lastmile_qr_scan", "ios": "https://dc.lft.to/lastmile_qr_scan"}, "lat": 38.908964, "bike_id": "7a06883ebc7a493489de8bb60d81c345", "is_disabled": 0, "lon": -77.03007233333334, "is_reserved": 0, "fusion_lat": 0.0, "type": "electric_scooter"}, {"fusion_lon": 0.0, "name": "2ad08517d8dca512db062799710be0bd", "rental_uris": {"android": "https://dc.lft.to/lastmile_qr_scan", "ios": "https://dc.lft.to/lastmile_qr_scan"}, "lat": 38.92616866666667, "bike_id": "2ad08517d8dca512db062799710be0bd", "is_disabled": 0, "lon": -77.00590383333333, "is_reserved": 0, "fusion_lat": 0.0, "type": "electric_bike"}, {"fusion_lon": 0.0, "name": "8c8c6324615cc07694c9d0c9ad23de91", "rental_uris": {"android": "https://dc.lft.to/lastmile_qr_scan", "ios": "https://dc.lft.to/lastmile_qr_scan"}, "lat": 38.956307, "bike_id": "8c8c6324615cc07694c9d0c9ad23de91", "is_disabled": 0, "lon": -77.02953183333334, "is_reserved": 0, "fusion_lat": 0.0, "type": "electric_scooter"}, {"fusion_lon": 0.0, "name": "9cdba1796a6b88c45c7b42f6c5e5a36d", "rental_uris": {"android": "https://dc.lft.to/lastmile_qr_scan", "ios": "https://dc.lft.to/lastmile_qr_scan"}, "lat": 38.941516166666666, "bike_id": "9cdba1796a6b88c45c7b42f6c5e5a36d", "is_disabled": 0, "lon": -77.00200266666667, "is_reserved": 0, "fusion_lat": 0.0, "type": "electric_bike"}, {"fusion_lon": 0.0, "name": "392341530210b86305f48004c9fb2a65", "rental_uris": {"android": "https://dc.lft.to/lastmile_qr_scan", "ios": "https://dc.lft.to/lastmile_qr_scan"}, "lat": 38.89620933333333, "bike_id": "392341530210b86305f48004c9fb2a65", "is_disabled": 0, "lon": -76.92977, "is_reserved": 0, "fusion_lat": 0.0, "type": "electric_scooter"}, {"fusion_lon": 0.0, "name": "f7e3d40b5b41d269cd9a98211e968516", "rental_uris": {"android": "https://dc.lft.to/lastmile_qr_scan", "ios": "https://dc.lft.to/lastmile_qr_scan"}, "lat": 38.96027016666667, "bike_id": "f7e3d40b5b41d269cd9a98211e968516", "is_disabled": 0, "lon": -77.03326116666666, "is_reserved": 0, "fusion_lat": 0.0, "type": "electric_scooter"}, {"fusion_lon": 0.0, "name": "7d0a8dbe53b7e595424a92a758c515bb", "rental_uris": {"android": "https://dc.lft.to/lastmile_qr_scan", "ios": "https://dc.lft.to/lastmile_qr_scan"}, "lat": 38.93405, "bike_id": "7d0a8dbe53b7e595424a92a758c515bb", "is_disabled": 0, "lon": -77.03824483333334, "is_reserved": 0, "fusion_lat": 0.0, "type": "electric_scooter"}, {"fusion_lon": 0.0, "name": "d9c734afcd5e4401336910f5475c03fc", "rental_uris": {"android": "https://dc.lft.to/lastmile_qr_scan", "ios": "https://dc.lft.to/lastmile_qr_scan"}, "lat": 38.876600833333335, "bike_id": "d9c734afcd5e4401336910f5475c03fc", "is_disabled": 0, "lon": -77.011696, "is_reserved": 0, "fusion_lat": 0.0, "type": "electric_scooter"}, {"fusion_lon": 0.0, "name": "0700e12d4d3a321ae57377b9e69d1864", "rental_uris": {"android": "https://dc.lft.to/lastmile_qr_scan", "ios": "https://dc.lft.to/lastmile_qr_scan"}, "lat": 38.910540166666664, "bike_id": "0700e12d4d3a321ae57377b9e69d1864", "is_disabled": 0, "lon": -77.0091885, "is_reserved": 0, "fusion_lat": 0.0, "type": "electric_scooter"}, {"fusion_lon": 0.0, "name": "507b6fcecfb0252bf1c852a3fa72f3e6", "rental_uris": {"android": "https://dc.lft.to/lastmile_qr_scan", "ios": "https://dc.lft.to/lastmile_qr_scan"}, "lat": 38.881458333333335, "bike_id": "507b6fcecfb0252bf1c852a3fa72f3e6", "is_disabled": 0, "lon": -77.01300016666667, "is_reserved": 0, "fusion_lat": 0.0, "type": "electric_scooter"}, {"fusion_lon": 0.0, "name": "fa3d3796c2b6a824e537ba5d29fa3dbc", "rental_uris": {"android": "https://dc.lft.to/lastmile_qr_scan", "ios": "https://dc.lft.to/lastmile_qr_scan"}, "lat": 38.930011666666665, "bike_id": "fa3d3796c2b6a824e537ba5d29fa3dbc", "is_disabled": 0, "lon": -77.06191766666667, "is_reserved": 0, "fusion_lat": 0.0, "type": "electric_scooter"}, {"fusion_lon": 0.0, "name": "6eaa3481be8777a003ac273e8cd768f7", "rental_uris": {"android": "https://dc.lft.to/lastmile_qr_scan", "ios": "https://dc.lft.to/lastmile_qr_scan"}, "lat": 38.897463, "bike_id": "6eaa3481be8777a003ac273e8cd768f7", "is_disabled": 0, "lon": -76.97694583333333, "is_reserved": 0, "fusion_lat": 0.0, "type": "electric_scooter"}, {"fusion_lon": 0.0, "name": "9825bf7ea0a6c92c47f50584c856a504", "rental_uris": {"android": "https://dc.lft.to/lastmile_qr_scan", "ios": "https://dc.lft.to/lastmile_qr_scan"}, "lat": 38.9014885, "bike_id": "9825bf7ea0a6c92c47f50584c856a504", "is_disabled": 0, "lon": -76.97424133333334, "is_reserved": 0, "fusion_lat": 0.0, "type": "electric_scooter"}, {"fusion_lon": 0.0, "name": "a100cc0a98f8c3c1942b86a89ca97f3a", "rental_uris": {"android": "https://dc.lft.to/lastmile_qr_scan", "ios": "https://dc.lft.to/lastmile_qr_scan"}, "lat": 38.88392966666667, "bike_id": "a100cc0a98f8c3c1942b86a89ca97f3a", "is_disabled": 0, "lon": -76.99619766666666, "is_reserved": 0, "fusion_lat": 0.0, "type": "electric_scooter"}, {"fusion_lon": 0.0, "name": "ad6f7349a1c8bd850ff66aa8577f9072", "rental_uris": {"android": "https://dc.lft.to/lastmile_qr_scan", "ios": "https://dc.lft.to/lastmile_qr_scan"}, "lat": 38.958889666666664, "bike_id": "ad6f7349a1c8bd850ff66aa8577f9072", "is_disabled": 0, "lon": -76.9704765, "is_reserved": 0, "fusion_lat": 0.0, "type": "electric_bike"}, {"fusion_lon": 0.0, "name": "2530dac5b3b4732042cdfcbb792d7003", "rental_uris": {"android": "https://dc.lft.to/lastmile_qr_scan", "ios": "https://dc.lft.to/lastmile_qr_scan"}, "lat": 38.91527983333334, "bike_id": "2530dac5b3b4732042cdfcbb792d7003", "is_disabled": 0, "lon": -77.04467533333333, "is_reserved": 0, "fusion_lat": 0.0, "type": "electric_scooter"}, {"fusion_lon": 0.0, "name": "f337d9fedd9d1d6be9134ed1baf53fd1", "rental_uris": {"android": "https://dc.lft.to/lastmile_qr_scan", "ios": "https://dc.lft.to/lastmile_qr_scan"}, "lat": 38.902312333333334, "bike_id": "f337d9fedd9d1d6be9134ed1baf53fd1", "is_disabled": 0, "lon": -77.0325815, "is_reserved": 0, "fusion_lat": 0.0, "type": "electric_scooter"}, {"fusion_lon": 0.0, "name": "33b3ae4fdd7ecf0b55f7fb1ce06c25da", "rental_uris": {"android": "https://dc.lft.to/lastmile_qr_scan", "ios": "https://dc.lft.to/lastmile_qr_scan"}, "lat": 38.908792, "bike_id": "33b3ae4fdd7ecf0b55f7fb1ce06c25da", "is_disabled": 0, "lon": -77.023143, "is_reserved": 0, "fusion_lat": 0.0, "type": "electric_scooter"}, {"fusion_lon": 0.0, "name": "5bb2237d17f928ac2707f24cae95709a", "rental_uris": {"android": "https://dc.lft.to/lastmile_qr_scan", "ios": "https://dc.lft.to/lastmile_qr_scan"}, "lat": 38.917069, "bike_id": "5bb2237d17f928ac2707f24cae95709a", "is_disabled": 0, "lon": -77.0386575, "is_reserved": 0, "fusion_lat": 0.0, "type": "electric_scooter"}, {"fusion_lon": 0.0, "name": "e14c8b1af4299bf78db4227aee91585b", "rental_uris": {"android": "https://dc.lft.to/lastmile_qr_scan", "ios": "https://dc.lft.to/lastmile_qr_scan"}, "lat": 38.914798833333336, "bike_id": "e14c8b1af4299bf78db4227aee91585b", "is_disabled": 0, "lon": -77.01892033333333, "is_reserved": 0, "fusion_lat": 0.0, "type": "electric_scooter"}, {"fusion_lon": 0.0, "name": "048daf884819bd40fe62a2f0896fc1bd", "rental_uris": {"android": "https://dc.lft.to/lastmile_qr_scan", "ios": "https://dc.lft.to/lastmile_qr_scan"}, "lat": 38.897092666666666, "bike_id": "048daf884819bd40fe62a2f0896fc1bd", "is_disabled": 0, "lon": -77.0214535, "is_reserved": 0, "fusion_lat": 0.0, "type": "electric_scooter"}, {"fusion_lon": 0.0, "name": "2bf732b0eacc30b838f707edbd4c3055", "rental_uris": {"android": "https://dc.lft.to/lastmile_qr_scan", "ios": "https://dc.lft.to/lastmile_qr_scan"}, "lat": 38.9248495, "bike_id": "2bf732b0eacc30b838f707edbd4c3055", "is_disabled": 0, "lon": -77.0214345, "is_reserved": 0, "fusion_lat": 0.0, "type": "electric_scooter"}, {"fusion_lon": 0.0, "name": "f6224cc8228395b4d8d7d8067909fe03", "rental_uris": {"android": "https://dc.lft.to/lastmile_qr_scan", "ios": "https://dc.lft.to/lastmile_qr_scan"}, "lat": 38.933027333333335, "bike_id": "f6224cc8228395b4d8d7d8067909fe03", "is_disabled": 0, "lon": -77.03076683333333, "is_reserved": 0, "fusion_lat": 0.0, "type": "electric_scooter"}, {"fusion_lon": 0.0, "name": "7cf4e3125b8cdea9e3f27373dd19b5b5", "rental_uris": {"android": "https://dc.lft.to/lastmile_qr_scan", "ios": "https://dc.lft.to/lastmile_qr_scan"}, "lat": 38.91704383333333, "bike_id": "7cf4e3125b8cdea9e3f27373dd19b5b5", "is_disabled": 0, "lon": -77.0346945, "is_reserved": 0, "fusion_lat": 0.0, "type": "electric_scooter"}, {"fusion_lon": 0.0, "name": "e4a958131a90af147ffe3ba06a8dc3b5", "rental_uris": {"android": "https://dc.lft.to/lastmile_qr_scan", "ios": "https://dc.lft.to/lastmile_qr_scan"}, "lat": 38.898869, "bike_id": "e4a958131a90af147ffe3ba06a8dc3b5", "is_disabled": 0, "lon": -76.93174316666666, "is_reserved": 0, "fusion_lat": 0.0, "type": "electric_scooter"}, {"fusion_lon": 0.0, "name": "60432db3762616e5c04d0ae96f59f77a", "rental_uris": {"android": "https://dc.lft.to/lastmile_qr_scan", "ios": "https://dc.lft.to/lastmile_qr_scan"}, "lat": 38.935265333333334, "bike_id": "60432db3762616e5c04d0ae96f59f77a", "is_disabled": 0, "lon": -77.03260916666666, "is_reserved": 0, "fusion_lat": 0.0, "type": "electric_scooter"}, {"fusion_lon": 0.0, "name": "4b895ed7976fad69a033f92a1819ab23", "rental_uris": {"android": "https://dc.lft.to/lastmile_qr_scan", "ios": "https://dc.lft.to/lastmile_qr_scan"}, "lat": 38.93111366666667, "bike_id": "4b895ed7976fad69a033f92a1819ab23", "is_disabled": 0, "lon": -77.04122916666667, "is_reserved": 0, "fusion_lat": 0.0, "type": "electric_scooter"}, {"fusion_lon": 0.0, "name": "29b6e7563029e3367bd77f27e2000d5b", "rental_uris": {"android": "https://dc.lft.to/lastmile_qr_scan", "ios": "https://dc.lft.to/lastmile_qr_scan"}, "lat": 38.909569166666664, "bike_id": "29b6e7563029e3367bd77f27e2000d5b", "is_disabled": 0, "lon": -77.022758, "is_reserved": 0, "fusion_lat": 0.0, "type": "electric_scooter"}, {"fusion_lon": 0.0, "name": "fa475f75f60d4130f78fdca8261c9e24", "rental_uris": {"android": "https://dc.lft.to/lastmile_qr_scan", "ios": "https://dc.lft.to/lastmile_qr_scan"}, "lat": 38.91903083333333, "bike_id": "fa475f75f60d4130f78fdca8261c9e24", "is_disabled": 0, "lon": -77.01779283333333, "is_reserved": 0, "fusion_lat": 0.0, "type": "electric_scooter"}, {"fusion_lon": 0.0, "name": "0d0c7ac678abd37eb7cd627dfba46cd7", "rental_uris": {"android": "https://dc.lft.to/lastmile_qr_scan", "ios": "https://dc.lft.to/lastmile_qr_scan"}, "lat": 38.8996175, "bike_id": "0d0c7ac678abd37eb7cd627dfba46cd7", "is_disabled": 0, "lon": -77.01608283333333, "is_reserved": 0, "fusion_lat": 0.0, "type": "electric_scooter"}, {"fusion_lon": 0.0, "name": "bd359372b914da3787111c7f7eed042b", "rental_uris": {"android": "https://dc.lft.to/lastmile_qr_scan", "ios": "https://dc.lft.to/lastmile_qr_scan"}, "lat": 38.90043883333333, "bike_id": "bd359372b914da3787111c7f7eed042b", "is_disabled": 0, "lon": -77.0483005, "is_reserved": 0, "fusion_lat": 0.0, "type": "electric_scooter"}, {"fusion_lon": 0.0, "name": "6040610798650b1ede2f46a1dcd970b9", "rental_uris": {"android": "https://dc.lft.to/lastmile_qr_scan", "ios": "https://dc.lft.to/lastmile_qr_scan"}, "lat": 38.8995345, "bike_id": "6040610798650b1ede2f46a1dcd970b9", "is_disabled": 0, "lon": -77.0486115, "is_reserved": 0, "fusion_lat": 0.0, "type": "electric_scooter"}, {"fusion_lon": 0.0, "name": "453124bb09298a9497f44c0062e6ed3a", "rental_uris": {"android": "https://dc.lft.to/lastmile_qr_scan", "ios": "https://dc.lft.to/lastmile_qr_scan"}, "lat": 38.898572, "bike_id": "453124bb09298a9497f44c0062e6ed3a", "is_disabled": 0, "lon": -77.02971233333334, "is_reserved": 0, "fusion_lat": 0.0, "type": "electric_scooter"}, {"fusion_lon": 0.0, "name": "c5554fd7bf223916c64f6666e125e310", "rental_uris": {"android": "https://dc.lft.to/lastmile_qr_scan", "ios": "https://dc.lft.to/lastmile_qr_scan"}, "lat": 38.9080345, "bike_id": "c5554fd7bf223916c64f6666e125e310", "is_disabled": 0, "lon": -77.08388066666667, "is_reserved": 0, "fusion_lat": 0.0, "type": "electric_scooter"}, {"fusion_lon": 0.0, "name": "96fcc0c9b4e84371a66e51e15cf2a66c", "rental_uris": {"android": "https://dc.lft.to/lastmile_qr_scan", "ios": "https://dc.lft.to/lastmile_qr_scan"}, "lat": 38.8719515, "bike_id": "96fcc0c9b4e84371a66e51e15cf2a66c", "is_disabled": 0, "lon": -77.009335, "is_reserved": 0, "fusion_lat": 0.0, "type": "electric_scooter"}, {"fusion_lon": 0.0, "name": "24eae45c521361a76f2d519c54603af0", "rental_uris": {"android": "https://dc.lft.to/lastmile_qr_scan", "ios": "https://dc.lft.to/lastmile_qr_scan"}, "lat": 38.871701333333334, "bike_id": "24eae45c521361a76f2d519c54603af0", "is_disabled": 0, "lon": -77.23384583333333, "is_reserved": 0, "fusion_lat": 0.0, "type": "electric_bike"}, {"fusion_lon": 0.0, "name": "fdab4f75e6521501cd12fb1c6b0853dd", "rental_uris": {"android": "https://dc.lft.to/lastmile_qr_scan", "ios": "https://dc.lft.to/lastmile_qr_scan"}, "lat": 38.87574716666666, "bike_id": "fdab4f75e6521501cd12fb1c6b0853dd", "is_disabled": 0, "lon": -77.00579933333333, "is_reserved": 0, "fusion_lat": 0.0, "type": "electric_scooter"}, {"fusion_lon": 0.0, "name": "9d42a8c601987ecdba4707b3d646456f", "rental_uris": {"android": "https://dc.lft.to/lastmile_qr_scan", "ios": "https://dc.lft.to/lastmile_qr_scan"}, "lat": 38.909706666666665, "bike_id": "9d42a8c601987ecdba4707b3d646456f", "is_disabled": 0, "lon": -77.0244015, "is_reserved": 0, "fusion_lat": 0.0, "type": "electric_scooter"}, {"fusion_lon": 0.0, "name": "de36c0a012ecf10003859ad4622bb5d5", "rental_uris": {"android": "https://dc.lft.to/lastmile_qr_scan", "ios": "https://dc.lft.to/lastmile_qr_scan"}, "lat": 38.915986333333336, "bike_id": "de36c0a012ecf10003859ad4622bb5d5", "is_disabled": 0, "lon": -77.02295816666667, "is_reserved": 0, "fusion_lat": 0.0, "type": "electric_scooter"}, {"fusion_lon": 0.0, "name": "5bb4ee8160d6f205b505381126ac0e85", "rental_uris": {"android": "https://dc.lft.to/lastmile_qr_scan", "ios": "https://dc.lft.to/lastmile_qr_scan"}, "lat": 38.97367933333334, "bike_id": "5bb4ee8160d6f205b505381126ac0e85", "is_disabled": 0, "lon": -77.01866416666667, "is_reserved": 0, "fusion_lat": 0.0, "type": "electric_scooter"}, {"fusion_lon": 0.0, "name": "25fe84e46eb44d3b61af91f326a9e0e6", "rental_uris": {"android": "https://dc.lft.to/lastmile_qr_scan", "ios": "https://dc.lft.to/lastmile_qr_scan"}, "lat": 38.90780866666667, "bike_id": "25fe84e46eb44d3b61af91f326a9e0e6", "is_disabled": 0, "lon": -76.99855233333334, "is_reserved": 0, "fusion_lat": 0.0, "type": "electric_scooter"}, {"fusion_lon": 0.0, "name": "33bd0ee4c3eba98252e6b486cb1fea40", "rental_uris": {"android": "https://dc.lft.to/lastmile_qr_scan", "ios": "https://dc.lft.to/lastmile_qr_scan"}, "lat": 38.905911, "bike_id": "33bd0ee4c3eba98252e6b486cb1fea40", "is_disabled": 0, "lon": -77.04689516666667, "is_reserved": 0, "fusion_lat": 0.0, "type": "electric_scooter"}, {"fusion_lon": 0.0, "name": "0e688fc9f1d8750d388df0c3fd7581a2", "rental_uris": {"android": "https://dc.lft.to/lastmile_qr_scan", "ios": "https://dc.lft.to/lastmile_qr_scan"}, "lat": 38.94165783333333, "bike_id": "0e688fc9f1d8750d388df0c3fd7581a2", "is_disabled": 0, "lon": -77.025587, "is_reserved": 0, "fusion_lat": 0.0, "type": "electric_scooter"}, {"fusion_lon": 0.0, "name": "3c75992ed9563f006c6921cb40ced6cd", "rental_uris": {"android": "https://dc.lft.to/lastmile_qr_scan", "ios": "https://dc.lft.to/lastmile_qr_scan"}, "lat": 38.909349, "bike_id": "3c75992ed9563f006c6921cb40ced6cd", "is_disabled": 0, "lon": -77.0450705, "is_reserved": 0, "fusion_lat": 0.0, "type": "electric_scooter"}, {"fusion_lon": 0.0, "name": "3face9073d2b3289310f6e608f8bb6f0", "rental_uris": {"android": "https://dc.lft.to/lastmile_qr_scan", "ios": "https://dc.lft.to/lastmile_qr_scan"}, "lat": 38.917577666666666, "bike_id": "3face9073d2b3289310f6e608f8bb6f0", "is_disabled": 0, "lon": -77.009178, "is_reserved": 0, "fusion_lat": 0.0, "type": "electric_scooter"}, {"fusion_lon": 0.0, "name": "2113dbfd6f5e0cd8d061ebceaa7fc1b7", "rental_uris": {"android": "https://dc.lft.to/lastmile_qr_scan", "ios": "https://dc.lft.to/lastmile_qr_scan"}, "lat": 38.903692166666666, "bike_id": "2113dbfd6f5e0cd8d061ebceaa7fc1b7", "is_disabled": 0, "lon": -76.998362, "is_reserved": 0, "fusion_lat": 0.0, "type": "electric_scooter"}, {"fusion_lon": 0.0, "name": "e9d86adab4b55ce54671d22ee53c6326", "rental_uris": {"android": "https://dc.lft.to/lastmile_qr_scan", "ios": "https://dc.lft.to/lastmile_qr_scan"}, "lat": 38.914761, "bike_id": "e9d86adab4b55ce54671d22ee53c6326", "is_disabled": 0, "lon": -77.040159, "is_reserved": 0, "fusion_lat": 0.0, "type": "electric_scooter"}, {"fusion_lon": 0.0, "name": "1cba9d12141afae6f401544600e14ee2", "rental_uris": {"android": "https://dc.lft.to/lastmile_qr_scan", "ios": "https://dc.lft.to/lastmile_qr_scan"}, "lat": 38.90530966666667, "bike_id": "1cba9d12141afae6f401544600e14ee2", "is_disabled": 0, "lon": -77.0623975, "is_reserved": 0, "fusion_lat": 0.0, "type": "electric_scooter"}, {"fusion_lon": 0.0, "name": "5aba20170e679e21a26b261ab4b21588", "rental_uris": {"android": "https://dc.lft.to/lastmile_qr_scan", "ios": "https://dc.lft.to/lastmile_qr_scan"}, "lat": 38.91651816666667, "bike_id": "5aba20170e679e21a26b261ab4b21588", "is_disabled": 0, "lon": -77.0094805, "is_reserved": 0, "fusion_lat": 0.0, "type": "electric_scooter"}, {"fusion_lon": 0.0, "name": "baa1aa70caa289873a68676bb54a43bb", "rental_uris": {"android": "https://dc.lft.to/lastmile_qr_scan", "ios": "https://dc.lft.to/lastmile_qr_scan"}, "lat": 38.808653, "bike_id": "baa1aa70caa289873a68676bb54a43bb", "is_disabled": 0, "lon": -77.1125475, "is_reserved": 0, "fusion_lat": 0.0, "type": "electric_bike"}, {"fusion_lon": 0.0, "name": "7eb7bc53e501e12ec3674fb7e4593f29", "rental_uris": {"android": "https://dc.lft.to/lastmile_qr_scan", "ios": "https://dc.lft.to/lastmile_qr_scan"}, "lat": 38.90081883333333, "bike_id": "7eb7bc53e501e12ec3674fb7e4593f29", "is_disabled": 0, "lon": -77.0363645, "is_reserved": 0, "fusion_lat": 0.0, "type": "electric_scooter"}, {"fusion_lon": 0.0, "name": "3ca6f8ee22daecdb8f98361bc76b11fc", "rental_uris": {"android": "https://dc.lft.to/lastmile_qr_scan", "ios": "https://dc.lft.to/lastmile_qr_scan"}, "lat": 38.93552616666667, "bike_id": "3ca6f8ee22daecdb8f98361bc76b11fc", "is_disabled": 0, "lon": -76.99796733333334, "is_reserved": 0, "fusion_lat": 0.0, "type": "electric_scooter"}, {"fusion_lon": 0.0, "name": "c20e9b0fe55f7cecfc5a666052274874", "rental_uris": {"android": "https://dc.lft.to/lastmile_qr_scan", "ios": "https://dc.lft.to/lastmile_qr_scan"}, "lat": 38.897951, "bike_id": "c20e9b0fe55f7cecfc5a666052274874", "is_disabled": 0, "lon": -77.01893716666666, "is_reserved": 0, "fusion_lat": 0.0, "type": "electric_scooter"}, {"fusion_lon": 0.0, "name": "af518072bb341e5245de9c7433d25e11", "rental_uris": {"android": "https://dc.lft.to/lastmile_qr_scan", "ios": "https://dc.lft.to/lastmile_qr_scan"}, "lat": 38.928076833333336, "bike_id": "af518072bb341e5245de9c7433d25e11", "is_disabled": 0, "lon": -77.03259116666666, "is_reserved": 0, "fusion_lat": 0.0, "type": "electric_scooter"}, {"fusion_lon": 0.0, "name": "499a5e7f75de19a46a733a6b8a94b93b", "rental_uris": {"android": "https://dc.lft.to/lastmile_qr_scan", "ios": "https://dc.lft.to/lastmile_qr_scan"}, "lat": 38.92145, "bike_id": "499a5e7f75de19a46a733a6b8a94b93b", "is_disabled": 0, "lon": -77.03518216666667, "is_reserved": 0, "fusion_lat": 0.0, "type": "electric_scooter"}, {"fusion_lon": 0.0, "name": "f0f65ac72d5f9e9add26b8908dcf050b", "rental_uris": {"android": "https://dc.lft.to/lastmile_qr_scan", "ios": "https://dc.lft.to/lastmile_qr_scan"}, "lat": 38.875710166666664, "bike_id": "f0f65ac72d5f9e9add26b8908dcf050b", "is_disabled": 0, "lon": -77.00578333333333, "is_reserved": 0, "fusion_lat": 0.0, "type": "electric_scooter"}, {"fusion_lon": 0.0, "name": "58c39406e4cb58988c582515170c639a", "rental_uris": {"android": "https://dc.lft.to/lastmile_qr_scan", "ios": "https://dc.lft.to/lastmile_qr_scan"}, "lat": 38.92890366666666, "bike_id": "58c39406e4cb58988c582515170c639a", "is_disabled": 0, "lon": -77.03485466666666, "is_reserved": 0, "fusion_lat": 0.0, "type": "electric_scooter"}, {"fusion_lon": 0.0, "name": "f8f5ffd9b0427a43f532788aba8e83a3", "rental_uris": {"android": "https://dc.lft.to/lastmile_qr_scan", "ios": "https://dc.lft.to/lastmile_qr_scan"}, "lat": 38.89342583333333, "bike_id": "f8f5ffd9b0427a43f532788aba8e83a3", "is_disabled": 0, "lon": -76.9938245, "is_reserved": 0, "fusion_lat": 0.0, "type": "electric_scooter"}, {"fusion_lon": 0.0, "name": "e0727def40ecce1dac807b22e3ecc83b", "rental_uris": {"android": "https://dc.lft.to/lastmile_qr_scan", "ios": "https://dc.lft.to/lastmile_qr_scan"}, "lat": 38.89904166666667, "bike_id": "e0727def40ecce1dac807b22e3ecc83b", "is_disabled": 0, "lon": -77.02016116666667, "is_reserved": 0, "fusion_lat": 0.0, "type": "electric_scooter"}, {"fusion_lon": 0.0, "name": "02716e7b223123b646274b208a1ba2a9", "rental_uris": {"android": "https://dc.lft.to/lastmile_qr_scan", "ios": "https://dc.lft.to/lastmile_qr_scan"}, "lat": 38.93039366666667, "bike_id": "02716e7b223123b646274b208a1ba2a9", "is_disabled": 0, "lon": -77.03672366666666, "is_reserved": 0, "fusion_lat": 0.0, "type": "electric_bike"}, {"fusion_lon": 0.0, "name": "b852fa07565b52ceb84d4e791f16c6ef", "rental_uris": {"android": "https://dc.lft.to/lastmile_qr_scan", "ios": "https://dc.lft.to/lastmile_qr_scan"}, "lat": 38.935519666666664, "bike_id": "b852fa07565b52ceb84d4e791f16c6ef", "is_disabled": 0, "lon": -77.0325595, "is_reserved": 0, "fusion_lat": 0.0, "type": "electric_scooter"}, {"fusion_lon": 0.0, "name": "d0d37a0a322e0cc5aa1d9f1d6032cc79", "rental_uris": {"android": "https://dc.lft.to/lastmile_qr_scan", "ios": "https://dc.lft.to/lastmile_qr_scan"}, "lat": 38.89329133333333, "bike_id": "d0d37a0a322e0cc5aa1d9f1d6032cc79", "is_disabled": 0, "lon": -77.032006, "is_reserved": 0, "fusion_lat": 0.0, "type": "electric_scooter"}, {"fusion_lon": 0.0, "name": "738f0c4b53f7f84606ded4f1216661fa", "rental_uris": {"android": "https://dc.lft.to/lastmile_qr_scan", "ios": "https://dc.lft.to/lastmile_qr_scan"}, "lat": 38.935262333333334, "bike_id": "738f0c4b53f7f84606ded4f1216661fa", "is_disabled": 0, "lon": -77.02847583333333, "is_reserved": 0, "fusion_lat": 0.0, "type": "electric_scooter"}, {"fusion_lon": 0.0, "name": "7e2818f7346d3e4473ae08cbdf94b093", "rental_uris": {"android": "https://dc.lft.to/lastmile_qr_scan", "ios": "https://dc.lft.to/lastmile_qr_scan"}, "lat": 38.926889, "bike_id": "7e2818f7346d3e4473ae08cbdf94b093", "is_disabled": 0, "lon": -77.0149405, "is_reserved": 0, "fusion_lat": 0.0, "type": "electric_scooter"}, {"fusion_lon": 0.0, "name": "30b2ffc750d4e8067dce99b37ca74976", "rental_uris": {"android": "https://dc.lft.to/lastmile_qr_scan", "ios": "https://dc.lft.to/lastmile_qr_scan"}, "lat": 38.8852775, "bike_id": "30b2ffc750d4e8067dce99b37ca74976", "is_disabled": 0, "lon": -76.97956166666667, "is_reserved": 0, "fusion_lat": 0.0, "type": "electric_scooter"}, {"fusion_lon": 0.0, "name": "0e5f71a208e805a2da443a8ca9bef86a", "rental_uris": {"android": "https://dc.lft.to/lastmile_qr_scan", "ios": "https://dc.lft.to/lastmile_qr_scan"}, "lat": 38.9350985, "bike_id": "0e5f71a208e805a2da443a8ca9bef86a", "is_disabled": 0, "lon": -77.033841, "is_reserved": 0, "fusion_lat": 0.0, "type": "electric_scooter"}, {"fusion_lon": 0.0, "name": "f3ceba1dcd0f7d654980dbb6bc8aca0c", "rental_uris": {"android": "https://dc.lft.to/lastmile_qr_scan", "ios": "https://dc.lft.to/lastmile_qr_scan"}, "lat": 38.918132166666666, "bike_id": "f3ceba1dcd0f7d654980dbb6bc8aca0c", "is_disabled": 0, "lon": -77.04178733333333, "is_reserved": 0, "fusion_lat": 0.0, "type": "electric_scooter"}, {"fusion_lon": 0.0, "name": "d480e59320e260ebc363ff23bd29fcc5", "rental_uris": {"android": "https://dc.lft.to/lastmile_qr_scan", "ios": "https://dc.lft.to/lastmile_qr_scan"}, "lat": 38.91424266666667, "bike_id": "d480e59320e260ebc363ff23bd29fcc5", "is_disabled": 0, "lon": -77.03182283333334, "is_reserved": 0, "fusion_lat": 0.0, "type": "electric_scooter"}, {"fusion_lon": 0.0, "name": "912fcc336e286e8303411e792e16a171", "rental_uris": {"android": "https://dc.lft.to/lastmile_qr_scan", "ios": "https://dc.lft.to/lastmile_qr_scan"}, "lat": 38.9247845, "bike_id": "912fcc336e286e8303411e792e16a171", "is_disabled": 0, "lon": -77.02903583333334, "is_reserved": 0, "fusion_lat": 0.0, "type": "electric_scooter"}, {"fusion_lon": 0.0, "name": "c57e75632906ff7f57f40045aa0d136e", "rental_uris": {"android": "https://dc.lft.to/lastmile_qr_scan", "ios": "https://dc.lft.to/lastmile_qr_scan"}, "lat": 38.87892883333333, "bike_id": "c57e75632906ff7f57f40045aa0d136e", "is_disabled": 0, "lon": -77.00709916666666, "is_reserved": 0, "fusion_lat": 0.0, "type": "electric_scooter"}, {"fusion_lon": 0.0, "name": "433efcb9e174857f69431eb8bce77a25", "rental_uris": {"android": "https://dc.lft.to/lastmile_qr_scan", "ios": "https://dc.lft.to/lastmile_qr_scan"}, "lat": 38.89537833333333, "bike_id": "433efcb9e174857f69431eb8bce77a25", "is_disabled": 0, "lon": -76.988958, "is_reserved": 0, "fusion_lat": 0.0, "type": "electric_scooter"}, {"fusion_lon": 0.0, "name": "6f19f19441fc252bbfb3541409ace4a7", "rental_uris": {"android": "https://dc.lft.to/lastmile_qr_scan", "ios": "https://dc.lft.to/lastmile_qr_scan"}, "lat": 38.881998333333335, "bike_id": "6f19f19441fc252bbfb3541409ace4a7", "is_disabled": 0, "lon": -77.02857716666666, "is_reserved": 0, "fusion_lat": 0.0, "type": "electric_scooter"}, {"fusion_lon": 0.0, "name": "ecf751b6a9525aefbc73f694b4258b1a", "rental_uris": {"android": "https://dc.lft.to/lastmile_qr_scan", "ios": "https://dc.lft.to/lastmile_qr_scan"}, "lat": 38.87728333333333, "bike_id": "ecf751b6a9525aefbc73f694b4258b1a", "is_disabled": 0, "lon": -77.00603083333333, "is_reserved": 0, "fusion_lat": 0.0, "type": "electric_scooter"}, {"fusion_lon": 0.0, "name": "27ad2c337979040e3d9a2d153a6907e4", "rental_uris": {"android": "https://dc.lft.to/lastmile_qr_scan", "ios": "https://dc.lft.to/lastmile_qr_scan"}, "lat": 38.93326666666667, "bike_id": "27ad2c337979040e3d9a2d153a6907e4", "is_disabled": 0, "lon": -77.02917866666667, "is_reserved": 0, "fusion_lat": 0.0, "type": "electric_scooter"}, {"fusion_lon": 0.0, "name": "9313f6e9b9f49636b13321f11031a430", "rental_uris": {"android": "https://dc.lft.to/lastmile_qr_scan", "ios": "https://dc.lft.to/lastmile_qr_scan"}, "lat": 38.93893966666667, "bike_id": "9313f6e9b9f49636b13321f11031a430", "is_disabled": 0, "lon": -77.01764866666667, "is_reserved": 0, "fusion_lat": 0.0, "type": "electric_scooter"}, {"fusion_lon": 0.0, "name": "eaafa09142a067a9b7fa5a8dac4b11e9", "rental_uris": {"android": "https://dc.lft.to/lastmile_qr_scan", "ios": "https://dc.lft.to/lastmile_qr_scan"}, "lat": 38.9067615, "bike_id": "eaafa09142a067a9b7fa5a8dac4b11e9", "is_disabled": 0, "lon": -77.02693966666666, "is_reserved": 0, "fusion_lat": 0.0, "type": "electric_scooter"}, {"fusion_lon": 0.0, "name": "db56eabaec732021ec9b8c4f0d22aa15", "rental_uris": {"android": "https://dc.lft.to/lastmile_qr_scan", "ios": "https://dc.lft.to/lastmile_qr_scan"}, "lat": 38.90484083333333, "bike_id": "db56eabaec732021ec9b8c4f0d22aa15", "is_disabled": 0, "lon": -77.04866283333334, "is_reserved": 0, "fusion_lat": 0.0, "type": "electric_scooter"}, {"fusion_lon": 0.0, "name": "21a424368f0b61fcf7a836b49c74e713", "rental_uris": {"android": "https://dc.lft.to/lastmile_qr_scan", "ios": "https://dc.lft.to/lastmile_qr_scan"}, "lat": 38.92703683333333, "bike_id": "21a424368f0b61fcf7a836b49c74e713", "is_disabled": 0, "lon": -77.020926, "is_reserved": 0, "fusion_lat": 0.0, "type": "electric_scooter"}, {"fusion_lon": 0.0, "name": "0a76639a5b797303e1a48d32fffc1545", "rental_uris": {"android": "https://dc.lft.to/lastmile_qr_scan", "ios": "https://dc.lft.to/lastmile_qr_scan"}, "lat": 38.916760833333335, "bike_id": "0a76639a5b797303e1a48d32fffc1545", "is_disabled": 0, "lon": -77.0228495, "is_reserved": 0, "fusion_lat": 0.0, "type": "electric_scooter"}, {"fusion_lon": 0.0, "name": "6bd9aa1632dd872c2b8c746f8e672576", "rental_uris": {"android": "https://dc.lft.to/lastmile_qr_scan", "ios": "https://dc.lft.to/lastmile_qr_scan"}, "lat": 38.960269333333336, "bike_id": "6bd9aa1632dd872c2b8c746f8e672576", "is_disabled": 0, "lon": -77.02426533333333, "is_reserved": 0, "fusion_lat": 0.0, "type": "electric_scooter"}, {"fusion_lon": 0.0, "name": "77ee925417b8b2dc6fe0d6595a3f965a", "rental_uris": {"android": "https://dc.lft.to/lastmile_qr_scan", "ios": "https://dc.lft.to/lastmile_qr_scan"}, "lat": 38.943176666666666, "bike_id": "77ee925417b8b2dc6fe0d6595a3f965a", "is_disabled": 0, "lon": -76.990192, "is_reserved": 0, "fusion_lat": 0.0, "type": "electric_bike"}, {"fusion_lon": 0.0, "name": "0aba89197840c1a7efd52d431ec32221", "rental_uris": {"android": "https://dc.lft.to/lastmile_qr_scan", "ios": "https://dc.lft.to/lastmile_qr_scan"}, "lat": 38.8881955, "bike_id": "0aba89197840c1a7efd52d431ec32221", "is_disabled": 0, "lon": -76.97710316666667, "is_reserved": 0, "fusion_lat": 0.0, "type": "electric_scooter"}, {"fusion_lon": 0.0, "name": "cae7b05d13175da6f5055e6352444832", "rental_uris": {"android": "https://dc.lft.to/lastmile_qr_scan", "ios": "https://dc.lft.to/lastmile_qr_scan"}, "lat": 38.85572716666667, "bike_id": "cae7b05d13175da6f5055e6352444832", "is_disabled": 0, "lon": -76.97413533333334, "is_reserved": 0, "fusion_lat": 0.0, "type": "electric_bike"}, {"fusion_lon": 0.0, "name": "7a3fb98e432f10653f1dc684260e9e23", "rental_uris": {"android": "https://dc.lft.to/lastmile_qr_scan", "ios": "https://dc.lft.to/lastmile_qr_scan"}, "lat": 38.93020716666667, "bike_id": "7a3fb98e432f10653f1dc684260e9e23", "is_disabled": 0, "lon": -77.05561966666667, "is_reserved": 0, "fusion_lat": 0.0, "type": "electric_scooter"}, {"fusion_lon": 0.0, "name": "99e98b1e5972a066b942e95d3ff3c6e2", "rental_uris": {"android": "https://dc.lft.to/lastmile_qr_scan", "ios": "https://dc.lft.to/lastmile_qr_scan"}, "lat": 38.905041, "bike_id": "99e98b1e5972a066b942e95d3ff3c6e2", "is_disabled": 0, "lon": -77.02957966666666, "is_reserved": 0, "fusion_lat": 0.0, "type": "electric_scooter"}, {"fusion_lon": 0.0, "name": "7bf96d34ccecc32efa68b594ac605b77", "rental_uris": {"android": "https://dc.lft.to/lastmile_qr_scan", "ios": "https://dc.lft.to/lastmile_qr_scan"}, "lat": 38.92339233333333, "bike_id": "7bf96d34ccecc32efa68b594ac605b77", "is_disabled": 0, "lon": -77.03420883333334, "is_reserved": 0, "fusion_lat": 0.0, "type": "electric_scooter"}, {"fusion_lon": 0.0, "name": "b368200457bd03e12d7466f53de0ce10", "rental_uris": {"android": "https://dc.lft.to/lastmile_qr_scan", "ios": "https://dc.lft.to/lastmile_qr_scan"}, "lat": 38.92002633333333, "bike_id": "b368200457bd03e12d7466f53de0ce10", "is_disabled": 0, "lon": -76.98505516666667, "is_reserved": 0, "fusion_lat": 0.0, "type": "electric_scooter"}, {"fusion_lon": 0.0, "name": "7a7810a5444eeb5b2eeffe9835c9aeea", "rental_uris": {"android": "https://dc.lft.to/lastmile_qr_scan", "ios": "https://dc.lft.to/lastmile_qr_scan"}, "lat": 38.90758833333334, "bike_id": "7a7810a5444eeb5b2eeffe9835c9aeea", "is_disabled": 0, "lon": -77.04535766666666, "is_reserved": 0, "fusion_lat": 0.0, "type": "electric_scooter"}, {"fusion_lon": 0.0, "name": "6bcd0130d804da990d1ff93d19e96366", "rental_uris": {"android": "https://dc.lft.to/lastmile_qr_scan", "ios": "https://dc.lft.to/lastmile_qr_scan"}, "lat": 38.80652583333333, "bike_id": "6bcd0130d804da990d1ff93d19e96366", "is_disabled": 0, "lon": -77.08758766666666, "is_reserved": 0, "fusion_lat": 0.0, "type": "electric_bike"}, {"fusion_lon": 0.0, "name": "ce1519f48c9bf8097a45210b22db0156", "rental_uris": {"android": "https://dc.lft.to/lastmile_qr_scan", "ios": "https://dc.lft.to/lastmile_qr_scan"}, "lat": 38.91325766666667, "bike_id": "ce1519f48c9bf8097a45210b22db0156", "is_disabled": 0, "lon": -77.03192683333333, "is_reserved": 0, "fusion_lat": 0.0, "type": "electric_scooter"}, {"fusion_lon": 0.0, "name": "2f7a740f104673415e8cdb94b89f4326", "rental_uris": {"android": "https://dc.lft.to/lastmile_qr_scan", "ios": "https://dc.lft.to/lastmile_qr_scan"}, "lat": 38.93502133333333, "bike_id": "2f7a740f104673415e8cdb94b89f4326", "is_disabled": 0, "lon": -77.020113, "is_reserved": 0, "fusion_lat": 0.0, "type": "electric_scooter"}, {"fusion_lon": 0.0, "name": "744888fcb2e03d80213326bda756ba72", "rental_uris": {"android": "https://dc.lft.to/lastmile_qr_scan", "ios": "https://dc.lft.to/lastmile_qr_scan"}, "lat": 38.9224005, "bike_id": "744888fcb2e03d80213326bda756ba72", "is_disabled": 0, "lon": -77.043643, "is_reserved": 0, "fusion_lat": 0.0, "type": "electric_scooter"}, {"fusion_lon": 0.0, "name": "4a2b085524f3dfad5f17ab197c41059f", "rental_uris": {"android": "https://dc.lft.to/lastmile_qr_scan", "ios": "https://dc.lft.to/lastmile_qr_scan"}, "lat": 38.90058616666666, "bike_id": "4a2b085524f3dfad5f17ab197c41059f", "is_disabled": 0, "lon": -77.04895566666667, "is_reserved": 0, "fusion_lat": 0.0, "type": "electric_scooter"}, {"fusion_lon": 0.0, "name": "7815ad69c059973fbecd2937d045350f", "rental_uris": {"android": "https://dc.lft.to/lastmile_qr_scan", "ios": "https://dc.lft.to/lastmile_qr_scan"}, "lat": 38.914185333333336, "bike_id": "7815ad69c059973fbecd2937d045350f", "is_disabled": 0, "lon": -77.01803933333333, "is_reserved": 0, "fusion_lat": 0.0, "type": "electric_scooter"}, {"fusion_lon": 0.0, "name": "0522abb79686b2eeabb5662401416616", "rental_uris": {"android": "https://dc.lft.to/lastmile_qr_scan", "ios": "https://dc.lft.to/lastmile_qr_scan"}, "lat": 38.8967485, "bike_id": "0522abb79686b2eeabb5662401416616", "is_disabled": 0, "lon": -77.04345066666667, "is_reserved": 0, "fusion_lat": 0.0, "type": "electric_scooter"}, {"fusion_lon": 0.0, "name": "1b9e0ff4f7e1dfd578f3707745e3cfa2", "rental_uris": {"android": "https://dc.lft.to/lastmile_qr_scan", "ios": "https://dc.lft.to/lastmile_qr_scan"}, "lat": 38.92603066666667, "bike_id": "1b9e0ff4f7e1dfd578f3707745e3cfa2", "is_disabled": 0, "lon": -77.021542, "is_reserved": 0, "fusion_lat": 0.0, "type": "electric_scooter"}, {"fusion_lon": 0.0, "name": "214b915a1ff166b7689a6eefc2949a32", "rental_uris": {"android": "https://dc.lft.to/lastmile_qr_scan", "ios": "https://dc.lft.to/lastmile_qr_scan"}, "lat": 38.9355925, "bike_id": "214b915a1ff166b7689a6eefc2949a32", "is_disabled": 0, "lon": -77.034835, "is_reserved": 0, "fusion_lat": 0.0, "type": "electric_scooter"}, {"fusion_lon": 0.0, "name": "2582e7ee9b2c03d7858d656ccce4e17c", "rental_uris": {"android": "https://dc.lft.to/lastmile_qr_scan", "ios": "https://dc.lft.to/lastmile_qr_scan"}, "lat": 38.929225333333335, "bike_id": "2582e7ee9b2c03d7858d656ccce4e17c", "is_disabled": 0, "lon": -76.99818033333334, "is_reserved": 0, "fusion_lat": 0.0, "type": "electric_scooter"}, {"fusion_lon": 0.0, "name": "c8c70af63e1d06ca32760d08d2941465", "rental_uris": {"android": "https://dc.lft.to/lastmile_qr_scan", "ios": "https://dc.lft.to/lastmile_qr_scan"}, "lat": 38.938779, "bike_id": "c8c70af63e1d06ca32760d08d2941465", "is_disabled": 0, "lon": -77.02489716666666, "is_reserved": 0, "fusion_lat": 0.0, "type": "electric_scooter"}, {"fusion_lon": 0.0, "name": "2e4f8bf3cd98dbf0f437c3b7b38f0dcd", "rental_uris": {"android": "https://dc.lft.to/lastmile_qr_scan", "ios": "https://dc.lft.to/lastmile_qr_scan"}, "lat": 38.89764316666667, "bike_id": "2e4f8bf3cd98dbf0f437c3b7b38f0dcd", "is_disabled": 0, "lon": -77.02702766666667, "is_reserved": 0, "fusion_lat": 0.0, "type": "electric_scooter"},