{"data": {"bikes": [{"rental_uris": {"ios": "https://dc.lft.to/lastmile_qr_scan", "android": "https://dc.lft.to/lastmile_qr_scan"}, "type": "electric_bike", "name": "4d029e26e9c3f98df9e346736157fd49", "is_reserved": 0, "lon": -77.06528033333333, "is_disabled": 0, "fusion_lat": 0.0, "lat": 38.992282833333334, "bike_id": "4d029e26e9c3f98df9e346736157fd49", "fusion_lon": 0.0}, {"rental_uris": {"ios": "https://dc.lft.to/lastmile_qr_scan", "android": "https://dc.lft.to/lastmile_qr_scan"}, "type": "electric_scooter", "name": "d2248aff184d74f7d1fa390d77bb3a82", "is_reserved": 0, "lon": -77.02598116666667, "is_disabled": 0, "fusion_lat": 0.0, "lat": 38.9460755, "bike_id": "d2248aff184d74f7d1fa390d77bb3a82", "fusion_lon": 0.0}, {"rental_uris": {"ios": "https://dc.lft.to/lastmile_qr_scan", "android": "https://dc.lft.to/lastmile_qr_scan"}, "type": "electric_scooter", "name": "76cd4dd3cdd827caa90b82ffe976c530", "is_reserved": 0, "lon": -77.01512833333334, "is_disabled": 0, "fusion_lat": 0.0, "lat": 38.90972766666667, "bike_id": "76cd4dd3cdd827caa90b82ffe976c530", "fusion_lon": 0.0}, {"rental_uris": {"ios": "https://dc.lft.to/lastmile_qr_scan", "android": "https://dc.lft.to/lastmile_qr_scan"}, "type": "electric_bike", "name": "797936b047c8f24c9f15200eadbe5a74", "is_reserved": 0, "lon": -77.03248066666667, "is_disabled": 0, "fusion_lat": 0.0, "lat": 38.961569, "bike_id": "797936b047c8f24c9f15200eadbe5a74", "fusion_lon": 0.0}, {"rental_uris": {"ios": "https://dc.lft.to/lastmile_qr_scan", "android": "https://dc.lft.to/lastmile_qr_scan"}, "type": "electric_scooter", "name": "2e2b137369c4d11a41cfecf6cf86b417", "is_reserved": 0, "lon": -77.04074233333333, "is_disabled": 0, "fusion_lat": 0.0, "lat": 38.905542, "bike_id": "2e2b137369c4d11a41cfecf6cf86b417", "fusion_lon": 0.0}, {"rental_uris": {"ios": "https://dc.lft.to/lastmile_qr_scan", "android": "https://dc.lft.to/lastmile_qr_scan"}, "type": "electric_scooter", "name": "1d81998d48a593e7a5834bf01a5df886", "is_reserved": 0, "lon": -77.01573133333333, "is_disabled": 0, "fusion_lat": 0.0, "lat": 38.876105, "bike_id": "1d81998d48a593e7a5834bf01a5df886", "fusion_lon": 0.0}, {"rental_uris": {"ios": "https://dc.lft.to/lastmile_qr_scan", "android": "https://dc.lft.to/lastmile_qr_scan"}, "type": "electric_scooter", "name": "8b33521f6ba87abb289c0df58ca0e5a0", "is_reserved": 0, "lon": -77.055118, "is_disabled": 0, "fusion_lat": 0.0, "lat": 38.928335, "bike_id": "8b33521f6ba87abb289c0df58ca0e5a0", "fusion_lon": 0.0}, {"rental_uris": {"ios": "https://dc.lft.to/lastmile_qr_scan", "android": "https://dc.lft.to/lastmile_qr_scan"}, "type": "electric_bike", "name": "e59a5acff8b1468215eb01de41cdbf48", "is_reserved": 0, "lon": -77.097232, "is_disabled": 0, "fusion_lat": 0.0, "lat": 38.8073895, "bike_id": "e59a5acff8b1468215eb01de41cdbf48", "fusion_lon": 0.0}, {"rental_uris": {"ios": "https://dc.lft.to/lastmile_qr_scan", "android": "https://dc.lft.to/lastmile_qr_scan"}, "type": "electric_scooter", "name": "94537e296298292209cabac0c63e7566", "is_reserved": 0, "lon": -77.04119366666667, "is_disabled": 0, "fusion_lat": 0.0, "lat": 38.9338575, "bike_id": "94537e296298292209cabac0c63e7566", "fusion_lon": 0.0}, {"rental_uris": {"ios": "https://dc.lft.to/lastmile_qr_scan", "android": "https://dc.lft.to/lastmile_qr_scan"}, "type": "electric_bike", "name": "bf59e87b92861e87d1acd1e4450f7fd2", "is_reserved": 0, "lon": -77.21663833333334, "is_disabled": 0, "fusion_lat": 0.0, "lat": 38.89506216666667, "bike_id": "bf59e87b92861e87d1acd1e4450f7fd2", "fusion_lon": 0.0}, {"rental_uris": {"ios": "https://dc.lft.to/lastmile_qr_scan", "android": "https://dc.lft.to/lastmile_qr_scan"}, "type": "electric_scooter", "name": "ab2bed6b6b36ecbb5bfc414586ebaa75", "is_reserved": 0, "lon": -77.02697816666667, "is_disabled": 0, "fusion_lat": 0.0, "lat": 38.9249255, "bike_id": "ab2bed6b6b36ecbb5bfc414586ebaa75", "fusion_lon": 0.0}, {"rental_uris": {"ios": "https://dc.lft.to/lastmile_qr_scan", "android": "https://dc.lft.to/lastmile_qr_scan"}, "type": "electric_scooter", "name": "536a910e27708dcfbbeb602b6c57f665", "is_reserved": 0, "lon": -76.9917135, "is_disabled": 0, "fusion_lat": 0.0, "lat": 38.902568333333335, "bike_id": "536a910e27708dcfbbeb602b6c57f665", "fusion_lon": 0.0}, {"rental_uris": {"ios": "https://dc.lft.to/lastmile_qr_scan", "android": "https://dc.lft.to/lastmile_qr_scan"}, "type": "electric_scooter", "name": "594179a31fd6145331d4db753f8cde78", "is_reserved": 0, "lon": -77.04529133333334, "is_disabled": 0, "fusion_lat": 0.0, "lat": 38.91109483333334, "bike_id": "594179a31fd6145331d4db753f8cde78", "fusion_lon": 0.0}, {"rental_uris": {"ios": "https://dc.lft.to/lastmile_qr_scan", "android": "https://dc.lft.to/lastmile_qr_scan"}, "type": "electric_scooter", "name": "9f85655a2e33795d1fba878fd14988fc", "is_reserved": 0, "lon": -77.0061955, "is_disabled": 0, "fusion_lat": 0.0, "lat": 38.87836016666667, "bike_id": "9f85655a2e33795d1fba878fd14988fc", "fusion_lon": 0.0}, {"rental_uris": {"ios": "https://dc.lft.to/lastmile_qr_scan", "android": "https://dc.lft.to/lastmile_qr_scan"}, "type": "electric_scooter", "name": "b9302010ff520bb33f8dd0114bb5ba85", "is_reserved": 0, "lon": -76.9938485, "is_disabled": 0, "fusion_lat": 0.0, "lat": 38.89337183333333, "bike_id": "b9302010ff520bb33f8dd0114bb5ba85", "fusion_lon": 0.0}, {"rental_uris": {"ios": "https://dc.lft.to/lastmile_qr_scan", "android": "https://dc.lft.to/lastmile_qr_scan"}, "type": "electric_scooter", "name": "253eaab2215eec35dc191790f694f818", "is_reserved": 0, "lon": -77.0247365, "is_disabled": 0, "fusion_lat": 0.0, "lat": 38.918150833333335, "bike_id": "253eaab2215eec35dc191790f694f818", "fusion_lon": 0.0}, {"rental_uris": {"ios": "https://dc.lft.to/lastmile_qr_scan", "android": "https://dc.lft.to/lastmile_qr_scan"}, "type": "electric_scooter", "name": "86860b2ed4416ee2d44f7ff5f5f70e23", "is_reserved": 0, "lon": -77.01971433333334, "is_disabled": 0, "fusion_lat": 0.0, "lat": 38.922554166666664, "bike_id": "86860b2ed4416ee2d44f7ff5f5f70e23", "fusion_lon": 0.0}, {"rental_uris": {"ios": "https://dc.lft.to/lastmile_qr_scan", "android": "https://dc.lft.to/lastmile_qr_scan"}, "type": "electric_scooter", "name": "8ff2a11c4e1540e91b230e3449931fe2", "is_reserved": 0, "lon": -76.9916175, "is_disabled": 0, "fusion_lat": 0.0, "lat": 38.888118166666665, "bike_id": "8ff2a11c4e1540e91b230e3449931fe2", "fusion_lon": 0.0}, {"rental_uris": {"ios": "https://dc.lft.to/lastmile_qr_scan", "android": "https://dc.lft.to/lastmile_qr_scan"}, "type": "electric_scooter", "name": "8ca84a515d9c6055c0a38c9f759cca72", "is_reserved": 0, "lon": -77.02404516666667, "is_disabled": 0, "fusion_lat": 0.0, "lat": 38.93816283333334, "bike_id": "8ca84a515d9c6055c0a38c9f759cca72", "fusion_lon": 0.0}, {"rental_uris": {"ios": "https://dc.lft.to/lastmile_qr_scan", "android": "https://dc.lft.to/lastmile_qr_scan"}, "type": "electric_scooter", "name": "80ee9f6b039da8a8c21dca13529cfbe5", "is_reserved": 0, "lon": -76.998761, "is_disabled": 0, "fusion_lat": 0.0, "lat": 38.90026833333334, "bike_id": "80ee9f6b039da8a8c21dca13529cfbe5", "fusion_lon": 0.0}, {"rental_uris": {"ios": "https://dc.lft.to/lastmile_qr_scan", "android": "https://dc.lft.to/lastmile_qr_scan"}, "type": "electric_scooter", "name": "0491e0dfec09587aac95995c5194e2a4", "is_reserved": 0, "lon": -77.04228166666667, "is_disabled": 0, "fusion_lat": 0.0, "lat": 38.911071166666666, "bike_id": "0491e0dfec09587aac95995c5194e2a4", "fusion_lon": 0.0}, {"rental_uris": {"ios": "https://dc.lft.to/lastmile_qr_scan", "android": "https://dc.lft.to/lastmile_qr_scan"}, "type": "electric_scooter", "name": "09116c47d32de584e195fcfbe7117a47", "is_reserved": 0, "lon": -77.06480233333333, "is_disabled": 0, "fusion_lat": 0.0, "lat": 38.927017, "bike_id": "09116c47d32de584e195fcfbe7117a47", "fusion_lon": 0.0}, {"rental_uris": {"ios": "https://dc.lft.to/lastmile_qr_scan", "android": "https://dc.lft.to/lastmile_qr_scan"}, "type": "electric_scooter", "name": "259c7459f5c9a01cab563de732e3a151", "is_reserved": 0, "lon": -77.03652466666666, "is_disabled": 0, "fusion_lat": 0.0, "lat": 38.954601333333336, "bike_id": "259c7459f5c9a01cab563de732e3a151", "fusion_lon": 0.0}, {"rental_uris": {"ios": "https://dc.lft.to/lastmile_qr_scan", "android": "https://dc.lft.to/lastmile_qr_scan"}, "type": "electric_scooter", "name": "5aa7491c03e7fd08c344ce25db37f7f3", "is_reserved": 0, "lon": -77.07094833333333, "is_disabled": 0, "fusion_lat": 0.0, "lat": 38.95326, "bike_id": "5aa7491c03e7fd08c344ce25db37f7f3", "fusion_lon": 0.0}, {"rental_uris": {"ios": "https://dc.lft.to/lastmile_qr_scan", "android": "https://dc.lft.to/lastmile_qr_scan"}, "type": "electric_scooter", "name": "946b32d2c52a0375cff2f25b5075d8bc", "is_reserved": 0, "lon": -77.0467505, "is_disabled": 0, "fusion_lat": 0.0, "lat": 38.892256, "bike_id": "946b32d2c52a0375cff2f25b5075d8bc", "fusion_lon": 0.0}, {"rental_uris": {"ios": "https://dc.lft.to/lastmile_qr_scan", "android": "https://dc.lft.to/lastmile_qr_scan"}, "type": "electric_scooter", "name": "242ddfbec6d9882ccfd0c7691edcca7d", "is_reserved": 0, "lon": -77.0197965, "is_disabled": 0, "fusion_lat": 0.0, "lat": 38.876095666666664, "bike_id": "242ddfbec6d9882ccfd0c7691edcca7d", "fusion_lon": 0.0}, {"rental_uris": {"ios": "https://dc.lft.to/lastmile_qr_scan", "android": "https://dc.lft.to/lastmile_qr_scan"}, "type": "electric_scooter", "name": "92a707d35abf0b3ab78925db057bb7a3", "is_reserved": 0, "lon": -77.04188133333334, "is_disabled": 0, "fusion_lat": 0.0, "lat": 38.92203466666667, "bike_id": "92a707d35abf0b3ab78925db057bb7a3", "fusion_lon": 0.0}, {"rental_uris": {"ios": "https://dc.lft.to/lastmile_qr_scan", "android": "https://dc.lft.to/lastmile_qr_scan"}, "type": "electric_scooter", "name": "e3aa43641617c6346bc2f4e4864678c9", "is_reserved": 0, "lon": -76.99560816666667, "is_disabled": 0, "fusion_lat": 0.0, "lat": 38.926806166666665, "bike_id": "e3aa43641617c6346bc2f4e4864678c9", "fusion_lon": 0.0}, {"rental_uris": {"ios": "https://dc.lft.to/lastmile_qr_scan", "android": "https://dc.lft.to/lastmile_qr_scan"}, "type": "electric_scooter", "name": "656b15e0d176c26183a2de337c196e18", "is_reserved": 0, "lon": -77.05305033333333, "is_disabled": 0, "fusion_lat": 0.0, "lat": 38.9025825, "bike_id": "656b15e0d176c26183a2de337c196e18", "fusion_lon": 0.0}, {"rental_uris": {"ios": "https://dc.lft.to/lastmile_qr_scan", "android": "https://dc.lft.to/lastmile_qr_scan"}, "type": "electric_scooter", "name": "b7d4b22dc44912be7991d43f151f0acb", "is_reserved": 0, "lon": -76.9873185, "is_disabled": 0, "fusion_lat": 0.0, "lat": 38.842192, "bike_id": "b7d4b22dc44912be7991d43f151f0acb", "fusion_lon": 0.0}, {"rental_uris": {"ios": "https://dc.lft.to/lastmile_qr_scan", "android": "https://dc.lft.to/lastmile_qr_scan"}, "type": "electric_scooter", "name": "52bfebc245ab61629751ea380f97670b", "is_reserved": 0, "lon": -77.04341516666666, "is_disabled": 0, "fusion_lat": 0.0, "lat": 38.9223795, "bike_id": "52bfebc245ab61629751ea380f97670b", "fusion_lon": 0.0}, {"rental_uris": {"ios": "https://dc.lft.to/lastmile_qr_scan", "android": "https://dc.lft.to/lastmile_qr_scan"}, "type": "electric_scooter", "name": "3a56eee04772cc960d543c8fe3d860ad", "is_reserved": 0, "lon": -77.05519416666667, "is_disabled": 0, "fusion_lat": 0.0, "lat": 38.907690833333334, "bike_id": "3a56eee04772cc960d543c8fe3d860ad", "fusion_lon": 0.0}, {"rental_uris": {"ios": "https://dc.lft.to/lastmile_qr_scan", "android": "https://dc.lft.to/lastmile_qr_scan"}, "type": "electric_scooter", "name": "568dc68d610e6505d7546884e9d68c0d", "is_reserved": 0, "lon": -76.929228, "is_disabled": 0, "fusion_lat": 0.0, "lat": 38.886551, "bike_id": "568dc68d610e6505d7546884e9d68c0d", "fusion_lon": 0.0}, {"rental_uris": {"ios": "https://dc.lft.to/lastmile_qr_scan", "android": "https://dc.lft.to/lastmile_qr_scan"}, "type": "electric_scooter", "name": "76230636a75bff9d31433f48f48590e9", "is_reserved": 0, "lon": -76.97133316666667, "is_disabled": 0, "fusion_lat": 0.0, "lat": 38.87862483333333, "bike_id": "76230636a75bff9d31433f48f48590e9", "fusion_lon": 0.0}, {"rental_uris": {"ios": "https://dc.lft.to/lastmile_qr_scan", "android": "https://dc.lft.to/lastmile_qr_scan"}, "type": "electric_scooter", "name": "7de8968a61d58c45b757b873816805ad", "is_reserved": 0, "lon": -77.01990866666667, "is_disabled": 0, "fusion_lat": 0.0, "lat": 38.930722333333335, "bike_id": "7de8968a61d58c45b757b873816805ad", "fusion_lon": 0.0}, {"rental_uris": {"ios": "https://dc.lft.to/lastmile_qr_scan", "android": "https://dc.lft.to/lastmile_qr_scan"}, "type": "electric_scooter", "name": "5e074acbe7ad4dd8b3d601bdb2b5f105", "is_reserved": 0, "lon": -77.024396, "is_disabled": 0, "fusion_lat": 0.0, "lat": 38.956368166666664, "bike_id": "5e074acbe7ad4dd8b3d601bdb2b5f105", "fusion_lon": 0.0}, {"rental_uris": {"ios": "https://dc.lft.to/lastmile_qr_scan", "android": "https://dc.lft.to/lastmile_qr_scan"}, "type": "electric_scooter", "name": "4c09765037cba812362e9e18880225b9", "is_reserved": 0, "lon": -77.072877, "is_disabled": 0, "fusion_lat": 0.0, "lat": 38.91439533333333, "bike_id": "4c09765037cba812362e9e18880225b9", "fusion_lon": 0.0}, {"rental_uris": {"ios": "https://dc.lft.to/lastmile_qr_scan", "android": "https://dc.lft.to/lastmile_qr_scan"}, "type": "electric_scooter", "name": "232f16bf2ee41c82697ae23b48515f4b", "is_reserved": 0, "lon": -77.028142, "is_disabled": 0, "fusion_lat": 0.0, "lat": 38.892318833333334, "bike_id": "232f16bf2ee41c82697ae23b48515f4b", "fusion_lon": 0.0}, {"rental_uris": {"ios": "https://dc.lft.to/lastmile_qr_scan", "android": "https://dc.lft.to/lastmile_qr_scan"}, "type": "electric_scooter", "name": "13b8ec00756e75524e0d346947ccc76d", "is_reserved": 0, "lon": -77.03270916666666, "is_disabled": 0, "fusion_lat": 0.0, "lat": 38.9199275, "bike_id": "13b8ec00756e75524e0d346947ccc76d", "fusion_lon": 0.0}, {"rental_uris": {"ios": "https://dc.lft.to/lastmile_qr_scan", "android": "https://dc.lft.to/lastmile_qr_scan"}, "type": "electric_scooter", "name": "458db2dc4b494331ae5cf032a1d76896", "is_reserved": 0, "lon": -77.04532033333334, "is_disabled": 0, "fusion_lat": 0.0, "lat": 38.9190505, "bike_id": "458db2dc4b494331ae5cf032a1d76896", "fusion_lon": 0.0}, {"rental_uris": {"ios": "https://dc.lft.to/lastmile_qr_scan", "android": "https://dc.lft.to/lastmile_qr_scan"}, "type": "electric_scooter", "name": "c516ccac32fe63d636153b29cd10074f", "is_reserved": 0, "lon": -77.032646, "is_disabled": 0, "fusion_lat": 0.0, "lat": 38.9104355, "bike_id": "c516ccac32fe63d636153b29cd10074f", "fusion_lon": 0.0}, {"rental_uris": {"ios": "https://dc.lft.to/lastmile_qr_scan", "android": "https://dc.lft.to/lastmile_qr_scan"}, "type": "electric_scooter", "name": "7f8db294cb0caad1b35ecdf3e3f0991b", "is_reserved": 0, "lon": -77.03909233333333, "is_disabled": 0, "fusion_lat": 0.0, "lat": 38.91417466666667, "bike_id": "7f8db294cb0caad1b35ecdf3e3f0991b", "fusion_lon": 0.0}, {"rental_uris": {"ios": "https://dc.lft.to/lastmile_qr_scan", "android": "https://dc.lft.to/lastmile_qr_scan"}, "type": "electric_scooter", "name": "9a1304da864ef85ff59a67ab30dd0a51", "is_reserved": 0, "lon": -77.03188116666666, "is_disabled": 0, "fusion_lat": 0.0, "lat": 38.9182085, "bike_id": "9a1304da864ef85ff59a67ab30dd0a51", "fusion_lon": 0.0}, {"rental_uris": {"ios": "https://dc.lft.to/lastmile_qr_scan", "android": "https://dc.lft.to/lastmile_qr_scan"}, "type": "electric_scooter", "name": "d7a8c811566e7f5a1564ad301574c9b2", "is_reserved": 0, "lon": -77.036309, "is_disabled": 0, "fusion_lat": 0.0, "lat": 38.925946, "bike_id": "d7a8c811566e7f5a1564ad301574c9b2", "fusion_lon": 0.0}, {"rental_uris": {"ios": "https://dc.lft.to/lastmile_qr_scan", "android": "https://dc.lft.to/lastmile_qr_scan"}, "type": "electric_scooter", "name": "8b95dce24d34f03df340efe3342201ba", "is_reserved": 0, "lon": -77.04373133333333, "is_disabled": 0, "fusion_lat": 0.0, "lat": 38.931520666666664, "bike_id": "8b95dce24d34f03df340efe3342201ba", "fusion_lon": 0.0}, {"rental_uris": {"ios": "https://dc.lft.to/lastmile_qr_scan", "android": "https://dc.lft.to/lastmile_qr_scan"}, "type": "electric_scooter", "name": "6d197c18f435ed844ef6d5538b9d2873", "is_reserved": 0, "lon": -77.05644566666666, "is_disabled": 0, "fusion_lat": 0.0, "lat": 38.935899, "bike_id": "6d197c18f435ed844ef6d5538b9d2873", "fusion_lon": 0.0}, {"rental_uris": {"ios": "https://dc.lft.to/lastmile_qr_scan", "android": "https://dc.lft.to/lastmile_qr_scan"}, "type": "electric_scooter", "name": "09ce1021b9c395395eb9903577140c1d", "is_reserved": 0, "lon": -77.01204933333334, "is_disabled": 0, "fusion_lat": 0.0, "lat": 38.89989683333334, "bike_id": "09ce1021b9c395395eb9903577140c1d", "fusion_lon": 0.0}, {"rental_uris": {"ios": "https://dc.lft.to/lastmile_qr_scan", "android": "https://dc.lft.to/lastmile_qr_scan"}, "type": "electric_scooter", "name": "46e052dd591f0aea9e8c5c8896712a87", "is_reserved": 0, "lon": -77.03449516666667, "is_disabled": 0, "fusion_lat": 0.0, "lat": 38.90729783333333, "bike_id": "46e052dd591f0aea9e8c5c8896712a87", "fusion_lon": 0.0}, {"rental_uris": {"ios": "https://dc.lft.to/lastmile_qr_scan", "android": "https://dc.lft.to/lastmile_qr_scan"}, "type": "electric_scooter", "name": "8221850b73ca3868ae300d4727cd954d", "is_reserved": 0, "lon": -77.05727933333333, "is_disabled": 0, "fusion_lat": 0.0, "lat": 38.93356583333333, "bike_id": "8221850b73ca3868ae300d4727cd954d", "fusion_lon": 0.0}, {"rental_uris": {"ios": "https://dc.lft.to/lastmile_qr_scan", "android": "https://dc.lft.to/lastmile_qr_scan"}, "type": "electric_scooter", "name": "fbf310a33ea7a652ee7b8f4b17c7f34a", "is_reserved": 0, "lon": -77.02859366666667, "is_disabled": 0, "fusion_lat": 0.0, "lat": 38.912571666666665, "bike_id": "fbf310a33ea7a652ee7b8f4b17c7f34a", "fusion_lon": 0.0}, {"rental_uris": {"ios": "https://dc.lft.to/lastmile_qr_scan", "android": "https://dc.lft.to/lastmile_qr_scan"}, "type": "electric_scooter", "name": "32c3ac425d86fece0711a54614aaf3e9", "is_reserved": 0, "lon": -77.03784566666667, "is_disabled": 0, "fusion_lat": 0.0, "lat": 38.936122, "bike_id": "32c3ac425d86fece0711a54614aaf3e9", "fusion_lon": 0.0}, {"rental_uris": {"ios": "https://dc.lft.to/lastmile_qr_scan", "android": "https://dc.lft.to/lastmile_qr_scan"}, "type": "electric_scooter", "name": "a8a65223698f5bf3c465b536b2bed87a", "is_reserved": 0, "lon": -77.017737, "is_disabled": 0, "fusion_lat": 0.0, "lat": 38.9039095, "bike_id": "a8a65223698f5bf3c465b536b2bed87a", "fusion_lon": 0.0}, {"rental_uris": {"ios": "https://dc.lft.to/lastmile_qr_scan", "android": "https://dc.lft.to/lastmile_qr_scan"}, "type": "electric_scooter", "name": "291719c62f985becdd2b7bf5205f039b", "is_reserved": 0, "lon": -77.000613, "is_disabled": 0, "fusion_lat": 0.0, "lat": 38.876847, "bike_id": "291719c62f985becdd2b7bf5205f039b", "fusion_lon": 0.0}, {"rental_uris": {"ios": "https://dc.lft.to/lastmile_qr_scan", "android": "https://dc.lft.to/lastmile_qr_scan"}, "type": "electric_scooter", "name": "1f7ae34fdb8303fcb0d1c7fb457df151", "is_reserved": 0, "lon": -77.05914066666666, "is_disabled": 0, "fusion_lat": 0.0, "lat": 38.902725, "bike_id": "1f7ae34fdb8303fcb0d1c7fb457df151", "fusion_lon": 0.0}, {"rental_uris": {"ios": "https://dc.lft.to/lastmile_qr_scan", "android": "https://dc.lft.to/lastmile_qr_scan"}, "type": "electric_bike", "name": "6300543e78b50ddda22a886e5ec6a043", "is_reserved": 0, "lon": -77.12653433333334, "is_disabled": 0, "fusion_lat": 0.0, "lat": 38.81909383333333, "bike_id": "6300543e78b50ddda22a886e5ec6a043", "fusion_lon": 0.0}, {"rental_uris": {"ios": "https://dc.lft.to/lastmile_qr_scan", "android": "https://dc.lft.to/lastmile_qr_scan"}, "type": "electric_scooter", "name": "f6c179ab913f62f574e764f525859a0b", "is_reserved": 0, "lon": -77.05129166666667, "is_disabled": 0, "fusion_lat": 0.0, "lat": 38.90646533333334, "bike_id": "f6c179ab913f62f574e764f525859a0b", "fusion_lon": 0.0}, {"rental_uris": {"ios": "https://dc.lft.to/lastmile_qr_scan", "android": "https://dc.lft.to/lastmile_qr_scan"}, "type": "electric_scooter", "name": "57c50006946dc77cf6333f9d8e5403ac", "is_reserved": 0, "lon": -77.0342135, "is_disabled": 0, "fusion_lat": 0.0, "lat": 38.92197266666667, "bike_id": "57c50006946dc77cf6333f9d8e5403ac", "fusion_lon": 0.0}, {"rental_uris": {"ios": "https://dc.lft.to/lastmile_qr_scan", "android": "https://dc.lft.to/lastmile_qr_scan"}, "type": "electric_scooter", "name": "ec4739285937a504e7ca865e56b9176b", "is_reserved": 0, "lon": -76.9850575, "is_disabled": 0, "fusion_lat": 0.0, "lat": 38.879946333333336, "bike_id": "ec4739285937a504e7ca865e56b9176b", "fusion_lon": 0.0}, {"rental_uris": {"ios": "https://dc.lft.to/lastmile_qr_scan", "android": "https://dc.lft.to/lastmile_qr_scan"}, "type": "electric_scooter", "name": "649dd15b996d8a3e5909fa78b82bf97d", "is_reserved": 0, "lon": -77.06631766666666, "is_disabled": 0, "fusion_lat": 0.0, "lat": 38.905157833333334, "bike_id": "649dd15b996d8a3e5909fa78b82bf97d", "fusion_lon": 0.0}, {"rental_uris": {"ios": "https://dc.lft.to/lastmile_qr_scan", "android": "https://dc.lft.to/lastmile_qr_scan"}, "type": "electric_scooter", "name": "79d449699301bc83c6625c3ea7fdfcbe", "is_reserved": 0, "lon": -77.00546316666667, "is_disabled": 0, "fusion_lat": 0.0, "lat": 38.876358333333336, "bike_id": "79d449699301bc83c6625c3ea7fdfcbe", "fusion_lon": 0.0}, {"rental_uris": {"ios": "https://dc.lft.to/lastmile_qr_scan", "android": "https://dc.lft.to/lastmile_qr_scan"}, "type": "electric_bike", "name": "d9a6b50edac4c4a989857b6e3936b8f3", "is_reserved": 0, "lon": -77.08527933333333, "is_disabled": 0, "fusion_lat": 0.0, "lat": 38.856442, "bike_id": "d9a6b50edac4c4a989857b6e3936b8f3", "fusion_lon": 0.0}, {"rental_uris": {"ios": "https://dc.lft.to/lastmile_qr_scan", "android": "https://dc.lft.to/lastmile_qr_scan"}, "type": "electric_scooter", "name": "a45d7fb4afddfd83b38ca699687e376d", "is_reserved": 0, "lon": -77.02505066666667, "is_disabled": 0, "fusion_lat": 0.0, "lat": 38.935486166666664, "bike_id": "a45d7fb4afddfd83b38ca699687e376d", "fusion_lon": 0.0}, {"rental_uris": {"ios": "https://dc.lft.to/lastmile_qr_scan", "android": "https://dc.lft.to/lastmile_qr_scan"}, "type": "electric_scooter", "name": "ca651ba88892dd0f0fea298b50215257", "is_reserved": 0, "lon": -77.04390766666667, "is_disabled": 0, "fusion_lat": 0.0, "lat": 38.92359016666666, "bike_id": "ca651ba88892dd0f0fea298b50215257", "fusion_lon": 0.0}, {"rental_uris": {"ios": "https://dc.lft.to/lastmile_qr_scan", "android": "https://dc.lft.to/lastmile_qr_scan"}, "type": "electric_scooter", "name": "dbd2249b140d41f7d79ffc8c7ffe13a7", "is_reserved": 0, "lon": -77.048897, "is_disabled": 0, "fusion_lat": 0.0, "lat": 38.919405833333336, "bike_id": "dbd2249b140d41f7d79ffc8c7ffe13a7", "fusion_lon": 0.0}, {"rental_uris": {"ios": "https://dc.lft.to/lastmile_qr_scan", "android": "https://dc.lft.to/lastmile_qr_scan"}, "type": "electric_scooter", "name": "9511c171477d4ea6ab3df179b867a656", "is_reserved": 0, "lon": -77.03716816666666, "is_disabled": 0, "fusion_lat": 0.0, "lat": 38.9148545, "bike_id": "9511c171477d4ea6ab3df179b867a656", "fusion_lon": 0.0}, {"rental_uris": {"ios": "https://dc.lft.to/lastmile_qr_scan", "android": "https://dc.lft.to/lastmile_qr_scan"}, "type": "electric_scooter", "name": "e6b8b5e8de8a924c5312e662d0a6dce6", "is_reserved": 0, "lon": -76.98030016666667, "is_disabled": 0, "fusion_lat": 0.0, "lat": 38.9168005, "bike_id": "e6b8b5e8de8a924c5312e662d0a6dce6", "fusion_lon": 0.0}, {"rental_uris": {"ios": "https://dc.lft.to/lastmile_qr_scan", "android": "https://dc.lft.to/lastmile_qr_scan"}, "type": "electric_bike", "name": "4f7999691ce409c5da897035490dd8a8", "is_reserved": 0, "lon": -76.94163666666667, "is_disabled": 0, "fusion_lat": 0.0, "lat": 38.86553283333333, "bike_id": "4f7999691ce409c5da897035490dd8a8", "fusion_lon": 0.0}, {"rental_uris": {"ios": "https://dc.lft.to/lastmile_qr_scan", "android": "https://dc.lft.to/lastmile_qr_scan"}, "type": "electric_scooter", "name": "1dfc3c7595cc14abda9fc84dcc68753c", "is_reserved": 0, "lon": -77.0386995, "is_disabled": 0, "fusion_lat": 0.0, "lat": 38.9215115, "bike_id": "1dfc3c7595cc14abda9fc84dcc68753c", "fusion_lon": 0.0}, {"rental_uris": {"ios": "https://dc.lft.to/lastmile_qr_scan", "android": "https://dc.lft.to/lastmile_qr_scan"}, "type": "electric_scooter", "name": "0e35353d0f8f5ee9f886e74d4724ee2f", "is_reserved": 0, "lon": -77.02621583333334, "is_disabled": 0, "fusion_lat": 0.0, "lat": 38.90730833333333, "bike_id": "0e35353d0f8f5ee9f886e74d4724ee2f", "fusion_lon": 0.0}, {"rental_uris": {"ios": "https://dc.lft.to/lastmile_qr_scan", "android": "https://dc.lft.to/lastmile_qr_scan"}, "type": "electric_scooter", "name": "32ed28bf78e4e49103631944c7a15513", "is_reserved": 0, "lon": -77.00988116666667, "is_disabled": 0, "fusion_lat": 0.0, "lat": 38.87296083333333, "bike_id": "32ed28bf78e4e49103631944c7a15513", "fusion_lon": 0.0}, {"rental_uris": {"ios": "https://dc.lft.to/lastmile_qr_scan", "android": "https://dc.lft.to/lastmile_qr_scan"}, "type": "electric_scooter", "name": "502d9185d06ab38417ddd6892e196380", "is_reserved": 0, "lon": -77.03361633333333, "is_disabled": 0, "fusion_lat": 0.0, "lat": 38.91060016666667, "bike_id": "502d9185d06ab38417ddd6892e196380", "fusion_lon": 0.0}, {"rental_uris": {"ios": "https://dc.lft.to/lastmile_qr_scan", "android": "https://dc.lft.to/lastmile_qr_scan"}, "type": "electric_scooter", "name": "adab1259dee000e5171f7bc910b101ff", "is_reserved": 0, "lon": -77.01744266666667, "is_disabled": 0, "fusion_lat": 0.0, "lat": 38.91239233333334, "bike_id": "adab1259dee000e5171f7bc910b101ff", "fusion_lon": 0.0}, {"rental_uris": {"ios": "https://dc.lft.to/lastmile_qr_scan", "android": "https://dc.lft.to/lastmile_qr_scan"}, "type": "electric_scooter", "name": "257e9ee4004c882c183d4db02b8216ad", "is_reserved": 0, "lon": -77.0451115, "is_disabled": 0, "fusion_lat": 0.0, "lat": 38.907819333333336, "bike_id": "257e9ee4004c882c183d4db02b8216ad", "fusion_lon": 0.0}, {"rental_uris": {"ios": "https://dc.lft.to/lastmile_qr_scan", "android": "https://dc.lft.to/lastmile_qr_scan"}, "type": "electric_scooter", "name": "a0d00d5d3da5364ad8228ab4e0ed5dc5", "is_reserved": 0, "lon": -77.05270116666667, "is_disabled": 0, "fusion_lat": 0.0, "lat": 38.924204833333334, "bike_id": "a0d00d5d3da5364ad8228ab4e0ed5dc5", "fusion_lon": 0.0}, {"rental_uris": {"ios": "https://dc.lft.to/lastmile_qr_scan", "android": "https://dc.lft.to/lastmile_qr_scan"}, "type": "electric_scooter", "name": "02c507e342d50306fcd8f870b0c6722e", "is_reserved": 0, "lon": -77.01638183333333, "is_disabled": 0, "fusion_lat": 0.0, "lat": 38.88117783333333, "bike_id": "02c507e342d50306fcd8f870b0c6722e", "fusion_lon": 0.0}, {"rental_uris": {"ios": "https://dc.lft.to/lastmile_qr_scan", "android": "https://dc.lft.to/lastmile_qr_scan"}, "type": "electric_scooter", "name": "a2c816c6fdff0f6a39ac993929ac162a", "is_reserved": 0, "lon": -77.02130433333333, "is_disabled": 0, "fusion_lat": 0.0, "lat": 38.92695633333334, "bike_id": "a2c816c6fdff0f6a39ac993929ac162a", "fusion_lon": 0.0}, {"rental_uris": {"ios": "https://dc.lft.to/lastmile_qr_scan", "android": "https://dc.lft.to/lastmile_qr_scan"}, "type": "electric_scooter", "name": "f31d7a14a7b20adc580892a06c826bcb", "is_reserved": 0, "lon": -77.02328933333334, "is_disabled": 0, "fusion_lat": 0.0, "lat": 38.9229915, "bike_id": "f31d7a14a7b20adc580892a06c826bcb", "fusion_lon": 0.0}, {"rental_uris": {"ios": "https://dc.lft.to/lastmile_qr_scan", "android": "https://dc.lft.to/lastmile_qr_scan"}, "type": "electric_bike", "name": "d677e8d3c875122bd1f8dbb8fda53671", "is_reserved": 0, "lon": -77.02009583333333, "is_disabled": 0, "fusion_lat": 0.0, "lat": 38.96439616666667, "bike_id": "d677e8d3c875122bd1f8dbb8fda53671", "fusion_lon": 0.0}, {"rental_uris": {"ios": "https://dc.lft.to/lastmile_qr_scan", "android": "https://dc.lft.to/lastmile_qr_scan"}, "type": "electric_scooter", "name": "ecc12c8090468b665a6a9f9f39c95339", "is_reserved": 0, "lon": -77.02708716666666, "is_disabled": 0, "fusion_lat": 0.0, "lat": 38.918165333333334, "bike_id": "ecc12c8090468b665a6a9f9f39c95339", "fusion_lon": 0.0}, {"rental_uris": {"ios": "https://dc.lft.to/lastmile_qr_scan", "android": "https://dc.lft.to/lastmile_qr_scan"}, "type": "electric_scooter", "name": "7c19f9b8308e84ff66d5780d534a0e50", "is_reserved": 0, "lon": -77.06552533333333, "is_disabled": 0, "fusion_lat": 0.0, "lat": 38.91171283333333, "bike_id": "7c19f9b8308e84ff66d5780d534a0e50", "fusion_lon": 0.0}, {"rental_uris": {"ios": "https://dc.lft.to/lastmile_qr_scan", "android": "https://dc.lft.to/lastmile_qr_scan"}, "type": "electric_scooter", "name": "4e59729d2ad906f33aca5a878787d13e", "is_reserved": 0, "lon": -76.9826195, "is_disabled": 0, "fusion_lat": 0.0, "lat": 38.86630916666667, "bike_id": "4e59729d2ad906f33aca5a878787d13e", "fusion_lon": 0.0}, {"rental_uris": {"ios": "https://dc.lft.to/lastmile_qr_scan", "android": "https://dc.lft.to/lastmile_qr_scan"}, "type": "electric_scooter", "name": "37cf28df9642f85c89afff2b9c0bc615", "is_reserved": 0, "lon": -77.034522, "is_disabled": 0, "fusion_lat": 0.0, "lat": 38.937499333333335, "bike_id": "37cf28df9642f85c89afff2b9c0bc615", "fusion_lon": 0.0}, {"rental_uris": {"ios": "https://dc.lft.to/lastmile_qr_scan", "android": "https://dc.lft.to/lastmile_qr_scan"}, "type": "electric_scooter", "name": "59614152e2895bba4b104ba97445a66d", "is_reserved": 0, "lon": -77.032557, "is_disabled": 0, "fusion_lat": 0.0, "lat": 38.911827333333335, "bike_id": "59614152e2895bba4b104ba97445a66d", "fusion_lon": 0.0}, {"rental_uris": {"ios": "https://dc.lft.to/lastmile_qr_scan", "android": "https://dc.lft.to/lastmile_qr_scan"}, "type": "electric_scooter", "name": "56535d59f0638b2bf7721f17d9ab578f", "is_reserved": 0, "lon": -76.9835375, "is_disabled": 0, "fusion_lat": 0.0, "lat": 38.88739133333333, "bike_id": "56535d59f0638b2bf7721f17d9ab578f", "fusion_lon": 0.0}, {"rental_uris": {"ios": "https://dc.lft.to/lastmile_qr_scan", "android": "https://dc.lft.to/lastmile_qr_scan"}, "type": "electric_scooter", "name": "b25c1d60348c4821230537c1466cc8b3", "is_reserved": 0, "lon": -77.05429533333333, "is_disabled": 0, "fusion_lat": 0.0, "lat": 38.928527, "bike_id": "b25c1d60348c4821230537c1466cc8b3", "fusion_lon": 0.0}, {"rental_uris": {"ios": "https://dc.lft.to/lastmile_qr_scan", "android": "https://dc.lft.to/lastmile_qr_scan"}, "type": "electric_scooter", "name": "dcfa9dc3ec2e75598c5edf01f336b7f0", "is_reserved": 0, "lon": -77.071643, "is_disabled": 0, "fusion_lat": 0.0, "lat": 38.90775266666667, "bike_id": "dcfa9dc3ec2e75598c5edf01f336b7f0", "fusion_lon": 0.0}, {"rental_uris": {"ios": "https://dc.lft.to/lastmile_qr_scan", "android": "https://dc.lft.to/lastmile_qr_scan"}, "type": "electric_scooter", "name": "205044b4ce35781cd099d3fb3c96b479", "is_reserved": 0, "lon": -77.04337116666666, "is_disabled": 0, "fusion_lat": 0.0, "lat": 38.908271, "bike_id": "205044b4ce35781cd099d3fb3c96b479", "fusion_lon": 0.0}, {"rental_uris": {"ios": "https://dc.lft.to/lastmile_qr_scan", "android": "https://dc.lft.to/lastmile_qr_scan"}, "type": "electric_scooter", "name": "41d07ff75a406bc2984eec0501276413", "is_reserved": 0, "lon": -77.01764683333333, "is_disabled": 0, "fusion_lat": 0.0, "lat": 38.9204395, "bike_id": "41d07ff75a406bc2984eec0501276413", "fusion_lon": 0.0}, {"rental_uris": {"ios": "https://dc.lft.to/lastmile_qr_scan", "android": "https://dc.lft.to/lastmile_qr_scan"}, "type": "electric_scooter", "name": "c2cac5de1bc9313265dfb204b98fbd9c", "is_reserved": 0, "lon": -77.02693666666667, "is_disabled": 0, "fusion_lat": 0.0, "lat": 38.92596966666667, "bike_id": "c2cac5de1bc9313265dfb204b98fbd9c", "fusion_lon": 0.0}, {"rental_uris": {"ios": "https://dc.lft.to/lastmile_qr_scan", "android": "https://dc.lft.to/lastmile_qr_scan"}, "type": "electric_scooter", "name": "40aeed352a142797d5fc82fffea30a40", "is_reserved": 0, "lon": -77.0268065, "is_disabled": 0, "fusion_lat": 0.0, "lat": 38.92473283333333, "bike_id": "40aeed352a142797d5fc82fffea30a40", "fusion_lon": 0.0}, {"rental_uris": {"ios": "https://dc.lft.to/lastmile_qr_scan", "android": "https://dc.lft.to/lastmile_qr_scan"}, "type": "electric_scooter", "name": "5c71099183b6ca0e1aa9ae2ea195f229", "is_reserved": 0, "lon": -77.02657783333333, "is_disabled": 0, "fusion_lat": 0.0, "lat": 38.924835, "bike_id": "5c71099183b6ca0e1aa9ae2ea195f229", "fusion_lon": 0.0}, {"rental_uris": {"ios": "https://dc.lft.to/lastmile_qr_scan", "android": "https://dc.lft.to/lastmile_qr_scan"}, "type": "electric_scooter", "name": "9ceec784cec12fdaebbc422cab881377", "is_reserved": 0, "lon": -77.04161216666667, "is_disabled": 0, "fusion_lat": 0.0, "lat": 38.905629166666664, "bike_id": "9ceec784cec12fdaebbc422cab881377", "fusion_lon": 0.0}, {"rental_uris": {"ios": "https://dc.lft.to/lastmile_qr_scan", "android": "https://dc.lft.to/lastmile_qr_scan"}, "type": "electric_scooter", "name": "eca77cfbc774620dfd1605d438982173", "is_reserved": 0, "lon": -77.0488775, "is_disabled": 0, "fusion_lat": 0.0, "lat": 38.9194, "bike_id": "eca77cfbc774620dfd1605d438982173", "fusion_lon": 0.0}, {"rental_uris": {"ios": "https://dc.lft.to/lastmile_qr_scan", "android": "https://dc.lft.to/lastmile_qr_scan"}, "type": "electric_scooter", "name": "bb1034350ef0b0ae98549b8f8c746df6", "is_reserved": 0, "lon": -77.02977983333334, "is_disabled": 0, "fusion_lat": 0.0, "lat": 38.92199633333333, "bike_id": "bb1034350ef0b0ae98549b8f8c746df6", "fusion_lon": 0.0}, {"rental_uris": {"ios": "https://dc.lft.to/lastmile_qr_scan", "android": "https://dc.lft.to/lastmile_qr_scan"}, "type": "electric_scooter", "name": "7bd1d921d0b3bfb50e91e8296afec735", "is_reserved": 0, "lon": -77.03234783333333, "is_disabled": 0, "fusion_lat": 0.0, "lat": 38.928774, "bike_id": "7bd1d921d0b3bfb50e91e8296afec735", "fusion_lon": 0.0}, {"rental_uris": {"ios": "https://dc.lft.to/lastmile_qr_scan", "android": "https://dc.lft.to/lastmile_qr_scan"}, "type": "electric_scooter", "name": "4e8409b3bafbd9337712572309d5ae7e", "is_reserved": 0, "lon": -77.04052766666666, "is_disabled": 0, "fusion_lat": 0.0, "lat": 38.930110666666664, "bike_id": "4e8409b3bafbd9337712572309d5ae7e", "fusion_lon": 0.0}, {"rental_uris": {"ios": "https://dc.lft.to/lastmile_qr_scan", "android": "https://dc.lft.to/lastmile_qr_scan"}, "type": "electric_scooter", "name": "75bab84b3dd6912ae5e97732ce38d3b3", "is_reserved": 0, "lon": -77.04840433333334, "is_disabled": 0, "fusion_lat": 0.0, "lat": 38.909677333333335, "bike_id": "75bab84b3dd6912ae5e97732ce38d3b3", "fusion_lon": 0.0}, {"rental_uris": {"ios": "https://dc.lft.to/lastmile_qr_scan", "android": "https://dc.lft.to/lastmile_qr_scan"}, "type": "electric_bike", "name": "74a8e520b3bb7881dfd8878f5a9338e6", "is_reserved": 0, "lon": -76.987636, "is_disabled": 0, "fusion_lat": 0.0, "lat": 38.85768633333333, "bike_id": "74a8e520b3bb7881dfd8878f5a9338e6", "fusion_lon": 0.0}, {"rental_uris": {"ios": "https://dc.lft.to/lastmile_qr_scan", "android": "https://dc.lft.to/lastmile_qr_scan"}, "type": "electric_scooter", "name": "873a0b8a3d8d8412b838c73172eb0df6", "is_reserved": 0, "lon": -77.031809, "is_disabled": 0, "fusion_lat": 0.0, "lat": 38.89467333333333, "bike_id": "873a0b8a3d8d8412b838c73172eb0df6", "fusion_lon": 0.0}, {"rental_uris": {"ios": "https://dc.lft.to/lastmile_qr_scan", "android": "https://dc.lft.to/lastmile_qr_scan"}, "type": "electric_scooter", "name": "781a9715d8f45f0ad6e373077d72255a", "is_reserved": 0, "lon": -77.03450316666667, "is_disabled": 0, "fusion_lat": 0.0, "lat": 38.90841416666667, "bike_id": "781a9715d8f45f0ad6e373077d72255a", "fusion_lon": 0.0}, {"rental_uris": {"ios": "https://dc.lft.to/lastmile_qr_scan", "android": "https://dc.lft.to/lastmile_qr_scan"}, "type": "electric_scooter", "name": "7699c565b55ba50118ad56492dcb8f68", "is_reserved": 0, "lon": -77.048757, "is_disabled": 0, "fusion_lat": 0.0, "lat": 38.90649766666667, "bike_id": "7699c565b55ba50118ad56492dcb8f68", "fusion_lon": 0.0}, {"rental_uris": {"ios": "https://dc.lft.to/lastmile_qr_scan", "android": "https://dc.lft.to/lastmile_qr_scan"}, "type": "electric_scooter", "name": "6d6011df71e75e8a6a3d9b5982e79a2b", "is_reserved": 0, "lon": -77.04675516666667, "is_disabled": 0, "fusion_lat": 0.0, "lat": 38.892242333333336, "bike_id": "6d6011df71e75e8a6a3d9b5982e79a2b", "fusion_lon": 0.0}, {"rental_uris": {"ios": "https://dc.lft.to/lastmile_qr_scan", "android": "https://dc.lft.to/lastmile_qr_scan"}, "type": "electric_scooter", "name": "74c4ae859ebd4fbe69d6edd38bd3065c", "is_reserved": 0, "lon": -77.03717133333333, "is_disabled": 0, "fusion_lat": 0.0, "lat": 38.92647633333333, "bike_id": "74c4ae859ebd4fbe69d6edd38bd3065c", "fusion_lon": 0.0}, {"rental_uris": {"ios": "https://dc.lft.to/lastmile_qr_scan", "android": "https://dc.lft.to/lastmile_qr_scan"}, "type": "electric_scooter", "name": "e48dfb74c33700de13ed8e9e9b31a2b7", "is_reserved": 0, "lon": -77.02368083333333, "is_disabled": 0, "fusion_lat": 0.0, "lat": 38.9021615, "bike_id": "e48dfb74c33700de13ed8e9e9b31a2b7", "fusion_lon": 0.0}, {"rental_uris": {"ios": "https://dc.lft.to/lastmile_qr_scan", "android": "https://dc.lft.to/lastmile_qr_scan"}, "type": "electric_bike", "name": "1c8b5b5fa87a514c855dc1018b1906e5", "is_reserved": 0, "lon": -76.94532516666666, "is_disabled": 0, "fusion_lat": 0.0, "lat": 38.867536333333334, "bike_id": "1c8b5b5fa87a514c855dc1018b1906e5", "fusion_lon": 0.0}, {"rental_uris": {"ios": "https://dc.lft.to/lastmile_qr_scan", "android": "https://dc.lft.to/lastmile_qr_scan"}, "type": "electric_scooter", "name": "59af0a62b5c5bf6bfec7a37d82d185b7", "is_reserved": 0, "lon": -77.02224783333334, "is_disabled": 0, "fusion_lat": 0.0, "lat": 38.893541666666664, "bike_id": "59af0a62b5c5bf6bfec7a37d82d185b7", "fusion_lon": 0.0}, {"rental_uris": {"ios": "https://dc.lft.to/lastmile_qr_scan", "android": "https://dc.lft.to/lastmile_qr_scan"}, "type": "electric_bike", "name": "4359090603c1870cbf6fa05ec287efc0", "is_reserved": 0, "lon": -77.01738366666666, "is_disabled": 0, "fusion_lat": 0.0, "lat": 38.9460345, "bike_id": "4359090603c1870cbf6fa05ec287efc0", "fusion_lon": 0.0}, {"rental_uris": {"ios": "https://dc.lft.to/lastmile_qr_scan", "android": "https://dc.lft.to/lastmile_qr_scan"}, "type": "electric_scooter", "name": "d6dd5a5234febddc3cf71b002c5ce2c8", "is_reserved": 0, "lon": -77.02696833333333, "is_disabled": 0, "fusion_lat": 0.0, "lat": 38.89566033333333, "bike_id": "d6dd5a5234febddc3cf71b002c5ce2c8", "fusion_lon": 0.0}, {"rental_uris": {"ios": "https://dc.lft.to/lastmile_qr_scan", "android": "https://dc.lft.to/lastmile_qr_scan"}, "type": "electric_scooter", "name": "2e920d71c4bc3176a4ba1fac00c86ff5", "is_reserved": 0, "lon": -77.0445755, "is_disabled": 0, "fusion_lat": 0.0, "lat": 38.92469216666667, "bike_id": "2e920d71c4bc3176a4ba1fac00c86ff5", "fusion_lon": 0.0}, {"rental_uris": {"ios": "https://dc.lft.to/lastmile_qr_scan", "android": "https://dc.lft.to/lastmile_qr_scan"}, "type": "electric_scooter", "name": "1f0a805a97c2ad61b6a00e905f564953", "is_reserved": 0, "lon": -77.0342635, "is_disabled": 0, "fusion_lat": 0.0, "lat": 38.9009545, "bike_id": "1f0a805a97c2ad61b6a00e905f564953", "fusion_lon": 0.0}, {"rental_uris": {"ios": "https://dc.lft.to/lastmile_qr_scan", "android": "https://dc.lft.to/lastmile_qr_scan"}, "type": "electric_scooter", "name": "bfc2e97f6a433461f8e35b28fbe7d1ef", "is_reserved": 0, "lon": -77.021744, "is_disabled": 0, "fusion_lat": 0.0, "lat": 38.8948675, "bike_id": "bfc2e97f6a433461f8e35b28fbe7d1ef", "fusion_lon": 0.0}, {"rental_uris": {"ios": "https://dc.lft.to/lastmile_qr_scan", "android": "https://dc.lft.to/lastmile_qr_scan"}, "type": "electric_scooter", "name": "9ec8f80dc1691ee2b93048909ad0448e", "is_reserved": 0, "lon": -77.056225, "is_disabled": 0, "fusion_lat": 0.0, "lat": 38.906833666666664, "bike_id": "9ec8f80dc1691ee2b93048909ad0448e", "fusion_lon": 0.0}, {"rental_uris": {"ios": "https://dc.lft.to/lastmile_qr_scan", "android": "https://dc.lft.to/lastmile_qr_scan"}, "type": "electric_scooter", "name": "f21b542d1a368c32d22068e25217a118", "is_reserved": 0, "lon": -77.0380685, "is_disabled": 0, "fusion_lat": 0.0, "lat": 38.909719333333335, "bike_id": "f21b542d1a368c32d22068e25217a118", "fusion_lon": 0.0}, {"rental_uris": {"ios": "https://dc.lft.to/lastmile_qr_scan", "android": "https://dc.lft.to/lastmile_qr_scan"}, "type": "electric_scooter", "name": "9d17516b0ab4d933740a88ed6984f277", "is_reserved": 0, "lon": -77.01225266666667, "is_disabled": 0, "fusion_lat": 0.0, "lat": 38.867149166666664, "bike_id": "9d17516b0ab4d933740a88ed6984f277", "fusion_lon": 0.0}, {"rental_uris": {"ios": "https://dc.lft.to/lastmile_qr_scan", "android": "https://dc.lft.to/lastmile_qr_scan"}, "type": "electric_bike", "name": "458a93ec56cf614bb785fd448614c245", "is_reserved": 0, "lon": -76.90734533333334, "is_disabled": 0, "fusion_lat": 0.0, "lat": 38.896165333333336, "bike_id": "458a93ec56cf614bb785fd448614c245", "fusion_lon": 0.0}, {"rental_uris": {"ios": "https://dc.lft.to/lastmile_qr_scan", "android": "https://dc.lft.to/lastmile_qr_scan"}, "type": "electric_scooter", "name": "db91bcdd3e0a4fb0694d9e9c7111a677", "is_reserved": 0, "lon": -76.99231183333333, "is_disabled": 0, "fusion_lat": 0.0, "lat": 38.887493, "bike_id": "db91bcdd3e0a4fb0694d9e9c7111a677", "fusion_lon": 0.0}, {"rental_uris": {"ios": "https://dc.lft.to/lastmile_qr_scan", "android": "https://dc.lft.to/lastmile_qr_scan"}, "type": "electric_scooter", "name": "a215577b3b4becbbd147ab8ce18c01be", "is_reserved": 0, "lon": -77.03207133333333, "is_disabled": 0, "fusion_lat": 0.0, "lat": 38.88472133333333, "bike_id": "a215577b3b4becbbd147ab8ce18c01be", "fusion_lon": 0.0}, {"rental_uris": {"ios": "https://dc.lft.to/lastmile_qr_scan", "android": "https://dc.lft.to/lastmile_qr_scan"}, "type": "electric_scooter", "name": "0c686d52b6a02392536f2c6a096d138e", "is_reserved": 0, "lon": -77.03262116666667, "is_disabled": 0, "fusion_lat": 0.0, "lat": 38.93376883333333, "bike_id": "0c686d52b6a02392536f2c6a096d138e", "fusion_lon": 0.0}, {"rental_uris": {"ios": "https://dc.lft.to/lastmile_qr_scan", "android": "https://dc.lft.to/lastmile_qr_scan"}, "type": "electric_scooter", "name": "0978f4231f3699fbddddb3302157f5bc", "is_reserved": 0, "lon": -77.036609, "is_disabled": 0, "fusion_lat": 0.0, "lat": 38.923562833333335, "bike_id": "0978f4231f3699fbddddb3302157f5bc", "fusion_lon": 0.0}, {"rental_uris": {"ios": "https://dc.lft.to/lastmile_qr_scan", "android": "https://dc.lft.to/lastmile_qr_scan"}, "type": "electric_scooter", "name": "dff1d20b807ebe93b95c2521ba337ad1", "is_reserved": 0, "lon": -76.99913183333334, "is_disabled": 0, "fusion_lat": 0.0, "lat": 38.924591666666664, "bike_id": "dff1d20b807ebe93b95c2521ba337ad1", "fusion_lon": 0.0}, {"rental_uris": {"ios": "https://dc.lft.to/lastmile_qr_scan", "android": "https://dc.lft.to/lastmile_qr_scan"}, "type": "electric_scooter", "name": "b63851846ffbbccb31b3a40e4782b267", "is_reserved": 0, "lon": -77.00824166666666, "is_disabled": 0, "fusion_lat": 0.0, "lat": 38.91373183333333, "bike_id": "b63851846ffbbccb31b3a40e4782b267", "fusion_lon": 0.0}, {"rental_uris": {"ios": "https://dc.lft.to/lastmile_qr_scan", "android": "https://dc.lft.to/lastmile_qr_scan"}, "type": "electric_scooter", "name": "c978dd0aa0d61a37f272cfdecb06682c", "is_reserved": 0, "lon": -77.04758966666667, "is_disabled": 0, "fusion_lat": 0.0, "lat": 38.9408865, "bike_id": "c978dd0aa0d61a37f272cfdecb06682c", "fusion_lon": 0.0}, {"rental_uris": {"ios": "https://dc.lft.to/lastmile_qr_scan", "android": "https://dc.lft.to/lastmile_qr_scan"}, "type": "electric_scooter", "name": "729d2f2de56c6545150c6a541d708172", "is_reserved": 0, "lon": -77.04088516666667, "is_disabled": 0, "fusion_lat": 0.0, "lat": 38.9270515, "bike_id": "729d2f2de56c6545150c6a541d708172", "fusion_lon": 0.0}, {"rental_uris": {"ios": "https://dc.lft.to/lastmile_qr_scan", "android": "https://dc.lft.to/lastmile_qr_scan"}, "type": "electric_scooter", "name": "2d9f6c1a1cbb92173d42e9d27ae07888", "is_reserved": 0, "lon": -77.02152483333333, "is_disabled": 0, "fusion_lat": 0.0, "lat": 38.887414, "bike_id": "2d9f6c1a1cbb92173d42e9d27ae07888", "fusion_lon": 0.0}, {"rental_uris": {"ios": "https://dc.lft.to/lastmile_qr_scan", "android": "https://dc.lft.to/lastmile_qr_scan"}, "type": "electric_scooter", "name": "4b3e5f9804f8689370ef9a1c32d15706", "is_reserved": 0, "lon": -77.03655216666667, "is_disabled": 0, "fusion_lat": 0.0, "lat": 38.921212833333335, "bike_id": "4b3e5f9804f8689370ef9a1c32d15706", "fusion_lon": 0.0}, {"rental_uris": {"ios": "https://dc.lft.to/lastmile_qr_scan", "android": "https://dc.lft.to/lastmile_qr_scan"}, "type": "electric_scooter", "name": "b2acda1977574ff97872de19064e93c3", "is_reserved": 0, "lon": -77.02533816666667, "is_disabled": 0, "fusion_lat": 0.0, "lat": 38.945334833333334, "bike_id": "b2acda1977574ff97872de19064e93c3", "fusion_lon": 0.0}, {"rental_uris": {"ios": "https://dc.lft.to/lastmile_qr_scan", "android": "https://dc.lft.to/lastmile_qr_scan"}, "type": "electric_scooter", "name": "d26f7638b728a2f614aa50ef455705f1", "is_reserved": 0, "lon": -77.04939816666666, "is_disabled": 0, "fusion_lat": 0.0, "lat": 38.909775333333336, "bike_id": "d26f7638b728a2f614aa50ef455705f1", "fusion_lon": 0.0}, {"rental_uris": {"ios": "https://dc.lft.to/lastmile_qr_scan", "android": "https://dc.lft.to/lastmile_qr_scan"}, "type": "electric_scooter", "name": "c70920300e5558cf7194c3b5eedbe4bf", "is_reserved": 0, "lon": -77.03843766666667, "is_disabled": 0, "fusion_lat": 0.0, "lat": 38.91654166666667, "bike_id": "c70920300e5558cf7194c3b5eedbe4bf", "fusion_lon": 0.0}, {"rental_uris": {"ios": "https://dc.lft.to/lastmile_qr_scan", "android": "https://dc.lft.to/lastmile_qr_scan"}, "type": "electric_scooter", "name": "e83c4f2f82b2e6329e745e8a8ae9b5b3", "is_reserved": 0, "lon": -76.93371966666666, "is_disabled": 0, "fusion_lat": 0.0, "lat": 38.89866816666667, "bike_id": "e83c4f2f82b2e6329e745e8a8ae9b5b3", "fusion_lon": 0.0}, {"rental_uris": {"ios": "https://dc.lft.to/lastmile_qr_scan", "android": "https://dc.lft.to/lastmile_qr_scan"}, "type": "electric_scooter", "name": "97db983b7427d45ba4986dc35c5541de", "is_reserved": 0, "lon": -77.03657383333334, "is_disabled": 0, "fusion_lat": 0.0, "lat": 38.932038166666665, "bike_id": "97db983b7427d45ba4986dc35c5541de", "fusion_lon": 0.0}, {"rental_uris": {"ios": "https://dc.lft.to/lastmile_qr_scan", "android": "https://dc.lft.to/lastmile_qr_scan"}, "type": "electric_bike", "name": "c691a04660214c3f1bef876a86df705c", "is_reserved": 0, "lon": -76.99444916666667, "is_disabled": 0, "fusion_lat": 0.0, "lat": 38.831025833333335, "bike_id": "c691a04660214c3f1bef876a86df705c", "fusion_lon": 0.0}, {"rental_uris": {"ios": "https://dc.lft.to/lastmile_qr_scan", "android": "https://dc.lft.to/lastmile_qr_scan"}, "type": "electric_scooter", "name": "875a5dc77866a62721b4c5fe463249fa", "is_reserved": 0, "lon": -77.03191583333333, "is_disabled": 0, "fusion_lat": 0.0, "lat": 38.91819866666667, "bike_id": "875a5dc77866a62721b4c5fe463249fa", "fusion_lon": 0.0}, {"rental_uris": {"ios": "https://dc.lft.to/lastmile_qr_scan", "android": "https://dc.lft.to/lastmile_qr_scan"}, "type": "electric_scooter", "name": "3e76feaf1e33f24f774dd3cd05296aba", "is_reserved": 0, "lon": -76.9889235, "is_disabled": 0, "fusion_lat": 0.0, "lat": 38.90653866666667, "bike_id": "3e76feaf1e33f24f774dd3cd05296aba", "fusion_lon": 0.0}, {"rental_uris": {"ios": "https://dc.lft.to/lastmile_qr_scan", "android": "https://dc.lft.to/lastmile_qr_scan"}, "type": "electric_scooter", "name": "7281bbf367069256e80c9a5e0fe57a0b", "is_reserved": 0, "lon": -77.00240116666667, "is_disabled": 0, "fusion_lat": 0.0, "lat": 38.90028083333333, "bike_id": "7281bbf367069256e80c9a5e0fe57a0b", "fusion_lon": 0.0}, {"rental_uris": {"ios": "https://dc.lft.to/lastmile_qr_scan", "android": "https://dc.lft.to/lastmile_qr_scan"}, "type": "electric_scooter", "name": "dc86a466f4ce0fcab201b0cc175f357b", "is_reserved": 0, "lon": -77.02049616666666, "is_disabled": 0, "fusion_lat": 0.0, "lat": 38.929271666666665, "bike_id": "dc86a466f4ce0fcab201b0cc175f357b", "fusion_lon": 0.0}, {"rental_uris": {"ios": "https://dc.lft.to/lastmile_qr_scan", "android": "https://dc.lft.to/lastmile_qr_scan"}, "type": "electric_scooter", "name": "8cf20c0f2c8d56eff2c2fb87c26eb00c", "is_reserved": 0, "lon": -77.048602, "is_disabled": 0, "fusion_lat": 0.0, "lat": 38.9126065, "bike_id": "8cf20c0f2c8d56eff2c2fb87c26eb00c", "fusion_lon": 0.0}, {"rental_uris": {"ios": "https://dc.lft.to/lastmile_qr_scan", "android": "https://dc.lft.to/lastmile_qr_scan"}, "type": "electric_scooter", "name": "ec78ed66da05139559daf692671f2d6f", "is_reserved": 0, "lon": -77.0346605, "is_disabled": 0, "fusion_lat": 0.0, "lat": 38.912677, "bike_id": "ec78ed66da05139559daf692671f2d6f", "fusion_lon": 0.0}, {"rental_uris": {"ios": "https://dc.lft.to/lastmile_qr_scan", "android": "https://dc.lft.to/lastmile_qr_scan"}, "type": "electric_scooter", "name": "28a00391627ed151bfbc374373854da7", "is_reserved": 0, "lon": -77.0298115, "is_disabled": 0, "fusion_lat": 0.0, "lat": 38.9242555, "bike_id": "28a00391627ed151bfbc374373854da7", "fusion_lon": 0.0}, {"rental_uris": {"ios": "https://dc.lft.to/lastmile_qr_scan", "android": "https://dc.lft.to/lastmile_qr_scan"}, "type": "electric_scooter", "name": "0ec7c6d261b786af93e3d4f1b6e25da7", "is_reserved": 0, "lon": -77.02112516666666, "is_disabled": 0, "fusion_lat": 0.0, "lat": 38.914184, "bike_id": "0ec7c6d261b786af93e3d4f1b6e25da7", "fusion_lon": 0.0}, {"rental_uris": {"ios": "https://dc.lft.to/lastmile_qr_scan", "android": "https://dc.lft.to/lastmile_qr_scan"}, "type": "electric_bike", "name": "67ea50cfeba13e9bf6374c4214c788ad", "is_reserved": 0, "lon": -77.07659316666667, "is_disabled": 0, "fusion_lat": 0.0, "lat": 38.888535166666664, "bike_id": "67ea50cfeba13e9bf6374c4214c788ad", "fusion_lon": 0.0}, {"rental_uris": {"ios": "https://dc.lft.to/lastmile_qr_scan", "android": "https://dc.lft.to/lastmile_qr_scan"}, "type": "electric_scooter", "name": "47dca0e29339ac97f7b5a6f0bc8b4fd5", "is_reserved": 0, "lon": -77.01866183333334, "is_disabled": 0, "fusion_lat": 0.0, "lat": 38.95150316666667, "bike_id": "47dca0e29339ac97f7b5a6f0bc8b4fd5", "fusion_lon": 0.0}, {"rental_uris": {"ios": "https://dc.lft.to/lastmile_qr_scan", "android": "https://dc.lft.to/lastmile_qr_scan"}, "type": "electric_scooter", "name": "52a87f58522c674f189623231c275faa", "is_reserved": 0, "lon": -77.04133383333334, "is_disabled": 0, "fusion_lat": 0.0, "lat": 38.9140325, "bike_id": "52a87f58522c674f189623231c275faa", "fusion_lon": 0.0}, {"rental_uris": {"ios": "https://dc.lft.to/lastmile_qr_scan", "android": "https://dc.lft.to/lastmile_qr_scan"}, "type": "electric_scooter", "name": "13b8876b10291784bd86feaf01fb2d38", "is_reserved": 0, "lon": -76.99044716666667, "is_disabled": 0, "fusion_lat": 0.0, "lat": 38.92475816666666, "bike_id": "13b8876b10291784bd86feaf01fb2d38", "fusion_lon": 0.0}, {"rental_uris": {"ios": "https://dc.lft.to/lastmile_qr_scan", "android": "https://dc.lft.to/lastmile_qr_scan"}, "type": "electric_scooter", "name": "1501144d4ea7dfb160590a794defd3fb", "is_reserved": 0, "lon": -77.02826516666667, "is_disabled": 0, "fusion_lat": 0.0, "lat": 38.911192166666666, "bike_id": "1501144d4ea7dfb160590a794defd3fb", "fusion_lon": 0.0}, {"rental_uris": {"ios": "https://dc.lft.to/lastmile_qr_scan", "android": "https://dc.lft.to/lastmile_qr_scan"}, "type": "electric_scooter", "name": "b49666d852ea63dac0bc9b7eabb17fac", "is_reserved": 0, "lon": -77.01087066666666, "is_disabled": 0, "fusion_lat": 0.0, "lat": 38.9111655, "bike_id": "b49666d852ea63dac0bc9b7eabb17fac", "fusion_lon": 0.0}, {"rental_uris": {"ios": "https://dc.lft.to/lastmile_qr_scan", "android": "https://dc.lft.to/lastmile_qr_scan"}, "type": "electric_bike", "name": "c75a35120bec551ce74efb17004f9aa6", "is_reserved": 0, "lon": -77.00412066666667, "is_disabled": 0, "fusion_lat": 0.0, "lat": 38.98525333333333, "bike_id": "c75a35120bec551ce74efb17004f9aa6", "fusion_lon": 0.0}, {"rental_uris": {"ios": "https://dc.lft.to/lastmile_qr_scan", "android": "https://dc.lft.to/lastmile_qr_scan"}, "type": "electric_scooter", "name": "fac009f9105a1fb5e24e6eaa88102293", "is_reserved": 0, "lon": -77.05724716666667, "is_disabled": 0, "fusion_lat": 0.0, "lat": 38.93353533333333, "bike_id": "fac009f9105a1fb5e24e6eaa88102293", "fusion_lon": 0.0}, {"rental_uris": {"ios": "https://dc.lft.to/lastmile_qr_scan", "android": "https://dc.lft.to/lastmile_qr_scan"}, "type": "electric_scooter", "name": "a187f83de9f61ce23bd511298466ee26", "is_reserved": 0, "lon": -77.04373916666667, "is_disabled": 0, "fusion_lat": 0.0, "lat": 38.934949333333336, "bike_id": "a187f83de9f61ce23bd511298466ee26", "fusion_lon": 0.0}, {"rental_uris": {"ios": "https://dc.lft.to/lastmile_qr_scan", "android": "https://dc.lft.to/lastmile_qr_scan"}, "type": "electric_scooter", "name": "16a522a32061c257d663011bddceff46", "is_reserved": 0, "lon": -77.032956, "is_disabled": 0, "fusion_lat": 0.0, "lat": 38.91706466666667, "bike_id": "16a522a32061c257d663011bddceff46", "fusion_lon": 0.0}, {"rental_uris": {"ios": "https://dc.lft.to/lastmile_qr_scan", "android": "https://dc.lft.to/lastmile_qr_scan"}, "type": "electric_scooter", "name": "56822d2ca17843af2cf0b7e94278eea2", "is_reserved": 0, "lon": -77.04912583333333, "is_disabled": 0, "fusion_lat": 0.0, "lat": 38.9008825, "bike_id": "56822d2ca17843af2cf0b7e94278eea2", "fusion_lon": 0.0}, {"rental_uris": {"ios": "https://dc.lft.to/lastmile_qr_scan", "android": "https://dc.lft.to/lastmile_qr_scan"}, "type": "electric_scooter", "name": "03c80becc5eb52b8c9c0a8a85a02c388", "is_reserved": 0, "lon": -77.00589533333333, "is_disabled": 0, "fusion_lat": 0.0, "lat": 38.90572066666667, "bike_id": "03c80becc5eb52b8c9c0a8a85a02c388", "fusion_lon": 0.0}, {"rental_uris": {"ios": "https://dc.lft.to/lastmile_qr_scan", "android": "https://dc.lft.to/lastmile_qr_scan"}, "type": "electric_bike", "name": "d8b6278019aac3b8baaeb4e56afc6bd9", "is_reserved": 0, "lon": -76.99915033333333, "is_disabled": 0, "fusion_lat": 0.0, "lat": 38.864463666666666, "bike_id": "d8b6278019aac3b8baaeb4e56afc6bd9", "fusion_lon": 0.0}, {"rental_uris": {"ios": "https://dc.lft.to/lastmile_qr_scan", "android": "https://dc.lft.to/lastmile_qr_scan"}, "type": "electric_scooter", "name": "f98ab91187193fe8917a1b0c02e692b0", "is_reserved": 0, "lon": -77.02102066666667, "is_disabled": 0, "fusion_lat": 0.0, "lat": 38.9431015, "bike_id": "f98ab91187193fe8917a1b0c02e692b0", "fusion_lon": 0.0}, {"rental_uris": {"ios": "https://dc.lft.to/lastmile_qr_scan", "android": "https://dc.lft.to/lastmile_qr_scan"}, "type": "electric_scooter", "name": "dac3a83df08bf069c19d574aab3bb9fc", "is_reserved": 0, "lon": -77.05935933333333, "is_disabled": 0, "fusion_lat": 0.0, "lat": 38.90502433333333, "bike_id": "dac3a83df08bf069c19d574aab3bb9fc", "fusion_lon": 0.0}, {"rental_uris": {"ios": "https://dc.lft.to/lastmile_qr_scan", "android": "https://dc.lft.to/lastmile_qr_scan"}, "type": "electric_scooter", "name": "e544467261cb8efd9a907e8855fe3335", "is_reserved": 0, "lon": -77.02005716666666, "is_disabled": 0, "fusion_lat": 0.0, "lat": 38.88134383333333, "bike_id": "e544467261cb8efd9a907e8855fe3335", "fusion_lon": 0.0}, {"rental_uris": {"ios": "https://dc.lft.to/lastmile_qr_scan", "android": "https://dc.lft.to/lastmile_qr_scan"}, "type": "electric_scooter", "name": "b7496ec32b41a5d4581ac428cec36b60", "is_reserved": 0, "lon": -77.03646516666667, "is_disabled": 0, "fusion_lat": 0.0, "lat": 38.910489166666665, "bike_id": "b7496ec32b41a5d4581ac428cec36b60", "fusion_lon": 0.0}, {"rental_uris": {"ios": "https://dc.lft.to/lastmile_qr_scan", "android": "https://dc.lft.to/lastmile_qr_scan"}, "type": "electric_scooter", "name": "01aaad063d50db40b0162fd11fe94d01", "is_reserved": 0, "lon": -77.04225716666667, "is_disabled": 0, "fusion_lat": 0.0, "lat": 38.9110585, "bike_id": "01aaad063d50db40b0162fd11fe94d01", "fusion_lon": 0.0}, {"rental_uris": {"ios": "https://dc.lft.to/lastmile_qr_scan", "android": "https://dc.lft.to/lastmile_qr_scan"}, "type": "electric_scooter", "name": "b8c602fcb1b267ec736ac13eeb4ec83e", "is_reserved": 0, "lon": -77.00383233333334, "is_disabled": 0, "fusion_lat": 0.0, "lat": 38.879274333333335, "bike_id": "b8c602fcb1b267ec736ac13eeb4ec83e", "fusion_lon": 0.0}, {"rental_uris": {"ios": "https://dc.lft.to/lastmile_qr_scan", "android": "https://dc.lft.to/lastmile_qr_scan"}, "type": "electric_scooter", "name": "21e1c6409b56309d277605c78904c07d", "is_reserved": 0, "lon": -76.99410733333333, "is_disabled": 0, "fusion_lat": 0.0, "lat": 38.87782816666667, "bike_id": "21e1c6409b56309d277605c78904c07d", "fusion_lon": 0.0}, {"rental_uris": {"ios": "https://dc.lft.to/lastmile_qr_scan", "android": "https://dc.lft.to/lastmile_qr_scan"}, "type": "electric_scooter", "name": "9c4b8cb6fc34f19f095802572c9c477d", "is_reserved": 0, "lon": -77.0347005, "is_disabled": 0, "fusion_lat": 0.0, "lat": 38.93021816666667, "bike_id": "9c4b8cb6fc34f19f095802572c9c477d", "fusion_lon": 0.0}, {"rental_uris": {"ios": "https://dc.lft.to/lastmile_qr_scan", "android": "https://dc.lft.to/lastmile_qr_scan"}, "type": "electric_bike", "name": "8907d5cdb172588cb1382281e61eae3a", "is_reserved": 0, "lon": -76.90301566666666, "is_disabled": 0, "fusion_lat": 0.0, "lat": 39.002912333333335, "bike_id": "8907d5cdb172588cb1382281e61eae3a", "fusion_lon": 0.0}, {"rental_uris": {"ios": "https://dc.lft.to/lastmile_qr_scan", "android": "https://dc.lft.to/lastmile_qr_scan"}, "type": "electric_scooter", "name": "568faf7f6653bebef6846cf753064138", "is_reserved": 0, "lon": -77.02886516666666, "is_disabled": 0, "fusion_lat": 0.0, "lat": 38.9073095, "bike_id": "568faf7f6653bebef6846cf753064138", "fusion_lon": 0.0}, {"rental_uris": {"ios": "https://dc.lft.to/lastmile_qr_scan", "android": "https://dc.lft.to/lastmile_qr_scan"}, "type": "electric_scooter", "name": "4f514d2ceebc621a8eeca6464d55a4cb", "is_reserved": 0, "lon": -77.03510333333334, "is_disabled": 0, "fusion_lat": 0.0, "lat": 38.92217083333333, "bike_id": "4f514d2ceebc621a8eeca6464d55a4cb", "fusion_lon": 0.0}, {"rental_uris": {"ios": "https://dc.lft.to/lastmile_qr_scan", "android": "https://dc.lft.to/lastmile_qr_scan"}, "type": "electric_scooter", "name": "f056cd4050aa7d6c509c1a3f978fbc22", "is_reserved": 0, "lon": -77.00871416666666, "is_disabled": 0, "fusion_lat": 0.0, "lat": 38.912465, "bike_id": "f056cd4050aa7d6c509c1a3f978fbc22", "fusion_lon": 0.0}, {"rental_uris": {"ios": "https://dc.lft.to/lastmile_qr_scan", "android": "https://dc.lft.to/lastmile_qr_scan"}, "type": "electric_scooter", "name": "2af928c9a7ced812179498d481e71f28", "is_reserved": 0, "lon": -76.9984125, "is_disabled": 0, "fusion_lat": 0.0, "lat": 38.902967833333335, "bike_id": "2af928c9a7ced812179498d481e71f28", "fusion_lon": 0.0}, {"rental_uris": {"ios": "https://dc.lft.to/lastmile_qr_scan", "android": "https://dc.lft.to/lastmile_qr_scan"}, "type": "electric_scooter", "name": "95a60fe876e5cb0ab18ea048d233ef22", "is_reserved": 0, "lon": -77.05059216666666, "is_disabled": 0, "fusion_lat": 0.0, "lat": 38.923535333333334, "bike_id": "95a60fe876e5cb0ab18ea048d233ef22", "fusion_lon": 0.0}, {"rental_uris": {"ios": "https://dc.lft.to/lastmile_qr_scan", "android": "https://dc.lft.to/lastmile_qr_scan"}, "type": "electric_scooter", "name": "321ff9549322295a2c42fe767451457b", "is_reserved": 0, "lon": -77.037223, "is_disabled": 0, "fusion_lat": 0.0, "lat": 38.926437166666666, "bike_id": "321ff9549322295a2c42fe767451457b", "fusion_lon": 0.0}, {"rental_uris": {"ios": "https://dc.lft.to/lastmile_qr_scan", "android": "https://dc.lft.to/lastmile_qr_scan"}, "type": "electric_scooter", "name": "1548b8962b8d96925173f5c12e9d7144", "is_reserved": 0, "lon": -77.005352, "is_disabled": 0, "fusion_lat": 0.0, "lat": 38.9091565, "bike_id": "1548b8962b8d96925173f5c12e9d7144", "fusion_lon": 0.0}, {"rental_uris": {"ios": "https://dc.lft.to/lastmile_qr_scan", "android": "https://dc.lft.to/lastmile_qr_scan"}, "type": "electric_scooter", "name": "526fef620809f77c22b5a7ac5600c052", "is_reserved": 0, "lon": -77.0191545, "is_disabled": 0, "fusion_lat": 0.0, "lat": 38.9055835, "bike_id": "526fef620809f77c22b5a7ac5600c052", "fusion_lon": 0.0}, {"rental_uris": {"ios": "https://dc.lft.to/lastmile_qr_scan", "android": "https://dc.lft.to/lastmile_qr_scan"}, "type": "electric_bike", "name": "7ad994179d1787b87d6f95fe7db0a08a", "is_reserved": 0, "lon": -77.22190866666666, "is_disabled": 0, "fusion_lat": 0.0, "lat": 38.871724666666665, "bike_id": "7ad994179d1787b87d6f95fe7db0a08a", "fusion_lon": 0.0}, {"rental_uris": {"ios": "https://dc.lft.to/lastmile_qr_scan", "android": "https://dc.lft.to/lastmile_qr_scan"}, "type": "electric_scooter", "name": "8239faff88f8ddf88f9cc05d2adf0ef0", "is_reserved": 0, "lon": -77.00682483333334, "is_disabled": 0, "fusion_lat": 0.0, "lat": 38.9051535, "bike_id": "8239faff88f8ddf88f9cc05d2adf0ef0", "fusion_lon": 0.0}, {"rental_uris": {"ios": "https://dc.lft.to/lastmile_qr_scan", "android": "https://dc.lft.to/lastmile_qr_scan"}, "type": "electric_scooter", "name": "0df1d9f1d1aa44ba46c10bee43f24215", "is_reserved": 0, "lon": -77.0417125, "is_disabled": 0, "fusion_lat": 0.0, "lat": 38.91828483333333, "bike_id": "0df1d9f1d1aa44ba46c10bee43f24215", "fusion_lon": 0.0}, {"rental_uris": {"ios": "https://dc.lft.to/lastmile_qr_scan", "android": "https://dc.lft.to/lastmile_qr_scan"}, "type": "electric_scooter", "name": "53c07b4f4c12f61382c09aaac6ff9108", "is_reserved": 0, "lon": -77.02555666666666, "is_disabled": 0, "fusion_lat": 0.0, "lat": 38.92033333333333, "bike_id": "53c07b4f4c12f61382c09aaac6ff9108", "fusion_lon": 0.0}, {"rental_uris": {"ios": "https://dc.lft.to/lastmile_qr_scan", "android": "https://dc.lft.to/lastmile_qr_scan"}, "type": "electric_scooter", "name": "b34e30dd884f88ee2b51ff56a49995b3", "is_reserved": 0, "lon": -77.009306, "is_disabled": 0, "fusion_lat": 0.0, "lat": 38.8711755, "bike_id": "b34e30dd884f88ee2b51ff56a49995b3", "fusion_lon": 0.0}, {"rental_uris": {"ios": "https://dc.lft.to/lastmile_qr_scan", "android": "https://dc.lft.to/lastmile_qr_scan"}, "type": "electric_scooter", "name": "409565c1a3ad736161959593e86bc23c", "is_reserved": 0, "lon": -77.00249733333334, "is_disabled": 0, "fusion_lat": 0.0, "lat": 38.91250733333333, "bike_id": "409565c1a3ad736161959593e86bc23c", "fusion_lon": 0.0}, {"rental_uris": {"ios": "https://dc.lft.to/lastmile_qr_scan", "android": "https://dc.lft.to/lastmile_qr_scan"}, "type": "electric_scooter", "name": "7529fe1572e1fcf85e57b4f1e74e2f96", "is_reserved": 0, "lon": -77.01865716666667, "is_disabled": 0, "fusion_lat": 0.0, "lat": 38.877284, "bike_id": "7529fe1572e1fcf85e57b4f1e74e2f96", "fusion_lon": 0.0}, {"rental_uris": {"ios": "https://dc.lft.to/lastmile_qr_scan", "android": "https://dc.lft.to/lastmile_qr_scan"}, "type": "electric_scooter", "name": "8369a6acda0e710a0977e7dfd96c8a07", "is_reserved": 0, "lon": -77.051173, "is_disabled": 0, "fusion_lat": 0.0, "lat": 38.8973315, "bike_id": "8369a6acda0e710a0977e7dfd96c8a07", "fusion_lon": 0.0}, {"rental_uris": {"ios": "https://dc.lft.to/lastmile_qr_scan", "android": "https://dc.lft.to/lastmile_qr_scan"}, "type": "electric_bike", "name": "e98cf35fa14d0ec0c64315ccec7bd4f8", "is_reserved": 0, "lon": -76.9761515, "is_disabled": 0, "fusion_lat": 0.0, "lat": 38.892919, "bike_id": "e98cf35fa14d0ec0c64315ccec7bd4f8", "fusion_lon": 0.0}, {"rental_uris": {"ios": "https://dc.lft.to/lastmile_qr_scan", "android": "https://dc.lft.to/lastmile_qr_scan"}, "type": "electric_scooter", "name": "1d889997194272b8681a890ce40afe8a", "is_reserved": 0, "lon": -77.03624016666667, "is_disabled": 0, "fusion_lat": 0.0, "lat": 38.9265775, "bike_id": "1d889997194272b8681a890ce40afe8a", "fusion_lon": 0.0}, {"rental_uris": {"ios": "https://dc.lft.to/lastmile_qr_scan", "android": "https://dc.lft.to/lastmile_qr_scan"}, "type": "electric_scooter", "name": "2f83a3c78b4844c7bdf5a5dde46379ce", "is_reserved": 0, "lon": -77.01904266666666, "is_disabled": 0, "fusion_lat": 0.0, "lat": 38.9057085, "bike_id": "2f83a3c78b4844c7bdf5a5dde46379ce", "fusion_lon": 0.0}, {"rental_uris": {"ios": "https://dc.lft.to/lastmile_qr_scan", "android": "https://dc.lft.to/lastmile_qr_scan"}, "type": "electric_scooter", "name": "2a9975168d88f543e8358581ea8257c4", "is_reserved": 0, "lon": -77.05742, "is_disabled": 0, "fusion_lat": 0.0, "lat": 38.9303395, "bike_id": "2a9975168d88f543e8358581ea8257c4", "fusion_lon": 0.0}, {"rental_uris": {"ios": "https://dc.lft.to/lastmile_qr_scan", "android": "https://dc.lft.to/lastmile_qr_scan"}, "type": "electric_bike", "name": "9aa6b6839a79ff127309d8c636677402", "is_reserved": 0, "lon": -77.09617216666666, "is_disabled": 0, "fusion_lat": 0.0, "lat": 38.97436183333333, "bike_id": "9aa6b6839a79ff127309d8c636677402", "fusion_lon": 0.0}, {"rental_uris": {"ios": "https://dc.lft.to/lastmile_qr_scan", "android": "https://dc.lft.to/lastmile_qr_scan"}, "type": "electric_scooter", "name": "b43213b0d6ce63847cabffbca1e84365", "is_reserved": 0, "lon": -77.04022033333334, "is_disabled": 0, "fusion_lat": 0.0, "lat": 38.9225095, "bike_id": "b43213b0d6ce63847cabffbca1e84365", "fusion_lon": 0.0}, {"rental_uris": {"ios": "https://dc.lft.to/lastmile_qr_scan", "android": "https://dc.lft.to/lastmile_qr_scan"}, "type": "electric_scooter", "name": "77f24b453ce578b0610cc1c9bf15248a", "is_reserved": 0, "lon": -77.00957133333333, "is_disabled": 0, "fusion_lat": 0.0, "lat": 38.87459, "bike_id": "77f24b453ce578b0610cc1c9bf15248a", "fusion_lon": 0.0}, {"rental_uris": {"ios": "https://dc.lft.to/lastmile_qr_scan", "android": "https://dc.lft.to/lastmile_qr_scan"}, "type": "electric_scooter", "name": "17d55150016c093b39ed6fe9090fa1b3", "is_reserved": 0, "lon": -77.00494766666667, "is_disabled": 0, "fusion_lat": 0.0, "lat": 38.878467666666666, "bike_id": "17d55150016c093b39ed6fe9090fa1b3", "fusion_lon": 0.0}, {"rental_uris": {"ios": "https://dc.lft.to/lastmile_qr_scan", "android": "https://dc.lft.to/lastmile_qr_scan"}, "type": "electric_bike", "name": "2d0ca4d3f308834dfc7b74b51b6cd04b", "is_reserved": 0, "lon": -77.02341066666666, "is_disabled": 0, "fusion_lat": 0.0, "lat": 38.91965733333333, "bike_id": "2d0ca4d3f308834dfc7b74b51b6cd04b", "fusion_lon": 0.0}, {"rental_uris": {"ios": "https://dc.lft.to/lastmile_qr_scan", "android": "https://dc.lft.to/lastmile_qr_scan"}, "type": "electric_scooter", "name": "eebdff5cece0a11b8fee770d13b22006", "is_reserved": 0, "lon": -77.07844733333333, "is_disabled": 0, "fusion_lat": 0.0, "lat": 38.931575333333335, "bike_id": "eebdff5cece0a11b8fee770d13b22006", "fusion_lon": 0.0}, {"rental_uris": {"ios": "https://dc.lft.to/lastmile_qr_scan", "android": "https://dc.lft.to/lastmile_qr_scan"}, "type": "electric_scooter", "name": "e453e1ddf6e4e5b7f1de70114d62f16a", "is_reserved": 0, "lon": -77.0297735, "is_disabled": 0, "fusion_lat": 0.0, "lat": 38.9236235, "bike_id": "e453e1ddf6e4e5b7f1de70114d62f16a", "fusion_lon": 0.0}, {"rental_uris": {"ios": "https://dc.lft.to/lastmile_qr_scan", "android": "https://dc.lft.to/lastmile_qr_scan"}, "type": "electric_bike", "name": "07e6e456c6cf35d058721d758b7d1f5d", "is_reserved": 0, "lon": -76.96260583333333, "is_disabled": 0, "fusion_lat": 0.0, "lat": 38.88245916666666, "bike_id": "07e6e456c6cf35d058721d758b7d1f5d", "fusion_lon": 0.0}, {"rental_uris": {"ios": "https://dc.lft.to/lastmile_qr_scan", "android": "https://dc.lft.to/lastmile_qr_scan"}, "type": "electric_scooter", "name": "944f662fedfa30adc33c0195d7aad5e3", "is_reserved": 0, "lon": -77.06173, "is_disabled": 0, "fusion_lat": 0.0, "lat": 38.902742, "bike_id": "944f662fedfa30adc33c0195d7aad5e3", "fusion_lon": 0.0}, {"rental_uris": {"ios": "https://dc.lft.to/lastmile_qr_scan", "android": "https://dc.lft.to/lastmile_qr_scan"}, "type": "electric_scooter", "name": "13e1ebf31ed4fe441aedc272fcf3b0d9", "is_reserved": 0, "lon": -76.97718783333333, "is_disabled": 0, "fusion_lat": 0.0, "lat": 38.888216666666665, "bike_id": "13e1ebf31ed4fe441aedc272fcf3b0d9", "fusion_lon": 0.0}, {"rental_uris": {"ios": "https://dc.lft.to/lastmile_qr_scan", "android": "https://dc.lft.to/lastmile_qr_scan"}, "type": "electric_scooter", "name": "a775467ead3d88544ec1b3a6911ffac4", "is_reserved": 0, "lon": -76.9974785, "is_disabled": 0, "fusion_lat": 0.0, "lat": 38.88506116666667, "bike_id": "a775467ead3d88544ec1b3a6911ffac4", "fusion_lon": 0.0}, {"rental_uris": {"ios": "https://dc.lft.to/lastmile_qr_scan", "android": "https://dc.lft.to/lastmile_qr_scan"}, "type": "electric_scooter", "name": "9a68e908cd88076c4c084f09ef32ffff", "is_reserved": 0, "lon": -77.034209, "is_disabled": 0, "fusion_lat": 0.0, "lat": 38.92740533333333, "bike_id": "9a68e908cd88076c4c084f09ef32ffff", "fusion_lon": 0.0}, {"rental_uris": {"ios": "https://dc.lft.to/lastmile_qr_scan", "android": "https://dc.lft.to/lastmile_qr_scan"}, "type": "electric_scooter", "name": "1b68dfc898043fe669ddec6a9f93fd94", "is_reserved": 0, "lon": -77.02813633333334, "is_disabled": 0, "fusion_lat": 0.0, "lat": 38.909172, "bike_id": "1b68dfc898043fe669ddec6a9f93fd94", "fusion_lon": 0.0}, {"rental_uris": {"ios": "https://dc.lft.to/lastmile_qr_scan", "android": "https://dc.lft.to/lastmile_qr_scan"}, "type": "electric_scooter", "name": "1c0abbdae9b20ec4c45c73410029ccb8", "is_reserved": 0, "lon": -77.04345916666666, "is_disabled": 0, "fusion_lat": 0.0, "lat": 38.907340833333336, "bike_id": "1c0abbdae9b20ec4c45c73410029ccb8", "fusion_lon": 0.0}, {"rental_uris": {"ios": "https://dc.lft.to/lastmile_qr_scan", "android": "https://dc.lft.to/lastmile_qr_scan"}, "type": "electric_scooter", "name": "7af75f671e175ff012fa3d3d1b83185a", "is_reserved": 0, "lon": -77.038774, "is_disabled": 0, "fusion_lat": 0.0, "lat": 38.9155995, "bike_id": "7af75f671e175ff012fa3d3d1b83185a", "fusion_lon": 0.0}, {"rental_uris": {"ios": "https://dc.lft.to/lastmile_qr_scan", "android": "https://dc.lft.to/lastmile_qr_scan"}, "type": "electric_scooter", "name": "22877268e91cb04df49d64dfdc3d7e18", "is_reserved": 0, "lon": -77.06521966666666, "is_disabled": 0, "fusion_lat": 0.0, "lat": 38.911129, "bike_id": "22877268e91cb04df49d64dfdc3d7e18", "fusion_lon": 0.0}, {"rental_uris": {"ios": "https://dc.lft.to/lastmile_qr_scan", "android": "https://dc.lft.to/lastmile_qr_scan"}, "type": "electric_scooter", "name": "5a8d934527d1dcfe0af843fa03fe2121", "is_reserved": 0, "lon": -77.034719, "is_disabled": 0, "fusion_lat": 0.0, "lat": 38.9028015, "bike_id": "5a8d934527d1dcfe0af843fa03fe2121", "fusion_lon": 0.0}, {"rental_uris": {"ios": "https://dc.lft.to/lastmile_qr_scan", "android": "https://dc.lft.to/lastmile_qr_scan"}, "type": "electric_scooter", "name": "69746b90719fb4f8e37c78aaa12015c9", "is_reserved": 0, "lon": -77.0429095, "is_disabled": 0, "fusion_lat": 0.0, "lat": 38.906471833333335, "bike_id": "69746b90719fb4f8e37c78aaa12015c9", "fusion_lon": 0.0}, {"rental_uris": {"ios": "https://dc.lft.to/lastmile_qr_scan", "android": "https://dc.lft.to/lastmile_qr_scan"}, "type": "electric_bike", "name": "a7aaa01fbbd6eb3e6bbfb8430af97a0c", "is_reserved": 0, "lon": -76.96155483333334, "is_disabled": 0, "fusion_lat": 0.0, "lat": 38.856177, "bike_id": "a7aaa01fbbd6eb3e6bbfb8430af97a0c", "fusion_lon": 0.0}, {"rental_uris": {"ios": "https://dc.lft.to/lastmile_qr_scan", "android": "https://dc.lft.to/lastmile_qr_scan"}, "type": "electric_scooter", "name": "8bca405830355c1200a1348b41e1b798", "is_reserved": 0, "lon": -77.04099833333333, "is_disabled": 0, "fusion_lat": 0.0, "lat": 38.9253115, "bike_id": "8bca405830355c1200a1348b41e1b798", "fusion_lon": 0.0}, {"rental_uris": {"ios": "https://dc.lft.to/lastmile_qr_scan", "android": "https://dc.lft.to/lastmile_qr_scan"}, "type": "electric_scooter", "name": "1a36e7b3a08af5564067dad156eca854", "is_reserved": 0, "lon": -77.04338016666667, "is_disabled": 0, "fusion_lat": 0.0, "lat": 38.922290333333336, "bike_id": "1a36e7b3a08af5564067dad156eca854", "fusion_lon": 0.0}, {"rental_uris": {"ios": "https://dc.lft.to/lastmile_qr_scan", "android": "https://dc.lft.to/lastmile_qr_scan"}, "type": "electric_scooter", "name": "4be9616ccf686c4e3852158be4b5b84e", "is_reserved": 0, "lon": -77.02223333333333, "is_disabled": 0, "fusion_lat": 0.0, "lat": 38.9207505, "bike_id": "4be9616ccf686c4e3852158be4b5b84e", "fusion_lon": 0.0}, {"rental_uris": {"ios": "https://dc.lft.to/lastmile_qr_scan", "android": "https://dc.lft.to/lastmile_qr_scan"}, "type": "electric_scooter", "name": "af73fca0ee0663060b7f30dd9f4da04d", "is_reserved": 0, "lon": -77.01844533333333, "is_disabled": 0, "fusion_lat": 0.0, "lat": 38.89953533333333, "bike_id": "af73fca0ee0663060b7f30dd9f4da04d", "fusion_lon": 0.0}, {"rental_uris": {"ios": "https://dc.lft.to/lastmile_qr_scan", "android": "https://dc.lft.to/lastmile_qr_scan"}, "type": "electric_scooter", "name": "ef93d637f8ead082118082682fe5d5d1", "is_reserved": 0, "lon": -77.02566783333333, "is_disabled": 0, "fusion_lat": 0.0, "lat": 38.92573183333333, "bike_id": "ef93d637f8ead082118082682fe5d5d1", "fusion_lon": 0.0}, {"rental_uris": {"ios": "https://dc.lft.to/lastmile_qr_scan", "android": "https://dc.lft.to/lastmile_qr_scan"}, "type": "electric_scooter", "name": "eab5859d10b2c58e5e186b6b13533804", "is_reserved": 0, "lon": -77.03060533333333, "is_disabled": 0, "fusion_lat": 0.0, "lat": 38.9266365, "bike_id": "eab5859d10b2c58e5e186b6b13533804", "fusion_lon": 0.0}, {"rental_uris": {"ios": "https://dc.lft.to/lastmile_qr_scan", "android": "https://dc.lft.to/lastmile_qr_scan"}, "type": "electric_scooter", "name": "b405fee0f0f0c370e230f92c9a6d1230", "is_reserved": 0, "lon": -77.0422035, "is_disabled": 0, "fusion_lat": 0.0, "lat": 38.92140283333333, "bike_id": "b405fee0f0f0c370e230f92c9a6d1230", "fusion_lon": 0.0}, {"rental_uris": {"ios": "https://dc.lft.to/lastmile_qr_scan", "android": "https://dc.lft.to/lastmile_qr_scan"}, "type": "electric_scooter", "name": "0df935fd8f08ad67f2177e4385183095", "is_reserved": 0, "lon": -77.03751066666666, "is_disabled": 0, "fusion_lat": 0.0, "lat": 38.929013, "bike_id": "0df935fd8f08ad67f2177e4385183095", "fusion_lon": 0.0}, {"rental_uris": {"ios": "https://dc.lft.to/lastmile_qr_scan", "android": "https://dc.lft.to/lastmile_qr_scan"}, "type": "electric_scooter", "name": "0b77111fd5d791706a14ebf0a6ca05c2", "is_reserved": 0, "lon": -77.04854633333333, "is_disabled": 0, "fusion_lat": 0.0, "lat": 38.9055815, "bike_id": "0b77111fd5d791706a14ebf0a6ca05c2", "fusion_lon": 0.0}, {"rental_uris": {"ios": "https://dc.lft.to/lastmile_qr_scan", "android": "https://dc.lft.to/lastmile_qr_scan"}, "type": "electric_bike", "name": "2fa8c4eb2ec4ee06bb193d0a98b2fb8f", "is_reserved": 0, "lon": -76.99073516666667, "is_disabled": 0, "fusion_lat": 0.0, "lat": 38.83449183333333, "bike_id": "2fa8c4eb2ec4ee06bb193d0a98b2fb8f", "fusion_lon": 0.0}, {"rental_uris": {"ios": "https://dc.lft.to/lastmile_qr_scan", "android": "https://dc.lft.to/lastmile_qr_scan"}, "type": "electric_scooter", "name": "16c540794fa29b82f585e7dcd9f3de29", "is_reserved": 0, "lon": -77.0247285, "is_disabled": 0, "fusion_lat": 0.0, "lat": 38.90397133333333, "bike_id": "16c540794fa29b82f585e7dcd9f3de29", "fusion_lon": 0.0}, {"rental_uris": {"ios": "https://dc.lft.to/lastmile_qr_scan", "android": "https://dc.lft.to/lastmile_qr_scan"}, "type": "electric_bike", "name": "f6e9071afb991b08abc92fbbb4eefa2b", "is_reserved": 0, "lon": -77.1071805, "is_disabled": 0, "fusion_lat": 0.0, "lat": 38.85539333333333, "bike_id": "f6e9071afb991b08abc92fbbb4eefa2b", "fusion_lon": 0.0}, {"rental_uris": {"ios": "https://dc.lft.to/lastmile_qr_scan", "android": "https://dc.lft.to/lastmile_qr_scan"}, "type": "electric_scooter", "name": "4bf84fa1c2c76e378036944862d7301a", "is_reserved": 0, "lon": -77.03071233333333, "is_disabled": 0, "fusion_lat": 0.0, "lat": 38.92372916666667, "bike_id": "4bf84fa1c2c76e378036944862d7301a", "fusion_lon": 0.0}, {"rental_uris": {"ios": "https://dc.lft.to/lastmile_qr_scan", "android": "https://dc.lft.to/lastmile_qr_scan"}, "type": "electric_scooter", "name": "fe3b11883002e680966227d3cff635b0", "is_reserved": 0, "lon": -77.0218645, "is_disabled": 0, "fusion_lat": 0.0, "lat": 38.92916866666667, "bike_id": "fe3b11883002e680966227d3cff635b0", "fusion_lon": 0.0}, {"rental_uris": {"ios": "https://dc.lft.to/lastmile_qr_scan", "android": "https://dc.lft.to/lastmile_qr_scan"}, "type": "electric_scooter", "name": "f04ace4c477d97ef657bac5fbdc97636", "is_reserved": 0, "lon": -77.08778233333334, "is_disabled": 0, "fusion_lat": 0.0, "lat": 38.935580333333334, "bike_id": "f04ace4c477d97ef657bac5fbdc97636", "fusion_lon": 0.0}, {"rental_uris": {"ios": "https://dc.lft.to/lastmile_qr_scan", "android": "https://dc.lft.to/lastmile_qr_scan"}, "type": "electric_bike", "name": "97f661ca267d8f976f68d3c702f15d1d", "is_reserved": 0, "lon": -76.99364249999999, "is_disabled": 0, "fusion_lat": 0.0, "lat": 38.92732783333334, "bike_id": "97f661ca267d8f976f68d3c702f15d1d", "fusion_lon": 0.0}, {"rental_uris": {"ios": "https://dc.lft.to/lastmile_qr_scan", "android": "https://dc.lft.to/lastmile_qr_scan"}, "type": "electric_scooter", "name": "5ba0bc4ec70715334da697fd39a0ccfa", "is_reserved": 0, "lon": -77.06319316666666, "is_disabled": 0, "fusion_lat": 0.0, "lat": 38.913372333333335, "bike_id": "5ba0bc4ec70715334da697fd39a0ccfa", "fusion_lon": 0.0}, {"rental_uris": {"ios": "https://dc.lft.to/lastmile_qr_scan", "android": "https://dc.lft.to/lastmile_qr_scan"}, "type": "electric_scooter", "name": "6b0b26c0228fd60869e8bc93450f286c", "is_reserved": 0, "lon": -77.00208966666666, "is_disabled": 0, "fusion_lat": 0.0, "lat": 38.9004315, "bike_id": "6b0b26c0228fd60869e8bc93450f286c", "fusion_lon": 0.0}, {"rental_uris": {"ios": "https://dc.lft.to/lastmile_qr_scan", "android": "https://dc.lft.to/lastmile_qr_scan"}, "type": "electric_scooter", "name": "71336688296e762d21741e84a5a20981", "is_reserved": 0, "lon": -77.008258, "is_disabled": 0, "fusion_lat": 0.0, "lat": 38.91556666666666, "bike_id": "71336688296e762d21741e84a5a20981", "fusion_lon": 0.0}, {"rental_uris": {"ios": "https://dc.lft.to/lastmile_qr_scan", "android": "https://dc.lft.to/lastmile_qr_scan"}, "type": "electric_scooter", "name": "c67e09df0ee294e03a01cf09a1aa5311", "is_reserved": 0, "lon": -76.986913, "is_disabled": 0, "fusion_lat": 0.0, "lat": 38.90704066666667, "bike_id": "c67e09df0ee294e03a01cf09a1aa5311", "fusion_lon": 0.0}, {"rental_uris": {"ios": "https://dc.lft.to/lastmile_qr_scan", "android": "https://dc.lft.to/lastmile_qr_scan"}, "type": "electric_bike", "name": "dca66cde36a400edf08dd46bd1120151", "is_reserved": 0, "lon": -77.11289816666667, "is_disabled": 0, "fusion_lat": 0.0, "lat": 38.83104316666667, "bike_id": "dca66cde36a400edf08dd46bd1120151", "fusion_lon": 0.0}, {"rental_uris": {"ios": "https://dc.lft.to/lastmile_qr_scan", "android": "https://dc.lft.to/lastmile_qr_scan"}, "type": "electric_scooter", "name": "743e6a5b02d18b4e5e168e700042458a", "is_reserved": 0, "lon": -77.04015833333334, "is_disabled": 0, "fusion_lat": 0.0, "lat": 38.92164783333333, "bike_id": "743e6a5b02d18b4e5e168e700042458a", "fusion_lon": 0.0}, {"rental_uris": {"ios": "https://dc.lft.to/lastmile_qr_scan", "android": "https://dc.lft.to/lastmile_qr_scan"}, "type": "electric_scooter", "name": "a5ccbb5f6720262367ec773e64dfa747", "is_reserved": 0, "lon": -76.9935985, "is_disabled": 0, "fusion_lat": 0.0, "lat": 38.882684166666664, "bike_id": "a5ccbb5f6720262367ec773e64dfa747", "fusion_lon": 0.0}, {"rental_uris": {"ios": "https://dc.lft.to/lastmile_qr_scan", "android": "https://dc.lft.to/lastmile_qr_scan"}, "type": "electric_scooter", "name": "d4739511f71ece3b227b97898060af3b", "is_reserved": 0, "lon": -77.03133316666667, "is_disabled": 0, "fusion_lat": 0.0, "lat": 38.906258, "bike_id": "d4739511f71ece3b227b97898060af3b", "fusion_lon": 0.0}, {"rental_uris": {"ios": "https://dc.lft.to/lastmile_qr_scan", "android": "https://dc.lft.to/lastmile_qr_scan"}, "type": "electric_scooter", "name": "f1eb5f8b9d475bd2f4df440d38252cdd", "is_reserved": 0, "lon": -77.0314795, "is_disabled": 0, "fusion_lat": 0.0, "lat": 38.902431, "bike_id": "f1eb5f8b9d475bd2f4df440d38252cdd", "fusion_lon": 0.0}, {"rental_uris": {"ios": "https://dc.lft.to/lastmile_qr_scan", "android": "https://dc.lft.to/lastmile_qr_scan"}, "type": "electric_scooter", "name": "365ca14c4522281b1fe1bc564de3ee47", "is_reserved": 0, "lon": -77.0021105, "is_disabled": 0, "fusion_lat": 0.0, "lat": 38.90048816666667, "bike_id": "365ca14c4522281b1fe1bc564de3ee47", "fusion_lon": 0.0}, {"rental_uris": {"ios": "https://dc.lft.to/lastmile_qr_scan", "android": "https://dc.lft.to/lastmile_qr_scan"}, "type": "electric_bike", "name": "cc66392df59abffaeaa0022c109dba2c", "is_reserved": 0, "lon": -77.0513055, "is_disabled": 0, "fusion_lat": 0.0, "lat": 38.8592305, "bike_id": "cc66392df59abffaeaa0022c109dba2c", "fusion_lon": 0.0}, {"rental_uris": {"ios": "https://dc.lft.to/lastmile_qr_scan", "android": "https://dc.lft.to/lastmile_qr_scan"}, "type": "electric_scooter", "name": "8a80be3c184b47ff7cbfb4cf2b55f809", "is_reserved": 0, "lon": -77.04354766666667, "is_disabled": 0, "fusion_lat": 0.0, "lat": 38.9111735, "bike_id": "8a80be3c184b47ff7cbfb4cf2b55f809", "fusion_lon": 0.0}, {"rental_uris": {"ios": "https://dc.lft.to/lastmile_qr_scan", "android": "https://dc.lft.to/lastmile_qr_scan"}, "type": "electric_scooter", "name": "7b44e5bb5806327fd6982d86e862e4d5", "is_reserved": 0, "lon": -77.01629916666667, "is_disabled": 0, "fusion_lat": 0.0, "lat": 38.9036545, "bike_id": "7b44e5bb5806327fd6982d86e862e4d5", "fusion_lon": 0.0}, {"rental_uris": {"ios": "https://dc.lft.to/lastmile_qr_scan", "android": "https://dc.lft.to/lastmile_qr_scan"}, "type": "electric_scooter", "name": "86e2a16e062307d05be531be0156cdb7", "is_reserved": 0, "lon": -76.94719683333334, "is_disabled": 0, "fusion_lat": 0.0, "lat": 38.890824, "bike_id": "86e2a16e062307d05be531be0156cdb7", "fusion_lon": 0.0}, {"rental_uris": {"ios": "https://dc.lft.to/lastmile_qr_scan", "android": "https://dc.lft.to/lastmile_qr_scan"}, "type": "electric_bike", "name": "675c86cfe267faa16125e609c9b39634", "is_reserved": 0, "lon": -76.95741116666667, "is_disabled": 0, "fusion_lat": 0.0, "lat": 38.888538, "bike_id": "675c86cfe267faa16125e609c9b39634", "fusion_lon": 0.0}, {"rental_uris": {"ios": "https://dc.lft.to/lastmile_qr_scan", "android": "https://dc.lft.to/lastmile_qr_scan"}, "type": "electric_scooter", "name": "9a73d96f683be7efdda8cff52960efc9", "is_reserved": 0, "lon": -77.0019345, "is_disabled": 0, "fusion_lat": 0.0, "lat": 38.90800216666667, "bike_id": "9a73d96f683be7efdda8cff52960efc9", "fusion_lon": 0.0}, {"rental_uris": {"ios": "https://dc.lft.to/lastmile_qr_scan", "android": "https://dc.lft.to/lastmile_qr_scan"}, "type": "electric_scooter", "name": "d9bc43005b8f4ce3b8ed1a8bc5d904c1", "is_reserved": 0, "lon": -76.98357783333333, "is_disabled": 0, "fusion_lat": 0.0, "lat": 38.887395833333336, "bike_id": "d9bc43005b8f4ce3b8ed1a8bc5d904c1", "fusion_lon": 0.0}, {"rental_uris": {"ios": "https://dc.lft.to/lastmile_qr_scan", "android": "https://dc.lft.to/lastmile_qr_scan"}, "type": "electric_bike", "name": "29e9b23fa700cecd38d49f47ea1b2522", "is_reserved": 0, "lon": -77.1269175, "is_disabled": 0, "fusion_lat": 0.0, "lat": 38.895804, "bike_id": "29e9b23fa700cecd38d49f47ea1b2522", "fusion_lon": 0.0}, {"rental_uris": {"ios": "https://dc.lft.to/lastmile_qr_scan", "android": "https://dc.lft.to/lastmile_qr_scan"}, "type": "electric_scooter", "name": "b294445caa051df9cbc63a64f9bede7a", "is_reserved": 0, "lon": -77.0075555, "is_disabled": 0, "fusion_lat": 0.0, "lat": 38.9252255, "bike_id": "b294445caa051df9cbc63a64f9bede7a", "fusion_lon": 0.0}, {"rental_uris": {"ios": "https://dc.lft.to/lastmile_qr_scan", "android": "https://dc.lft.to/lastmile_qr_scan"}, "type": "electric_scooter", "name": "10d5e0beb9add438f1114ab12fffd35a", "is_reserved": 0, "lon": -76.9861505, "is_disabled": 0, "fusion_lat": 0.0, "lat": 38.9034935, "bike_id": "10d5e0beb9add438f1114ab12fffd35a", "fusion_lon": 0.0}, {"rental_uris": {"ios": "https://dc.lft.to/lastmile_qr_scan", "android": "https://dc.lft.to/lastmile_qr_scan"}, "type": "electric_scooter", "name": "4e8359f17c61bcfaefa8d935d97b7768", "is_reserved": 0, "lon": -77.01061416666667, "is_disabled": 0, "fusion_lat": 0.0, "lat": 38.87407366666667, "bike_id": "4e8359f17c61bcfaefa8d935d97b7768", "fusion_lon": 0.0}, {"rental_uris": {"ios": "https://dc.lft.to/lastmile_qr_scan", "android": "https://dc.lft.to/lastmile_qr_scan"}, "type": "electric_scooter", "name": "2a8141123c0bb21ed4a690e6dad13b60", "is_reserved": 0, "lon": -77.02665883333333, "is_disabled": 0, "fusion_lat": 0.0, "lat": 38.884906666666666, "bike_id": "2a8141123c0bb21ed4a690e6dad13b60", "fusion_lon": 0.0}, {"rental_uris": {"ios": "https://dc.lft.to/lastmile_qr_scan", "android": "https://dc.lft.to/lastmile_qr_scan"}, "type": "electric_scooter", "name": "dfa92a615d0ad42517f688fa412fd5a4", "is_reserved": 0, "lon": -77.02614033333333, "is_disabled": 0, "fusion_lat": 0.0, "lat": 38.916902666666665, "bike_id": "dfa92a615d0ad42517f688fa412fd5a4", "fusion_lon": 0.0}, {"rental_uris": {"ios": "https://dc.lft.to/lastmile_qr_scan", "android": "https://dc.lft.to/lastmile_qr_scan"}, "type": "electric_scooter", "name": "835c19f98d6a833fa3dbf54a0b465aad", "is_reserved": 0, "lon": -77.0280195, "is_disabled": 0, "fusion_lat": 0.0, "lat": 38.907444166666664, "bike_id": "835c19f98d6a833fa3dbf54a0b465aad", "fusion_lon": 0.0}, {"rental_uris": {"ios": "https://dc.lft.to/lastmile_qr_scan", "android": "https://dc.lft.to/lastmile_qr_scan"}, "type": "electric_bike", "name": "87c82f8bc0daf734245935861dfed35b", "is_reserved": 0, "lon": -77.09015366666667, "is_disabled": 0, "fusion_lat": 0.0, "lat": 38.92650016666666, "bike_id": "87c82f8bc0daf734245935861dfed35b", "fusion_lon": 0.0}, {"rental_uris": {"ios": "https://dc.lft.to/lastmile_qr_scan", "android": "https://dc.lft.to/lastmile_qr_scan"}, "type": "electric_scooter", "name": "8bf58580005f96dda965fb8e22c4f44f", "is_reserved": 0, "lon": -77.02558316666666, "is_disabled": 0, "fusion_lat": 0.0, "lat": 38.93861666666667, "bike_id": "8bf58580005f96dda965fb8e22c4f44f", "fusion_lon": 0.0}, {"rental_uris": {"ios": "https://dc.lft.to/lastmile_qr_scan", "android": "https://dc.lft.to/lastmile_qr_scan"}, "type": "electric_scooter", "name": "13f4bd1bab1611e017a33bca60774443", "is_reserved": 0, "lon": -77.04610266666667, "is_disabled": 0, "fusion_lat": 0.0, "lat": 38.905867666666666, "bike_id": "13f4bd1bab1611e017a33bca60774443", "fusion_lon": 0.0}, {"rental_uris": {"ios": "https://dc.lft.to/lastmile_qr_scan", "android": "https://dc.lft.to/lastmile_qr_scan"}, "type": "electric_bike", "name": "d4bd8af5c39451537c1c2e579f277eae", "is_reserved": 0, "lon": -76.95700066666667, "is_disabled": 0, "fusion_lat": 0.0, "lat": 38.85091366666666, "bike_id": "d4bd8af5c39451537c1c2e579f277eae", "fusion_lon": 0.0}, {"rental_uris": {"ios": "https://dc.lft.to/lastmile_qr_scan", "android": "https://dc.lft.to/lastmile_qr_scan"}, "type": "electric_scooter", "name": "4dec4a8ca59ecddba39d0ee804a16289", "is_reserved": 0, "lon": -77.06843683333334, "is_disabled": 0, "fusion_lat": 0.0, "lat": 38.91712066666667, "bike_id": "4dec4a8ca59ecddba39d0ee804a16289", "fusion_lon": 0.0}, {"rental_uris": {"ios": "https://dc.lft.to/lastmile_qr_scan", "android": "https://dc.lft.to/lastmile_qr_scan"}, "type": "electric_scooter", "name": "f3ce31067516528df681fda359ea27b7", "is_reserved": 0, "lon": -77.0530025, "is_disabled": 0, "fusion_lat": 0.0, "lat": 38.9255055, "bike_id": "f3ce31067516528df681fda359ea27b7", "fusion_lon": 0.0}, {"rental_uris": {"ios": "https://dc.lft.to/lastmile_qr_scan", "android": "https://dc.lft.to/lastmile_qr_scan"}, "type": "electric_scooter", "name": "dc58bab335f857409ec0e051c8692eae", "is_reserved": 0, "lon": -77.03099566666667, "is_disabled": 0, "fusion_lat": 0.0, "lat": 38.924775, "bike_id": "dc58bab335f857409ec0e051c8692eae", "fusion_lon": 0.0}, {"rental_uris": {"ios": "https://dc.lft.to/lastmile_qr_scan", "android": "https://dc.lft.to/lastmile_qr_scan"}, "type": "electric_scooter", "name": "b9553ed797c50592d277f9304058961c", "is_reserved": 0, "lon": -77.025149, "is_disabled": 0, "fusion_lat": 0.0, "lat": 38.90332166666666, "bike_id": "b9553ed797c50592d277f9304058961c", "fusion_lon": 0.0}, {"rental_uris": {"ios": "https://dc.lft.to/lastmile_qr_scan", "android": "https://dc.lft.to/lastmile_qr_scan"}, "type": "electric_scooter", "name": "6dc309638846316338380dbeb8d366e7", "is_reserved": 0, "lon": -77.0385465, "is_disabled": 0, "fusion_lat": 0.0, "lat": 38.91557316666667, "bike_id": "6dc309638846316338380dbeb8d366e7", "fusion_lon": 0.0}, {"rental_uris": {"ios": "https://dc.lft.to/lastmile_qr_scan", "android": "https://dc.lft.to/lastmile_qr_scan"}, "type": "electric_scooter", "name": "5773a3615e183222299c4585863ed0d8", "is_reserved": 0, "lon": -77.03643733333334, "is_disabled": 0, "fusion_lat": 0.0, "lat": 38.916168166666665, "bike_id": "5773a3615e183222299c4585863ed0d8", "fusion_lon": 0.0}, {"rental_uris": {"ios": "https://dc.lft.to/lastmile_qr_scan", "android": "https://dc.lft.to/lastmile_qr_scan"}, "type": "electric_scooter", "name": "e6c98f0260874479f1f5b262791190d3", "is_reserved": 0, "lon": -77.07343933333334, "is_disabled": 0, "fusion_lat": 0.0, "lat": 38.94322233333333, "bike_id": "e6c98f0260874479f1f5b262791190d3", "fusion_lon": 0.0}, {"rental_uris": {"ios": "https://dc.lft.to/lastmile_qr_scan", "android": "https://dc.lft.to/lastmile_qr_scan"}, "type": "electric_scooter", "name": "08656cd1427daf0868f5fa81372d379a", "is_reserved": 0, "lon": -77.073383, "is_disabled": 0, "fusion_lat": 0.0, "lat": 38.960937333333334, "bike_id": "08656cd1427daf0868f5fa81372d379a", "fusion_lon": 0.0}, {"rental_uris": {"ios": "https://dc.lft.to/lastmile_qr_scan", "android": "https://dc.lft.to/lastmile_qr_scan"}, "type": "electric_scooter", "name": "e20eedc4dcb38da31483fcbf0eafd64f", "is_reserved": 0, "lon": -77.014103, "is_disabled": 0, "fusion_lat": 0.0, "lat": 38.91432016666667, "bike_id": "e20eedc4dcb38da31483fcbf0eafd64f", "fusion_lon": 0.0}, {"rental_uris": {"ios": "https://dc.lft.to/lastmile_qr_scan", "android": "https://dc.lft.to/lastmile_qr_scan"}, "type": "electric_scooter", "name": "ad0bc37f22832d3a36a735d2c794cb18", "is_reserved": 0, "lon": -76.97628833333333, "is_disabled": 0, "fusion_lat": 0.0, "lat": 38.9056795, "bike_id": "ad0bc37f22832d3a36a735d2c794cb18", "fusion_lon": 0.0}, {"rental_uris": {"ios": "https://dc.lft.to/lastmile_qr_scan", "android": "https://dc.lft.to/lastmile_qr_scan"}, "type": "electric_scooter", "name": "0ecfcab4b0abcaa7a1fbecc3333124c5", "is_reserved": 0, "lon": -77.04947883333334, "is_disabled": 0, "fusion_lat": 0.0, "lat": 38.92020216666667, "bike_id": "0ecfcab4b0abcaa7a1fbecc3333124c5", "fusion_lon": 0.0}, {"rental_uris": {"ios": "https://dc.lft.to/lastmile_qr_scan", "android": "https://dc.lft.to/lastmile_qr_scan"}, "type": "electric_bike", "name": "51ddfce9a06509a90e56c154966263fa", "is_reserved": 0, "lon": -77.23411366666667, "is_disabled": 0, "fusion_lat": 0.0, "lat": 38.87576983333334, "bike_id": "51ddfce9a06509a90e56c154966263fa", "fusion_lon": 0.0}, {"rental_uris": {"ios": "https://dc.lft.to/lastmile_qr_scan", "android": "https://dc.lft.to/lastmile_qr_scan"}, "type": "electric_scooter", "name": "a7aed3afe1edddc5514b5ed7b9f571fe", "is_reserved": 0, "lon": -77.02603083333334, "is_disabled": 0, "fusion_lat": 0.0, "lat": 38.89858066666667, "bike_id": "a7aed3afe1edddc5514b5ed7b9f571fe", "fusion_lon": 0.0}, {"rental_uris": {"ios": "https://dc.lft.to/lastmile_qr_scan", "android": "https://dc.lft.to/lastmile_qr_scan"}, "type": "electric_scooter", "name": "06a450322a2d98ccb2549b10a08ce4fe", "is_reserved": 0, "lon": -76.985387, "is_disabled": 0, "fusion_lat": 0.0, "lat": 38.914526, "bike_id": "06a450322a2d98ccb2549b10a08ce4fe", "fusion_lon": 0.0}, {"rental_uris": {"ios": "https://dc.lft.to/lastmile_qr_scan", "android": "https://dc.lft.to/lastmile_qr_scan"}, "type": "electric_scooter", "name": "27ec8be012b65fe54232b8c7d4085e68", "is_reserved": 0, "lon": -77.0059125, "is_disabled": 0, "fusion_lat": 0.0, "lat": 38.90577066666667, "bike_id": "27ec8be012b65fe54232b8c7d4085e68", "fusion_lon": 0.0}, {"rental_uris": {"ios": "https://dc.lft.to/lastmile_qr_scan", "android": "https://dc.lft.to/lastmile_qr_scan"}, "type": "electric_bike", "name": "1257b3e10621716c5ab07f7c03af2276", "is_reserved": 0, "lon": -77.0191755, "is_disabled": 0, "fusion_lat": 0.0, "lat": 38.976656166666665, "bike_id": "1257b3e10621716c5ab07f7c03af2276", "fusion_lon": 0.0}, {"rental_uris": {"ios": "https://dc.lft.to/lastmile_qr_scan", "android": "https://dc.lft.to/lastmile_qr_scan"}, "type": "electric_scooter", "name": "a7014234f3f19cf4054347acac880e0c", "is_reserved": 0, "lon": -77.0609885, "is_disabled": 0, "fusion_lat": 0.0, "lat": 38.939853, "bike_id": "a7014234f3f19cf4054347acac880e0c", "fusion_lon": 0.0}, {"rental_uris": {"ios": "https://dc.lft.to/lastmile_qr_scan", "android": "https://dc.lft.to/lastmile_qr_scan"}, "type": "electric_scooter", "name": "dfed86e6877b4959218694b9793718ce", "is_reserved": 0, "lon": -76.94650266666666, "is_disabled": 0, "fusion_lat": 0.0, "lat": 38.898302666666666, "bike_id": "dfed86e6877b4959218694b9793718ce", "fusion_lon": 0.0}, {"rental_uris": {"ios": "https://dc.lft.to/lastmile_qr_scan", "android": "https://dc.lft.to/lastmile_qr_scan"}, "type": "electric_scooter", "name": "c71325a22818046122bca0f6ae7ee64b", "is_reserved": 0, "lon": -77.02101, "is_disabled": 0, "fusion_lat": 0.0, "lat": 38.9667025, "bike_id": "c71325a22818046122bca0f6ae7ee64b", "fusion_lon": 0.0}, {"rental_uris": {"ios": "https://dc.lft.to/lastmile_qr_scan", "android": "https://dc.lft.to/lastmile_qr_scan"}, "type": "electric_scooter", "name": "c1eb0f911f06fefb61de1c663b20c1ba", "is_reserved": 0, "lon": -77.04506016666667, "is_disabled": 0, "fusion_lat": 0.0, "lat": 38.892211, "bike_id": "c1eb0f911f06fefb61de1c663b20c1ba", "fusion_lon": 0.0}, {"rental_uris": {"ios": "https://dc.lft.to/lastmile_qr_scan", "android": "https://dc.lft.to/lastmile_qr_scan"}, "type": "electric_bike", "name": "5b2a63e1bd997f5fea345524c20a7b1b", "is_reserved": 0, "lon": -77.07660383333334, "is_disabled": 0, "fusion_lat": 0.0, "lat": 38.809786333333335, "bike_id": "5b2a63e1bd997f5fea345524c20a7b1b", "fusion_lon": 0.0}, {"rental_uris": {"ios": "https://dc.lft.to/lastmile_qr_scan", "android": "https://dc.lft.to/lastmile_qr_scan"}, "type": "electric_scooter", "name": "89298dfc609431b4ce3b7d9038f7f884", "is_reserved": 0, "lon": -76.99035083333334, "is_disabled": 0, "fusion_lat": 0.0, "lat": 38.8887535, "bike_id": "89298dfc609431b4ce3b7d9038f7f884", "fusion_lon": 0.0}, {"rental_uris": {"ios": "https://dc.lft.to/lastmile_qr_scan", "android": "https://dc.lft.to/lastmile_qr_scan"}, "type": "electric_scooter", "name": "376f04cb8a52707726e6961efee2e81d", "is_reserved": 0, "lon": -76.99923533333333, "is_disabled": 0, "fusion_lat": 0.0, "lat": 38.908419333333335, "bike_id": "376f04cb8a52707726e6961efee2e81d", "fusion_lon": 0.0}, {"rental_uris": {"ios": "https://dc.lft.to/lastmile_qr_scan", "android": "https://dc.lft.to/lastmile_qr_scan"}, "type": "electric_scooter", "name": "7e36988fb83fc076c8f9d1f19c0d1794", "is_reserved": 0, "lon": -77.00196783333334, "is_disabled": 0, "fusion_lat": 0.0, "lat": 38.88922816666667, "bike_id": "7e36988fb83fc076c8f9d1f19c0d1794", "fusion_lon": 0.0}, {"rental_uris": {"ios": "https://dc.lft.to/lastmile_qr_scan", "android": "https://dc.lft.to/lastmile_qr_scan"}, "type": "electric_bike", "name": "bef30e714c47d5b03b02d61d3ec8a363", "is_reserved": 0, "lon": -77.02069683333333, "is_disabled": 0, "fusion_lat": 0.0, "lat": 38.964422, "bike_id": "bef30e714c47d5b03b02d61d3ec8a363", "fusion_lon": 0.0}, {"rental_uris": {"ios": "https://dc.lft.to/lastmile_qr_scan", "android": "https://dc.lft.to/lastmile_qr_scan"}, "type": "electric_scooter", "name": "ca34a2dd745d9b9aa03ea567e71791f9", "is_reserved": 0, "lon": -77.06024116666667, "is_disabled": 0, "fusion_lat": 0.0, "lat": 38.938829, "bike_id": "ca34a2dd745d9b9aa03ea567e71791f9", "fusion_lon": 0.0}, {"rental_uris": {"ios": "https://dc.lft.to/lastmile_qr_scan", "android": "https://dc.lft.to/lastmile_qr_scan"}, "type": "electric_scooter", "name": "f9c5997fb43d0ff0876a30c471fb2f51", "is_reserved": 0, "lon": -77.03260833333333, "is_disabled": 0, "fusion_lat": 0.0, "lat": 38.925485333333334, "bike_id": "f9c5997fb43d0ff0876a30c471fb2f51", "fusion_lon": 0.0}, {"rental_uris": {"ios": "https://dc.lft.to/lastmile_qr_scan", "android": "https://dc.lft.to/lastmile_qr_scan"}, "type": "electric_scooter", "name": "4523f2157b2bb2325b3b3978a73fd045", "is_reserved": 0, "lon": -77.046646, "is_disabled": 0, "fusion_lat": 0.0, "lat": 38.91247716666667, "bike_id": "4523f2157b2bb2325b3b3978a73fd045", "fusion_lon": 0.0}, {"rental_uris": {"ios": "https://dc.lft.to/lastmile_qr_scan", "android": "https://dc.lft.to/lastmile_qr_scan"}, "type": "electric_bike", "name": "cf93e8125da8fdd350da7d4052e73f12", "is_reserved": 0, "lon": -77.01223533333334, "is_disabled": 0, "fusion_lat": 0.0, "lat": 38.95077416666667, "bike_id": "cf93e8125da8fdd350da7d4052e73f12", "fusion_lon": 0.0}, {"rental_uris": {"ios": "https://dc.lft.to/lastmile_qr_scan", "android": "https://dc.lft.to/lastmile_qr_scan"}, "type": "electric_scooter", "name": "e9a2804e49699a42f93528d3d3ce6d10", "is_reserved": 0, "lon": -77.02835316666666, "is_disabled": 0, "fusion_lat": 0.0, "lat": 38.910199666666664, "bike_id": "e9a2804e49699a42f93528d3d3ce6d10", "fusion_lon": 0.0}, {"rental_uris": {"ios": "https://dc.lft.to/lastmile_qr_scan", "android": "https://dc.lft.to/lastmile_qr_scan"}, "type": "electric_scooter", "name": "aaa418441e7a7f0abe9cecded81747a5", "is_reserved": 0, "lon": -77.03373116666667, "is_disabled": 0, "fusion_lat": 0.0, "lat": 38.8992165, "bike_id": "aaa418441e7a7f0abe9cecded81747a5", "fusion_lon": 0.0}, {"rental_uris": {"ios": "https://dc.lft.to/lastmile_qr_scan", "android": "https://dc.lft.to/lastmile_qr_scan"}, "type": "electric_scooter", "name": "a63664c160bfa15de6e79e35d38baf92", "is_reserved": 0, "lon": -77.02273066666666, "is_disabled": 0, "fusion_lat": 0.0, "lat": 38.918474, "bike_id": "a63664c160bfa15de6e79e35d38baf92", "fusion_lon": 0.0}, {"rental_uris": {"ios": "https://dc.lft.to/lastmile_qr_scan", "android": "https://dc.lft.to/lastmile_qr_scan"}, "type": "electric_scooter", "name": "c3d26ea654144f764b42b0a48703b905", "is_reserved": 0, "lon": -77.01230583333333, "is_disabled": 0, "fusion_lat": 0.0, "lat": 38.89957166666667, "bike_id": "c3d26ea654144f764b42b0a48703b905", "fusion_lon": 0.0}, {"rental_uris": {"ios": "https://dc.lft.to/lastmile_qr_scan", "android": "https://dc.lft.to/lastmile_qr_scan"}, "type": "electric_scooter", "name": "0a568b47edb0acdbca4ca1b3ddded3ca", "is_reserved": 0, "lon": -77.03290266666667, "is_disabled": 0, "fusion_lat": 0.0, "lat": 38.9071295, "bike_id": "0a568b47edb0acdbca4ca1b3ddded3ca", "fusion_lon": 0.0}, {"rental_uris": {"ios": "https://dc.lft.to/lastmile_qr_scan", "android": "https://dc.lft.to/lastmile_qr_scan"}, "type": "electric_bike", "name": "aded58730b038c2aac278f4cde9a6f7d", "is_reserved": 0, "lon": -76.996799, "is_disabled": 0, "fusion_lat": 0.0, "lat": 38.838114833333336, "bike_id": "aded58730b038c2aac278f4cde9a6f7d", "fusion_lon": 0.0}, {"rental_uris": {"ios": "https://dc.lft.to/lastmile_qr_scan", "android": "https://dc.lft.to/lastmile_qr_scan"}, "type": "electric_scooter", "name": "b6aec43435ce2c07b19f5844b608e7e7", "is_reserved": 0, "lon": -77.03466783333333, "is_disabled": 0, "fusion_lat": 0.0, "lat": 38.9215975, "bike_id": "b6aec43435ce2c07b19f5844b608e7e7", "fusion_lon": 0.0}, {"rental_uris": {"ios": "https://dc.lft.to/lastmile_qr_scan", "android": "https://dc.lft.to/lastmile_qr_scan"}, "type": "electric_scooter", "name": "60950e8f0ca06f0d37313efc3b675478", "is_reserved": 0, "lon": -77.0417615, "is_disabled": 0, "fusion_lat": 0.0, "lat": 38.903716833333334, "bike_id": "60950e8f0ca06f0d37313efc3b675478", "fusion_lon": 0.0}, {"rental_uris": {"ios": "https://dc.lft.to/lastmile_qr_scan", "android": "https://dc.lft.to/lastmile_qr_scan"}, "type": "electric_scooter", "name": "e1cf4464ed088e6880ff0e9aeea82cce", "is_reserved": 0, "lon": -77.06850516666667, "is_disabled": 0, "fusion_lat": 0.0, "lat": 38.90408383333333, "bike_id": "e1cf4464ed088e6880ff0e9aeea82cce", "fusion_lon": 0.0}, {"rental_uris": {"ios": "https://dc.lft.to/lastmile_qr_scan", "android": "https://dc.lft.to/lastmile_qr_scan"},