{"data": {"bikes": [{"lon": -76.999338, "lat": 38.8961825, "name": "bae422eb79aa13877559c6c98544446a", "fusion_lat": 0.0, "fusion_lon": 0.0, "rental_uris": {"android": "https://dc.lft.to/lastmile_qr_scan", "ios": "https://dc.lft.to/lastmile_qr_scan"}, "is_reserved": 0, "is_disabled": 0, "type": "electric_scooter", "bike_id": "bae422eb79aa13877559c6c98544446a"}, {"lon": -77.04162516666666, "lat": 38.91570166666666, "name": "d80a41d24a53ed2934907a7ba358d2e4", "fusion_lat": 0.0, "fusion_lon": 0.0, "rental_uris": {"android": "https://dc.lft.to/lastmile_qr_scan", "ios": "https://dc.lft.to/lastmile_qr_scan"}, "is_reserved": 0, "is_disabled": 0, "type": "electric_scooter", "bike_id": "d80a41d24a53ed2934907a7ba358d2e4"}, {"lon": -76.95211916666666, "lat": 38.93670766666666, "name": "50d135dc1000caa68d1c6fedfbee06dd", "fusion_lat": 0.0, "fusion_lon": 0.0, "rental_uris": {"android": "https://dc.lft.to/lastmile_qr_scan", "ios": "https://dc.lft.to/lastmile_qr_scan"}, "is_reserved": 0, "is_disabled": 0, "type": "electric_bike", "bike_id": "50d135dc1000caa68d1c6fedfbee06dd"}, {"lon": -77.01718166666667, "lat": 38.91599083333333, "name": "5e54dcf1dc2c97b40ac62c41e5fc5e42", "fusion_lat": 0.0, "fusion_lon": 0.0, "rental_uris": {"android": "https://dc.lft.to/lastmile_qr_scan", "ios": "https://dc.lft.to/lastmile_qr_scan"}, "is_reserved": 0, "is_disabled": 0, "type": "electric_scooter", "bike_id": "5e54dcf1dc2c97b40ac62c41e5fc5e42"}, {"lon": -77.02345883333334, "lat": 38.929876166666666, "name": "d83a1c52c3d3076f95dd86d04cc71b1a", "fusion_lat": 0.0, "fusion_lon": 0.0, "rental_uris": {"android": "https://dc.lft.to/lastmile_qr_scan", "ios": "https://dc.lft.to/lastmile_qr_scan"}, "is_reserved": 0, "is_disabled": 0, "type": "electric_scooter", "bike_id": "d83a1c52c3d3076f95dd86d04cc71b1a"}, {"lon": -77.03221033333334, "lat": 38.9199855, "name": "8926bec21aac1a4069b8703caa0ef333", "fusion_lat": 0.0, "fusion_lon": 0.0, "rental_uris": {"android": "https://dc.lft.to/lastmile_qr_scan", "ios": "https://dc.lft.to/lastmile_qr_scan"}, "is_reserved": 0, "is_disabled": 0, "type": "electric_scooter", "bike_id": "8926bec21aac1a4069b8703caa0ef333"}, {"lon": -77.03422116666667, "lat": 38.91925533333333, "name": "1a23d45be9825ec1ef1c0963a61506e6", "fusion_lat": 0.0, "fusion_lon": 0.0, "rental_uris": {"android": "https://dc.lft.to/lastmile_qr_scan", "ios": "https://dc.lft.to/lastmile_qr_scan"}, "is_reserved": 0, "is_disabled": 0, "type": "electric_scooter", "bike_id": "1a23d45be9825ec1ef1c0963a61506e6"}, {"lon": -77.027877, "lat": 38.9276895, "name": "5ed161da627fd884826a2a8020ed174e", "fusion_lat": 0.0, "fusion_lon": 0.0, "rental_uris": {"android": "https://dc.lft.to/lastmile_qr_scan", "ios": "https://dc.lft.to/lastmile_qr_scan"}, "is_reserved": 0, "is_disabled": 0, "type": "electric_scooter", "bike_id": "5ed161da627fd884826a2a8020ed174e"}, {"lon": -77.03209966666667, "lat": 38.9173225, "name": "6e1af2b87ad45cb25d4eab653b376f7c", "fusion_lat": 0.0, "fusion_lon": 0.0, "rental_uris": {"android": "https://dc.lft.to/lastmile_qr_scan", "ios": "https://dc.lft.to/lastmile_qr_scan"}, "is_reserved": 0, "is_disabled": 0, "type": "electric_scooter", "bike_id": "6e1af2b87ad45cb25d4eab653b376f7c"}, {"lon": -76.96487083333334, "lat": 38.875468166666664, "name": "381e6b1845e91cde53cbf92b6e65c38b", "fusion_lat": 0.0, "fusion_lon": 0.0, "rental_uris": {"android": "https://dc.lft.to/lastmile_qr_scan", "ios": "https://dc.lft.to/lastmile_qr_scan"}, "is_reserved": 0, "is_disabled": 0, "type": "electric_bike", "bike_id": "381e6b1845e91cde53cbf92b6e65c38b"}, {"lon": -77.035271, "lat": 38.9237505, "name": "6467138d0965f25692ed15d124f07bca", "fusion_lat": 0.0, "fusion_lon": 0.0, "rental_uris": {"android": "https://dc.lft.to/lastmile_qr_scan", "ios": "https://dc.lft.to/lastmile_qr_scan"}, "is_reserved": 0, "is_disabled": 0, "type": "electric_scooter", "bike_id": "6467138d0965f25692ed15d124f07bca"}, {"lon": -76.93179783333333, "lat": 38.898738333333334, "name": "55d8a737119166d4afe3b165d7b63d1a", "fusion_lat": 0.0, "fusion_lon": 0.0, "rental_uris": {"android": "https://dc.lft.to/lastmile_qr_scan", "ios": "https://dc.lft.to/lastmile_qr_scan"}, "is_reserved": 0, "is_disabled": 0, "type": "electric_scooter", "bike_id": "55d8a737119166d4afe3b165d7b63d1a"}, {"lon": -77.01614166666667, "lat": 38.876929, "name": "bdbefd86bae27629515a9050d4501d99", "fusion_lat": 0.0, "fusion_lon": 0.0, "rental_uris": {"android": "https://dc.lft.to/lastmile_qr_scan", "ios": "https://dc.lft.to/lastmile_qr_scan"}, "is_reserved": 0, "is_disabled": 0, "type": "electric_scooter", "bike_id": "bdbefd86bae27629515a9050d4501d99"}, {"lon": -76.98823083333333, "lat": 38.90038083333334, "name": "41913cb924062f0cfcd8f3c55e7a74d1", "fusion_lat": 0.0, "fusion_lon": 0.0, "rental_uris": {"android": "https://dc.lft.to/lastmile_qr_scan", "ios": "https://dc.lft.to/lastmile_qr_scan"}, "is_reserved": 0, "is_disabled": 0, "type": "electric_scooter", "bike_id": "41913cb924062f0cfcd8f3c55e7a74d1"}, {"lon": -77.00134916666667, "lat": 38.904097166666666, "name": "7725562d488c0f4becf31c7df4550461", "fusion_lat": 0.0, "fusion_lon": 0.0, "rental_uris": {"android": "https://dc.lft.to/lastmile_qr_scan", "ios": "https://dc.lft.to/lastmile_qr_scan"}, "is_reserved": 0, "is_disabled": 0, "type": "electric_scooter", "bike_id": "7725562d488c0f4becf31c7df4550461"}, {"lon": -77.054429, "lat": 38.902674, "name": "6f535d09df293883977677e5c2c20c54", "fusion_lat": 0.0, "fusion_lon": 0.0, "rental_uris": {"android": "https://dc.lft.to/lastmile_qr_scan", "ios": "https://dc.lft.to/lastmile_qr_scan"}, "is_reserved": 0, "is_disabled": 0, "type": "electric_scooter", "bike_id": "6f535d09df293883977677e5c2c20c54"}, {"lon": -77.01387716666666, "lat": 38.92856783333333, "name": "2301896db4de36d6d626144426c0e967", "fusion_lat": 0.0, "fusion_lon": 0.0, "rental_uris": {"android": "https://dc.lft.to/lastmile_qr_scan", "ios": "https://dc.lft.to/lastmile_qr_scan"}, "is_reserved": 0, "is_disabled": 0, "type": "electric_scooter", "bike_id": "2301896db4de36d6d626144426c0e967"}, {"lon": -76.9755805, "lat": 38.924577, "name": "2d57003e6d9108f9d7b1f057965bb7e7", "fusion_lat": 0.0, "fusion_lon": 0.0, "rental_uris": {"android": "https://dc.lft.to/lastmile_qr_scan", "ios": "https://dc.lft.to/lastmile_qr_scan"}, "is_reserved": 0, "is_disabled": 0, "type": "electric_bike", "bike_id": "2d57003e6d9108f9d7b1f057965bb7e7"}, {"lon": -77.0219495, "lat": 38.93125533333333, "name": "094ef6ee5a686a7a1575ed978a9afa50", "fusion_lat": 0.0, "fusion_lon": 0.0, "rental_uris": {"android": "https://dc.lft.to/lastmile_qr_scan", "ios": "https://dc.lft.to/lastmile_qr_scan"}, "is_reserved": 0, "is_disabled": 0, "type": "electric_scooter", "bike_id": "094ef6ee5a686a7a1575ed978a9afa50"}, {"lon": -77.0164895, "lat": 38.95327966666667, "name": "8a2da7c6eb33ea08ef5913119bed8da2", "fusion_lat": 0.0, "fusion_lon": 0.0, "rental_uris": {"android": "https://dc.lft.to/lastmile_qr_scan", "ios": "https://dc.lft.to/lastmile_qr_scan"}, "is_reserved": 0, "is_disabled": 0, "type": "electric_scooter", "bike_id": "8a2da7c6eb33ea08ef5913119bed8da2"}, {"lon": -76.98260066666667, "lat": 38.86352, "name": "464b658ece92644917bb9603a7edd245", "fusion_lat": 0.0, "fusion_lon": 0.0, "rental_uris": {"android": "https://dc.lft.to/lastmile_qr_scan", "ios": "https://dc.lft.to/lastmile_qr_scan"}, "is_reserved": 0, "is_disabled": 0, "type": "electric_scooter", "bike_id": "464b658ece92644917bb9603a7edd245"}, {"lon": -77.04233266666667, "lat": 38.93868333333333, "name": "605b336c34d1a549b00e7830e081d64d", "fusion_lat": 0.0, "fusion_lon": 0.0, "rental_uris": {"android": "https://dc.lft.to/lastmile_qr_scan", "ios": "https://dc.lft.to/lastmile_qr_scan"}, "is_reserved": 0, "is_disabled": 0, "type": "electric_bike", "bike_id": "605b336c34d1a549b00e7830e081d64d"}, {"lon": -77.0325925, "lat": 38.93822316666667, "name": "ad6342714ae80a12df9b43d9f7abe064", "fusion_lat": 0.0, "fusion_lon": 0.0, "rental_uris": {"android": "https://dc.lft.to/lastmile_qr_scan", "ios": "https://dc.lft.to/lastmile_qr_scan"}, "is_reserved": 0, "is_disabled": 0, "type": "electric_scooter", "bike_id": "ad6342714ae80a12df9b43d9f7abe064"}, {"lon": -77.03005716666667, "lat": 38.91416683333333, "name": "7dcab557f9926c3d88443dda2e46c046", "fusion_lat": 0.0, "fusion_lon": 0.0, "rental_uris": {"android": "https://dc.lft.to/lastmile_qr_scan", "ios": "https://dc.lft.to/lastmile_qr_scan"}, "is_reserved": 0, "is_disabled": 0, "type": "electric_scooter", "bike_id": "7dcab557f9926c3d88443dda2e46c046"}, {"lon": -77.03246333333334, "lat": 38.915638333333334, "name": "93fc193794001431ffe58446cfd1cf02", "fusion_lat": 0.0, "fusion_lon": 0.0, "rental_uris": {"android": "https://dc.lft.to/lastmile_qr_scan", "ios": "https://dc.lft.to/lastmile_qr_scan"}, "is_reserved": 0, "is_disabled": 0, "type": "electric_scooter", "bike_id": "93fc193794001431ffe58446cfd1cf02"}, {"lon": -77.018348, "lat": 38.908736, "name": "6a087ab0f2c79aba96205497407f8396", "fusion_lat": 0.0, "fusion_lon": 0.0, "rental_uris": {"android": "https://dc.lft.to/lastmile_qr_scan", "ios": "https://dc.lft.to/lastmile_qr_scan"}, "is_reserved": 0, "is_disabled": 0, "type": "electric_scooter", "bike_id": "6a087ab0f2c79aba96205497407f8396"}, {"lon": -76.997556, "lat": 38.9225365, "name": "775c16bd2e1b2c930abca96d2fb98ba9", "fusion_lat": 0.0, "fusion_lon": 0.0, "rental_uris": {"android": "https://dc.lft.to/lastmile_qr_scan", "ios": "https://dc.lft.to/lastmile_qr_scan"}, "is_reserved": 0, "is_disabled": 0, "type": "electric_scooter", "bike_id": "775c16bd2e1b2c930abca96d2fb98ba9"}, {"lon": -76.9902865, "lat": 38.898484833333335, "name": "4ec4850d57951583ea05c4b7c055e66e", "fusion_lat": 0.0, "fusion_lon": 0.0, "rental_uris": {"android": "https://dc.lft.to/lastmile_qr_scan", "ios": "https://dc.lft.to/lastmile_qr_scan"}, "is_reserved": 0, "is_disabled": 0, "type": "electric_scooter", "bike_id": "4ec4850d57951583ea05c4b7c055e66e"}, {"lon": -77.03123583333333, "lat": 38.9156005, "name": "533c0f7573b8b2ef6e6a7e821add7e78", "fusion_lat": 0.0, "fusion_lon": 0.0, "rental_uris": {"android": "https://dc.lft.to/lastmile_qr_scan", "ios": "https://dc.lft.to/lastmile_qr_scan"}, "is_reserved": 0, "is_disabled": 0, "type": "electric_scooter", "bike_id": "533c0f7573b8b2ef6e6a7e821add7e78"}, {"lon": -76.99622600000001, "lat": 38.880268, "name": "8082d4dabec547ffeeed7edcfa7eab75", "fusion_lat": 0.0, "fusion_lon": 0.0, "rental_uris": {"android": "https://dc.lft.to/lastmile_qr_scan", "ios": "https://dc.lft.to/lastmile_qr_scan"}, "is_reserved": 0, "is_disabled": 0, "type": "electric_scooter", "bike_id": "8082d4dabec547ffeeed7edcfa7eab75"}, {"lon": -77.1121475, "lat": 38.828696666666666, "name": "291dac10bdac5544f670e689bf7b81cc", "fusion_lat": 0.0, "fusion_lon": 0.0, "rental_uris": {"android": "https://dc.lft.to/lastmile_qr_scan", "ios": "https://dc.lft.to/lastmile_qr_scan"}, "is_reserved": 0, "is_disabled": 0, "type": "electric_bike", "bike_id": "291dac10bdac5544f670e689bf7b81cc"}, {"lon": -76.874955, "lat": 38.99089983333333, "name": "55cbf3861a494401a0c7c4019c01f2b6", "fusion_lat": 0.0, "fusion_lon": 0.0, "rental_uris": {"android": "https://dc.lft.to/lastmile_qr_scan", "ios": "https://dc.lft.to/lastmile_qr_scan"}, "is_reserved": 0, "is_disabled": 0, "type": "electric_bike", "bike_id": "55cbf3861a494401a0c7c4019c01f2b6"}, {"lon": -77.00190433333333, "lat": 38.90033666666667, "name": "4727251f48a7c1bf375ff2ff264b42de", "fusion_lat": 0.0, "fusion_lon": 0.0, "rental_uris": {"android": "https://dc.lft.to/lastmile_qr_scan", "ios": "https://dc.lft.to/lastmile_qr_scan"}, "is_reserved": 0, "is_disabled": 0, "type": "electric_scooter", "bike_id": "4727251f48a7c1bf375ff2ff264b42de"}, {"lon": -77.0095525, "lat": 38.92136266666667, "name": "343df32bc1ad04d841fe7c92b2c19f4a", "fusion_lat": 0.0, "fusion_lon": 0.0, "rental_uris": {"android": "https://dc.lft.to/lastmile_qr_scan", "ios": "https://dc.lft.to/lastmile_qr_scan"}, "is_reserved": 0, "is_disabled": 0, "type": "electric_scooter", "bike_id": "343df32bc1ad04d841fe7c92b2c19f4a"}, {"lon": -76.93162133333334, "lat": 38.89880216666667, "name": "bd7bba8f026e0abea35b661461e86f85", "fusion_lat": 0.0, "fusion_lon": 0.0, "rental_uris": {"android": "https://dc.lft.to/lastmile_qr_scan", "ios": "https://dc.lft.to/lastmile_qr_scan"}, "is_reserved": 0, "is_disabled": 0, "type": "electric_scooter", "bike_id": "bd7bba8f026e0abea35b661461e86f85"}, {"lon": -77.04140916666667, "lat": 38.92297033333333, "name": "3a3f58547cc516e4c0f7b067aa5432b1", "fusion_lat": 0.0, "fusion_lon": 0.0, "rental_uris": {"android": "https://dc.lft.to/lastmile_qr_scan", "ios": "https://dc.lft.to/lastmile_qr_scan"}, "is_reserved": 0, "is_disabled": 0, "type": "electric_scooter", "bike_id": "3a3f58547cc516e4c0f7b067aa5432b1"}, {"lon": -77.037354, "lat": 38.91280166666667, "name": "2f1742d44e9ffb489196863aa9cf279b", "fusion_lat": 0.0, "fusion_lon": 0.0, "rental_uris": {"android": "https://dc.lft.to/lastmile_qr_scan", "ios": "https://dc.lft.to/lastmile_qr_scan"}, "is_reserved": 0, "is_disabled": 0, "type": "electric_scooter", "bike_id": "2f1742d44e9ffb489196863aa9cf279b"}, {"lon": -77.02784983333333, "lat": 38.9307025, "name": "3a074519d0dd53f4e3172ebb9b4049cc", "fusion_lat": 0.0, "fusion_lon": 0.0, "rental_uris": {"android": "https://dc.lft.to/lastmile_qr_scan", "ios": "https://dc.lft.to/lastmile_qr_scan"}, "is_reserved": 0, "is_disabled": 0, "type": "electric_scooter", "bike_id": "3a074519d0dd53f4e3172ebb9b4049cc"}, {"lon": -77.00122366666666, "lat": 38.900119, "name": "b5db39ba228f62b10619044d2659ff53", "fusion_lat": 0.0, "fusion_lon": 0.0, "rental_uris": {"android": "https://dc.lft.to/lastmile_qr_scan", "ios": "https://dc.lft.to/lastmile_qr_scan"}, "is_reserved": 0, "is_disabled": 0, "type": "electric_scooter", "bike_id": "b5db39ba228f62b10619044d2659ff53"}, {"lon": -76.98813766666666, "lat": 38.900279166666664, "name": "899a6411847ab2385fcad731e4b4c020", "fusion_lat": 0.0, "fusion_lon": 0.0, "rental_uris": {"android": "https://dc.lft.to/lastmile_qr_scan", "ios": "https://dc.lft.to/lastmile_qr_scan"}, "is_reserved": 0, "is_disabled": 0, "type": "electric_scooter", "bike_id": "899a6411847ab2385fcad731e4b4c020"}, {"lon": -77.01596883333333, "lat": 38.91868783333334, "name": "3f8bfa009467deef3b7e12c07cdd2eb9", "fusion_lat": 0.0, "fusion_lon": 0.0, "rental_uris": {"android": "https://dc.lft.to/lastmile_qr_scan", "ios": "https://dc.lft.to/lastmile_qr_scan"}, "is_reserved": 0, "is_disabled": 0, "type": "electric_scooter", "bike_id": "3f8bfa009467deef3b7e12c07cdd2eb9"}, {"lon": -77.03349783333333, "lat": 38.8953055, "name": "726ba4425ede948788692fe5eb792e07", "fusion_lat": 0.0, "fusion_lon": 0.0, "rental_uris": {"android": "https://dc.lft.to/lastmile_qr_scan", "ios": "https://dc.lft.to/lastmile_qr_scan"}, "is_reserved": 0, "is_disabled": 0, "type": "electric_scooter", "bike_id": "726ba4425ede948788692fe5eb792e07"}, {"lon": -77.03721666666667, "lat": 38.92024416666667, "name": "888e80b958ed6638c8a1b1d249a40bd1", "fusion_lat": 0.0, "fusion_lon": 0.0, "rental_uris": {"android": "https://dc.lft.to/lastmile_qr_scan", "ios": "https://dc.lft.to/lastmile_qr_scan"}, "is_reserved": 0, "is_disabled": 0, "type": "electric_scooter", "bike_id": "888e80b958ed6638c8a1b1d249a40bd1"}, {"lon": -76.97461416666667, "lat": 38.864197, "name": "782174e85193d6f880a05462c4362806", "fusion_lat": 0.0, "fusion_lon": 0.0, "rental_uris": {"android": "https://dc.lft.to/lastmile_qr_scan", "ios": "https://dc.lft.to/lastmile_qr_scan"}, "is_reserved": 0, "is_disabled": 0, "type": "electric_scooter", "bike_id": "782174e85193d6f880a05462c4362806"}, {"lon": -76.998378, "lat": 38.888094833333334, "name": "54db911a87c0034bb72d06e469d46b28", "fusion_lat": 0.0, "fusion_lon": 0.0, "rental_uris": {"android": "https://dc.lft.to/lastmile_qr_scan", "ios": "https://dc.lft.to/lastmile_qr_scan"}, "is_reserved": 0, "is_disabled": 0, "type": "electric_scooter", "bike_id": "54db911a87c0034bb72d06e469d46b28"}, {"lon": -77.03302333333333, "lat": 38.90861783333333, "name": "0daa12a7d9deff9caf65a7d656fed7fd", "fusion_lat": 0.0, "fusion_lon": 0.0, "rental_uris": {"android": "https://dc.lft.to/lastmile_qr_scan", "ios": "https://dc.lft.to/lastmile_qr_scan"}, "is_reserved": 0, "is_disabled": 0, "type": "electric_scooter", "bike_id": "0daa12a7d9deff9caf65a7d656fed7fd"}, {"lon": -76.98570183333334, "lat": 38.899559833333335, "name": "35f59ea1515e97b75fee4f6676a8ba9e", "fusion_lat": 0.0, "fusion_lon": 0.0, "rental_uris": {"android": "https://dc.lft.to/lastmile_qr_scan", "ios": "https://dc.lft.to/lastmile_qr_scan"}, "is_reserved": 0, "is_disabled": 0, "type": "electric_scooter", "bike_id": "35f59ea1515e97b75fee4f6676a8ba9e"}, {"lon": -77.02811633333333, "lat": 38.916158, "name": "67ccf5e312e910d5712df214b8ee7bd5", "fusion_lat": 0.0, "fusion_lon": 0.0, "rental_uris": {"android": "https://dc.lft.to/lastmile_qr_scan", "ios": "https://dc.lft.to/lastmile_qr_scan"}, "is_reserved": 0, "is_disabled": 0, "type": "electric_scooter", "bike_id": "67ccf5e312e910d5712df214b8ee7bd5"}, {"lon": -77.02897516666667, "lat": 38.8841965, "name": "aacc563ad5b67cd81727ad7140b6f4c0", "fusion_lat": 0.0, "fusion_lon": 0.0, "rental_uris": {"android": "https://dc.lft.to/lastmile_qr_scan", "ios": "https://dc.lft.to/lastmile_qr_scan"}, "is_reserved": 0, "is_disabled": 0, "type": "electric_scooter", "bike_id": "aacc563ad5b67cd81727ad7140b6f4c0"}, {"lon": -77.02946883333334, "lat": 38.90503866666667, "name": "0e909cf80c68a9cd1cbbc87bf7548e93", "fusion_lat": 0.0, "fusion_lon": 0.0, "rental_uris": {"android": "https://dc.lft.to/lastmile_qr_scan", "ios": "https://dc.lft.to/lastmile_qr_scan"}, "is_reserved": 0, "is_disabled": 0, "type": "electric_scooter", "bike_id": "0e909cf80c68a9cd1cbbc87bf7548e93"}, {"lon": -77.11429566666666, "lat": 38.84320316666667, "name": "5ca3fdb04e2444f2a1a742345efe8d0f", "fusion_lat": 0.0, "fusion_lon": 0.0, "rental_uris": {"android": "https://dc.lft.to/lastmile_qr_scan", "ios": "https://dc.lft.to/lastmile_qr_scan"}, "is_reserved": 0, "is_disabled": 0, "type": "electric_bike", "bike_id": "5ca3fdb04e2444f2a1a742345efe8d0f"}, {"lon": -77.00859816666667, "lat": 38.869456, "name": "9d68a8e01057eb27c19ef8aa63f9e35e", "fusion_lat": 0.0, "fusion_lon": 0.0, "rental_uris": {"android": "https://dc.lft.to/lastmile_qr_scan", "ios": "https://dc.lft.to/lastmile_qr_scan"}, "is_reserved": 0, "is_disabled": 0, "type": "electric_scooter", "bike_id": "9d68a8e01057eb27c19ef8aa63f9e35e"}, {"lon": -77.01321583333333, "lat": 38.91472533333334, "name": "ca6aa58c6a296850e8d2b4889d03112f", "fusion_lat": 0.0, "fusion_lon": 0.0, "rental_uris": {"android": "https://dc.lft.to/lastmile_qr_scan", "ios": "https://dc.lft.to/lastmile_qr_scan"}, "is_reserved": 0, "is_disabled": 0, "type": "electric_scooter", "bike_id": "ca6aa58c6a296850e8d2b4889d03112f"}, {"lon": -77.03163816666667, "lat": 38.914148, "name": "8141ce2751773b6cfb89abc19f1d7b0b", "fusion_lat": 0.0, "fusion_lon": 0.0, "rental_uris": {"android": "https://dc.lft.to/lastmile_qr_scan", "ios": "https://dc.lft.to/lastmile_qr_scan"}, "is_reserved": 0, "is_disabled": 0, "type": "electric_scooter", "bike_id": "8141ce2751773b6cfb89abc19f1d7b0b"}, {"lon": -77.04063383333333, "lat": 38.91766633333334, "name": "303b1351739f9eefb05527d415e6866b", "fusion_lat": 0.0, "fusion_lon": 0.0, "rental_uris": {"android": "https://dc.lft.to/lastmile_qr_scan", "ios": "https://dc.lft.to/lastmile_qr_scan"}, "is_reserved": 0, "is_disabled": 0, "type": "electric_scooter", "bike_id": "303b1351739f9eefb05527d415e6866b"}, {"lon": -77.01525533333333, "lat": 38.88733933333334, "name": "9d426b06c3a46942324c2e63718c3c3e", "fusion_lat": 0.0, "fusion_lon": 0.0, "rental_uris": {"android": "https://dc.lft.to/lastmile_qr_scan", "ios": "https://dc.lft.to/lastmile_qr_scan"}, "is_reserved": 0, "is_disabled": 0, "type": "electric_scooter", "bike_id": "9d426b06c3a46942324c2e63718c3c3e"}, {"lon": -77.07898983333334, "lat": 38.839357666666665, "name": "57806454cab746c9f3fd4472f7604876", "fusion_lat": 0.0, "fusion_lon": 0.0, "rental_uris": {"android": "https://dc.lft.to/lastmile_qr_scan", "ios": "https://dc.lft.to/lastmile_qr_scan"}, "is_reserved": 0, "is_disabled": 0, "type": "electric_bike", "bike_id": "57806454cab746c9f3fd4472f7604876"}, {"lon": -77.0384885, "lat": 38.914752666666665, "name": "f42aa37ad127fbeebaa3f00cb03132f4", "fusion_lat": 0.0, "fusion_lon": 0.0, "rental_uris": {"android": "https://dc.lft.to/lastmile_qr_scan", "ios": "https://dc.lft.to/lastmile_qr_scan"}, "is_reserved": 0, "is_disabled": 0, "type": "electric_scooter", "bike_id": "f42aa37ad127fbeebaa3f00cb03132f4"}, {"lon": -77.05313916666667, "lat": 38.820431166666665, "name": "bf320e723a4d61323b11a0fcb3d9b0f5", "fusion_lat": 0.0, "fusion_lon": 0.0, "rental_uris": {"android": "https://dc.lft.to/lastmile_qr_scan", "ios": "https://dc.lft.to/lastmile_qr_scan"}, "is_reserved": 0, "is_disabled": 0, "type": "electric_bike", "bike_id": "bf320e723a4d61323b11a0fcb3d9b0f5"}, {"lon": -77.00113533333334, "lat": 38.89434466666667, "name": "649541ab96351c84c6eda2ac80b244f3", "fusion_lat": 0.0, "fusion_lon": 0.0, "rental_uris": {"android": "https://dc.lft.to/lastmile_qr_scan", "ios": "https://dc.lft.to/lastmile_qr_scan"}, "is_reserved": 0, "is_disabled": 0, "type": "electric_scooter", "bike_id": "649541ab96351c84c6eda2ac80b244f3"}, {"lon": -77.04997833333333, "lat": 38.89228816666667, "name": "83e12d899648f663b972cd13648ea876", "fusion_lat": 0.0, "fusion_lon": 0.0, "rental_uris": {"android": "https://dc.lft.to/lastmile_qr_scan", "ios": "https://dc.lft.to/lastmile_qr_scan"}, "is_reserved": 0, "is_disabled": 0, "type": "electric_scooter", "bike_id": "83e12d899648f663b972cd13648ea876"}, {"lon": -77.02719716666667, "lat": 38.892201, "name": "d92c10c313f554cd0cdb1f5e8b2ac486", "fusion_lat": 0.0, "fusion_lon": 0.0, "rental_uris": {"android": "https://dc.lft.to/lastmile_qr_scan", "ios": "https://dc.lft.to/lastmile_qr_scan"}, "is_reserved": 0, "is_disabled": 0, "type": "electric_scooter", "bike_id": "d92c10c313f554cd0cdb1f5e8b2ac486"}, {"lon": -77.0247935, "lat": 38.938765833333335, "name": "cb696173164ef3be8a9fe217619cae13", "fusion_lat": 0.0, "fusion_lon": 0.0, "rental_uris": {"android": "https://dc.lft.to/lastmile_qr_scan", "ios": "https://dc.lft.to/lastmile_qr_scan"}, "is_reserved": 0, "is_disabled": 0, "type": "electric_scooter", "bike_id": "cb696173164ef3be8a9fe217619cae13"}, {"lon": -77.02832533333333, "lat": 38.924713833333335, "name": "8ea0bf0a8887535a71139f8d5d371b65", "fusion_lat": 0.0, "fusion_lon": 0.0, "rental_uris": {"android": "https://dc.lft.to/lastmile_qr_scan", "ios": "https://dc.lft.to/lastmile_qr_scan"}, "is_reserved": 0, "is_disabled": 0, "type": "electric_scooter", "bike_id": "8ea0bf0a8887535a71139f8d5d371b65"}, {"lon": -77.03436166666667, "lat": 38.918048, "name": "a1a918d6d9ce9674b9cf564df834303e", "fusion_lat": 0.0, "fusion_lon": 0.0, "rental_uris": {"android": "https://dc.lft.to/lastmile_qr_scan", "ios": "https://dc.lft.to/lastmile_qr_scan"}, "is_reserved": 0, "is_disabled": 0, "type": "electric_scooter", "bike_id": "a1a918d6d9ce9674b9cf564df834303e"}, {"lon": -77.08218266666667, "lat": 38.9355095, "name": "a6da03b0ae4077d94f2d0ca36fa081dc", "fusion_lat": 0.0, "fusion_lon": 0.0, "rental_uris": {"android": "https://dc.lft.to/lastmile_qr_scan", "ios": "https://dc.lft.to/lastmile_qr_scan"}, "is_reserved": 0, "is_disabled": 0, "type": "electric_scooter", "bike_id": "a6da03b0ae4077d94f2d0ca36fa081dc"}, {"lon": -77.03924616666667, "lat": 38.9184465, "name": "f74439d74351ec7a7a3c847a04b17738", "fusion_lat": 0.0, "fusion_lon": 0.0, "rental_uris": {"android": "https://dc.lft.to/lastmile_qr_scan", "ios": "https://dc.lft.to/lastmile_qr_scan"}, "is_reserved": 0, "is_disabled": 0, "type": "electric_scooter", "bike_id": "f74439d74351ec7a7a3c847a04b17738"}, {"lon": -77.0343875, "lat": 38.9180715, "name": "3315e7476254bc6ddc6a17c8d66011b1", "fusion_lat": 0.0, "fusion_lon": 0.0, "rental_uris": {"android": "https://dc.lft.to/lastmile_qr_scan", "ios": "https://dc.lft.to/lastmile_qr_scan"}, "is_reserved": 0, "is_disabled": 0, "type": "electric_scooter", "bike_id": "3315e7476254bc6ddc6a17c8d66011b1"}, {"lon": -77.03699566666667, "lat": 38.9263965, "name": "3794aa864641fdd441266cc6301354d5", "fusion_lat": 0.0, "fusion_lon": 0.0, "rental_uris": {"android": "https://dc.lft.to/lastmile_qr_scan", "ios": "https://dc.lft.to/lastmile_qr_scan"}, "is_reserved": 0, "is_disabled": 0, "type": "electric_scooter", "bike_id": "3794aa864641fdd441266cc6301354d5"}, {"lon": -77.0403445, "lat": 38.923064333333336, "name": "7f28567ac58110e27ca935ad4cdd6bd1", "fusion_lat": 0.0, "fusion_lon": 0.0, "rental_uris": {"android": "https://dc.lft.to/lastmile_qr_scan", "ios": "https://dc.lft.to/lastmile_qr_scan"}, "is_reserved": 0, "is_disabled": 0, "type": "electric_scooter", "bike_id": "7f28567ac58110e27ca935ad4cdd6bd1"}, {"lon": -77.00831266666667, "lat": 38.915491333333335, "name": "a9be4f09904e26c0c61a28b94e0864c7", "fusion_lat": 0.0, "fusion_lon": 0.0, "rental_uris": {"android": "https://dc.lft.to/lastmile_qr_scan", "ios": "https://dc.lft.to/lastmile_qr_scan"}, "is_reserved": 0, "is_disabled": 0, "type": "electric_scooter", "bike_id": "a9be4f09904e26c0c61a28b94e0864c7"}, {"lon": -76.905355, "lat": 38.89732983333333, "name": "0a18e7e32c0c5e4b9fdda7675f85f7a4", "fusion_lat": 0.0, "fusion_lon": 0.0, "rental_uris": {"android": "https://dc.lft.to/lastmile_qr_scan", "ios": "https://dc.lft.to/lastmile_qr_scan"}, "is_reserved": 0, "is_disabled": 0, "type": "electric_bike", "bike_id": "0a18e7e32c0c5e4b9fdda7675f85f7a4"}, {"lon": -77.04693733333333, "lat": 38.9210505, "name": "0d17943dd56557e0c62f236ce99dfde8", "fusion_lat": 0.0, "fusion_lon": 0.0, "rental_uris": {"android": "https://dc.lft.to/lastmile_qr_scan", "ios": "https://dc.lft.to/lastmile_qr_scan"}, "is_reserved": 0, "is_disabled": 0, "type": "electric_scooter", "bike_id": "0d17943dd56557e0c62f236ce99dfde8"}, {"lon": -77.03873616666667, "lat": 38.90974416666667, "name": "d42d551010df64fbbaa37de398e14322", "fusion_lat": 0.0, "fusion_lon": 0.0, "rental_uris": {"android": "https://dc.lft.to/lastmile_qr_scan", "ios": "https://dc.lft.to/lastmile_qr_scan"}, "is_reserved": 0, "is_disabled": 0, "type": "electric_scooter", "bike_id": "d42d551010df64fbbaa37de398e14322"}, {"lon": -77.0268595, "lat": 38.924874833333334, "name": "afafd09de302d5b9ac36833baf90b0dc", "fusion_lat": 0.0, "fusion_lon": 0.0, "rental_uris": {"android": "https://dc.lft.to/lastmile_qr_scan", "ios": "https://dc.lft.to/lastmile_qr_scan"}, "is_reserved": 0, "is_disabled": 0, "type": "electric_scooter", "bike_id": "afafd09de302d5b9ac36833baf90b0dc"}, {"lon": -77.0450915, "lat": 38.9127985, "name": "e10b616268e100bc14eaed9b349e2ba8", "fusion_lat": 0.0, "fusion_lon": 0.0, "rental_uris": {"android": "https://dc.lft.to/lastmile_qr_scan", "ios": "https://dc.lft.to/lastmile_qr_scan"}, "is_reserved": 0, "is_disabled": 0, "type": "electric_scooter", "bike_id": "e10b616268e100bc14eaed9b349e2ba8"}, {"lon": -77.01996783333334, "lat": 38.904662333333334, "name": "ee7219da7c66f89141b18dcf7bf50967", "fusion_lat": 0.0, "fusion_lon": 0.0, "rental_uris": {"android": "https://dc.lft.to/lastmile_qr_scan", "ios": "https://dc.lft.to/lastmile_qr_scan"}, "is_reserved": 0, "is_disabled": 0, "type": "electric_scooter", "bike_id": "ee7219da7c66f89141b18dcf7bf50967"}, {"lon": -77.03085133333333, "lat": 38.9098905, "name": "6c381a9a5bc16616f435cd76b0df141a", "fusion_lat": 0.0, "fusion_lon": 0.0, "rental_uris": {"android": "https://dc.lft.to/lastmile_qr_scan", "ios": "https://dc.lft.to/lastmile_qr_scan"}, "is_reserved": 0, "is_disabled": 0, "type": "electric_scooter", "bike_id": "6c381a9a5bc16616f435cd76b0df141a"}, {"lon": -77.036966, "lat": 38.91693033333333, "name": "ad5bd068e6de779adb19749857edc84e", "fusion_lat": 0.0, "fusion_lon": 0.0, "rental_uris": {"android": "https://dc.lft.to/lastmile_qr_scan", "ios": "https://dc.lft.to/lastmile_qr_scan"}, "is_reserved": 0, "is_disabled": 0, "type": "electric_scooter", "bike_id": "ad5bd068e6de779adb19749857edc84e"}, {"lon": -77.03520683333333, "lat": 38.92728916666667, "name": "5020b83ebcf4b8c1a44be6f310365654", "fusion_lat": 0.0, "fusion_lon": 0.0, "rental_uris": {"android": "https://dc.lft.to/lastmile_qr_scan", "ios": "https://dc.lft.to/lastmile_qr_scan"}, "is_reserved": 0, "is_disabled": 0, "type": "electric_scooter", "bike_id": "5020b83ebcf4b8c1a44be6f310365654"}, {"lon": -77.02112316666667, "lat": 38.93698883333333, "name": "f590fe3989e4399442e60cde009754f1", "fusion_lat": 0.0, "fusion_lon": 0.0, "rental_uris": {"android": "https://dc.lft.to/lastmile_qr_scan", "ios": "https://dc.lft.to/lastmile_qr_scan"}, "is_reserved": 0, "is_disabled": 0, "type": "electric_scooter", "bike_id": "f590fe3989e4399442e60cde009754f1"}, {"lon": -77.0257525, "lat": 38.89281533333333, "name": "43d59d1a653e8ea4751c530adab91f67", "fusion_lat": 0.0, "fusion_lon": 0.0, "rental_uris": {"android": "https://dc.lft.to/lastmile_qr_scan", "ios": "https://dc.lft.to/lastmile_qr_scan"}, "is_reserved": 0, "is_disabled": 0, "type": "electric_scooter", "bike_id": "43d59d1a653e8ea4751c530adab91f67"}, {"lon": -76.981132, "lat": 38.89671166666667, "name": "8514f47e0f03a7a594a707a409a5cd78", "fusion_lat": 0.0, "fusion_lon": 0.0, "rental_uris": {"android": "https://dc.lft.to/lastmile_qr_scan", "ios": "https://dc.lft.to/lastmile_qr_scan"}, "is_reserved": 0, "is_disabled": 0, "type": "electric_bike", "bike_id": "8514f47e0f03a7a594a707a409a5cd78"}, {"lon": -77.0169995, "lat": 38.913832666666664, "name": "dfd9e7134f08bbb5c34421a3b64f1479", "fusion_lat": 0.0, "fusion_lon": 0.0, "rental_uris": {"android": "https://dc.lft.to/lastmile_qr_scan", "ios": "https://dc.lft.to/lastmile_qr_scan"}, "is_reserved": 0, "is_disabled": 0, "type": "electric_scooter", "bike_id": "dfd9e7134f08bbb5c34421a3b64f1479"}, {"lon": -77.02227866666667, "lat": 38.91271316666667, "name": "5186b4ae88876f086a45768189bfe4aa", "fusion_lat": 0.0, "fusion_lon": 0.0, "rental_uris": {"android": "https://dc.lft.to/lastmile_qr_scan", "ios": "https://dc.lft.to/lastmile_qr_scan"}, "is_reserved": 0, "is_disabled": 0, "type": "electric_scooter", "bike_id": "5186b4ae88876f086a45768189bfe4aa"}, {"lon": -77.0215585, "lat": 38.9259905, "name": "cfe0483925a40a9c514f6641ab1ec4a5", "fusion_lat": 0.0, "fusion_lon": 0.0, "rental_uris": {"android": "https://dc.lft.to/lastmile_qr_scan", "ios": "https://dc.lft.to/lastmile_qr_scan"}, "is_reserved": 0, "is_disabled": 0, "type": "electric_scooter", "bike_id": "cfe0483925a40a9c514f6641ab1ec4a5"}, {"lon": -77.03277633333333, "lat": 38.9368455, "name": "d440214af6df8b567c731076c9004ef7", "fusion_lat": 0.0, "fusion_lon": 0.0, "rental_uris": {"android": "https://dc.lft.to/lastmile_qr_scan", "ios": "https://dc.lft.to/lastmile_qr_scan"}, "is_reserved": 0, "is_disabled": 0, "type": "electric_scooter", "bike_id": "d440214af6df8b567c731076c9004ef7"}, {"lon": -76.98327666666667, "lat": 38.9660455, "name": "783da8af29e1947482ddd8750df82fa9", "fusion_lat": 0.0, "fusion_lon": 0.0, "rental_uris": {"android": "https://dc.lft.to/lastmile_qr_scan", "ios": "https://dc.lft.to/lastmile_qr_scan"}, "is_reserved": 0, "is_disabled": 0, "type": "electric_bike", "bike_id": "783da8af29e1947482ddd8750df82fa9"}, {"lon": -77.02203466666667, "lat": 38.88715583333333, "name": "0ddd10b4e076a4e6b20a5772074e6568", "fusion_lat": 0.0, "fusion_lon": 0.0, "rental_uris": {"android": "https://dc.lft.to/lastmile_qr_scan", "ios": "https://dc.lft.to/lastmile_qr_scan"}, "is_reserved": 0, "is_disabled": 0, "type": "electric_scooter", "bike_id": "0ddd10b4e076a4e6b20a5772074e6568"}, {"lon": -76.996095, "lat": 38.9047665, "name": "52a5386d06ac3b271aa4f2f2ccf1b105", "fusion_lat": 0.0, "fusion_lon": 0.0, "rental_uris": {"android": "https://dc.lft.to/lastmile_qr_scan", "ios": "https://dc.lft.to/lastmile_qr_scan"}, "is_reserved": 0, "is_disabled": 0, "type": "electric_scooter", "bike_id": "52a5386d06ac3b271aa4f2f2ccf1b105"}, {"lon": -77.00545133333334, "lat": 38.87848233333333, "name": "cd63e750215e48b7aac9a53f0420a35c", "fusion_lat": 0.0, "fusion_lon": 0.0, "rental_uris": {"android": "https://dc.lft.to/lastmile_qr_scan", "ios": "https://dc.lft.to/lastmile_qr_scan"}, "is_reserved": 0, "is_disabled": 0, "type": "electric_scooter", "bike_id": "cd63e750215e48b7aac9a53f0420a35c"}, {"lon": -76.96523833333333, "lat": 38.87627033333333, "name": "af7342c166eb7aba9be5e22c1ef36a3b", "fusion_lat": 0.0, "fusion_lon": 0.0, "rental_uris": {"android": "https://dc.lft.to/lastmile_qr_scan", "ios": "https://dc.lft.to/lastmile_qr_scan"}, "is_reserved": 0, "is_disabled": 0, "type": "electric_scooter", "bike_id": "af7342c166eb7aba9be5e22c1ef36a3b"}, {"lon": -77.00162833333333, "lat": 38.900222, "name": "cb9df6cd66568bdf64b5edc38bfae9a4", "fusion_lat": 0.0, "fusion_lon": 0.0, "rental_uris": {"android": "https://dc.lft.to/lastmile_qr_scan", "ios": "https://dc.lft.to/lastmile_qr_scan"}, "is_reserved": 0, "is_disabled": 0, "type": "electric_scooter", "bike_id": "cb9df6cd66568bdf64b5edc38bfae9a4"}, {"lon": -76.9525175, "lat": 38.90689966666667, "name": "0b56cd6575debb28089443ef19e4a124", "fusion_lat": 0.0, "fusion_lon": 0.0, "rental_uris": {"android": "https://dc.lft.to/lastmile_qr_scan", "ios": "https://dc.lft.to/lastmile_qr_scan"}, "is_reserved": 0, "is_disabled": 0, "type": "electric_bike", "bike_id": "0b56cd6575debb28089443ef19e4a124"}, {"lon": -77.11203616666667, "lat": 38.81202833333333, "name": "edda7aba40ee84392a97b2de345c4e17", "fusion_lat": 0.0, "fusion_lon": 0.0, "rental_uris": {"android": "https://dc.lft.to/lastmile_qr_scan", "ios": "https://dc.lft.to/lastmile_qr_scan"}, "is_reserved": 0, "is_disabled": 0, "type": "electric_bike", "bike_id": "edda7aba40ee84392a97b2de345c4e17"}, {"lon": -77.0333035, "lat": 38.89837466666667, "name": "22fbf8c508631fed3a8f3a87c0c6af1c", "fusion_lat": 0.0, "fusion_lon": 0.0, "rental_uris": {"android": "https://dc.lft.to/lastmile_qr_scan", "ios": "https://dc.lft.to/lastmile_qr_scan"}, "is_reserved": 0, "is_disabled": 0, "type": "electric_scooter", "bike_id": "22fbf8c508631fed3a8f3a87c0c6af1c"}, {"lon": -77.03402333333334, "lat": 38.934877, "name": "386a8b35e57404437a6d59988f5e2dbd", "fusion_lat": 0.0, "fusion_lon": 0.0, "rental_uris": {"android": "https://dc.lft.to/lastmile_qr_scan", "ios": "https://dc.lft.to/lastmile_qr_scan"}, "is_reserved": 0, "is_disabled": 0, "type": "electric_scooter", "bike_id": "386a8b35e57404437a6d59988f5e2dbd"}, {"lon": -76.97984283333334, "lat": 38.87745566666667, "name": "727a28117298ef6cc8ec7bfb57a3f90a", "fusion_lat": 0.0, "fusion_lon": 0.0, "rental_uris": {"android": "https://dc.lft.to/lastmile_qr_scan", "ios": "https://dc.lft.to/lastmile_qr_scan"}, "is_reserved": 0, "is_disabled": 0, "type": "electric_bike", "bike_id": "727a28117298ef6cc8ec7bfb57a3f90a"}, {"lon": -77.03296716666667, "lat": 38.92217333333333, "name": "ea49edaaf678c3ecbb967fdca5387551", "fusion_lat": 0.0, "fusion_lon": 0.0, "rental_uris": {"android": "https://dc.lft.to/lastmile_qr_scan", "ios": "https://dc.lft.to/lastmile_qr_scan"}, "is_reserved": 0, "is_disabled": 0, "type": "electric_scooter", "bike_id": "ea49edaaf678c3ecbb967fdca5387551"}, {"lon": -77.0311965, "lat": 38.915619666666665, "name": "db66f8e3c2a2379685640257e9916da6", "fusion_lat": 0.0, "fusion_lon": 0.0, "rental_uris": {"android": "https://dc.lft.to/lastmile_qr_scan", "ios": "https://dc.lft.to/lastmile_qr_scan"}, "is_reserved": 0, "is_disabled": 0, "type": "electric_scooter", "bike_id": "db66f8e3c2a2379685640257e9916da6"}, {"lon": -76.947803, "lat": 38.8944185, "name": "d18960deb2e384f247d39ad86f2dc4eb", "fusion_lat": 0.0, "fusion_lon": 0.0, "rental_uris": {"android": "https://dc.lft.to/lastmile_qr_scan", "ios": "https://dc.lft.to/lastmile_qr_scan"}, "is_reserved": 0, "is_disabled": 0, "type": "electric_bike", "bike_id": "d18960deb2e384f247d39ad86f2dc4eb"}, {"lon": -77.03788366666667, "lat": 38.905626166666664, "name": "d19204fb6bd53aed64372a8256169a02", "fusion_lat": 0.0, "fusion_lon": 0.0, "rental_uris": {"android": "https://dc.lft.to/lastmile_qr_scan", "ios": "https://dc.lft.to/lastmile_qr_scan"}, "is_reserved": 0, "is_disabled": 0, "type": "electric_scooter", "bike_id": "d19204fb6bd53aed64372a8256169a02"}, {"lon": -77.04152733333333, "lat": 38.914426, "name": "d5413be464e929e5a4857f6d1aa41382", "fusion_lat": 0.0, "fusion_lon": 0.0, "rental_uris": {"android": "https://dc.lft.to/lastmile_qr_scan", "ios": "https://dc.lft.to/lastmile_qr_scan"}, "is_reserved": 0, "is_disabled": 0, "type": "electric_scooter", "bike_id": "d5413be464e929e5a4857f6d1aa41382"}, {"lon": -76.97741466666666, "lat": 38.9050115, "name": "f68277ffdf59a0cac32be455f240e1f1", "fusion_lat": 0.0, "fusion_lon": 0.0, "rental_uris": {"android": "https://dc.lft.to/lastmile_qr_scan", "ios": "https://dc.lft.to/lastmile_qr_scan"}, "is_reserved": 0, "is_disabled": 0, "type": "electric_scooter", "bike_id": "f68277ffdf59a0cac32be455f240e1f1"}, {"lon": -77.02214816666667, "lat": 38.90219316666666, "name": "8c2239b7310cf4465a817377bfca0432", "fusion_lat": 0.0, "fusion_lon": 0.0, "rental_uris": {"android": "https://dc.lft.to/lastmile_qr_scan", "ios": "https://dc.lft.to/lastmile_qr_scan"}, "is_reserved": 0, "is_disabled": 0, "type": "electric_scooter", "bike_id": "8c2239b7310cf4465a817377bfca0432"}, {"lon": -77.02111083333334, "lat": 38.91734666666667, "name": "e5e2be6d6b3d6dd4998a5b61a83c015f", "fusion_lat": 0.0, "fusion_lon": 0.0, "rental_uris": {"android": "https://dc.lft.to/lastmile_qr_scan", "ios": "https://dc.lft.to/lastmile_qr_scan"}, "is_reserved": 0, "is_disabled": 0, "type": "electric_scooter", "bike_id": "e5e2be6d6b3d6dd4998a5b61a83c015f"}, {"lon": -77.3608865, "lat": 38.93956933333333, "name": "03abf70efbbf819b46907cdf13cfceda", "fusion_lat": 0.0, "fusion_lon": 0.0, "rental_uris": {"android": "https://dc.lft.to/lastmile_qr_scan", "ios": "https://dc.lft.to/lastmile_qr_scan"}, "is_reserved": 0, "is_disabled": 0, "type": "electric_bike", "bike_id": "03abf70efbbf819b46907cdf13cfceda"}, {"lon": -77.03207533333334, "lat": 38.907927, "name": "571e116288599419aaa215eb74d78c62", "fusion_lat": 0.0, "fusion_lon": 0.0, "rental_uris": {"android": "https://dc.lft.to/lastmile_qr_scan", "ios": "https://dc.lft.to/lastmile_qr_scan"}, "is_reserved": 0, "is_disabled": 0, "type": "electric_scooter", "bike_id": "571e116288599419aaa215eb74d78c62"}, {"lon": -77.012201, "lat": 38.91521633333333, "name": "3dce0be99c3a39e0443e9154628087a0", "fusion_lat": 0.0, "fusion_lon": 0.0, "rental_uris": {"android": "https://dc.lft.to/lastmile_qr_scan", "ios": "https://dc.lft.to/lastmile_qr_scan"}, "is_reserved": 0, "is_disabled": 0, "type": "electric_scooter", "bike_id": "3dce0be99c3a39e0443e9154628087a0"}, {"lon": -77.02278466666667, "lat": 38.90960466666667, "name": "40306e02fdb8815b4260328cba46ae4c", "fusion_lat": 0.0, "fusion_lon": 0.0, "rental_uris": {"android": "https://dc.lft.to/lastmile_qr_scan", "ios": "https://dc.lft.to/lastmile_qr_scan"}, "is_reserved": 0, "is_disabled": 0, "type": "electric_scooter", "bike_id": "40306e02fdb8815b4260328cba46ae4c"}, {"lon": -77.02543416666667, "lat": 38.94096166666667, "name": "f7432ad8f83db68db136d4e3450e8508", "fusion_lat": 0.0, "fusion_lon": 0.0, "rental_uris": {"android": "https://dc.lft.to/lastmile_qr_scan", "ios": "https://dc.lft.to/lastmile_qr_scan"}, "is_reserved": 0, "is_disabled": 0, "type": "electric_scooter", "bike_id": "f7432ad8f83db68db136d4e3450e8508"}, {"lon": -76.99729483333333, "lat": 38.9108235, "name": "7e32248fa99053e76f403c69651b42e2", "fusion_lat": 0.0, "fusion_lon": 0.0, "rental_uris": {"android": "https://dc.lft.to/lastmile_qr_scan", "ios": "https://dc.lft.to/lastmile_qr_scan"}, "is_reserved": 0, "is_disabled": 0, "type": "electric_scooter", "bike_id": "7e32248fa99053e76f403c69651b42e2"}, {"lon": -76.98742083333333, "lat": 38.857918, "name": "f07854e8d49195783f0c44de2fde9db5", "fusion_lat": 0.0, "fusion_lon": 0.0, "rental_uris": {"android": "https://dc.lft.to/lastmile_qr_scan", "ios": "https://dc.lft.to/lastmile_qr_scan"}, "is_reserved": 0, "is_disabled": 0, "type": "electric_bike", "bike_id": "f07854e8d49195783f0c44de2fde9db5"}, {"lon": -77.027113, "lat": 38.918223833333336, "name": "3ee6d68d1eea81b55b0182b91b70160f", "fusion_lat": 0.0, "fusion_lon": 0.0, "rental_uris": {"android": "https://dc.lft.to/lastmile_qr_scan", "ios": "https://dc.lft.to/lastmile_qr_scan"}, "is_reserved": 0, "is_disabled": 0, "type": "electric_scooter", "bike_id": "3ee6d68d1eea81b55b0182b91b70160f"}, {"lon": -76.96545666666667, "lat": 38.951159, "name": "2fca5b6385d354e040bf19d897abad23", "fusion_lat": 0.0, "fusion_lon": 0.0, "rental_uris": {"android": "https://dc.lft.to/lastmile_qr_scan", "ios": "https://dc.lft.to/lastmile_qr_scan"}, "is_reserved": 0, "is_disabled": 0, "type": "electric_bike", "bike_id": "2fca5b6385d354e040bf19d897abad23"}, {"lon": -77.01858783333333, "lat": 38.97364433333333, "name": "48e99f870f86239980d3877ebf5a9a43", "fusion_lat": 0.0, "fusion_lon": 0.0, "rental_uris": {"android": "https://dc.lft.to/lastmile_qr_scan", "ios": "https://dc.lft.to/lastmile_qr_scan"}, "is_reserved": 0, "is_disabled": 0, "type": "electric_scooter", "bike_id": "48e99f870f86239980d3877ebf5a9a43"}, {"lon": -76.99825083333333, "lat": 38.84420266666667, "name": "34edac79a8b242826005b82cef071a12", "fusion_lat": 0.0, "fusion_lon": 0.0, "rental_uris": {"android": "https://dc.lft.to/lastmile_qr_scan", "ios": "https://dc.lft.to/lastmile_qr_scan"}, "is_reserved": 0, "is_disabled": 0, "type": "electric_scooter", "bike_id": "34edac79a8b242826005b82cef071a12"}, {"lon": -77.03177666666667, "lat": 38.91922516666666, "name": "2f4d411fcbef7f58c1baa59bf2622aec", "fusion_lat": 0.0, "fusion_lon": 0.0, "rental_uris": {"android": "https://dc.lft.to/lastmile_qr_scan", "ios": "https://dc.lft.to/lastmile_qr_scan"}, "is_reserved": 0, "is_disabled": 0, "type": "electric_scooter", "bike_id": "2f4d411fcbef7f58c1baa59bf2622aec"}, {"lon": -77.04045866666667, "lat": 38.90382366666667, "name": "ac4074669134447c6b3d0224c78911f4", "fusion_lat": 0.0, "fusion_lon": 0.0, "rental_uris": {"android": "https://dc.lft.to/lastmile_qr_scan", "ios": "https://dc.lft.to/lastmile_qr_scan"}, "is_reserved": 0, "is_disabled": 0, "type": "electric_scooter", "bike_id": "ac4074669134447c6b3d0224c78911f4"}, {"lon": -77.05328733333333, "lat": 38.90647966666667, "name": "29152ee4f7dc155ba23ad49fddf91171", "fusion_lat": 0.0, "fusion_lon": 0.0, "rental_uris": {"android": "https://dc.lft.to/lastmile_qr_scan", "ios": "https://dc.lft.to/lastmile_qr_scan"}, "is_reserved": 0, "is_disabled": 0, "type": "electric_scooter", "bike_id": "29152ee4f7dc155ba23ad49fddf91171"}, {"lon": -77.03650733333333, "lat": 38.955935, "name": "d799d53c8cba80a6cd9953470a96d643", "fusion_lat": 0.0, "fusion_lon": 0.0, "rental_uris": {"android": "https://dc.lft.to/lastmile_qr_scan", "ios": "https://dc.lft.to/lastmile_qr_scan"}, "is_reserved": 0, "is_disabled": 0, "type": "electric_scooter", "bike_id": "d799d53c8cba80a6cd9953470a96d643"}, {"lon": -76.98395383333333, "lat": 38.922019166666665, "name": "7ee621f3864059a7d7d549cf44b4607c", "fusion_lat": 0.0, "fusion_lon": 0.0, "rental_uris": {"android": "https://dc.lft.to/lastmile_qr_scan", "ios": "https://dc.lft.to/lastmile_qr_scan"}, "is_reserved": 0, "is_disabled": 0, "type": "electric_bike", "bike_id": "7ee621f3864059a7d7d549cf44b4607c"}, {"lon": -77.02960683333333, "lat": 38.89221033333333, "name": "867ce9195248deda359dcd5e90bd215f", "fusion_lat": 0.0, "fusion_lon": 0.0, "rental_uris": {"android": "https://dc.lft.to/lastmile_qr_scan", "ios": "https://dc.lft.to/lastmile_qr_scan"}, "is_reserved": 0, "is_disabled": 0, "type": "electric_scooter", "bike_id": "867ce9195248deda359dcd5e90bd215f"}, {"lon": -77.03811766666666, "lat": 38.93113916666667, "name": "df1bba85623786d19382f87f2b1616d7", "fusion_lat": 0.0, "fusion_lon": 0.0, "rental_uris": {"android": "https://dc.lft.to/lastmile_qr_scan", "ios": "https://dc.lft.to/lastmile_qr_scan"}, "is_reserved": 0, "is_disabled": 0, "type": "electric_scooter", "bike_id": "df1bba85623786d19382f87f2b1616d7"}, {"lon": -77.12624233333334, "lat": 39.05809, "name": "b597b47fe671435d133838be31e5cbae", "fusion_lat": 0.0, "fusion_lon": 0.0, "rental_uris": {"android": "https://dc.lft.to/lastmile_qr_scan", "ios": "https://dc.lft.to/lastmile_qr_scan"}, "is_reserved": 0, "is_disabled": 0, "type": "electric_bike", "bike_id": "b597b47fe671435d133838be31e5cbae"}, {"lon": -77.03136233333333, "lat": 38.9104195, "name": "2be233c46a567e63cf94aad209b308e5", "fusion_lat": 0.0, "fusion_lon": 0.0, "rental_uris": {"android": "https://dc.lft.to/lastmile_qr_scan", "ios": "https://dc.lft.to/lastmile_qr_scan"}, "is_reserved": 0, "is_disabled": 0, "type": "electric_scooter", "bike_id": "2be233c46a567e63cf94aad209b308e5"}, {"lon": -76.91654066666666, "lat": 38.868599833333334, "name": "c11e9f212e6bc941c3fbb93b1c843643", "fusion_lat": 0.0, "fusion_lon": 0.0, "rental_uris": {"android": "https://dc.lft.to/lastmile_qr_scan", "ios": "https://dc.lft.to/lastmile_qr_scan"}, "is_reserved": 0, "is_disabled": 0, "type": "electric_bike", "bike_id": "c11e9f212e6bc941c3fbb93b1c843643"}, {"lon": -77.05755316666666, "lat": 38.924958, "name": "f9d08ab9ea6869e7de43cd5259539544", "fusion_lat": 0.0, "fusion_lon": 0.0, "rental_uris": {"android": "https://dc.lft.to/lastmile_qr_scan", "ios": "https://dc.lft.to/lastmile_qr_scan"}, "is_reserved": 0, "is_disabled": 0, "type": "electric_bike", "bike_id": "f9d08ab9ea6869e7de43cd5259539544"}, {"lon": -77.04158366666667, "lat": 38.91567516666667, "name": "84df7bcad9b5ac55987fa9e68111065a", "fusion_lat": 0.0, "fusion_lon": 0.0, "rental_uris": {"android": "https://dc.lft.to/lastmile_qr_scan", "ios": "https://dc.lft.to/lastmile_qr_scan"}, "is_reserved": 0, "is_disabled": 0, "type": "electric_scooter", "bike_id": "84df7bcad9b5ac55987fa9e68111065a"}, {"lon": -77.017683, "lat": 38.902668166666665, "name": "41d4dd6b5b9a05ada30d4ae55cea03cf", "fusion_lat": 0.0, "fusion_lon": 0.0, "rental_uris": {"android": "https://dc.lft.to/lastmile_qr_scan", "ios": "https://dc.lft.to/lastmile_qr_scan"}, "is_reserved": 0, "is_disabled": 0, "type": "electric_scooter", "bike_id": "41d4dd6b5b9a05ada30d4ae55cea03cf"}, {"lon": -77.0269745, "lat": 38.915222166666666, "name": "092a96dda2c02ec66f06a08bcf6ba7f2", "fusion_lat": 0.0, "fusion_lon": 0.0, "rental_uris": {"android": "https://dc.lft.to/lastmile_qr_scan", "ios": "https://dc.lft.to/lastmile_qr_scan"}, "is_reserved": 0, "is_disabled": 0, "type": "electric_scooter", "bike_id": "092a96dda2c02ec66f06a08bcf6ba7f2"}, {"lon": -77.10763116666666, "lat": 38.892272166666665, "name": "a1ea7dcf107f6c428d370110098a5773", "fusion_lat": 0.0, "fusion_lon": 0.0, "rental_uris": {"android": "https://dc.lft.to/lastmile_qr_scan", "ios": "https://dc.lft.to/lastmile_qr_scan"}, "is_reserved": 0, "is_disabled": 0, "type": "electric_bike", "bike_id": "a1ea7dcf107f6c428d370110098a5773"}, {"lon": -76.95408216666667, "lat": 38.89157983333333, "name": "57f07677725bbb99411f7855ff3ebcb9", "fusion_lat": 0.0, "fusion_lon": 0.0, "rental_uris": {"android": "https://dc.lft.to/lastmile_qr_scan", "ios": "https://dc.lft.to/lastmile_qr_scan"}, "is_reserved": 0, "is_disabled": 0, "type": "electric_scooter", "bike_id": "57f07677725bbb99411f7855ff3ebcb9"}, {"lon": -77.0439365, "lat": 38.903928, "name": "f71e811877d484e4d87541f11d55104f", "fusion_lat": 0.0, "fusion_lon": 0.0, "rental_uris": {"android": "https://dc.lft.to/lastmile_qr_scan", "ios": "https://dc.lft.to/lastmile_qr_scan"}, "is_reserved": 0, "is_disabled": 0, "type": "electric_scooter", "bike_id": "f71e811877d484e4d87541f11d55104f"}, {"lon": -77.03175683333333, "lat": 38.91913983333333, "name": "c834f7e90ddc63fadebd47bbfe9bfe15", "fusion_lat": 0.0, "fusion_lon": 0.0, "rental_uris": {"android": "https://dc.lft.to/lastmile_qr_scan", "ios": "https://dc.lft.to/lastmile_qr_scan"}, "is_reserved": 0, "is_disabled": 0, "type": "electric_scooter", "bike_id": "c834f7e90ddc63fadebd47bbfe9bfe15"}, {"lon": -77.0727285, "lat": 38.909234, "name": "6f4e4d40fc2093966ef9f9778a7d9c5e", "fusion_lat": 0.0, "fusion_lon": 0.0, "rental_uris": {"android": "https://dc.lft.to/lastmile_qr_scan", "ios": "https://dc.lft.to/lastmile_qr_scan"}, "is_reserved": 0, "is_disabled": 0, "type": "electric_scooter", "bike_id": "6f4e4d40fc2093966ef9f9778a7d9c5e"}, {"lon": -77.00207316666666, "lat": 38.90220266666667, "name": "751e743fa6dbf5e6bb616efc0ada3724", "fusion_lat": 0.0, "fusion_lon": 0.0, "rental_uris": {"android": "https://dc.lft.to/lastmile_qr_scan", "ios": "https://dc.lft.to/lastmile_qr_scan"}, "is_reserved": 0, "is_disabled": 0, "type": "electric_scooter", "bike_id": "751e743fa6dbf5e6bb616efc0ada3724"}, {"lon": -77.03464183333334, "lat": 38.907354, "name": "91b8a4acdabf4c104eecde6163391947", "fusion_lat": 0.0, "fusion_lon": 0.0, "rental_uris": {"android": "https://dc.lft.to/lastmile_qr_scan", "ios": "https://dc.lft.to/lastmile_qr_scan"}, "is_reserved": 0, "is_disabled": 0, "type": "electric_scooter", "bike_id": "91b8a4acdabf4c104eecde6163391947"}, {"lon": -77.02353333333333, "lat": 38.933308833333335, "name": "d497f78e23fb0c555dad0b83deafa2cf", "fusion_lat": 0.0, "fusion_lon": 0.0, "rental_uris": {"android": "https://dc.lft.to/lastmile_qr_scan", "ios": "https://dc.lft.to/lastmile_qr_scan"}, "is_reserved": 0, "is_disabled": 0, "type": "electric_scooter", "bike_id": "d497f78e23fb0c555dad0b83deafa2cf"}, {"lon": -77.00762516666667, "lat": 38.907506, "name": "98861f19869a0834fd3248662c67f52d", "fusion_lat": 0.0, "fusion_lon": 0.0, "rental_uris": {"android": "https://dc.lft.to/lastmile_qr_scan", "ios": "https://dc.lft.to/lastmile_qr_scan"}, "is_reserved": 0, "is_disabled": 0, "type": "electric_scooter", "bike_id": "98861f19869a0834fd3248662c67f52d"}, {"lon": -77.0002295, "lat": 38.9075635, "name": "ecddbfa48e0abe254c6e7c69cea4ed2a", "fusion_lat": 0.0, "fusion_lon": 0.0, "rental_uris": {"android": "https://dc.lft.to/lastmile_qr_scan", "ios": "https://dc.lft.to/lastmile_qr_scan"}, "is_reserved": 0, "is_disabled": 0, "type": "electric_scooter", "bike_id": "ecddbfa48e0abe254c6e7c69cea4ed2a"}, {"lon": -77.00660033333334, "lat": 38.87465066666667, "name": "06c14f6fcac934ea9a09f50518ade663", "fusion_lat": 0.0, "fusion_lon": 0.0, "rental_uris": {"android": "https://dc.lft.to/lastmile_qr_scan", "ios": "https://dc.lft.to/lastmile_qr_scan"}, "is_reserved": 0, "is_disabled": 0, "type": "electric_scooter", "bike_id": "06c14f6fcac934ea9a09f50518ade663"}, {"lon": -77.05226633333334, "lat": 38.925149833333336, "name": "47e56a7dfce206debc5ddae069777910", "fusion_lat": 0.0, "fusion_lon": 0.0, "rental_uris": {"android": "https://dc.lft.to/lastmile_qr_scan", "ios": "https://dc.lft.to/lastmile_qr_scan"}, "is_reserved": 0, "is_disabled": 0, "type": "electric_scooter", "bike_id": "47e56a7dfce206debc5ddae069777910"}, {"lon": -77.03837466666667, "lat": 38.91233116666667, "name": "2ef83b3ba185cdebb36264665b3fb184", "fusion_lat": 0.0, "fusion_lon": 0.0, "rental_uris": {"android": "https://dc.lft.to/lastmile_qr_scan", "ios": "https://dc.lft.to/lastmile_qr_scan"}, "is_reserved": 0, "is_disabled": 0, "type": "electric_scooter", "bike_id": "2ef83b3ba185cdebb36264665b3fb184"}, {"lon": -77.04987366666667, "lat": 38.901019166666664, "name": "16f801c915261130fe317c37ccb38912", "fusion_lat": 0.0, "fusion_lon": 0.0, "rental_uris": {"android": "https://dc.lft.to/lastmile_qr_scan", "ios": "https://dc.lft.to/lastmile_qr_scan"}, "is_reserved": 0, "is_disabled": 0, "type": "electric_scooter", "bike_id": "16f801c915261130fe317c37ccb38912"}, {"lon": -77.0483925, "lat": 38.900735833333336, "name": "fca02d08621e8918eac90298507308f4", "fusion_lat": 0.0, "fusion_lon": 0.0, "rental_uris": {"android": "https://dc.lft.to/lastmile_qr_scan", "ios": "https://dc.lft.to/lastmile_qr_scan"}, "is_reserved": 0, "is_disabled": 0, "type": "electric_scooter", "bike_id": "fca02d08621e8918eac90298507308f4"}, {"lon": -76.93533116666667, "lat": 38.896776833333334, "name": "5d7d5ed4f20bc3f0add6918325ebfeb9", "fusion_lat": 0.0, "fusion_lon": 0.0, "rental_uris": {"android": "https://dc.lft.to/lastmile_qr_scan", "ios": "https://dc.lft.to/lastmile_qr_scan"}, "is_reserved": 0, "is_disabled": 0, "type": "electric_scooter", "bike_id": "5d7d5ed4f20bc3f0add6918325ebfeb9"}, {"lon": -77.00587083333333, "lat": 38.87463233333333, "name": "1a492b604f1706cba15564b4ed5b611d", "fusion_lat": 0.0, "fusion_lon": 0.0, "rental_uris": {"android": "https://dc.lft.to/lastmile_qr_scan", "ios": "https://dc.lft.to/lastmile_qr_scan"}, "is_reserved": 0, "is_disabled": 0, "type": "electric_scooter", "bike_id": "1a492b604f1706cba15564b4ed5b611d"}, {"lon": -77.1411885, "lat": 38.81602933333333, "name": "3ba8776a14d771b87962cd11a1851c48", "fusion_lat": 0.0, "fusion_lon": 0.0, "rental_uris": {"android": "https://dc.lft.to/lastmile_qr_scan", "ios": "https://dc.lft.to/lastmile_qr_scan"}, "is_reserved": 0, "is_disabled": 0, "type": "electric_bike", "bike_id": "3ba8776a14d771b87962cd11a1851c48"}, {"lon": -77.0218715, "lat": 38.91119416666667, "name": "4455534d6726ee2c124c7c67aa8af052", "fusion_lat": 0.0, "fusion_lon": 0.0, "rental_uris": {"android": "https://dc.lft.to/lastmile_qr_scan", "ios": "https://dc.lft.to/lastmile_qr_scan"}, "is_reserved": 0, "is_disabled": 0, "type": "electric_scooter", "bike_id": "4455534d6726ee2c124c7c67aa8af052"}, {"lon": -77.0314325, "lat": 38.92784566666667, "name": "65b75dfa600ad7f03832a985cfe27dad", "fusion_lat": 0.0, "fusion_lon": 0.0, "rental_uris": {"android": "https://dc.lft.to/lastmile_qr_scan", "ios": "https://dc.lft.to/lastmile_qr_scan"}, "is_reserved": 0, "is_disabled": 0, "type": "electric_scooter", "bike_id": "65b75dfa600ad7f03832a985cfe27dad"}, {"lon": -77.05117383333334, "lat": 38.906147833333335, "name": "e7031d8b4baded6f7689e721d10883b3", "fusion_lat": 0.0, "fusion_lon": 0.0, "rental_uris": {"android": "https://dc.lft.to/lastmile_qr_scan", "ios": "https://dc.lft.to/lastmile_qr_scan"}, "is_reserved": 0, "is_disabled": 0, "type": "electric_scooter", "bike_id": "e7031d8b4baded6f7689e721d10883b3"}, {"lon": -77.02494666666666, "lat": 38.974077333333334, "name": "2e84e5d8bd855083abeb556f8a54e84c", "fusion_lat": 0.0, "fusion_lon": 0.0, "rental_uris": {"android": "https://dc.lft.to/lastmile_qr_scan", "ios": "https://dc.lft.to/lastmile_qr_scan"}, "is_reserved": 0, "is_disabled": 0, "type": "electric_bike", "bike_id": "2e84e5d8bd855083abeb556f8a54e84c"}, {"lon": -76.947297, "lat": 38.89672983333333, "name": "a4ce57b36734f1192258e40a726c100e", "fusion_lat": 0.0, "fusion_lon": 0.0, "rental_uris": {"android": "https://dc.lft.to/lastmile_qr_scan", "ios": "https://dc.lft.to/lastmile_qr_scan"}, "is_reserved": 0, "is_disabled": 0, "type": "electric_scooter", "bike_id": "a4ce57b36734f1192258e40a726c100e"}, {"lon": -77.03338833333333, "lat": 38.900393333333334, "name": "64ea00ce9b48864f15b3a988d98506ee", "fusion_lat": 0.0, "fusion_lon": 0.0, "rental_uris": {"android": "https://dc.lft.to/lastmile_qr_scan", "ios": "https://dc.lft.to/lastmile_qr_scan"}, "is_reserved": 0, "is_disabled": 0, "type": "electric_scooter", "bike_id": "64ea00ce9b48864f15b3a988d98506ee"}, {"lon": -76.99944016666667, "lat": 38.8429005, "name": "78b2c1448d1921e7dd39af7b1432273a", "fusion_lat": 0.0, "fusion_lon": 0.0, "rental_uris": {"android": "https://dc.lft.to/lastmile_qr_scan", "ios": "https://dc.lft.to/lastmile_qr_scan"}, "is_reserved": 0, "is_disabled": 0, "type": "electric_scooter", "bike_id": "78b2c1448d1921e7dd39af7b1432273a"}, {"lon": -77.02288183333333, "lat": 38.917339, "name": "e627473f930397b911b105bad1196dc4", "fusion_lat": 0.0, "fusion_lon": 0.0, "rental_uris": {"android": "https://dc.lft.to/lastmile_qr_scan", "ios": "https://dc.lft.to/lastmile_qr_scan"}, "is_reserved": 0, "is_disabled": 0, "type": "electric_scooter", "bike_id": "e627473f930397b911b105bad1196dc4"}, {"lon": -77.04640666666667, "lat": 38.8520855, "name": "4e0f02902a2c9b5ef71b9118cd611f57", "fusion_lat": 0.0, "fusion_lon": 0.0, "rental_uris": {"android": "https://dc.lft.to/lastmile_qr_scan", "ios": "https://dc.lft.to/lastmile_qr_scan"}, "is_reserved": 0, "is_disabled": 0, "type": "electric_bike", "bike_id": "4e0f02902a2c9b5ef71b9118cd611f57"}, {"lon": -77.03698433333334, "lat": 38.9169625, "name": "eeca45f22d903d165938750743fd4b8e", "fusion_lat": 0.0, "fusion_lon": 0.0, "rental_uris": {"android": "https://dc.lft.to/lastmile_qr_scan", "ios": "https://dc.lft.to/lastmile_qr_scan"}, "is_reserved": 0, "is_disabled": 0, "type": "electric_scooter", "bike_id": "eeca45f22d903d165938750743fd4b8e"}, {"lon": -77.05059166666666, "lat": 38.900862333333336, "name": "0171d702966f8ac12f60389226cca61e", "fusion_lat": 0.0, "fusion_lon": 0.0, "rental_uris": {"android": "https://dc.lft.to/lastmile_qr_scan", "ios": "https://dc.lft.to/lastmile_qr_scan"}, "is_reserved": 0, "is_disabled": 0, "type": "electric_scooter", "bike_id": "0171d702966f8ac12f60389226cca61e"}, {"lon": -77.00562866666667, "lat": 38.88499633333333, "name": "7d02647d5411b450c6daa52ccb9a09b2", "fusion_lat": 0.0, "fusion_lon": 0.0, "rental_uris": {"android": "https://dc.lft.to/lastmile_qr_scan", "ios": "https://dc.lft.to/lastmile_qr_scan"}, "is_reserved": 0, "is_disabled": 0, "type": "electric_scooter", "bike_id": "7d02647d5411b450c6daa52ccb9a09b2"}, {"lon": -77.01085183333333, "lat": 38.895003333333335, "name": "f42e9a10b87c5f6dcdfecb8b6a27ffb2", "fusion_lat": 0.0, "fusion_lon": 0.0, "rental_uris": {"android": "https://dc.lft.to/lastmile_qr_scan", "ios": "https://dc.lft.to/lastmile_qr_scan"}, "is_reserved": 0, "is_disabled": 0, "type": "electric_scooter", "bike_id": "f42e9a10b87c5f6dcdfecb8b6a27ffb2"}, {"lon": -77.023562, "lat": 38.908628, "name": "e24f564c7a55cca66b578a2bc02d9f4e", "fusion_lat": 0.0, "fusion_lon": 0.0, "rental_uris": {"android": "https://dc.lft.to/lastmile_qr_scan", "ios": "https://dc.lft.to/lastmile_qr_scan"}, "is_reserved": 0, "is_disabled": 0, "type": "electric_scooter", "bike_id": "e24f564c7a55cca66b578a2bc02d9f4e"}, {"lon": -77.109085, "lat": 39.052031, "name": "cbe918f79cc6ac572c9d477cd8f376f7", "fusion_lat": 0.0, "fusion_lon": 0.0, "rental_uris": {"android": "https://dc.lft.to/lastmile_qr_scan", "ios": "https://dc.lft.to/lastmile_qr_scan"}, "is_reserved": 0, "is_disabled": 0, "type": "electric_bike", "bike_id": "cbe918f79cc6ac572c9d477cd8f376f7"}, {"lon": -76.96549216666666, "lat": 38.91843016666667, "name": "3305b4e35f8f6da72d87876b1a98c838", "fusion_lat": 0.0, "fusion_lon": 0.0, "rental_uris": {"android": "https://dc.lft.to/lastmile_qr_scan", "ios": "https://dc.lft.to/lastmile_qr_scan"}, "is_reserved": 0, "is_disabled": 0, "type": "electric_scooter", "bike_id": "3305b4e35f8f6da72d87876b1a98c838"}, {"lon": -77.00573016666667, "lat": 38.905470333333334, "name": "9acc4a2260ca0723a2e8c7ec093b3a8f", "fusion_lat": 0.0, "fusion_lon": 0.0, "rental_uris": {"android": "https://dc.lft.to/lastmile_qr_scan", "ios": "https://dc.lft.to/lastmile_qr_scan"}, "is_reserved": 0, "is_disabled": 0, "type": "electric_scooter", "bike_id": "9acc4a2260ca0723a2e8c7ec093b3a8f"}, {"lon": -76.990349, "lat": 38.85870033333333, "name": "2a2d4c0acf7e893b73aba240a48fc52b", "fusion_lat": 0.0, "fusion_lon": 0.0, "rental_uris": {"android": "https://dc.lft.to/lastmile_qr_scan", "ios": "https://dc.lft.to/lastmile_qr_scan"}, "is_reserved": 0, "is_disabled": 0, "type": "electric_scooter", "bike_id": "2a2d4c0acf7e893b73aba240a48fc52b"}, {"lon": -77.02400366666667, "lat": 38.88737483333333, "name": "5190d669076098b585027c65fb622832", "fusion_lat": 0.0, "fusion_lon": 0.0, "rental_uris": {"android": "https://dc.lft.to/lastmile_qr_scan", "ios": "https://dc.lft.to/lastmile_qr_scan"}, "is_reserved": 0, "is_disabled": 0, "type": "electric_scooter", "bike_id": "5190d669076098b585027c65fb622832"}, {"lon": -77.04389966666666, "lat": 38.922756166666666, "name": "019d08e85d27cc9354037c273c043cb1", "fusion_lat": 0.0, "fusion_lon": 0.0, "rental_uris": {"android": "https://dc.lft.to/lastmile_qr_scan", "ios": "https://dc.lft.to/lastmile_qr_scan"}, "is_reserved": 0, "is_disabled": 0, "type": "electric_scooter", "bike_id": "019d08e85d27cc9354037c273c043cb1"}, {"lon": -77.01822, "lat": 38.90803716666667, "name": "122b69c3a3878931be2ae67311602ab0", "fusion_lat": 0.0, "fusion_lon": 0.0, "rental_uris": {"android": "https://dc.lft.to/lastmile_qr_scan", "ios": "https://dc.lft.to/lastmile_qr_scan"}, "is_reserved": 0, "is_disabled": 0, "type": "electric_scooter", "bike_id": "122b69c3a3878931be2ae67311602ab0"}, {"lon": -77.0321405, "lat": 38.91478866666667, "name": "7c7e9de693b259fb72e146c7f9114f4f", "fusion_lat": 0.0, "fusion_lon": 0.0, "rental_uris": {"android": "https://dc.lft.to/lastmile_qr_scan", "ios": "https://dc.lft.to/lastmile_qr_scan"}, "is_reserved": 0, "is_disabled": 0, "type": "electric_scooter", "bike_id": "7c7e9de693b259fb72e146c7f9114f4f"}, {"lon": -76.96508533333333, "lat": 38.876492999999996, "name": "6f28c7407b8574348718496a04cee777", "fusion_lat": 0.0, "fusion_lon": 0.0, "rental_uris": {"android": "https://dc.lft.to/lastmile_qr_scan", "ios": "https://dc.lft.to/lastmile_qr_scan"}, "is_reserved": 0, "is_disabled": 0, "type": "electric_scooter", "bike_id": "6f28c7407b8574348718496a04cee777"}, {"lon": -77.01070666666666, "lat": 38.870978666666666, "name": "9dc9455ed941b7dfd05c40aab92cf934", "fusion_lat": 0.0, "fusion_lon": 0.0, "rental_uris": {"android": "https://dc.lft.to/lastmile_qr_scan", "ios": "https://dc.lft.to/lastmile_qr_scan"}, "is_reserved": 0, "is_disabled": 0, "type": "electric_scooter", "bike_id": "9dc9455ed941b7dfd05c40aab92cf934"}, {"lon": -77.0417935, "lat": 38.918531, "name": "003234ad37bd569edec720463af5cf92", "fusion_lat": 0.0, "fusion_lon": 0.0, "rental_uris": {"android": "https://dc.lft.to/lastmile_qr_scan", "ios": "https://dc.lft.to/lastmile_qr_scan"}, "is_reserved": 0, "is_disabled": 0, "type": "electric_scooter", "bike_id": "003234ad37bd569edec720463af5cf92"}, {"lon": -77.01729083333333, "lat": 38.907151666666664, "name": "c223eced2042028dc4b5d0e296dff61c", "fusion_lat": 0.0, "fusion_lon": 0.0, "rental_uris": {"android": "https://dc.lft.to/lastmile_qr_scan", "ios": "https://dc.lft.to/lastmile_qr_scan"}, "is_reserved": 0, "is_disabled": 0, "type": "electric_scooter", "bike_id": "c223eced2042028dc4b5d0e296dff61c"}, {"lon": -76.98769033333333, "lat": 38.91168916666667, "name": "8cbe314f02453af26552d8013b7d67a9", "fusion_lat": 0.0, "fusion_lon": 0.0, "rental_uris": {"android": "https://dc.lft.to/lastmile_qr_scan", "ios": "https://dc.lft.to/lastmile_qr_scan"}, "is_reserved": 0, "is_disabled": 0, "type": "electric_scooter", "bike_id": "8cbe314f02453af26552d8013b7d67a9"}, {"lon": -76.9411885, "lat": 38.907944666666666, "name": "78af928f0c860880faf44131d138de67", "fusion_lat": 0.0, "fusion_lon": 0.0, "rental_uris": {"android": "https://dc.lft.to/lastmile_qr_scan", "ios": "https://dc.lft.to/lastmile_qr_scan"}, "is_reserved": 0, "is_disabled": 0, "type": "electric_scooter", "bike_id": "78af928f0c860880faf44131d138de67"}, {"lon": -77.02692583333334, "lat": 38.924798, "name": "26700c9f5c910dae4e169f03084b78b4", "fusion_lat": 0.0, "fusion_lon": 0.0, "rental_uris": {"android": "https://dc.lft.to/lastmile_qr_scan", "ios": "https://dc.lft.to/lastmile_qr_scan"}, "is_reserved": 0, "is_disabled": 0, "type": "electric_scooter", "bike_id": "26700c9f5c910dae4e169f03084b78b4"}, {"lon": -77.038296, "lat": 38.911082, "name": "ac0ac34827886551034e848a2152a880", "fusion_lat": 0.0, "fusion_lon": 0.0, "rental_uris": {"android": "https://dc.lft.to/lastmile_qr_scan", "ios": "https://dc.lft.to/lastmile_qr_scan"}, "is_reserved": 0, "is_disabled": 0, "type": "electric_scooter", "bike_id": "ac0ac34827886551034e848a2152a880"}, {"lon": -77.0289755, "lat": 38.903597833333336, "name": "589062394966d8529b7ae6c8038838f5", "fusion_lat": 0.0, "fusion_lon": 0.0, "rental_uris": {"android": "https://dc.lft.to/lastmile_qr_scan", "ios": "https://dc.lft.to/lastmile_qr_scan"}, "is_reserved": 0, "is_disabled": 0, "type": "electric_scooter", "bike_id": "589062394966d8529b7ae6c8038838f5"}, {"lon": -77.127472, "lat": 38.88823266666667, "name": "d975c810c53801d288e512d3d7a56dec", "fusion_lat": 0.0, "fusion_lon": 0.0, "rental_uris": {"android": "https://dc.lft.to/lastmile_qr_scan", "ios": "https://dc.lft.to/lastmile_qr_scan"}, "is_reserved": 0, "is_disabled": 0, "type": "electric_bike", "bike_id": "d975c810c53801d288e512d3d7a56dec"}, {"lon": -77.04649616666667, "lat": 38.90438233333333, "name": "0e0281355efa260d0ed7403a9232bf82", "fusion_lat": 0.0, "fusion_lon": 0.0, "rental_uris": {"android": "https://dc.lft.to/lastmile_qr_scan", "ios": "https://dc.lft.to/lastmile_qr_scan"}, "is_reserved": 0, "is_disabled": 0, "type": "electric_scooter", "bike_id": "0e0281355efa260d0ed7403a9232bf82"}, {"lon": -77.01778066666667, "lat": 38.8984735, "name": "604a26f898740e4809a64cda7ebbc529", "fusion_lat": 0.0, "fusion_lon": 0.0, "rental_uris": {"android": "https://dc.lft.to/lastmile_qr_scan", "ios": "https://dc.lft.to/lastmile_qr_scan"}, "is_reserved": 0, "is_disabled": 0, "type": "electric_scooter", "bike_id": "604a26f898740e4809a64cda7ebbc529"}, {"lon": -76.99970116666667, "lat": 38.9087215, "name": "449bcdd7c356107de451f6dbb6a226e0", "fusion_lat": 0.0, "fusion_lon": 0.0, "rental_uris": {"android": "https://dc.lft.to/lastmile_qr_scan", "ios": "https://dc.lft.to/lastmile_qr_scan"}, "is_reserved": 0, "is_disabled": 0, "type": "electric_scooter", "bike_id": "449bcdd7c356107de451f6dbb6a226e0"}, {"lon": -77.04443, "lat": 38.92324716666667, "name": "9defdedaf9bbc5ecae29ccc4ab8532df", "fusion_lat": 0.0, "fusion_lon": 0.0, "rental_uris": {"android": "https://dc.lft.to/lastmile_qr_scan", "ios": "https://dc.lft.to/lastmile_qr_scan"}, "is_reserved": 0, "is_disabled": 0, "type": "electric_scooter", "bike_id": "9defdedaf9bbc5ecae29ccc4ab8532df"}, {"lon": -76.93652083333333, "lat": 38.90285983333333, "name": "32e5453396c5ffc507051dd7cb36570e", "fusion_lat": 0.0, "fusion_lon": 0.0, "rental_uris": {"android": "https://dc.lft.to/lastmile_qr_scan", "ios": "https://dc.lft.to/lastmile_qr_scan"}, "is_reserved": 0, "is_disabled": 0, "type": "electric_scooter", "bike_id": "32e5453396c5ffc507051dd7cb36570e"}, {"lon": -77.02536316666666, "lat": 38.924021833333335, "name": "8e485f505a86e6af0f3f3de68bd3ac85", "fusion_lat": 0.0, "fusion_lon": 0.0, "rental_uris": {"android": "https://dc.lft.to/lastmile_qr_scan", "ios": "https://dc.lft.to/lastmile_qr_scan"}, "is_reserved": 0, "is_disabled": 0, "type": "electric_scooter", "bike_id": "8e485f505a86e6af0f3f3de68bd3ac85"}, {"lon": -77.02391066666667, "lat": 38.88731816666667, "name": "65bc76723bc0f19eac6b8b214a19a648", "fusion_lat": 0.0, "fusion_lon": 0.0, "rental_uris": {"android": "https://dc.lft.to/lastmile_qr_scan", "ios": "https://dc.lft.to/lastmile_qr_scan"}, "is_reserved": 0, "is_disabled": 0, "type": "electric_scooter", "bike_id": "65bc76723bc0f19eac6b8b214a19a648"}, {"lon": -77.06164166666667, "lat": 38.9422265, "name": "85cd7454e9729602f15b2e432c8cf76c", "fusion_lat": 0.0, "fusion_lon": 0.0, "rental_uris": {"android": "https://dc.lft.to/lastmile_qr_scan", "ios": "https://dc.lft.to/lastmile_qr_scan"}, "is_reserved": 0, "is_disabled": 0, "type": "electric_scooter", "bike_id": "85cd7454e9729602f15b2e432c8cf76c"}, {"lon": -76.931555, "lat": 38.898843, "name": "55c325f757cc9661f6af97501e1b53ad", "fusion_lat": 0.0, "fusion_lon": 0.0, "rental_uris": {"android": "https://dc.lft.to/lastmile_qr_scan", "ios": "https://dc.lft.to/lastmile_qr_scan"}, "is_reserved": 0, "is_disabled": 0, "type": "electric_scooter", "bike_id": "55c325f757cc9661f6af97501e1b53ad"}, {"lon": -77.03457483333334, "lat": 38.914639333333334, "name": "735d81487fabbf4b2326482a8c248070", "fusion_lat": 0.0, "fusion_lon": 0.0, "rental_uris": {"android": "https://dc.lft.to/lastmile_qr_scan", "ios": "https://dc.lft.to/lastmile_qr_scan"}, "is_reserved": 0, "is_disabled": 0, "type": "electric_scooter", "bike_id": "735d81487fabbf4b2326482a8c248070"}, {"lon": -76.948994, "lat": 38.895246, "name": "b33f0a3902f93167a8bbb0d85d413b63", "fusion_lat": 0.0, "fusion_lon": 0.0, "rental_uris": {"android": "https://dc.lft.to/lastmile_qr_scan", "ios": "https://dc.lft.to/lastmile_qr_scan"}, "is_reserved": 0, "is_disabled": 0, "type": "electric_scooter", "bike_id": "b33f0a3902f93167a8bbb0d85d413b63"}, {"lon": -77.02370816666667, "lat": 38.901958, "name": "74799de2edae8e8206a82bf14fee022b", "fusion_lat": 0.0, "fusion_lon": 0.0, "rental_uris": {"android": "https://dc.lft.to/lastmile_qr_scan", "ios": "https://dc.lft.to/lastmile_qr_scan"}, "is_reserved": 0, "is_disabled": 0, "type": "electric_scooter", "bike_id": "74799de2edae8e8206a82bf14fee022b"}, {"lon": -77.02697333333333, "lat": 38.91597333333333, "name": "346b91d98787a3b9beaae5bf31867425", "fusion_lat": 0.0, "fusion_lon": 0.0, "rental_uris": {"android": "https://dc.lft.to/lastmile_qr_scan", "ios": "https://dc.lft.to/lastmile_qr_scan"}, "is_reserved": 0, "is_disabled": 0, "type": "electric_scooter", "bike_id": "346b91d98787a3b9beaae5bf31867425"}, {"lon": -77.02474366666667, "lat": 38.926528833333336, "name": "c96f5fa05ed75876c78a3673aee9e4b4", "fusion_lat": 0.0, "fusion_lon": 0.0, "rental_uris": {"android": "https://dc.lft.to/lastmile_qr_scan", "ios": "https://dc.lft.to/lastmile_qr_scan"}, "is_reserved": 0, "is_disabled": 0, "type": "electric_scooter", "bike_id": "c96f5fa05ed75876c78a3673aee9e4b4"}, {"lon": -77.04205233333333, "lat": 38.90152633333334, "name": "41aa0900fc03a455b27f8b08cf527496", "fusion_lat": 0.0, "fusion_lon": 0.0, "rental_uris": {"android": "https://dc.lft.to/lastmile_qr_scan", "ios": "https://dc.lft.to/lastmile_qr_scan"}, "is_reserved": 0, "is_disabled": 0, "type": "electric_scooter", "bike_id": "41aa0900fc03a455b27f8b08cf527496"}, {"lon": -77.03360883333333, "lat": 38.88758283333333, "name": "a21086b49611c9dd56569cf29ddc42a5", "fusion_lat": 0.0, "fusion_lon": 0.0, "rental_uris": {"android": "https://dc.lft.to/lastmile_qr_scan", "ios": "https://dc.lft.to/lastmile_qr_scan"}, "is_reserved": 0, "is_disabled": 0, "type": "electric_scooter", "bike_id": "a21086b49611c9dd56569cf29ddc42a5"}, {"lon": -77.02380266666667, "lat": 38.91154083333333, "name": "c4ec7b747a8c08b6e968a67cea19afee", "fusion_lat": 0.0, "fusion_lon": 0.0, "rental_uris": {"android": "https://dc.lft.to/lastmile_qr_scan", "ios": "https://dc.lft.to/lastmile_qr_scan"}, "is_reserved": 0, "is_disabled": 0, "type": "electric_scooter", "bike_id": "c4ec7b747a8c08b6e968a67cea19afee"}, {"lon": -77.01983666666666, "lat": 38.9047655, "name": "4f9d0e90c3d3d82c5c05f33d9a34e4f9", "fusion_lat": 0.0, "fusion_lon": 0.0, "rental_uris": {"android": "https://dc.lft.to/lastmile_qr_scan", "ios": "https://dc.lft.to/lastmile_qr_scan"}, "is_reserved": 0, "is_disabled": 0, "type": "electric_scooter", "bike_id": "4f9d0e90c3d3d82c5c05f33d9a34e4f9"}, {"lon": -76.99874916666667, "lat": 38.90023866666667, "name": "ccd2c5c7db9ffc3e52c715bd26604654", "fusion_lat": 0.0, "fusion_lon": 0.0, "rental_uris": {"android": "https://dc.lft.to/lastmile_qr_scan", "ios": "https://dc.lft.to/lastmile_qr_scan"}, "is_reserved": 0, "is_disabled": 0, "type": "electric_scooter", "bike_id": "ccd2c5c7db9ffc3e52c715bd26604654"}, {"lon": -76.9899845, "lat": 38.86504033333333, "name": "70788ee00cf8539b62f97e66e8d768f7", "fusion_lat": 0.0, "fusion_lon": 0.0, "rental_uris": {"android": "https://dc.lft.to/lastmile_qr_scan", "ios": "https://dc.lft.to/lastmile_qr_scan"}, "is_reserved": 0, "is_disabled": 0, "type": "electric_scooter", "bike_id": "70788ee00cf8539b62f97e66e8d768f7"}, {"lon": -76.99415733333333, "lat": 38.901376, "name": "d7d563540600ffa10a47f3d8b8bbd237", "fusion_lat": 0.0, "fusion_lon": 0.0, "rental_uris": {"android": "https://dc.lft.to/lastmile_qr_scan", "ios": "https://dc.lft.to/lastmile_qr_scan"}, "is_reserved": 0, "is_disabled": 0, "type": "electric_scooter", "bike_id": "d7d563540600ffa10a47f3d8b8bbd237"}, {"lon": -76.97663033333333, "lat": 38.898565166666664, "name": "9211f31a8aee72afc14c075ab26712f3", "fusion_lat": 0.0, "fusion_lon": 0.0, "rental_uris": {"android": "https://dc.lft.to/lastmile_qr_scan", "ios": "https://dc.lft.to/lastmile_qr_scan"}, "is_reserved": 0, "is_disabled": 0, "type": "electric_scooter", "bike_id": "9211f31a8aee72afc14c075ab26712f3"}, {"lon": -77.02401, "lat": 38.934791, "name": "a20c86018ee9ac686b493d0ad30e597d", "fusion_lat": 0.0, "fusion_lon": 0.0, "rental_uris": {"android": "https://dc.lft.to/lastmile_qr_scan", "ios": "https://dc.lft.to/lastmile_qr_scan"}, "is_reserved": 0, "is_disabled": 0, "type": "electric_scooter", "bike_id": "a20c86018ee9ac686b493d0ad30e597d"}, {"lon": -76.93433816666666, "lat": 38.89967266666667, "name": "ae447b86384e513881043cc4525fb3ce", "fusion_lat": 0.0, "fusion_lon": 0.0, "rental_uris": {"android": "https://dc.lft.to/lastmile_qr_scan", "ios": "https://dc.lft.to/lastmile_qr_scan"}, "is_reserved": 0, "is_disabled": 0, "type": "electric_scooter", "bike_id": "ae447b86384e513881043cc4525fb3ce"}, {"lon": -77.05143283333334, "lat": 38.90800183333333, "name": "f2521982bcebe2acf95d5b4254be0ad9", "fusion_lat": 0.0, "fusion_lon": 0.0, "rental_uris": {"android": "https://dc.lft.to/lastmile_qr_scan", "ios": "https://dc.lft.to/lastmile_qr_scan"}, "is_reserved": 0, "is_disabled": 0, "type": "electric_scooter", "bike_id": "f2521982bcebe2acf95d5b4254be0ad9"}, {"lon": -77.02314416666667, "lat": 38.91785616666667, "name": "2a9a52d442c69bf9f5e52b0d1523cd1d", "fusion_lat": 0.0, "fusion_lon": 0.0, "rental_uris": {"android": "https://dc.lft.to/lastmile_qr_scan", "ios": "https://dc.lft.to/lastmile_qr_scan"}, "is_reserved": 0, "is_disabled": 0, "type": "electric_scooter", "bike_id": "2a9a52d442c69bf9f5e52b0d1523cd1d"}, {"lon": -77.034657, "lat": 38.9089375, "name": "4bf4d1e2688ac9049edebcfb59b7ff56", "fusion_lat": 0.0, "fusion_lon": 0.0, "rental_uris": {"android": "https://dc.lft.to/lastmile_qr_scan", "ios": "https://dc.lft.to/lastmile_qr_scan"}, "is_reserved": 0, "is_disabled": 0, "type": "electric_scooter", "bike_id": "4bf4d1e2688ac9049edebcfb59b7ff56"}, {"lon": -77.03661633333333, "lat": 38.90820166666666, "name": "0327be382ebe2bb8de07c50fa77c4298", "fusion_lat": 0.0, "fusion_lon": 0.0, "rental_uris": {"android": "https://dc.lft.to/lastmile_qr_scan", "ios": "https://dc.lft.to/lastmile_qr_scan"}, "is_reserved": 0, "is_disabled": 0, "type": "electric_scooter", "bike_id": "0327be382ebe2bb8de07c50fa77c4298"}, {"lon": -77.03353066666666, "lat": 38.89973283333333, "name": "dbdb73c0ff70206752c5e33e38354be3", "fusion_lat": 0.0, "fusion_lon": 0.0, "rental_uris": {"android": "https://dc.lft.to/lastmile_qr_scan", "ios": "https://dc.lft.to/lastmile_qr_scan"}, "is_reserved": 0, "is_disabled": 0, "type": "electric_scooter", "bike_id": "dbdb73c0ff70206752c5e33e38354be3"}, {"lon": -77.0168635, "lat": 38.91325616666666, "name": "1ae851eb148ae9cdabd1bdf9c7badb33", "fusion_lat": 0.0, "fusion_lon": 0.0, "rental_uris": {"android": "https://dc.lft.to/lastmile_qr_scan", "ios": "https://dc.lft.to/lastmile_qr_scan"}, "is_reserved": 0, "is_disabled": 0, "type": "electric_scooter", "bike_id": "1ae851eb148ae9cdabd1bdf9c7badb33"}, {"lon": -77.03214066666666, "lat": 38.91708033333333, "name": "b5b50060d66f3972264cae1241e3c635", "fusion_lat": 0.0, "fusion_lon": 0.0, "rental_uris": {"android": "https://dc.lft.to/lastmile_qr_scan", "ios": "https://dc.lft.to/lastmile_qr_scan"}, "is_reserved": 0, "is_disabled": 0, "type": "electric_scooter", "bike_id": "b5b50060d66f3972264cae1241e3c635"}, {"lon": -77.04072416666666, "lat": 38.923431666666666, "name": "03a976bd97948ab40f7013415b89b55e", "fusion_lat": 0.0, "fusion_lon": 0.0, "rental_uris": {"android": "https://dc.lft.to/lastmile_qr_scan", "ios": "https://dc.lft.to/lastmile_qr_scan"}, "is_reserved": 0, "is_disabled": 0, "type": "electric_scooter", "bike_id": "03a976bd97948ab40f7013415b89b55e"}, {"lon": -77.00862483333333, "lat": 38.827237333333336, "name": "40a479b34b7f2258fb2e8294249ce85c", "fusion_lat": 0.0, "fusion_lon": 0.0, "rental_uris": {"android": "https://dc.lft.to/lastmile_qr_scan", "ios": "https://dc.lft.to/lastmile_qr_scan"}, "is_reserved": 0, "is_disabled": 0, "type": "electric_bike", "bike_id": "40a479b34b7f2258fb2e8294249ce85c"}, {"lon": -77.073668, "lat": 38.943227666666665, "name": "b2fbda92b4a1b185c562e4ec967e85ae", "fusion_lat": 0.0, "fusion_lon": 0.0, "rental_uris": {"android": "https://dc.lft.to/lastmile_qr_scan", "ios": "https://dc.lft.to/lastmile_qr_scan"}, "is_reserved": 0, "is_disabled": 0, "type": "electric_scooter", "bike_id": "b2fbda92b4a1b185c562e4ec967e85ae"}, {"lon": -76.98567733333333, "lat": 38.85587433333333, "name": "41d8b7b312d00440a6865aa64fd0589f", "fusion_lat": 0.0, "fusion_lon": 0.0, "rental_uris": {"android": "https://dc.lft.to/lastmile_qr_scan", "ios": "https://dc.lft.to/lastmile_qr_scan"}, "is_reserved": 0, "is_disabled": 0, "type": "electric_scooter", "bike_id": "41d8b7b312d00440a6865aa64fd0589f"}, {"lon": -77.07260533333333, "lat": 38.934765666666664, "name": "c97ed27ae71a7f7d2f484f593c06375a", "fusion_lat": 0.0, "fusion_lon": 0.0, "rental_uris": {"android": "https://dc.lft.to/lastmile_qr_scan", "ios": "https://dc.lft.to/lastmile_qr_scan"}, "is_reserved": 0, "is_disabled": 0, "type": "electric_scooter", "bike_id": "c97ed27ae71a7f7d2f484f593c06375a"}, {"lon": -77.025991, "lat": 38.90042733333333, "name": "ab52a72c1da9d4722518c78678fb9785", "fusion_lat": 0.0, "fusion_lon": 0.0, "rental_uris": {"android": "https://dc.lft.to/lastmile_qr_scan", "ios": "https://dc.lft.to/lastmile_qr_scan"}, "is_reserved": 0, "is_disabled": 0, "type": "electric_scooter", "bike_id": "ab52a72c1da9d4722518c78678fb9785"}, {"lon": -77.00592166666667, "lat": 38.91561183333334, "name": "f2320e0fe95a503510244cc5389e1b05", "fusion_lat": 0.0, "fusion_lon": 0.0, "rental_uris": {"android": "https://dc.lft.to/lastmile_qr_scan", "ios": "https://dc.lft.to/lastmile_qr_scan"}, "is_reserved": 0, "is_disabled": 0, "type": "electric_scooter", "bike_id": "f2320e0fe95a503510244cc5389e1b05"}, {"lon": -77.02337033333333, "lat": 38.962028833333335, "name": "a2b982e3d55803435691d491cac4f9c2", "fusion_lat": 0.0, "fusion_lon": 0.0, "rental_uris": {"android": "https://dc.lft.to/lastmile_qr_scan", "ios": "https://dc.lft.to/lastmile_qr_scan"}, "is_reserved": 0, "is_disabled": 0, "type": "electric_scooter", "bike_id": "a2b982e3d55803435691d491cac4f9c2"}, {"lon": -77.038423, "lat": 38.909257833333335, "name": "3a8db3f3089698242f4e101b32fa90d9", "fusion_lat": 0.0, "fusion_lon": 0.0, "rental_uris": {"android": "https://dc.lft.to/lastmile_qr_scan", "ios": "https://dc.lft.to/lastmile_qr_scan"}, "is_reserved": 0, "is_disabled": 0, "type": "electric_scooter", "bike_id": "3a8db3f3089698242f4e101b32fa90d9"}, {"lon": -76.99502533333333, "lat": 38.87912716666666, "name": "47099c991b0c1cdb9e412e7eae166797", "fusion_lat": 0.0, "fusion_lon": 0.0, "rental_uris": {"android": "https://dc.lft.to/lastmile_qr_scan", "ios": "https://dc.lft.to/lastmile_qr_scan"}, "is_reserved": 0, "is_disabled": 0, "type": "electric_scooter", "bike_id": "47099c991b0c1cdb9e412e7eae166797"}, {"lon": -77.026325, "lat": 38.91550216666667, "name": "3da74fc1426b3ee72d9430975131e1bc", "fusion_lat": 0.0, "fusion_lon": 0.0, "rental_uris": {"android": "https://dc.lft.to/lastmile_qr_scan", "ios": "https://dc.lft.to/lastmile_qr_scan"}, "is_reserved": 0, "is_disabled": 0, "type": "electric_scooter", "bike_id": "3da74fc1426b3ee72d9430975131e1bc"}, {"lon": -77.07127816666667, "lat": 38.91972633333334, "name": "bdb75c3a8c35df82d93e0123e9faab45", "fusion_lat": 0.0, "fusion_lon": 0.0, "rental_uris": {"android": "https://dc.lft.to/lastmile_qr_scan", "ios": "https://dc.lft.to/lastmile_qr_scan"}, "is_reserved": 0, "is_disabled": 0, "type": "electric_scooter", "bike_id": "bdb75c3a8c35df82d93e0123e9faab45"}, {"lon": -77.125029, "lat": 39.02413166666667, "name": "546669a4895a6019524aa12288d944a5", "fusion_lat": 0.0, "fusion_lon": 0.0, "rental_uris": {"android": "https://dc.lft.to/lastmile_qr_scan", "ios": "https://dc.lft.to/lastmile_qr_scan"}, "is_reserved": 0, "is_disabled": 0, "type": "electric_bike", "bike_id": "546669a4895a6019524aa12288d944a5"}, {"lon": -77.0057795, "lat": 38.90259783333333, "name": "8cb61137ac066d91204e110a9804e301", "fusion_lat": 0.0, "fusion_lon": 0.0, "rental_uris": {"android": "https://dc.lft.to/lastmile_qr_scan", "ios": "https://dc.lft.to/lastmile_qr_scan"}, "is_reserved": 0, "is_disabled": 0, "type": "electric_scooter", "bike_id": "8cb61137ac066d91204e110a9804e301"}, {"lon": -77.036289, "lat": 38.93285733333333, "name": "e7db2f43da57208621dedef841c055da", "fusion_lat": 0.0, "fusion_lon": 0.0, "rental_uris": {"android": "https://dc.lft.to/lastmile_qr_scan", "ios": "https://dc.lft.to/lastmile_qr_scan"}, "is_reserved": 0, "is_disabled": 0, "type": "electric_scooter", "bike_id": "e7db2f43da57208621dedef841c055da"}, {"lon": -77.04334683333333, "lat": 38.922220333333335, "name": "b00f93cfa75b24422d51fdbb205759f5", "fusion_lat": 0.0, "fusion_lon": 0.0, "rental_uris": {"android": "https://dc.lft.to/lastmile_qr_scan", "ios": "https://dc.lft.to/lastmile_qr_scan"}, "is_reserved": 0, "is_disabled": 0, "type": "electric_scooter", "bike_id": "b00f93cfa75b24422d51fdbb205759f5"}, {"lon": -77.02549366666666, "lat": 38.907264833333336, "name": "77a7ead19c81d6120725a3e611b451b0", "fusion_lat": 0.0, "fusion_lon": 0.0, "rental_uris": {"android": "https://dc.lft.to/lastmile_qr_scan", "ios": "https://dc.lft.to/lastmile_qr_scan"}, "is_reserved": 0, "is_disabled": 0, "type": "electric_scooter", "bike_id": "77a7ead19c81d6120725a3e611b451b0"}, {"lon": -77.02649216666667, "lat": 38.938589666666665, "name": "a1fd22eff0aeb1c6c0ad775b02da146e", "fusion_lat": 0.0, "fusion_lon": 0.0, "rental_uris": {"android": "https://dc.lft.to/lastmile_qr_scan", "ios": "https://dc.lft.to/lastmile_qr_scan"}, "is_reserved": 0, "is_disabled": 0, "type": "electric_scooter", "bike_id": "a1fd22eff0aeb1c6c0ad775b02da146e"}, {"lon": -76.96876133333333, "lat": 38.8459445, "name": "bafea063c4ddc1854c9f41ce5d09a924", "fusion_lat": 0.0, "fusion_lon": 0.0, "rental_uris": {"android": "https://dc.lft.to/lastmile_qr_scan", "ios": "https://dc.lft.to/lastmile_qr_scan"}, "is_reserved": 0, "is_disabled": 0, "type": "electric_bike", "bike_id": "bafea063c4ddc1854c9f41ce5d09a924"}, {"lon": -77.00728866666667, "lat": 38.95971483333334, "name": "3027b2c37a9afa36017a8f3b662c779a", "fusion_lat": 0.0, "fusion_lon": 0.0, "rental_uris": {"android": "https://dc.lft.to/lastmile_qr_scan", "ios": "https://dc.lft.to/lastmile_qr_scan"}, "is_reserved": 0, "is_disabled": 0, "type": "electric_scooter", "bike_id": "3027b2c37a9afa36017a8f3b662c779a"}, {"lon": -77.06754166666667, "lat": 38.94984, "name": "d0b46d99b99bffb385964bcafc7478ac", "fusion_lat": 0.0, "fusion_lon": 0.0, "rental_uris": {"android": "https://dc.lft.to/lastmile_qr_scan", "ios": "https://dc.lft.to/lastmile_qr_scan"}, "is_reserved": 0, "is_disabled": 0, "type": "electric_scooter", "bike_id": "d0b46d99b99bffb385964bcafc7478ac"}, {"lon": -77.02167716666666, "lat": 38.89731233333333, "name": "8e6b86ee4dac49fa32f864e78e81d8b7", "fusion_lat": 0.0, "fusion_lon": 0.0, "rental_uris": {"android": "https://dc.lft.to/lastmile_qr_scan", "ios": "https://dc.lft.to/lastmile_qr_scan"}, "is_reserved": 0, "is_disabled": 0, "type": "electric_scooter", "bike_id": "8e6b86ee4dac49fa32f864e78e81d8b7"}, {"lon": -76.991219, "lat": 38.900114333333335, "name": "69c1e77d855864ff18b20277fb22178b", "fusion_lat": 0.0, "fusion_lon": 0.0, "rental_uris": {"android": "https://dc.lft.to/lastmile_qr_scan", "ios": "https://dc.lft.to/lastmile_qr_scan"}, "is_reserved": 0, "is_disabled": 0, "type": "electric_scooter", "bike_id": "69c1e77d855864ff18b20277fb22178b"}, {"lon": -77.01446266666666, "lat": 38.87665366666667, "name": "bbfa651f28a2490e38aee09e3e705a55", "fusion_lat": 0.0, "fusion_lon": 0.0, "rental_uris": {"android": "https://dc.lft.to/lastmile_qr_scan", "ios": "https://dc.lft.to/lastmile_qr_scan"}, "is_reserved": 0, "is_disabled": 0, "type": "electric_bike", "bike_id": "bbfa651f28a2490e38aee09e3e705a55"}, {"lon": -76.972218, "lat": 38.844821333333336, "name": "3c690eeecf421c138b9077329f462d94", "fusion_lat": 0.0, "fusion_lon": 0.0, "rental_uris": {"android": "https://dc.lft.to/lastmile_qr_scan", "ios": "https://dc.lft.to/lastmile_qr_scan"}, "is_reserved": 0, "is_disabled": 0, "type": "electric_bike", "bike_id": "3c690eeecf421c138b9077329f462d94"}, {"lon": -77.03638133333334, "lat": 38.9242115, "name": "8f76864f0e299648f483f2036318efe7", "fusion_lat": 0.0, "fusion_lon": 0.0, "rental_uris": {"android": "https://dc.lft.to/lastmile_qr_scan", "ios": "https://dc.lft.to/lastmile_qr_scan"}, "is_reserved": 0, "is_disabled": 0, "type": "electric_scooter", "bike_id": "8f76864f0e299648f483f2036318efe7"}, {"lon": -77.01840366666667, "lat": 38.91956366666667, "name": "bf7e0d1c5f6f01c59b39de17c7a23af8", "fusion_lat": 0.0, "fusion_lon": 0.0, "rental_uris": {"android": "https://dc.lft.to/lastmile_qr_scan", "ios": "https://dc.lft.to/lastmile_qr_scan"}, "is_reserved": 0, "is_disabled": 0, "type": "electric_scooter", "bike_id": "bf7e0d1c5f6f01c59b39de17c7a23af8"}, {"lon": -77.02233783333334, "lat": 38.9221985, "name": "93f0e48ba4a11d179ef4e71798f6894a", "fusion_lat": 0.0, "fusion_lon": 0.0, "rental_uris": {"android": "https://dc.lft.to/lastmile_qr_scan", "ios": "https://dc.lft.to/lastmile_qr_scan"}, "is_reserved": 0, "is_disabled": 0, "type": "electric_bike", "bike_id": "93f0e48ba4a11d179ef4e71798f6894a"}, {"lon": -77.0432915, "lat": 38.90327533333333, "name": "10044633f436b906b36af7ab55cbf6b3", "fusion_lat": 0.0, "fusion_lon": 0.0, "rental_uris": {"android": "https://dc.lft.to/lastmile_qr_scan", "ios": "https://dc.lft.to/lastmile_qr_scan"}, "is_reserved": 0, "is_disabled": 0, "type": "electric_scooter", "bike_id": "10044633f436b906b36af7ab55cbf6b3"}, {"lon": -77.02586666666667, "lat": 38.90427016666667, "name": "bc58bde23046dffacfe31a9d9539b2a3", "fusion_lat": 0.0, "fusion_lon": 0.0, "rental_uris": {"android": "https://dc.lft.to/lastmile_qr_scan", "ios": "https://dc.lft.to/lastmile_qr_scan"}, "is_reserved": 0, "is_disabled": 0, "type": "electric_scooter", "bike_id": "bc58bde23046dffacfe31a9d9539b2a3"}, {"lon": -77.03163966666666, "lat": 38.90529316666667, "name": "e4f2b0bb64ab10c5ac280d116c4bb6f5", "fusion_lat": 0.0, "fusion_lon": 0.0, "rental_uris": {"android": "https://dc.lft.to/lastmile_qr_scan", "ios": "https://dc.lft.to/lastmile_qr_scan"}, "is_reserved": 0, "is_disabled": 0, "type": "electric_scooter", "bike_id": "e4f2b0bb64ab10c5ac280d116c4bb6f5"}, {"lon": -77.04861933333333, "lat": 38.9196565, "name": "8d1f524d7145cc1bb5968f75f24e5588", "fusion_lat": 0.0, "fusion_lon": 0.0, "rental_uris": {"android": "https://dc.lft.to/lastmile_qr_scan", "ios": "https://dc.lft.to/lastmile_qr_scan"}, "is_reserved": 0, "is_disabled": 0, "type": "electric_scooter", "bike_id": "8d1f524d7145cc1bb5968f75f24e5588"}, {"lon": -77.00287716666666, "lat": 38.91481266666667, "name": "4ab1d632f04957e1a54cae740bd48bb0", "fusion_lat": 0.0, "fusion_lon": 0.0, "rental_uris": {"android": "https://dc.lft.to/lastmile_qr_scan", "ios": "https://dc.lft.to/lastmile_qr_scan"}, "is_reserved": 0, "is_disabled": 0, "type": "electric_scooter", "bike_id": "4ab1d632f04957e1a54cae740bd48bb0"}, {"lon": -77.02548516666667, "lat": 38.89216366666667, "name": "85d400ffdfbbcb88adba04c2db47b06e", "fusion_lat": 0.0, "fusion_lon": 0.0, "rental_uris": {"android": "https://dc.lft.to/lastmile_qr_scan", "ios": "https://dc.lft.to/lastmile_qr_scan"}, "is_reserved": 0, "is_disabled": 0, "type": "electric_scooter", "bike_id": "85d400ffdfbbcb88adba04c2db47b06e"}, {"lon": -76.93342983333334, "lat": 38.89906083333333, "name": "1af7b3be4b1427cbca0500f74092e397", "fusion_lat": 0.0, "fusion_lon": 0.0, "rental_uris": {"android": "https://dc.lft.to/lastmile_qr_scan", "ios": "https://dc.lft.to/lastmile_qr_scan"}, "is_reserved": 0, "is_disabled": 0, "type": "electric_scooter", "bike_id": "1af7b3be4b1427cbca0500f74092e397"}, {"lon": -76.9952865, "lat": 38.900136333333336, "name": "0fb6590d922b751fde9c46c28bfb07a9", "fusion_lat": 0.0, "fusion_lon": 0.0, "rental_uris": {"android": "https://dc.lft.to/lastmile_qr_scan", "ios": "https://dc.lft.to/lastmile_qr_scan"}, "is_reserved": 0, "is_disabled": 0, "type": "electric_scooter", "bike_id": "0fb6590d922b751fde9c46c28bfb07a9"}, {"lon": -77.03211733333333, "lat": 38.907869, "name": "340b3ef7440208ecea9053850fd60022", "fusion_lat": 0.0, "fusion_lon": 0.0, "rental_uris": {"android": "https://dc.lft.to/lastmile_qr_scan", "ios": "https://dc.lft.to/lastmile_qr_scan"}, "is_reserved": 0, "is_disabled": 0, "type": "electric_scooter", "bike_id": "340b3ef7440208ecea9053850fd60022"}, {"lon": -76.99179783333334, "lat": 38.90508166666667, "name": "132443143fd45c7a4eb6819db357efe1", "fusion_lat": 0.0, "fusion_lon": 0.0, "rental_uris": {"android": "https://dc.lft.to/lastmile_qr_scan", "ios": "https://dc.lft.to/lastmile_qr_scan"}, "is_reserved": 0, "is_disabled": 0, "type": "electric_scooter", "bike_id": "132443143fd45c7a4eb6819db357efe1"}, {"lon": -77.027796, "lat": 38.894876833333335, "name": "faa587156486c7bef66039d350b861b2", "fusion_lat": 0.0, "fusion_lon": 0.0, "rental_uris": {"android": "https://dc.lft.to/lastmile_qr_scan", "ios": "https://dc.lft.to/lastmile_qr_scan"}, "is_reserved": 0, "is_disabled": 0, "type": "electric_scooter", "bike_id": "faa587156486c7bef66039d350b861b2"}, {"lon": -76.99021433333333, "lat": 38.85871516666667, "name": "6cecba691502cd8ee60dab88f955c612", "fusion_lat": 0.0, "fusion_lon": 0.0, "rental_uris": {"android": "https://dc.lft.to/lastmile_qr_scan", "ios": "https://dc.lft.to/lastmile_qr_scan"}, "is_reserved": 0, "is_disabled": 0, "type": "electric_scooter", "bike_id": "6cecba691502cd8ee60dab88f955c612"}, {"lon": -77.00408016666667, "lat": 38.8792845, "name": "08f4128301f663d1acf28d85d8dce5e1", "fusion_lat": 0.0, "fusion_lon": 0.0, "rental_uris": {"android": "https://dc.lft.to/lastmile_qr_scan", "ios": "https://dc.lft.to/lastmile_qr_scan"}, "is_reserved": 0, "is_disabled": 0, "type": "electric_scooter", "bike_id": "08f4128301f663d1acf28d85d8dce5e1"}, {"lon": -76.99943383333333, "lat": 38.880446166666665, "name": "22a72567f191d710612d185a79d044ec", "fusion_lat": 0.0, "fusion_lon": 0.0, "rental_uris": {"android": "https://dc.lft.to/lastmile_qr_scan", "ios": "https://dc.lft.to/lastmile_qr_scan"}, "is_reserved": 0, "is_disabled": 0, "type": "electric_scooter", "bike_id": "22a72567f191d710612d185a79d044ec"}, {"lon": -77.02346133333333, "lat": 38.920506333333336, "name": "b64ac8bae19b6e30e043ca024756332c", "fusion_lat": 0.0, "fusion_lon": 0.0, "rental_uris": {"android": "https://dc.lft.to/lastmile_qr_scan", "ios": "https://dc.lft.to/lastmile_qr_scan"}, "is_reserved": 0, "is_disabled": 0, "type": "electric_scooter", "bike_id": "b64ac8bae19b6e30e043ca024756332c"}, {"lon": -77.032053, "lat": 38.938661333333336, "name": "05ccc4f7c70dd3fb1ab18b0c9d23ba07", "fusion_lat": 0.0, "fusion_lon": 0.0, "rental_uris": {"android": "https://dc.lft.to/lastmile_qr_scan", "ios": "https://dc.lft.to/lastmile_qr_scan"}, "is_reserved": 0, "is_disabled": 0, "type": "electric_scooter", "bike_id": "05ccc4f7c70dd3fb1ab18b0c9d23ba07"}, {"lon": -77.00232483333333, "lat": 38.9073335, "name": "2a082f823d3b340e62baed04984fc994", "fusion_lat": 0.0, "fusion_lon": 0.0, "rental_uris": {"android": "https://dc.lft.to/lastmile_qr_scan", "ios": "https://dc.lft.to/lastmile_qr_scan"}, "is_reserved": 0, "is_disabled": 0, "type": "electric_scooter", "bike_id": "2a082f823d3b340e62baed04984fc994"}, {"lon": -76.96101483333334, "lat": 38.928694166666666, "name": "cc184e507321b186acfb3cd4cd4bc3d9", "fusion_lat": 0.0, "fusion_lon": 0.0, "rental_uris": {"android": "https://dc.lft.to/lastmile_qr_scan", "ios": "https://dc.lft.to/lastmile_qr_scan"}, "is_reserved": 0, "is_disabled": 0, "type": "electric_bike", "bike_id": "cc184e507321b186acfb3cd4cd4bc3d9"}, {"lon": -77.003158, "lat": 38.90118183333333, "name": "817772438c1757b238e961909268eedb", "fusion_lat": 0.0, "fusion_lon": 0.0, "rental_uris": {"android": "https://dc.lft.to/lastmile_qr_scan", "ios": "https://dc.lft.to/lastmile_qr_scan"}, "is_reserved": 0, "is_disabled": 0, "type": "electric_scooter", "bike_id": "817772438c1757b238e961909268eedb"}, {"lon": -77.037283, "lat": 38.93187183333333, "name": "41346e1e793b40467cff4f3e385b35eb", "fusion_lat": 0.0, "fusion_lon": 0.0, "rental_uris": {"android": "https://dc.lft.to/lastmile_qr_scan", "ios": "https://dc.lft.to/lastmile_qr_scan"}, "is_reserved": 0, "is_disabled": 0, "type": "electric_bike", "bike_id": "41346e1e793b40467cff4f3e385b35eb"}, {"lon": -77.0364785, "lat": 38.9028355, "name": "3459dc411be6d418a7c431a3d49dffd6", "fusion_lat": 0.0, "fusion_lon": 0.0, "rental_uris": {"android": "https://dc.lft.to/lastmile_qr_scan", "ios": "https://dc.lft.to/lastmile_qr_scan"}, "is_reserved": 0, "is_disabled": 0, "type": "electric_scooter", "bike_id": "3459dc411be6d418a7c431a3d49dffd6"}, {"lon": -77.011896, "lat": 38.9002925, "name": "23f35c9937c81140c184ab42b259e39c", "fusion_lat": 0.0, "fusion_lon": 0.0, "rental_uris": {"android": "https://dc.lft.to/lastmile_qr_scan", "ios": "https://dc.lft.to/lastmile_qr_scan"}, "is_reserved": 0, "is_disabled": 0, "type": "electric_scooter", "bike_id": "23f35c9937c81140c184ab42b259e39c"}, {"lon": -77.03844266666667, "lat": 38.932491, "name": "c5e74092f1887556964c37aae0c2576e", "fusion_lat": 0.0, "fusion_lon": 0.0, "rental_uris": {"android": "https://dc.lft.to/lastmile_qr_scan", "ios": "https://dc.lft.to/lastmile_qr_scan"}, "is_reserved": 0, "is_disabled": 0, "type": "electric_scooter", "bike_id": "c5e74092f1887556964c37aae0c2576e"}, {"lon": -76.99907833333333, "lat": 38.909286, "name": "afc9f1db64a57096c1ed9d0d527efa67", "fusion_lat": 0.0, "fusion_lon": 0.0, "rental_uris": {"android": "https://dc.lft.to/lastmile_qr_scan", "ios": "https://dc.lft.to/lastmile_qr_scan"}, "is_reserved": 0, "is_disabled": 0, "type": "electric_scooter", "bike_id": "afc9f1db64a57096c1ed9d0d527efa67"}, {"lon": -77.00202466666667, "lat": 38.902378, "name": "c632611f6e87ac44efddb5531eda772d", "fusion_lat": 0.0, "fusion_lon": 0.0, "rental_uris": {"android": "https://dc.lft.to/lastmile_qr_scan", "ios": "https://dc.lft.to/lastmile_qr_scan"}, "is_reserved": 0, "is_disabled": 0, "type": "electric_scooter", "bike_id": "c632611f6e87ac44efddb5531eda772d"}, {"lon": -77.06270416666666, "lat": 38.905876, "name": "65480489b69052faa110e963eb828b77", "fusion_lat": 0.0, "fusion_lon": 0.0, "rental_uris": {"android": "https://dc.lft.to/lastmile_qr_scan", "ios": "https://dc.lft.to/lastmile_qr_scan"}, "is_reserved": 0, "is_disabled": 0, "type": "electric_scooter", "bike_id": "65480489b69052faa110e963eb828b77"}, {"lon": -77.03148333333333, "lat": 38.8972615, "name": "e92f0a1deec9b1b04cb3e5716202252b", "fusion_lat": 0.0, "fusion_lon": 0.0, "rental_uris": {"android": "https://dc.lft.to/lastmile_qr_scan", "ios": "https://dc.lft.to/lastmile_qr_scan"}, "is_reserved": 0, "is_disabled": 0, "type": "electric_scooter", "bike_id": "e92f0a1deec9b1b04cb3e5716202252b"}, {"lon": -77.13093466666666, "lat": 38.8616095, "name": "513c6abb1b86bd1c2c549c740610df2c", "fusion_lat": 0.0, "fusion_lon": 0.0, "rental_uris": {"android": "https://dc.lft.to/lastmile_qr_scan", "ios": "https://dc.lft.to/lastmile_qr_scan"}, "is_reserved": 0, "is_disabled": 0, "type": "electric_bike", "bike_id": "513c6abb1b86bd1c2c549c740610df2c"}, {"lon": -76.983087, "lat": 38.868880833333336, "name": "9ce5bdfe4ff7e2e92dce6fc67e87fa01", "fusion_lat": 0.0, "fusion_lon": 0.0, "rental_uris": {"android": "https://dc.lft.to/lastmile_qr_scan", "ios": "https://dc.lft.to/lastmile_qr_scan"}, "is_reserved": 0, "is_disabled": 0, "type": "electric_scooter", "bike_id": "9ce5bdfe4ff7e2e92dce6fc67e87fa01"}, {"lon": -77.007423, "lat": 38.876689999999996, "name": "48541198ba0c4db02318fb0d0b1ecf91", "fusion_lat": 0.0, "fusion_lon": 0.0, "rental_uris": {"android": "https://dc.lft.to/lastmile_qr_scan", "ios": "https://dc.lft.to/lastmile_qr_scan"}, "is_reserved": 0, "is_disabled": 0, "type": "electric_scooter", "bike_id": "48541198ba0c4db02318fb0d0b1ecf91"}, {"lon": -77.0383155, "lat": 38.93127633333334, "name": "53062b38472e92db8b6eb69816b6e034", "fusion_lat": 0.0, "fusion_lon": 0.0, "rental_uris": {"android": "https://dc.lft.to/lastmile_qr_scan", "ios": "https://dc.lft.to/lastmile_qr_scan"}, "is_reserved": 0, "is_disabled": 0, "type": "electric_scooter", "bike_id": "53062b38472e92db8b6eb69816b6e034"}, {"lon": -77.03425183333333, "lat": 38.919205, "name": "b0dd6542a567c23c08da0f0e2dbe7d52", "fusion_lat": 0.0, "fusion_lon": 0.0, "rental_uris": {"android": "https://dc.lft.to/lastmile_qr_scan", "ios": "https://dc.lft.to/lastmile_qr_scan"}, "is_reserved": 0, "is_disabled": 0, "type": "electric_scooter", "bike_id": "b0dd6542a567c23c08da0f0e2dbe7d52"}, {"lon": -77.03831316666667, "lat": 38.91113516666667, "name": "077984790775b9c51098ba914b342761", "fusion_lat": 0.0, "fusion_lon": 0.0, "rental_uris": {"android": "https://dc.lft.to/lastmile_qr_scan", "ios": "https://dc.lft.to/lastmile_qr_scan"}, "is_reserved": 0, "is_disabled": 0, "type": "electric_scooter", "bike_id": "077984790775b9c51098ba914b342761"}, {"lon": -77.03511333333333, "lat": 38.922434333333335, "name": "0d70ef88458e7f6a72bebca0fa50c3f5", "fusion_lat": 0.0, "fusion_lon": 0.0, "rental_uris": {"android": "https://dc.lft.to/lastmile_qr_scan", "ios": "https://dc.lft.to/lastmile_qr_scan"}, "is_reserved": 0, "is_disabled": 0, "type": "electric_scooter", "bike_id": "0d70ef88458e7f6a72bebca0fa50c3f5"}, {"lon": -77.0344245, "lat": 38.91817916666667, "name": "d023fb4fa5f9cfd08a23addc49db1ebd", "fusion_lat": 0.0, "fusion_lon": 0.0, "rental_uris": {"android": "https://dc.lft.to/lastmile_qr_scan", "ios": "https://dc.lft.to/lastmile_qr_scan"}, "is_reserved": 0, "is_disabled": 0, "type": "electric_scooter", "bike_id": "d023fb4fa5f9cfd08a23addc49db1ebd"}, {"lon": -77.02450216666666, "lat": 38.93860316666667, "name": "22b1190d0ca9bb9f398beca11a81950e", "fusion_lat": 0.0, "fusion_lon": 0.0, "rental_uris": {"android": "https://dc.lft.to/lastmile_qr_scan", "ios": "https://dc.lft.to/lastmile_qr_scan"}, "is_reserved": 0, "is_disabled": 0, "type": "electric_scooter", "bike_id": "22b1190d0ca9bb9f398beca11a81950e"}, {"lon": -77.03205966666667, "lat": 38.921638333333334, "name": "4487bb707a3adab1b30337c3296c2ea4", "fusion_lat": 0.0, "fusion_lon": 0.0, "rental_uris": {"android": "https://dc.lft.to/lastmile_qr_scan", "ios": "https://dc.lft.to/lastmile_qr_scan"}, "is_reserved": 0, "is_disabled": 0, "type": "electric_scooter", "bike_id": "4487bb707a3adab1b30337c3296c2ea4"}, {"lon": -77.00742516666666, "lat": 38.90500483333334, "name": "16c36253634e0aec18387971a8f473a3", "fusion_lat": 0.0, "fusion_lon": 0.0, "rental_uris": {"android": "https://dc.lft.to/lastmile_qr_scan", "ios": "https://dc.lft.to/lastmile_qr_scan"}, "is_reserved": 0, "is_disabled": 0, "type": "electric_scooter", "bike_id": "16c36253634e0aec18387971a8f473a3"}, {"lon": -77.051222, "lat": 38.90438266666666, "name": "dc2112ec51517213e216720d5266674f", "fusion_lat": 0.0, "fusion_lon": 0.0, "rental_uris": {"android": "https://dc.lft.to/lastmile_qr_scan", "ios": "https://dc.lft.to/lastmile_qr_scan"}, "is_reserved": 0, "is_disabled": 0, "type": "electric_scooter", "bike_id": "dc2112ec51517213e216720d5266674f"}, {"lon": -77.0317585, "lat": 38.919272, "name": "c9d3bea1dacef2ddabe9e02f04ef937c", "fusion_lat": 0.0, "fusion_lon": 0.0, "rental_uris": {"android": "https://dc.lft.to/lastmile_qr_scan", "ios": "https://dc.lft.to/lastmile_qr_scan"}, "is_reserved": 0, "is_disabled": 0, "type": "electric_scooter", "bike_id": "c9d3bea1dacef2ddabe9e02f04ef937c"}, {"lon": -76.9853735, "lat": 38.8799885, "name": "c884280b8991236d1ee1fe30f241eb02", "fusion_lat": 0.0, "fusion_lon": 0.0, "rental_uris": {"android": "https://dc.lft.to/lastmile_qr_scan", "ios": "https://dc.lft.to/lastmile_qr_scan"}, "is_reserved": 0, "is_disabled": 0, "type": "electric_scooter", "bike_id": "c884280b8991236d1ee1fe30f241eb02"}, {"lon": -77.03440116666667, "lat": 38.90573033333333, "name": "fcab026e2ac931304377efe99a75fa53", "fusion_lat": 0.0, "fusion_lon": 0.0, "rental_uris": {"android": "https://dc.lft.to/lastmile_qr_scan", "ios": "https://dc.lft.to/lastmile_qr_scan"}, "is_reserved": 0, "is_disabled": 0, "type": "electric_scooter", "bike_id": "fcab026e2ac931304377efe99a75fa53"},