{"data": {"bikes": [{"rental_uris": {"android": "https://dc.lft.to/lastmile_qr_scan", "ios": "https://dc.lft.to/lastmile_qr_scan"}, "type": "electric_scooter", "lon": -76.94711533333333, "name": "5965c510f13266abeef6c0f764dd8394", "bike_id": "5965c510f13266abeef6c0f764dd8394", "fusion_lat": 0.0, "is_reserved": 0, "lat": 38.8967635, "fusion_lon": 0.0, "is_disabled": 0}, {"rental_uris": {"android": "https://dc.lft.to/lastmile_qr_scan", "ios": "https://dc.lft.to/lastmile_qr_scan"}, "type": "electric_scooter", "lon": -77.05057283333333, "name": "594952124ae4d5f050ae234a287aa451", "bike_id": "594952124ae4d5f050ae234a287aa451", "fusion_lat": 0.0, "is_reserved": 0, "lat": 38.9236635, "fusion_lon": 0.0, "is_disabled": 0}, {"rental_uris": {"android": "https://dc.lft.to/lastmile_qr_scan", "ios": "https://dc.lft.to/lastmile_qr_scan"}, "type": "electric_scooter", "lon": -77.01198033333333, "name": "3edccae10b050924054af2d30af158d8", "bike_id": "3edccae10b050924054af2d30af158d8", "fusion_lat": 0.0, "is_reserved": 0, "lat": 38.89312016666667, "fusion_lon": 0.0, "is_disabled": 0}, {"rental_uris": {"android": "https://dc.lft.to/lastmile_qr_scan", "ios": "https://dc.lft.to/lastmile_qr_scan"}, "type": "electric_scooter", "lon": -77.02257883333333, "name": "12c90a54c7833e1ef513348593c13416", "bike_id": "12c90a54c7833e1ef513348593c13416", "fusion_lat": 0.0, "is_reserved": 0, "lat": 38.9282885, "fusion_lon": 0.0, "is_disabled": 0}, {"rental_uris": {"android": "https://dc.lft.to/lastmile_qr_scan", "ios": "https://dc.lft.to/lastmile_qr_scan"}, "type": "electric_scooter", "lon": -76.9762555, "name": "780d3932bc95d2d21630a6ee383f9857", "bike_id": "780d3932bc95d2d21630a6ee383f9857", "fusion_lat": 0.0, "is_reserved": 0, "lat": 38.90571216666667, "fusion_lon": 0.0, "is_disabled": 0}, {"rental_uris": {"android": "https://dc.lft.to/lastmile_qr_scan", "ios": "https://dc.lft.to/lastmile_qr_scan"}, "type": "electric_bike", "lon": -77.129807, "name": "9c466ac3f20f913351bb1b84524ddcaa", "bike_id": "9c466ac3f20f913351bb1b84524ddcaa", "fusion_lat": 0.0, "is_reserved": 0, "lat": 38.7998875, "fusion_lon": 0.0, "is_disabled": 0}, {"rental_uris": {"android": "https://dc.lft.to/lastmile_qr_scan", "ios": "https://dc.lft.to/lastmile_qr_scan"}, "type": "electric_bike", "lon": -77.0703775, "name": "6bf3e22231e7c4b27f3ed95bcef926d8", "bike_id": "6bf3e22231e7c4b27f3ed95bcef926d8", "fusion_lat": 0.0, "is_reserved": 0, "lat": 38.82440483333333, "fusion_lon": 0.0, "is_disabled": 0}, {"rental_uris": {"android": "https://dc.lft.to/lastmile_qr_scan", "ios": "https://dc.lft.to/lastmile_qr_scan"}, "type": "electric_scooter", "lon": -77.01946533333333, "name": "78174edd2b128b83da4b2a3c9c5e8553", "bike_id": "78174edd2b128b83da4b2a3c9c5e8553", "fusion_lat": 0.0, "is_reserved": 0, "lat": 38.909701, "fusion_lon": 0.0, "is_disabled": 0}, {"rental_uris": {"android": "https://dc.lft.to/lastmile_qr_scan", "ios": "https://dc.lft.to/lastmile_qr_scan"}, "type": "electric_bike", "lon": -77.12808933333334, "name": "f770d42c9f6a15741e800f6312cc2ce7", "bike_id": "f770d42c9f6a15741e800f6312cc2ce7", "fusion_lat": 0.0, "is_reserved": 0, "lat": 38.8652615, "fusion_lon": 0.0, "is_disabled": 0}, {"rental_uris": {"android": "https://dc.lft.to/lastmile_qr_scan", "ios": "https://dc.lft.to/lastmile_qr_scan"}, "type": "electric_scooter", "lon": -76.99439783333334, "name": "d9875f4fd8bda4226e3d599d217fece0", "bike_id": "d9875f4fd8bda4226e3d599d217fece0", "fusion_lat": 0.0, "is_reserved": 0, "lat": 38.90503783333333, "fusion_lon": 0.0, "is_disabled": 0}, {"rental_uris": {"android": "https://dc.lft.to/lastmile_qr_scan", "ios": "https://dc.lft.to/lastmile_qr_scan"}, "type": "electric_scooter", "lon": -77.03271466666666, "name": "aa807e0cb5974b2f4c5125c05818619f", "bike_id": "aa807e0cb5974b2f4c5125c05818619f", "fusion_lat": 0.0, "is_reserved": 0, "lat": 38.92819433333333, "fusion_lon": 0.0, "is_disabled": 0}, {"rental_uris": {"android": "https://dc.lft.to/lastmile_qr_scan", "ios": "https://dc.lft.to/lastmile_qr_scan"}, "type": "electric_scooter", "lon": -77.06390866666666, "name": "d3866f1bd93a34dd2d84ccb72853b992", "bike_id": "d3866f1bd93a34dd2d84ccb72853b992", "fusion_lat": 0.0, "is_reserved": 0, "lat": 38.92907783333333, "fusion_lon": 0.0, "is_disabled": 0}, {"rental_uris": {"android": "https://dc.lft.to/lastmile_qr_scan", "ios": "https://dc.lft.to/lastmile_qr_scan"}, "type": "electric_bike", "lon": -76.915925, "name": "d540d2e736071676dc2374f7f1d049e8", "bike_id": "d540d2e736071676dc2374f7f1d049e8", "fusion_lat": 0.0, "is_reserved": 0, "lat": 38.87986883333333, "fusion_lon": 0.0, "is_disabled": 0}, {"rental_uris": {"android": "https://dc.lft.to/lastmile_qr_scan", "ios": "https://dc.lft.to/lastmile_qr_scan"}, "type": "electric_scooter", "lon": -76.987075, "name": "8494a78464afe88e98689699470d6c35", "bike_id": "8494a78464afe88e98689699470d6c35", "fusion_lat": 0.0, "is_reserved": 0, "lat": 38.865338666666666, "fusion_lon": 0.0, "is_disabled": 0}, {"rental_uris": {"android": "https://dc.lft.to/lastmile_qr_scan", "ios": "https://dc.lft.to/lastmile_qr_scan"}, "type": "electric_scooter", "lon": -77.02214883333333, "name": "9fa96021a72461abb1339ba0a3f7b1d5", "bike_id": "9fa96021a72461abb1339ba0a3f7b1d5", "fusion_lat": 0.0, "is_reserved": 0, "lat": 38.90575533333333, "fusion_lon": 0.0, "is_disabled": 0}, {"rental_uris": {"android": "https://dc.lft.to/lastmile_qr_scan", "ios": "https://dc.lft.to/lastmile_qr_scan"}, "type": "electric_bike", "lon": -77.18290933333333, "name": "4ca17eccf9a0e3f378ec5cc8e7b454c8", "bike_id": "4ca17eccf9a0e3f378ec5cc8e7b454c8", "fusion_lat": 0.0, "is_reserved": 0, "lat": 38.883418, "fusion_lon": 0.0, "is_disabled": 0}, {"rental_uris": {"android": "https://dc.lft.to/lastmile_qr_scan", "ios": "https://dc.lft.to/lastmile_qr_scan"}, "type": "electric_scooter", "lon": -76.99016833333333, "name": "6890a67173b3b82698a94c3e48e9bb05", "bike_id": "6890a67173b3b82698a94c3e48e9bb05", "fusion_lat": 0.0, "is_reserved": 0, "lat": 38.8586915, "fusion_lon": 0.0, "is_disabled": 0}, {"rental_uris": {"android": "https://dc.lft.to/lastmile_qr_scan", "ios": "https://dc.lft.to/lastmile_qr_scan"}, "type": "electric_scooter", "lon": -77.04682483333333, "name": "24ade27e6c2a4ae169c63be2ebec469d", "bike_id": "24ade27e6c2a4ae169c63be2ebec469d", "fusion_lat": 0.0, "is_reserved": 0, "lat": 38.9023615, "fusion_lon": 0.0, "is_disabled": 0}, {"rental_uris": {"android": "https://dc.lft.to/lastmile_qr_scan", "ios": "https://dc.lft.to/lastmile_qr_scan"}, "type": "electric_scooter", "lon": -77.06106216666667, "name": "c93bb71d538f87011bb5a0ce0088a489", "bike_id": "c93bb71d538f87011bb5a0ce0088a489", "fusion_lat": 0.0, "is_reserved": 0, "lat": 38.94307966666667, "fusion_lon": 0.0, "is_disabled": 0}, {"rental_uris": {"android": "https://dc.lft.to/lastmile_qr_scan", "ios": "https://dc.lft.to/lastmile_qr_scan"}, "type": "electric_scooter", "lon": -76.997587, "name": "525545b0d163e3133043da305b90680d", "bike_id": "525545b0d163e3133043da305b90680d", "fusion_lat": 0.0, "is_reserved": 0, "lat": 38.92193416666667, "fusion_lon": 0.0, "is_disabled": 0}, {"rental_uris": {"android": "https://dc.lft.to/lastmile_qr_scan", "ios": "https://dc.lft.to/lastmile_qr_scan"}, "type": "electric_scooter", "lon": -76.93746583333333, "name": "dc659bb7fc60df7cac154e0991ff6e67", "bike_id": "dc659bb7fc60df7cac154e0991ff6e67", "fusion_lat": 0.0, "is_reserved": 0, "lat": 38.890421833333335, "fusion_lon": 0.0, "is_disabled": 0}, {"rental_uris": {"android": "https://dc.lft.to/lastmile_qr_scan", "ios": "https://dc.lft.to/lastmile_qr_scan"}, "type": "electric_scooter", "lon": -77.0318635, "name": "7d763d2872911076eabf06299388c769", "bike_id": "7d763d2872911076eabf06299388c769", "fusion_lat": 0.0, "is_reserved": 0, "lat": 38.9076535, "fusion_lon": 0.0, "is_disabled": 0}, {"rental_uris": {"android": "https://dc.lft.to/lastmile_qr_scan", "ios": "https://dc.lft.to/lastmile_qr_scan"}, "type": "electric_scooter", "lon": -77.0320265, "name": "f92a09aa4108d37546010a4e95d54c3e", "bike_id": "f92a09aa4108d37546010a4e95d54c3e", "fusion_lat": 0.0, "is_reserved": 0, "lat": 38.907531166666665, "fusion_lon": 0.0, "is_disabled": 0}, {"rental_uris": {"android": "https://dc.lft.to/lastmile_qr_scan", "ios": "https://dc.lft.to/lastmile_qr_scan"}, "type": "electric_scooter", "lon": -77.02468216666666, "name": "74c7592962174ef3ecdaf73ec53c2822", "bike_id": "74c7592962174ef3ecdaf73ec53c2822", "fusion_lat": 0.0, "is_reserved": 0, "lat": 38.939078333333335, "fusion_lon": 0.0, "is_disabled": 0}, {"rental_uris": {"android": "https://dc.lft.to/lastmile_qr_scan", "ios": "https://dc.lft.to/lastmile_qr_scan"}, "type": "electric_scooter", "lon": -77.03997666666666, "name": "780bb6de536db791731d6eb9ddc02fe3", "bike_id": "780bb6de536db791731d6eb9ddc02fe3", "fusion_lat": 0.0, "is_reserved": 0, "lat": 38.9180905, "fusion_lon": 0.0, "is_disabled": 0}, {"rental_uris": {"android": "https://dc.lft.to/lastmile_qr_scan", "ios": "https://dc.lft.to/lastmile_qr_scan"}, "type": "electric_scooter", "lon": -77.02305116666666, "name": "1ecd2c62c39078d168fdf80d70684d0b", "bike_id": "1ecd2c62c39078d168fdf80d70684d0b", "fusion_lat": 0.0, "is_reserved": 0, "lat": 38.918168666666666, "fusion_lon": 0.0, "is_disabled": 0}, {"rental_uris": {"android": "https://dc.lft.to/lastmile_qr_scan", "ios": "https://dc.lft.to/lastmile_qr_scan"}, "type": "electric_scooter", "lon": -77.00278216666666, "name": "e7551a391d72d356b00b6aa5cc61df8b", "bike_id": "e7551a391d72d356b00b6aa5cc61df8b", "fusion_lat": 0.0, "is_reserved": 0, "lat": 38.91480966666666, "fusion_lon": 0.0, "is_disabled": 0}, {"rental_uris": {"android": "https://dc.lft.to/lastmile_qr_scan", "ios": "https://dc.lft.to/lastmile_qr_scan"}, "type": "electric_scooter", "lon": -77.0254965, "name": "1cda42e9e440aa2fecc90767e056b00a", "bike_id": "1cda42e9e440aa2fecc90767e056b00a", "fusion_lat": 0.0, "is_reserved": 0, "lat": 38.892162, "fusion_lon": 0.0, "is_disabled": 0}, {"rental_uris": {"android": "https://dc.lft.to/lastmile_qr_scan", "ios": "https://dc.lft.to/lastmile_qr_scan"}, "type": "electric_scooter", "lon": -77.03183116666666, "name": "1f5916d179eda8a06b086d0b4e690784", "bike_id": "1f5916d179eda8a06b086d0b4e690784", "fusion_lat": 0.0, "is_reserved": 0, "lat": 38.9011595, "fusion_lon": 0.0, "is_disabled": 0}, {"rental_uris": {"android": "https://dc.lft.to/lastmile_qr_scan", "ios": "https://dc.lft.to/lastmile_qr_scan"}, "type": "electric_scooter", "lon": -76.98495633333333, "name": "2c76237ad5dab94b7d8799bd863f4737", "bike_id": "2c76237ad5dab94b7d8799bd863f4737", "fusion_lat": 0.0, "is_reserved": 0, "lat": 38.860502, "fusion_lon": 0.0, "is_disabled": 0}, {"rental_uris": {"android": "https://dc.lft.to/lastmile_qr_scan", "ios": "https://dc.lft.to/lastmile_qr_scan"}, "type": "electric_scooter", "lon": -77.02475666666666, "name": "e08d30091f1184fd2fbdf082e6494094", "bike_id": "e08d30091f1184fd2fbdf082e6494094", "fusion_lat": 0.0, "is_reserved": 0, "lat": 38.938528, "fusion_lon": 0.0, "is_disabled": 0}, {"rental_uris": {"android": "https://dc.lft.to/lastmile_qr_scan", "ios": "https://dc.lft.to/lastmile_qr_scan"}, "type": "electric_scooter", "lon": -77.032672, "name": "612b35034c4945e40dada96e25376a28", "bike_id": "612b35034c4945e40dada96e25376a28", "fusion_lat": 0.0, "is_reserved": 0, "lat": 38.896362833333335, "fusion_lon": 0.0, "is_disabled": 0}, {"rental_uris": {"android": "https://dc.lft.to/lastmile_qr_scan", "ios": "https://dc.lft.to/lastmile_qr_scan"}, "type": "electric_scooter", "lon": -77.02437533333334, "name": "b7213eb14d38f236e8a0afddfb6e5f41", "bike_id": "b7213eb14d38f236e8a0afddfb6e5f41", "fusion_lat": 0.0, "is_reserved": 0, "lat": 38.9329505, "fusion_lon": 0.0, "is_disabled": 0}, {"rental_uris": {"android": "https://dc.lft.to/lastmile_qr_scan", "ios": "https://dc.lft.to/lastmile_qr_scan"}, "type": "electric_scooter", "lon": -76.99281383333333, "name": "7676d68f585ef9f7d37ed1148ba77a06", "bike_id": "7676d68f585ef9f7d37ed1148ba77a06", "fusion_lat": 0.0, "is_reserved": 0, "lat": 38.85759983333333, "fusion_lon": 0.0, "is_disabled": 0}, {"rental_uris": {"android": "https://dc.lft.to/lastmile_qr_scan", "ios": "https://dc.lft.to/lastmile_qr_scan"}, "type": "electric_scooter", "lon": -77.0254825, "name": "c079dc1dcc7dfbec56089239be42e417", "bike_id": "c079dc1dcc7dfbec56089239be42e417", "fusion_lat": 0.0, "is_reserved": 0, "lat": 38.91655333333333, "fusion_lon": 0.0, "is_disabled": 0}, {"rental_uris": {"android": "https://dc.lft.to/lastmile_qr_scan", "ios": "https://dc.lft.to/lastmile_qr_scan"}, "type": "electric_scooter", "lon": -77.042548, "name": "9aa71064d1fe04194214406ab16ee8ed", "bike_id": "9aa71064d1fe04194214406ab16ee8ed", "fusion_lat": 0.0, "is_reserved": 0, "lat": 38.921979, "fusion_lon": 0.0, "is_disabled": 0}, {"rental_uris": {"android": "https://dc.lft.to/lastmile_qr_scan", "ios": "https://dc.lft.to/lastmile_qr_scan"}, "type": "electric_bike", "lon": -77.13092333333333, "name": "1bb4cdb209eb381029118a5547ffe2ea", "bike_id": "1bb4cdb209eb381029118a5547ffe2ea", "fusion_lat": 0.0, "is_reserved": 0, "lat": 38.86164516666667, "fusion_lon": 0.0, "is_disabled": 0}, {"rental_uris": {"android": "https://dc.lft.to/lastmile_qr_scan", "ios": "https://dc.lft.to/lastmile_qr_scan"}, "type": "electric_scooter", "lon": -77.03126666666667, "name": "a6a045c2916980e354b1b60b3dcbff95", "bike_id": "a6a045c2916980e354b1b60b3dcbff95", "fusion_lat": 0.0, "is_reserved": 0, "lat": 38.8972205, "fusion_lon": 0.0, "is_disabled": 0}, {"rental_uris": {"android": "https://dc.lft.to/lastmile_qr_scan", "ios": "https://dc.lft.to/lastmile_qr_scan"}, "type": "electric_scooter", "lon": -77.005819, "name": "0017b9df4b34261fe8e750f5a0adb0a8", "bike_id": "0017b9df4b34261fe8e750f5a0adb0a8", "fusion_lat": 0.0, "is_reserved": 0, "lat": 38.905591666666666, "fusion_lon": 0.0, "is_disabled": 0}, {"rental_uris": {"android": "https://dc.lft.to/lastmile_qr_scan", "ios": "https://dc.lft.to/lastmile_qr_scan"}, "type": "electric_scooter", "lon": -77.00724466666667, "name": "c606fc0b6b10cce3df6f8e5d073b08c3", "bike_id": "c606fc0b6b10cce3df6f8e5d073b08c3", "fusion_lat": 0.0, "is_reserved": 0, "lat": 38.8770695, "fusion_lon": 0.0, "is_disabled": 0}, {"rental_uris": {"android": "https://dc.lft.to/lastmile_qr_scan", "ios": "https://dc.lft.to/lastmile_qr_scan"}, "type": "electric_scooter", "lon": -77.03843866666666, "name": "8425d7e4e2f3816ffefd1223754f2fa3", "bike_id": "8425d7e4e2f3816ffefd1223754f2fa3", "fusion_lat": 0.0, "is_reserved": 0, "lat": 38.915512166666666, "fusion_lon": 0.0, "is_disabled": 0}, {"rental_uris": {"android": "https://dc.lft.to/lastmile_qr_scan", "ios": "https://dc.lft.to/lastmile_qr_scan"}, "type": "electric_scooter", "lon": -77.0457945, "name": "d766151c944373ef407feb27a10970b9", "bike_id": "d766151c944373ef407feb27a10970b9", "fusion_lat": 0.0, "is_reserved": 0, "lat": 38.92135966666667, "fusion_lon": 0.0, "is_disabled": 0}, {"rental_uris": {"android": "https://dc.lft.to/lastmile_qr_scan", "ios": "https://dc.lft.to/lastmile_qr_scan"}, "type": "electric_bike", "lon": -77.09522283333334, "name": "7a78a53a413621c22742d1a7af3a59c9", "bike_id": "7a78a53a413621c22742d1a7af3a59c9", "fusion_lat": 0.0, "is_reserved": 0, "lat": 38.838094, "fusion_lon": 0.0, "is_disabled": 0}, {"rental_uris": {"android": "https://dc.lft.to/lastmile_qr_scan", "ios": "https://dc.lft.to/lastmile_qr_scan"}, "type": "electric_scooter", "lon": -77.05427416666667, "name": "c22afd698e45856c32d176a4eac8852f", "bike_id": "c22afd698e45856c32d176a4eac8852f", "fusion_lat": 0.0, "is_reserved": 0, "lat": 38.928531, "fusion_lon": 0.0, "is_disabled": 0}, {"rental_uris": {"android": "https://dc.lft.to/lastmile_qr_scan", "ios": "https://dc.lft.to/lastmile_qr_scan"}, "type": "electric_scooter", "lon": -77.021719, "name": "8b45fc6c3b8fd3b4a33df76e1d32f6c0", "bike_id": "8b45fc6c3b8fd3b4a33df76e1d32f6c0", "fusion_lat": 0.0, "is_reserved": 0, "lat": 38.94314266666667, "fusion_lon": 0.0, "is_disabled": 0}, {"rental_uris": {"android": "https://dc.lft.to/lastmile_qr_scan", "ios": "https://dc.lft.to/lastmile_qr_scan"}, "type": "electric_scooter", "lon": -77.0543895, "name": "5cae33b7ac2dba3be91053d5f78cbb2b", "bike_id": "5cae33b7ac2dba3be91053d5f78cbb2b", "fusion_lat": 0.0, "is_reserved": 0, "lat": 38.928519333333334, "fusion_lon": 0.0, "is_disabled": 0}, {"rental_uris": {"android": "https://dc.lft.to/lastmile_qr_scan", "ios": "https://dc.lft.to/lastmile_qr_scan"}, "type": "electric_scooter", "lon": -77.05284083333333, "name": "d65f537734a029732d4d8027b53ddb24", "bike_id": "d65f537734a029732d4d8027b53ddb24", "fusion_lat": 0.0, "is_reserved": 0, "lat": 38.9106005, "fusion_lon": 0.0, "is_disabled": 0}, {"rental_uris": {"android": "https://dc.lft.to/lastmile_qr_scan", "ios": "https://dc.lft.to/lastmile_qr_scan"}, "type": "electric_scooter", "lon": -76.99545833333333, "name": "4ef1286ee0ef925260dfbd44e91d2f48", "bike_id": "4ef1286ee0ef925260dfbd44e91d2f48", "fusion_lat": 0.0, "is_reserved": 0, "lat": 38.8841935, "fusion_lon": 0.0, "is_disabled": 0}, {"rental_uris": {"android": "https://dc.lft.to/lastmile_qr_scan", "ios": "https://dc.lft.to/lastmile_qr_scan"}, "type": "electric_scooter", "lon": -77.03638266666667, "name": "a87140a9614dd209edd1fa868de9f4dc", "bike_id": "a87140a9614dd209edd1fa868de9f4dc", "fusion_lat": 0.0, "is_reserved": 0, "lat": 38.90265, "fusion_lon": 0.0, "is_disabled": 0}, {"rental_uris": {"android": "https://dc.lft.to/lastmile_qr_scan", "ios": "https://dc.lft.to/lastmile_qr_scan"}, "type": "electric_scooter", "lon": -77.03465433333334, "name": "0d0c5353b147ec34f66ef9944530b5d4", "bike_id": "0d0c5353b147ec34f66ef9944530b5d4", "fusion_lat": 0.0, "is_reserved": 0, "lat": 38.914683833333335, "fusion_lon": 0.0, "is_disabled": 0}, {"rental_uris": {"android": "https://dc.lft.to/lastmile_qr_scan", "ios": "https://dc.lft.to/lastmile_qr_scan"}, "type": "electric_scooter", "lon": -76.9885165, "name": "8c30e5f0050fa2fd97897e6637430a57", "bike_id": "8c30e5f0050fa2fd97897e6637430a57", "fusion_lat": 0.0, "is_reserved": 0, "lat": 38.900287166666665, "fusion_lon": 0.0, "is_disabled": 0}, {"rental_uris": {"android": "https://dc.lft.to/lastmile_qr_scan", "ios": "https://dc.lft.to/lastmile_qr_scan"}, "type": "electric_scooter", "lon": -77.04209583333333, "name": "5b5857f32fa0fc281993d475f9e934d8", "bike_id": "5b5857f32fa0fc281993d475f9e934d8", "fusion_lat": 0.0, "is_reserved": 0, "lat": 38.921323, "fusion_lon": 0.0, "is_disabled": 0}, {"rental_uris": {"android": "https://dc.lft.to/lastmile_qr_scan", "ios": "https://dc.lft.to/lastmile_qr_scan"}, "type": "electric_scooter", "lon": -76.991584, "name": "db0d0c340f556c6638c501c204f6af08", "bike_id": "db0d0c340f556c6638c501c204f6af08", "fusion_lat": 0.0, "is_reserved": 0, "lat": 38.8791805, "fusion_lon": 0.0, "is_disabled": 0}, {"rental_uris": {"android": "https://dc.lft.to/lastmile_qr_scan", "ios": "https://dc.lft.to/lastmile_qr_scan"}, "type": "electric_scooter", "lon": -77.04704583333333, "name": "9dab9b23757e3d0c9376e3ed534804e7", "bike_id": "9dab9b23757e3d0c9376e3ed534804e7", "fusion_lat": 0.0, "is_reserved": 0, "lat": 38.91263433333334, "fusion_lon": 0.0, "is_disabled": 0}, {"rental_uris": {"android": "https://dc.lft.to/lastmile_qr_scan", "ios": "https://dc.lft.to/lastmile_qr_scan"}, "type": "electric_scooter", "lon": -77.02306883333334, "name": "c0ab3fae4f809151ad69222035121317", "bike_id": "c0ab3fae4f809151ad69222035121317", "fusion_lat": 0.0, "is_reserved": 0, "lat": 38.92892283333333, "fusion_lon": 0.0, "is_disabled": 0}, {"rental_uris": {"android": "https://dc.lft.to/lastmile_qr_scan", "ios": "https://dc.lft.to/lastmile_qr_scan"}, "type": "electric_bike", "lon": -76.93412233333333, "name": "b75fbcd075babe3eb135af2d68eb9fc1", "bike_id": "b75fbcd075babe3eb135af2d68eb9fc1", "fusion_lat": 0.0, "is_reserved": 0, "lat": 38.946247, "fusion_lon": 0.0, "is_disabled": 0}, {"rental_uris": {"android": "https://dc.lft.to/lastmile_qr_scan", "ios": "https://dc.lft.to/lastmile_qr_scan"}, "type": "electric_scooter", "lon": -76.9240235, "name": "e259d227a2c1424e272101c844c69ec4", "bike_id": "e259d227a2c1424e272101c844c69ec4", "fusion_lat": 0.0, "is_reserved": 0, "lat": 38.88987983333333, "fusion_lon": 0.0, "is_disabled": 0}, {"rental_uris": {"android": "https://dc.lft.to/lastmile_qr_scan", "ios": "https://dc.lft.to/lastmile_qr_scan"}, "type": "electric_scooter", "lon": -76.97345566666667, "name": "72687ff8542c2ca46fde879ba37bfe77", "bike_id": "72687ff8542c2ca46fde879ba37bfe77", "fusion_lat": 0.0, "is_reserved": 0, "lat": 38.86510483333333, "fusion_lon": 0.0, "is_disabled": 0}, {"rental_uris": {"android": "https://dc.lft.to/lastmile_qr_scan", "ios": "https://dc.lft.to/lastmile_qr_scan"}, "type": "electric_scooter", "lon": -77.02717333333334, "name": "6b02cff41f3ccfd23c0bcd517cd74e52", "bike_id": "6b02cff41f3ccfd23c0bcd517cd74e52", "fusion_lat": 0.0, "is_reserved": 0, "lat": 38.909036, "fusion_lon": 0.0, "is_disabled": 0}, {"rental_uris": {"android": "https://dc.lft.to/lastmile_qr_scan", "ios": "https://dc.lft.to/lastmile_qr_scan"}, "type": "electric_scooter", "lon": -77.029632, "name": "bb9c6a182eeec89314a6dd06058a6f7c", "bike_id": "bb9c6a182eeec89314a6dd06058a6f7c", "fusion_lat": 0.0, "is_reserved": 0, "lat": 38.89324, "fusion_lon": 0.0, "is_disabled": 0}, {"rental_uris": {"android": "https://dc.lft.to/lastmile_qr_scan", "ios": "https://dc.lft.to/lastmile_qr_scan"}, "type": "electric_scooter", "lon": -77.02207266666667, "name": "e2dfe6711b30e1e495f875776389bc44", "bike_id": "e2dfe6711b30e1e495f875776389bc44", "fusion_lat": 0.0, "is_reserved": 0, "lat": 38.9057035, "fusion_lon": 0.0, "is_disabled": 0}, {"rental_uris": {"android": "https://dc.lft.to/lastmile_qr_scan", "ios": "https://dc.lft.to/lastmile_qr_scan"}, "type": "electric_bike", "lon": -76.94771383333334, "name": "eb4466c823cb53b560f411c1f34ca987", "bike_id": "eb4466c823cb53b560f411c1f34ca987", "fusion_lat": 0.0, "is_reserved": 0, "lat": 38.89628733333333, "fusion_lon": 0.0, "is_disabled": 0}, {"rental_uris": {"android": "https://dc.lft.to/lastmile_qr_scan", "ios": "https://dc.lft.to/lastmile_qr_scan"}, "type": "electric_scooter", "lon": -77.012107, "name": "6a327312c7f671afe28f7f6c0a84531e", "bike_id": "6a327312c7f671afe28f7f6c0a84531e", "fusion_lat": 0.0, "is_reserved": 0, "lat": 38.918232333333336, "fusion_lon": 0.0, "is_disabled": 0}, {"rental_uris": {"android": "https://dc.lft.to/lastmile_qr_scan", "ios": "https://dc.lft.to/lastmile_qr_scan"}, "type": "electric_scooter", "lon": -77.00137816666667, "name": "6158d23fb41981806ce0cf020300bbe4", "bike_id": "6158d23fb41981806ce0cf020300bbe4", "fusion_lat": 0.0, "is_reserved": 0, "lat": 38.900002666666666, "fusion_lon": 0.0, "is_disabled": 0}, {"rental_uris": {"android": "https://dc.lft.to/lastmile_qr_scan", "ios": "https://dc.lft.to/lastmile_qr_scan"}, "type": "electric_scooter", "lon": -77.04993283333333, "name": "830820e23126f83c6edbb569b37e52ca", "bike_id": "830820e23126f83c6edbb569b37e52ca", "fusion_lat": 0.0, "is_reserved": 0, "lat": 38.897244666666666, "fusion_lon": 0.0, "is_disabled": 0}, {"rental_uris": {"android": "https://dc.lft.to/lastmile_qr_scan", "ios": "https://dc.lft.to/lastmile_qr_scan"}, "type": "electric_bike", "lon": -76.991067, "name": "0b51b7ffb59e4d07289c79d0df7ef9c3", "bike_id": "0b51b7ffb59e4d07289c79d0df7ef9c3", "fusion_lat": 0.0, "is_reserved": 0, "lat": 38.93371116666667, "fusion_lon": 0.0, "is_disabled": 0}, {"rental_uris": {"android": "https://dc.lft.to/lastmile_qr_scan", "ios": "https://dc.lft.to/lastmile_qr_scan"}, "type": "electric_scooter", "lon": -77.03466733333333, "name": "50f3e6705b98431ebafc9bff89ca7c74", "bike_id": "50f3e6705b98431ebafc9bff89ca7c74", "fusion_lat": 0.0, "is_reserved": 0, "lat": 38.9355185, "fusion_lon": 0.0, "is_disabled": 0}, {"rental_uris": {"android": "https://dc.lft.to/lastmile_qr_scan", "ios": "https://dc.lft.to/lastmile_qr_scan"}, "type": "electric_scooter", "lon": -77.03217083333334, "name": "939a02b1f37ce1e7a504cb4ab09a969a", "bike_id": "939a02b1f37ce1e7a504cb4ab09a969a", "fusion_lat": 0.0, "is_reserved": 0, "lat": 38.91887466666667, "fusion_lon": 0.0, "is_disabled": 0}, {"rental_uris": {"android": "https://dc.lft.to/lastmile_qr_scan", "ios": "https://dc.lft.to/lastmile_qr_scan"}, "type": "electric_scooter", "lon": -76.98460733333333, "name": "c9f683dbed34b58728d24b786cc61af1", "bike_id": "c9f683dbed34b58728d24b786cc61af1", "fusion_lat": 0.0, "is_reserved": 0, "lat": 38.893686833333334, "fusion_lon": 0.0, "is_disabled": 0}, {"rental_uris": {"android": "https://dc.lft.to/lastmile_qr_scan", "ios": "https://dc.lft.to/lastmile_qr_scan"}, "type": "electric_scooter", "lon": -76.9701775, "name": "c9db23130296b8be1e8487750259c111", "bike_id": "c9db23130296b8be1e8487750259c111", "fusion_lat": 0.0, "is_reserved": 0, "lat": 38.9203325, "fusion_lon": 0.0, "is_disabled": 0}, {"rental_uris": {"android": "https://dc.lft.to/lastmile_qr_scan", "ios": "https://dc.lft.to/lastmile_qr_scan"}, "type": "electric_scooter", "lon": -77.0215145, "name": "ae6817420dda29f5476ee0267ba9a23e", "bike_id": "ae6817420dda29f5476ee0267ba9a23e", "fusion_lat": 0.0, "is_reserved": 0, "lat": 38.8792575, "fusion_lon": 0.0, "is_disabled": 0}, {"rental_uris": {"android": "https://dc.lft.to/lastmile_qr_scan", "ios": "https://dc.lft.to/lastmile_qr_scan"}, "type": "electric_scooter", "lon": -77.05016183333333, "name": "4339304c913141340c414b9777b23b94", "bike_id": "4339304c913141340c414b9777b23b94", "fusion_lat": 0.0, "is_reserved": 0, "lat": 38.90081683333333, "fusion_lon": 0.0, "is_disabled": 0}, {"rental_uris": {"android": "https://dc.lft.to/lastmile_qr_scan", "ios": "https://dc.lft.to/lastmile_qr_scan"}, "type": "electric_scooter", "lon": -77.038629, "name": "33183bc8b7b4c65fa671a5617b9d1f84", "bike_id": "33183bc8b7b4c65fa671a5617b9d1f84", "fusion_lat": 0.0, "is_reserved": 0, "lat": 38.917116166666666, "fusion_lon": 0.0, "is_disabled": 0}, {"rental_uris": {"android": "https://dc.lft.to/lastmile_qr_scan", "ios": "https://dc.lft.to/lastmile_qr_scan"}, "type": "electric_scooter", "lon": -77.0189715, "name": "338105883f8dcf81bc3dc3fd211de944", "bike_id": "338105883f8dcf81bc3dc3fd211de944", "fusion_lat": 0.0, "is_reserved": 0, "lat": 38.93912133333333, "fusion_lon": 0.0, "is_disabled": 0}, {"rental_uris": {"android": "https://dc.lft.to/lastmile_qr_scan", "ios": "https://dc.lft.to/lastmile_qr_scan"}, "type": "electric_scooter", "lon": -76.99081583333333, "name": "a78dd00d7e303c4616d5e51ba26ab798", "bike_id": "a78dd00d7e303c4616d5e51ba26ab798", "fusion_lat": 0.0, "is_reserved": 0, "lat": 38.8428635, "fusion_lon": 0.0, "is_disabled": 0}, {"rental_uris": {"android": "https://dc.lft.to/lastmile_qr_scan", "ios": "https://dc.lft.to/lastmile_qr_scan"}, "type": "electric_bike", "lon": -76.998383, "name": "95fb8c9d464829627d7dd6938252cb17", "bike_id": "95fb8c9d464829627d7dd6938252cb17", "fusion_lat": 0.0, "is_reserved": 0, "lat": 38.839149166666665, "fusion_lon": 0.0, "is_disabled": 0}, {"rental_uris": {"android": "https://dc.lft.to/lastmile_qr_scan", "ios": "https://dc.lft.to/lastmile_qr_scan"}, "type": "electric_scooter", "lon": -76.97768783333333, "name": "4ae5b653e0b0f0b19312d667d780ff09", "bike_id": "4ae5b653e0b0f0b19312d667d780ff09", "fusion_lat": 0.0, "is_reserved": 0, "lat": 38.87015933333333, "fusion_lon": 0.0, "is_disabled": 0}, {"rental_uris": {"android": "https://dc.lft.to/lastmile_qr_scan", "ios": "https://dc.lft.to/lastmile_qr_scan"}, "type": "electric_bike", "lon": -77.02341116666666, "name": "01cdc2ce631aa139a64c98e09ae121c5", "bike_id": "01cdc2ce631aa139a64c98e09ae121c5", "fusion_lat": 0.0, "is_reserved": 0, "lat": 38.92965316666667, "fusion_lon": 0.0, "is_disabled": 0}, {"rental_uris": {"android": "https://dc.lft.to/lastmile_qr_scan", "ios": "https://dc.lft.to/lastmile_qr_scan"}, "type": "electric_scooter", "lon": -77.01252166666667, "name": "cd20c5a1cce578f1ce3738f492a96f0c", "bike_id": "cd20c5a1cce578f1ce3738f492a96f0c", "fusion_lat": 0.0, "is_reserved": 0, "lat": 38.90850183333333, "fusion_lon": 0.0, "is_disabled": 0}, {"rental_uris": {"android": "https://dc.lft.to/lastmile_qr_scan", "ios": "https://dc.lft.to/lastmile_qr_scan"}, "type": "electric_scooter", "lon": -77.02249833333333, "name": "bc3d4be4309c10f9a125a1d38e689bb4", "bike_id": "bc3d4be4309c10f9a125a1d38e689bb4", "fusion_lat": 0.0, "is_reserved": 0, "lat": 38.91276216666667, "fusion_lon": 0.0, "is_disabled": 0}, {"rental_uris": {"android": "https://dc.lft.to/lastmile_qr_scan", "ios": "https://dc.lft.to/lastmile_qr_scan"}, "type": "electric_scooter", "lon": -77.02929166666667, "name": "59d3ff27817e491da5fd480fb6ab8a9f", "bike_id": "59d3ff27817e491da5fd480fb6ab8a9f", "fusion_lat": 0.0, "is_reserved": 0, "lat": 38.91118266666667, "fusion_lon": 0.0, "is_disabled": 0}, {"rental_uris": {"android": "https://dc.lft.to/lastmile_qr_scan", "ios": "https://dc.lft.to/lastmile_qr_scan"}, "type": "electric_scooter", "lon": -77.018821, "name": "f781a029be662f0fef1c2128b7a569d1", "bike_id": "f781a029be662f0fef1c2128b7a569d1", "fusion_lat": 0.0, "is_reserved": 0, "lat": 38.92949133333333, "fusion_lon": 0.0, "is_disabled": 0}, {"rental_uris": {"android": "https://dc.lft.to/lastmile_qr_scan", "ios": "https://dc.lft.to/lastmile_qr_scan"}, "type": "electric_scooter", "lon": -77.03660483333333, "name": "a434a145aff219b7c713d754cb6bf952", "bike_id": "a434a145aff219b7c713d754cb6bf952", "fusion_lat": 0.0, "is_reserved": 0, "lat": 38.912087166666666, "fusion_lon": 0.0, "is_disabled": 0}, {"rental_uris": {"android": "https://dc.lft.to/lastmile_qr_scan", "ios": "https://dc.lft.to/lastmile_qr_scan"}, "type": "electric_scooter", "lon": -77.00197433333334, "name": "4420eb1daca69b325d47ca5299f52629", "bike_id": "4420eb1daca69b325d47ca5299f52629", "fusion_lat": 0.0, "is_reserved": 0, "lat": 38.90243866666667, "fusion_lon": 0.0, "is_disabled": 0}, {"rental_uris": {"android": "https://dc.lft.to/lastmile_qr_scan", "ios": "https://dc.lft.to/lastmile_qr_scan"}, "type": "electric_bike", "lon": -77.0107305, "name": "da0a1159da0aecfd58e0c8812a0d50a7", "bike_id": "da0a1159da0aecfd58e0c8812a0d50a7", "fusion_lat": 0.0, "is_reserved": 0, "lat": 38.962603, "fusion_lon": 0.0, "is_disabled": 0}, {"rental_uris": {"android": "https://dc.lft.to/lastmile_qr_scan", "ios": "https://dc.lft.to/lastmile_qr_scan"}, "type": "electric_scooter", "lon": -76.99138166666667, "name": "51db1aad04595dcf6baf8ef14aea6113", "bike_id": "51db1aad04595dcf6baf8ef14aea6113", "fusion_lat": 0.0, "is_reserved": 0, "lat": 38.89729233333333, "fusion_lon": 0.0, "is_disabled": 0}, {"rental_uris": {"android": "https://dc.lft.to/lastmile_qr_scan", "ios": "https://dc.lft.to/lastmile_qr_scan"}, "type": "electric_scooter", "lon": -77.043415, "name": "b3df5504978626653915e510cca28c6f", "bike_id": "b3df5504978626653915e510cca28c6f", "fusion_lat": 0.0, "is_reserved": 0, "lat": 38.931377499999996, "fusion_lon": 0.0, "is_disabled": 0}, {"rental_uris": {"android": "https://dc.lft.to/lastmile_qr_scan", "ios": "https://dc.lft.to/lastmile_qr_scan"}, "type": "electric_scooter", "lon": -76.99834983333334, "name": "a5831dc38c80009755aaf38818716a15", "bike_id": "a5831dc38c80009755aaf38818716a15", "fusion_lat": 0.0, "is_reserved": 0, "lat": 38.95378216666667, "fusion_lon": 0.0, "is_disabled": 0}, {"rental_uris": {"android": "https://dc.lft.to/lastmile_qr_scan", "ios": "https://dc.lft.to/lastmile_qr_scan"}, "type": "electric_scooter", "lon": -77.03174333333334, "name": "318175ba9043a684e539f6d9c60e50d7", "bike_id": "318175ba9043a684e539f6d9c60e50d7", "fusion_lat": 0.0, "is_reserved": 0, "lat": 38.91327583333333, "fusion_lon": 0.0, "is_disabled": 0}, {"rental_uris": {"android": "https://dc.lft.to/lastmile_qr_scan", "ios": "https://dc.lft.to/lastmile_qr_scan"}, "type": "electric_scooter", "lon": -77.04379133333333, "name": "d9c452c7ca9e500e5753f712cac8df34", "bike_id": "d9c452c7ca9e500e5753f712cac8df34", "fusion_lat": 0.0, "is_reserved": 0, "lat": 38.920655833333335, "fusion_lon": 0.0, "is_disabled": 0}, {"rental_uris": {"android": "https://dc.lft.to/lastmile_qr_scan", "ios": "https://dc.lft.to/lastmile_qr_scan"}, "type": "electric_scooter", "lon": -77.06854116666666, "name": "da3a86e6d42449d212a91f694ac22942", "bike_id": "da3a86e6d42449d212a91f694ac22942", "fusion_lat": 0.0, "is_reserved": 0, "lat": 38.9520965, "fusion_lon": 0.0, "is_disabled": 0}, {"rental_uris": {"android": "https://dc.lft.to/lastmile_qr_scan", "ios": "https://dc.lft.to/lastmile_qr_scan"}, "type": "electric_bike", "lon": -76.95807366666666, "name": "3e04380392bf104f6f30533b8617725e", "bike_id": "3e04380392bf104f6f30533b8617725e", "fusion_lat": 0.0, "is_reserved": 0, "lat": 38.980509166666664, "fusion_lon": 0.0, "is_disabled": 0}, {"rental_uris": {"android": "https://dc.lft.to/lastmile_qr_scan", "ios": "https://dc.lft.to/lastmile_qr_scan"}, "type": "electric_scooter", "lon": -76.99075166666667, "name": "4723d729a965c988666d59daf203ad0c", "bike_id": "4723d729a965c988666d59daf203ad0c", "fusion_lat": 0.0, "is_reserved": 0, "lat": 38.860505333333336, "fusion_lon": 0.0, "is_disabled": 0}, {"rental_uris": {"android": "https://dc.lft.to/lastmile_qr_scan", "ios": "https://dc.lft.to/lastmile_qr_scan"}, "type": "electric_scooter", "lon": -76.99396233333333, "name": "ed079665ca31caed09a003f33c49fc8d", "bike_id": "ed079665ca31caed09a003f33c49fc8d", "fusion_lat": 0.0, "is_reserved": 0, "lat": 38.92271616666667, "fusion_lon": 0.0, "is_disabled": 0}, {"rental_uris": {"android": "https://dc.lft.to/lastmile_qr_scan", "ios": "https://dc.lft.to/lastmile_qr_scan"}, "type": "electric_scooter", "lon": -77.043246, "name": "66a83a9fa1e2afe844c30bbde36b9f2c", "bike_id": "66a83a9fa1e2afe844c30bbde36b9f2c", "fusion_lat": 0.0, "is_reserved": 0, "lat": 38.908596333333335, "fusion_lon": 0.0, "is_disabled": 0}, {"rental_uris": {"android": "https://dc.lft.to/lastmile_qr_scan", "ios": "https://dc.lft.to/lastmile_qr_scan"}, "type": "electric_scooter", "lon": -76.999395, "name": "be95591355d68275bd57c963936d1155", "bike_id": "be95591355d68275bd57c963936d1155", "fusion_lat": 0.0, "is_reserved": 0, "lat": 38.84316833333333, "fusion_lon": 0.0, "is_disabled": 0}, {"rental_uris": {"android": "https://dc.lft.to/lastmile_qr_scan", "ios": "https://dc.lft.to/lastmile_qr_scan"}, "type": "electric_scooter", "lon": -77.0152185, "name": "bf5ee60459e32af7a7a4a74bcb3fbd72", "bike_id": "bf5ee60459e32af7a7a4a74bcb3fbd72", "fusion_lat": 0.0, "is_reserved": 0, "lat": 38.90054633333333, "fusion_lon": 0.0, "is_disabled": 0}, {"rental_uris": {"android": "https://dc.lft.to/lastmile_qr_scan", "ios": "https://dc.lft.to/lastmile_qr_scan"}, "type": "electric_scooter", "lon": -77.04655416666667, "name": "29ec991cf5f299a9a8b6fed72899f269", "bike_id": "29ec991cf5f299a9a8b6fed72899f269", "fusion_lat": 0.0, "is_reserved": 0, "lat": 38.90014633333333, "fusion_lon": 0.0, "is_disabled": 0}, {"rental_uris": {"android": "https://dc.lft.to/lastmile_qr_scan", "ios": "https://dc.lft.to/lastmile_qr_scan"}, "type": "electric_scooter", "lon": -77.01995283333333, "name": "14bc80b869cda5243a0b069e14a3d387", "bike_id": "14bc80b869cda5243a0b069e14a3d387", "fusion_lat": 0.0, "is_reserved": 0, "lat": 38.96636566666667, "fusion_lon": 0.0, "is_disabled": 0}, {"rental_uris": {"android": "https://dc.lft.to/lastmile_qr_scan", "ios": "https://dc.lft.to/lastmile_qr_scan"}, "type": "electric_scooter", "lon": -77.04495583333333, "name": "c0c9130cb9e832cd74e84bd15af93ac9", "bike_id": "c0c9130cb9e832cd74e84bd15af93ac9", "fusion_lat": 0.0, "is_reserved": 0, "lat": 38.91846283333334, "fusion_lon": 0.0, "is_disabled": 0}, {"rental_uris": {"android": "https://dc.lft.to/lastmile_qr_scan", "ios": "https://dc.lft.to/lastmile_qr_scan"}, "type": "electric_scooter", "lon": -77.02980016666666, "name": "d58076672012573b7dc74a944d1ec1e9", "bike_id": "d58076672012573b7dc74a944d1ec1e9", "fusion_lat": 0.0, "is_reserved": 0, "lat": 38.939810666666666, "fusion_lon": 0.0, "is_disabled": 0}, {"rental_uris": {"android": "https://dc.lft.to/lastmile_qr_scan", "ios": "https://dc.lft.to/lastmile_qr_scan"}, "type": "electric_scooter", "lon": -76.993649, "name": "b51ce519cc6b771e441cd5f3944714f2", "bike_id": "b51ce519cc6b771e441cd5f3944714f2", "fusion_lat": 0.0, "is_reserved": 0, "lat": 38.928402, "fusion_lon": 0.0, "is_disabled": 0}, {"rental_uris": {"android": "https://dc.lft.to/lastmile_qr_scan", "ios": "https://dc.lft.to/lastmile_qr_scan"}, "type": "electric_scooter", "lon": -77.03441966666666, "name": "a781f0e14ba2c069c406f4ff4b5c0804", "bike_id": "a781f0e14ba2c069c406f4ff4b5c0804", "fusion_lat": 0.0, "is_reserved": 0, "lat": 38.90732283333333, "fusion_lon": 0.0, "is_disabled": 0}, {"rental_uris": {"android": "https://dc.lft.to/lastmile_qr_scan", "ios": "https://dc.lft.to/lastmile_qr_scan"}, "type": "electric_scooter", "lon": -76.99002333333334, "name": "80ddf0acf7b1fe75c0169fbc68e00c2d", "bike_id": "80ddf0acf7b1fe75c0169fbc68e00c2d", "fusion_lat": 0.0, "is_reserved": 0, "lat": 38.865061833333336, "fusion_lon": 0.0, "is_disabled": 0}, {"rental_uris": {"android": "https://dc.lft.to/lastmile_qr_scan", "ios": "https://dc.lft.to/lastmile_qr_scan"}, "type": "electric_scooter", "lon": -76.98881016666667, "name": "81c24a71c6d9fd3160c6c6eaa06d8a26", "bike_id": "81c24a71c6d9fd3160c6c6eaa06d8a26", "fusion_lat": 0.0, "is_reserved": 0, "lat": 38.86673533333333, "fusion_lon": 0.0, "is_disabled": 0}, {"rental_uris": {"android": "https://dc.lft.to/lastmile_qr_scan", "ios": "https://dc.lft.to/lastmile_qr_scan"}, "type": "electric_scooter", "lon": -76.98762766666667, "name": "f26e15246c70b80648b063b05ea78d54", "bike_id": "f26e15246c70b80648b063b05ea78d54", "fusion_lat": 0.0, "is_reserved": 0, "lat": 38.84463616666667, "fusion_lon": 0.0, "is_disabled": 0}, {"rental_uris": {"android": "https://dc.lft.to/lastmile_qr_scan", "ios": "https://dc.lft.to/lastmile_qr_scan"}, "type": "electric_scooter", "lon": -77.02367416666667, "name": "0fba609b457a25b05ad2a9cdd1cbfdb3", "bike_id": "0fba609b457a25b05ad2a9cdd1cbfdb3", "fusion_lat": 0.0, "is_reserved": 0, "lat": 38.907326166666664, "fusion_lon": 0.0, "is_disabled": 0}, {"rental_uris": {"android": "https://dc.lft.to/lastmile_qr_scan", "ios": "https://dc.lft.to/lastmile_qr_scan"}, "type": "electric_scooter", "lon": -77.0499815, "name": "91658591b57afa9ead1b34a0dc8f4320", "bike_id": "91658591b57afa9ead1b34a0dc8f4320", "fusion_lat": 0.0, "is_reserved": 0, "lat": 38.89228716666667, "fusion_lon": 0.0, "is_disabled": 0}, {"rental_uris": {"android": "https://dc.lft.to/lastmile_qr_scan", "ios": "https://dc.lft.to/lastmile_qr_scan"}, "type": "electric_scooter", "lon": -77.0241945, "name": "5740bf1e0a8a9f21c3efe56c5835d5a1", "bike_id": "5740bf1e0a8a9f21c3efe56c5835d5a1", "fusion_lat": 0.0, "is_reserved": 0, "lat": 38.892287, "fusion_lon": 0.0, "is_disabled": 0}, {"rental_uris": {"android": "https://dc.lft.to/lastmile_qr_scan", "ios": "https://dc.lft.to/lastmile_qr_scan"}, "type": "electric_scooter", "lon": -77.02781683333333, "name": "8fc9f863529bf55e6e89072d12876a40", "bike_id": "8fc9f863529bf55e6e89072d12876a40", "fusion_lat": 0.0, "is_reserved": 0, "lat": 38.9613665, "fusion_lon": 0.0, "is_disabled": 0}, {"rental_uris": {"android": "https://dc.lft.to/lastmile_qr_scan", "ios": "https://dc.lft.to/lastmile_qr_scan"}, "type": "electric_bike", "lon": -77.08542416666667, "name": "4db745ae0e552d564ed6872b4be717f0", "bike_id": "4db745ae0e552d564ed6872b4be717f0", "fusion_lat": 0.0, "is_reserved": 0, "lat": 38.856214666666666, "fusion_lon": 0.0, "is_disabled": 0}, {"rental_uris": {"android": "https://dc.lft.to/lastmile_qr_scan", "ios": "https://dc.lft.to/lastmile_qr_scan"}, "type": "electric_scooter", "lon": -77.0255705, "name": "081459f2d790487e25ff31f8f50d386c", "bike_id": "081459f2d790487e25ff31f8f50d386c", "fusion_lat": 0.0, "is_reserved": 0, "lat": 38.9416505, "fusion_lon": 0.0, "is_disabled": 0}, {"rental_uris": {"android": "https://dc.lft.to/lastmile_qr_scan", "ios": "https://dc.lft.to/lastmile_qr_scan"}, "type": "electric_scooter", "lon": -76.970349, "name": "e65d8a55dc781392991167bd1894bf1a", "bike_id": "e65d8a55dc781392991167bd1894bf1a", "fusion_lat": 0.0, "is_reserved": 0, "lat": 38.867839333333336, "fusion_lon": 0.0, "is_disabled": 0}, {"rental_uris": {"android": "https://dc.lft.to/lastmile_qr_scan", "ios": "https://dc.lft.to/lastmile_qr_scan"}, "type": "electric_scooter", "lon": -77.03735666666667, "name": "940707100a5c9a44ca75341562d2264f", "bike_id": "940707100a5c9a44ca75341562d2264f", "fusion_lat": 0.0, "is_reserved": 0, "lat": 38.916957, "fusion_lon": 0.0, "is_disabled": 0}, {"rental_uris": {"android": "https://dc.lft.to/lastmile_qr_scan", "ios": "https://dc.lft.to/lastmile_qr_scan"}, "type": "electric_scooter", "lon": -77.02031733333334, "name": "881d7506d6cd14c36edaf665b164076e", "bike_id": "881d7506d6cd14c36edaf665b164076e", "fusion_lat": 0.0, "is_reserved": 0, "lat": 38.89272916666667, "fusion_lon": 0.0, "is_disabled": 0}, {"rental_uris": {"android": "https://dc.lft.to/lastmile_qr_scan", "ios": "https://dc.lft.to/lastmile_qr_scan"}, "type": "electric_scooter", "lon": -77.065337, "name": "1c2fc61c447ccdd750cb4a70ec78fb64", "bike_id": "1c2fc61c447ccdd750cb4a70ec78fb64", "fusion_lat": 0.0, "is_reserved": 0, "lat": 38.950629166666666, "fusion_lon": 0.0, "is_disabled": 0}, {"rental_uris": {"android": "https://dc.lft.to/lastmile_qr_scan", "ios": "https://dc.lft.to/lastmile_qr_scan"}, "type": "electric_bike", "lon": -77.17807033333334, "name": "b75a899d7b7ad08e3209e6735478e7aa", "bike_id": "b75a899d7b7ad08e3209e6735478e7aa", "fusion_lat": 0.0, "is_reserved": 0, "lat": 39.088409166666665, "fusion_lon": 0.0, "is_disabled": 0}, {"rental_uris": {"android": "https://dc.lft.to/lastmile_qr_scan", "ios": "https://dc.lft.to/lastmile_qr_scan"}, "type": "electric_scooter", "lon": -76.987006, "name": "d2121a1f1830ba5df692b8b050c12d4e", "bike_id": "d2121a1f1830ba5df692b8b050c12d4e", "fusion_lat": 0.0, "is_reserved": 0, "lat": 38.902013833333335, "fusion_lon": 0.0, "is_disabled": 0}, {"rental_uris": {"android": "https://dc.lft.to/lastmile_qr_scan", "ios": "https://dc.lft.to/lastmile_qr_scan"}, "type": "electric_scooter", "lon": -77.0384155, "name": "9d58aee6e35b90c066e40bc226737453", "bike_id": "9d58aee6e35b90c066e40bc226737453", "fusion_lat": 0.0, "is_reserved": 0, "lat": 38.91287116666667, "fusion_lon": 0.0, "is_disabled": 0}, {"rental_uris": {"android": "https://dc.lft.to/lastmile_qr_scan", "ios": "https://dc.lft.to/lastmile_qr_scan"}, "type": "electric_bike", "lon": -77.02620683333333, "name": "f4d197f71e7b7e4b6761b8f7883804cd", "bike_id": "f4d197f71e7b7e4b6761b8f7883804cd", "fusion_lat": 0.0, "is_reserved": 0, "lat": 38.962195, "fusion_lon": 0.0, "is_disabled": 0}, {"rental_uris": {"android": "https://dc.lft.to/lastmile_qr_scan", "ios": "https://dc.lft.to/lastmile_qr_scan"}, "type": "electric_scooter", "lon": -76.99394783333334, "name": "3809187108b404d474af4b57b7c359f2", "bike_id": "3809187108b404d474af4b57b7c359f2", "fusion_lat": 0.0, "is_reserved": 0, "lat": 38.8860345, "fusion_lon": 0.0, "is_disabled": 0}, {"rental_uris": {"android": "https://dc.lft.to/lastmile_qr_scan", "ios": "https://dc.lft.to/lastmile_qr_scan"}, "type": "electric_scooter", "lon": -77.04587683333334, "name": "1a08aec28c5900c0bd4b76815ba0e588", "bike_id": "1a08aec28c5900c0bd4b76815ba0e588", "fusion_lat": 0.0, "is_reserved": 0, "lat": 38.89991583333333, "fusion_lon": 0.0, "is_disabled": 0}, {"rental_uris": {"android": "https://dc.lft.to/lastmile_qr_scan", "ios": "https://dc.lft.to/lastmile_qr_scan"}, "type": "electric_scooter", "lon": -77.04871, "name": "7ad75da7d598cbf520c5bcce1731df82", "bike_id": "7ad75da7d598cbf520c5bcce1731df82", "fusion_lat": 0.0, "is_reserved": 0, "lat": 38.904174833333336, "fusion_lon": 0.0, "is_disabled": 0}, {"rental_uris": {"android": "https://dc.lft.to/lastmile_qr_scan", "ios": "https://dc.lft.to/lastmile_qr_scan"}, "type": "electric_bike", "lon": -76.965616, "name": "e4e7e6813cb44e6ef73ec47ef1deb8bc", "bike_id": "e4e7e6813cb44e6ef73ec47ef1deb8bc", "fusion_lat": 0.0, "is_reserved": 0, "lat": 38.95086766666667, "fusion_lon": 0.0, "is_disabled": 0}, {"rental_uris": {"android": "https://dc.lft.to/lastmile_qr_scan", "ios": "https://dc.lft.to/lastmile_qr_scan"}, "type": "electric_scooter", "lon": -77.050309, "name": "a6d2b34efb4341107fc9a1acd9ac8471", "bike_id": "a6d2b34efb4341107fc9a1acd9ac8471", "fusion_lat": 0.0, "is_reserved": 0, "lat": 38.923623166666665, "fusion_lon": 0.0, "is_disabled": 0}, {"rental_uris": {"android": "https://dc.lft.to/lastmile_qr_scan", "ios": "https://dc.lft.to/lastmile_qr_scan"}, "type": "electric_scooter", "lon": -77.07841766666667, "name": "0bfc107bf32fefcc93620ff533f6b261", "bike_id": "0bfc107bf32fefcc93620ff533f6b261", "fusion_lat": 0.0, "is_reserved": 0, "lat": 38.931150333333335, "fusion_lon": 0.0, "is_disabled": 0}, {"rental_uris": {"android": "https://dc.lft.to/lastmile_qr_scan", "ios": "https://dc.lft.to/lastmile_qr_scan"}, "type": "electric_scooter", "lon": -77.03861216666667, "name": "439e91bb619995467f28d27570242023", "bike_id": "439e91bb619995467f28d27570242023", "fusion_lat": 0.0, "is_reserved": 0, "lat": 38.911964, "fusion_lon": 0.0, "is_disabled": 0}, {"rental_uris": {"android": "https://dc.lft.to/lastmile_qr_scan", "ios": "https://dc.lft.to/lastmile_qr_scan"}, "type": "electric_scooter", "lon": -77.02961483333333, "name": "b42f5e8363c7b5c1c1d62109f943ae3e", "bike_id": "b42f5e8363c7b5c1c1d62109f943ae3e", "fusion_lat": 0.0, "is_reserved": 0, "lat": 38.924598333333336, "fusion_lon": 0.0, "is_disabled": 0}, {"rental_uris": {"android": "https://dc.lft.to/lastmile_qr_scan", "ios": "https://dc.lft.to/lastmile_qr_scan"}, "type": "electric_scooter", "lon": -77.035064, "name": "f881088c5c2375e8bc7fda745a62ef69", "bike_id": "f881088c5c2375e8bc7fda745a62ef69", "fusion_lat": 0.0, "is_reserved": 0, "lat": 38.917024, "fusion_lon": 0.0, "is_disabled": 0}, {"rental_uris": {"android": "https://dc.lft.to/lastmile_qr_scan", "ios": "https://dc.lft.to/lastmile_qr_scan"}, "type": "electric_scooter", "lon": -77.0318845, "name": "e1561787782b30f14d66d7dd229386af", "bike_id": "e1561787782b30f14d66d7dd229386af", "fusion_lat": 0.0, "is_reserved": 0, "lat": 38.916431833333334, "fusion_lon": 0.0, "is_disabled": 0}, {"rental_uris": {"android": "https://dc.lft.to/lastmile_qr_scan", "ios": "https://dc.lft.to/lastmile_qr_scan"}, "type": "electric_scooter", "lon": -77.0464915, "name": "2133381579a502b8d6af61ef530735d3", "bike_id": "2133381579a502b8d6af61ef530735d3", "fusion_lat": 0.0, "is_reserved": 0, "lat": 38.8923605, "fusion_lon": 0.0, "is_disabled": 0}, {"rental_uris": {"android": "https://dc.lft.to/lastmile_qr_scan", "ios": "https://dc.lft.to/lastmile_qr_scan"}, "type": "electric_scooter", "lon": -76.99631866666667, "name": "fca5f5f5c398ef823e6a27f22ef86cfc", "bike_id": "fca5f5f5c398ef823e6a27f22ef86cfc", "fusion_lat": 0.0, "is_reserved": 0, "lat": 38.8461985, "fusion_lon": 0.0, "is_disabled": 0}, {"rental_uris": {"android": "https://dc.lft.to/lastmile_qr_scan", "ios": "https://dc.lft.to/lastmile_qr_scan"}, "type": "electric_bike", "lon": -76.987508, "name": "150c9e72908c11fb45547164bbbf1603", "bike_id": "150c9e72908c11fb45547164bbbf1603", "fusion_lat": 0.0, "is_reserved": 0, "lat": 38.98824066666667, "fusion_lon": 0.0, "is_disabled": 0}, {"rental_uris": {"android": "https://dc.lft.to/lastmile_qr_scan", "ios": "https://dc.lft.to/lastmile_qr_scan"}, "type": "electric_scooter", "lon": -77.02263283333333, "name": "e48eb40f976641bc336f0e77a32f99f4", "bike_id": "e48eb40f976641bc336f0e77a32f99f4", "fusion_lat": 0.0, "is_reserved": 0, "lat": 38.91758016666667, "fusion_lon": 0.0, "is_disabled": 0}, {"rental_uris": {"android": "https://dc.lft.to/lastmile_qr_scan", "ios": "https://dc.lft.to/lastmile_qr_scan"}, "type": "electric_scooter", "lon": -77.0113275, "name": "977bc79cb61ee0ee990117fe97c2dcf5", "bike_id": "977bc79cb61ee0ee990117fe97c2dcf5", "fusion_lat": 0.0, "is_reserved": 0, "lat": 38.906464166666666, "fusion_lon": 0.0, "is_disabled": 0}, {"rental_uris": {"android": "https://dc.lft.to/lastmile_qr_scan", "ios": "https://dc.lft.to/lastmile_qr_scan"}, "type": "electric_scooter", "lon": -77.01949666666667, "name": "c5105bcb19065c14f4929808799b22ed", "bike_id": "c5105bcb19065c14f4929808799b22ed", "fusion_lat": 0.0, "is_reserved": 0, "lat": 38.92417, "fusion_lon": 0.0, "is_disabled": 0}, {"rental_uris": {"android": "https://dc.lft.to/lastmile_qr_scan", "ios": "https://dc.lft.to/lastmile_qr_scan"}, "type": "electric_scooter", "lon": -76.9346475, "name": "11706fb96c5ab053cd93f699ca5c5593", "bike_id": "11706fb96c5ab053cd93f699ca5c5593", "fusion_lat": 0.0, "is_reserved": 0, "lat": 38.90185266666667, "fusion_lon": 0.0, "is_disabled": 0}, {"rental_uris": {"android": "https://dc.lft.to/lastmile_qr_scan", "ios": "https://dc.lft.to/lastmile_qr_scan"}, "type": "electric_scooter", "lon": -76.9978145, "name": "9cb78bb5cbf12448a9f9076a83e527af", "bike_id": "9cb78bb5cbf12448a9f9076a83e527af", "fusion_lat": 0.0, "is_reserved": 0, "lat": 38.84426933333334, "fusion_lon": 0.0, "is_disabled": 0}, {"rental_uris": {"android": "https://dc.lft.to/lastmile_qr_scan", "ios": "https://dc.lft.to/lastmile_qr_scan"}, "type": "electric_scooter", "lon": -77.02789066666666, "name": "37ca2506dbedd8a6fb501ee4e2302cc7", "bike_id": "37ca2506dbedd8a6fb501ee4e2302cc7", "fusion_lat": 0.0, "is_reserved": 0, "lat": 38.89611416666666, "fusion_lon": 0.0, "is_disabled": 0}, {"rental_uris": {"android": "https://dc.lft.to/lastmile_qr_scan", "ios": "https://dc.lft.to/lastmile_qr_scan"}, "type": "electric_bike", "lon": -76.93442183333333, "name": "46df8a1d2d4b9b21e3e0dee6f2008ab5", "bike_id": "46df8a1d2d4b9b21e3e0dee6f2008ab5", "fusion_lat": 0.0, "is_reserved": 0, "lat": 38.9695145, "fusion_lon": 0.0, "is_disabled": 0}, {"rental_uris": {"android": "https://dc.lft.to/lastmile_qr_scan", "ios": "https://dc.lft.to/lastmile_qr_scan"}, "type": "electric_scooter", "lon": -77.006408, "name": "8406d6189fbeeffc77629f8abcb2d072", "bike_id": "8406d6189fbeeffc77629f8abcb2d072", "fusion_lat": 0.0, "is_reserved": 0, "lat": 38.88336433333333, "fusion_lon": 0.0, "is_disabled": 0}, {"rental_uris": {"android": "https://dc.lft.to/lastmile_qr_scan", "ios": "https://dc.lft.to/lastmile_qr_scan"}, "type": "electric_scooter", "lon": -77.01206383333333, "name": "f4a79594c42ba5135a6232ef41f940cb", "bike_id": "f4a79594c42ba5135a6232ef41f940cb", "fusion_lat": 0.0, "is_reserved": 0, "lat": 38.870898333333336, "fusion_lon": 0.0, "is_disabled": 0}, {"rental_uris": {"android": "https://dc.lft.to/lastmile_qr_scan", "ios": "https://dc.lft.to/lastmile_qr_scan"}, "type": "electric_scooter", "lon": -77.01456416666667, "name": "f87c7ff7d701158b3d82a843b879c227", "bike_id": "f87c7ff7d701158b3d82a843b879c227", "fusion_lat": 0.0, "is_reserved": 0, "lat": 38.92669333333333, "fusion_lon": 0.0, "is_disabled": 0}, {"rental_uris": {"android": "https://dc.lft.to/lastmile_qr_scan", "ios": "https://dc.lft.to/lastmile_qr_scan"}, "type": "electric_scooter", "lon": -77.03178683333333, "name": "52cafd3c0518967ab0f46c757245d672", "bike_id": "52cafd3c0518967ab0f46c757245d672", "fusion_lat": 0.0, "is_reserved": 0, "lat": 38.92971416666666, "fusion_lon": 0.0, "is_disabled": 0}, {"rental_uris": {"android": "https://dc.lft.to/lastmile_qr_scan", "ios": "https://dc.lft.to/lastmile_qr_scan"}, "type": "electric_scooter", "lon": -77.02207483333333, "name": "d75f9e356aa19cb3506e6a26e74f190e", "bike_id": "d75f9e356aa19cb3506e6a26e74f190e", "fusion_lat": 0.0, "is_reserved": 0, "lat": 38.9127245, "fusion_lon": 0.0, "is_disabled": 0}, {"rental_uris": {"android": "https://dc.lft.to/lastmile_qr_scan", "ios": "https://dc.lft.to/lastmile_qr_scan"}, "type": "electric_scooter", "lon": -77.033851, "name": "e3c5f886348b8e9495bfe2a2c5481b10", "bike_id": "e3c5f886348b8e9495bfe2a2c5481b10", "fusion_lat": 0.0, "is_reserved": 0, "lat": 38.919115833333336, "fusion_lon": 0.0, "is_disabled": 0}, {"rental_uris": {"android": "https://dc.lft.to/lastmile_qr_scan", "ios": "https://dc.lft.to/lastmile_qr_scan"}, "type": "electric_scooter", "lon": -77.0178765, "name": "e4169c625ffaeaea49a3c4c721d9a28c", "bike_id": "e4169c625ffaeaea49a3c4c721d9a28c", "fusion_lat": 0.0, "is_reserved": 0, "lat": 38.92112083333333, "fusion_lon": 0.0, "is_disabled": 0}, {"rental_uris": {"android": "https://dc.lft.to/lastmile_qr_scan", "ios": "https://dc.lft.to/lastmile_qr_scan"}, "type": "electric_scooter", "lon": -77.03866583333334, "name": "d096eec5cf3b52212ac5953a5fb7e2cf", "bike_id": "d096eec5cf3b52212ac5953a5fb7e2cf", "fusion_lat": 0.0, "is_reserved": 0, "lat": 38.909689, "fusion_lon": 0.0, "is_disabled": 0}, {"rental_uris": {"android": "https://dc.lft.to/lastmile_qr_scan", "ios": "https://dc.lft.to/lastmile_qr_scan"}, "type": "electric_scooter", "lon": -77.02108866666667, "name": "0e74a1ad2182c91f3c1e515e9ed5e225", "bike_id": "0e74a1ad2182c91f3c1e515e9ed5e225", "fusion_lat": 0.0, "is_reserved": 0, "lat": 38.940968166666664, "fusion_lon": 0.0, "is_disabled": 0}, {"rental_uris": {"android": "https://dc.lft.to/lastmile_qr_scan", "ios": "https://dc.lft.to/lastmile_qr_scan"}, "type": "electric_scooter", "lon": -77.040325, "name": "352cda65630782b6c2fc136d0d9ccd80", "bike_id": "352cda65630782b6c2fc136d0d9ccd80", "fusion_lat": 0.0, "is_reserved": 0, "lat": 38.90601483333333, "fusion_lon": 0.0, "is_disabled": 0}, {"rental_uris": {"android": "https://dc.lft.to/lastmile_qr_scan", "ios": "https://dc.lft.to/lastmile_qr_scan"}, "type": "electric_scooter", "lon": -77.0208905, "name": "0e69b22b0aaa7584d3ecc39612c0700d", "bike_id": "0e69b22b0aaa7584d3ecc39612c0700d", "fusion_lat": 0.0, "is_reserved": 0, "lat": 38.929127, "fusion_lon": 0.0, "is_disabled": 0}, {"rental_uris": {"android": "https://dc.lft.to/lastmile_qr_scan", "ios": "https://dc.lft.to/lastmile_qr_scan"}, "type": "electric_scooter", "lon": -76.99944133333334, "name": "f5ed1800b787309d13762d142c01865e", "bike_id": "f5ed1800b787309d13762d142c01865e", "fusion_lat": 0.0, "is_reserved": 0, "lat": 38.842885, "fusion_lon": 0.0, "is_disabled": 0}, {"rental_uris": {"android": "https://dc.lft.to/lastmile_qr_scan", "ios": "https://dc.lft.to/lastmile_qr_scan"}, "type": "electric_scooter", "lon": -77.065238, "name": "b62783948d68c7287288a3dc8c753797", "bike_id": "b62783948d68c7287288a3dc8c753797", "fusion_lat": 0.0, "is_reserved": 0, "lat": 38.905215, "fusion_lon": 0.0, "is_disabled": 0}, {"rental_uris": {"android": "https://dc.lft.to/lastmile_qr_scan", "ios": "https://dc.lft.to/lastmile_qr_scan"}, "type": "electric_scooter", "lon": -77.02689233333334, "name": "f1d512d43b2e2fb6cc3fa6a87a345ed7", "bike_id": "f1d512d43b2e2fb6cc3fa6a87a345ed7", "fusion_lat": 0.0, "is_reserved": 0, "lat": 38.90842633333333, "fusion_lon": 0.0, "is_disabled": 0}, {"rental_uris": {"android": "https://dc.lft.to/lastmile_qr_scan", "ios": "https://dc.lft.to/lastmile_qr_scan"}, "type": "electric_scooter", "lon": -77.01846866666666, "name": "db7685f2d247de03b3b731ffb062aad5", "bike_id": "db7685f2d247de03b3b731ffb062aad5", "fusion_lat": 0.0, "is_reserved": 0, "lat": 38.8771755, "fusion_lon": 0.0, "is_disabled": 0}, {"rental_uris": {"android": "https://dc.lft.to/lastmile_qr_scan", "ios": "https://dc.lft.to/lastmile_qr_scan"}, "type": "electric_scooter", "lon": -77.018804, "name": "2b1b59cfb3f5eb8be26d6d78e24a7bdf", "bike_id": "2b1b59cfb3f5eb8be26d6d78e24a7bdf", "fusion_lat": 0.0, "is_reserved": 0, "lat": 38.917660166666664, "fusion_lon": 0.0, "is_disabled": 0}, {"rental_uris": {"android": "https://dc.lft.to/lastmile_qr_scan", "ios": "https://dc.lft.to/lastmile_qr_scan"}, "type": "electric_bike", "lon": -77.03984816666667, "name": "8b02469a71b555c4bb253972b29b3772", "bike_id": "8b02469a71b555c4bb253972b29b3772", "fusion_lat": 0.0, "is_reserved": 0, "lat": 38.80298, "fusion_lon": 0.0, "is_disabled": 0}, {"rental_uris": {"android": "https://dc.lft.to/lastmile_qr_scan", "ios": "https://dc.lft.to/lastmile_qr_scan"}, "type": "electric_scooter", "lon": -77.03661283333334, "name": "fb8ecb39051a7b9f5ef0b24bba2eb67a", "bike_id": "fb8ecb39051a7b9f5ef0b24bba2eb67a", "fusion_lat": 0.0, "is_reserved": 0, "lat": 38.922436833333336, "fusion_lon": 0.0, "is_disabled": 0}, {"rental_uris": {"android": "https://dc.lft.to/lastmile_qr_scan", "ios": "https://dc.lft.to/lastmile_qr_scan"}, "type": "electric_scooter", "lon": -77.03314483333334, "name": "be323b0bd1c2285a1721edb29ab4142d", "bike_id": "be323b0bd1c2285a1721edb29ab4142d", "fusion_lat": 0.0, "is_reserved": 0, "lat": 38.892326833333335, "fusion_lon": 0.0, "is_disabled": 0}, {"rental_uris": {"android": "https://dc.lft.to/lastmile_qr_scan", "ios": "https://dc.lft.to/lastmile_qr_scan"}, "type": "electric_scooter", "lon": -77.00358133333333, "name": "8e0dd549b3a36e881649afb4b0dcb788", "bike_id": "8e0dd549b3a36e881649afb4b0dcb788", "fusion_lat": 0.0, "is_reserved": 0, "lat": 38.905990833333334, "fusion_lon": 0.0, "is_disabled": 0}, {"rental_uris": {"android": "https://dc.lft.to/lastmile_qr_scan", "ios": "https://dc.lft.to/lastmile_qr_scan"}, "type": "electric_scooter", "lon": -77.00492533333333, "name": "6fc7231b6e1e585a9dc22fdddd89b5b4", "bike_id": "6fc7231b6e1e585a9dc22fdddd89b5b4", "fusion_lat": 0.0, "is_reserved": 0, "lat": 38.89674333333333, "fusion_lon": 0.0, "is_disabled": 0}, {"rental_uris": {"android": "https://dc.lft.to/lastmile_qr_scan", "ios": "https://dc.lft.to/lastmile_qr_scan"}, "type": "electric_scooter", "lon": -77.03290533333333, "name": "f2e0d37bf0f4ae3ccf397f48f7d9c5c5", "bike_id": "f2e0d37bf0f4ae3ccf397f48f7d9c5c5", "fusion_lat": 0.0, "is_reserved": 0, "lat": 38.956521333333335, "fusion_lon": 0.0, "is_disabled": 0}, {"rental_uris": {"android": "https://dc.lft.to/lastmile_qr_scan", "ios": "https://dc.lft.to/lastmile_qr_scan"}, "type": "electric_scooter", "lon": -77.041232, "name": "ec61738b49a58aaef8b96115a9325054", "bike_id": "ec61738b49a58aaef8b96115a9325054", "fusion_lat": 0.0, "is_reserved": 0, "lat": 38.925241166666666, "fusion_lon": 0.0, "is_disabled": 0}, {"rental_uris": {"android": "https://dc.lft.to/lastmile_qr_scan", "ios": "https://dc.lft.to/lastmile_qr_scan"}, "type": "electric_scooter", "lon": -77.02279316666667, "name": "9d965901004488fd6efd44cd8678cf78", "bike_id": "9d965901004488fd6efd44cd8678cf78", "fusion_lat": 0.0, "is_reserved": 0, "lat": 38.926824333333336, "fusion_lon": 0.0, "is_disabled": 0}, {"rental_uris": {"android": "https://dc.lft.to/lastmile_qr_scan", "ios": "https://dc.lft.to/lastmile_qr_scan"}, "type": "electric_scooter", "lon": -76.99620166666666, "name": "ba87180dd50e50395650017b628cf5b6", "bike_id": "ba87180dd50e50395650017b628cf5b6", "fusion_lat": 0.0, "is_reserved": 0, "lat": 38.880279333333334, "fusion_lon": 0.0, "is_disabled": 0}, {"rental_uris": {"android": "https://dc.lft.to/lastmile_qr_scan", "ios": "https://dc.lft.to/lastmile_qr_scan"}, "type": "electric_scooter", "lon": -76.9909265, "name": "c5c1491828e69134b529ad7b538f360c", "bike_id": "c5c1491828e69134b529ad7b538f360c", "fusion_lat": 0.0, "is_reserved": 0, "lat": 38.92949, "fusion_lon": 0.0, "is_disabled": 0}, {"rental_uris": {"android": "https://dc.lft.to/lastmile_qr_scan", "ios": "https://dc.lft.to/lastmile_qr_scan"}, "type": "electric_scooter", "lon": -77.0179775, "name": "63d912099e96863344c36531324d6df8", "bike_id": "63d912099e96863344c36531324d6df8", "fusion_lat": 0.0, "is_reserved": 0, "lat": 38.9039435, "fusion_lon": 0.0, "is_disabled": 0}, {"rental_uris": {"android": "https://dc.lft.to/lastmile_qr_scan", "ios": "https://dc.lft.to/lastmile_qr_scan"}, "type": "electric_scooter", "lon": -77.03877266666667, "name": "63cfd87d8f703712bbdc8726f6b77e50", "bike_id": "63cfd87d8f703712bbdc8726f6b77e50", "fusion_lat": 0.0, "is_reserved": 0, "lat": 38.9126245, "fusion_lon": 0.0, "is_disabled": 0}, {"rental_uris": {"android": "https://dc.lft.to/lastmile_qr_scan", "ios": "https://dc.lft.to/lastmile_qr_scan"}, "type": "electric_scooter", "lon": -76.9893215, "name": "5be94d98faadaa94d1b22aea0dce17b6", "bike_id": "5be94d98faadaa94d1b22aea0dce17b6", "fusion_lat": 0.0, "is_reserved": 0, "lat": 38.865871166666665, "fusion_lon": 0.0, "is_disabled": 0}, {"rental_uris": {"android": "https://dc.lft.to/lastmile_qr_scan", "ios": "https://dc.lft.to/lastmile_qr_scan"}, "type": "electric_scooter", "lon": -76.99504616666667, "name": "3e7f6b1010eff3f26f4a584380bfbaa6", "bike_id": "3e7f6b1010eff3f26f4a584380bfbaa6", "fusion_lat": 0.0, "is_reserved": 0, "lat": 38.8447115, "fusion_lon": 0.0, "is_disabled": 0}, {"rental_uris": {"android": "https://dc.lft.to/lastmile_qr_scan", "ios": "https://dc.lft.to/lastmile_qr_scan"}, "type": "electric_scooter", "lon": -77.02388616666667, "name": "fbb4e084aa8178268bff6a51a8ca624d", "bike_id": "fbb4e084aa8178268bff6a51a8ca624d", "fusion_lat": 0.0, "is_reserved": 0, "lat": 38.92079233333333, "fusion_lon": 0.0, "is_disabled": 0}, {"rental_uris": {"android": "https://dc.lft.to/lastmile_qr_scan", "ios": "https://dc.lft.to/lastmile_qr_scan"}, "type": "electric_scooter", "lon": -77.00607783333334, "name": "24c627069ddc45dcc21c72d4b79f9593", "bike_id": "24c627069ddc45dcc21c72d4b79f9593", "fusion_lat": 0.0, "is_reserved": 0, "lat": 38.90558166666667, "fusion_lon": 0.0, "is_disabled": 0}, {"rental_uris": {"android": "https://dc.lft.to/lastmile_qr_scan", "ios": "https://dc.lft.to/lastmile_qr_scan"}, "type": "electric_scooter", "lon": -77.025887, "name": "5ec73bad28b831086ff09049085bede2", "bike_id": "5ec73bad28b831086ff09049085bede2", "fusion_lat": 0.0, "is_reserved": 0, "lat": 38.9084015, "fusion_lon": 0.0, "is_disabled": 0}, {"rental_uris": {"android": "https://dc.lft.to/lastmile_qr_scan", "ios": "https://dc.lft.to/lastmile_qr_scan"}, "type": "electric_scooter", "lon": -77.02053566666666, "name": "806a10af48ada50fe03541689259f34e", "bike_id": "806a10af48ada50fe03541689259f34e", "fusion_lat": 0.0, "is_reserved": 0, "lat": 38.95871433333333, "fusion_lon": 0.0, "is_disabled": 0}, {"rental_uris": {"android": "https://dc.lft.to/lastmile_qr_scan", "ios": "https://dc.lft.to/lastmile_qr_scan"}, "type": "electric_scooter", "lon": -77.0304145, "name": "306199cd9cd124815ec176390df13eed", "bike_id": "306199cd9cd124815ec176390df13eed", "fusion_lat": 0.0, "is_reserved": 0, "lat": 38.93976816666667, "fusion_lon": 0.0, "is_disabled": 0}, {"rental_uris": {"android": "https://dc.lft.to/lastmile_qr_scan", "ios": "https://dc.lft.to/lastmile_qr_scan"}, "type": "electric_scooter", "lon": -77.01860433333333, "name": "3af7dc149432be0837a8d06049bd6968", "bike_id": "3af7dc149432be0837a8d06049bd6968", "fusion_lat": 0.0, "is_reserved": 0, "lat": 38.919704333333335, "fusion_lon": 0.0, "is_disabled": 0}, {"rental_uris": {"android": "https://dc.lft.to/lastmile_qr_scan", "ios": "https://dc.lft.to/lastmile_qr_scan"}, "type": "electric_scooter", "lon": -77.03835866666667, "name": "394d1c4834ede6bf3b8e161d93cb58d3", "bike_id": "394d1c4834ede6bf3b8e161d93cb58d3", "fusion_lat": 0.0, "is_reserved": 0, "lat": 38.915601, "fusion_lon": 0.0, "is_disabled": 0}, {"rental_uris": {"android": "https://dc.lft.to/lastmile_qr_scan", "ios": "https://dc.lft.to/lastmile_qr_scan"}, "type": "electric_scooter", "lon": -77.067619, "name": "2b1ff5f88146be4387a813cd7fb11e22", "bike_id": "2b1ff5f88146be4387a813cd7fb11e22", "fusion_lat": 0.0, "is_reserved": 0, "lat": 38.949708666666666, "fusion_lon": 0.0, "is_disabled": 0}, {"rental_uris": {"android": "https://dc.lft.to/lastmile_qr_scan", "ios": "https://dc.lft.to/lastmile_qr_scan"}, "type": "electric_bike", "lon": -77.027805, "name": "dd444d7f4c7c7a15bc0fe50090d5a979", "bike_id": "dd444d7f4c7c7a15bc0fe50090d5a979", "fusion_lat": 0.0, "is_reserved": 0, "lat": 38.9652805, "fusion_lon": 0.0, "is_disabled": 0}, {"rental_uris": {"android": "https://dc.lft.to/lastmile_qr_scan", "ios": "https://dc.lft.to/lastmile_qr_scan"}, "type": "electric_bike", "lon": -76.97216116666667, "name": "6631fddec20633e0198619d902278113", "bike_id": "6631fddec20633e0198619d902278113", "fusion_lat": 0.0, "is_reserved": 0, "lat": 38.8448265, "fusion_lon": 0.0, "is_disabled": 0}, {"rental_uris": {"android": "https://dc.lft.to/lastmile_qr_scan", "ios": "https://dc.lft.to/lastmile_qr_scan"}, "type": "electric_scooter", "lon": -77.04152916666666, "name": "c003636102e9f4bd8ad356ffac0a144a", "bike_id": "c003636102e9f4bd8ad356ffac0a144a", "fusion_lat": 0.0, "is_reserved": 0, "lat": 38.91419483333333, "fusion_lon": 0.0, "is_disabled": 0}, {"rental_uris": {"android": "https://dc.lft.to/lastmile_qr_scan", "ios": "https://dc.lft.to/lastmile_qr_scan"}, "type": "electric_scooter", "lon": -77.04537116666667, "name": "27e54b8ccc88a2197b101b879727e093", "bike_id": "27e54b8ccc88a2197b101b879727e093", "fusion_lat": 0.0, "is_reserved": 0, "lat": 38.92049133333333, "fusion_lon": 0.0, "is_disabled": 0}, {"rental_uris": {"android": "https://dc.lft.to/lastmile_qr_scan", "ios": "https://dc.lft.to/lastmile_qr_scan"}, "type": "electric_scooter", "lon": -77.0175475, "name": "410de6cc7f6e2ce20a83935e3ff7d1ca", "bike_id": "410de6cc7f6e2ce20a83935e3ff7d1ca", "fusion_lat": 0.0, "is_reserved": 0, "lat": 38.9210865, "fusion_lon": 0.0, "is_disabled": 0}, {"rental_uris": {"android": "https://dc.lft.to/lastmile_qr_scan", "ios": "https://dc.lft.to/lastmile_qr_scan"}, "type": "electric_scooter", "lon": -77.03504633333333, "name": "2c686e63c302da349a9d65667a5a5e7e", "bike_id": "2c686e63c302da349a9d65667a5a5e7e", "fusion_lat": 0.0, "is_reserved": 0, "lat": 38.92143016666667, "fusion_lon": 0.0, "is_disabled": 0}, {"rental_uris": {"android": "https://dc.lft.to/lastmile_qr_scan", "ios": "https://dc.lft.to/lastmile_qr_scan"}, "type": "electric_scooter", "lon": -77.03204216666667, "name": "62afcfe28e0e46217dc1663009377717", "bike_id": "62afcfe28e0e46217dc1663009377717", "fusion_lat": 0.0, "is_reserved": 0, "lat": 38.93967416666667, "fusion_lon": 0.0, "is_disabled": 0}, {"rental_uris": {"android": "https://dc.lft.to/lastmile_qr_scan", "ios": "https://dc.lft.to/lastmile_qr_scan"}, "type": "electric_scooter", "lon": -77.02358366666667, "name": "f68fb603daa7dab3aca3cd3ffad761b8", "bike_id": "f68fb603daa7dab3aca3cd3ffad761b8", "fusion_lat": 0.0, "is_reserved": 0, "lat": 38.89220816666667, "fusion_lon": 0.0, "is_disabled": 0}, {"rental_uris": {"android": "https://dc.lft.to/lastmile_qr_scan", "ios": "https://dc.lft.to/lastmile_qr_scan"}, "type": "electric_scooter", "lon": -77.027713, "name": "7d9fb0d51d87e6ce6f460728a3953df3", "bike_id": "7d9fb0d51d87e6ce6f460728a3953df3", "fusion_lat": 0.0, "is_reserved": 0, "lat": 38.92679066666667, "fusion_lon": 0.0, "is_disabled": 0}, {"rental_uris": {"android": "https://dc.lft.to/lastmile_qr_scan", "ios": "https://dc.lft.to/lastmile_qr_scan"}, "type": "electric_bike", "lon": -77.0790285, "name": "185f9a2552d3fcd9b87f940b36756a68", "bike_id": "185f9a2552d3fcd9b87f940b36756a68", "fusion_lat": 0.0, "is_reserved": 0, "lat": 38.8393715, "fusion_lon": 0.0, "is_disabled": 0}, {"rental_uris": {"android": "https://dc.lft.to/lastmile_qr_scan", "ios": "https://dc.lft.to/lastmile_qr_scan"}, "type": "electric_bike", "lon": -76.944691, "name": "33d2622ed6827ee654cc4714871af331", "bike_id": "33d2622ed6827ee654cc4714871af331", "fusion_lat": 0.0, "is_reserved": 0, "lat": 38.94557666666667, "fusion_lon": 0.0, "is_disabled": 0}, {"rental_uris": {"android": "https://dc.lft.to/lastmile_qr_scan", "ios": "https://dc.lft.to/lastmile_qr_scan"}, "type": "electric_scooter", "lon": -77.0281855, "name": "271ed240695214e5d936ae2904cc3661", "bike_id": "271ed240695214e5d936ae2904cc3661", "fusion_lat": 0.0, "is_reserved": 0, "lat": 38.9155475, "fusion_lon": 0.0, "is_disabled": 0}, {"rental_uris": {"android": "https://dc.lft.to/lastmile_qr_scan", "ios": "https://dc.lft.to/lastmile_qr_scan"}, "type": "electric_scooter", "lon": -76.98360816666667, "name": "e3d74e608abbf58023f0732532a5cb0f", "bike_id": "e3d74e608abbf58023f0732532a5cb0f", "fusion_lat": 0.0, "is_reserved": 0, "lat": 38.86103466666667, "fusion_lon": 0.0, "is_disabled": 0}, {"rental_uris": {"android": "https://dc.lft.to/lastmile_qr_scan", "ios": "https://dc.lft.to/lastmile_qr_scan"}, "type": "electric_bike", "lon": -77.05089716666667, "name": "55f6a7ecc2746b3621a3242ca47d6461", "bike_id": "55f6a7ecc2746b3621a3242ca47d6461", "fusion_lat": 0.0, "is_reserved": 0, "lat": 38.81326966666666, "fusion_lon": 0.0, "is_disabled": 0}, {"rental_uris": {"android": "https://dc.lft.to/lastmile_qr_scan", "ios": "https://dc.lft.to/lastmile_qr_scan"}, "type": "electric_scooter", "lon": -77.04483783333333, "name": "6a56caac016d75c1093170f75062abae", "bike_id": "6a56caac016d75c1093170f75062abae", "fusion_lat": 0.0, "is_reserved": 0, "lat": 38.903483666666666, "fusion_lon": 0.0, "is_disabled": 0}, {"rental_uris": {"android": "https://dc.lft.to/lastmile_qr_scan", "ios": "https://dc.lft.to/lastmile_qr_scan"}, "type": "electric_scooter", "lon": -76.97906583333334, "name": "298aa9e34f3a1ac32c36b348e3bdcf57", "bike_id": "298aa9e34f3a1ac32c36b348e3bdcf57", "fusion_lat": 0.0, "is_reserved": 0, "lat": 38.894375833333335, "fusion_lon": 0.0, "is_disabled": 0}, {"rental_uris": {"android": "https://dc.lft.to/lastmile_qr_scan", "ios": "https://dc.lft.to/lastmile_qr_scan"}, "type": "electric_scooter", "lon": -76.97712366666667, "name": "a199cfbcec43715c69b7d8b662d97c20", "bike_id": "a199cfbcec43715c69b7d8b662d97c20", "fusion_lat": 0.0, "is_reserved": 0, "lat": 38.90024833333333, "fusion_lon": 0.0, "is_disabled": 0}, {"rental_uris": {"android": "https://dc.lft.to/lastmile_qr_scan", "ios": "https://dc.lft.to/lastmile_qr_scan"}, "type": "electric_scooter", "lon": -76.98532933333334, "name": "7168b2a66efa2ceb6f48e8caf0b13d52", "bike_id": "7168b2a66efa2ceb6f48e8caf0b13d52", "fusion_lat": 0.0, "is_reserved": 0, "lat": 38.85852366666667, "fusion_lon": 0.0, "is_disabled": 0}, {"rental_uris": {"android": "https://dc.lft.to/lastmile_qr_scan", "ios": "https://dc.lft.to/lastmile_qr_scan"}, "type": "electric_scooter", "lon": -77.02654216666667, "name": "98587799d1cebe68cc9643933664433c", "bike_id": "98587799d1cebe68cc9643933664433c", "fusion_lat": 0.0, "is_reserved": 0, "lat": 38.90255066666667, "fusion_lon": 0.0, "is_disabled": 0}, {"rental_uris": {"android": "https://dc.lft.to/lastmile_qr_scan", "ios": "https://dc.lft.to/lastmile_qr_scan"}, "type": "electric_scooter", "lon": -77.00192866666667, "name": "fce50cffda05466cdf0cd389025fddd4", "bike_id": "fce50cffda05466cdf0cd389025fddd4", "fusion_lat": 0.0, "is_reserved": 0, "lat": 38.87832066666667, "fusion_lon": 0.0, "is_disabled": 0}, {"rental_uris": {"android": "https://dc.lft.to/lastmile_qr_scan", "ios": "https://dc.lft.to/lastmile_qr_scan"}, "type": "electric_scooter", "lon": -77.02121616666666, "name": "7d1698d183492a4a150b31250a2e23f9", "bike_id": "7d1698d183492a4a150b31250a2e23f9", "fusion_lat": 0.0, "is_reserved": 0, "lat": 38.894499, "fusion_lon": 0.0, "is_disabled": 0}, {"rental_uris": {"android": "https://dc.lft.to/lastmile_qr_scan", "ios": "https://dc.lft.to/lastmile_qr_scan"}, "type": "electric_scooter", "lon": -77.0140005, "name": "444fac6971fdd59015d2866bdf2f638e", "bike_id": "444fac6971fdd59015d2866bdf2f638e", "fusion_lat": 0.0, "is_reserved": 0, "lat": 38.8802925, "fusion_lon": 0.0, "is_disabled": 0}, {"rental_uris": {"android": "https://dc.lft.to/lastmile_qr_scan", "ios": "https://dc.lft.to/lastmile_qr_scan"}, "type": "electric_bike", "lon": -77.10680866666667, "name": "cd701db2f66b37756e60ea2d3e0293b6", "bike_id": "cd701db2f66b37756e60ea2d3e0293b6", "fusion_lat": 0.0, "is_reserved": 0, "lat": 38.93582633333333, "fusion_lon": 0.0, "is_disabled": 0}, {"rental_uris": {"android": "https://dc.lft.to/lastmile_qr_scan", "ios": "https://dc.lft.to/lastmile_qr_scan"}, "type": "electric_scooter", "lon": -77.0421745, "name": "c6817139dc3e3a8e548b665b8602199c", "bike_id": "c6817139dc3e3a8e548b665b8602199c", "fusion_lat": 0.0, "is_reserved": 0, "lat": 38.917001, "fusion_lon": 0.0, "is_disabled": 0}, {"rental_uris": {"android": "https://dc.lft.to/lastmile_qr_scan", "ios": "https://dc.lft.to/lastmile_qr_scan"}, "type": "electric_scooter", "lon": -77.071052, "name": "83c2f635c7023a759ba1498ed76cbb2b", "bike_id": "83c2f635c7023a759ba1498ed76cbb2b", "fusion_lat": 0.0, "is_reserved": 0, "lat": 38.91414066666667, "fusion_lon": 0.0, "is_disabled": 0}, {"rental_uris": {"android": "https://dc.lft.to/lastmile_qr_scan", "ios": "https://dc.lft.to/lastmile_qr_scan"}, "type": "electric_scooter", "lon": -77.04484066666667, "name": "c531b456973e4774d56d7e7cb323db81", "bike_id": "c531b456973e4774d56d7e7cb323db81", "fusion_lat": 0.0, "is_reserved": 0, "lat": 38.89648833333333, "fusion_lon": 0.0, "is_disabled": 0}, {"rental_uris": {"android": "https://dc.lft.to/lastmile_qr_scan", "ios": "https://dc.lft.to/lastmile_qr_scan"}, "type": "electric_scooter", "lon": -77.04874, "name": "f56a522436e79a3266d4067227892162", "bike_id": "f56a522436e79a3266d4067227892162", "fusion_lat": 0.0, "is_reserved": 0, "lat": 38.8929345, "fusion_lon": 0.0, "is_disabled": 0}, {"rental_uris": {"android": "https://dc.lft.to/lastmile_qr_scan", "ios": "https://dc.lft.to/lastmile_qr_scan"}, "type": "electric_scooter", "lon": -77.024088, "name": "3fdf688bacf7919b9256b3182745329b", "bike_id": "3fdf688bacf7919b9256b3182745329b", "fusion_lat": 0.0, "is_reserved": 0, "lat": 38.901927666666666, "fusion_lon": 0.0, "is_disabled": 0}, {"rental_uris": {"android": "https://dc.lft.to/lastmile_qr_scan", "ios": "https://dc.lft.to/lastmile_qr_scan"}, "type": "electric_scooter", "lon": -77.04861983333333, "name": "74746ef4d63e3d4cbc7733e82b2cb4b9", "bike_id": "74746ef4d63e3d4cbc7733e82b2cb4b9", "fusion_lat": 0.0, "is_reserved": 0, "lat": 38.9036445, "fusion_lon": 0.0, "is_disabled": 0}, {"rental_uris": {"android": "https://dc.lft.to/lastmile_qr_scan", "ios": "https://dc.lft.to/lastmile_qr_scan"}, "type": "electric_scooter", "lon": -77.0646235, "name": "090f0093d2e98cd3ce81c51bdb2fcf3d", "bike_id": "090f0093d2e98cd3ce81c51bdb2fcf3d", "fusion_lat": 0.0, "is_reserved": 0, "lat": 38.909786833333335, "fusion_lon": 0.0, "is_disabled": 0}, {"rental_uris": {"android": "https://dc.lft.to/lastmile_qr_scan", "ios": "https://dc.lft.to/lastmile_qr_scan"}, "type": "electric_scooter", "lon": -76.990953, "name": "8ff83eb873a72c927b78bda8e804efaf", "bike_id": "8ff83eb873a72c927b78bda8e804efaf", "fusion_lat": 0.0, "is_reserved": 0, "lat": 38.86356, "fusion_lon": 0.0, "is_disabled": 0}, {"rental_uris": {"android": "https://dc.lft.to/lastmile_qr_scan", "ios": "https://dc.lft.to/lastmile_qr_scan"}, "type": "electric_scooter", "lon": -77.027001, "name": "1aa2b419a3959157186bf6888210a0e7", "bike_id": "1aa2b419a3959157186bf6888210a0e7", "fusion_lat": 0.0, "is_reserved": 0, "lat": 38.939808, "fusion_lon": 0.0, "is_disabled": 0}, {"rental_uris": {"android": "https://dc.lft.to/lastmile_qr_scan", "ios": "https://dc.lft.to/lastmile_qr_scan"}, "type": "electric_scooter", "lon": -77.02756933333333, "name": "30e1afafe69ebe53d3a44909309c4bce", "bike_id": "30e1afafe69ebe53d3a44909309c4bce", "fusion_lat": 0.0, "is_reserved": 0, "lat": 38.9539565, "fusion_lon": 0.0, "is_disabled": 0}, {"rental_uris": {"android": "https://dc.lft.to/lastmile_qr_scan", "ios": "https://dc.lft.to/lastmile_qr_scan"}, "type": "electric_bike", "lon": -76.95201933333334, "name": "6641c601a37daca6d2b89386994d2272", "bike_id": "6641c601a37daca6d2b89386994d2272", "fusion_lat": 0.0, "is_reserved": 0, "lat": 38.936648166666664, "fusion_lon": 0.0, "is_disabled": 0}, {"rental_uris": {"android": "https://dc.lft.to/lastmile_qr_scan", "ios": "https://dc.lft.to/lastmile_qr_scan"}, "type": "electric_scooter", "lon": -77.02350566666667, "name": "4196e9c56e946f9a156fd4e795ad5788", "bike_id": "4196e9c56e946f9a156fd4e795ad5788", "fusion_lat": 0.0, "is_reserved": 0, "lat": 38.922651, "fusion_lon": 0.0, "is_disabled": 0}, {"rental_uris": {"android": "https://dc.lft.to/lastmile_qr_scan", "ios": "https://dc.lft.to/lastmile_qr_scan"}, "type": "electric_scooter", "lon": -77.02297616666667, "name": "6a32eebd77ebd733c78b2a0d7e949ae8", "bike_id": "6a32eebd77ebd733c78b2a0d7e949ae8", "fusion_lat": 0.0, "is_reserved": 0, "lat": 38.91610633333333, "fusion_lon": 0.0, "is_disabled": 0}, {"rental_uris": {"android": "https://dc.lft.to/lastmile_qr_scan", "ios": "https://dc.lft.to/lastmile_qr_scan"}, "type": "electric_scooter", "lon": -76.987257, "name": "57d77f57d5d89e08d313d6a439374830", "bike_id": "57d77f57d5d89e08d313d6a439374830", "fusion_lat": 0.0, "is_reserved": 0, "lat": 38.867104, "fusion_lon": 0.0, "is_disabled": 0}, {"rental_uris": {"android": "https://dc.lft.to/lastmile_qr_scan", "ios": "https://dc.lft.to/lastmile_qr_scan"}, "type": "electric_scooter", "lon": -77.092131, "name": "8ae2259b87a4ec955501934df3456582", "bike_id": "8ae2259b87a4ec955501934df3456582", "fusion_lat": 0.0, "is_reserved": 0, "lat": 38.91712, "fusion_lon": 0.0, "is_disabled": 0}, {"rental_uris": {"android": "https://dc.lft.to/lastmile_qr_scan", "ios": "https://dc.lft.to/lastmile_qr_scan"}, "type": "electric_scooter", "lon": -77.02589683333333, "name": "0b258b86566af301dbaef9bdc854bcc4", "bike_id": "0b258b86566af301dbaef9bdc854bcc4", "fusion_lat": 0.0, "is_reserved": 0, "lat": 38.904800333333334, "fusion_lon": 0.0, "is_disabled": 0}, {"rental_uris": {"android": "https://dc.lft.to/lastmile_qr_scan", "ios": "https://dc.lft.to/lastmile_qr_scan"}, "type": "electric_scooter", "lon": -77.0275855, "name": "098923fa8487abe961136ab576c37827", "bike_id": "098923fa8487abe961136ab576c37827", "fusion_lat": 0.0, "is_reserved": 0, "lat": 38.9238485, "fusion_lon": 0.0, "is_disabled": 0}, {"rental_uris": {"android": "https://dc.lft.to/lastmile_qr_scan", "ios": "https://dc.lft.to/lastmile_qr_scan"}, "type": "electric_scooter", "lon": -77.049807, "name": "1d3a64edd61337c2481c71475d097eb2", "bike_id": "1d3a64edd61337c2481c71475d097eb2", "fusion_lat": 0.0, "is_reserved": 0, "lat": 38.90086766666667, "fusion_lon": 0.0, "is_disabled": 0}, {"rental_uris": {"android": "https://dc.lft.to/lastmile_qr_scan", "ios": "https://dc.lft.to/lastmile_qr_scan"}, "type": "electric_bike", "lon": -77.02427283333333, "name": "9ac6e94d0b14f9051071494e36b59e6d", "bike_id": "9ac6e94d0b14f9051071494e36b59e6d", "fusion_lat": 0.0, "is_reserved": 0, "lat": 38.92598266666667, "fusion_lon": 0.0, "is_disabled": 0}, {"rental_uris": {"android": "https://dc.lft.to/lastmile_qr_scan", "ios": "https://dc.lft.to/lastmile_qr_scan"}, "type": "electric_scooter", "lon": -77.0044855, "name": "12652654c2a20fdc766c921be0bd9a6f", "bike_id": "12652654c2a20fdc766c921be0bd9a6f", "fusion_lat": 0.0, "is_reserved": 0, "lat": 38.9289485, "fusion_lon": 0.0, "is_disabled": 0}, {"rental_uris": {"android": "https://dc.lft.to/lastmile_qr_scan", "ios": "https://dc.lft.to/lastmile_qr_scan"}, "type": "electric_scooter", "lon": -77.02239466666667, "name": "7adf071378d648ab35f91fa030424946", "bike_id": "7adf071378d648ab35f91fa030424946", "fusion_lat": 0.0, "is_reserved": 0, "lat": 38.9135465, "fusion_lon": 0.0, "is_disabled": 0}, {"rental_uris": {"android": "https://dc.lft.to/lastmile_qr_scan", "ios": "https://dc.lft.to/lastmile_qr_scan"}, "type": "electric_scooter", "lon": -77.04699766666667, "name": "21f618e277ce9d57fcbf7ca27aae850f", "bike_id": "21f618e277ce9d57fcbf7ca27aae850f", "fusion_lat": 0.0, "is_reserved": 0, "lat": 38.91265116666667, "fusion_lon": 0.0, "is_disabled": 0}, {"rental_uris": {"android": "https://dc.lft.to/lastmile_qr_scan", "ios": "https://dc.lft.to/lastmile_qr_scan"}, "type": "electric_scooter", "lon": -77.027889, "name": "509437a6451da4455626a312eb02a98b", "bike_id": "509437a6451da4455626a312eb02a98b", "fusion_lat": 0.0, "is_reserved": 0, "lat": 38.9613985, "fusion_lon": 0.0, "is_disabled": 0}, {"rental_uris": {"android": "https://dc.lft.to/lastmile_qr_scan", "ios": "https://dc.lft.to/lastmile_qr_scan"}, "type": "electric_scooter", "lon": -77.03952733333334, "name": "28b751ee0e7de6ddc42f40d96ff33a5b", "bike_id": "28b751ee0e7de6ddc42f40d96ff33a5b", "fusion_lat": 0.0, "is_reserved": 0, "lat": 38.904393, "fusion_lon": 0.0, "is_disabled": 0}, {"rental_uris": {"android": "https://dc.lft.to/lastmile_qr_scan", "ios": "https://dc.lft.to/lastmile_qr_scan"}, "type": "electric_scooter", "lon": -77.0464035, "name": "1a296c4efb3d9b768cbda8a0f3c0f4b5", "bike_id": "1a296c4efb3d9b768cbda8a0f3c0f4b5", "fusion_lat": 0.0, "is_reserved": 0, "lat": 38.9049135, "fusion_lon": 0.0, "is_disabled": 0}, {"rental_uris": {"android": "https://dc.lft.to/lastmile_qr_scan", "ios": "https://dc.lft.to/lastmile_qr_scan"}, "type": "electric_scooter", "lon": -77.033816, "name": "3acf5acc6afd7d2eade6f46917137933", "bike_id": "3acf5acc6afd7d2eade6f46917137933", "fusion_lat": 0.0, "is_reserved": 0, "lat": 38.921576333333334, "fusion_lon": 0.0, "is_disabled": 0}, {"rental_uris": {"android": "https://dc.lft.to/lastmile_qr_scan", "ios": "https://dc.lft.to/lastmile_qr_scan"}, "type": "electric_scooter", "lon": -77.03291566666667, "name": "51bbe09804386fd11b6fd2912aeeefbc", "bike_id": "51bbe09804386fd11b6fd2912aeeefbc", "fusion_lat": 0.0, "is_reserved": 0, "lat": 38.939860333333336, "fusion_lon": 0.0, "is_disabled": 0}, {"rental_uris": {"android": "https://dc.lft.to/lastmile_qr_scan", "ios": "https://dc.lft.to/lastmile_qr_scan"}, "type": "electric_scooter", "lon": -77.0273105, "name": "f5a7d534edcf554ef8fa29c71dd2c1f0", "bike_id": "f5a7d534edcf554ef8fa29c71dd2c1f0", "fusion_lat": 0.0, "is_reserved": 0, "lat": 38.934008, "fusion_lon": 0.0, "is_disabled": 0}, {"rental_uris": {"android": "https://dc.lft.to/lastmile_qr_scan", "ios": "https://dc.lft.to/lastmile_qr_scan"}, "type": "electric_scooter", "lon": -77.03201683333333, "name": "5efd6110584f50c0578c870e0a70823a", "bike_id": "5efd6110584f50c0578c870e0a70823a", "fusion_lat": 0.0, "is_reserved": 0, "lat": 38.909148, "fusion_lon": 0.0, "is_disabled": 0}, {"rental_uris": {"android": "https://dc.lft.to/lastmile_qr_scan", "ios": "https://dc.lft.to/lastmile_qr_scan"}, "type": "electric_scooter", "lon": -77.0561305, "name": "e155768ff1de86cc6288834ae0a36a5d", "bike_id": "e155768ff1de86cc6288834ae0a36a5d", "fusion_lat": 0.0, "is_reserved": 0, "lat": 38.92425166666666, "fusion_lon": 0.0, "is_disabled": 0}, {"rental_uris": {"android": "https://dc.lft.to/lastmile_qr_scan", "ios": "https://dc.lft.to/lastmile_qr_scan"}, "type": "electric_scooter", "lon": -77.02419433333333, "name": "626169045e2fef78985135a937cf61fa", "bike_id": "626169045e2fef78985135a937cf61fa", "fusion_lat": 0.0, "is_reserved": 0, "lat": 38.92755966666667, "fusion_lon": 0.0, "is_disabled": 0}, {"rental_uris": {"android": "https://dc.lft.to/lastmile_qr_scan", "ios": "https://dc.lft.to/lastmile_qr_scan"}, "type": "electric_scooter", "lon": -76.99458183333333, "name": "fc4f2602009e40306d572e4862dc4efd", "bike_id": "fc4f2602009e40306d572e4862dc4efd", "fusion_lat": 0.0, "is_reserved": 0, "lat": 38.9228025, "fusion_lon": 0.0, "is_disabled": 0}, {"rental_uris": {"android": "https://dc.lft.to/lastmile_qr_scan", "ios": "https://dc.lft.to/lastmile_qr_scan"}, "type": "electric_scooter", "lon": -77.04884016666666, "name": "a5f2c4097e41ea577c8cd8530c2d199d", "bike_id": "a5f2c4097e41ea577c8cd8530c2d199d", "fusion_lat": 0.0, "is_reserved": 0, "lat": 38.90299916666667, "fusion_lon": 0.0, "is_disabled": 0}, {"rental_uris": {"android": "https://dc.lft.to/lastmile_qr_scan", "ios": "https://dc.lft.to/lastmile_qr_scan"}, "type": "electric_scooter", "lon": -77.03926583333333, "name": "ccc642e259bc0d9ded05c8b7d22c22cd", "bike_id": "ccc642e259bc0d9ded05c8b7d22c22cd", "fusion_lat": 0.0, "is_reserved": 0, "lat": 38.90830033333334, "fusion_lon": 0.0, "is_disabled": 0}, {"rental_uris": {"android": "https://dc.lft.to/lastmile_qr_scan", "ios": "https://dc.lft.to/lastmile_qr_scan"}, "type": "electric_scooter", "lon": -77.013595, "name": "0ee0327fb829fa2686d9979c2ba26ce2", "bike_id": "0ee0327fb829fa2686d9979c2ba26ce2", "fusion_lat": 0.0, "is_reserved": 0, "lat": 38.919235666666665, "fusion_lon": 0.0, "is_disabled": 0}, {"rental_uris": {"android": "https://dc.lft.to/lastmile_qr_scan", "ios": "https://dc.lft.to/lastmile_qr_scan"}, "type": "electric_bike", "lon": -76.99493066666666, "name": "2f776f1365133d16676ffc0f2a433090", "bike_id": "2f776f1365133d16676ffc0f2a433090", "fusion_lat": 0.0, "is_reserved": 0, "lat": 38.902671833333336, "fusion_lon": 0.0, "is_disabled": 0}, {"rental_uris": {"android": "https://dc.lft.to/lastmile_qr_scan", "ios": "https://dc.lft.to/lastmile_qr_scan"}, "type": "electric_bike", "lon": -76.94614266666666, "name": "dd19aebf4c3a6a2ef4a8c97d3a1cd9f3", "bike_id": "dd19aebf4c3a6a2ef4a8c97d3a1cd9f3", "fusion_lat": 0.0, "is_reserved": 0, "lat": 38.83240216666667, "fusion_lon": 0.0, "is_disabled": 0}, {"rental_uris": {"android": "https://dc.lft.to/lastmile_qr_scan", "ios": "https://dc.lft.to/lastmile_qr_scan"}, "type": "electric_scooter", "lon": -77.0529685, "name": "92b7ac2b5d066b03b168876a5af416a6", "bike_id": "92b7ac2b5d066b03b168876a5af416a6", "fusion_lat": 0.0, "is_reserved": 0, "lat": 38.906751, "fusion_lon": 0.0, "is_disabled": 0}, {"rental_uris": {"android": "https://dc.lft.to/lastmile_qr_scan", "ios": "https://dc.lft.to/lastmile_qr_scan"}, "type": "electric_scooter", "lon": -77.02719966666666, "name": "fe5c809e83acd4ee03a05b85b4b93b13", "bike_id": "fe5c809e83acd4ee03a05b85b4b93b13", "fusion_lat": 0.0, "is_reserved": 0, "lat": 38.951313999999996, "fusion_lon": 0.0, "is_disabled": 0}, {"rental_uris": {"android": "https://dc.lft.to/lastmile_qr_scan", "ios": "https://dc.lft.to/lastmile_qr_scan"}, "type": "electric_scooter", "lon": -77.037905, "name": "0d5fc67b68e77063b5836dca68929bcc", "bike_id": "0d5fc67b68e77063b5836dca68929bcc", "fusion_lat": 0.0, "is_reserved": 0, "lat": 38.9331595, "fusion_lon": 0.0, "is_disabled": 0}, {"rental_uris": {"android": "https://dc.lft.to/lastmile_qr_scan", "ios": "https://dc.lft.to/lastmile_qr_scan"}, "type": "electric_scooter", "lon": -77.02576983333333, "name": "3623d9ec0ce64114361dec3301e1a3d0", "bike_id": "3623d9ec0ce64114361dec3301e1a3d0", "fusion_lat": 0.0, "is_reserved": 0, "lat": 38.92508266666667, "fusion_lon": 0.0, "is_disabled": 0}, {"rental_uris": {"android": "https://dc.lft.to/lastmile_qr_scan", "ios": "https://dc.lft.to/lastmile_qr_scan"}, "type": "electric_scooter", "lon": -77.032629, "name": "8dc28ea500d6397ad307cd98a886dc1f", "bike_id": "8dc28ea500d6397ad307cd98a886dc1f", "fusion_lat": 0.0, "is_reserved": 0, "lat": 38.92836466666667, "fusion_lon": 0.0, "is_disabled": 0}, {"rental_uris": {"android": "https://dc.lft.to/lastmile_qr_scan", "ios": "https://dc.lft.to/lastmile_qr_scan"}, "type": "electric_scooter", "lon": -76.987646, "name": "970fd263e32aab0889f115bcb65157d2", "bike_id": "970fd263e32aab0889f115bcb65157d2", "fusion_lat": 0.0, "is_reserved": 0, "lat": 38.883152833333334, "fusion_lon": 0.0, "is_disabled": 0}, {"rental_uris": {"android": "https://dc.lft.to/lastmile_qr_scan", "ios": "https://dc.lft.to/lastmile_qr_scan"}, "type": "electric_bike", "lon": -77.05112516666667, "name": "be56028f31c1cbde43aba7834af8326c", "bike_id": "be56028f31c1cbde43aba7834af8326c", "fusion_lat": 0.0, "is_reserved": 0, "lat": 38.945631, "fusion_lon": 0.0, "is_disabled": 0}, {"rental_uris": {"android": "https://dc.lft.to/lastmile_qr_scan", "ios": "https://dc.lft.to/lastmile_qr_scan"}, "type": "electric_scooter", "lon": -77.05011566666667, "name": "8e7e02eb47b6fa0542a36b1e99eb4023", "bike_id": "8e7e02eb47b6fa0542a36b1e99eb4023", "fusion_lat": 0.0, "is_reserved": 0, "lat": 38.9076475, "fusion_lon": 0.0, "is_disabled": 0}, {"rental_uris": {"android": "https://dc.lft.to/lastmile_qr_scan", "ios": "https://dc.lft.to/lastmile_qr_scan"}, "type": "electric_scooter", "lon": -77.03877583333333, "name": "ffc0d0682690dc9dd1e915feae468ca8", "bike_id": "ffc0d0682690dc9dd1e915feae468ca8", "fusion_lat": 0.0, "is_reserved": 0, "lat": 38.93425933333333, "fusion_lon": 0.0, "is_disabled": 0}, {"rental_uris": {"android": "https://dc.lft.to/lastmile_qr_scan", "ios": "https://dc.lft.to/lastmile_qr_scan"}, "type": "electric_scooter", "lon": -77.026632, "name": "4ee7d1a4ce17977c0253d1174845c5a1", "bike_id": "4ee7d1a4ce17977c0253d1174845c5a1", "fusion_lat": 0.0, "is_reserved": 0, "lat": 38.90239416666667, "fusion_lon": 0.0, "is_disabled": 0}, {"rental_uris": {"android": "https://dc.lft.to/lastmile_qr_scan", "ios": "https://dc.lft.to/lastmile_qr_scan"}, "type": "electric_bike", "lon": -77.10724066666667, "name": "b3f1fb50e2b3815aacdcbf96032ddf6e", "bike_id": "b3f1fb50e2b3815aacdcbf96032ddf6e", "fusion_lat": 0.0, "is_reserved": 0, "lat": 38.8554895, "fusion_lon": 0.0, "is_disabled": 0}, {"rental_uris": {"android": "https://dc.lft.to/lastmile_qr_scan", "ios": "https://dc.lft.to/lastmile_qr_scan"}, "type": "electric_scooter", "lon": -77.02120666666667, "name": "7d67c408e7f5a913bc3cfac966f04fbc", "bike_id": "7d67c408e7f5a913bc3cfac966f04fbc", "fusion_lat": 0.0, "is_reserved": 0, "lat": 38.930148333333335, "fusion_lon": 0.0, "is_disabled": 0}, {"rental_uris": {"android": "https://dc.lft.to/lastmile_qr_scan", "ios": "https://dc.lft.to/lastmile_qr_scan"}, "type": "electric_bike", "lon": -76.9811585, "name": "1d35083e35eceb68fbe125ddc341aaca", "bike_id": "1d35083e35eceb68fbe125ddc341aaca", "fusion_lat": 0.0, "is_reserved": 0, "lat": 38.89667166666667, "fusion_lon": 0.0, "is_disabled": 0}, {"rental_uris": {"android": "https://dc.lft.to/lastmile_qr_scan", "ios": "https://dc.lft.to/lastmile_qr_scan"}, "type": "electric_scooter", "lon": -77.02151466666666, "name": "5105df42928c1f541b601a10bba3279a", "bike_id": "5105df42928c1f541b601a10bba3279a", "fusion_lat": 0.0, "is_reserved": 0, "lat": 38.92601066666667, "fusion_lon": 0.0, "is_disabled": 0}, {"rental_uris": {"android": "https://dc.lft.to/lastmile_qr_scan", "ios": "https://dc.lft.to/lastmile_qr_scan"}, "type": "electric_scooter", "lon": -77.006138, "name": "85c233b16dcc8dd0cfae3ff6b92309ce", "bike_id": "85c233b16dcc8dd0cfae3ff6b92309ce", "fusion_lat": 0.0, "is_reserved": 0, "lat": 38.88500766666667, "fusion_lon": 0.0, "is_disabled": 0}, {"rental_uris": {"android": "https://dc.lft.to/lastmile_qr_scan", "ios": "https://dc.lft.to/lastmile_qr_scan"}, "type": "electric_bike", "lon": -77.1122845, "name": "92e9c50cacdabeff52681a1ea80e9ec1", "bike_id": "92e9c50cacdabeff52681a1ea80e9ec1", "fusion_lat": 0.0, "is_reserved": 0, "lat": 38.812237833333334, "fusion_lon": 0.0, "is_disabled": 0}, {"rental_uris": {"android": "https://dc.lft.to/lastmile_qr_scan", "ios": "https://dc.lft.to/lastmile_qr_scan"}, "type": "electric_scooter", "lon": -77.0323885, "name": "71532caad37305289540757c8dc752ce", "bike_id": "71532caad37305289540757c8dc752ce", "fusion_lat": 0.0, "is_reserved": 0, "lat": 38.905443, "fusion_lon": 0.0, "is_disabled": 0}, {"rental_uris": {"android": "https://dc.lft.to/lastmile_qr_scan", "ios": "https://dc.lft.to/lastmile_qr_scan"}, "type": "electric_scooter", "lon": -77.03283966666666, "name": "febaf4099245b2d630a7c9c9dbb7ef9c", "bike_id": "febaf4099245b2d630a7c9c9dbb7ef9c", "fusion_lat": 0.0, "is_reserved": 0, "lat": 38.93687116666667, "fusion_lon": 0.0, "is_disabled": 0}, {"rental_uris": {"android": "https://dc.lft.to/lastmile_qr_scan", "ios": "https://dc.lft.to/lastmile_qr_scan"}, "type": "electric_bike", "lon": -77.10179483333333, "name": "61647933211d89a900edd041b4b08774", "bike_id": "61647933211d89a900edd041b4b08774", "fusion_lat": 0.0, "is_reserved": 0, "lat": 38.91808266666666, "fusion_lon": 0.0, "is_disabled": 0}, {"rental_uris": {"android": "https://dc.lft.to/lastmile_qr_scan", "ios": "https://dc.lft.to/lastmile_qr_scan"}, "type": "electric_scooter", "lon": -77.03752216666666, "name": "75e2533873d05227704039b68e27a680", "bike_id": "75e2533873d05227704039b68e27a680", "fusion_lat": 0.0, "is_reserved": 0, "lat": 38.9292845, "fusion_lon": 0.0, "is_disabled": 0}, {"rental_uris": {"android": "https://dc.lft.to/lastmile_qr_scan", "ios": "https://dc.lft.to/lastmile_qr_scan"}, "type": "electric_scooter", "lon": -77.0308625, "name": "59af9c08be51afbea37bbb68f2b9ba55", "bike_id": "59af9c08be51afbea37bbb68f2b9ba55", "fusion_lat": 0.0, "is_reserved": 0, "lat": 38.923843166666664, "fusion_lon": 0.0, "is_disabled": 0}, {"rental_uris": {"android": "https://dc.lft.to/lastmile_qr_scan", "ios": "https://dc.lft.to/lastmile_qr_scan"}, "type": "electric_scooter", "lon": -77.02789233333333, "name": "185811c70f6d42302799962b373ce8d5", "bike_id": "185811c70f6d42302799962b373ce8d5", "fusion_lat": 0.0, "is_reserved": 0, "lat": 38.9307765, "fusion_lon": 0.0, "is_disabled": 0}, {"rental_uris": {"android": "https://dc.lft.to/lastmile_qr_scan", "ios": "https://dc.lft.to/lastmile_qr_scan"}, "type": "electric_bike", "lon": -76.98325916666667, "name": "a4c2102879e8ad98bf0a29c8b7d4ec98", "bike_id": "a4c2102879e8ad98bf0a29c8b7d4ec98", "fusion_lat": 0.0, "is_reserved": 0, "lat": 38.966057, "fusion_lon": 0.0, "is_disabled": 0}, {"rental_uris": {"android": "https://dc.lft.to/lastmile_qr_scan", "ios": "https://dc.lft.to/lastmile_qr_scan"}, "type": "electric_scooter", "lon": -77.02203383333334, "name": "0fba187bb85548c7ba226e3b1ef048c8", "bike_id": "0fba187bb85548c7ba226e3b1ef048c8", "fusion_lat": 0.0, "is_reserved": 0, "lat": 38.88714983333333, "fusion_lon": 0.0, "is_disabled": 0}, {"rental_uris": {"android": "https://dc.lft.to/lastmile_qr_scan", "ios": "https://dc.lft.to/lastmile_qr_scan"}, "type": "electric_scooter", "lon": -77.04150583333333, "name": "dfd60976fde09d4f5681cbd92b5f7a8e", "bike_id": "dfd60976fde09d4f5681cbd92b5f7a8e", "fusion_lat": 0.0, "is_reserved": 0, "lat": 38.91088583333333, "fusion_lon": 0.0, "is_disabled": 0}, {"rental_uris": {"android": "https://dc.lft.to/lastmile_qr_scan", "ios": "https://dc.lft.to/lastmile_qr_scan"}, "type": "electric_scooter", "lon": -77.038558, "name": "15d563b60adccc9073ccdc57fe87bc9e", "bike_id": "15d563b60adccc9073ccdc57fe87bc9e", "fusion_lat": 0.0, "is_reserved": 0, "lat": 38.9171225, "fusion_lon": 0.0, "is_disabled": 0}, {"rental_uris": {"android": "https://dc.lft.to/lastmile_qr_scan", "ios": "https://dc.lft.to/lastmile_qr_scan"}, "type": "electric_scooter", "lon": -77.04607916666667, "name": "3bdf0af818fcdde2a3cd7a136365f9ac", "bike_id": "3bdf0af818fcdde2a3cd7a136365f9ac", "fusion_lat": 0.0, "is_reserved": 0, "lat": 38.90672266666667, "fusion_lon": 0.0, "is_disabled": 0}, {"rental_uris": {"android": "https://dc.lft.to/lastmile_qr_scan", "ios": "https://dc.lft.to/lastmile_qr_scan"}, "type": "electric_scooter", "lon": -77.02682933333334, "name": "e5e5c71cc13b00071b96f092d2426dcd", "bike_id": "e5e5c71cc13b00071b96f092d2426dcd", "fusion_lat": 0.0, "is_reserved": 0, "lat": 38.9095935, "fusion_lon": 0.0, "is_disabled": 0}, {"rental_uris": {"android": "https://dc.lft.to/lastmile_qr_scan", "ios": "https://dc.lft.to/lastmile_qr_scan"}, "type": "electric_scooter", "lon": -77.02415633333334, "name": "1874551e086680aed97ad812d8480162", "bike_id": "1874551e086680aed97ad812d8480162", "fusion_lat": 0.0, "is_reserved": 0, "lat": 38.957370833333336, "fusion_lon": 0.0, "is_disabled": 0}, {"rental_uris": {"android": "https://dc.lft.to/lastmile_qr_scan", "ios": "https://dc.lft.to/lastmile_qr_scan"}, "type": "electric_scooter", "lon": -77.02465816666667, "name": "8e1536b690497c4e7cc796f64e731f16", "bike_id": "8e1536b690497c4e7cc796f64e731f16", "fusion_lat": 0.0, "is_reserved": 0, "lat": 38.93853083333333, "fusion_lon": 0.0, "is_disabled": 0}, {"rental_uris": {"android": "https://dc.lft.to/lastmile_qr_scan", "ios": "https://dc.lft.to/lastmile_qr_scan"}, "type": "electric_bike", "lon": -77.028804, "name": "d7b634ffd2d7302c4afcbbbad5d9a0da", "bike_id": "d7b634ffd2d7302c4afcbbbad5d9a0da", "fusion_lat": 0.0, "is_reserved": 0, "lat": 38.979431, "fusion_lon": 0.0, "is_disabled": 0}, {"rental_uris": {"android": "https://dc.lft.to/lastmile_qr_scan", "ios": "https://dc.lft.to/lastmile_qr_scan"}, "type": "electric_scooter", "lon": -77.06275966666666, "name": "16f6bb5d3aae934c49d3348c49b14165", "bike_id": "16f6bb5d3aae934c49d3348c49b14165", "fusion_lat": 0.0, "is_reserved": 0, "lat": 38.906195, "fusion_lon": 0.0, "is_disabled": 0}, {"rental_uris": {"android": "https://dc.lft.to/lastmile_qr_scan", "ios": "https://dc.lft.to/lastmile_qr_scan"}, "type": "electric_scooter", "lon": -77.01946316666667, "name": "54648c3df6f5872ad95134460f74b570", "bike_id": "54648c3df6f5872ad95134460f74b570", "fusion_lat": 0.0, "is_reserved": 0, "lat": 38.92249316666667, "fusion_lon": 0.0, "is_disabled": 0}, {"rental_uris": {"android": "https://dc.lft.to/lastmile_qr_scan", "ios": "https://dc.lft.to/lastmile_qr_scan"}, "type": "electric_scooter", "lon": -77.03841233333333, "name": "dd054b325c632d291243ee72718d9fe6", "bike_id": "dd054b325c632d291243ee72718d9fe6", "fusion_lat": 0.0, "is_reserved": 0, "lat": 38.91208066666667, "fusion_lon": 0.0, "is_disabled": 0}, {"rental_uris": {"android": "https://dc.lft.to/lastmile_qr_scan", "ios": "https://dc.lft.to/lastmile_qr_scan"}, "type": "electric_scooter", "lon": -76.94823966666667, "name": "c1d11d575130a92b194d8d306a4ae2aa", "bike_id": "c1d11d575130a92b194d8d306a4ae2aa", "fusion_lat": 0.0, "is_reserved": 0, "lat": 38.88512083333333, "fusion_lon": 0.0, "is_disabled": 0}, {"rental_uris": {"android": "https://dc.lft.to/lastmile_qr_scan", "ios": "https://dc.lft.to/lastmile_qr_scan"}, "type": "electric_scooter", "lon": -77.04158216666667, "name": "014b6236f295441ae32058c143036bdb", "bike_id": "014b6236f295441ae32058c143036bdb", "fusion_lat": 0.0, "is_reserved": 0, "lat": 38.89266933333333, "fusion_lon": 0.0, "is_disabled": 0}, {"rental_uris": {"android": "https://dc.lft.to/lastmile_qr_scan", "ios": "https://dc.lft.to/lastmile_qr_scan"}, "type": "electric_scooter", "lon": -77.02196833333333, "name": "350cf3fb43fca7414412a7aab1378585", "bike_id": "350cf3fb43fca7414412a7aab1378585", "fusion_lat": 0.0, "is_reserved": 0, "lat": 38.8950205, "fusion_lon": 0.0, "is_disabled": 0}, {"rental_uris": {"android": "https://dc.lft.to/lastmile_qr_scan", "ios": "https://dc.lft.to/lastmile_qr_scan"}, "type": "electric_scooter", "lon": -76.98595583333334, "name": "021250889d73c5ca2ecd8103256eeef8", "bike_id": "021250889d73c5ca2ecd8103256eeef8", "fusion_lat": 0.0, "is_reserved": 0, "lat": 38.90016283333333, "fusion_lon": 0.0, "is_disabled": 0}, {"rental_uris": {"android": "https://dc.lft.to/lastmile_qr_scan", "ios": "https://dc.lft.to/lastmile_qr_scan"}, "type": "electric_scooter", "lon": -77.03445416666666, "name": "52fb97aa396953679572fe1433fc622e", "bike_id": "52fb97aa396953679572fe1433fc622e", "fusion_lat": 0.0, "is_reserved": 0, "lat": 38.91801983333333, "fusion_lon": 0.0, "is_disabled": 0}, {"rental_uris": {"android": "https://dc.lft.to/lastmile_qr_scan", "ios": "https://dc.lft.to/lastmile_qr_scan"}, "type": "electric_scooter", "lon": -77.03175916666666, "name": "46ad0dbf8fc407e1062047ccf2b7f48c", "bike_id": "46ad0dbf8fc407e1062047ccf2b7f48c", "fusion_lat": 0.0, "is_reserved": 0, "lat": 38.91419033333333, "fusion_lon": 0.0, "is_disabled": 0}, {"rental_uris": {"android": "https://dc.lft.to/lastmile_qr_scan", "ios": "https://dc.lft.to/lastmile_qr_scan"}, "type": "electric_scooter", "lon": -77.00883033333334, "name": "0e4929bb106fd7281983094cf1351b6b", "bike_id": "0e4929bb106fd7281983094cf1351b6b", "fusion_lat": 0.0, "is_reserved": 0, "lat": 38.876348166666666, "fusion_lon": 0.0, "is_disabled": 0}, {"rental_uris": {"android": "https://dc.lft.to/lastmile_qr_scan", "ios": "https://dc.lft.to/lastmile_qr_scan"}, "type": "electric_scooter", "lon": -77.01199933333334, "name": "8f0c2b3b248e3901e16dd29040d7c1a4", "bike_id": "8f0c2b3b248e3901e16dd29040d7c1a4", "fusion_lat": 0.0, "is_reserved": 0, "lat": 38.871500833333336, "fusion_lon": 0.0, "is_disabled": 0}, {"rental_uris": {"android": "https://dc.lft.to/lastmile_qr_scan", "ios": "https://dc.lft.to/lastmile_qr_scan"}, "type": "electric_bike", "lon": -76.99731066666666, "name": "ec12741aad6ecf22e7afcb8660df3702", "bike_id": "ec12741aad6ecf22e7afcb8660df3702", "fusion_lat": 0.0, "is_reserved": 0, "lat": 38.8908625, "fusion_lon": 0.0, "is_disabled": 0}, {"rental_uris": {"android": "https://dc.lft.to/lastmile_qr_scan", "ios": "https://dc.lft.to/lastmile_qr_scan"}, "type": "electric_scooter", "lon": -77.003807, "name": "d62f2a922c685abbc42ecb20cdc326da", "bike_id": "d62f2a922c685abbc42ecb20cdc326da", "fusion_lat": 0.0, "is_reserved": 0, "lat": 38.897339, "fusion_lon": 0.0, "is_disabled": 0}, {"rental_uris": {"android": "https://dc.lft.to/lastmile_qr_scan", "ios": "https://dc.lft.to/lastmile_qr_scan"},