{"data": {"bikes": [{"fusion_lon": 0.0, "bike_id": "3e68ca84080050c896993a9c7c7a9066", "is_disabled": 0, "is_reserved": 0, "lat": 38.942040166666665, "name": "3e68ca84080050c896993a9c7c7a9066", "rental_uris": {"ios": "https://dc.lft.to/lastmile_qr_scan", "android": "https://dc.lft.to/lastmile_qr_scan"}, "type": "electric_scooter", "fusion_lat": 0.0, "lon": -77.01333816666667}, {"fusion_lon": 0.0, "bike_id": "527d3271fdfefa96beff8ba45b2bd919", "is_disabled": 0, "is_reserved": 0, "lat": 39.02648583333333, "name": "527d3271fdfefa96beff8ba45b2bd919", "rental_uris": {"ios": "https://dc.lft.to/lastmile_qr_scan", "android": "https://dc.lft.to/lastmile_qr_scan"}, "type": "electric_bike", "fusion_lat": 0.0, "lon": -77.0368425}, {"fusion_lon": 0.0, "bike_id": "c6fdc9413265d029291b4e52e19f157b", "is_disabled": 0, "is_reserved": 0, "lat": 38.9335975, "name": "c6fdc9413265d029291b4e52e19f157b", "rental_uris": {"ios": "https://dc.lft.to/lastmile_qr_scan", "android": "https://dc.lft.to/lastmile_qr_scan"}, "type": "electric_scooter", "fusion_lat": 0.0, "lon": -77.02751783333333}, {"fusion_lon": 0.0, "bike_id": "2fb635d1caad645387dc80467ec14a0b", "is_disabled": 0, "is_reserved": 0, "lat": 38.9271, "name": "2fb635d1caad645387dc80467ec14a0b", "rental_uris": {"ios": "https://dc.lft.to/lastmile_qr_scan", "android": "https://dc.lft.to/lastmile_qr_scan"}, "type": "electric_scooter", "fusion_lat": 0.0, "lon": -77.06010883333333}, {"fusion_lon": 0.0, "bike_id": "673ca506adaf67d86193df686ec6c4dd", "is_disabled": 0, "is_reserved": 0, "lat": 38.8950845, "name": "673ca506adaf67d86193df686ec6c4dd", "rental_uris": {"ios": "https://dc.lft.to/lastmile_qr_scan", "android": "https://dc.lft.to/lastmile_qr_scan"}, "type": "electric_scooter", "fusion_lat": 0.0, "lon": -76.94890383333333}, {"fusion_lon": 0.0, "bike_id": "b66cf45e0571e8765c77ceb503e0f55e", "is_disabled": 0, "is_reserved": 0, "lat": 38.91957933333333, "name": "b66cf45e0571e8765c77ceb503e0f55e", "rental_uris": {"ios": "https://dc.lft.to/lastmile_qr_scan", "android": "https://dc.lft.to/lastmile_qr_scan"}, "type": "electric_scooter", "fusion_lat": 0.0, "lon": -77.07873833333333}, {"fusion_lon": 0.0, "bike_id": "d728b2eb49d3fdae0d6362282a7e8546", "is_disabled": 0, "is_reserved": 0, "lat": 38.95590383333333, "name": "d728b2eb49d3fdae0d6362282a7e8546", "rental_uris": {"ios": "https://dc.lft.to/lastmile_qr_scan", "android": "https://dc.lft.to/lastmile_qr_scan"}, "type": "electric_scooter", "fusion_lat": 0.0, "lon": -77.01784783333333}, {"fusion_lon": 0.0, "bike_id": "c3717e36a1969a14a63bc47779c57489", "is_disabled": 0, "is_reserved": 0, "lat": 38.902827, "name": "c3717e36a1969a14a63bc47779c57489", "rental_uris": {"ios": "https://dc.lft.to/lastmile_qr_scan", "android": "https://dc.lft.to/lastmile_qr_scan"}, "type": "electric_scooter", "fusion_lat": 0.0, "lon": -77.03247633333334}, {"fusion_lon": 0.0, "bike_id": "3c943d720de09ef3e91080c955b2e540", "is_disabled": 0, "is_reserved": 0, "lat": 38.901242, "name": "3c943d720de09ef3e91080c955b2e540", "rental_uris": {"ios": "https://dc.lft.to/lastmile_qr_scan", "android": "https://dc.lft.to/lastmile_qr_scan"}, "type": "electric_scooter", "fusion_lat": 0.0, "lon": -76.99850633333334}, {"fusion_lon": 0.0, "bike_id": "6d2eb1a99f3e66f84b44edb234edec3a", "is_disabled": 0, "is_reserved": 0, "lat": 38.904387666666665, "name": "6d2eb1a99f3e66f84b44edb234edec3a", "rental_uris": {"ios": "https://dc.lft.to/lastmile_qr_scan", "android": "https://dc.lft.to/lastmile_qr_scan"}, "type": "electric_scooter", "fusion_lat": 0.0, "lon": -77.0345325}, {"fusion_lon": 0.0, "bike_id": "b7ec42c4c1fec6b60c32809fc3e3e78d", "is_disabled": 0, "is_reserved": 0, "lat": 38.93148266666667, "name": "b7ec42c4c1fec6b60c32809fc3e3e78d", "rental_uris": {"ios": "https://dc.lft.to/lastmile_qr_scan", "android": "https://dc.lft.to/lastmile_qr_scan"}, "type": "electric_scooter", "fusion_lat": 0.0, "lon": -77.02155333333333}, {"fusion_lon": 0.0, "bike_id": "d6d6caa45b948ace9a3956dd2970208f", "is_disabled": 0, "is_reserved": 0, "lat": 38.91403483333333, "name": "d6d6caa45b948ace9a3956dd2970208f", "rental_uris": {"ios": "https://dc.lft.to/lastmile_qr_scan", "android": "https://dc.lft.to/lastmile_qr_scan"}, "type": "electric_scooter", "fusion_lat": 0.0, "lon": -77.00981116666667}, {"fusion_lon": 0.0, "bike_id": "682d00db7625aa59e21812760657a330", "is_disabled": 0, "is_reserved": 0, "lat": 38.88624033333333, "name": "682d00db7625aa59e21812760657a330", "rental_uris": {"ios": "https://dc.lft.to/lastmile_qr_scan", "android": "https://dc.lft.to/lastmile_qr_scan"}, "type": "electric_scooter", "fusion_lat": 0.0, "lon": -76.92631566666667}, {"fusion_lon": 0.0, "bike_id": "bf0a39fcf222a838ba0f5b386cc72b55", "is_disabled": 0, "is_reserved": 0, "lat": 38.909766166666664, "name": "bf0a39fcf222a838ba0f5b386cc72b55", "rental_uris": {"ios": "https://dc.lft.to/lastmile_qr_scan", "android": "https://dc.lft.to/lastmile_qr_scan"}, "type": "electric_scooter", "fusion_lat": 0.0, "lon": -77.04873616666667}, {"fusion_lon": 0.0, "bike_id": "ae20f94c5b59240c124e3593fe4df001", "is_disabled": 0, "is_reserved": 0, "lat": 38.87957133333333, "name": "ae20f94c5b59240c124e3593fe4df001", "rental_uris": {"ios": "https://dc.lft.to/lastmile_qr_scan", "android": "https://dc.lft.to/lastmile_qr_scan"}, "type": "electric_scooter", "fusion_lat": 0.0, "lon": -77.021408}, {"fusion_lon": 0.0, "bike_id": "bf12b91f6c0994b0789d735f4dbbd688", "is_disabled": 0, "is_reserved": 0, "lat": 38.9324655, "name": "bf12b91f6c0994b0789d735f4dbbd688", "rental_uris": {"ios": "https://dc.lft.to/lastmile_qr_scan", "android": "https://dc.lft.to/lastmile_qr_scan"}, "type": "electric_scooter", "fusion_lat": 0.0, "lon": -77.03878133333333}, {"fusion_lon": 0.0, "bike_id": "f90407ce0103b753260863e4c09a78d9", "is_disabled": 0, "is_reserved": 0, "lat": 38.8852315, "name": "f90407ce0103b753260863e4c09a78d9", "rental_uris": {"ios": "https://dc.lft.to/lastmile_qr_scan", "android": "https://dc.lft.to/lastmile_qr_scan"}, "type": "electric_scooter", "fusion_lat": 0.0, "lon": -76.97711333333334}, {"fusion_lon": 0.0, "bike_id": "a5c455e1e0e2af72406d7fcf76883715", "is_disabled": 0, "is_reserved": 0, "lat": 38.919317166666666, "name": "a5c455e1e0e2af72406d7fcf76883715", "rental_uris": {"ios": "https://dc.lft.to/lastmile_qr_scan", "android": "https://dc.lft.to/lastmile_qr_scan"}, "type": "electric_scooter", "fusion_lat": 0.0, "lon": -77.04624366666667}, {"fusion_lon": 0.0, "bike_id": "5703b713e66bd02ba92a99acebd492db", "is_disabled": 0, "is_reserved": 0, "lat": 38.92331433333333, "name": "5703b713e66bd02ba92a99acebd492db", "rental_uris": {"ios": "https://dc.lft.to/lastmile_qr_scan", "android": "https://dc.lft.to/lastmile_qr_scan"}, "type": "electric_scooter", "fusion_lat": 0.0, "lon": -77.00892616666667}, {"fusion_lon": 0.0, "bike_id": "c738a59d98f8bb2d640b61225f4fb25b", "is_disabled": 0, "is_reserved": 0, "lat": 38.9223685, "name": "c738a59d98f8bb2d640b61225f4fb25b", "rental_uris": {"ios": "https://dc.lft.to/lastmile_qr_scan", "android": "https://dc.lft.to/lastmile_qr_scan"}, "type": "electric_scooter", "fusion_lat": 0.0, "lon": -77.03379733333334}, {"fusion_lon": 0.0, "bike_id": "c977b3ef37c15d99b8d7f923eeccace0", "is_disabled": 0, "is_reserved": 0, "lat": 38.9068055, "name": "c977b3ef37c15d99b8d7f923eeccace0", "rental_uris": {"ios": "https://dc.lft.to/lastmile_qr_scan", "android": "https://dc.lft.to/lastmile_qr_scan"}, "type": "electric_scooter", "fusion_lat": 0.0, "lon": -76.98004216666666}, {"fusion_lon": 0.0, "bike_id": "566440309d6cb7d4de1e91b150515aef", "is_disabled": 0, "is_reserved": 0, "lat": 38.89944783333333, "name": "566440309d6cb7d4de1e91b150515aef", "rental_uris": {"ios": "https://dc.lft.to/lastmile_qr_scan", "android": "https://dc.lft.to/lastmile_qr_scan"}, "type": "electric_scooter", "fusion_lat": 0.0, "lon": -77.0450245}, {"fusion_lon": 0.0, "bike_id": "987c9e2db1fff4556323e1160050d9be", "is_disabled": 0, "is_reserved": 0, "lat": 38.9407805, "name": "987c9e2db1fff4556323e1160050d9be", "rental_uris": {"ios": "https://dc.lft.to/lastmile_qr_scan", "android": "https://dc.lft.to/lastmile_qr_scan"}, "type": "electric_scooter", "fusion_lat": 0.0, "lon": -77.0211415}, {"fusion_lon": 0.0, "bike_id": "97c8098a37cdac328aac5ae2f87076cb", "is_disabled": 0, "is_reserved": 0, "lat": 38.876912833333336, "name": "97c8098a37cdac328aac5ae2f87076cb", "rental_uris": {"ios": "https://dc.lft.to/lastmile_qr_scan", "android": "https://dc.lft.to/lastmile_qr_scan"}, "type": "electric_scooter", "fusion_lat": 0.0, "lon": -77.00736616666667}, {"fusion_lon": 0.0, "bike_id": "36a87e82a54f59752f9263cdc86c7fc7", "is_disabled": 0, "is_reserved": 0, "lat": 38.87941416666666, "name": "36a87e82a54f59752f9263cdc86c7fc7", "rental_uris": {"ios": "https://dc.lft.to/lastmile_qr_scan", "android": "https://dc.lft.to/lastmile_qr_scan"}, "type": "electric_scooter", "fusion_lat": 0.0, "lon": -77.010022}, {"fusion_lon": 0.0, "bike_id": "78920c7c027f4feba4567b697d2e7ddc", "is_disabled": 0, "is_reserved": 0, "lat": 38.878889666666666, "name": "78920c7c027f4feba4567b697d2e7ddc", "rental_uris": {"ios": "https://dc.lft.to/lastmile_qr_scan", "android": "https://dc.lft.to/lastmile_qr_scan"}, "type": "electric_scooter", "fusion_lat": 0.0, "lon": -76.9654345}, {"fusion_lon": 0.0, "bike_id": "98592a86b8d958dc99928fdd747da72c", "is_disabled": 0, "is_reserved": 0, "lat": 38.918562, "name": "98592a86b8d958dc99928fdd747da72c", "rental_uris": {"ios": "https://dc.lft.to/lastmile_qr_scan", "android": "https://dc.lft.to/lastmile_qr_scan"}, "type": "electric_scooter", "fusion_lat": 0.0, "lon": -77.02547733333333}, {"fusion_lon": 0.0, "bike_id": "4c6d50fc483eaeac54fa57a79b377054", "is_disabled": 0, "is_reserved": 0, "lat": 38.9205865, "name": "4c6d50fc483eaeac54fa57a79b377054", "rental_uris": {"ios": "https://dc.lft.to/lastmile_qr_scan", "android": "https://dc.lft.to/lastmile_qr_scan"}, "type": "electric_scooter", "fusion_lat": 0.0, "lon": -76.99881266666667}, {"fusion_lon": 0.0, "bike_id": "7b5677ab0b3d466cc5491981d07b31dc", "is_disabled": 0, "is_reserved": 0, "lat": 38.92446, "name": "7b5677ab0b3d466cc5491981d07b31dc", "rental_uris": {"ios": "https://dc.lft.to/lastmile_qr_scan", "android": "https://dc.lft.to/lastmile_qr_scan"}, "type": "electric_scooter", "fusion_lat": 0.0, "lon": -77.021595}, {"fusion_lon": 0.0, "bike_id": "5f60ff3d7e2a43bd8dfc4fb502c7f18a", "is_disabled": 0, "is_reserved": 0, "lat": 38.89596866666667, "name": "5f60ff3d7e2a43bd8dfc4fb502c7f18a", "rental_uris": {"ios": "https://dc.lft.to/lastmile_qr_scan", "android": "https://dc.lft.to/lastmile_qr_scan"}, "type": "electric_scooter", "fusion_lat": 0.0, "lon": -77.02540866666666}, {"fusion_lon": 0.0, "bike_id": "014045ba8d5a39070c0a6a6d732311ef", "is_disabled": 0, "is_reserved": 0, "lat": 38.90071183333333, "name": "014045ba8d5a39070c0a6a6d732311ef", "rental_uris": {"ios": "https://dc.lft.to/lastmile_qr_scan", "android": "https://dc.lft.to/lastmile_qr_scan"}, "type": "electric_scooter", "fusion_lat": 0.0, "lon": -77.02680916666667}, {"fusion_lon": 0.0, "bike_id": "6dad6c9dd5e63e4377aeb6b124911bde", "is_disabled": 0, "is_reserved": 0, "lat": 38.91268383333333, "name": "6dad6c9dd5e63e4377aeb6b124911bde", "rental_uris": {"ios": "https://dc.lft.to/lastmile_qr_scan", "android": "https://dc.lft.to/lastmile_qr_scan"}, "type": "electric_scooter", "fusion_lat": 0.0, "lon": -77.02232483333333}, {"fusion_lon": 0.0, "bike_id": "a22ce5d1ddbf186a122615d89ce9c6a0", "is_disabled": 0, "is_reserved": 0, "lat": 38.9019565, "name": "a22ce5d1ddbf186a122615d89ce9c6a0", "rental_uris": {"ios": "https://dc.lft.to/lastmile_qr_scan", "android": "https://dc.lft.to/lastmile_qr_scan"}, "type": "electric_scooter", "fusion_lat": 0.0, "lon": -77.02179666666666}, {"fusion_lon": 0.0, "bike_id": "843230f020667c9ffa84a2f565316afd", "is_disabled": 0, "is_reserved": 0, "lat": 38.92412933333333, "name": "843230f020667c9ffa84a2f565316afd", "rental_uris": {"ios": "https://dc.lft.to/lastmile_qr_scan", "android": "https://dc.lft.to/lastmile_qr_scan"}, "type": "electric_scooter", "fusion_lat": 0.0, "lon": -77.02715566666667}, {"fusion_lon": 0.0, "bike_id": "7e41cb5b4c9f62e3ba8ce72d9f8d037b", "is_disabled": 0, "is_reserved": 0, "lat": 38.914036333333335, "name": "7e41cb5b4c9f62e3ba8ce72d9f8d037b", "rental_uris": {"ios": "https://dc.lft.to/lastmile_qr_scan", "android": "https://dc.lft.to/lastmile_qr_scan"}, "type": "electric_scooter", "fusion_lat": 0.0, "lon": -77.03218733333334}, {"fusion_lon": 0.0, "bike_id": "b57e1d6094c2f5a934c09edafa855f8a", "is_disabled": 0, "is_reserved": 0, "lat": 38.92085516666667, "name": "b57e1d6094c2f5a934c09edafa855f8a", "rental_uris": {"ios": "https://dc.lft.to/lastmile_qr_scan", "android": "https://dc.lft.to/lastmile_qr_scan"}, "type": "electric_scooter", "fusion_lat": 0.0, "lon": -77.02297116666666}, {"fusion_lon": 0.0, "bike_id": "a8345e9d274cc64ad20d473a5302fe1d", "is_disabled": 0, "is_reserved": 0, "lat": 38.90027166666667, "name": "a8345e9d274cc64ad20d473a5302fe1d", "rental_uris": {"ios": "https://dc.lft.to/lastmile_qr_scan", "android": "https://dc.lft.to/lastmile_qr_scan"}, "type": "electric_scooter", "fusion_lat": 0.0, "lon": -76.9884695}, {"fusion_lon": 0.0, "bike_id": "0884b35021a842758e805181df7efef8", "is_disabled": 0, "is_reserved": 0, "lat": 38.91923083333333, "name": "0884b35021a842758e805181df7efef8", "rental_uris": {"ios": "https://dc.lft.to/lastmile_qr_scan", "android": "https://dc.lft.to/lastmile_qr_scan"}, "type": "electric_scooter", "fusion_lat": 0.0, "lon": -77.03424033333333}, {"fusion_lon": 0.0, "bike_id": "2ec74180d8693d9af93aecda984586b1", "is_disabled": 0, "is_reserved": 0, "lat": 38.854473166666665, "name": "2ec74180d8693d9af93aecda984586b1", "rental_uris": {"ios": "https://dc.lft.to/lastmile_qr_scan", "android": "https://dc.lft.to/lastmile_qr_scan"}, "type": "electric_scooter", "fusion_lat": 0.0, "lon": -76.98612466666667}, {"fusion_lon": 0.0, "bike_id": "4246703b7cb4f6613748b7e76bdfad05", "is_disabled": 0, "is_reserved": 0, "lat": 38.924108, "name": "4246703b7cb4f6613748b7e76bdfad05", "rental_uris": {"ios": "https://dc.lft.to/lastmile_qr_scan", "android": "https://dc.lft.to/lastmile_qr_scan"}, "type": "electric_scooter", "fusion_lat": 0.0, "lon": -77.02011383333334}, {"fusion_lon": 0.0, "bike_id": "7600bef741965ab753b1a9ae86e38953", "is_disabled": 0, "is_reserved": 0, "lat": 38.9743995, "name": "7600bef741965ab753b1a9ae86e38953", "rental_uris": {"ios": "https://dc.lft.to/lastmile_qr_scan", "android": "https://dc.lft.to/lastmile_qr_scan"}, "type": "electric_bike", "fusion_lat": 0.0, "lon": -77.096147}, {"fusion_lon": 0.0, "bike_id": "66f77b74cea11ae8dbd349a6c32d4b82", "is_disabled": 0, "is_reserved": 0, "lat": 38.932908833333336, "name": "66f77b74cea11ae8dbd349a6c32d4b82", "rental_uris": {"ios": "https://dc.lft.to/lastmile_qr_scan", "android": "https://dc.lft.to/lastmile_qr_scan"}, "type": "electric_scooter", "fusion_lat": 0.0, "lon": -76.98649383333333}, {"fusion_lon": 0.0, "bike_id": "cd221b170be241891542f3729e69d6c2", "is_disabled": 0, "is_reserved": 0, "lat": 38.935986, "name": "cd221b170be241891542f3729e69d6c2", "rental_uris": {"ios": "https://dc.lft.to/lastmile_qr_scan", "android": "https://dc.lft.to/lastmile_qr_scan"}, "type": "electric_bike", "fusion_lat": 0.0, "lon": -77.02114433333334}, {"fusion_lon": 0.0, "bike_id": "9c4ea8de13aef93767a7bb005d125554", "is_disabled": 0, "is_reserved": 0, "lat": 38.90961766666667, "name": "9c4ea8de13aef93767a7bb005d125554", "rental_uris": {"ios": "https://dc.lft.to/lastmile_qr_scan", "android": "https://dc.lft.to/lastmile_qr_scan"}, "type": "electric_scooter", "fusion_lat": 0.0, "lon": -77.033589}, {"fusion_lon": 0.0, "bike_id": "707a8a04e7a99dd315654574ef690d1a", "is_disabled": 0, "is_reserved": 0, "lat": 38.922270166666664, "name": "707a8a04e7a99dd315654574ef690d1a", "rental_uris": {"ios": "https://dc.lft.to/lastmile_qr_scan", "android": "https://dc.lft.to/lastmile_qr_scan"}, "type": "electric_scooter", "fusion_lat": 0.0, "lon": -77.0282675}, {"fusion_lon": 0.0, "bike_id": "20a3544cfedd42eccdef6ad2dc2b6b32", "is_disabled": 0, "is_reserved": 0, "lat": 38.90086733333333, "name": "20a3544cfedd42eccdef6ad2dc2b6b32", "rental_uris": {"ios": "https://dc.lft.to/lastmile_qr_scan", "android": "https://dc.lft.to/lastmile_qr_scan"}, "type": "electric_scooter", "fusion_lat": 0.0, "lon": -77.047628}, {"fusion_lon": 0.0, "bike_id": "f19666c42359be9ce31369b6e7f0d540", "is_disabled": 0, "is_reserved": 0, "lat": 38.92719, "name": "f19666c42359be9ce31369b6e7f0d540", "rental_uris": {"ios": "https://dc.lft.to/lastmile_qr_scan", "android": "https://dc.lft.to/lastmile_qr_scan"}, "type": "electric_scooter", "fusion_lat": 0.0, "lon": -77.02077683333333}, {"fusion_lon": 0.0, "bike_id": "2dc298971218951f818abc594c1e2a43", "is_disabled": 0, "is_reserved": 0, "lat": 38.90101833333333, "name": "2dc298971218951f818abc594c1e2a43", "rental_uris": {"ios": "https://dc.lft.to/lastmile_qr_scan", "android": "https://dc.lft.to/lastmile_qr_scan"}, "type": "electric_scooter", "fusion_lat": 0.0, "lon": -77.01611233333334}, {"fusion_lon": 0.0, "bike_id": "43dd8843d942b21b68ac8f9795bf14bd", "is_disabled": 0, "is_reserved": 0, "lat": 38.942742333333335, "name": "43dd8843d942b21b68ac8f9795bf14bd", "rental_uris": {"ios": "https://dc.lft.to/lastmile_qr_scan", "android": "https://dc.lft.to/lastmile_qr_scan"}, "type": "electric_scooter", "fusion_lat": 0.0, "lon": -77.02930366666666}, {"fusion_lon": 0.0, "bike_id": "0bce7d6aa0ce1813bc1474564887cfc0", "is_disabled": 0, "is_reserved": 0, "lat": 38.94342533333333, "name": "0bce7d6aa0ce1813bc1474564887cfc0", "rental_uris": {"ios": "https://dc.lft.to/lastmile_qr_scan", "android": "https://dc.lft.to/lastmile_qr_scan"}, "type": "electric_scooter", "fusion_lat": 0.0, "lon": -77.0260315}, {"fusion_lon": 0.0, "bike_id": "76ca4e215f9f0845c95b44cc9fbce7f6", "is_disabled": 0, "is_reserved": 0, "lat": 38.925032333333334, "name": "76ca4e215f9f0845c95b44cc9fbce7f6", "rental_uris": {"ios": "https://dc.lft.to/lastmile_qr_scan", "android": "https://dc.lft.to/lastmile_qr_scan"}, "type": "electric_scooter", "fusion_lat": 0.0, "lon": -77.02182333333333}, {"fusion_lon": 0.0, "bike_id": "15fc63deea05f403f6f2c15253ffb930", "is_disabled": 0, "is_reserved": 0, "lat": 38.920032, "name": "15fc63deea05f403f6f2c15253ffb930", "rental_uris": {"ios": "https://dc.lft.to/lastmile_qr_scan", "android": "https://dc.lft.to/lastmile_qr_scan"}, "type": "electric_scooter", "fusion_lat": 0.0, "lon": -77.021267}, {"fusion_lon": 0.0, "bike_id": "3ccf2eba36038076dbe119c8ed5f2c74", "is_disabled": 0, "is_reserved": 0, "lat": 38.922752833333334, "name": "3ccf2eba36038076dbe119c8ed5f2c74", "rental_uris": {"ios": "https://dc.lft.to/lastmile_qr_scan", "android": "https://dc.lft.to/lastmile_qr_scan"}, "type": "electric_scooter", "fusion_lat": 0.0, "lon": -77.02131166666666}, {"fusion_lon": 0.0, "bike_id": "9238e5b346764c7a87d47fff8d13bcc7", "is_disabled": 0, "is_reserved": 0, "lat": 38.92429033333333, "name": "9238e5b346764c7a87d47fff8d13bcc7", "rental_uris": {"ios": "https://dc.lft.to/lastmile_qr_scan", "android": "https://dc.lft.to/lastmile_qr_scan"}, "type": "electric_scooter", "fusion_lat": 0.0, "lon": -77.04047666666666}, {"fusion_lon": 0.0, "bike_id": "0a3db579f5cce6686ee8a9455df7cdc7", "is_disabled": 0, "is_reserved": 0, "lat": 38.90181283333333, "name": "0a3db579f5cce6686ee8a9455df7cdc7", "rental_uris": {"ios": "https://dc.lft.to/lastmile_qr_scan", "android": "https://dc.lft.to/lastmile_qr_scan"}, "type": "electric_scooter", "fusion_lat": 0.0, "lon": -76.97667966666667}, {"fusion_lon": 0.0, "bike_id": "dab4014dce644e52f6d5e47fe1b552b5", "is_disabled": 0, "is_reserved": 0, "lat": 38.88712016666667, "name": "dab4014dce644e52f6d5e47fe1b552b5", "rental_uris": {"ios": "https://dc.lft.to/lastmile_qr_scan", "android": "https://dc.lft.to/lastmile_qr_scan"}, "type": "electric_scooter", "fusion_lat": 0.0, "lon": -76.98384366666667}, {"fusion_lon": 0.0, "bike_id": "ad1906b77d50c3c71a5346df9a9c3188", "is_disabled": 0, "is_reserved": 0, "lat": 38.91909033333334, "name": "ad1906b77d50c3c71a5346df9a9c3188", "rental_uris": {"ios": "https://dc.lft.to/lastmile_qr_scan", "android": "https://dc.lft.to/lastmile_qr_scan"}, "type": "electric_scooter", "fusion_lat": 0.0, "lon": -77.04630083333333}, {"fusion_lon": 0.0, "bike_id": "bdd40f53458a8cbbca5ceac368d36888", "is_disabled": 0, "is_reserved": 0, "lat": 38.87772733333333, "name": "bdd40f53458a8cbbca5ceac368d36888", "rental_uris": {"ios": "https://dc.lft.to/lastmile_qr_scan", "android": "https://dc.lft.to/lastmile_qr_scan"}, "type": "electric_scooter", "fusion_lat": 0.0, "lon": -77.01876883333334}, {"fusion_lon": 0.0, "bike_id": "61076bc05fb70208cab106db79b6464b", "is_disabled": 0, "is_reserved": 0, "lat": 38.901658166666664, "name": "61076bc05fb70208cab106db79b6464b", "rental_uris": {"ios": "https://dc.lft.to/lastmile_qr_scan", "android": "https://dc.lft.to/lastmile_qr_scan"}, "type": "electric_scooter", "fusion_lat": 0.0, "lon": -77.05131383333334}, {"fusion_lon": 0.0, "bike_id": "a06c9a542067fa969db37cc7d898e47c", "is_disabled": 0, "is_reserved": 0, "lat": 38.88181616666667, "name": "a06c9a542067fa969db37cc7d898e47c", "rental_uris": {"ios": "https://dc.lft.to/lastmile_qr_scan", "android": "https://dc.lft.to/lastmile_qr_scan"}, "type": "electric_scooter", "fusion_lat": 0.0, "lon": -77.01746666666666}, {"fusion_lon": 0.0, "bike_id": "9909dc940104f291448de2008cb55010", "is_disabled": 0, "is_reserved": 0, "lat": 38.966906333333334, "name": "9909dc940104f291448de2008cb55010", "rental_uris": {"ios": "https://dc.lft.to/lastmile_qr_scan", "android": "https://dc.lft.to/lastmile_qr_scan"}, "type": "electric_scooter", "fusion_lat": 0.0, "lon": -77.03399333333333}, {"fusion_lon": 0.0, "bike_id": "b857b54e62294cbb9fd8e396c2e15499", "is_disabled": 0, "is_reserved": 0, "lat": 38.967792833333334, "name": "b857b54e62294cbb9fd8e396c2e15499", "rental_uris": {"ios": "https://dc.lft.to/lastmile_qr_scan", "android": "https://dc.lft.to/lastmile_qr_scan"}, "type": "electric_bike", "fusion_lat": 0.0, "lon": -76.99656033333333}, {"fusion_lon": 0.0, "bike_id": "25bddf30e60912206421f3bcc6729f4a", "is_disabled": 0, "is_reserved": 0, "lat": 38.91107266666667, "name": "25bddf30e60912206421f3bcc6729f4a", "rental_uris": {"ios": "https://dc.lft.to/lastmile_qr_scan", "android": "https://dc.lft.to/lastmile_qr_scan"}, "type": "electric_scooter", "fusion_lat": 0.0, "lon": -77.01154766666667}, {"fusion_lon": 0.0, "bike_id": "fcb7769580b5ab8a2ad4c97950fac982", "is_disabled": 0, "is_reserved": 0, "lat": 38.89971283333333, "name": "fcb7769580b5ab8a2ad4c97950fac982", "rental_uris": {"ios": "https://dc.lft.to/lastmile_qr_scan", "android": "https://dc.lft.to/lastmile_qr_scan"}, "type": "electric_scooter", "fusion_lat": 0.0, "lon": -76.9949775}, {"fusion_lon": 0.0, "bike_id": "08499037ac7200a551ee3fb65909c051", "is_disabled": 0, "is_reserved": 0, "lat": 38.90734716666667, "name": "08499037ac7200a551ee3fb65909c051", "rental_uris": {"ios": "https://dc.lft.to/lastmile_qr_scan", "android": "https://dc.lft.to/lastmile_qr_scan"}, "type": "electric_bike", "fusion_lat": 0.0, "lon": -77.00283233333333}, {"fusion_lon": 0.0, "bike_id": "6b8ab28367d386034fbf4ea317c1be9d", "is_disabled": 0, "is_reserved": 0, "lat": 38.92250266666667, "name": "6b8ab28367d386034fbf4ea317c1be9d", "rental_uris": {"ios": "https://dc.lft.to/lastmile_qr_scan", "android": "https://dc.lft.to/lastmile_qr_scan"}, "type": "electric_scooter", "fusion_lat": 0.0, "lon": -77.019482}, {"fusion_lon": 0.0, "bike_id": "be4d44d155ed32de461a3e8b580c9473", "is_disabled": 0, "is_reserved": 0, "lat": 38.9232265, "name": "be4d44d155ed32de461a3e8b580c9473", "rental_uris": {"ios": "https://dc.lft.to/lastmile_qr_scan", "android": "https://dc.lft.to/lastmile_qr_scan"}, "type": "electric_scooter", "fusion_lat": 0.0, "lon": -77.05604966666667}, {"fusion_lon": 0.0, "bike_id": "92c37a5f492c13008759ac23a9fd5708", "is_disabled": 0, "is_reserved": 0, "lat": 38.93579183333333, "name": "92c37a5f492c13008759ac23a9fd5708", "rental_uris": {"ios": "https://dc.lft.to/lastmile_qr_scan", "android": "https://dc.lft.to/lastmile_qr_scan"}, "type": "electric_bike", "fusion_lat": 0.0, "lon": -77.02124166666667}, {"fusion_lon": 0.0, "bike_id": "d850a3b7563c56f3780ef27a963d6da6", "is_disabled": 0, "is_reserved": 0, "lat": 38.89777183333333, "name": "d850a3b7563c56f3780ef27a963d6da6", "rental_uris": {"ios": "https://dc.lft.to/lastmile_qr_scan", "android": "https://dc.lft.to/lastmile_qr_scan"}, "type": "electric_scooter", "fusion_lat": 0.0, "lon": -77.0117375}, {"fusion_lon": 0.0, "bike_id": "8d89d68e1585fe1489db9dcf85897c75", "is_disabled": 0, "is_reserved": 0, "lat": 38.8955815, "name": "8d89d68e1585fe1489db9dcf85897c75", "rental_uris": {"ios": "https://dc.lft.to/lastmile_qr_scan", "android": "https://dc.lft.to/lastmile_qr_scan"}, "type": "electric_scooter", "fusion_lat": 0.0, "lon": -77.00920333333333}, {"fusion_lon": 0.0, "bike_id": "eb2119f57ccf7ba3b24c220503a16d0e", "is_disabled": 0, "is_reserved": 0, "lat": 38.9678865, "name": "eb2119f57ccf7ba3b24c220503a16d0e", "rental_uris": {"ios": "https://dc.lft.to/lastmile_qr_scan", "android": "https://dc.lft.to/lastmile_qr_scan"}, "type": "electric_scooter", "fusion_lat": 0.0, "lon": -77.02429283333333}, {"fusion_lon": 0.0, "bike_id": "97201b1fed402de622aff1f9fad26327", "is_disabled": 0, "is_reserved": 0, "lat": 38.92172983333333, "name": "97201b1fed402de622aff1f9fad26327", "rental_uris": {"ios": "https://dc.lft.to/lastmile_qr_scan", "android": "https://dc.lft.to/lastmile_qr_scan"}, "type": "electric_scooter", "fusion_lat": 0.0, "lon": -77.0400745}, {"fusion_lon": 0.0, "bike_id": "c4f11d55574f462950c7d836a25b5011", "is_disabled": 0, "is_reserved": 0, "lat": 38.945718, "name": "c4f11d55574f462950c7d836a25b5011", "rental_uris": {"ios": "https://dc.lft.to/lastmile_qr_scan", "android": "https://dc.lft.to/lastmile_qr_scan"}, "type": "electric_bike", "fusion_lat": 0.0, "lon": -76.98111766666666}, {"fusion_lon": 0.0, "bike_id": "a660d48dab9ae1eb54a8b9d16af019a5", "is_disabled": 0, "is_reserved": 0, "lat": 38.91327016666666, "name": "a660d48dab9ae1eb54a8b9d16af019a5", "rental_uris": {"ios": "https://dc.lft.to/lastmile_qr_scan", "android": "https://dc.lft.to/lastmile_qr_scan"}, "type": "electric_scooter", "fusion_lat": 0.0, "lon": -77.04346}, {"fusion_lon": 0.0, "bike_id": "77f25473e4a68652f0d33bc90dcbb510", "is_disabled": 0, "is_reserved": 0, "lat": 38.9150265, "name": "77f25473e4a68652f0d33bc90dcbb510", "rental_uris": {"ios": "https://dc.lft.to/lastmile_qr_scan", "android": "https://dc.lft.to/lastmile_qr_scan"}, "type": "electric_scooter", "fusion_lat": 0.0, "lon": -77.03823583333333}, {"fusion_lon": 0.0, "bike_id": "c0fe672c97ef9e16d237776fd5eec92c", "is_disabled": 0, "is_reserved": 0, "lat": 38.907354166666664, "name": "c0fe672c97ef9e16d237776fd5eec92c", "rental_uris": {"ios": "https://dc.lft.to/lastmile_qr_scan", "android": "https://dc.lft.to/lastmile_qr_scan"}, "type": "electric_scooter", "fusion_lat": 0.0, "lon": -77.0081055}, {"fusion_lon": 0.0, "bike_id": "8b71e5eef2696ababd5cb1e31522cacb", "is_disabled": 0, "is_reserved": 0, "lat": 38.8877245, "name": "8b71e5eef2696ababd5cb1e31522cacb", "rental_uris": {"ios": "https://dc.lft.to/lastmile_qr_scan", "android": "https://dc.lft.to/lastmile_qr_scan"}, "type": "electric_scooter", "fusion_lat": 0.0, "lon": -76.93262683333333}, {"fusion_lon": 0.0, "bike_id": "b2dcb603ae08fcfb98d3f9dc72be3b48", "is_disabled": 0, "is_reserved": 0, "lat": 38.9888605, "name": "b2dcb603ae08fcfb98d3f9dc72be3b48", "rental_uris": {"ios": "https://dc.lft.to/lastmile_qr_scan", "android": "https://dc.lft.to/lastmile_qr_scan"}, "type": "electric_bike", "fusion_lat": 0.0, "lon": -76.98803866666667}, {"fusion_lon": 0.0, "bike_id": "b1232ed2d31bff1047c360310d51b7ab", "is_disabled": 0, "is_reserved": 0, "lat": 38.931894, "name": "b1232ed2d31bff1047c360310d51b7ab", "rental_uris": {"ios": "https://dc.lft.to/lastmile_qr_scan", "android": "https://dc.lft.to/lastmile_qr_scan"}, "type": "electric_scooter", "fusion_lat": 0.0, "lon": -77.0256615}, {"fusion_lon": 0.0, "bike_id": "f54afe8a28b0e4e01e2306bf45a21f34", "is_disabled": 0, "is_reserved": 0, "lat": 38.897158166666664, "name": "f54afe8a28b0e4e01e2306bf45a21f34", "rental_uris": {"ios": "https://dc.lft.to/lastmile_qr_scan", "android": "https://dc.lft.to/lastmile_qr_scan"}, "type": "electric_scooter", "fusion_lat": 0.0, "lon": -77.0079885}, {"fusion_lon": 0.0, "bike_id": "0c2825c5b4b32069a0e08a4acc2242cd", "is_disabled": 0, "is_reserved": 0, "lat": 38.908368, "name": "0c2825c5b4b32069a0e08a4acc2242cd", "rental_uris": {"ios": "https://dc.lft.to/lastmile_qr_scan", "android": "https://dc.lft.to/lastmile_qr_scan"}, "type": "electric_scooter", "fusion_lat": 0.0, "lon": -77.03305883333333}, {"fusion_lon": 0.0, "bike_id": "45f39c39ad410a59b279fff9b9dcbcd9", "is_disabled": 0, "is_reserved": 0, "lat": 38.90035783333333, "name": "45f39c39ad410a59b279fff9b9dcbcd9", "rental_uris": {"ios": "https://dc.lft.to/lastmile_qr_scan", "android": "https://dc.lft.to/lastmile_qr_scan"}, "type": "electric_scooter", "fusion_lat": 0.0, "lon": -77.02007633333334}, {"fusion_lon": 0.0, "bike_id": "7c24d257b6847680f12a71b6da7b8502", "is_disabled": 0, "is_reserved": 0, "lat": 38.94494916666667, "name": "7c24d257b6847680f12a71b6da7b8502", "rental_uris": {"ios": "https://dc.lft.to/lastmile_qr_scan", "android": "https://dc.lft.to/lastmile_qr_scan"}, "type": "electric_scooter", "fusion_lat": 0.0, "lon": -77.02846233333334}, {"fusion_lon": 0.0, "bike_id": "60fec5cc818341d9aa58771b3cad6399", "is_disabled": 0, "is_reserved": 0, "lat": 38.8760855, "name": "60fec5cc818341d9aa58771b3cad6399", "rental_uris": {"ios": "https://dc.lft.to/lastmile_qr_scan", "android": "https://dc.lft.to/lastmile_qr_scan"}, "type": "electric_scooter", "fusion_lat": 0.0, "lon": -77.00677916666666}, {"fusion_lon": 0.0, "bike_id": "3b14fafe0759ce7057245e0023a4fd65", "is_disabled": 0, "is_reserved": 0, "lat": 38.9026265, "name": "3b14fafe0759ce7057245e0023a4fd65", "rental_uris": {"ios": "https://dc.lft.to/lastmile_qr_scan", "android": "https://dc.lft.to/lastmile_qr_scan"}, "type": "electric_scooter", "fusion_lat": 0.0, "lon": -77.0033505}, {"fusion_lon": 0.0, "bike_id": "74c5e74600ea743809eef82170db2d72", "is_disabled": 0, "is_reserved": 0, "lat": 38.852473, "name": "74c5e74600ea743809eef82170db2d72", "rental_uris": {"ios": "https://dc.lft.to/lastmile_qr_scan", "android": "https://dc.lft.to/lastmile_qr_scan"}, "type": "electric_bike", "fusion_lat": 0.0, "lon": -77.11411333333334}, {"fusion_lon": 0.0, "bike_id": "c39efeddc02cee02133f9be3ee2552c5", "is_disabled": 0, "is_reserved": 0, "lat": 38.92701533333333, "name": "c39efeddc02cee02133f9be3ee2552c5", "rental_uris": {"ios": "https://dc.lft.to/lastmile_qr_scan", "android": "https://dc.lft.to/lastmile_qr_scan"}, "type": "electric_scooter", "fusion_lat": 0.0, "lon": -76.99513116666667}, {"fusion_lon": 0.0, "bike_id": "adc6fe6dbcd670957342aa676232e609", "is_disabled": 0, "is_reserved": 0, "lat": 38.91932883333333, "name": "adc6fe6dbcd670957342aa676232e609", "rental_uris": {"ios": "https://dc.lft.to/lastmile_qr_scan", "android": "https://dc.lft.to/lastmile_qr_scan"}, "type": "electric_scooter", "fusion_lat": 0.0, "lon": -77.025014}, {"fusion_lon": 0.0, "bike_id": "47d8f847cb1bae4b0542ae7ebf46c79d", "is_disabled": 0, "is_reserved": 0, "lat": 38.92415416666667, "name": "47d8f847cb1bae4b0542ae7ebf46c79d", "rental_uris": {"ios": "https://dc.lft.to/lastmile_qr_scan", "android": "https://dc.lft.to/lastmile_qr_scan"}, "type": "electric_scooter", "fusion_lat": 0.0, "lon": -77.02132733333333}, {"fusion_lon": 0.0, "bike_id": "feecfadb273422c3939560929ff89bb9", "is_disabled": 0, "is_reserved": 0, "lat": 38.90837, "name": "feecfadb273422c3939560929ff89bb9", "rental_uris": {"ios": "https://dc.lft.to/lastmile_qr_scan", "android": "https://dc.lft.to/lastmile_qr_scan"}, "type": "electric_scooter", "fusion_lat": 0.0, "lon": -76.93477883333334}, {"fusion_lon": 0.0, "bike_id": "519eb4a095021052244950891f82ce89", "is_disabled": 0, "is_reserved": 0, "lat": 38.882767, "name": "519eb4a095021052244950891f82ce89", "rental_uris": {"ios": "https://dc.lft.to/lastmile_qr_scan", "android": "https://dc.lft.to/lastmile_qr_scan"}, "type": "electric_scooter", "fusion_lat": 0.0, "lon": -76.93557516666667}, {"fusion_lon": 0.0, "bike_id": "eee939476c87e8d82c84262a72c79d8c", "is_disabled": 0, "is_reserved": 0, "lat": 38.901523833333336, "name": "eee939476c87e8d82c84262a72c79d8c", "rental_uris": {"ios": "https://dc.lft.to/lastmile_qr_scan", "android": "https://dc.lft.to/lastmile_qr_scan"}, "type": "electric_scooter", "fusion_lat": 0.0, "lon": -77.00254483333333}, {"fusion_lon": 0.0, "bike_id": "a5ae57d09c640105248e8dc1a89ef277", "is_disabled": 0, "is_reserved": 0, "lat": 39.00648733333333, "name": "a5ae57d09c640105248e8dc1a89ef277", "rental_uris": {"ios": "https://dc.lft.to/lastmile_qr_scan", "android": "https://dc.lft.to/lastmile_qr_scan"}, "type": "electric_bike", "fusion_lat": 0.0, "lon": -76.90021066666667}, {"fusion_lon": 0.0, "bike_id": "ae31d7921ae61f30afca583542d21d1b", "is_disabled": 0, "is_reserved": 0, "lat": 38.90533666666666, "name": "ae31d7921ae61f30afca583542d21d1b", "rental_uris": {"ios": "https://dc.lft.to/lastmile_qr_scan", "android": "https://dc.lft.to/lastmile_qr_scan"}, "type": "electric_scooter", "fusion_lat": 0.0, "lon": -77.0171715}, {"fusion_lon": 0.0, "bike_id": "0ba7a44178cfa1f267c4cdcfaad1d876", "is_disabled": 0, "is_reserved": 0, "lat": 38.880092833333336, "name": "0ba7a44178cfa1f267c4cdcfaad1d876", "rental_uris": {"ios": "https://dc.lft.to/lastmile_qr_scan", "android": "https://dc.lft.to/lastmile_qr_scan"}, "type": "electric_scooter", "fusion_lat": 0.0, "lon": -76.99835516666667}, {"fusion_lon": 0.0, "bike_id": "642d47ea1f067e7b41a74c5f31c9b73e", "is_disabled": 0, "is_reserved": 0, "lat": 38.92715316666666, "name": "642d47ea1f067e7b41a74c5f31c9b73e", "rental_uris": {"ios": "https://dc.lft.to/lastmile_qr_scan", "android": "https://dc.lft.to/lastmile_qr_scan"}, "type": "electric_scooter", "fusion_lat": 0.0, "lon": -77.02292466666667}, {"fusion_lon": 0.0, "bike_id": "867fb4bb2812bb359224829546ecb969", "is_disabled": 0, "is_reserved": 0, "lat": 38.89612066666667, "name": "867fb4bb2812bb359224829546ecb969", "rental_uris": {"ios": "https://dc.lft.to/lastmile_qr_scan", "android": "https://dc.lft.to/lastmile_qr_scan"}, "type": "electric_scooter", "fusion_lat": 0.0, "lon": -76.99959066666666}, {"fusion_lon": 0.0, "bike_id": "4761472eb8c8b80ff9b252fac66515e3", "is_disabled": 0, "is_reserved": 0, "lat": 38.90399383333333, "name": "4761472eb8c8b80ff9b252fac66515e3", "rental_uris": {"ios": "https://dc.lft.to/lastmile_qr_scan", "android": "https://dc.lft.to/lastmile_qr_scan"}, "type": "electric_scooter", "fusion_lat": 0.0, "lon": -77.00428633333334}, {"fusion_lon": 0.0, "bike_id": "56303f0c5cb3e8dbfd728f363df0d4f0", "is_disabled": 0, "is_reserved": 0, "lat": 38.91766233333333, "name": "56303f0c5cb3e8dbfd728f363df0d4f0", "rental_uris": {"ios": "https://dc.lft.to/lastmile_qr_scan", "android": "https://dc.lft.to/lastmile_qr_scan"}, "type": "electric_bike", "fusion_lat": 0.0, "lon": -76.88441416666667}, {"fusion_lon": 0.0, "bike_id": "d2a82d93da1aa0ca7816bc8b5c51db81", "is_disabled": 0, "is_reserved": 0, "lat": 38.91816433333334, "name": "d2a82d93da1aa0ca7816bc8b5c51db81", "rental_uris": {"ios": "https://dc.lft.to/lastmile_qr_scan", "android": "https://dc.lft.to/lastmile_qr_scan"}, "type": "electric_scooter", "fusion_lat": 0.0, "lon": -77.02929466666667}, {"fusion_lon": 0.0, "bike_id": "052ea331a96086c178ab16a1033b7990", "is_disabled": 0, "is_reserved": 0, "lat": 38.91704516666667, "name": "052ea331a96086c178ab16a1033b7990", "rental_uris": {"ios": "https://dc.lft.to/lastmile_qr_scan", "android": "https://dc.lft.to/lastmile_qr_scan"}, "type": "electric_scooter", "fusion_lat": 0.0, "lon": -77.01047733333333}, {"fusion_lon": 0.0, "bike_id": "3d40175f2aac7608b715885b9dfce08c", "is_disabled": 0, "is_reserved": 0, "lat": 38.92054816666667, "name": "3d40175f2aac7608b715885b9dfce08c", "rental_uris": {"ios": "https://dc.lft.to/lastmile_qr_scan", "android": "https://dc.lft.to/lastmile_qr_scan"}, "type": "electric_scooter", "fusion_lat": 0.0, "lon": -77.04192866666666}, {"fusion_lon": 0.0, "bike_id": "e8301fcee8e68103a47c2f74d9b104cc", "is_disabled": 0, "is_reserved": 0, "lat": 38.9135145, "name": "e8301fcee8e68103a47c2f74d9b104cc", "rental_uris": {"ios": "https://dc.lft.to/lastmile_qr_scan", "android": "https://dc.lft.to/lastmile_qr_scan"}, "type": "electric_scooter", "fusion_lat": 0.0, "lon": -76.9714095}, {"fusion_lon": 0.0, "bike_id": "0becc90b9ca3671d45d043c36b5e8922", "is_disabled": 0, "is_reserved": 0, "lat": 38.869376833333334, "name": "0becc90b9ca3671d45d043c36b5e8922", "rental_uris": {"ios": "https://dc.lft.to/lastmile_qr_scan", "android": "https://dc.lft.to/lastmile_qr_scan"}, "type": "electric_scooter", "fusion_lat": 0.0, "lon": -76.9774445}, {"fusion_lon": 0.0, "bike_id": "a037f99ae25d668109feb91a7393a0da", "is_disabled": 0, "is_reserved": 0, "lat": 38.90607516666667, "name": "a037f99ae25d668109feb91a7393a0da", "rental_uris": {"ios": "https://dc.lft.to/lastmile_qr_scan", "android": "https://dc.lft.to/lastmile_qr_scan"}, "type": "electric_scooter", "fusion_lat": 0.0, "lon": -77.05648316666667}, {"fusion_lon": 0.0, "bike_id": "46ca56a7aa8a52b2c7c3ce2ace05ff1e", "is_disabled": 0, "is_reserved": 0, "lat": 38.877965333333336, "name": "46ca56a7aa8a52b2c7c3ce2ace05ff1e", "rental_uris": {"ios": "https://dc.lft.to/lastmile_qr_scan", "android": "https://dc.lft.to/lastmile_qr_scan"}, "type": "electric_scooter", "fusion_lat": 0.0, "lon": -77.00131516666667}, {"fusion_lon": 0.0, "bike_id": "e2e8101fe360cd8406c7f35df930aaa3", "is_disabled": 0, "is_reserved": 0, "lat": 38.924618333333335, "name": "e2e8101fe360cd8406c7f35df930aaa3", "rental_uris": {"ios": "https://dc.lft.to/lastmile_qr_scan", "android": "https://dc.lft.to/lastmile_qr_scan"}, "type": "electric_scooter", "fusion_lat": 0.0, "lon": -77.032884}, {"fusion_lon": 0.0, "bike_id": "6b52cbba537fd55e300f19cdc7c2f8d9", "is_disabled": 0, "is_reserved": 0, "lat": 38.914778, "name": "6b52cbba537fd55e300f19cdc7c2f8d9", "rental_uris": {"ios": "https://dc.lft.to/lastmile_qr_scan", "android": "https://dc.lft.to/lastmile_qr_scan"}, "type": "electric_scooter", "fusion_lat": 0.0, "lon": -77.03659716666667}, {"fusion_lon": 0.0, "bike_id": "970837e8c1464e704321a6dd2d32f5f6", "is_disabled": 0, "is_reserved": 0, "lat": 38.911860833333336, "name": "970837e8c1464e704321a6dd2d32f5f6", "rental_uris": {"ios": "https://dc.lft.to/lastmile_qr_scan", "android": "https://dc.lft.to/lastmile_qr_scan"}, "type": "electric_scooter", "fusion_lat": 0.0, "lon": -77.04034733333333}, {"fusion_lon": 0.0, "bike_id": "992ace585c154b0d11a2ec69d3a6a72b", "is_disabled": 0, "is_reserved": 0, "lat": 38.9241075, "name": "992ace585c154b0d11a2ec69d3a6a72b", "rental_uris": {"ios": "https://dc.lft.to/lastmile_qr_scan", "android": "https://dc.lft.to/lastmile_qr_scan"}, "type": "electric_scooter", "fusion_lat": 0.0, "lon": -77.0200605}, {"fusion_lon": 0.0, "bike_id": "cb20b0e80464d5a675dea64e07bb2cc7", "is_disabled": 0, "is_reserved": 0, "lat": 38.89765, "name": "cb20b0e80464d5a675dea64e07bb2cc7", "rental_uris": {"ios": "https://dc.lft.to/lastmile_qr_scan", "android": "https://dc.lft.to/lastmile_qr_scan"}, "type": "electric_scooter", "fusion_lat": 0.0, "lon": -77.02684433333333}, {"fusion_lon": 0.0, "bike_id": "37fd361891006276175a887efa3aa37c", "is_disabled": 0, "is_reserved": 0, "lat": 38.907805333333336, "name": "37fd361891006276175a887efa3aa37c", "rental_uris": {"ios": "https://dc.lft.to/lastmile_qr_scan", "android": "https://dc.lft.to/lastmile_qr_scan"}, "type": "electric_scooter", "fusion_lat": 0.0, "lon": -76.99857566666667}, {"fusion_lon": 0.0, "bike_id": "e585decd28a1e9ea57e3a7bee2a0bc77", "is_disabled": 0, "is_reserved": 0, "lat": 38.93410016666667, "name": "e585decd28a1e9ea57e3a7bee2a0bc77", "rental_uris": {"ios": "https://dc.lft.to/lastmile_qr_scan", "android": "https://dc.lft.to/lastmile_qr_scan"}, "type": "electric_scooter", "fusion_lat": 0.0, "lon": -77.0455135}, {"fusion_lon": 0.0, "bike_id": "52a0c38800d737cd3cadab81625a16c1", "is_disabled": 0, "is_reserved": 0, "lat": 38.921545333333334, "name": "52a0c38800d737cd3cadab81625a16c1", "rental_uris": {"ios": "https://dc.lft.to/lastmile_qr_scan", "android": "https://dc.lft.to/lastmile_qr_scan"}, "type": "electric_scooter", "fusion_lat": 0.0, "lon": -77.0434915}, {"fusion_lon": 0.0, "bike_id": "c24aa3a4b92ae8e1307b2299527de155", "is_disabled": 0, "is_reserved": 0, "lat": 38.914041166666664, "name": "c24aa3a4b92ae8e1307b2299527de155", "rental_uris": {"ios": "https://dc.lft.to/lastmile_qr_scan", "android": "https://dc.lft.to/lastmile_qr_scan"}, "type": "electric_scooter", "fusion_lat": 0.0, "lon": -77.01840283333334}, {"fusion_lon": 0.0, "bike_id": "01d7b60a0c7606fb6457c911c523272a", "is_disabled": 0, "is_reserved": 0, "lat": 38.8972705, "name": "01d7b60a0c7606fb6457c911c523272a", "rental_uris": {"ios": "https://dc.lft.to/lastmile_qr_scan", "android": "https://dc.lft.to/lastmile_qr_scan"}, "type": "electric_scooter", "fusion_lat": 0.0, "lon": -76.97858816666667}, {"fusion_lon": 0.0, "bike_id": "69ac89eff5b906e7eb4916974bdcd3ac", "is_disabled": 0, "is_reserved": 0, "lat": 38.936741833333336, "name": "69ac89eff5b906e7eb4916974bdcd3ac", "rental_uris": {"ios": "https://dc.lft.to/lastmile_qr_scan", "android": "https://dc.lft.to/lastmile_qr_scan"}, "type": "electric_scooter", "fusion_lat": 0.0, "lon": -77.03283183333333}, {"fusion_lon": 0.0, "bike_id": "58f70e52e4bf1e27f7f950e89c2d0411", "is_disabled": 0, "is_reserved": 0, "lat": 38.925510333333335, "name": "58f70e52e4bf1e27f7f950e89c2d0411", "rental_uris": {"ios": "https://dc.lft.to/lastmile_qr_scan", "android": "https://dc.lft.to/lastmile_qr_scan"}, "type": "electric_scooter", "fusion_lat": 0.0, "lon": -77.0417625}, {"fusion_lon": 0.0, "bike_id": "d8999ee60b4b36dafd431dc8d02e4dff", "is_disabled": 0, "is_reserved": 0, "lat": 38.914874833333336, "name": "d8999ee60b4b36dafd431dc8d02e4dff", "rental_uris": {"ios": "https://dc.lft.to/lastmile_qr_scan", "android": "https://dc.lft.to/lastmile_qr_scan"}, "type": "electric_scooter", "fusion_lat": 0.0, "lon": -77.02199133333333}, {"fusion_lon": 0.0, "bike_id": "d83f92b30885216f4c0a0f7660cd89c3", "is_disabled": 0, "is_reserved": 0, "lat": 38.9223335, "name": "d83f92b30885216f4c0a0f7660cd89c3", "rental_uris": {"ios": "https://dc.lft.to/lastmile_qr_scan", "android": "https://dc.lft.to/lastmile_qr_scan"}, "type": "electric_scooter", "fusion_lat": 0.0, "lon": -77.0336165}, {"fusion_lon": 0.0, "bike_id": "c23117f7672f090714291068f2c4a58b", "is_disabled": 0, "is_reserved": 0, "lat": 38.900892, "name": "c23117f7672f090714291068f2c4a58b", "rental_uris": {"ios": "https://dc.lft.to/lastmile_qr_scan", "android": "https://dc.lft.to/lastmile_qr_scan"}, "type": "electric_scooter", "fusion_lat": 0.0, "lon": -77.047818}, {"fusion_lon": 0.0, "bike_id": "756c6958265743885faee03c89578394", "is_disabled": 0, "is_reserved": 0, "lat": 38.90648316666667, "name": "756c6958265743885faee03c89578394", "rental_uris": {"ios": "https://dc.lft.to/lastmile_qr_scan", "android": "https://dc.lft.to/lastmile_qr_scan"}, "type": "electric_scooter", "fusion_lat": 0.0, "lon": -77.01416066666667}, {"fusion_lon": 0.0, "bike_id": "2f60f37163ea9f5286f0e1666cd30b44", "is_disabled": 0, "is_reserved": 0, "lat": 38.90025816666667, "name": "2f60f37163ea9f5286f0e1666cd30b44", "rental_uris": {"ios": "https://dc.lft.to/lastmile_qr_scan", "android": "https://dc.lft.to/lastmile_qr_scan"}, "type": "electric_scooter", "fusion_lat": 0.0, "lon": -76.985955}, {"fusion_lon": 0.0, "bike_id": "86136d9de5f3667ece79b6070bfadc3e", "is_disabled": 0, "is_reserved": 0, "lat": 38.81541966666666, "name": "86136d9de5f3667ece79b6070bfadc3e", "rental_uris": {"ios": "https://dc.lft.to/lastmile_qr_scan", "android": "https://dc.lft.to/lastmile_qr_scan"}, "type": "electric_bike", "fusion_lat": 0.0, "lon": -77.04642516666667}, {"fusion_lon": 0.0, "bike_id": "b71c1f07d5e251f76174c249a3ab7c98", "is_disabled": 0, "is_reserved": 0, "lat": 38.90018883333333, "name": "b71c1f07d5e251f76174c249a3ab7c98", "rental_uris": {"ios": "https://dc.lft.to/lastmile_qr_scan", "android": "https://dc.lft.to/lastmile_qr_scan"}, "type": "electric_scooter", "fusion_lat": 0.0, "lon": -77.04493383333333}, {"fusion_lon": 0.0, "bike_id": "d223c39623c77eba6154a023dbe0f89d", "is_disabled": 0, "is_reserved": 0, "lat": 38.92550416666667, "name": "d223c39623c77eba6154a023dbe0f89d", "rental_uris": {"ios": "https://dc.lft.to/lastmile_qr_scan", "android": "https://dc.lft.to/lastmile_qr_scan"}, "type": "electric_scooter", "fusion_lat": 0.0, "lon": -77.03330666666666}, {"fusion_lon": 0.0, "bike_id": "ac87b0c2d782fc5af2d8bd5c275bbf5f", "is_disabled": 0, "is_reserved": 0, "lat": 38.916199, "name": "ac87b0c2d782fc5af2d8bd5c275bbf5f", "rental_uris": {"ios": "https://dc.lft.to/lastmile_qr_scan", "android": "https://dc.lft.to/lastmile_qr_scan"}, "type": "electric_scooter", "fusion_lat": 0.0, "lon": -77.02804166666667}, {"fusion_lon": 0.0, "bike_id": "fd8a17da782dbd959fc55ffa8f05771a", "is_disabled": 0, "is_reserved": 0, "lat": 38.877912333333335, "name": "fd8a17da782dbd959fc55ffa8f05771a", "rental_uris": {"ios": "https://dc.lft.to/lastmile_qr_scan", "android": "https://dc.lft.to/lastmile_qr_scan"}, "type": "electric_scooter", "fusion_lat": 0.0, "lon": -76.99607566666667}, {"fusion_lon": 0.0, "bike_id": "8e9321a50edf94fd1a8aedfffdd4c5e7", "is_disabled": 0, "is_reserved": 0, "lat": 38.899794666666665, "name": "8e9321a50edf94fd1a8aedfffdd4c5e7", "rental_uris": {"ios": "https://dc.lft.to/lastmile_qr_scan", "android": "https://dc.lft.to/lastmile_qr_scan"}, "type": "electric_scooter", "fusion_lat": 0.0, "lon": -77.04198616666666}, {"fusion_lon": 0.0, "bike_id": "45ae14187f8aa20397224e5fa6e36b85", "is_disabled": 0, "is_reserved": 0, "lat": 38.89445416666667, "name": "45ae14187f8aa20397224e5fa6e36b85", "rental_uris": {"ios": "https://dc.lft.to/lastmile_qr_scan", "android": "https://dc.lft.to/lastmile_qr_scan"}, "type": "electric_scooter", "fusion_lat": 0.0, "lon": -76.9773795}, {"fusion_lon": 0.0, "bike_id": "1d2f903368ab93f3f44cb2bc2f41f5dc", "is_disabled": 0, "is_reserved": 0, "lat": 38.9240565, "name": "1d2f903368ab93f3f44cb2bc2f41f5dc", "rental_uris": {"ios": "https://dc.lft.to/lastmile_qr_scan", "android": "https://dc.lft.to/lastmile_qr_scan"}, "type": "electric_scooter", "fusion_lat": 0.0, "lon": -77.04048733333333}, {"fusion_lon": 0.0, "bike_id": "da700e747085c0485b13e236e5ccdb62", "is_disabled": 0, "is_reserved": 0, "lat": 38.919522666666666, "name": "da700e747085c0485b13e236e5ccdb62", "rental_uris": {"ios": "https://dc.lft.to/lastmile_qr_scan", "android": "https://dc.lft.to/lastmile_qr_scan"}, "type": "electric_scooter", "fusion_lat": 0.0, "lon": -77.02509816666667}, {"fusion_lon": 0.0, "bike_id": "f67a04f416b5c6373c8809c8958c62e3", "is_disabled": 0, "is_reserved": 0, "lat": 38.885365666666665, "name": "f67a04f416b5c6373c8809c8958c62e3", "rental_uris": {"ios": "https://dc.lft.to/lastmile_qr_scan", "android": "https://dc.lft.to/lastmile_qr_scan"}, "type": "electric_scooter", "fusion_lat": 0.0, "lon": -76.95430516666667}, {"fusion_lon": 0.0, "bike_id": "15c4fac190f0b8e9485624b199bede08", "is_disabled": 0, "is_reserved": 0, "lat": 38.8786705, "name": "15c4fac190f0b8e9485624b199bede08", "rental_uris": {"ios": "https://dc.lft.to/lastmile_qr_scan", "android": "https://dc.lft.to/lastmile_qr_scan"}, "type": "electric_scooter", "fusion_lat": 0.0, "lon": -77.00752183333333}, {"fusion_lon": 0.0, "bike_id": "4a81c9f06aa66905f212c5ccc1dd7d01", "is_disabled": 0, "is_reserved": 0, "lat": 38.924643, "name": "4a81c9f06aa66905f212c5ccc1dd7d01", "rental_uris": {"ios": "https://dc.lft.to/lastmile_qr_scan", "android": "https://dc.lft.to/lastmile_qr_scan"}, "type": "electric_scooter", "fusion_lat": 0.0, "lon": -77.02244383333333}, {"fusion_lon": 0.0, "bike_id": "05ac365e499e9771ae05f4264efe8b96", "is_disabled": 0, "is_reserved": 0, "lat": 38.9070595, "name": "05ac365e499e9771ae05f4264efe8b96", "rental_uris": {"ios": "https://dc.lft.to/lastmile_qr_scan", "android": "https://dc.lft.to/lastmile_qr_scan"}, "type": "electric_scooter", "fusion_lat": 0.0, "lon": -77.02806866666667}, {"fusion_lon": 0.0, "bike_id": "954095adca352c6db23f462d8bcc716d", "is_disabled": 0, "is_reserved": 0, "lat": 38.998058666666665, "name": "954095adca352c6db23f462d8bcc716d", "rental_uris": {"ios": "https://dc.lft.to/lastmile_qr_scan", "android": "https://dc.lft.to/lastmile_qr_scan"}, "type": "electric_bike", "fusion_lat": 0.0, "lon": -76.9979495}, {"fusion_lon": 0.0, "bike_id": "9936f45c2482ed28aaace71a6cdd18da", "is_disabled": 0, "is_reserved": 0, "lat": 38.92257216666667, "name": "9936f45c2482ed28aaace71a6cdd18da", "rental_uris": {"ios": "https://dc.lft.to/lastmile_qr_scan", "android": "https://dc.lft.to/lastmile_qr_scan"}, "type": "electric_scooter", "fusion_lat": 0.0, "lon": -77.025493}, {"fusion_lon": 0.0, "bike_id": "371031d9f1659a387533c75706237f55", "is_disabled": 0, "is_reserved": 0, "lat": 38.8562805, "name": "371031d9f1659a387533c75706237f55", "rental_uris": {"ios": "https://dc.lft.to/lastmile_qr_scan", "android": "https://dc.lft.to/lastmile_qr_scan"}, "type": "electric_scooter", "fusion_lat": 0.0, "lon": -76.990739}, {"fusion_lon": 0.0, "bike_id": "5daa4a48f132ff680367eb4c5af65a24", "is_disabled": 0, "is_reserved": 0, "lat": 38.895655833333336, "name": "5daa4a48f132ff680367eb4c5af65a24", "rental_uris": {"ios": "https://dc.lft.to/lastmile_qr_scan", "android": "https://dc.lft.to/lastmile_qr_scan"}, "type": "electric_bike", "fusion_lat": 0.0, "lon": -77.12738166666666}, {"fusion_lon": 0.0, "bike_id": "25795f21e9e72ff388f2360aa06ad9aa", "is_disabled": 0, "is_reserved": 0, "lat": 38.874675833333335, "name": "25795f21e9e72ff388f2360aa06ad9aa", "rental_uris": {"ios": "https://dc.lft.to/lastmile_qr_scan", "android": "https://dc.lft.to/lastmile_qr_scan"}, "type": "electric_scooter", "fusion_lat": 0.0, "lon": -77.0189615}, {"fusion_lon": 0.0, "bike_id": "fbcb5c69a3b09bc12fffc2f66e806e38", "is_disabled": 0, "is_reserved": 0, "lat": 38.90974466666667, "name": "fbcb5c69a3b09bc12fffc2f66e806e38", "rental_uris": {"ios": "https://dc.lft.to/lastmile_qr_scan", "android": "https://dc.lft.to/lastmile_qr_scan"}, "type": "electric_scooter", "fusion_lat": 0.0, "lon": -77.032152}, {"fusion_lon": 0.0, "bike_id": "8e2db99a9838ccd715c627081340268e", "is_disabled": 0, "is_reserved": 0, "lat": 38.892094, "name": "8e2db99a9838ccd715c627081340268e", "rental_uris": {"ios": "https://dc.lft.to/lastmile_qr_scan", "android": "https://dc.lft.to/lastmile_qr_scan"}, "type": "electric_scooter", "fusion_lat": 0.0, "lon": -76.96119816666666}, {"fusion_lon": 0.0, "bike_id": "1ff8fb3900a4b9ed320ea5fade4107a0", "is_disabled": 0, "is_reserved": 0, "lat": 38.927853, "name": "1ff8fb3900a4b9ed320ea5fade4107a0", "rental_uris": {"ios": "https://dc.lft.to/lastmile_qr_scan", "android": "https://dc.lft.to/lastmile_qr_scan"}, "type": "electric_scooter", "fusion_lat": 0.0, "lon": -77.0212095}, {"fusion_lon": 0.0, "bike_id": "fef5c99192835dda1f5a8b30209418b4", "is_disabled": 0, "is_reserved": 0, "lat": 38.918065, "name": "fef5c99192835dda1f5a8b30209418b4", "rental_uris": {"ios": "https://dc.lft.to/lastmile_qr_scan", "android": "https://dc.lft.to/lastmile_qr_scan"}, "type": "electric_scooter", "fusion_lat": 0.0, "lon": -77.0400305}, {"fusion_lon": 0.0, "bike_id": "b7ff5679894fe98d80559730e1cd726e", "is_disabled": 0, "is_reserved": 0, "lat": 38.931222, "name": "b7ff5679894fe98d80559730e1cd726e", "rental_uris": {"ios": "https://dc.lft.to/lastmile_qr_scan", "android": "https://dc.lft.to/lastmile_qr_scan"}, "type": "electric_scooter", "fusion_lat": 0.0, "lon": -77.0204605}, {"fusion_lon": 0.0, "bike_id": "021841916ef5ad29af6e96f5e7a615d1", "is_disabled": 0, "is_reserved": 0, "lat": 38.9219665, "name": "021841916ef5ad29af6e96f5e7a615d1", "rental_uris": {"ios": "https://dc.lft.to/lastmile_qr_scan", "android": "https://dc.lft.to/lastmile_qr_scan"}, "type": "electric_scooter", "fusion_lat": 0.0, "lon": -77.043355}, {"fusion_lon": 0.0, "bike_id": "74e63c3c49cdea484550ca5c9097008b", "is_disabled": 0, "is_reserved": 0, "lat": 38.9357795, "name": "74e63c3c49cdea484550ca5c9097008b", "rental_uris": {"ios": "https://dc.lft.to/lastmile_qr_scan", "android": "https://dc.lft.to/lastmile_qr_scan"}, "type": "electric_scooter", "fusion_lat": 0.0, "lon": -77.02251466666667}, {"fusion_lon": 0.0, "bike_id": "9b5965c0dca389761c0a1047bf11a4fb", "is_disabled": 0, "is_reserved": 0, "lat": 38.947049666666665, "name": "9b5965c0dca389761c0a1047bf11a4fb", "rental_uris": {"ios": "https://dc.lft.to/lastmile_qr_scan", "android": "https://dc.lft.to/lastmile_qr_scan"}, "type": "electric_scooter", "fusion_lat": 0.0, "lon": -77.019403}, {"fusion_lon": 0.0, "bike_id": "7008b7078e02467e1adb86f7b2259ea4", "is_disabled": 0, "is_reserved": 0, "lat": 38.900716333333335, "name": "7008b7078e02467e1adb86f7b2259ea4", "rental_uris": {"ios": "https://dc.lft.to/lastmile_qr_scan", "android": "https://dc.lft.to/lastmile_qr_scan"}, "type": "electric_scooter", "fusion_lat": 0.0, "lon": -77.04740483333333}, {"fusion_lon": 0.0, "bike_id": "07a3c5bc47287066e184d5358bd19435", "is_disabled": 0, "is_reserved": 0, "lat": 38.887720333333334, "name": "07a3c5bc47287066e184d5358bd19435", "rental_uris": {"ios": "https://dc.lft.to/lastmile_qr_scan", "android": "https://dc.lft.to/lastmile_qr_scan"}, "type": "electric_scooter", "fusion_lat": 0.0, "lon": -76.97734433333333}, {"fusion_lon": 0.0, "bike_id": "606c7a66903bbc93e1cdcb14cc501d3a", "is_disabled": 0, "is_reserved": 0, "lat": 38.89918933333333, "name": "606c7a66903bbc93e1cdcb14cc501d3a", "rental_uris": {"ios": "https://dc.lft.to/lastmile_qr_scan", "android": "https://dc.lft.to/lastmile_qr_scan"}, "type": "electric_scooter", "fusion_lat": 0.0, "lon": -76.93380016666667}, {"fusion_lon": 0.0, "bike_id": "60525cacc820a18f7ceb9a897f73533b", "is_disabled": 0, "is_reserved": 0, "lat": 38.90130033333333, "name": "60525cacc820a18f7ceb9a897f73533b", "rental_uris": {"ios": "https://dc.lft.to/lastmile_qr_scan", "android": "https://dc.lft.to/lastmile_qr_scan"}, "type": "electric_scooter", "fusion_lat": 0.0, "lon": -77.04350366666667}, {"fusion_lon": 0.0, "bike_id": "212f6cbf454d8052389e6474f615a947", "is_disabled": 0, "is_reserved": 0, "lat": 38.90387166666667, "name": "212f6cbf454d8052389e6474f615a947", "rental_uris": {"ios": "https://dc.lft.to/lastmile_qr_scan", "android": "https://dc.lft.to/lastmile_qr_scan"}, "type": "electric_scooter", "fusion_lat": 0.0, "lon": -77.061131}, {"fusion_lon": 0.0, "bike_id": "739fd51e1a79c9dffcb906ebf452c895", "is_disabled": 0, "is_reserved": 0, "lat": 38.87169, "name": "739fd51e1a79c9dffcb906ebf452c895", "rental_uris": {"ios": "https://dc.lft.to/lastmile_qr_scan", "android": "https://dc.lft.to/lastmile_qr_scan"}, "type": "electric_scooter", "fusion_lat": 0.0, "lon": -77.0063665}, {"fusion_lon": 0.0, "bike_id": "5e058333b6ca9913976ab75920c6f345", "is_disabled": 0, "is_reserved": 0, "lat": 38.9247515, "name": "5e058333b6ca9913976ab75920c6f345", "rental_uris": {"ios": "https://dc.lft.to/lastmile_qr_scan", "android": "https://dc.lft.to/lastmile_qr_scan"}, "type": "electric_scooter", "fusion_lat": 0.0, "lon": -77.0218795}, {"fusion_lon": 0.0, "bike_id": "7af90920c248ce0421a3e8a34ac8be52", "is_disabled": 0, "is_reserved": 0, "lat": 38.91278883333333, "name": "7af90920c248ce0421a3e8a34ac8be52", "rental_uris": {"ios": "https://dc.lft.to/lastmile_qr_scan", "android": "https://dc.lft.to/lastmile_qr_scan"}, "type": "electric_scooter", "fusion_lat": 0.0, "lon": -77.06803133333334}, {"fusion_lon": 0.0, "bike_id": "25c3dd8987f9b7db14d1536c4965a327", "is_disabled": 0, "is_reserved": 0, "lat": 38.93347716666667, "name": "25c3dd8987f9b7db14d1536c4965a327", "rental_uris": {"ios": "https://dc.lft.to/lastmile_qr_scan", "android": "https://dc.lft.to/lastmile_qr_scan"}, "type": "electric_scooter", "fusion_lat": 0.0, "lon": -77.02748133333333}, {"fusion_lon": 0.0, "bike_id": "9c20b6ceb0ac161952b212674afdfc21", "is_disabled": 0, "is_reserved": 0, "lat": 38.884797666666664, "name": "9c20b6ceb0ac161952b212674afdfc21", "rental_uris": {"ios": "https://dc.lft.to/lastmile_qr_scan", "android": "https://dc.lft.to/lastmile_qr_scan"}, "type": "electric_scooter", "fusion_lat": 0.0, "lon": -77.033426}, {"fusion_lon": 0.0, "bike_id": "fbeaf4312de382e09a856992c4e17bb2", "is_disabled": 0, "is_reserved": 0, "lat": 38.8876935, "name": "fbeaf4312de382e09a856992c4e17bb2", "rental_uris": {"ios": "https://dc.lft.to/lastmile_qr_scan", "android": "https://dc.lft.to/lastmile_qr_scan"}, "type": "electric_scooter", "fusion_lat": 0.0, "lon": -76.977349}, {"fusion_lon": 0.0, "bike_id": "169db6a29ac0c21c9252801fb77db7a0", "is_disabled": 0, "is_reserved": 0, "lat": 38.9126895, "name": "169db6a29ac0c21c9252801fb77db7a0", "rental_uris": {"ios": "https://dc.lft.to/lastmile_qr_scan", "android": "https://dc.lft.to/lastmile_qr_scan"}, "type": "electric_scooter", "fusion_lat": 0.0, "lon": -77.047672}, {"fusion_lon": 0.0, "bike_id": "6b9aed3a0d16c808c155c3ee1a975c0c", "is_disabled": 0, "is_reserved": 0, "lat": 38.9125185, "name": "6b9aed3a0d16c808c155c3ee1a975c0c", "rental_uris": {"ios": "https://dc.lft.to/lastmile_qr_scan", "android": "https://dc.lft.to/lastmile_qr_scan"}, "type": "electric_scooter", "fusion_lat": 0.0, "lon": -77.04768583333333}, {"fusion_lon": 0.0, "bike_id": "04beb1ee78bca95846777dc863fbb13d", "is_disabled": 0, "is_reserved": 0, "lat": 38.921684166666665, "name": "04beb1ee78bca95846777dc863fbb13d", "rental_uris": {"ios": "https://dc.lft.to/lastmile_qr_scan", "android": "https://dc.lft.to/lastmile_qr_scan"}, "type": "electric_scooter", "fusion_lat": 0.0, "lon": -77.031846}, {"fusion_lon": 0.0, "bike_id": "df6722b9beb6bd1f01c24c0da9d380b3", "is_disabled": 0, "is_reserved": 0, "lat": 38.90551416666667, "name": "df6722b9beb6bd1f01c24c0da9d380b3", "rental_uris": {"ios": "https://dc.lft.to/lastmile_qr_scan", "android": "https://dc.lft.to/lastmile_qr_scan"}, "type": "electric_scooter", "fusion_lat": 0.0, "lon": -77.005927}, {"fusion_lon": 0.0, "bike_id": "9750c3496cab1af2b292990ffeada68e", "is_disabled": 0, "is_reserved": 0, "lat": 38.931153, "name": "9750c3496cab1af2b292990ffeada68e", "rental_uris": {"ios": "https://dc.lft.to/lastmile_qr_scan", "android": "https://dc.lft.to/lastmile_qr_scan"}, "type": "electric_scooter", "fusion_lat": 0.0, "lon": -77.0209635}, {"fusion_lon": 0.0, "bike_id": "bf9de9ce683c938b80516d049d0ab237", "is_disabled": 0, "is_reserved": 0, "lat": 38.8991345, "name": "bf9de9ce683c938b80516d049d0ab237", "rental_uris": {"ios": "https://dc.lft.to/lastmile_qr_scan", "android": "https://dc.lft.to/lastmile_qr_scan"}, "type": "electric_scooter", "fusion_lat": 0.0, "lon": -76.9339}, {"fusion_lon": 0.0, "bike_id": "16b9a0502b9b74de5fb5aee215d33bc6", "is_disabled": 0, "is_reserved": 0, "lat": 38.917035166666665, "name": "16b9a0502b9b74de5fb5aee215d33bc6", "rental_uris": {"ios": "https://dc.lft.to/lastmile_qr_scan", "android": "https://dc.lft.to/lastmile_qr_scan"}, "type": "electric_scooter", "fusion_lat": 0.0, "lon": -77.031366}, {"fusion_lon": 0.0, "bike_id": "bb546d9c77a6a7b4071254a496b47ff7", "is_disabled": 0, "is_reserved": 0, "lat": 38.93536233333333, "name": "bb546d9c77a6a7b4071254a496b47ff7", "rental_uris": {"ios": "https://dc.lft.to/lastmile_qr_scan", "android": "https://dc.lft.to/lastmile_qr_scan"}, "type": "electric_scooter", "fusion_lat": 0.0, "lon": -77.02361}, {"fusion_lon": 0.0, "bike_id": "cb0922de3a643016ec1bbd85b64f0f4b", "is_disabled": 0, "is_reserved": 0, "lat": 38.893919, "name": "cb0922de3a643016ec1bbd85b64f0f4b", "rental_uris": {"ios": "https://dc.lft.to/lastmile_qr_scan", "android": "https://dc.lft.to/lastmile_qr_scan"}, "type": "electric_scooter", "fusion_lat": 0.0, "lon": -77.05473866666667}, {"fusion_lon": 0.0, "bike_id": "ba18caef530d028bea1d51dd0585f9ea", "is_disabled": 0, "is_reserved": 0, "lat": 38.88604766666667, "name": "ba18caef530d028bea1d51dd0585f9ea", "rental_uris": {"ios": "https://dc.lft.to/lastmile_qr_scan", "android": "https://dc.lft.to/lastmile_qr_scan"}, "type": "electric_scooter", "fusion_lat": 0.0, "lon": -76.92506416666667}, {"fusion_lon": 0.0, "bike_id": "c6220b37894e6a288b305bfb25c502e5", "is_disabled": 0, "is_reserved": 0, "lat": 38.905547166666665, "name": "c6220b37894e6a288b305bfb25c502e5", "rental_uris": {"ios": "https://dc.lft.to/lastmile_qr_scan", "android": "https://dc.lft.to/lastmile_qr_scan"}, "type": "electric_scooter", "fusion_lat": 0.0, "lon": -77.03458383333333}, {"fusion_lon": 0.0, "bike_id": "7560e501d3de43f362e0a46042ece234", "is_disabled": 0, "is_reserved": 0, "lat": 38.9005465, "name": "7560e501d3de43f362e0a46042ece234", "rental_uris": {"ios": "https://dc.lft.to/lastmile_qr_scan", "android": "https://dc.lft.to/lastmile_qr_scan"}, "type": "electric_scooter", "fusion_lat": 0.0, "lon": -76.993366}, {"fusion_lon": 0.0, "bike_id": "a9931bdc4ad6c87ee8066a240e4ae4fd", "is_disabled": 0, "is_reserved": 0, "lat": 38.9036435, "name": "a9931bdc4ad6c87ee8066a240e4ae4fd", "rental_uris": {"ios": "https://dc.lft.to/lastmile_qr_scan", "android": "https://dc.lft.to/lastmile_qr_scan"}, "type": "electric_scooter", "fusion_lat": 0.0, "lon": -77.0034435}, {"fusion_lon": 0.0, "bike_id": "7fe94ebc3c7f0103c278c0f8461f8d22", "is_disabled": 0, "is_reserved": 0, "lat": 38.900881166666665, "name": "7fe94ebc3c7f0103c278c0f8461f8d22", "rental_uris": {"ios": "https://dc.lft.to/lastmile_qr_scan", "android": "https://dc.lft.to/lastmile_qr_scan"}, "type": "electric_scooter", "fusion_lat": 0.0, "lon": -76.98339366666667}, {"fusion_lon": 0.0, "bike_id": "0a6a15d213abdce317daba6fa7706842", "is_disabled": 0, "is_reserved": 0, "lat": 38.944636, "name": "0a6a15d213abdce317daba6fa7706842", "rental_uris": {"ios": "https://dc.lft.to/lastmile_qr_scan", "android": "https://dc.lft.to/lastmile_qr_scan"}, "type": "electric_scooter", "fusion_lat": 0.0, "lon": -77.0065965}, {"fusion_lon": 0.0, "bike_id": "3844c810e12200d2ae7f15a32d6e154d", "is_disabled": 0, "is_reserved": 0, "lat": 38.915401, "name": "3844c810e12200d2ae7f15a32d6e154d", "rental_uris": {"ios": "https://dc.lft.to/lastmile_qr_scan", "android": "https://dc.lft.to/lastmile_qr_scan"}, "type": "electric_scooter", "fusion_lat": 0.0, "lon": -77.04424283333333}, {"fusion_lon": 0.0, "bike_id": "17cb3477b351618af549748c064c4f52", "is_disabled": 0, "is_reserved": 0, "lat": 38.89563666666667, "name": "17cb3477b351618af549748c064c4f52", "rental_uris": {"ios": "https://dc.lft.to/lastmile_qr_scan", "android": "https://dc.lft.to/lastmile_qr_scan"}, "type": "electric_scooter", "fusion_lat": 0.0, "lon": -76.93058533333334}, {"fusion_lon": 0.0, "bike_id": "f836f02256acb2a298898378e02d45f1", "is_disabled": 0, "is_reserved": 0, "lat": 38.89744483333333, "name": "f836f02256acb2a298898378e02d45f1", "rental_uris": {"ios": "https://dc.lft.to/lastmile_qr_scan", "android": "https://dc.lft.to/lastmile_qr_scan"}, "type": "electric_scooter", "fusion_lat": 0.0, "lon": -77.01037383333333}, {"fusion_lon": 0.0, "bike_id": "c6405a73fb3d52937c5b126a63ead7c8", "is_disabled": 0, "is_reserved": 0, "lat": 38.91921216666667, "name": "c6405a73fb3d52937c5b126a63ead7c8", "rental_uris": {"ios": "https://dc.lft.to/lastmile_qr_scan", "android": "https://dc.lft.to/lastmile_qr_scan"}, "type": "electric_scooter", "fusion_lat": 0.0, "lon": -77.03194116666667}, {"fusion_lon": 0.0, "bike_id": "064ddf75e49b8ed0179b9c0814a729e9", "is_disabled": 0, "is_reserved": 0, "lat": 38.885128, "name": "064ddf75e49b8ed0179b9c0814a729e9", "rental_uris": {"ios": "https://dc.lft.to/lastmile_qr_scan", "android": "https://dc.lft.to/lastmile_qr_scan"}, "type": "electric_scooter", "fusion_lat": 0.0, "lon": -77.00222166666667}, {"fusion_lon": 0.0, "bike_id": "dde7fd9376aba7f17633dc5056196972", "is_disabled": 0, "is_reserved": 0, "lat": 38.9020935, "name": "dde7fd9376aba7f17633dc5056196972", "rental_uris": {"ios": "https://dc.lft.to/lastmile_qr_scan", "android": "https://dc.lft.to/lastmile_qr_scan"}, "type": "electric_scooter", "fusion_lat": 0.0, "lon": -77.05032583333333}, {"fusion_lon": 0.0, "bike_id": "b98c70a72f8d5b74cc89a776555db3bf", "is_disabled": 0, "is_reserved": 0, "lat": 38.9089665, "name": "b98c70a72f8d5b74cc89a776555db3bf", "rental_uris": {"ios": "https://dc.lft.to/lastmile_qr_scan", "android": "https://dc.lft.to/lastmile_qr_scan"}, "type": "electric_scooter", "fusion_lat": 0.0, "lon": -77.03141733333334}, {"fusion_lon": 0.0, "bike_id": "7c5c2b0676ed4644289f9ec83b06aa17", "is_disabled": 0, "is_reserved": 0, "lat": 38.903639166666665, "name": "7c5c2b0676ed4644289f9ec83b06aa17", "rental_uris": {"ios": "https://dc.lft.to/lastmile_qr_scan", "android": "https://dc.lft.to/lastmile_qr_scan"}, "type": "electric_scooter", "fusion_lat": 0.0, "lon": -77.0219475}, {"fusion_lon": 0.0, "bike_id": "a504476178e3fcc6fe51d7b793a09e18", "is_disabled": 0, "is_reserved": 0, "lat": 38.89625866666667, "name": "a504476178e3fcc6fe51d7b793a09e18", "rental_uris": {"ios": "https://dc.lft.to/lastmile_qr_scan", "android": "https://dc.lft.to/lastmile_qr_scan"}, "type": "electric_scooter", "fusion_lat": 0.0, "lon": -77.045043}, {"fusion_lon": 0.0, "bike_id": "e450bdc4e3b6ce52e2e27027fb054f80", "is_disabled": 0, "is_reserved": 0, "lat": 38.9194485, "name": "e450bdc4e3b6ce52e2e27027fb054f80", "rental_uris": {"ios": "https://dc.lft.to/lastmile_qr_scan", "android": "https://dc.lft.to/lastmile_qr_scan"}, "type": "electric_scooter", "fusion_lat": 0.0, "lon": -77.01800766666666}, {"fusion_lon": 0.0, "bike_id": "284f9dd6d3b69b2a0b4a6c69d8138ba1", "is_disabled": 0, "is_reserved": 0, "lat": 38.905667, "name": "284f9dd6d3b69b2a0b4a6c69d8138ba1", "rental_uris": {"ios": "https://dc.lft.to/lastmile_qr_scan", "android": "https://dc.lft.to/lastmile_qr_scan"}, "type": "electric_scooter", "fusion_lat": 0.0, "lon": -77.00585466666666}, {"fusion_lon": 0.0, "bike_id": "72e053e00861a07948856a223999e795", "is_disabled": 0, "is_reserved": 0, "lat": 38.89743083333333, "name": "72e053e00861a07948856a223999e795", "rental_uris": {"ios": "https://dc.lft.to/lastmile_qr_scan", "android": "https://dc.lft.to/lastmile_qr_scan"}, "type": "electric_scooter", "fusion_lat": 0.0, "lon": -77.04865466666666}, {"fusion_lon": 0.0, "bike_id": "480a439e50c45f03f7f81613a83025ef", "is_disabled": 0, "is_reserved": 0, "lat": 38.9349055, "name": "480a439e50c45f03f7f81613a83025ef", "rental_uris": {"ios": "https://dc.lft.to/lastmile_qr_scan", "android": "https://dc.lft.to/lastmile_qr_scan"}, "type": "electric_scooter", "fusion_lat": 0.0, "lon": -77.0328715}, {"fusion_lon": 0.0, "bike_id": "418cd85e91f53f60849dad1729b5e2c0", "is_disabled": 0, "is_reserved": 0, "lat": 38.923687666666666, "name": "418cd85e91f53f60849dad1729b5e2c0", "rental_uris": {"ios": "https://dc.lft.to/lastmile_qr_scan", "android": "https://dc.lft.to/lastmile_qr_scan"}, "type": "electric_scooter", "fusion_lat": 0.0, "lon": -77.01959116666667}, {"fusion_lon": 0.0, "bike_id": "573e18ae247da57733344f6b398a8160", "is_disabled": 0, "is_reserved": 0, "lat": 38.89956166666666, "name": "573e18ae247da57733344f6b398a8160", "rental_uris": {"ios": "https://dc.lft.to/lastmile_qr_scan", "android": "https://dc.lft.to/lastmile_qr_scan"}, "type": "electric_scooter", "fusion_lat": 0.0, "lon": -77.01575083333333}, {"fusion_lon": 0.0, "bike_id": "1bd5e8c37de1452d17915774411eb1ac", "is_disabled": 0, "is_reserved": 0, "lat": 38.91070166666667, "name": "1bd5e8c37de1452d17915774411eb1ac", "rental_uris": {"ios": "https://dc.lft.to/lastmile_qr_scan", "android": "https://dc.lft.to/lastmile_qr_scan"}, "type": "electric_scooter", "fusion_lat": 0.0, "lon": -77.016144}, {"fusion_lon": 0.0, "bike_id": "12965efd50b995725472f1ca922baba7", "is_disabled": 0, "is_reserved": 0, "lat": 38.905084333333335, "name": "12965efd50b995725472f1ca922baba7", "rental_uris": {"ios": "https://dc.lft.to/lastmile_qr_scan", "android": "https://dc.lft.to/lastmile_qr_scan"}, "type": "electric_scooter", "fusion_lat": 0.0, "lon": -76.9848305}, {"fusion_lon": 0.0, "bike_id": "8465ef8ff3151cf7fefb1bc1657a4c4f", "is_disabled": 0, "is_reserved": 0, "lat": 38.8785355, "name": "8465ef8ff3151cf7fefb1bc1657a4c4f", "rental_uris": {"ios": "https://dc.lft.to/lastmile_qr_scan", "android": "https://dc.lft.to/lastmile_qr_scan"}, "type": "electric_scooter", "fusion_lat": 0.0, "lon": -77.00687983333333}, {"fusion_lon": 0.0, "bike_id": "c30f6dfae292310ded75351ada5d8659", "is_disabled": 0, "is_reserved": 0, "lat": 38.9275315, "name": "c30f6dfae292310ded75351ada5d8659", "rental_uris": {"ios": "https://dc.lft.to/lastmile_qr_scan", "android": "https://dc.lft.to/lastmile_qr_scan"}, "type": "electric_scooter", "fusion_lat": 0.0, "lon": -77.0355915}, {"fusion_lon": 0.0, "bike_id": "909919f5a033f27deddd6f02f0978162", "is_disabled": 0, "is_reserved": 0, "lat": 38.91829633333333, "name": "909919f5a033f27deddd6f02f0978162", "rental_uris": {"ios": "https://dc.lft.to/lastmile_qr_scan", "android": "https://dc.lft.to/lastmile_qr_scan"}, "type": "electric_scooter", "fusion_lat": 0.0, "lon": -77.0452425}, {"fusion_lon": 0.0, "bike_id": "10dd809665e2d9d26818dfc2878ca0f2", "is_disabled": 0, "is_reserved": 0, "lat": 38.921017666666664, "name": "10dd809665e2d9d26818dfc2878ca0f2", "rental_uris": {"ios": "https://dc.lft.to/lastmile_qr_scan", "android": "https://dc.lft.to/lastmile_qr_scan"}, "type": "electric_scooter", "fusion_lat": 0.0, "lon": -77.0469785}, {"fusion_lon": 0.0, "bike_id": "b7db676baa1ed6936dd9134dfa45ce77", "is_disabled": 0, "is_reserved": 0, "lat": 38.943738, "name": "b7db676baa1ed6936dd9134dfa45ce77", "rental_uris": {"ios": "https://dc.lft.to/lastmile_qr_scan", "android": "https://dc.lft.to/lastmile_qr_scan"}, "type": "electric_bike", "fusion_lat": 0.0, "lon": -77.06350566666667}, {"fusion_lon": 0.0, "bike_id": "3ad95ccfb2b90946002a8899f7b0c474", "is_disabled": 0, "is_reserved": 0, "lat": 38.90862633333333, "name": "3ad95ccfb2b90946002a8899f7b0c474", "rental_uris": {"ios": "https://dc.lft.to/lastmile_qr_scan", "android": "https://dc.lft.to/lastmile_qr_scan"}, "type": "electric_scooter", "fusion_lat": 0.0, "lon": -76.99957733333333}, {"fusion_lon": 0.0, "bike_id": "c30d58e96b59d88b81d9e4233d3976bf", "is_disabled": 0, "is_reserved": 0, "lat": 38.92618483333333, "name": "c30d58e96b59d88b81d9e4233d3976bf", "rental_uris": {"ios": "https://dc.lft.to/lastmile_qr_scan", "android": "https://dc.lft.to/lastmile_qr_scan"}, "type": "electric_scooter", "fusion_lat": 0.0, "lon": -77.0392775}, {"fusion_lon": 0.0, "bike_id": "d1ff8c9c9342adb9ff2a01a38b30f7e4", "is_disabled": 0, "is_reserved": 0, "lat": 38.92426666666667, "name": "d1ff8c9c9342adb9ff2a01a38b30f7e4", "rental_uris": {"ios": "https://dc.lft.to/lastmile_qr_scan", "android": "https://dc.lft.to/lastmile_qr_scan"}, "type": "electric_scooter", "fusion_lat": 0.0, "lon": -77.04017616666667}, {"fusion_lon": 0.0, "bike_id": "86f08ad3918d3c255aa595fc3342cf73", "is_disabled": 0, "is_reserved": 0, "lat": 38.8934875, "name": "86f08ad3918d3c255aa595fc3342cf73", "rental_uris": {"ios": "https://dc.lft.to/lastmile_qr_scan", "android": "https://dc.lft.to/lastmile_qr_scan"}, "type": "electric_scooter", "fusion_lat": 0.0, "lon": -77.04194383333333}, {"fusion_lon": 0.0, "bike_id": "f35e47e0663e20a79664a3f2a7f03eb7", "is_disabled": 0, "is_reserved": 0, "lat": 38.923181, "name": "f35e47e0663e20a79664a3f2a7f03eb7", "rental_uris": {"ios": "https://dc.lft.to/lastmile_qr_scan", "android": "https://dc.lft.to/lastmile_qr_scan"}, "type": "electric_scooter", "fusion_lat": 0.0, "lon": -77.0437685}, {"fusion_lon": 0.0, "bike_id": "00904f2344856eaf8104224a628f778a", "is_disabled": 0, "is_reserved": 0, "lat": 38.9373705, "name": "00904f2344856eaf8104224a628f778a", "rental_uris": {"ios": "https://dc.lft.to/lastmile_qr_scan", "android": "https://dc.lft.to/lastmile_qr_scan"}, "type": "electric_scooter", "fusion_lat": 0.0, "lon": -77.03258133333334}, {"fusion_lon": 0.0, "bike_id": "87d06b27e2b8c252378633c911530f7f", "is_disabled": 0, "is_reserved": 0, "lat": 38.89427166666667, "name": "87d06b27e2b8c252378633c911530f7f", "rental_uris": {"ios": "https://dc.lft.to/lastmile_qr_scan", "android": "https://dc.lft.to/lastmile_qr_scan"}, "type": "electric_scooter", "fusion_lat": 0.0, "lon": -77.0447255}, {"fusion_lon": 0.0, "bike_id": "b3bcaf957eb3b4f3f1aedbd8efbb2a70", "is_disabled": 0, "is_reserved": 0, "lat": 38.9004275, "name": "b3bcaf957eb3b4f3f1aedbd8efbb2a70", "rental_uris": {"ios": "https://dc.lft.to/lastmile_qr_scan", "android": "https://dc.lft.to/lastmile_qr_scan"}, "type": "electric_scooter", "fusion_lat": 0.0, "lon": -77.00211266666666}, {"fusion_lon": 0.0, "bike_id": "32a94fb5a9a8e5d73f9bcfba07f672ad", "is_disabled": 0, "is_reserved": 0, "lat": 38.9296435, "name": "32a94fb5a9a8e5d73f9bcfba07f672ad", "rental_uris": {"ios": "https://dc.lft.to/lastmile_qr_scan", "android": "https://dc.lft.to/lastmile_qr_scan"}, "type": "electric_scooter", "fusion_lat": 0.0, "lon": -77.03184066666667}, {"fusion_lon": 0.0, "bike_id": "d4cf2064492941e4e72538bfdce065ee", "is_disabled": 0, "is_reserved": 0, "lat": 38.927909, "name": "d4cf2064492941e4e72538bfdce065ee", "rental_uris": {"ios": "https://dc.lft.to/lastmile_qr_scan", "android": "https://dc.lft.to/lastmile_qr_scan"}, "type": "electric_scooter", "fusion_lat": 0.0, "lon": -77.03148166666666}, {"fusion_lon": 0.0, "bike_id": "b251b224d98ff5820a54a92685fb8f6c", "is_disabled": 0, "is_reserved": 0, "lat": 38.898779, "name": "b251b224d98ff5820a54a92685fb8f6c", "rental_uris": {"ios": "https://dc.lft.to/lastmile_qr_scan", "android": "https://dc.lft.to/lastmile_qr_scan"}, "type": "electric_scooter", "fusion_lat": 0.0, "lon": -77.04660333333334}, {"fusion_lon": 0.0, "bike_id": "382a501a8474584c2b33e8b9b2a3f583", "is_disabled": 0, "is_reserved": 0, "lat": 38.9420205, "name": "382a501a8474584c2b33e8b9b2a3f583", "rental_uris": {"ios": "https://dc.lft.to/lastmile_qr_scan", "android": "https://dc.lft.to/lastmile_qr_scan"}, "type": "electric_scooter", "fusion_lat": 0.0, "lon": -77.02857533333334}, {"fusion_lon": 0.0, "bike_id": "6e5404177764eb039ab6b7508b0930f7", "is_disabled": 0, "is_reserved": 0, "lat": 38.9181505, "name": "6e5404177764eb039ab6b7508b0930f7", "rental_uris": {"ios": "https://dc.lft.to/lastmile_qr_scan", "android": "https://dc.lft.to/lastmile_qr_scan"}, "type": "electric_scooter", "fusion_lat": 0.0, "lon": -77.02937633333333}, {"fusion_lon": 0.0, "bike_id": "f565e33436797df3ca3fd7ef2e6c47fc", "is_disabled": 0, "is_reserved": 0, "lat": 38.96727583333333, "name": "f565e33436797df3ca3fd7ef2e6c47fc", "rental_uris": {"ios": "https://dc.lft.to/lastmile_qr_scan", "android": "https://dc.lft.to/lastmile_qr_scan"}, "type": "electric_bike", "fusion_lat": 0.0, "lon": -77.08906266666666}, {"fusion_lon": 0.0, "bike_id": "b88e3bb7d586535fadf96240fbf20919", "is_disabled": 0, "is_reserved": 0, "lat": 38.9369045, "name": "b88e3bb7d586535fadf96240fbf20919", "rental_uris": {"ios": "https://dc.lft.to/lastmile_qr_scan", "android": "https://dc.lft.to/lastmile_qr_scan"}, "type": "electric_scooter", "fusion_lat": 0.0, "lon": -77.06627666666667}, {"fusion_lon": 0.0, "bike_id": "d8bd6d483cf063962e4a6a955feccd42", "is_disabled": 0, "is_reserved": 0, "lat": 38.9203085, "name": "d8bd6d483cf063962e4a6a955feccd42", "rental_uris": {"ios": "https://dc.lft.to/lastmile_qr_scan", "android": "https://dc.lft.to/lastmile_qr_scan"}, "type": "electric_scooter", "fusion_lat": 0.0, "lon": -77.041854}, {"fusion_lon": 0.0, "bike_id": "ef52d6136a2ff18028a144913ef97aa9", "is_disabled": 0, "is_reserved": 0, "lat": 38.887655333333335, "name": "ef52d6136a2ff18028a144913ef97aa9", "rental_uris": {"ios": "https://dc.lft.to/lastmile_qr_scan", "android": "https://dc.lft.to/lastmile_qr_scan"}, "type": "electric_scooter", "fusion_lat": 0.0, "lon": -77.0004615}, {"fusion_lon": 0.0, "bike_id": "3caa12a770d9c949ba2e1382f290f7c3", "is_disabled": 0, "is_reserved": 0, "lat": 38.83580033333333, "name": "3caa12a770d9c949ba2e1382f290f7c3", "rental_uris": {"ios": "https://dc.lft.to/lastmile_qr_scan", "android": "https://dc.lft.to/lastmile_qr_scan"}, "type": "electric_bike", "fusion_lat": 0.0, "lon": -76.99017716666667}, {"fusion_lon": 0.0, "bike_id": "bcedb46742dd5463db013e52cf5fed5f", "is_disabled": 0, "is_reserved": 0, "lat": 38.8958095, "name": "bcedb46742dd5463db013e52cf5fed5f", "rental_uris": {"ios": "https://dc.lft.to/lastmile_qr_scan", "android": "https://dc.lft.to/lastmile_qr_scan"}, "type": "electric_scooter", "fusion_lat": 0.0, "lon": -77.029482}, {"fusion_lon": 0.0, "bike_id": "6c55522290699defa1c0c277258b8a4c", "is_disabled": 0, "is_reserved": 0, "lat": 38.922279333333336, "name": "6c55522290699defa1c0c277258b8a4c", "rental_uris": {"ios": "https://dc.lft.to/lastmile_qr_scan", "android": "https://dc.lft.to/lastmile_qr_scan"}, "type": "electric_scooter", "fusion_lat": 0.0, "lon": -77.028287}, {"fusion_lon": 0.0, "bike_id": "19683ca105f7920424e6a5ad33b0e4a1", "is_disabled": 0, "is_reserved": 0, "lat": 38.882478166666665, "name": "19683ca105f7920424e6a5ad33b0e4a1", "rental_uris": {"ios": "https://dc.lft.to/lastmile_qr_scan", "android": "https://dc.lft.to/lastmile_qr_scan"}, "type": "electric_bike", "fusion_lat": 0.0, "lon": -76.96259333333333}, {"fusion_lon": 0.0, "bike_id": "592cd143455479ae2585669d7522d21d", "is_disabled": 0, "is_reserved": 0, "lat": 38.9145465, "name": "592cd143455479ae2585669d7522d21d", "rental_uris": {"ios": "https://dc.lft.to/lastmile_qr_scan", "android": "https://dc.lft.to/lastmile_qr_scan"}, "type": "electric_bike", "fusion_lat": 0.0, "lon": -76.97235316666666}, {"fusion_lon": 0.0, "bike_id": "bcd041155a99604bd6927563e14811e1", "is_disabled": 0, "is_reserved": 0, "lat": 38.9326095, "name": "bcd041155a99604bd6927563e14811e1", "rental_uris": {"ios": "https://dc.lft.to/lastmile_qr_scan", "android": "https://dc.lft.to/lastmile_qr_scan"}, "type": "electric_scooter", "fusion_lat": 0.0, "lon": -76.98879166666667}, {"fusion_lon": 0.0, "bike_id": "2e5c2a7eb9298d81b77c0a5ce82d5c67", "is_disabled": 0, "is_reserved": 0, "lat": 38.89718933333333, "name": "2e5c2a7eb9298d81b77c0a5ce82d5c67", "rental_uris": {"ios": "https://dc.lft.to/lastmile_qr_scan", "android": "https://dc.lft.to/lastmile_qr_scan"}, "type": "electric_bike", "fusion_lat": 0.0, "lon": -77.0069725}, {"fusion_lon": 0.0, "bike_id": "2a73638f93869dd35757fcef32d004e0", "is_disabled": 0, "is_reserved": 0, "lat": 38.88768266666666, "name": "2a73638f93869dd35757fcef32d004e0", "rental_uris": {"ios": "https://dc.lft.to/lastmile_qr_scan", "android": "https://dc.lft.to/lastmile_qr_scan"}, "type": "electric_scooter", "fusion_lat": 0.0, "lon": -76.9773075}, {"fusion_lon": 0.0, "bike_id": "69825c58be3804a6c53dbb0ed4272914", "is_disabled": 0, "is_reserved": 0, "lat": 38.91755716666667, "name": "69825c58be3804a6c53dbb0ed4272914", "rental_uris": {"ios": "https://dc.lft.to/lastmile_qr_scan", "android": "https://dc.lft.to/lastmile_qr_scan"}, "type": "electric_scooter", "fusion_lat": 0.0, "lon": -77.027912}, {"fusion_lon": 0.0, "bike_id": "1d2058c02e51e4baea6aa9aaf00dc07b", "is_disabled": 0, "is_reserved": 0, "lat": 38.96630583333334, "name": "1d2058c02e51e4baea6aa9aaf00dc07b", "rental_uris": {"ios": "https://dc.lft.to/lastmile_qr_scan", "android": "https://dc.lft.to/lastmile_qr_scan"}, "type": "electric_scooter", "fusion_lat": 0.0, "lon": -77.0274955}, {"fusion_lon": 0.0, "bike_id": "f24a9503d9deb63fe47bc05968448c2d", "is_disabled": 0, "is_reserved": 0, "lat": 38.89790633333333, "name": "f24a9503d9deb63fe47bc05968448c2d", "rental_uris": {"ios": "https://dc.lft.to/lastmile_qr_scan", "android": "https://dc.lft.to/lastmile_qr_scan"}, "type": "electric_scooter", "fusion_lat": 0.0, "lon": -77.0497065}, {"fusion_lon": 0.0, "bike_id": "be57ab1e04a8a1d204f8bd491d724065", "is_disabled": 0, "is_reserved": 0, "lat": 38.9194765, "name": "be57ab1e04a8a1d204f8bd491d724065", "rental_uris": {"ios": "https://dc.lft.to/lastmile_qr_scan", "android": "https://dc.lft.to/lastmile_qr_scan"}, "type": "electric_scooter", "fusion_lat": 0.0, "lon": -77.01393166666666}, {"fusion_lon": 0.0, "bike_id": "0eb187a44e033d792623eee991d919a3", "is_disabled": 0, "is_reserved": 0, "lat": 38.9208195, "name": "0eb187a44e033d792623eee991d919a3", "rental_uris": {"ios": "https://dc.lft.to/lastmile_qr_scan", "android": "https://dc.lft.to/lastmile_qr_scan"}, "type": "electric_scooter", "fusion_lat": 0.0, "lon": -77.03875633333334}, {"fusion_lon": 0.0, "bike_id": "e3282b716dff0a792589385885a73194", "is_disabled": 0, "is_reserved": 0, "lat": 38.909737, "name": "e3282b716dff0a792589385885a73194", "rental_uris": {"ios": "https://dc.lft.to/lastmile_qr_scan", "android": "https://dc.lft.to/lastmile_qr_scan"}, "type": "electric_scooter", "fusion_lat": 0.0, "lon": -77.03216266666666}, {"fusion_lon": 0.0, "bike_id": "0789eeee8275d7b4b77bf95bad9b9469", "is_disabled": 0, "is_reserved": 0, "lat": 38.927106, "name": "0789eeee8275d7b4b77bf95bad9b9469", "rental_uris": {"ios": "https://dc.lft.to/lastmile_qr_scan", "android": "https://dc.lft.to/lastmile_qr_scan"}, "type": "electric_scooter", "fusion_lat": 0.0, "lon": -77.05997966666666}, {"fusion_lon": 0.0, "bike_id": "5cacbb8309865a0cdbc1abcea16a14c8", "is_disabled": 0, "is_reserved": 0, "lat": 38.92534116666667, "name": "5cacbb8309865a0cdbc1abcea16a14c8", "rental_uris": {"ios": "https://dc.lft.to/lastmile_qr_scan", "android": "https://dc.lft.to/lastmile_qr_scan"}, "type": "electric_bike", "fusion_lat": 0.0, "lon": -77.07325333333333}, {"fusion_lon": 0.0, "bike_id": "5e7e4cac117b561cba21f3c2d0647f3b", "is_disabled": 0, "is_reserved": 0, "lat": 38.90396283333333, "name": "5e7e4cac117b561cba21f3c2d0647f3b", "rental_uris": {"ios": "https://dc.lft.to/lastmile_qr_scan", "android": "https://dc.lft.to/lastmile_qr_scan"}, "type": "electric_scooter", "fusion_lat": 0.0, "lon": -77.020433}, {"fusion_lon": 0.0, "bike_id": "b8b02c7affd4f4eee20bd7586e12f9fe", "is_disabled": 0, "is_reserved": 0, "lat": 38.90579966666667, "name": "b8b02c7affd4f4eee20bd7586e12f9fe", "rental_uris": {"ios": "https://dc.lft.to/lastmile_qr_scan", "android": "https://dc.lft.to/lastmile_qr_scan"}, "type": "electric_scooter", "fusion_lat": 0.0, "lon": -77.0345395}, {"fusion_lon": 0.0, "bike_id": "7cea00eded9118c2f3c7e84c5fbbba76", "is_disabled": 0, "is_reserved": 0, "lat": 38.91262833333333, "name": "7cea00eded9118c2f3c7e84c5fbbba76", "rental_uris": {"ios": "https://dc.lft.to/lastmile_qr_scan", "android": "https://dc.lft.to/lastmile_qr_scan"}, "type": "electric_scooter", "fusion_lat": 0.0, "lon": -77.03882533333334}, {"fusion_lon": 0.0, "bike_id": "c1a120dff52f1e4c3301fe99cc5b7862", "is_disabled": 0, "is_reserved": 0, "lat": 38.856463166666664, "name": "c1a120dff52f1e4c3301fe99cc5b7862", "rental_uris": {"ios": "https://dc.lft.to/lastmile_qr_scan", "android": "https://dc.lft.to/lastmile_qr_scan"}, "type": "electric_bike", "fusion_lat": 0.0, "lon": -77.08525783333333}, {"fusion_lon": 0.0, "bike_id": "43a82df2c6ddca38954f86dca033f79e", "is_disabled": 0, "is_reserved": 0, "lat": 38.871502166666666, "name": "43a82df2c6ddca38954f86dca033f79e", "rental_uris": {"ios": "https://dc.lft.to/lastmile_qr_scan", "android": "https://dc.lft.to/lastmile_qr_scan"}, "type": "electric_scooter", "fusion_lat": 0.0, "lon": -77.0058035}, {"fusion_lon": 0.0, "bike_id": "be8f148d8646a250e8218708b50a37f8", "is_disabled": 0, "is_reserved": 0, "lat": 38.953555333333334, "name": "be8f148d8646a250e8218708b50a37f8", "rental_uris": {"ios": "https://dc.lft.to/lastmile_qr_scan", "android": "https://dc.lft.to/lastmile_qr_scan"}, "type": "electric_bike", "fusion_lat": 0.0, "lon": -76.98091816666667}, {"fusion_lon": 0.0, "bike_id": "22035af59c3395fed347a7e1e35cf7ba", "is_disabled": 0, "is_reserved": 0, "lat": 38.92117966666667, "name": "22035af59c3395fed347a7e1e35cf7ba", "rental_uris": {"ios": "https://dc.lft.to/lastmile_qr_scan", "android": "https://dc.lft.to/lastmile_qr_scan"}, "type": "electric_scooter", "fusion_lat": 0.0, "lon": -77.036638}, {"fusion_lon": 0.0, "bike_id": "be124891e7e1af87271f4234043a7b08", "is_disabled": 0, "is_reserved": 0, "lat": 38.908639, "name": "be124891e7e1af87271f4234043a7b08", "rental_uris": {"ios": "https://dc.lft.to/lastmile_qr_scan", "android": "https://dc.lft.to/lastmile_qr_scan"}, "type": "electric_scooter", "fusion_lat": 0.0, "lon": -77.0183695}, {"fusion_lon": 0.0, "bike_id": "1fa8da030f6a45b44b7090906e1ada47", "is_disabled": 0, "is_reserved": 0, "lat": 38.89491116666667, "name": "1fa8da030f6a45b44b7090906e1ada47", "rental_uris": {"ios": "https://dc.lft.to/lastmile_qr_scan", "android": "https://dc.lft.to/lastmile_qr_scan"}, "type": "electric_scooter", "fusion_lat": 0.0, "lon": -77.05510566666666}, {"fusion_lon": 0.0, "bike_id": "192e2f9194a77caa4850aa5e95f2b4d3", "is_disabled": 0, "is_reserved": 0, "lat": 38.8924325, "name": "192e2f9194a77caa4850aa5e95f2b4d3", "rental_uris": {"ios": "https://dc.lft.to/lastmile_qr_scan", "android": "https://dc.lft.to/lastmile_qr_scan"}, "type": "electric_scooter", "fusion_lat": 0.0, "lon": -77.03180566666667}, {"fusion_lon": 0.0, "bike_id": "d3381bd62d005fcf98ac42b684949a09", "is_disabled": 0, "is_reserved": 0, "lat": 38.8916335, "name": "d3381bd62d005fcf98ac42b684949a09", "rental_uris": {"ios": "https://dc.lft.to/lastmile_qr_scan", "android": "https://dc.lft.to/lastmile_qr_scan"}, "type": "electric_scooter", "fusion_lat": 0.0, "lon": -76.99153533333333}, {"fusion_lon": 0.0, "bike_id": "a0ac98020f928ead35fce1f7c9a7bd30", "is_disabled": 0, "is_reserved": 0, "lat": 38.92011083333333, "name": "a0ac98020f928ead35fce1f7c9a7bd30", "rental_uris": {"ios": "https://dc.lft.to/lastmile_qr_scan", "android": "https://dc.lft.to/lastmile_qr_scan"}, "type": "electric_scooter", "fusion_lat": 0.0, "lon": -77.0216805}, {"fusion_lon": 0.0, "bike_id": "937fd5e81a8d211daf5f7d2320d607b2", "is_disabled": 0, "is_reserved": 0, "lat": 38.918802166666666, "name": "937fd5e81a8d211daf5f7d2320d607b2", "rental_uris": {"ios": "https://dc.lft.to/lastmile_qr_scan", "android": "https://dc.lft.to/lastmile_qr_scan"}, "type": "electric_bike", "fusion_lat": 0.0, "lon": -77.01638133333333}, {"fusion_lon": 0.0, "bike_id": "27839ab71b9ee41a9fe5049908a931c9", "is_disabled": 0, "is_reserved": 0, "lat": 38.900704833333336, "name": "27839ab71b9ee41a9fe5049908a931c9", "rental_uris": {"ios": "https://dc.lft.to/lastmile_qr_scan", "android": "https://dc.lft.to/lastmile_qr_scan"}, "type": "electric_scooter", "fusion_lat": 0.0, "lon": -77.04587433333333}, {"fusion_lon": 0.0, "bike_id": "1a0b8bd7b443e577a643877139fc62ad", "is_disabled": 0, "is_reserved": 0, "lat": 38.917157, "name": "1a0b8bd7b443e577a643877139fc62ad", "rental_uris": {"ios": "https://dc.lft.to/lastmile_qr_scan", "android": "https://dc.lft.to/lastmile_qr_scan"}, "type": "electric_scooter", "fusion_lat": 0.0, "lon": -77.09200733333333}, {"fusion_lon": 0.0, "bike_id": "d88dc92ff9084ed5d25bc5514e08bbde", "is_disabled": 0, "is_reserved": 0, "lat": 38.88188433333333, "name": "d88dc92ff9084ed5d25bc5514e08bbde", "rental_uris": {"ios": "https://dc.lft.to/lastmile_qr_scan", "android": "https://dc.lft.to/lastmile_qr_scan"}, "type": "electric_scooter", "fusion_lat": 0.0, "lon": -77.02093716666667}, {"fusion_lon": 0.0, "bike_id": "69a3814f30be76ce41d80c8ca2906bed", "is_disabled": 0, "is_reserved": 0, "lat": 38.92246083333333, "name": "69a3814f30be76ce41d80c8ca2906bed", "rental_uris": {"ios": "https://dc.lft.to/lastmile_qr_scan", "android": "https://dc.lft.to/lastmile_qr_scan"}, "type": "electric_scooter", "fusion_lat": 0.0, "lon": -77.00831016666666}, {"fusion_lon": 0.0, "bike_id": "09d726a59fb59b3ba019438a9f5a2af8", "is_disabled": 0, "is_reserved": 0, "lat": 38.8814645, "name": "09d726a59fb59b3ba019438a9f5a2af8", "rental_uris": {"ios": "https://dc.lft.to/lastmile_qr_scan", "android": "https://dc.lft.to/lastmile_qr_scan"}, "type": "electric_bike", "fusion_lat": 0.0, "lon": -77.01305266666667}, {"fusion_lon": 0.0, "bike_id": "f12eec86cd55410516f217bc2a085b3a", "is_disabled": 0, "is_reserved": 0, "lat": 38.902898666666665, "name": "f12eec86cd55410516f217bc2a085b3a", "rental_uris": {"ios": "https://dc.lft.to/lastmile_qr_scan", "android": "https://dc.lft.to/lastmile_qr_scan"}, "type": "electric_scooter", "fusion_lat": 0.0, "lon": -77.04668583333333}, {"fusion_lon": 0.0, "bike_id": "3544bf4528f1acf2fd9fa26fad687540", "is_disabled": 0, "is_reserved": 0, "lat": 38.91541566666667, "name": "3544bf4528f1acf2fd9fa26fad687540", "rental_uris": {"ios": "https://dc.lft.to/lastmile_qr_scan", "android": "https://dc.lft.to/lastmile_qr_scan"}, "type": "electric_scooter", "fusion_lat": 0.0, "lon": -77.04422033333333}, {"fusion_lon": 0.0, "bike_id": "0c713db45efce10345aea44b72b1a840", "is_disabled": 0, "is_reserved": 0, "lat": 38.93209366666667, "name": "0c713db45efce10345aea44b72b1a840", "rental_uris": {"ios": "https://dc.lft.to/lastmile_qr_scan", "android": "https://dc.lft.to/lastmile_qr_scan"}, "type": "electric_scooter", "fusion_lat": 0.0, "lon": -77.018788}, {"fusion_lon": 0.0, "bike_id": "515ebba6a079a0ecd922ea0b2bcebb89", "is_disabled": 0, "is_reserved": 0, "lat": 38.89028416666667, "name": "515ebba6a079a0ecd922ea0b2bcebb89", "rental_uris": {"ios": "https://dc.lft.to/lastmile_qr_scan", "android": "https://dc.lft.to/lastmile_qr_scan"}, "type": "electric_scooter", "fusion_lat": 0.0, "lon": -76.94467916666666}, {"fusion_lon": 0.0, "bike_id": "f23824d5bea858ba305ee82ab25a0f41", "is_disabled": 0, "is_reserved": 0, "lat": 38.90215883333333, "name": "f23824d5bea858ba305ee82ab25a0f41", "rental_uris": {"ios": "https://dc.lft.to/lastmile_qr_scan", "android": "https://dc.lft.to/lastmile_qr_scan"}, "type": "electric_scooter", "fusion_lat": 0.0, "lon": -77.04821766666667}, {"fusion_lon": 0.0, "bike_id": "efd1d791120e65c03e5ec3fa0e6d54ed", "is_disabled": 0, "is_reserved": 0, "lat": 38.91677766666667, "name": "efd1d791120e65c03e5ec3fa0e6d54ed", "rental_uris": {"ios": "https://dc.lft.to/lastmile_qr_scan", "android": "https://dc.lft.to/lastmile_qr_scan"}, "type": "electric_scooter", "fusion_lat": 0.0, "lon": -77.02614316666667}, {"fusion_lon": 0.0, "bike_id": "112d6d5f96d560faed5583ecf0942030", "is_disabled": 0, "is_reserved": 0, "lat": 38.92612783333333, "name": "112d6d5f96d560faed5583ecf0942030", "rental_uris": {"ios": "https://dc.lft.to/lastmile_qr_scan", "android": "https://dc.lft.to/lastmile_qr_scan"}, "type": "electric_scooter", "fusion_lat": 0.0, "lon": -77.02158183333333}, {"fusion_lon": 0.0, "bike_id": "8f7527acafad37d4a0dd334d11a12d68", "is_disabled": 0, "is_reserved": 0, "lat": 38.91468283333333, "name": "8f7527acafad37d4a0dd334d11a12d68", "rental_uris": {"ios": "https://dc.lft.to/lastmile_qr_scan", "android": "https://dc.lft.to/lastmile_qr_scan"}, "type": "electric_scooter", "fusion_lat": 0.0, "lon": -77.00210433333334}, {"fusion_lon": 0.0, "bike_id": "ad00493e2514666759562de55f3785c6", "is_disabled": 0, "is_reserved": 0, "lat": 38.915721, "name": "ad00493e2514666759562de55f3785c6", "rental_uris": {"ios": "https://dc.lft.to/lastmile_qr_scan", "android": "https://dc.lft.to/lastmile_qr_scan"}, "type": "electric_scooter", "fusion_lat": 0.0, "lon": -77.01992766666666}, {"fusion_lon": 0.0, "bike_id": "e19a80513268f1c2cb83a299e09e2bee", "is_disabled": 0, "is_reserved": 0, "lat": 38.91339283333333, "name": "e19a80513268f1c2cb83a299e09e2bee", "rental_uris": {"ios": "https://dc.lft.to/lastmile_qr_scan", "android": "https://dc.lft.to/lastmile_qr_scan"}, "type": "electric_scooter", "fusion_lat": 0.0, "lon": -77.00332833333333}, {"fusion_lon": 0.0, "bike_id": "a049ba908f4950b2d13e4c9e7732baf3", "is_disabled": 0, "is_reserved": 0, "lat": 38.8996845, "name": "a049ba908f4950b2d13e4c9e7732baf3", "rental_uris": {"ios": "https://dc.lft.to/lastmile_qr_scan", "android": "https://dc.lft.to/lastmile_qr_scan"}, "type": "electric_scooter", "fusion_lat": 0.0, "lon": -77.026073}, {"fusion_lon": 0.0, "bike_id": "ea025f4daf0f061f4ead929008c91973", "is_disabled": 0, "is_reserved": 0, "lat": 38.81939883333333, "name": "ea025f4daf0f061f4ead929008c91973", "rental_uris": {"ios": "https://dc.lft.to/lastmile_qr_scan", "android": "https://dc.lft.to/lastmile_qr_scan"}, "type": "electric_bike", "fusion_lat": 0.0, "lon": -77.002035}, {"fusion_lon": 0.0, "bike_id": "c473abb5bf529e894fd62535577dbb29", "is_disabled": 0, "is_reserved": 0, "lat": 38.90391483333333, "name": "c473abb5bf529e894fd62535577dbb29", "rental_uris": {"ios": "https://dc.lft.to/lastmile_qr_scan", "android": "https://dc.lft.to/lastmile_qr_scan"}, "type": "electric_scooter", "fusion_lat": 0.0, "lon": -77.0482705}, {"fusion_lon": 0.0, "bike_id": "6e350714a89f4dfb1717d152aa6b747f", "is_disabled": 0, "is_reserved": 0, "lat": 38.904867, "name": "6e350714a89f4dfb1717d152aa6b747f", "rental_uris": {"ios": "https://dc.lft.to/lastmile_qr_scan", "android": "https://dc.lft.to/lastmile_qr_scan"}, "type": "electric_scooter", "fusion_lat": 0.0, "lon": -77.0602465}, {"fusion_lon": 0.0, "bike_id": "845d676ef6788258d71a30c87c333d11", "is_disabled": 0, "is_reserved": 0, "lat": 38.91191966666667, "name": "845d676ef6788258d71a30c87c333d11", "rental_uris": {"ios": "https://dc.lft.to/lastmile_qr_scan", "android": "https://dc.lft.to/lastmile_qr_scan"}, "type": "electric_scooter", "fusion_lat": 0.0, "lon": -77.00784633333333}, {"fusion_lon": 0.0, "bike_id": "064852d49050f5f2756f896e3ab0a8bc", "is_disabled": 0, "is_reserved": 0, "lat": 38.9248675, "name": "064852d49050f5f2756f896e3ab0a8bc", "rental_uris": {"ios": "https://dc.lft.to/lastmile_qr_scan", "android": "https://dc.lft.to/lastmile_qr_scan"}, "type": "electric_scooter", "fusion_lat": 0.0, "lon": -77.03499733333334}, {"fusion_lon": 0.0, "bike_id": "b3b14b5e07c196966935ff1730231f41", "is_disabled": 0, "is_reserved": 0, "lat": 38.91589416666667, "name": "b3b14b5e07c196966935ff1730231f41", "rental_uris": {"ios": "https://dc.lft.to/lastmile_qr_scan", "android": "https://dc.lft.to/lastmile_qr_scan"}, "type": "electric_scooter", "fusion_lat": 0.0, "lon": -77.01134266666666}, {"fusion_lon": 0.0, "bike_id": "c95e8ecea48e9ef568e401bd85f1c19f", "is_disabled": 0, "is_reserved": 0, "lat": 38.89881333333334, "name": "c95e8ecea48e9ef568e401bd85f1c19f", "rental_uris": {"ios": "https://dc.lft.to/lastmile_qr_scan", "android": "https://dc.lft.to/lastmile_qr_scan"}, "type": "electric_scooter", "fusion_lat": 0.0, "lon": -77.0259715}, {"fusion_lon": 0.0, "bike_id": "9014f849d24511ddf3817ffff31ed9e3", "is_disabled": 0, "is_reserved": 0, "lat": 38.928257333333335, "name": "9014f849d24511ddf3817ffff31ed9e3", "rental_uris": {"ios": "https://dc.lft.to/lastmile_qr_scan", "android": "https://dc.lft.to/lastmile_qr_scan"}, "type": "electric_scooter", "fusion_lat": 0.0, "lon": -77.02161383333333}, {"fusion_lon": 0.0, "bike_id": "f9c19aa5af1a1a3df28e376b1f2b1461", "is_disabled": 0, "is_reserved": 0, "lat": 38.94201616666667, "name": "f9c19aa5af1a1a3df28e376b1f2b1461", "rental_uris": {"ios": "https://dc.lft.to/lastmile_qr_scan", "android": "https://dc.lft.to/lastmile_qr_scan"}, "type": "electric_scooter", "fusion_lat": 0.0, "lon": -77.02505216666667}, {"fusion_lon": 0.0, "bike_id": "5f55e113c758196f2fee8875946376e2", "is_disabled": 0, "is_reserved": 0, "lat": 38.92729583333333, "name": "5f55e113c758196f2fee8875946376e2", "rental_uris": {"ios": "https://dc.lft.to/lastmile_qr_scan", "android": "https://dc.lft.to/lastmile_qr_scan"}, "type": "electric_scooter", "fusion_lat": 0.0, "lon": -77.02282083333333}, {"fusion_lon": 0.0, "bike_id": "204d8baa29a47656786b5d45941324a0", "is_disabled": 0, "is_reserved": 0, "lat": 38.939677, "name": "204d8baa29a47656786b5d45941324a0", "rental_uris": {"ios": "https://dc.lft.to/lastmile_qr_scan", "android": "https://dc.lft.to/lastmile_qr_scan"}, "type": "electric_scooter", "fusion_lat": 0.0, "lon": -77.02942466666667}, {"fusion_lon": 0.0, "bike_id": "dfe0ca42864632a77beae0ea1f2b0f33", "is_disabled": 0, "is_reserved": 0, "lat": 38.909754, "name": "dfe0ca42864632a77beae0ea1f2b0f33", "rental_uris": {"ios": "https://dc.lft.to/lastmile_qr_scan", "android": "https://dc.lft.to/lastmile_qr_scan"}, "type": "electric_scooter", "fusion_lat": 0.0, "lon": -77.04880383333334}, {"fusion_lon": 0.0, "bike_id": "65945a396cc7d566c5c957379a85a63d", "is_disabled": 0, "is_reserved": 0, "lat": 38.8861245, "name": "65945a396cc7d566c5c957379a85a63d", "rental_uris": {"ios": "https://dc.lft.to/lastmile_qr_scan", "android": "https://dc.lft.to/lastmile_qr_scan"}, "type": "electric_scooter", "fusion_lat": 0.0, "lon": -77.02193833333334}, {"fusion_lon": 0.0, "bike_id": "08e03f843a6e0420a12a16bb9aba1de5", "is_disabled": 0, "is_reserved": 0, "lat": 38.899495333333334, "name": "08e03f843a6e0420a12a16bb9aba1de5", "rental_uris": {"ios": "https://dc.lft.to/lastmile_qr_scan", "android": "https://dc.lft.to/lastmile_qr_scan"}, "type": "electric_scooter", "fusion_lat": 0.0, "lon": -77.02644316666667}, {"fusion_lon": 0.0, "bike_id": "896529351ce63ccfd0e5045bf8369663", "is_disabled": 0, "is_reserved": 0, "lat": 38.93964166666667, "name": "896529351ce63ccfd0e5045bf8369663", "rental_uris": {"ios": "https://dc.lft.to/lastmile_qr_scan", "android": "https://dc.lft.to/lastmile_qr_scan"}, "type": "electric_bike", "fusion_lat": 0.0, "lon": -76.99129033333334}, {"fusion_lon": 0.0, "bike_id": "d32ac4dbda216a15caf427436ceffa8f", "is_disabled": 0, "is_reserved": 0, "lat": 38.92411, "name": "d32ac4dbda216a15caf427436ceffa8f", "rental_uris": {"ios": "https://dc.lft.to/lastmile_qr_scan", "android": "https://dc.lft.to/lastmile_qr_scan"}, "type": "electric_scooter", "fusion_lat": 0.0, "lon": -77.02136383333334}, {"fusion_lon": 0.0, "bike_id": "9eb1c90383cbd7f0b488aa23d2774402", "is_disabled": 0, "is_reserved": 0, "lat": 38.926513666666665, "name": "9eb1c90383cbd7f0b488aa23d2774402", "rental_uris": {"ios": "https://dc.lft.to/lastmile_qr_scan", "android": "https://dc.lft.to/lastmile_qr_scan"}, "type": "electric_scooter", "fusion_lat": 0.0, "lon": -77.03847}, {"fusion_lon": 0.0, "bike_id": "1d40d88a3e6be56c1ec9f09990124dd8", "is_disabled": 0, "is_reserved": 0, "lat": 38.8981825, "name": "1d40d88a3e6be56c1ec9f09990124dd8", "rental_uris": {"ios": "https://dc.lft.to/lastmile_qr_scan", "android": "https://dc.lft.to/lastmile_qr_scan"}, "type": "electric_scooter", "fusion_lat": 0.0, "lon": -77.012646}, {"fusion_lon": 0.0, "bike_id": "0791b0442cc4bc50ba6a497434140e3c", "is_disabled": 0, "is_reserved": 0, "lat": 38.919920833333336, "name": "0791b0442cc4bc50ba6a497434140e3c", "rental_uris": {"ios": "https://dc.lft.to/lastmile_qr_scan", "android": "https://dc.lft.to/lastmile_qr_scan"}, "type": "electric_scooter", "fusion_lat": 0.0, "lon": -77.03249866666667}, {"fusion_lon": 0.0, "bike_id": "f63aa02d2146633f3160e9f3a776be24", "is_disabled": 0, "is_reserved": 0, "lat": 38.90360183333333, "name": "f63aa02d2146633f3160e9f3a776be24", "rental_uris": {"ios": "https://dc.lft.to/lastmile_qr_scan", "android": "https://dc.lft.to/lastmile_qr_scan"}, "type": "electric_scooter", "fusion_lat": 0.0, "lon": -77.0601195}, {"fusion_lon": 0.0, "bike_id": "619881f7182b776fd83110173da4b62e", "is_disabled": 0, "is_reserved": 0, "lat": 38.932072, "name": "619881f7182b776fd83110173da4b62e", "rental_uris": {"ios": "https://dc.lft.to/lastmile_qr_scan", "android": "https://dc.lft.to/lastmile_qr_scan"}, "type": "electric_bike", "fusion_lat": 0.0, "lon": -76.9742415}, {"fusion_lon": 0.0, "bike_id": "e04f6b76b9018a4fd92c49add9147718", "is_disabled": 0, "is_reserved": 0, "lat": 38.90059383333333, "name": "e04f6b76b9018a4fd92c49add9147718", "rental_uris": {"ios": "https://dc.lft.to/lastmile_qr_scan", "android": "https://dc.lft.to/lastmile_qr_scan"}, "type": "electric_scooter", "fusion_lat": 0.0, "lon": -76.98707716666667}, {"fusion_lon": 0.0, "bike_id": "7424fe3efb0aa07eec829174edcdb9ff", "is_disabled": 0, "is_reserved": 0, "lat": 38.924633166666666, "name": "7424fe3efb0aa07eec829174edcdb9ff", "rental_uris": {"ios": "https://dc.lft.to/lastmile_qr_scan", "android": "https://dc.lft.to/lastmile_qr_scan"}, "type": "electric_scooter", "fusion_lat": 0.0, "lon": -77.02245383333333}, {"fusion_lon": 0.0, "bike_id": "e45cfedeb7b98c9803d88b3088660810", "is_disabled": 0, "is_reserved": 0, "lat": 38.89397, "name": "e45cfedeb7b98c9803d88b3088660810", "rental_uris": {"ios": "https://dc.lft.to/lastmile_qr_scan", "android": "https://dc.lft.to/lastmile_qr_scan"},