{"data": {"bikes": [{"fusion_lat": 0.0, "name": "96647f775522845b094cb9e7c02ce350", "lon": -76.9736075, "rental_uris": {"android": "https://dc.lft.to/lastmile_qr_scan", "ios": "https://dc.lft.to/lastmile_qr_scan"}, "fusion_lon": 0.0, "bike_id": "96647f775522845b094cb9e7c02ce350", "is_disabled": 0, "lat": 38.963119166666665, "is_reserved": 0, "type": "electric_bike"}, {"fusion_lat": 0.0, "name": "5d4d5b63ff3e9014f035c78976c263f6", "lon": -77.03289516666666, "rental_uris": {"android": "https://dc.lft.to/lastmile_qr_scan", "ios": "https://dc.lft.to/lastmile_qr_scan"}, "fusion_lon": 0.0, "bike_id": "5d4d5b63ff3e9014f035c78976c263f6", "is_disabled": 0, "lat": 38.9205405, "is_reserved": 0, "type": "electric_scooter"}, {"fusion_lat": 0.0, "name": "9db3435690974cc7f94899cdc94cce2d", "lon": -76.94571916666666, "rental_uris": {"android": "https://dc.lft.to/lastmile_qr_scan", "ios": "https://dc.lft.to/lastmile_qr_scan"}, "fusion_lon": 0.0, "bike_id": "9db3435690974cc7f94899cdc94cce2d", "is_disabled": 0, "lat": 38.86614383333333, "is_reserved": 0, "type": "electric_bike"}, {"fusion_lat": 0.0, "name": "8945a0cf202f3c5724cf45626ff5c642", "lon": -77.04107733333333, "rental_uris": {"android": "https://dc.lft.to/lastmile_qr_scan", "ios": "https://dc.lft.to/lastmile_qr_scan"}, "fusion_lon": 0.0, "bike_id": "8945a0cf202f3c5724cf45626ff5c642", "is_disabled": 0, "lat": 38.898396, "is_reserved": 0, "type": "electric_scooter"}, {"fusion_lat": 0.0, "name": "39661721ca55473060ee14e6659af6df", "lon": -77.0136475, "rental_uris": {"android": "https://dc.lft.to/lastmile_qr_scan", "ios": "https://dc.lft.to/lastmile_qr_scan"}, "fusion_lon": 0.0, "bike_id": "39661721ca55473060ee14e6659af6df", "is_disabled": 0, "lat": 38.88704533333333, "is_reserved": 0, "type": "electric_scooter"}, {"fusion_lat": 0.0, "name": "d274e3bb978f8af625d3c7de856783d4", "lon": -77.041569, "rental_uris": {"android": "https://dc.lft.to/lastmile_qr_scan", "ios": "https://dc.lft.to/lastmile_qr_scan"}, "fusion_lon": 0.0, "bike_id": "d274e3bb978f8af625d3c7de856783d4", "is_disabled": 0, "lat": 38.9051125, "is_reserved": 0, "type": "electric_scooter"}, {"fusion_lat": 0.0, "name": "9a214f33b15bbbe74b5272fc58f7eefb", "lon": -76.9743875, "rental_uris": {"android": "https://dc.lft.to/lastmile_qr_scan", "ios": "https://dc.lft.to/lastmile_qr_scan"}, "fusion_lon": 0.0, "bike_id": "9a214f33b15bbbe74b5272fc58f7eefb", "is_disabled": 0, "lat": 38.9192925, "is_reserved": 0, "type": "electric_bike"}, {"fusion_lat": 0.0, "name": "0230fa1d73a2d3654ffdfcf700c62032", "lon": -77.05014866666667, "rental_uris": {"android": "https://dc.lft.to/lastmile_qr_scan", "ios": "https://dc.lft.to/lastmile_qr_scan"}, "fusion_lon": 0.0, "bike_id": "0230fa1d73a2d3654ffdfcf700c62032", "is_disabled": 0, "lat": 38.90559, "is_reserved": 0, "type": "electric_scooter"}, {"fusion_lat": 0.0, "name": "fa3940b1a3c2f2f3be5b0a5d1d60b327", "lon": -77.03236383333333, "rental_uris": {"android": "https://dc.lft.to/lastmile_qr_scan", "ios": "https://dc.lft.to/lastmile_qr_scan"}, "fusion_lon": 0.0, "bike_id": "fa3940b1a3c2f2f3be5b0a5d1d60b327", "is_disabled": 0, "lat": 38.912509166666666, "is_reserved": 0, "type": "electric_scooter"}, {"fusion_lat": 0.0, "name": "3bab57c4df1c35c7dad82d248ee14117", "lon": -77.04331516666667, "rental_uris": {"android": "https://dc.lft.to/lastmile_qr_scan", "ios": "https://dc.lft.to/lastmile_qr_scan"}, "fusion_lon": 0.0, "bike_id": "3bab57c4df1c35c7dad82d248ee14117", "is_disabled": 0, "lat": 38.916918333333335, "is_reserved": 0, "type": "electric_scooter"}, {"fusion_lat": 0.0, "name": "3706b0c9008277dc9d592d3b26281abc", "lon": -77.03984716666666, "rental_uris": {"android": "https://dc.lft.to/lastmile_qr_scan", "ios": "https://dc.lft.to/lastmile_qr_scan"}, "fusion_lon": 0.0, "bike_id": "3706b0c9008277dc9d592d3b26281abc", "is_disabled": 0, "lat": 38.925823333333334, "is_reserved": 0, "type": "electric_scooter"}, {"fusion_lat": 0.0, "name": "d69372ee29782f81441ba9e1f812dfe5", "lon": -77.03131883333333, "rental_uris": {"android": "https://dc.lft.to/lastmile_qr_scan", "ios": "https://dc.lft.to/lastmile_qr_scan"}, "fusion_lon": 0.0, "bike_id": "d69372ee29782f81441ba9e1f812dfe5", "is_disabled": 0, "lat": 38.92356566666667, "is_reserved": 0, "type": "electric_scooter"}, {"fusion_lat": 0.0, "name": "75f28c7348d9a42582734a75e1e7da4a", "lon": -77.001783, "rental_uris": {"android": "https://dc.lft.to/lastmile_qr_scan", "ios": "https://dc.lft.to/lastmile_qr_scan"}, "fusion_lon": 0.0, "bike_id": "75f28c7348d9a42582734a75e1e7da4a", "is_disabled": 0, "lat": 38.874792, "is_reserved": 0, "type": "electric_scooter"}, {"fusion_lat": 0.0, "name": "eac6bcdeb8d7799ebaa1b064aef5085f", "lon": -77.0236445, "rental_uris": {"android": "https://dc.lft.to/lastmile_qr_scan", "ios": "https://dc.lft.to/lastmile_qr_scan"}, "fusion_lon": 0.0, "bike_id": "eac6bcdeb8d7799ebaa1b064aef5085f", "is_disabled": 0, "lat": 38.92064533333333, "is_reserved": 0, "type": "electric_scooter"}, {"fusion_lat": 0.0, "name": "ff894d14101081cf5cac4c6d40fa1b21", "lon": -77.032983, "rental_uris": {"android": "https://dc.lft.to/lastmile_qr_scan", "ios": "https://dc.lft.to/lastmile_qr_scan"}, "fusion_lon": 0.0, "bike_id": "ff894d14101081cf5cac4c6d40fa1b21", "is_disabled": 0, "lat": 38.89924166666667, "is_reserved": 0, "type": "electric_scooter"}, {"fusion_lat": 0.0, "name": "69e643840994338ecd7018237d014a48", "lon": -77.03515766666666, "rental_uris": {"android": "https://dc.lft.to/lastmile_qr_scan", "ios": "https://dc.lft.to/lastmile_qr_scan"}, "fusion_lon": 0.0, "bike_id": "69e643840994338ecd7018237d014a48", "is_disabled": 0, "lat": 38.9356805, "is_reserved": 0, "type": "electric_scooter"}, {"fusion_lat": 0.0, "name": "b0b3eb2293ea41a7b1e94c1c6cbc5345", "lon": -77.0178885, "rental_uris": {"android": "https://dc.lft.to/lastmile_qr_scan", "ios": "https://dc.lft.to/lastmile_qr_scan"}, "fusion_lon": 0.0, "bike_id": "b0b3eb2293ea41a7b1e94c1c6cbc5345", "is_disabled": 0, "lat": 38.9011805, "is_reserved": 0, "type": "electric_scooter"}, {"fusion_lat": 0.0, "name": "20e625720f0a12b07c7afa9f1671bc90", "lon": -77.026803, "rental_uris": {"android": "https://dc.lft.to/lastmile_qr_scan", "ios": "https://dc.lft.to/lastmile_qr_scan"}, "fusion_lon": 0.0, "bike_id": "20e625720f0a12b07c7afa9f1671bc90", "is_disabled": 0, "lat": 38.943265333333336, "is_reserved": 0, "type": "electric_scooter"}, {"fusion_lat": 0.0, "name": "50ae8963f2d8dd27df1501622b1c1fdc", "lon": -77.03470133333333, "rental_uris": {"android": "https://dc.lft.to/lastmile_qr_scan", "ios": "https://dc.lft.to/lastmile_qr_scan"}, "fusion_lon": 0.0, "bike_id": "50ae8963f2d8dd27df1501622b1c1fdc", "is_disabled": 0, "lat": 38.920444833333335, "is_reserved": 0, "type": "electric_scooter"}, {"fusion_lat": 0.0, "name": "51ddd3d7133ea2a0fba97ec284ff969f", "lon": -76.9910845, "rental_uris": {"android": "https://dc.lft.to/lastmile_qr_scan", "ios": "https://dc.lft.to/lastmile_qr_scan"}, "fusion_lon": 0.0, "bike_id": "51ddd3d7133ea2a0fba97ec284ff969f", "is_disabled": 0, "lat": 38.903180666666664, "is_reserved": 0, "type": "electric_scooter"}, {"fusion_lat": 0.0, "name": "2345c406d54d7896d95cb64b15657861", "lon": -76.985171, "rental_uris": {"android": "https://dc.lft.to/lastmile_qr_scan", "ios": "https://dc.lft.to/lastmile_qr_scan"}, "fusion_lon": 0.0, "bike_id": "2345c406d54d7896d95cb64b15657861", "is_disabled": 0, "lat": 38.860007833333334, "is_reserved": 0, "type": "electric_scooter"}, {"fusion_lat": 0.0, "name": "c7b34aa7c0a201abe7783c68be39571f", "lon": -77.0176495, "rental_uris": {"android": "https://dc.lft.to/lastmile_qr_scan", "ios": "https://dc.lft.to/lastmile_qr_scan"}, "fusion_lon": 0.0, "bike_id": "c7b34aa7c0a201abe7783c68be39571f", "is_disabled": 0, "lat": 38.87462, "is_reserved": 0, "type": "electric_scooter"}, {"fusion_lat": 0.0, "name": "cdf55bdf21f9fbfd27bc7298e7aed09e", "lon": -76.9984155, "rental_uris": {"android": "https://dc.lft.to/lastmile_qr_scan", "ios": "https://dc.lft.to/lastmile_qr_scan"}, "fusion_lon": 0.0, "bike_id": "cdf55bdf21f9fbfd27bc7298e7aed09e", "is_disabled": 0, "lat": 38.880394, "is_reserved": 0, "type": "electric_scooter"}, {"fusion_lat": 0.0, "name": "784da3ec4245a72c9046874c4877bc1c", "lon": -77.0802535, "rental_uris": {"android": "https://dc.lft.to/lastmile_qr_scan", "ios": "https://dc.lft.to/lastmile_qr_scan"}, "fusion_lon": 0.0, "bike_id": "784da3ec4245a72c9046874c4877bc1c", "is_disabled": 0, "lat": 38.946123166666666, "is_reserved": 0, "type": "electric_scooter"}, {"fusion_lat": 0.0, "name": "6bede0108a4dc5851ad6bcec285769ae", "lon": -77.01679866666667, "rental_uris": {"android": "https://dc.lft.to/lastmile_qr_scan", "ios": "https://dc.lft.to/lastmile_qr_scan"}, "fusion_lon": 0.0, "bike_id": "6bede0108a4dc5851ad6bcec285769ae", "is_disabled": 0, "lat": 38.974952333333334, "is_reserved": 0, "type": "electric_scooter"}, {"fusion_lat": 0.0, "name": "79b94f5c51edadf79ac41d7bc0a6e06d", "lon": -77.04508383333334, "rental_uris": {"android": "https://dc.lft.to/lastmile_qr_scan", "ios": "https://dc.lft.to/lastmile_qr_scan"}, "fusion_lon": 0.0, "bike_id": "79b94f5c51edadf79ac41d7bc0a6e06d", "is_disabled": 0, "lat": 38.923142666666664, "is_reserved": 0, "type": "electric_scooter"}, {"fusion_lat": 0.0, "name": "97fa82684fe4217d8f903248aa774837", "lon": -77.00602716666667, "rental_uris": {"android": "https://dc.lft.to/lastmile_qr_scan", "ios": "https://dc.lft.to/lastmile_qr_scan"}, "fusion_lon": 0.0, "bike_id": "97fa82684fe4217d8f903248aa774837", "is_disabled": 0, "lat": 38.87180983333333, "is_reserved": 0, "type": "electric_scooter"}, {"fusion_lat": 0.0, "name": "50d59a3d5bfb227995486b3ce811ca1a", "lon": -77.04357633333333, "rental_uris": {"android": "https://dc.lft.to/lastmile_qr_scan", "ios": "https://dc.lft.to/lastmile_qr_scan"}, "fusion_lon": 0.0, "bike_id": "50d59a3d5bfb227995486b3ce811ca1a", "is_disabled": 0, "lat": 38.89727333333333, "is_reserved": 0, "type": "electric_scooter"}, {"fusion_lat": 0.0, "name": "48ae3e0e7a9538b1feb61444e1bca7b2", "lon": -77.0327175, "rental_uris": {"android": "https://dc.lft.to/lastmile_qr_scan", "ios": "https://dc.lft.to/lastmile_qr_scan"}, "fusion_lon": 0.0, "bike_id": "48ae3e0e7a9538b1feb61444e1bca7b2", "is_disabled": 0, "lat": 38.93197966666666, "is_reserved": 0, "type": "electric_scooter"}, {"fusion_lat": 0.0, "name": "b577fa124d8e3b66276705dc765a4e62", "lon": -77.03315383333333, "rental_uris": {"android": "https://dc.lft.to/lastmile_qr_scan", "ios": "https://dc.lft.to/lastmile_qr_scan"}, "fusion_lon": 0.0, "bike_id": "b577fa124d8e3b66276705dc765a4e62", "is_disabled": 0, "lat": 38.92884383333333, "is_reserved": 0, "type": "electric_scooter"}, {"fusion_lat": 0.0, "name": "ce1b7482c370979e11b5a3b3ffb4fb1c", "lon": -77.02842283333334, "rental_uris": {"android": "https://dc.lft.to/lastmile_qr_scan", "ios": "https://dc.lft.to/lastmile_qr_scan"}, "fusion_lon": 0.0, "bike_id": "ce1b7482c370979e11b5a3b3ffb4fb1c", "is_disabled": 0, "lat": 38.8982775, "is_reserved": 0, "type": "electric_scooter"}, {"fusion_lat": 0.0, "name": "20d651487d09f9cf46c8c1686d0762ca", "lon": -77.02868566666666, "rental_uris": {"android": "https://dc.lft.to/lastmile_qr_scan", "ios": "https://dc.lft.to/lastmile_qr_scan"}, "fusion_lon": 0.0, "bike_id": "20d651487d09f9cf46c8c1686d0762ca", "is_disabled": 0, "lat": 38.901482333333334, "is_reserved": 0, "type": "electric_scooter"}, {"fusion_lat": 0.0, "name": "49b34c62ee526981195e9fecc4fdc40b", "lon": -76.98705933333333, "rental_uris": {"android": "https://dc.lft.to/lastmile_qr_scan", "ios": "https://dc.lft.to/lastmile_qr_scan"}, "fusion_lon": 0.0, "bike_id": "49b34c62ee526981195e9fecc4fdc40b", "is_disabled": 0, "lat": 38.86697783333334, "is_reserved": 0, "type": "electric_scooter"}, {"fusion_lat": 0.0, "name": "9253561edf1bc24d1e0ddec53c51c9f6", "lon": -77.058922, "rental_uris": {"android": "https://dc.lft.to/lastmile_qr_scan", "ios": "https://dc.lft.to/lastmile_qr_scan"}, "fusion_lon": 0.0, "bike_id": "9253561edf1bc24d1e0ddec53c51c9f6", "is_disabled": 0, "lat": 38.903080833333334, "is_reserved": 0, "type": "electric_scooter"}, {"fusion_lat": 0.0, "name": "600c93312cf938309e134eea85baad1e", "lon": -77.02341533333333, "rental_uris": {"android": "https://dc.lft.to/lastmile_qr_scan", "ios": "https://dc.lft.to/lastmile_qr_scan"}, "fusion_lon": 0.0, "bike_id": "600c93312cf938309e134eea85baad1e", "is_disabled": 0, "lat": 38.91765616666667, "is_reserved": 0, "type": "electric_scooter"}, {"fusion_lat": 0.0, "name": "db1dce3910e93f6faaa468214e518328", "lon": -77.03203533333334, "rental_uris": {"android": "https://dc.lft.to/lastmile_qr_scan", "ios": "https://dc.lft.to/lastmile_qr_scan"}, "fusion_lon": 0.0, "bike_id": "db1dce3910e93f6faaa468214e518328", "is_disabled": 0, "lat": 38.917750166666664, "is_reserved": 0, "type": "electric_scooter"}, {"fusion_lat": 0.0, "name": "5d0279862122e4ec54e132fa838399b7", "lon": -77.00608233333334, "rental_uris": {"android": "https://dc.lft.to/lastmile_qr_scan", "ios": "https://dc.lft.to/lastmile_qr_scan"}, "fusion_lon": 0.0, "bike_id": "5d0279862122e4ec54e132fa838399b7", "is_disabled": 0, "lat": 38.871811, "is_reserved": 0, "type": "electric_scooter"}, {"fusion_lat": 0.0, "name": "cb55d0a0f062ca2a37b9386528b72efe", "lon": -77.03855533333333, "rental_uris": {"android": "https://dc.lft.to/lastmile_qr_scan", "ios": "https://dc.lft.to/lastmile_qr_scan"}, "fusion_lon": 0.0, "bike_id": "cb55d0a0f062ca2a37b9386528b72efe", "is_disabled": 0, "lat": 38.902622, "is_reserved": 0, "type": "electric_scooter"}, {"fusion_lat": 0.0, "name": "d3e7dec872e0442bfba0b9d812f5d605", "lon": -77.0343425, "rental_uris": {"android": "https://dc.lft.to/lastmile_qr_scan", "ios": "https://dc.lft.to/lastmile_qr_scan"}, "fusion_lon": 0.0, "bike_id": "d3e7dec872e0442bfba0b9d812f5d605", "is_disabled": 0, "lat": 38.91800283333333, "is_reserved": 0, "type": "electric_scooter"}, {"fusion_lat": 0.0, "name": "9f538a07933d0db852435a83db23fece", "lon": -76.93353233333333, "rental_uris": {"android": "https://dc.lft.to/lastmile_qr_scan", "ios": "https://dc.lft.to/lastmile_qr_scan"}, "fusion_lon": 0.0, "bike_id": "9f538a07933d0db852435a83db23fece", "is_disabled": 0, "lat": 38.88793833333333, "is_reserved": 0, "type": "electric_scooter"}, {"fusion_lat": 0.0, "name": "d79fe0f0947a321894c478e4a128b54b", "lon": -77.04637866666667, "rental_uris": {"android": "https://dc.lft.to/lastmile_qr_scan", "ios": "https://dc.lft.to/lastmile_qr_scan"}, "fusion_lon": 0.0, "bike_id": "d79fe0f0947a321894c478e4a128b54b", "is_disabled": 0, "lat": 38.8922165, "is_reserved": 0, "type": "electric_scooter"}, {"fusion_lat": 0.0, "name": "4b87ded526e6e9b447d1be9de7c43948", "lon": -77.04848483333333, "rental_uris": {"android": "https://dc.lft.to/lastmile_qr_scan", "ios": "https://dc.lft.to/lastmile_qr_scan"}, "fusion_lon": 0.0, "bike_id": "4b87ded526e6e9b447d1be9de7c43948", "is_disabled": 0, "lat": 38.899825666666665, "is_reserved": 0, "type": "electric_scooter"}, {"fusion_lat": 0.0, "name": "08845eeb33c0e44598c9deb49ac37f2a", "lon": -76.93732366666667, "rental_uris": {"android": "https://dc.lft.to/lastmile_qr_scan", "ios": "https://dc.lft.to/lastmile_qr_scan"}, "fusion_lon": 0.0, "bike_id": "08845eeb33c0e44598c9deb49ac37f2a", "is_disabled": 0, "lat": 38.890154833333334, "is_reserved": 0, "type": "electric_scooter"}, {"fusion_lat": 0.0, "name": "a5a2249517a71ad5e0a9e253d3f50d92", "lon": -77.03091233333333, "rental_uris": {"android": "https://dc.lft.to/lastmile_qr_scan", "ios": "https://dc.lft.to/lastmile_qr_scan"}, "fusion_lon": 0.0, "bike_id": "a5a2249517a71ad5e0a9e253d3f50d92", "is_disabled": 0, "lat": 38.922367333333334, "is_reserved": 0, "type": "electric_scooter"}, {"fusion_lat": 0.0, "name": "94371082f12734f342d68e6e17909b28", "lon": -76.9949565, "rental_uris": {"android": "https://dc.lft.to/lastmile_qr_scan", "ios": "https://dc.lft.to/lastmile_qr_scan"}, "fusion_lon": 0.0, "bike_id": "94371082f12734f342d68e6e17909b28", "is_disabled": 0, "lat": 38.83561316666667, "is_reserved": 0, "type": "electric_scooter"}, {"fusion_lat": 0.0, "name": "919d354bce666134b660368ed797c3dc", "lon": -77.011979, "rental_uris": {"android": "https://dc.lft.to/lastmile_qr_scan", "ios": "https://dc.lft.to/lastmile_qr_scan"}, "fusion_lon": 0.0, "bike_id": "919d354bce666134b660368ed797c3dc", "is_disabled": 0, "lat": 38.895940833333334, "is_reserved": 0, "type": "electric_scooter"}, {"fusion_lat": 0.0, "name": "0766fdd063ca68fbbb2c5d1a845a13b7", "lon": -77.049155, "rental_uris": {"android": "https://dc.lft.to/lastmile_qr_scan", "ios": "https://dc.lft.to/lastmile_qr_scan"}, "fusion_lon": 0.0, "bike_id": "0766fdd063ca68fbbb2c5d1a845a13b7", "is_disabled": 0, "lat": 38.91172183333333, "is_reserved": 0, "type": "electric_scooter"}, {"fusion_lat": 0.0, "name": "7f01eabfe293234e9e84919ec1a17069", "lon": -77.02820133333333, "rental_uris": {"android": "https://dc.lft.to/lastmile_qr_scan", "ios": "https://dc.lft.to/lastmile_qr_scan"}, "fusion_lon": 0.0, "bike_id": "7f01eabfe293234e9e84919ec1a17069", "is_disabled": 0, "lat": 38.887314333333336, "is_reserved": 0, "type": "electric_scooter"}, {"fusion_lat": 0.0, "name": "f1fd01b2ac038e119665ff590db12c5f", "lon": -77.0438625, "rental_uris": {"android": "https://dc.lft.to/lastmile_qr_scan", "ios": "https://dc.lft.to/lastmile_qr_scan"}, "fusion_lon": 0.0, "bike_id": "f1fd01b2ac038e119665ff590db12c5f", "is_disabled": 0, "lat": 38.90715866666667, "is_reserved": 0, "type": "electric_scooter"}, {"fusion_lat": 0.0, "name": "1fee48ab1422c42894eb9ac0d3850d32", "lon": -77.101844, "rental_uris": {"android": "https://dc.lft.to/lastmile_qr_scan", "ios": "https://dc.lft.to/lastmile_qr_scan"}, "fusion_lon": 0.0, "bike_id": "1fee48ab1422c42894eb9ac0d3850d32", "is_disabled": 0, "lat": 38.85025733333333, "is_reserved": 0, "type": "electric_bike"}, {"fusion_lat": 0.0, "name": "fa94b7f2d811c4dbb6e0b2b053896804", "lon": -77.03433783333334, "rental_uris": {"android": "https://dc.lft.to/lastmile_qr_scan", "ios": "https://dc.lft.to/lastmile_qr_scan"}, "fusion_lon": 0.0, "bike_id": "fa94b7f2d811c4dbb6e0b2b053896804", "is_disabled": 0, "lat": 38.91027883333334, "is_reserved": 0, "type": "electric_scooter"}, {"fusion_lat": 0.0, "name": "3a1009aaeba41fa1d234344a1635ec4e", "lon": -77.050462, "rental_uris": {"android": "https://dc.lft.to/lastmile_qr_scan", "ios": "https://dc.lft.to/lastmile_qr_scan"}, "fusion_lon": 0.0, "bike_id": "3a1009aaeba41fa1d234344a1635ec4e", "is_disabled": 0, "lat": 38.923564, "is_reserved": 0, "type": "electric_scooter"}, {"fusion_lat": 0.0, "name": "6d5189e62f774490844a98cabb66253f", "lon": -77.03170866666666, "rental_uris": {"android": "https://dc.lft.to/lastmile_qr_scan", "ios": "https://dc.lft.to/lastmile_qr_scan"}, "fusion_lon": 0.0, "bike_id": "6d5189e62f774490844a98cabb66253f", "is_disabled": 0, "lat": 38.90162683333333, "is_reserved": 0, "type": "electric_scooter"}, {"fusion_lat": 0.0, "name": "c3fa1ec67ed757f714162ec68ddbf3b9", "lon": -77.03836966666667, "rental_uris": {"android": "https://dc.lft.to/lastmile_qr_scan", "ios": "https://dc.lft.to/lastmile_qr_scan"}, "fusion_lon": 0.0, "bike_id": "c3fa1ec67ed757f714162ec68ddbf3b9", "is_disabled": 0, "lat": 38.92162316666667, "is_reserved": 0, "type": "electric_scooter"}, {"fusion_lat": 0.0, "name": "c944d874dcbc0c2bde32fb5f25bce885", "lon": -76.9463125, "rental_uris": {"android": "https://dc.lft.to/lastmile_qr_scan", "ios": "https://dc.lft.to/lastmile_qr_scan"}, "fusion_lon": 0.0, "bike_id": "c944d874dcbc0c2bde32fb5f25bce885", "is_disabled": 0, "lat": 38.898289166666665, "is_reserved": 0, "type": "electric_scooter"}, {"fusion_lat": 0.0, "name": "ffe0377904296b9f9a7833c28214a48c", "lon": -77.00833633333333, "rental_uris": {"android": "https://dc.lft.to/lastmile_qr_scan", "ios": "https://dc.lft.to/lastmile_qr_scan"}, "fusion_lon": 0.0, "bike_id": "ffe0377904296b9f9a7833c28214a48c", "is_disabled": 0, "lat": 38.877657666666664, "is_reserved": 0, "type": "electric_scooter"}, {"fusion_lat": 0.0, "name": "1f84a9cd1e6a00f884e06f933d518a0d", "lon": -77.18739333333333, "rental_uris": {"android": "https://dc.lft.to/lastmile_qr_scan", "ios": "https://dc.lft.to/lastmile_qr_scan"}, "fusion_lon": 0.0, "bike_id": "1f84a9cd1e6a00f884e06f933d518a0d", "is_disabled": 0, "lat": 38.89355233333333, "is_reserved": 0, "type": "electric_bike"}, {"fusion_lat": 0.0, "name": "7fd4d96ed8871ff94067719d30a896dd", "lon": -77.05417733333333, "rental_uris": {"android": "https://dc.lft.to/lastmile_qr_scan", "ios": "https://dc.lft.to/lastmile_qr_scan"}, "fusion_lon": 0.0, "bike_id": "7fd4d96ed8871ff94067719d30a896dd", "is_disabled": 0, "lat": 38.928316333333335, "is_reserved": 0, "type": "electric_scooter"}, {"fusion_lat": 0.0, "name": "256d085862006f05f61168abb809478e", "lon": -76.97387883333333, "rental_uris": {"android": "https://dc.lft.to/lastmile_qr_scan", "ios": "https://dc.lft.to/lastmile_qr_scan"}, "fusion_lon": 0.0, "bike_id": "256d085862006f05f61168abb809478e", "is_disabled": 0, "lat": 38.90559016666667, "is_reserved": 0, "type": "electric_scooter"}, {"fusion_lat": 0.0, "name": "781b0da720eaa9d298c661cf931f7833", "lon": -76.93174316666666, "rental_uris": {"android": "https://dc.lft.to/lastmile_qr_scan", "ios": "https://dc.lft.to/lastmile_qr_scan"}, "fusion_lon": 0.0, "bike_id": "781b0da720eaa9d298c661cf931f7833", "is_disabled": 0, "lat": 38.8988305, "is_reserved": 0, "type": "electric_scooter"}, {"fusion_lat": 0.0, "name": "400724c7944580fee4f6162eeb87dedc", "lon": -77.02303033333334, "rental_uris": {"android": "https://dc.lft.to/lastmile_qr_scan", "ios": "https://dc.lft.to/lastmile_qr_scan"}, "fusion_lon": 0.0, "bike_id": "400724c7944580fee4f6162eeb87dedc", "is_disabled": 0, "lat": 38.9408555, "is_reserved": 0, "type": "electric_scooter"}, {"fusion_lat": 0.0, "name": "1bb12213c0b86b718dfade5e27f56513", "lon": -77.03463683333334, "rental_uris": {"android": "https://dc.lft.to/lastmile_qr_scan", "ios": "https://dc.lft.to/lastmile_qr_scan"}, "fusion_lon": 0.0, "bike_id": "1bb12213c0b86b718dfade5e27f56513", "is_disabled": 0, "lat": 38.91820083333333, "is_reserved": 0, "type": "electric_scooter"}, {"fusion_lat": 0.0, "name": "f62dd2f837390dd20129830af3927b20", "lon": -76.93375383333333, "rental_uris": {"android": "https://dc.lft.to/lastmile_qr_scan", "ios": "https://dc.lft.to/lastmile_qr_scan"}, "fusion_lon": 0.0, "bike_id": "f62dd2f837390dd20129830af3927b20", "is_disabled": 0, "lat": 38.8991345, "is_reserved": 0, "type": "electric_scooter"}, {"fusion_lat": 0.0, "name": "e0a28e730924bb3aa5101078bd4d23e5", "lon": -77.03412583333333, "rental_uris": {"android": "https://dc.lft.to/lastmile_qr_scan", "ios": "https://dc.lft.to/lastmile_qr_scan"}, "fusion_lon": 0.0, "bike_id": "e0a28e730924bb3aa5101078bd4d23e5", "is_disabled": 0, "lat": 38.9324455, "is_reserved": 0, "type": "electric_scooter"}, {"fusion_lat": 0.0, "name": "266efe3258bb67e366c12107b7c272ea", "lon": -77.04610383333333, "rental_uris": {"android": "https://dc.lft.to/lastmile_qr_scan", "ios": "https://dc.lft.to/lastmile_qr_scan"}, "fusion_lon": 0.0, "bike_id": "266efe3258bb67e366c12107b7c272ea", "is_disabled": 0, "lat": 38.90264616666666, "is_reserved": 0, "type": "electric_scooter"}, {"fusion_lat": 0.0, "name": "74ed92eda5cc27d98d0b4c6ed927a04c", "lon": -76.99935283333333, "rental_uris": {"android": "https://dc.lft.to/lastmile_qr_scan", "ios": "https://dc.lft.to/lastmile_qr_scan"}, "fusion_lon": 0.0, "bike_id": "74ed92eda5cc27d98d0b4c6ed927a04c", "is_disabled": 0, "lat": 38.84312383333334, "is_reserved": 0, "type": "electric_scooter"}, {"fusion_lat": 0.0, "name": "566130ab571c685981d9a521b0fdb4ee", "lon": -76.93059816666667, "rental_uris": {"android": "https://dc.lft.to/lastmile_qr_scan", "ios": "https://dc.lft.to/lastmile_qr_scan"}, "fusion_lon": 0.0, "bike_id": "566130ab571c685981d9a521b0fdb4ee", "is_disabled": 0, "lat": 38.89851816666667, "is_reserved": 0, "type": "electric_scooter"}, {"fusion_lat": 0.0, "name": "c60f4341f829484f8bc2c26e2912ede3", "lon": -77.0232675, "rental_uris": {"android": "https://dc.lft.to/lastmile_qr_scan", "ios": "https://dc.lft.to/lastmile_qr_scan"}, "fusion_lon": 0.0, "bike_id": "c60f4341f829484f8bc2c26e2912ede3", "is_disabled": 0, "lat": 38.926642, "is_reserved": 0, "type": "electric_scooter"}, {"fusion_lat": 0.0, "name": "ec681b562bd0fad842bef8de2be79366", "lon": -77.0118815, "rental_uris": {"android": "https://dc.lft.to/lastmile_qr_scan", "ios": "https://dc.lft.to/lastmile_qr_scan"}, "fusion_lon": 0.0, "bike_id": "ec681b562bd0fad842bef8de2be79366", "is_disabled": 0, "lat": 38.900216666666665, "is_reserved": 0, "type": "electric_scooter"}, {"fusion_lat": 0.0, "name": "a244b37b9480f650dc4d91043db8f65b", "lon": -76.98708066666667, "rental_uris": {"android": "https://dc.lft.to/lastmile_qr_scan", "ios": "https://dc.lft.to/lastmile_qr_scan"}, "fusion_lon": 0.0, "bike_id": "a244b37b9480f650dc4d91043db8f65b", "is_disabled": 0, "lat": 38.866960666666664, "is_reserved": 0, "type": "electric_scooter"}, {"fusion_lat": 0.0, "name": "34702eb2b7b03928ac958d9c9ab99480", "lon": -77.0088785, "rental_uris": {"android": "https://dc.lft.to/lastmile_qr_scan", "ios": "https://dc.lft.to/lastmile_qr_scan"}, "fusion_lon": 0.0, "bike_id": "34702eb2b7b03928ac958d9c9ab99480", "is_disabled": 0, "lat": 38.87450333333334, "is_reserved": 0, "type": "electric_scooter"}, {"fusion_lat": 0.0, "name": "dda95e950cdbb8ce5bd8162ac3e137a2", "lon": -77.04148083333334, "rental_uris": {"android": "https://dc.lft.to/lastmile_qr_scan", "ios": "https://dc.lft.to/lastmile_qr_scan"}, "fusion_lon": 0.0, "bike_id": "dda95e950cdbb8ce5bd8162ac3e137a2", "is_disabled": 0, "lat": 38.905240666666664, "is_reserved": 0, "type": "electric_scooter"}, {"fusion_lat": 0.0, "name": "910f138c753e2c1a833275e4aebea33b", "lon": -77.035325, "rental_uris": {"android": "https://dc.lft.to/lastmile_qr_scan", "ios": "https://dc.lft.to/lastmile_qr_scan"}, "fusion_lon": 0.0, "bike_id": "910f138c753e2c1a833275e4aebea33b", "is_disabled": 0, "lat": 38.923897333333336, "is_reserved": 0, "type": "electric_scooter"}, {"fusion_lat": 0.0, "name": "a8f685a902852a858f8da345529da8bb", "lon": -77.03597116666667, "rental_uris": {"android": "https://dc.lft.to/lastmile_qr_scan", "ios": "https://dc.lft.to/lastmile_qr_scan"}, "fusion_lon": 0.0, "bike_id": "a8f685a902852a858f8da345529da8bb", "is_disabled": 0, "lat": 38.9168635, "is_reserved": 0, "type": "electric_scooter"}, {"fusion_lat": 0.0, "name": "b86295415b200a4da1751d38fc5582f6", "lon": -77.02198483333333, "rental_uris": {"android": "https://dc.lft.to/lastmile_qr_scan", "ios": "https://dc.lft.to/lastmile_qr_scan"}, "fusion_lon": 0.0, "bike_id": "b86295415b200a4da1751d38fc5582f6", "is_disabled": 0, "lat": 38.914286, "is_reserved": 0, "type": "electric_scooter"}, {"fusion_lat": 0.0, "name": "1e336e10ab8a463513b5bbe19dff966d", "lon": -77.0413815, "rental_uris": {"android": "https://dc.lft.to/lastmile_qr_scan", "ios": "https://dc.lft.to/lastmile_qr_scan"}, "fusion_lon": 0.0, "bike_id": "1e336e10ab8a463513b5bbe19dff966d", "is_disabled": 0, "lat": 38.902522166666664, "is_reserved": 0, "type": "electric_scooter"}, {"fusion_lat": 0.0, "name": "dc9e29200dae82f629e77c2dc05bd85a", "lon": -76.98234866666667, "rental_uris": {"android": "https://dc.lft.to/lastmile_qr_scan", "ios": "https://dc.lft.to/lastmile_qr_scan"}, "fusion_lon": 0.0, "bike_id": "dc9e29200dae82f629e77c2dc05bd85a", "is_disabled": 0, "lat": 38.8688465, "is_reserved": 0, "type": "electric_scooter"}, {"fusion_lat": 0.0, "name": "9b61d11bbaabd490c9cf1ba988e78d06", "lon": -77.04463916666667, "rental_uris": {"android": "https://dc.lft.to/lastmile_qr_scan", "ios": "https://dc.lft.to/lastmile_qr_scan"}, "fusion_lon": 0.0, "bike_id": "9b61d11bbaabd490c9cf1ba988e78d06", "is_disabled": 0, "lat": 38.90131316666667, "is_reserved": 0, "type": "electric_scooter"}, {"fusion_lat": 0.0, "name": "453dd55e6bcc07b9e35ae333ac58bad4", "lon": -77.04329133333333, "rental_uris": {"android": "https://dc.lft.to/lastmile_qr_scan", "ios": "https://dc.lft.to/lastmile_qr_scan"}, "fusion_lon": 0.0, "bike_id": "453dd55e6bcc07b9e35ae333ac58bad4", "is_disabled": 0, "lat": 38.8922305, "is_reserved": 0, "type": "electric_scooter"}, {"fusion_lat": 0.0, "name": "ad1edfd72b4dcfe642ba046ee53e0057", "lon": -77.04833, "rental_uris": {"android": "https://dc.lft.to/lastmile_qr_scan", "ios": "https://dc.lft.to/lastmile_qr_scan"}, "fusion_lon": 0.0, "bike_id": "ad1edfd72b4dcfe642ba046ee53e0057", "is_disabled": 0, "lat": 38.91610383333333, "is_reserved": 0, "type": "electric_scooter"}, {"fusion_lat": 0.0, "name": "af26c740c690bd80303d6933d30d6b8a", "lon": -77.03439133333333, "rental_uris": {"android": "https://dc.lft.to/lastmile_qr_scan", "ios": "https://dc.lft.to/lastmile_qr_scan"}, "fusion_lon": 0.0, "bike_id": "af26c740c690bd80303d6933d30d6b8a", "is_disabled": 0, "lat": 38.9025465, "is_reserved": 0, "type": "electric_scooter"}, {"fusion_lat": 0.0, "name": "47cf5eae637426fe061bf8af0d257c9e", "lon": -77.02235933333333, "rental_uris": {"android": "https://dc.lft.to/lastmile_qr_scan", "ios": "https://dc.lft.to/lastmile_qr_scan"}, "fusion_lon": 0.0, "bike_id": "47cf5eae637426fe061bf8af0d257c9e", "is_disabled": 0, "lat": 38.92484566666667, "is_reserved": 0, "type": "electric_scooter"}, {"fusion_lat": 0.0, "name": "0e1d2106a404625415e268719674e72b", "lon": -76.93273983333333, "rental_uris": {"android": "https://dc.lft.to/lastmile_qr_scan", "ios": "https://dc.lft.to/lastmile_qr_scan"}, "fusion_lon": 0.0, "bike_id": "0e1d2106a404625415e268719674e72b", "is_disabled": 0, "lat": 38.954180666666666, "is_reserved": 0, "type": "electric_bike"}, {"fusion_lat": 0.0, "name": "b35abde459d01a85fe46579b71b465a9", "lon": -77.03341916666666, "rental_uris": {"android": "https://dc.lft.to/lastmile_qr_scan", "ios": "https://dc.lft.to/lastmile_qr_scan"}, "fusion_lon": 0.0, "bike_id": "b35abde459d01a85fe46579b71b465a9", "is_disabled": 0, "lat": 38.922656833333335, "is_reserved": 0, "type": "electric_scooter"}, {"fusion_lat": 0.0, "name": "743fe1a692187262fb99d476804ffb23", "lon": -77.04103516666666, "rental_uris": {"android": "https://dc.lft.to/lastmile_qr_scan", "ios": "https://dc.lft.to/lastmile_qr_scan"}, "fusion_lon": 0.0, "bike_id": "743fe1a692187262fb99d476804ffb23", "is_disabled": 0, "lat": 38.92104233333333, "is_reserved": 0, "type": "electric_scooter"}, {"fusion_lat": 0.0, "name": "6f9c944f8ab6d95345681337cd3dd9bd", "lon": -77.02228283333334, "rental_uris": {"android": "https://dc.lft.to/lastmile_qr_scan", "ios": "https://dc.lft.to/lastmile_qr_scan"}, "fusion_lon": 0.0, "bike_id": "6f9c944f8ab6d95345681337cd3dd9bd", "is_disabled": 0, "lat": 38.88767333333333, "is_reserved": 0, "type": "electric_scooter"}, {"fusion_lat": 0.0, "name": "9af4c247fa58b257cbb0fc5e9dfb8c7f", "lon": -77.02251066666666, "rental_uris": {"android": "https://dc.lft.to/lastmile_qr_scan", "ios": "https://dc.lft.to/lastmile_qr_scan"}, "fusion_lon": 0.0, "bike_id": "9af4c247fa58b257cbb0fc5e9dfb8c7f", "is_disabled": 0, "lat": 38.90718483333333, "is_reserved": 0, "type": "electric_scooter"}, {"fusion_lat": 0.0, "name": "c30125904ec49ee069ba5020e802676c", "lon": -77.072416, "rental_uris": {"android": "https://dc.lft.to/lastmile_qr_scan", "ios": "https://dc.lft.to/lastmile_qr_scan"}, "fusion_lon": 0.0, "bike_id": "c30125904ec49ee069ba5020e802676c", "is_disabled": 0, "lat": 38.93953066666667, "is_reserved": 0, "type": "electric_scooter"}, {"fusion_lat": 0.0, "name": "0774147a5636656c9c3304fe5eb10b32", "lon": -77.049517, "rental_uris": {"android": "https://dc.lft.to/lastmile_qr_scan", "ios": "https://dc.lft.to/lastmile_qr_scan"}, "fusion_lon": 0.0, "bike_id": "0774147a5636656c9c3304fe5eb10b32", "is_disabled": 0, "lat": 38.9008075, "is_reserved": 0, "type": "electric_scooter"}, {"fusion_lat": 0.0, "name": "b1ae607cad28211498a3922426f0c990", "lon": -76.973409, "rental_uris": {"android": "https://dc.lft.to/lastmile_qr_scan", "ios": "https://dc.lft.to/lastmile_qr_scan"}, "fusion_lon": 0.0, "bike_id": "b1ae607cad28211498a3922426f0c990", "is_disabled": 0, "lat": 38.865063, "is_reserved": 0, "type": "electric_bike"}, {"fusion_lat": 0.0, "name": "3d312e054107e92c0633ae3d216cb287", "lon": -77.04169783333333, "rental_uris": {"android": "https://dc.lft.to/lastmile_qr_scan", "ios": "https://dc.lft.to/lastmile_qr_scan"}, "fusion_lon": 0.0, "bike_id": "3d312e054107e92c0633ae3d216cb287", "is_disabled": 0, "lat": 38.91815966666667, "is_reserved": 0, "type": "electric_scooter"}, {"fusion_lat": 0.0, "name": "ea07210df257b61959bd33555aaf9dae", "lon": -77.02408733333333, "rental_uris": {"android": "https://dc.lft.to/lastmile_qr_scan", "ios": "https://dc.lft.to/lastmile_qr_scan"}, "fusion_lon": 0.0, "bike_id": "ea07210df257b61959bd33555aaf9dae", "is_disabled": 0, "lat": 38.91917866666667, "is_reserved": 0, "type": "electric_scooter"}, {"fusion_lat": 0.0, "name": "699764cd1e7dc23f15530e3b3a4be003", "lon": -77.00899366666667, "rental_uris": {"android": "https://dc.lft.to/lastmile_qr_scan", "ios": "https://dc.lft.to/lastmile_qr_scan"}, "fusion_lon": 0.0, "bike_id": "699764cd1e7dc23f15530e3b3a4be003", "is_disabled": 0, "lat": 38.874857666666664, "is_reserved": 0, "type": "electric_scooter"}, {"fusion_lat": 0.0, "name": "112599d6213011dbe00cdd72558297d2", "lon": -76.98998133333333, "rental_uris": {"android": "https://dc.lft.to/lastmile_qr_scan", "ios": "https://dc.lft.to/lastmile_qr_scan"}, "fusion_lon": 0.0, "bike_id": "112599d6213011dbe00cdd72558297d2", "is_disabled": 0, "lat": 38.86503166666667, "is_reserved": 0, "type": "electric_scooter"}, {"fusion_lat": 0.0, "name": "d88836b231bd13e8db2f27ce2438b13f", "lon": -76.95752566666667, "rental_uris": {"android": "https://dc.lft.to/lastmile_qr_scan", "ios": "https://dc.lft.to/lastmile_qr_scan"}, "fusion_lon": 0.0, "bike_id": "d88836b231bd13e8db2f27ce2438b13f", "is_disabled": 0, "lat": 38.96950733333333, "is_reserved": 0, "type": "electric_bike"}, {"fusion_lat": 0.0, "name": "2f5aff70ab3853fc0a10941cccda0cbc", "lon": -77.02462333333334, "rental_uris": {"android": "https://dc.lft.to/lastmile_qr_scan", "ios": "https://dc.lft.to/lastmile_qr_scan"}, "fusion_lon": 0.0, "bike_id": "2f5aff70ab3853fc0a10941cccda0cbc", "is_disabled": 0, "lat": 38.94191816666667, "is_reserved": 0, "type": "electric_scooter"}, {"fusion_lat": 0.0, "name": "98575dc858d2e4f997f17b8db5f4d2e7", "lon": -76.97326166666667, "rental_uris": {"android": "https://dc.lft.to/lastmile_qr_scan", "ios": "https://dc.lft.to/lastmile_qr_scan"}, "fusion_lon": 0.0, "bike_id": "98575dc858d2e4f997f17b8db5f4d2e7", "is_disabled": 0, "lat": 38.90407283333333, "is_reserved": 0, "type": "electric_scooter"}, {"fusion_lat": 0.0, "name": "be6066fd9057a59d5046489fc9ea5de1", "lon": -77.046576, "rental_uris": {"android": "https://dc.lft.to/lastmile_qr_scan", "ios": "https://dc.lft.to/lastmile_qr_scan"}, "fusion_lon": 0.0, "bike_id": "be6066fd9057a59d5046489fc9ea5de1", "is_disabled": 0, "lat": 38.91356433333333, "is_reserved": 0, "type": "electric_scooter"}, {"fusion_lat": 0.0, "name": "41796c9591d36ac5cd892082b160480d", "lon": -77.02734966666667, "rental_uris": {"android": "https://dc.lft.to/lastmile_qr_scan", "ios": "https://dc.lft.to/lastmile_qr_scan"}, "fusion_lon": 0.0, "bike_id": "41796c9591d36ac5cd892082b160480d", "is_disabled": 0, "lat": 38.94375133333333, "is_reserved": 0, "type": "electric_scooter"}, {"fusion_lat": 0.0, "name": "4f84acdd5b9d2b392a0b0562ff7eddb5", "lon": -77.0199355, "rental_uris": {"android": "https://dc.lft.to/lastmile_qr_scan", "ios": "https://dc.lft.to/lastmile_qr_scan"}, "fusion_lon": 0.0, "bike_id": "4f84acdd5b9d2b392a0b0562ff7eddb5", "is_disabled": 0, "lat": 38.90550783333333, "is_reserved": 0, "type": "electric_scooter"}, {"fusion_lat": 0.0, "name": "c4e5a125477275df54cee1060fbaf360", "lon": -77.00674183333334, "rental_uris": {"android": "https://dc.lft.to/lastmile_qr_scan", "ios": "https://dc.lft.to/lastmile_qr_scan"}, "fusion_lon": 0.0, "bike_id": "c4e5a125477275df54cee1060fbaf360", "is_disabled": 0, "lat": 38.900017, "is_reserved": 0, "type": "electric_scooter"}, {"fusion_lat": 0.0, "name": "661a2ae9badb01ef8e29571db5772b7c", "lon": -77.03073016666667, "rental_uris": {"android": "https://dc.lft.to/lastmile_qr_scan", "ios": "https://dc.lft.to/lastmile_qr_scan"}, "fusion_lon": 0.0, "bike_id": "661a2ae9badb01ef8e29571db5772b7c", "is_disabled": 0, "lat": 38.89961866666667, "is_reserved": 0, "type": "electric_scooter"}, {"fusion_lat": 0.0, "name": "77c4dbe0f1631dff0e9787225a8c8f70", "lon": -76.98508616666666, "rental_uris": {"android": "https://dc.lft.to/lastmile_qr_scan", "ios": "https://dc.lft.to/lastmile_qr_scan"}, "fusion_lon": 0.0, "bike_id": "77c4dbe0f1631dff0e9787225a8c8f70", "is_disabled": 0, "lat": 38.860109666666666, "is_reserved": 0, "type": "electric_scooter"}, {"fusion_lat": 0.0, "name": "1b5022c58ed5c6e5d69fdbfb001c5d69", "lon": -77.02467866666667, "rental_uris": {"android": "https://dc.lft.to/lastmile_qr_scan", "ios": "https://dc.lft.to/lastmile_qr_scan"}, "fusion_lon": 0.0, "bike_id": "1b5022c58ed5c6e5d69fdbfb001c5d69", "is_disabled": 0, "lat": 38.938766333333334, "is_reserved": 0, "type": "electric_scooter"}, {"fusion_lat": 0.0, "name": "9accedbf8f324d5f35ff3f0eca1f6faf", "lon": -77.02067266666667, "rental_uris": {"android": "https://dc.lft.to/lastmile_qr_scan", "ios": "https://dc.lft.to/lastmile_qr_scan"}, "fusion_lon": 0.0, "bike_id": "9accedbf8f324d5f35ff3f0eca1f6faf", "is_disabled": 0, "lat": 38.93642916666667, "is_reserved": 0, "type": "electric_bike"}, {"fusion_lat": 0.0, "name": "7652ad3407dd702671214a402d535b95", "lon": -77.0392055, "rental_uris": {"android": "https://dc.lft.to/lastmile_qr_scan", "ios": "https://dc.lft.to/lastmile_qr_scan"}, "fusion_lon": 0.0, "bike_id": "7652ad3407dd702671214a402d535b95", "is_disabled": 0, "lat": 38.918406166666664, "is_reserved": 0, "type": "electric_scooter"}, {"fusion_lat": 0.0, "name": "c583c7b35fa7bfeeb7a4c16ff2561e23", "lon": -77.00126533333334, "rental_uris": {"android": "https://dc.lft.to/lastmile_qr_scan", "ios": "https://dc.lft.to/lastmile_qr_scan"}, "fusion_lon": 0.0, "bike_id": "c583c7b35fa7bfeeb7a4c16ff2561e23", "is_disabled": 0, "lat": 38.89468316666667, "is_reserved": 0, "type": "electric_scooter"}, {"fusion_lat": 0.0, "name": "2d255af9daed5b7960fab206cf8c74cc", "lon": -77.03685766666666, "rental_uris": {"android": "https://dc.lft.to/lastmile_qr_scan", "ios": "https://dc.lft.to/lastmile_qr_scan"}, "fusion_lon": 0.0, "bike_id": "2d255af9daed5b7960fab206cf8c74cc", "is_disabled": 0, "lat": 38.91677133333334, "is_reserved": 0, "type": "electric_scooter"}, {"fusion_lat": 0.0, "name": "9dd18e0cdbfb06d9139642010cbd2962", "lon": -77.02750366666666, "rental_uris": {"android": "https://dc.lft.to/lastmile_qr_scan", "ios": "https://dc.lft.to/lastmile_qr_scan"}, "fusion_lon": 0.0, "bike_id": "9dd18e0cdbfb06d9139642010cbd2962", "is_disabled": 0, "lat": 38.941812666666664, "is_reserved": 0, "type": "electric_scooter"}, {"fusion_lat": 0.0, "name": "4c78783b10eb1427f0566be2d9130c2c", "lon": -77.05307833333333, "rental_uris": {"android": "https://dc.lft.to/lastmile_qr_scan", "ios": "https://dc.lft.to/lastmile_qr_scan"}, "fusion_lon": 0.0, "bike_id": "4c78783b10eb1427f0566be2d9130c2c", "is_disabled": 0, "lat": 38.904168166666665, "is_reserved": 0, "type": "electric_scooter"}, {"fusion_lat": 0.0, "name": "9469c041d31f4ca6400a75bf06bf5746", "lon": -77.02223716666667, "rental_uris": {"android": "https://dc.lft.to/lastmile_qr_scan", "ios": "https://dc.lft.to/lastmile_qr_scan"}, "fusion_lon": 0.0, "bike_id": "9469c041d31f4ca6400a75bf06bf5746", "is_disabled": 0, "lat": 38.912544, "is_reserved": 0, "type": "electric_scooter"}, {"fusion_lat": 0.0, "name": "82ea8b0aa65b37aa2e353c0f4f26758d", "lon": -77.0335705, "rental_uris": {"android": "https://dc.lft.to/lastmile_qr_scan", "ios": "https://dc.lft.to/lastmile_qr_scan"}, "fusion_lon": 0.0, "bike_id": "82ea8b0aa65b37aa2e353c0f4f26758d", "is_disabled": 0, "lat": 38.89999066666667, "is_reserved": 0, "type": "electric_scooter"}, {"fusion_lat": 0.0, "name": "4bb7b562e6cef23aba3593fda70a0145", "lon": -77.00334366666667, "rental_uris": {"android": "https://dc.lft.to/lastmile_qr_scan", "ios": "https://dc.lft.to/lastmile_qr_scan"}, "fusion_lon": 0.0, "bike_id": "4bb7b562e6cef23aba3593fda70a0145", "is_disabled": 0, "lat": 38.893553833333335, "is_reserved": 0, "type": "electric_scooter"}, {"fusion_lat": 0.0, "name": "4b8404d87f9750849f81653615d87105", "lon": -77.04515483333333, "rental_uris": {"android": "https://dc.lft.to/lastmile_qr_scan", "ios": "https://dc.lft.to/lastmile_qr_scan"}, "fusion_lon": 0.0, "bike_id": "4b8404d87f9750849f81653615d87105", "is_disabled": 0, "lat": 38.91949066666667, "is_reserved": 0, "type": "electric_bike"}, {"fusion_lat": 0.0, "name": "66288db8c8bf4b4745f9211e8971ec36", "lon": -77.00603383333333, "rental_uris": {"android": "https://dc.lft.to/lastmile_qr_scan", "ios": "https://dc.lft.to/lastmile_qr_scan"}, "fusion_lon": 0.0, "bike_id": "66288db8c8bf4b4745f9211e8971ec36", "is_disabled": 0, "lat": 38.871839666666666, "is_reserved": 0, "type": "electric_scooter"}, {"fusion_lat": 0.0, "name": "18cc2e43875ad988856cb08e7daacb61", "lon": -77.03296683333333, "rental_uris": {"android": "https://dc.lft.to/lastmile_qr_scan", "ios": "https://dc.lft.to/lastmile_qr_scan"}, "fusion_lon": 0.0, "bike_id": "18cc2e43875ad988856cb08e7daacb61", "is_disabled": 0, "lat": 38.93054816666667, "is_reserved": 0, "type": "electric_scooter"}, {"fusion_lat": 0.0, "name": "4aa95e0736f96021ba543ca7f6b88d28", "lon": -77.02693083333334, "rental_uris": {"android": "https://dc.lft.to/lastmile_qr_scan", "ios": "https://dc.lft.to/lastmile_qr_scan"}, "fusion_lon": 0.0, "bike_id": "4aa95e0736f96021ba543ca7f6b88d28", "is_disabled": 0, "lat": 38.91034233333333, "is_reserved": 0, "type": "electric_scooter"}, {"fusion_lat": 0.0, "name": "ad88f2a36717d377f093c7d3781dc4fe", "lon": -76.98057, "rental_uris": {"android": "https://dc.lft.to/lastmile_qr_scan", "ios": "https://dc.lft.to/lastmile_qr_scan"}, "fusion_lon": 0.0, "bike_id": "ad88f2a36717d377f093c7d3781dc4fe", "is_disabled": 0, "lat": 38.90252133333333, "is_reserved": 0, "type": "electric_scooter"}, {"fusion_lat": 0.0, "name": "626bd4bf8359485833489746a60ab0c1", "lon": -77.02720133333334, "rental_uris": {"android": "https://dc.lft.to/lastmile_qr_scan", "ios": "https://dc.lft.to/lastmile_qr_scan"}, "fusion_lon": 0.0, "bike_id": "626bd4bf8359485833489746a60ab0c1", "is_disabled": 0, "lat": 38.940824, "is_reserved": 0, "type": "electric_scooter"}, {"fusion_lat": 0.0, "name": "bf97b04e93f87624e73a5434edadfd44", "lon": -77.02740366666667, "rental_uris": {"android": "https://dc.lft.to/lastmile_qr_scan", "ios": "https://dc.lft.to/lastmile_qr_scan"}, "fusion_lon": 0.0, "bike_id": "bf97b04e93f87624e73a5434edadfd44", "is_disabled": 0, "lat": 38.897467, "is_reserved": 0, "type": "electric_scooter"}, {"fusion_lat": 0.0, "name": "6d3b93a8aa50b8fd290bd99071693a00", "lon": -77.03347133333334, "rental_uris": {"android": "https://dc.lft.to/lastmile_qr_scan", "ios": "https://dc.lft.to/lastmile_qr_scan"}, "fusion_lon": 0.0, "bike_id": "6d3b93a8aa50b8fd290bd99071693a00", "is_disabled": 0, "lat": 38.89957116666667, "is_reserved": 0, "type": "electric_scooter"}, {"fusion_lat": 0.0, "name": "d2c5f12cd92d36537b4ec25e781e361a", "lon": -76.982685, "rental_uris": {"android": "https://dc.lft.to/lastmile_qr_scan", "ios": "https://dc.lft.to/lastmile_qr_scan"}, "fusion_lon": 0.0, "bike_id": "d2c5f12cd92d36537b4ec25e781e361a", "is_disabled": 0, "lat": 38.90344066666667, "is_reserved": 0, "type": "electric_scooter"}, {"fusion_lat": 0.0, "name": "6350dc719d2479cee1fe25f91e25b6a1", "lon": -77.04514, "rental_uris": {"android": "https://dc.lft.to/lastmile_qr_scan", "ios": "https://dc.lft.to/lastmile_qr_scan"}, "fusion_lon": 0.0, "bike_id": "6350dc719d2479cee1fe25f91e25b6a1", "is_disabled": 0, "lat": 38.903664666666664, "is_reserved": 0, "type": "electric_scooter"}, {"fusion_lat": 0.0, "name": "09c393e9a251970d2e6101fd28f8d089", "lon": -76.99942033333333, "rental_uris": {"android": "https://dc.lft.to/lastmile_qr_scan", "ios": "https://dc.lft.to/lastmile_qr_scan"}, "fusion_lon": 0.0, "bike_id": "09c393e9a251970d2e6101fd28f8d089", "is_disabled": 0, "lat": 38.896352, "is_reserved": 0, "type": "electric_scooter"}, {"fusion_lat": 0.0, "name": "892f846f91ab3d6da0abe705a72ec625", "lon": -76.98913216666666, "rental_uris": {"android": "https://dc.lft.to/lastmile_qr_scan", "ios": "https://dc.lft.to/lastmile_qr_scan"}, "fusion_lon": 0.0, "bike_id": "892f846f91ab3d6da0abe705a72ec625", "is_disabled": 0, "lat": 38.904666166666665, "is_reserved": 0, "type": "electric_scooter"}, {"fusion_lat": 0.0, "name": "9d6d2c64f501410d159fc9b1efadfbd1", "lon": -77.02423983333334, "rental_uris": {"android": "https://dc.lft.to/lastmile_qr_scan", "ios": "https://dc.lft.to/lastmile_qr_scan"}, "fusion_lon": 0.0, "bike_id": "9d6d2c64f501410d159fc9b1efadfbd1", "is_disabled": 0, "lat": 38.915562333333334, "is_reserved": 0, "type": "electric_scooter"}, {"fusion_lat": 0.0, "name": "3f9d9f2f4bd65f00b97b5312aef09627", "lon": -77.04070383333334, "rental_uris": {"android": "https://dc.lft.to/lastmile_qr_scan", "ios": "https://dc.lft.to/lastmile_qr_scan"}, "fusion_lon": 0.0, "bike_id": "3f9d9f2f4bd65f00b97b5312aef09627", "is_disabled": 0, "lat": 38.899158, "is_reserved": 0, "type": "electric_scooter"}, {"fusion_lat": 0.0, "name": "3ceb13feb1a11532d40927da17a6e28e", "lon": -77.0351255, "rental_uris": {"android": "https://dc.lft.to/lastmile_qr_scan", "ios": "https://dc.lft.to/lastmile_qr_scan"}, "fusion_lon": 0.0, "bike_id": "3ceb13feb1a11532d40927da17a6e28e", "is_disabled": 0, "lat": 38.92142533333333, "is_reserved": 0, "type": "electric_scooter"}, {"fusion_lat": 0.0, "name": "4ae1622170aed0250276a824b9bde801", "lon": -77.03964366666666, "rental_uris": {"android": "https://dc.lft.to/lastmile_qr_scan", "ios": "https://dc.lft.to/lastmile_qr_scan"}, "fusion_lon": 0.0, "bike_id": "4ae1622170aed0250276a824b9bde801", "is_disabled": 0, "lat": 38.932707666666666, "is_reserved": 0, "type": "electric_scooter"}, {"fusion_lat": 0.0, "name": "ffded7b44bc2158b8ad1e2ffcd486b28", "lon": -77.041543, "rental_uris": {"android": "https://dc.lft.to/lastmile_qr_scan", "ios": "https://dc.lft.to/lastmile_qr_scan"}, "fusion_lon": 0.0, "bike_id": "ffded7b44bc2158b8ad1e2ffcd486b28", "is_disabled": 0, "lat": 38.90748883333333, "is_reserved": 0, "type": "electric_scooter"}, {"fusion_lat": 0.0, "name": "ab4e6a55fe476a189206661c9a31f192", "lon": -77.04320466666667, "rental_uris": {"android": "https://dc.lft.to/lastmile_qr_scan", "ios": "https://dc.lft.to/lastmile_qr_scan"}, "fusion_lon": 0.0, "bike_id": "ab4e6a55fe476a189206661c9a31f192", "is_disabled": 0, "lat": 38.92613433333333, "is_reserved": 0, "type": "electric_scooter"}, {"fusion_lat": 0.0, "name": "3c865ed715635dae7ef38aafdd2b89ff", "lon": -77.0504865, "rental_uris": {"android": "https://dc.lft.to/lastmile_qr_scan", "ios": "https://dc.lft.to/lastmile_qr_scan"}, "fusion_lon": 0.0, "bike_id": "3c865ed715635dae7ef38aafdd2b89ff", "is_disabled": 0, "lat": 38.89281016666666, "is_reserved": 0, "type": "electric_scooter"}, {"fusion_lat": 0.0, "name": "10874d26a38018d853692840a90b05e1", "lon": -77.02185266666666, "rental_uris": {"android": "https://dc.lft.to/lastmile_qr_scan", "ios": "https://dc.lft.to/lastmile_qr_scan"}, "fusion_lon": 0.0, "bike_id": "10874d26a38018d853692840a90b05e1", "is_disabled": 0, "lat": 38.8940325, "is_reserved": 0, "type": "electric_scooter"}, {"fusion_lat": 0.0, "name": "363132c352a79fed804bc51af0c6f20a", "lon": -77.04601033333333, "rental_uris": {"android": "https://dc.lft.to/lastmile_qr_scan", "ios": "https://dc.lft.to/lastmile_qr_scan"}, "fusion_lon": 0.0, "bike_id": "363132c352a79fed804bc51af0c6f20a", "is_disabled": 0, "lat": 38.917029, "is_reserved": 0, "type": "electric_scooter"}, {"fusion_lat": 0.0, "name": "70882d909d51add3ecd7f9f5ce7a72c4", "lon": -77.04474466666667, "rental_uris": {"android": "https://dc.lft.to/lastmile_qr_scan", "ios": "https://dc.lft.to/lastmile_qr_scan"}, "fusion_lon": 0.0, "bike_id": "70882d909d51add3ecd7f9f5ce7a72c4", "is_disabled": 0, "lat": 38.90399633333333, "is_reserved": 0, "type": "electric_scooter"}, {"fusion_lat": 0.0, "name": "91fb9f2a89123990faef7acba16fde02", "lon": -77.0338635, "rental_uris": {"android": "https://dc.lft.to/lastmile_qr_scan", "ios": "https://dc.lft.to/lastmile_qr_scan"}, "fusion_lon": 0.0, "bike_id": "91fb9f2a89123990faef7acba16fde02", "is_disabled": 0, "lat": 38.90556333333333, "is_reserved": 0, "type": "electric_scooter"}, {"fusion_lat": 0.0, "name": "e3cfd8577697a0413d42447bad037239", "lon": -77.034482, "rental_uris": {"android": "https://dc.lft.to/lastmile_qr_scan", "ios": "https://dc.lft.to/lastmile_qr_scan"}, "fusion_lon": 0.0, "bike_id": "e3cfd8577697a0413d42447bad037239", "is_disabled": 0, "lat": 38.9025055, "is_reserved": 0, "type": "electric_scooter"}, {"fusion_lat": 0.0, "name": "0114602b91167993f6b370d9f4501709", "lon": -77.0455485, "rental_uris": {"android": "https://dc.lft.to/lastmile_qr_scan", "ios": "https://dc.lft.to/lastmile_qr_scan"}, "fusion_lon": 0.0, "bike_id": "0114602b91167993f6b370d9f4501709", "is_disabled": 0, "lat": 38.91342233333334, "is_reserved": 0, "type": "electric_scooter"}, {"fusion_lat": 0.0, "name": "68d7ffafb7ac6c7744a32fc678b12169", "lon": -77.02354133333333, "rental_uris": {"android": "https://dc.lft.to/lastmile_qr_scan", "ios": "https://dc.lft.to/lastmile_qr_scan"}, "fusion_lon": 0.0, "bike_id": "68d7ffafb7ac6c7744a32fc678b12169", "is_disabled": 0, "lat": 38.892212666666666, "is_reserved": 0, "type": "electric_scooter"}, {"fusion_lat": 0.0, "name": "9da77fe5d3b2d74b7b7ddb5ed82d6109", "lon": -77.04167633333333, "rental_uris": {"android": "https://dc.lft.to/lastmile_qr_scan", "ios": "https://dc.lft.to/lastmile_qr_scan"}, "fusion_lon": 0.0, "bike_id": "9da77fe5d3b2d74b7b7ddb5ed82d6109", "is_disabled": 0, "lat": 38.91171, "is_reserved": 0, "type": "electric_scooter"}, {"fusion_lat": 0.0, "name": "a693ab3b0a708bef572db5bb6c68aab9", "lon": -77.01509366666667, "rental_uris": {"android": "https://dc.lft.to/lastmile_qr_scan", "ios": "https://dc.lft.to/lastmile_qr_scan"}, "fusion_lon": 0.0, "bike_id": "a693ab3b0a708bef572db5bb6c68aab9", "is_disabled": 0, "lat": 38.967752, "is_reserved": 0, "type": "electric_scooter"}, {"fusion_lat": 0.0, "name": "aa9f9d21b9dfc9a819f6e0b60b29f822", "lon": -77.00739, "rental_uris": {"android": "https://dc.lft.to/lastmile_qr_scan", "ios": "https://dc.lft.to/lastmile_qr_scan"}, "fusion_lon": 0.0, "bike_id": "aa9f9d21b9dfc9a819f6e0b60b29f822", "is_disabled": 0, "lat": 38.9025365, "is_reserved": 0, "type": "electric_scooter"}, {"fusion_lat": 0.0, "name": "80dbdd6cea7689826690bafb5bf1211b", "lon": -77.03440366666666, "rental_uris": {"android": "https://dc.lft.to/lastmile_qr_scan", "ios": "https://dc.lft.to/lastmile_qr_scan"}, "fusion_lon": 0.0, "bike_id": "80dbdd6cea7689826690bafb5bf1211b", "is_disabled": 0, "lat": 38.919073, "is_reserved": 0, "type": "electric_scooter"}, {"fusion_lat": 0.0, "name": "aab31dc69670c3441a480ec55c9ce4f8", "lon": -77.04283933333333, "rental_uris": {"android": "https://dc.lft.to/lastmile_qr_scan", "ios": "https://dc.lft.to/lastmile_qr_scan"}, "fusion_lon": 0.0, "bike_id": "aab31dc69670c3441a480ec55c9ce4f8", "is_disabled": 0, "lat": 38.905411666666666, "is_reserved": 0, "type": "electric_scooter"}, {"fusion_lat": 0.0, "name": "6598271112769753b0ed21184710fbd1", "lon": -76.994739, "rental_uris": {"android": "https://dc.lft.to/lastmile_qr_scan", "ios": "https://dc.lft.to/lastmile_qr_scan"}, "fusion_lon": 0.0, "bike_id": "6598271112769753b0ed21184710fbd1", "is_disabled": 0, "lat": 38.86213166666667, "is_reserved": 0, "type": "electric_scooter"}, {"fusion_lat": 0.0, "name": "f09ebf4eef0fe282bf89fbbc52ef962f", "lon": -77.03264083333333, "rental_uris": {"android": "https://dc.lft.to/lastmile_qr_scan", "ios": "https://dc.lft.to/lastmile_qr_scan"}, "fusion_lon": 0.0, "bike_id": "f09ebf4eef0fe282bf89fbbc52ef962f", "is_disabled": 0, "lat": 38.9210085, "is_reserved": 0, "type": "electric_scooter"}, {"fusion_lat": 0.0, "name": "de61b6857acada37ad25bd2222391650", "lon": -77.049075, "rental_uris": {"android": "https://dc.lft.to/lastmile_qr_scan", "ios": "https://dc.lft.to/lastmile_qr_scan"}, "fusion_lon": 0.0, "bike_id": "de61b6857acada37ad25bd2222391650", "is_disabled": 0, "lat": 38.91169033333333, "is_reserved": 0, "type": "electric_scooter"}, {"fusion_lat": 0.0, "name": "ac8181e3c65f8a630f8c33aa5edda696", "lon": -77.01528033333334, "rental_uris": {"android": "https://dc.lft.to/lastmile_qr_scan", "ios": "https://dc.lft.to/lastmile_qr_scan"}, "fusion_lon": 0.0, "bike_id": "ac8181e3c65f8a630f8c33aa5edda696", "is_disabled": 0, "lat": 38.900520666666665, "is_reserved": 0, "type": "electric_scooter"}, {"fusion_lat": 0.0, "name": "1325294451f50469d8a66e5f841e20c8", "lon": -77.0439455, "rental_uris": {"android": "https://dc.lft.to/lastmile_qr_scan", "ios": "https://dc.lft.to/lastmile_qr_scan"}, "fusion_lon": 0.0, "bike_id": "1325294451f50469d8a66e5f841e20c8", "is_disabled": 0, "lat": 38.90964566666667, "is_reserved": 0, "type": "electric_scooter"}, {"fusion_lat": 0.0, "name": "a8363fdd1f404c575575ea17ba1238f8", "lon": -77.02889366666666, "rental_uris": {"android": "https://dc.lft.to/lastmile_qr_scan", "ios": "https://dc.lft.to/lastmile_qr_scan"}, "fusion_lon": 0.0, "bike_id": "a8363fdd1f404c575575ea17ba1238f8", "is_disabled": 0, "lat": 38.939827333333334, "is_reserved": 0, "type": "electric_scooter"}, {"fusion_lat": 0.0, "name": "477624faaff8b5535b1b41fddfcb1afb", "lon": -77.1309945, "rental_uris": {"android": "https://dc.lft.to/lastmile_qr_scan", "ios": "https://dc.lft.to/lastmile_qr_scan"}, "fusion_lon": 0.0, "bike_id": "477624faaff8b5535b1b41fddfcb1afb", "is_disabled": 0, "lat": 39.024314, "is_reserved": 0, "type": "electric_bike"}, {"fusion_lat": 0.0, "name": "d08b906113cb0423cc64a86b3298decb", "lon": -77.0256275, "rental_uris": {"android": "https://dc.lft.to/lastmile_qr_scan", "ios": "https://dc.lft.to/lastmile_qr_scan"}, "fusion_lon": 0.0, "bike_id": "d08b906113cb0423cc64a86b3298decb", "is_disabled": 0, "lat": 38.93860933333333, "is_reserved": 0, "type": "electric_scooter"}, {"fusion_lat": 0.0, "name": "0bce5ec64ccf78ec489c1858bcee88b9", "lon": -77.05110266666667, "rental_uris": {"android": "https://dc.lft.to/lastmile_qr_scan", "ios": "https://dc.lft.to/lastmile_qr_scan"}, "fusion_lon": 0.0, "bike_id": "0bce5ec64ccf78ec489c1858bcee88b9", "is_disabled": 0, "lat": 38.9235795, "is_reserved": 0, "type": "electric_scooter"}, {"fusion_lat": 0.0, "name": "6dfc68e0caed24bfd5d06e54e0fcb571", "lon": -77.0416965, "rental_uris": {"android": "https://dc.lft.to/lastmile_qr_scan", "ios": "https://dc.lft.to/lastmile_qr_scan"}, "fusion_lon": 0.0, "bike_id": "6dfc68e0caed24bfd5d06e54e0fcb571", "is_disabled": 0, "lat": 38.91857316666667, "is_reserved": 0, "type": "electric_scooter"}, {"fusion_lat": 0.0, "name": "acdee603a4b45aba1de07cfbefd1d5c4", "lon": -77.24531383333333, "rental_uris": {"android": "https://dc.lft.to/lastmile_qr_scan", "ios": "https://dc.lft.to/lastmile_qr_scan"}, "fusion_lon": 0.0, "bike_id": "acdee603a4b45aba1de07cfbefd1d5c4", "is_disabled": 0, "lat": 38.882391, "is_reserved": 0, "type": "electric_bike"}, {"fusion_lat": 0.0, "name": "2e41c370989ec46bafb0dd5929da8bf7", "lon": -77.04610366666667, "rental_uris": {"android": "https://dc.lft.to/lastmile_qr_scan", "ios": "https://dc.lft.to/lastmile_qr_scan"}, "fusion_lon": 0.0, "bike_id": "2e41c370989ec46bafb0dd5929da8bf7", "is_disabled": 0, "lat": 38.90255033333333, "is_reserved": 0, "type": "electric_scooter"}, {"fusion_lat": 0.0, "name": "0e5feaf5df8603871fdbeaf0c8814718", "lon": -77.02959133333333, "rental_uris": {"android": "https://dc.lft.to/lastmile_qr_scan", "ios": "https://dc.lft.to/lastmile_qr_scan"}, "fusion_lon": 0.0, "bike_id": "0e5feaf5df8603871fdbeaf0c8814718", "is_disabled": 0, "lat": 38.916749333333335, "is_reserved": 0, "type": "electric_scooter"}, {"fusion_lat": 0.0, "name": "7cf4388fdb9a8db9d916795853952647", "lon": -77.02823333333333, "rental_uris": {"android": "https://dc.lft.to/lastmile_qr_scan", "ios": "https://dc.lft.to/lastmile_qr_scan"}, "fusion_lon": 0.0, "bike_id": "7cf4388fdb9a8db9d916795853952647", "is_disabled": 0, "lat": 38.887254166666665, "is_reserved": 0, "type": "electric_scooter"}, {"fusion_lat": 0.0, "name": "f5335b500134d52d14985174647df41d", "lon": -76.99144883333334, "rental_uris": {"android": "https://dc.lft.to/lastmile_qr_scan", "ios": "https://dc.lft.to/lastmile_qr_scan"}, "fusion_lon": 0.0, "bike_id": "f5335b500134d52d14985174647df41d", "is_disabled": 0, "lat": 38.88594416666667, "is_reserved": 0, "type": "electric_scooter"}, {"fusion_lat": 0.0, "name": "80cdfabc847e56f138c53ad8082a2002", "lon": -77.02213133333333, "rental_uris": {"android": "https://dc.lft.to/lastmile_qr_scan", "ios": "https://dc.lft.to/lastmile_qr_scan"}, "fusion_lon": 0.0, "bike_id": "80cdfabc847e56f138c53ad8082a2002", "is_disabled": 0, "lat": 38.924719, "is_reserved": 0, "type": "electric_scooter"}, {"fusion_lat": 0.0, "name": "712d694b08e34d7c20e3f2d1155b9711", "lon": -77.039553, "rental_uris": {"android": "https://dc.lft.to/lastmile_qr_scan", "ios": "https://dc.lft.to/lastmile_qr_scan"}, "fusion_lon": 0.0, "bike_id": "712d694b08e34d7c20e3f2d1155b9711", "is_disabled": 0, "lat": 38.898673, "is_reserved": 0, "type": "electric_scooter"}, {"fusion_lat": 0.0, "name": "e07764f97ce539ee6ddce2f01c77c6e6", "lon": -77.02268383333333, "rental_uris": {"android": "https://dc.lft.to/lastmile_qr_scan", "ios": "https://dc.lft.to/lastmile_qr_scan"}, "fusion_lon": 0.0, "bike_id": "e07764f97ce539ee6ddce2f01c77c6e6", "is_disabled": 0, "lat": 38.92474283333333, "is_reserved": 0, "type": "electric_scooter"}, {"fusion_lat": 0.0, "name": "34a47ca2976dab98791175096cb89350", "lon": -77.03210183333333, "rental_uris": {"android": "https://dc.lft.to/lastmile_qr_scan", "ios": "https://dc.lft.to/lastmile_qr_scan"}, "fusion_lon": 0.0, "bike_id": "34a47ca2976dab98791175096cb89350", "is_disabled": 0, "lat": 38.919562666666664, "is_reserved": 0, "type": "electric_scooter"}, {"fusion_lat": 0.0, "name": "37b21dcb212c8ecd049074ca5fc48775", "lon": -76.95195183333334, "rental_uris": {"android": "https://dc.lft.to/lastmile_qr_scan", "ios": "https://dc.lft.to/lastmile_qr_scan"}, "fusion_lon": 0.0, "bike_id": "37b21dcb212c8ecd049074ca5fc48775", "is_disabled": 0, "lat": 38.90004533333333, "is_reserved": 0, "type": "electric_scooter"}, {"fusion_lat": 0.0, "name": "b5439ba6bfbe4e682d3431271b031c7c", "lon": -77.00301116666667, "rental_uris": {"android": "https://dc.lft.to/lastmile_qr_scan", "ios": "https://dc.lft.to/lastmile_qr_scan"}, "fusion_lon": 0.0, "bike_id": "b5439ba6bfbe4e682d3431271b031c7c", "is_disabled": 0, "lat": 38.89187883333334, "is_reserved": 0, "type": "electric_scooter"}, {"fusion_lat": 0.0, "name": "97e49ecce1d18cb2e3d6790820e22872", "lon": -77.04091916666667, "rental_uris": {"android": "https://dc.lft.to/lastmile_qr_scan", "ios": "https://dc.lft.to/lastmile_qr_scan"}, "fusion_lon": 0.0, "bike_id": "97e49ecce1d18cb2e3d6790820e22872", "is_disabled": 0, "lat": 38.9237005, "is_reserved": 0, "type": "electric_scooter"}, {"fusion_lat": 0.0, "name": "6b85687894433fb46407bd5b17a03da8", "lon": -77.04366633333333, "rental_uris": {"android": "https://dc.lft.to/lastmile_qr_scan", "ios": "https://dc.lft.to/lastmile_qr_scan"}, "fusion_lon": 0.0, "bike_id": "6b85687894433fb46407bd5b17a03da8", "is_disabled": 0, "lat": 38.898325, "is_reserved": 0, "type": "electric_scooter"}, {"fusion_lat": 0.0, "name": "8b6103e8b3d2d2edeeafafa0a0ce99a7", "lon": -77.052342, "rental_uris": {"android": "https://dc.lft.to/lastmile_qr_scan", "ios": "https://dc.lft.to/lastmile_qr_scan"}, "fusion_lon": 0.0, "bike_id": "8b6103e8b3d2d2edeeafafa0a0ce99a7", "is_disabled": 0, "lat": 38.925426333333334, "is_reserved": 0, "type": "electric_scooter"}, {"fusion_lat": 0.0, "name": "c343012b57af749d2e3180de9021df7c", "lon": -77.03384333333334, "rental_uris": {"android": "https://dc.lft.to/lastmile_qr_scan", "ios": "https://dc.lft.to/lastmile_qr_scan"}, "fusion_lon": 0.0, "bike_id": "c343012b57af749d2e3180de9021df7c", "is_disabled": 0, "lat": 38.886514, "is_reserved": 0, "type": "electric_scooter"}, {"fusion_lat": 0.0, "name": "0da019ac30775bf32759a38306e3e3bd", "lon": -77.03425033333333, "rental_uris": {"android": "https://dc.lft.to/lastmile_qr_scan", "ios": "https://dc.lft.to/lastmile_qr_scan"}, "fusion_lon": 0.0, "bike_id": "0da019ac30775bf32759a38306e3e3bd", "is_disabled": 0, "lat": 38.900941333333336, "is_reserved": 0, "type": "electric_scooter"}, {"fusion_lat": 0.0, "name": "7f9f67a4f1ae6a38686ff33785cb50a2", "lon": -77.05312016666667, "rental_uris": {"android": "https://dc.lft.to/lastmile_qr_scan", "ios": "https://dc.lft.to/lastmile_qr_scan"}, "fusion_lon": 0.0, "bike_id": "7f9f67a4f1ae6a38686ff33785cb50a2", "is_disabled": 0, "lat": 38.904166833333335, "is_reserved": 0, "type": "electric_scooter"}, {"fusion_lat": 0.0, "name": "a3f4531010a73665be7af101e7b55770", "lon": -77.03116433333334, "rental_uris": {"android": "https://dc.lft.to/lastmile_qr_scan", "ios": "https://dc.lft.to/lastmile_qr_scan"}, "fusion_lon": 0.0, "bike_id": "a3f4531010a73665be7af101e7b55770", "is_disabled": 0, "lat": 38.915617, "is_reserved": 0, "type": "electric_scooter"}, {"fusion_lat": 0.0, "name": "3fd1c359c1bee90b76c85faa904f2e42", "lon": -77.06364616666667, "rental_uris": {"android": "https://dc.lft.to/lastmile_qr_scan", "ios": "https://dc.lft.to/lastmile_qr_scan"}, "fusion_lon": 0.0, "bike_id": "3fd1c359c1bee90b76c85faa904f2e42", "is_disabled": 0, "lat": 38.9079195, "is_reserved": 0, "type": "electric_scooter"}, {"fusion_lat": 0.0, "name": "aec3c84b7b2ec37f7dd2c1bb2ca632d8", "lon": -77.04498233333334, "rental_uris": {"android": "https://dc.lft.to/lastmile_qr_scan", "ios": "https://dc.lft.to/lastmile_qr_scan"}, "fusion_lon": 0.0, "bike_id": "aec3c84b7b2ec37f7dd2c1bb2ca632d8", "is_disabled": 0, "lat": 38.9111005, "is_reserved": 0, "type": "electric_scooter"}, {"fusion_lat": 0.0, "name": "f559b7342144cf77849aa9bd1a436f4e", "lon": -77.0220865, "rental_uris": {"android": "https://dc.lft.to/lastmile_qr_scan", "ios": "https://dc.lft.to/lastmile_qr_scan"}, "fusion_lon": 0.0, "bike_id": "f559b7342144cf77849aa9bd1a436f4e", "is_disabled": 0, "lat": 38.88737883333334, "is_reserved": 0, "type": "electric_scooter"}, {"fusion_lat": 0.0, "name": "a87aed1650b8720cc1a7758abc8db775", "lon": -77.05497066666666, "rental_uris": {"android": "https://dc.lft.to/lastmile_qr_scan", "ios": "https://dc.lft.to/lastmile_qr_scan"}, "fusion_lon": 0.0, "bike_id": "a87aed1650b8720cc1a7758abc8db775", "is_disabled": 0, "lat": 38.91513033333333, "is_reserved": 0, "type": "electric_scooter"}, {"fusion_lat": 0.0, "name": "25796a3e4de00169afb658d9f19e713d", "lon": -77.05146783333333, "rental_uris": {"android": "https://dc.lft.to/lastmile_qr_scan", "ios": "https://dc.lft.to/lastmile_qr_scan"}, "fusion_lon": 0.0, "bike_id": "25796a3e4de00169afb658d9f19e713d", "is_disabled": 0, "lat": 38.923737833333334, "is_reserved": 0, "type": "electric_scooter"}, {"fusion_lat": 0.0, "name": "a353385419cd91f4e1e545d28dd765cc", "lon": -76.93139816666667, "rental_uris": {"android": "https://dc.lft.to/lastmile_qr_scan", "ios": "https://dc.lft.to/lastmile_qr_scan"}, "fusion_lon": 0.0, "bike_id": "a353385419cd91f4e1e545d28dd765cc", "is_disabled": 0, "lat": 38.8784215, "is_reserved": 0, "type": "electric_scooter"}, {"fusion_lat": 0.0, "name": "a54826f5f69590fe6e18e3aa48359edc", "lon": -77.03104016666667, "rental_uris": {"android": "https://dc.lft.to/lastmile_qr_scan", "ios": "https://dc.lft.to/lastmile_qr_scan"}, "fusion_lon": 0.0, "bike_id": "a54826f5f69590fe6e18e3aa48359edc", "is_disabled": 0, "lat": 38.932396, "is_reserved": 0, "type": "electric_scooter"}, {"fusion_lat": 0.0, "name": "58ed49d82355f648338545110ff8062a", "lon": -76.93733316666666, "rental_uris": {"android": "https://dc.lft.to/lastmile_qr_scan", "ios": "https://dc.lft.to/lastmile_qr_scan"}, "fusion_lon": 0.0, "bike_id": "58ed49d82355f648338545110ff8062a", "is_disabled": 0, "lat": 38.8901245, "is_reserved": 0, "type": "electric_scooter"}, {"fusion_lat": 0.0, "name": "de4b011a4c618f6a2b69bc07e48ef02d", "lon": -77.04365566666667, "rental_uris": {"android": "https://dc.lft.to/lastmile_qr_scan", "ios": "https://dc.lft.to/lastmile_qr_scan"}, "fusion_lon": 0.0, "bike_id": "de4b011a4c618f6a2b69bc07e48ef02d", "is_disabled": 0, "lat": 38.90453866666667, "is_reserved": 0, "type": "electric_scooter"}, {"fusion_lat": 0.0, "name": "4eb716cf7b042e796a3ade64f972268c", "lon": -77.07013333333333, "rental_uris": {"android": "https://dc.lft.to/lastmile_qr_scan", "ios": "https://dc.lft.to/lastmile_qr_scan"}, "fusion_lon": 0.0, "bike_id": "4eb716cf7b042e796a3ade64f972268c", "is_disabled": 0, "lat": 38.906667166666665, "is_reserved": 0, "type": "electric_scooter"}, {"fusion_lat": 0.0, "name": "d16e92c95619b5081c8edcd637c2c48a", "lon": -77.0306685, "rental_uris": {"android": "https://dc.lft.to/lastmile_qr_scan", "ios": "https://dc.lft.to/lastmile_qr_scan"}, "fusion_lon": 0.0, "bike_id": "d16e92c95619b5081c8edcd637c2c48a", "is_disabled": 0, "lat": 38.89710183333333, "is_reserved": 0, "type": "electric_scooter"}, {"fusion_lat": 0.0, "name": "92095816785bc852fb2454b7498ef09d", "lon": -76.99306266666666, "rental_uris": {"android": "https://dc.lft.to/lastmile_qr_scan", "ios": "https://dc.lft.to/lastmile_qr_scan"}, "fusion_lon": 0.0, "bike_id": "92095816785bc852fb2454b7498ef09d", "is_disabled": 0, "lat": 38.9001575, "is_reserved": 0, "type": "electric_scooter"}, {"fusion_lat": 0.0, "name": "1ff12a4a50b12af41ca9074e81716619", "lon": -77.00210516666667, "rental_uris": {"android": "https://dc.lft.to/lastmile_qr_scan", "ios": "https://dc.lft.to/lastmile_qr_scan"}, "fusion_lon": 0.0, "bike_id": "1ff12a4a50b12af41ca9074e81716619", "is_disabled": 0, "lat": 38.911898666666666, "is_reserved": 0, "type": "electric_scooter"}, {"fusion_lat": 0.0, "name": "a1257a49b785b4c0a2ec3e5f4b0cecdc", "lon": -77.0733105, "rental_uris": {"android": "https://dc.lft.to/lastmile_qr_scan", "ios": "https://dc.lft.to/lastmile_qr_scan"}, "fusion_lon": 0.0, "bike_id": "a1257a49b785b4c0a2ec3e5f4b0cecdc", "is_disabled": 0, "lat": 38.934876833333334, "is_reserved": 0, "type": "electric_scooter"}, {"fusion_lat": 0.0, "name": "065f994206637eb06be7f9f9ff5ddf4a", "lon": -77.0336455, "rental_uris": {"android": "https://dc.lft.to/lastmile_qr_scan", "ios": "https://dc.lft.to/lastmile_qr_scan"}, "fusion_lon": 0.0, "bike_id": "065f994206637eb06be7f9f9ff5ddf4a", "is_disabled": 0, "lat": 38.928028833333336, "is_reserved": 0, "type": "electric_scooter"}, {"fusion_lat": 0.0, "name": "94064a5e6310dd4b4985fe7b1f9937f2", "lon": -77.0420315, "rental_uris": {"android": "https://dc.lft.to/lastmile_qr_scan", "ios": "https://dc.lft.to/lastmile_qr_scan"}, "fusion_lon": 0.0, "bike_id": "94064a5e6310dd4b4985fe7b1f9937f2", "is_disabled": 0, "lat": 38.923164166666666, "is_reserved": 0, "type": "electric_scooter"}, {"fusion_lat": 0.0, "name": "f2fd5aff79709d185579c66ebed5d269", "lon": -77.04894566666667, "rental_uris": {"android": "https://dc.lft.to/lastmile_qr_scan", "ios": "https://dc.lft.to/lastmile_qr_scan"}, "fusion_lon": 0.0, "bike_id": "f2fd5aff79709d185579c66ebed5d269", "is_disabled": 0, "lat": 38.892242333333336, "is_reserved": 0, "type": "electric_scooter"}, {"fusion_lat": 0.0, "name": "e0bf877289e044fd6f9589125b24b5ac", "lon": -77.02113433333334, "rental_uris": {"android": "https://dc.lft.to/lastmile_qr_scan", "ios": "https://dc.lft.to/lastmile_qr_scan"}, "fusion_lon": 0.0, "bike_id": "e0bf877289e044fd6f9589125b24b5ac", "is_disabled": 0, "lat": 38.9154845, "is_reserved": 0, "type": "electric_scooter"}, {"fusion_lat": 0.0, "name": "022b21a7b5d7e9b8bc6619b5e72f41d2", "lon": -77.01868033333334, "rental_uris": {"android": "https://dc.lft.to/lastmile_qr_scan", "ios": "https://dc.lft.to/lastmile_qr_scan"}, "fusion_lon": 0.0, "bike_id": "022b21a7b5d7e9b8bc6619b5e72f41d2", "is_disabled": 0, "lat": 38.921165, "is_reserved": 0, "type": "electric_scooter"}, {"fusion_lat": 0.0, "name": "42e1d98cc88fe4d86bd764a14f0480b4", "lon": -77.03185283333333, "rental_uris": {"android": "https://dc.lft.to/lastmile_qr_scan", "ios": "https://dc.lft.to/lastmile_qr_scan"}, "fusion_lon": 0.0, "bike_id": "42e1d98cc88fe4d86bd764a14f0480b4", "is_disabled": 0, "lat": 38.910736166666666, "is_reserved": 0, "type": "electric_scooter"}, {"fusion_lat": 0.0, "name": "f38c9254d3b6da62e597d4e57806f6da", "lon": -77.06901183333333, "rental_uris": {"android": "https://dc.lft.to/lastmile_qr_scan", "ios": "https://dc.lft.to/lastmile_qr_scan"}, "fusion_lon": 0.0, "bike_id": "f38c9254d3b6da62e597d4e57806f6da", "is_disabled": 0, "lat": 38.9050475, "is_reserved": 0, "type": "electric_scooter"}, {"fusion_lat": 0.0, "name": "3bd7165c9d6c4ea084863fe7579e8ae6", "lon": -77.04237433333333, "rental_uris": {"android": "https://dc.lft.to/lastmile_qr_scan", "ios": "https://dc.lft.to/lastmile_qr_scan"}, "fusion_lon": 0.0, "bike_id": "3bd7165c9d6c4ea084863fe7579e8ae6", "is_disabled": 0, "lat": 38.921927833333335, "is_reserved": 0, "type": "electric_scooter"}, {"fusion_lat": 0.0, "name": "b05c4fe0dbc391280d26680990a198c6", "lon": -76.98948, "rental_uris": {"android": "https://dc.lft.to/lastmile_qr_scan", "ios": "https://dc.lft.to/lastmile_qr_scan"}, "fusion_lon": 0.0, "bike_id": "b05c4fe0dbc391280d26680990a198c6", "is_disabled": 0, "lat": 38.866906166666666, "is_reserved": 0, "type": "electric_bike"}, {"fusion_lat": 0.0, "name": "05f2bce79b5cf08dae4d1bf47c57c342", "lon": -76.98348116666666, "rental_uris": {"android": "https://dc.lft.to/lastmile_qr_scan", "ios": "https://dc.lft.to/lastmile_qr_scan"}, "fusion_lon": 0.0, "bike_id": "05f2bce79b5cf08dae4d1bf47c57c342", "is_disabled": 0, "lat": 38.887122833333336, "is_reserved": 0, "type": "electric_scooter"}, {"fusion_lat": 0.0, "name": "04d73780a3dc133e7940d3f7c8225943", "lon": -76.98351866666667, "rental_uris": {"android": "https://dc.lft.to/lastmile_qr_scan", "ios": "https://dc.lft.to/lastmile_qr_scan"}, "fusion_lon": 0.0, "bike_id": "04d73780a3dc133e7940d3f7c8225943", "is_disabled": 0, "lat": 38.84991133333333, "is_reserved": 0, "type": "electric_scooter"}, {"fusion_lat": 0.0, "name": "11109cfb0a217d978f8311bd302efe98", "lon": -76.937538, "rental_uris": {"android": "https://dc.lft.to/lastmile_qr_scan", "ios": "https://dc.lft.to/lastmile_qr_scan"}, "fusion_lon": 0.0, "bike_id": "11109cfb0a217d978f8311bd302efe98", "is_disabled": 0, "lat": 38.890355, "is_reserved": 0, "type": "electric_scooter"}, {"fusion_lat": 0.0, "name": "770116f10e8a7c74cd10e383dd1f4e3d", "lon": -77.03491316666667, "rental_uris": {"android": "https://dc.lft.to/lastmile_qr_scan", "ios": "https://dc.lft.to/lastmile_qr_scan"}, "fusion_lon": 0.0, "bike_id": "770116f10e8a7c74cd10e383dd1f4e3d", "is_disabled": 0, "lat": 38.916908166666666, "is_reserved": 0, "type": "electric_scooter"}, {"fusion_lat": 0.0, "name": "fcf616ee16bc9e8bd6b7210c920ceb12", "lon": -77.03295583333333, "rental_uris": {"android": "https://dc.lft.to/lastmile_qr_scan", "ios": "https://dc.lft.to/lastmile_qr_scan"}, "fusion_lon": 0.0, "bike_id": "fcf616ee16bc9e8bd6b7210c920ceb12", "is_disabled": 0, "lat": 38.903274333333336, "is_reserved": 0, "type": "electric_scooter"}, {"fusion_lat": 0.0, "name": "b5d288dd805bd3b55f3701b914d4b0f0", "lon": -77.0368985, "rental_uris": {"android": "https://dc.lft.to/lastmile_qr_scan", "ios": "https://dc.lft.to/lastmile_qr_scan"}, "fusion_lon": 0.0, "bike_id": "b5d288dd805bd3b55f3701b914d4b0f0", "is_disabled": 0, "lat": 38.91678066666667, "is_reserved": 0, "type": "electric_scooter"}, {"fusion_lat": 0.0, "name": "67b3369945e6349286f8591cac0aa454", "lon": -77.02674666666667, "rental_uris": {"android": "https://dc.lft.to/lastmile_qr_scan", "ios": "https://dc.lft.to/lastmile_qr_scan"}, "fusion_lon": 0.0, "bike_id": "67b3369945e6349286f8591cac0aa454", "is_disabled": 0, "lat": 38.927649333333335, "is_reserved": 0, "type": "electric_scooter"}, {"fusion_lat": 0.0, "name": "7d4a07e4cc940e6db0e5dcb466ef0d02", "lon": -76.951369, "rental_uris": {"android": "https://dc.lft.to/lastmile_qr_scan", "ios": "https://dc.lft.to/lastmile_qr_scan"}, "fusion_lon": 0.0, "bike_id": "7d4a07e4cc940e6db0e5dcb466ef0d02", "is_disabled": 0, "lat": 38.893277, "is_reserved": 0, "type": "electric_scooter"}, {"fusion_lat": 0.0, "name": "dc5e4dcc240e0c1cc191623e7ff0d5d9", "lon": -76.97009533333333, "rental_uris": {"android": "https://dc.lft.to/lastmile_qr_scan", "ios": "https://dc.lft.to/lastmile_qr_scan"}, "fusion_lon": 0.0, "bike_id": "dc5e4dcc240e0c1cc191623e7ff0d5d9", "is_disabled": 0, "lat": 38.85252366666667, "is_reserved": 0, "type": "electric_scooter"}, {"fusion_lat": 0.0, "name": "089f5b929541d11543102e7a230b2ae5", "lon": -76.93112133333334, "rental_uris": {"android": "https://dc.lft.to/lastmile_qr_scan", "ios": "https://dc.lft.to/lastmile_qr_scan"}, "fusion_lon": 0.0, "bike_id": "089f5b929541d11543102e7a230b2ae5", "is_disabled": 0, "lat": 38.88987366666667, "is_reserved": 0, "type": "electric_scooter"}, {"fusion_lat": 0.0, "name": "72086613698b6b49e6dd79c890808bce", "lon": -77.02327583333333, "rental_uris": {"android": "https://dc.lft.to/lastmile_qr_scan", "ios": "https://dc.lft.to/lastmile_qr_scan"}, "fusion_lon": 0.0, "bike_id": "72086613698b6b49e6dd79c890808bce", "is_disabled": 0, "lat": 38.91849083333334, "is_reserved": 0, "type": "electric_scooter"}, {"fusion_lat": 0.0, "name": "dfcc2968e3f5f6da5cdd71c3bfef9b2d", "lon": -77.0316785, "rental_uris": {"android": "https://dc.lft.to/lastmile_qr_scan", "ios": "https://dc.lft.to/lastmile_qr_scan"}, "fusion_lon": 0.0, "bike_id": "dfcc2968e3f5f6da5cdd71c3bfef9b2d", "is_disabled": 0, "lat": 38.89211616666667, "is_reserved": 0, "type": "electric_scooter"}, {"fusion_lat": 0.0, "name": "99e4fa801376393009a80a62e046511c", "lon": -77.02201916666667, "rental_uris": {"android": "https://dc.lft.to/lastmile_qr_scan", "ios": "https://dc.lft.to/lastmile_qr_scan"}, "fusion_lon": 0.0, "bike_id": "99e4fa801376393009a80a62e046511c", "is_disabled": 0, "lat": 38.916162666666665, "is_reserved": 0, "type": "electric_scooter"}, {"fusion_lat": 0.0, "name": "6c27e53aeb2b52b193f037aafd683ccc", "lon": -77.03163933333333, "rental_uris": {"android": "https://dc.lft.to/lastmile_qr_scan", "ios": "https://dc.lft.to/lastmile_qr_scan"}, "fusion_lon": 0.0, "bike_id": "6c27e53aeb2b52b193f037aafd683ccc", "is_disabled": 0, "lat": 38.89985466666667, "is_reserved": 0, "type": "electric_scooter"}, {"fusion_lat": 0.0, "name": "ffe2e5406efca02a0e7ec4b0a5707526", "lon": -77.0226885, "rental_uris": {"android": "https://dc.lft.to/lastmile_qr_scan", "ios": "https://dc.lft.to/lastmile_qr_scan"}, "fusion_lon": 0.0, "bike_id": "ffe2e5406efca02a0e7ec4b0a5707526", "is_disabled": 0, "lat": 38.8995685, "is_reserved": 0, "type": "electric_scooter"}, {"fusion_lat": 0.0, "name": "d9de47368ee8089a7312c09c4fd5da59", "lon": -77.0438535, "rental_uris": {"android": "https://dc.lft.to/lastmile_qr_scan", "ios": "https://dc.lft.to/lastmile_qr_scan"}, "fusion_lon": 0.0, "bike_id": "d9de47368ee8089a7312c09c4fd5da59", "is_disabled": 0, "lat": 38.900381, "is_reserved": 0, "type": "electric_scooter"}, {"fusion_lat": 0.0, "name": "7878490de7051f102448a413c28af5f6", "lon": -77.0305755, "rental_uris": {"android": "https://dc.lft.to/lastmile_qr_scan", "ios": "https://dc.lft.to/lastmile_qr_scan"}, "fusion_lon": 0.0, "bike_id": "7878490de7051f102448a413c28af5f6", "is_disabled": 0, "lat": 38.8841735, "is_reserved": 0, "type": "electric_scooter"}, {"fusion_lat": 0.0, "name": "6d79916663b62d800118b1b9ddefa47e", "lon": -77.03137883333333, "rental_uris": {"android": "https://dc.lft.to/lastmile_qr_scan", "ios": "https://dc.lft.to/lastmile_qr_scan"}, "fusion_lon": 0.0, "bike_id": "6d79916663b62d800118b1b9ddefa47e", "is_disabled": 0, "lat": 38.91755583333333, "is_reserved": 0, "type": "electric_scooter"}, {"fusion_lat": 0.0, "name": "8399abaf831c333e1a3caa04b1ec0801", "lon": -77.04787166666667, "rental_uris": {"android": "https://dc.lft.to/lastmile_qr_scan", "ios": "https://dc.lft.to/lastmile_qr_scan"}, "fusion_lon": 0.0, "bike_id": "8399abaf831c333e1a3caa04b1ec0801", "is_disabled": 0, "lat": 38.8994565, "is_reserved": 0, "type": "electric_scooter"}, {"fusion_lat": 0.0, "name": "b2934dc53955748647cebaf09d52af42", "lon": -76.98894566666667, "rental_uris": {"android": "https://dc.lft.to/lastmile_qr_scan", "ios": "https://dc.lft.to/lastmile_qr_scan"}, "fusion_lon": 0.0, "bike_id": "b2934dc53955748647cebaf09d52af42", "is_disabled": 0, "lat": 38.86653533333333, "is_reserved": 0, "type": "electric_scooter"}, {"fusion_lat": 0.0, "name": "8eccc06bb762a02eec2718788fdc92f4", "lon": -77.04509966666667, "rental_uris": {"android": "https://dc.lft.to/lastmile_qr_scan", "ios": "https://dc.lft.to/lastmile_qr_scan"}, "fusion_lon": 0.0, "bike_id": "8eccc06bb762a02eec2718788fdc92f4", "is_disabled": 0, "lat": 38.903824166666666, "is_reserved": 0, "type": "electric_scooter"}, {"fusion_lat": 0.0, "name": "eb7d4d199fac76ccf23d26b01e32d366", "lon": -77.0330925, "rental_uris": {"android": "https://dc.lft.to/lastmile_qr_scan", "ios": "https://dc.lft.to/lastmile_qr_scan"}, "fusion_lon": 0.0, "bike_id": "eb7d4d199fac76ccf23d26b01e32d366", "is_disabled": 0, "lat": 38.898266666666665, "is_reserved": 0, "type": "electric_scooter"}, {"fusion_lat": 0.0, "name": "b364b9ebf8d61b08fb6bddf1a4c4fc1e", "lon": -77.00905516666667, "rental_uris": {"android": "https://dc.lft.to/lastmile_qr_scan", "ios": "https://dc.lft.to/lastmile_qr_scan"}, "fusion_lon": 0.0, "bike_id": "b364b9ebf8d61b08fb6bddf1a4c4fc1e", "is_disabled": 0, "lat": 38.89542633333333, "is_reserved": 0, "type": "electric_scooter"}, {"fusion_lat": 0.0, "name": "9525d62861942f2003ea1e4873b87ed6", "lon": -77.036469, "rental_uris": {"android": "https://dc.lft.to/lastmile_qr_scan", "ios": "https://dc.lft.to/lastmile_qr_scan"}, "fusion_lon": 0.0, "bike_id": "9525d62861942f2003ea1e4873b87ed6", "is_disabled": 0, "lat": 38.913795666666665, "is_reserved": 0, "type": "electric_scooter"}, {"fusion_lat": 0.0, "name": "03300dc8722a2ad34f7413c02d972e3c", "lon": -76.9900145, "rental_uris": {"android": "https://dc.lft.to/lastmile_qr_scan", "ios": "https://dc.lft.to/lastmile_qr_scan"}, "fusion_lon": 0.0, "bike_id": "03300dc8722a2ad34f7413c02d972e3c", "is_disabled": 0, "lat": 38.86502683333333, "is_reserved": 0, "type": "electric_scooter"}, {"fusion_lat": 0.0, "name": "16e15c10a58f7f5ac6fe400f7cbcc8a2", "lon": -77.02265033333333, "rental_uris": {"android": "https://dc.lft.to/lastmile_qr_scan", "ios": "https://dc.lft.to/lastmile_qr_scan"}, "fusion_lon": 0.0, "bike_id": "16e15c10a58f7f5ac6fe400f7cbcc8a2", "is_disabled": 0, "lat": 38.927399333333334, "is_reserved": 0, "type": "electric_scooter"}, {"fusion_lat": 0.0, "name": "2ca15d5e3d6e43c2ef0e021598150329", "lon": -77.0228375, "rental_uris": {"android": "https://dc.lft.to/lastmile_qr_scan", "ios": "https://dc.lft.to/lastmile_qr_scan"}, "fusion_lon": 0.0, "bike_id": "2ca15d5e3d6e43c2ef0e021598150329", "is_disabled": 0, "lat": 38.926574, "is_reserved": 0, "type": "electric_scooter"}, {"fusion_lat": 0.0, "name": "7ea97fdc40be169ed500f6531ba65c43", "lon": -77.039573, "rental_uris": {"android": "https://dc.lft.to/lastmile_qr_scan", "ios": "https://dc.lft.to/lastmile_qr_scan"}, "fusion_lon": 0.0, "bike_id": "7ea97fdc40be169ed500f6531ba65c43", "is_disabled": 0, "lat": 38.892394, "is_reserved": 0, "type": "electric_scooter"}, {"fusion_lat": 0.0, "name": "faf1f7d12c500a6f6d57ce6805c1c7a2", "lon": -77.10837633333334, "rental_uris": {"android": "https://dc.lft.to/lastmile_qr_scan", "ios": "https://dc.lft.to/lastmile_qr_scan"}, "fusion_lon": 0.0, "bike_id": "faf1f7d12c500a6f6d57ce6805c1c7a2", "is_disabled": 0, "lat": 38.811972833333336, "is_reserved": 0, "type": "electric_bike"}, {"fusion_lat": 0.0, "name": "dcac40298bc073056c6c4804227fa77c", "lon": -77.03000133333333, "rental_uris": {"android": "https://dc.lft.to/lastmile_qr_scan", "ios": "https://dc.lft.to/lastmile_qr_scan"}, "fusion_lon": 0.0, "bike_id": "dcac40298bc073056c6c4804227fa77c", "is_disabled": 0, "lat": 38.901227166666665, "is_reserved": 0, "type": "electric_scooter"}, {"fusion_lat": 0.0, "name": "7492faaa0e9e96b5f19a9ad619f4f674", "lon": -76.92913216666666, "rental_uris": {"android": "https://dc.lft.to/lastmile_qr_scan", "ios": "https://dc.lft.to/lastmile_qr_scan"}, "fusion_lon": 0.0, "bike_id": "7492faaa0e9e96b5f19a9ad619f4f674", "is_disabled": 0, "lat": 38.8929225, "is_reserved": 0, "type": "electric_scooter"}, {"fusion_lat": 0.0, "name": "35de3e7a2d5c1ac68b6eefeaeaed1a6b", "lon": -77.117844, "rental_uris": {"android": "https://dc.lft.to/lastmile_qr_scan", "ios": "https://dc.lft.to/lastmile_qr_scan"}, "fusion_lon": 0.0, "bike_id": "35de3e7a2d5c1ac68b6eefeaeaed1a6b", "is_disabled": 0, "lat": 39.054947166666665, "is_reserved": 0, "type": "electric_bike"}, {"fusion_lat": 0.0, "name": "fccc580905e1ce455e3a7d8c0296d554", "lon": -77.01793533333333, "rental_uris": {"android": "https://dc.lft.to/lastmile_qr_scan", "ios": "https://dc.lft.to/lastmile_qr_scan"}, "fusion_lon": 0.0, "bike_id": "fccc580905e1ce455e3a7d8c0296d554", "is_disabled": 0, "lat": 38.918911333333334, "is_reserved": 0, "type": "electric_scooter"}, {"fusion_lat": 0.0, "name": "bc8e806c4a42584fc5e0404a239347b7", "lon": -77.03274883333333, "rental_uris": {"android": "https://dc.lft.to/lastmile_qr_scan", "ios": "https://dc.lft.to/lastmile_qr_scan"}, "fusion_lon": 0.0, "bike_id": "bc8e806c4a42584fc5e0404a239347b7", "is_disabled": 0, "lat": 38.940930333333334, "is_reserved": 0, "type": "electric_bike"}, {"fusion_lat": 0.0, "name": "a16aefd799e1f76d1430c9d521da5eb0", "lon": -77.0335185, "rental_uris": {"android": "https://dc.lft.to/lastmile_qr_scan", "ios": "https://dc.lft.to/lastmile_qr_scan"}, "fusion_lon": 0.0, "bike_id": "a16aefd799e1f76d1430c9d521da5eb0", "is_disabled": 0, "lat": 38.92161933333333, "is_reserved": 0, "type": "electric_scooter"}, {"fusion_lat": 0.0, "name": "a1fd472004772e48e81bdb991b3a2cec", "lon": -76.9928725, "rental_uris": {"android": "https://dc.lft.to/lastmile_qr_scan", "ios": "https://dc.lft.to/lastmile_qr_scan"}, "fusion_lon": 0.0, "bike_id": "a1fd472004772e48e81bdb991b3a2cec", "is_disabled": 0, "lat": 38.8948225, "is_reserved": 0, "type": "electric_bike"}, {"fusion_lat": 0.0, "name": "ce5533bb903041874b4672edb1012ff1", "lon": -77.00604233333334, "rental_uris": {"android": "https://dc.lft.to/lastmile_qr_scan", "ios": "https://dc.lft.to/lastmile_qr_scan"}, "fusion_lon": 0.0, "bike_id": "ce5533bb903041874b4672edb1012ff1", "is_disabled": 0, "lat": 38.875746, "is_reserved": 0, "type": "electric_scooter"}, {"fusion_lat": 0.0, "name": "f2eb1643b8a63963afda68fcd6a1d13a", "lon": -77.03795716666667, "rental_uris": {"android": "https://dc.lft.to/lastmile_qr_scan", "ios": "https://dc.lft.to/lastmile_qr_scan"}, "fusion_lon": 0.0, "bike_id": "f2eb1643b8a63963afda68fcd6a1d13a", "is_disabled": 0, "lat": 38.91984383333333, "is_reserved": 0, "type": "electric_scooter"}, {"fusion_lat": 0.0, "name": "f5a5af770a63a3bfb7a4416431f3118f", "lon": -77.00351533333334, "rental_uris": {"android": "https://dc.lft.to/lastmile_qr_scan", "ios": "https://dc.lft.to/lastmile_qr_scan"}, "fusion_lon": 0.0, "bike_id": "f5a5af770a63a3bfb7a4416431f3118f", "is_disabled": 0, "lat": 38.881887666666664, "is_reserved": 0, "type": "electric_scooter"}, {"fusion_lat": 0.0, "name": "6cc56c79ebe8565b12cc876cca77dbe4", "lon": -77.02301483333333, "rental_uris": {"android": "https://dc.lft.to/lastmile_qr_scan", "ios": "https://dc.lft.to/lastmile_qr_scan"}, "fusion_lon": 0.0, "bike_id": "6cc56c79ebe8565b12cc876cca77dbe4", "is_disabled": 0, "lat": 38.91745483333333, "is_reserved": 0, "type": "electric_scooter"}, {"fusion_lat": 0.0, "name": "699d822cb4b272e182ee14ce2da4d56d", "lon": -77.06565683333334, "rental_uris": {"android": "https://dc.lft.to/lastmile_qr_scan", "ios": "https://dc.lft.to/lastmile_qr_scan"}, "fusion_lon": 0.0, "bike_id": "699d822cb4b272e182ee14ce2da4d56d", "is_disabled": 0, "lat": 38.8833455, "is_reserved": 0, "type": "electric_bike"}, {"fusion_lat": 0.0, "name": "22e5ffe5eca9a580bbc05e6c621e872d", "lon": -77.0294145, "rental_uris": {"android": "https://dc.lft.to/lastmile_qr_scan", "ios": "https://dc.lft.to/lastmile_qr_scan"}, "fusion_lon": 0.0, "bike_id": "22e5ffe5eca9a580bbc05e6c621e872d", "is_disabled": 0, "lat": 38.898396, "is_reserved": 0, "type": "electric_scooter"}, {"fusion_lat": 0.0, "name": "2ca99a10fdbe0daab13904b4eb07a587", "lon": -77.05126733333333, "rental_uris": {"android": "https://dc.lft.to/lastmile_qr_scan", "ios": "https://dc.lft.to/lastmile_qr_scan"}, "fusion_lon": 0.0, "bike_id": "2ca99a10fdbe0daab13904b4eb07a587", "is_disabled": 0, "lat": 38.9236035, "is_reserved": 0, "type": "electric_scooter"}, {"fusion_lat": 0.0, "name": "47f04d4fc8a45b3c09b1114677990304", "lon": -77.0242645, "rental_uris": {"android": "https://dc.lft.to/lastmile_qr_scan", "ios": "https://dc.lft.to/lastmile_qr_scan"}, "fusion_lon": 0.0, "bike_id": "47f04d4fc8a45b3c09b1114677990304", "is_disabled": 0, "lat": 38.93787416666667, "is_reserved": 0, "type": "electric_bike"}, {"fusion_lat": 0.0, "name": "5806c01e8dea6699a5b065608d59f88b", "lon": -77.00134716666666, "rental_uris": {"android": "https://dc.lft.to/lastmile_qr_scan", "ios": "https://dc.lft.to/lastmile_qr_scan"}, "fusion_lon": 0.0, "bike_id": "5806c01e8dea6699a5b065608d59f88b", "is_disabled": 0, "lat": 38.894696833333334, "is_reserved": 0, "type": "electric_scooter"}, {"fusion_lat": 0.0, "name": "41526d138b0be3743cda587df9f3f796", "lon": -77.04671066666667, "rental_uris": {"android": "https://dc.lft.to/lastmile_qr_scan", "ios": "https://dc.lft.to/lastmile_qr_scan"}, "fusion_lon": 0.0, "bike_id": "41526d138b0be3743cda587df9f3f796", "is_disabled": 0, "lat": 38.89454033333333, "is_reserved": 0, "type": "electric_scooter"}, {"fusion_lat": 0.0, "name": "774b7fc32da8b0c2cfbe622a4428fef2", "lon": -77.04153983333333, "rental_uris": {"android": "https://dc.lft.to/lastmile_qr_scan", "ios": "https://dc.lft.to/lastmile_qr_scan"}, "fusion_lon": 0.0, "bike_id": "774b7fc32da8b0c2cfbe622a4428fef2", "is_disabled": 0, "lat": 38.9173685, "is_reserved": 0, "type": "electric_scooter"}, {"fusion_lat": 0.0, "name": "377ac8d614a4c8b40583bcf92ada2550", "lon": -77.014281, "rental_uris": {"android": "https://dc.lft.to/lastmile_qr_scan", "ios": "https://dc.lft.to/lastmile_qr_scan"}, "fusion_lon": 0.0, "bike_id": "377ac8d614a4c8b40583bcf92ada2550", "is_disabled": 0, "lat": 38.952264166666666, "is_reserved": 0, "type": "electric_scooter"}, {"fusion_lat": 0.0, "name": "f1777c09d8542ee8e913dc7578664179", "lon": -77.023087, "rental_uris": {"android": "https://dc.lft.to/lastmile_qr_scan", "ios": "https://dc.lft.to/lastmile_qr_scan"}, "fusion_lon": 0.0, "bike_id": "f1777c09d8542ee8e913dc7578664179", "is_disabled": 0, "lat": 38.927718, "is_reserved": 0, "type": "electric_scooter"}, {"fusion_lat": 0.0, "name": "ca706943a3bd4ede4c5cc798889f9341", "lon": -77.01191916666667, "rental_uris": {"android": "https://dc.lft.to/lastmile_qr_scan", "ios": "https://dc.lft.to/lastmile_qr_scan"}, "fusion_lon": 0.0, "bike_id": "ca706943a3bd4ede4c5cc798889f9341", "is_disabled": 0, "lat": 38.9154035, "is_reserved": 0, "type": "electric_scooter"}, {"fusion_lat": 0.0, "name": "bf82306da8a9564f9eb1b259c94eac6d", "lon": -77.00407533333333, "rental_uris": {"android": "https://dc.lft.to/lastmile_qr_scan", "ios": "https://dc.lft.to/lastmile_qr_scan"}, "fusion_lon": 0.0, "bike_id": "bf82306da8a9564f9eb1b259c94eac6d", "is_disabled": 0, "lat": 38.930880333333334, "is_reserved": 0, "type": "electric_scooter"}, {"fusion_lat": 0.0, "name": "72224cc02528719624e7c1c64bcee797", "lon": -77.0450205, "rental_uris": {"android": "https://dc.lft.to/lastmile_qr_scan", "ios": "https://dc.lft.to/lastmile_qr_scan"}, "fusion_lon": 0.0, "bike_id": "72224cc02528719624e7c1c64bcee797", "is_disabled": 0, "lat": 38.90001, "is_reserved": 0, "type": "electric_scooter"}, {"fusion_lat": 0.0, "name": "66cf01ee7c2e58d1c500be80228e9010", "lon": -77.037907, "rental_uris": {"android": "https://dc.lft.to/lastmile_qr_scan", "ios": "https://dc.lft.to/lastmile_qr_scan"}, "fusion_lon": 0.0, "bike_id": "66cf01ee7c2e58d1c500be80228e9010", "is_disabled": 0, "lat": 38.91539216666666, "is_reserved": 0, "type": "electric_scooter"}, {"fusion_lat": 0.0, "name": "6f081e37281077c838ce0269f2c1aa9d", "lon": -77.0464955, "rental_uris": {"android": "https://dc.lft.to/lastmile_qr_scan", "ios": "https://dc.lft.to/lastmile_qr_scan"}, "fusion_lon": 0.0, "bike_id": "6f081e37281077c838ce0269f2c1aa9d", "is_disabled": 0, "lat": 38.921159333333335, "is_reserved": 0, "type": "electric_scooter"}, {"fusion_lat": 0.0, "name": "a2108d138736dcca918ed63419aad4a8", "lon": -76.95891616666667, "rental_uris": {"android": "https://dc.lft.to/lastmile_qr_scan", "ios": "https://dc.lft.to/lastmile_qr_scan"}, "fusion_lon": 0.0, "bike_id": "a2108d138736dcca918ed63419aad4a8", "is_disabled": 0, "lat": 38.890083, "is_reserved": 0, "type": "electric_scooter"}, {"fusion_lat": 0.0, "name": "47cd85868e32b7d7ee28907a7c639174", "lon": -77.0338325, "rental_uris": {"android": "https://dc.lft.to/lastmile_qr_scan", "ios": "https://dc.lft.to/lastmile_qr_scan"}, "fusion_lon": 0.0, "bike_id": "47cd85868e32b7d7ee28907a7c639174", "is_disabled": 0, "lat": 38.90542166666667, "is_reserved": 0, "type": "electric_scooter"}, {"fusion_lat": 0.0, "name": "fdd5b027cdb136ab2ebeb21423365aa8", "lon": -77.06100383333333, "rental_uris": {"android": "https://dc.lft.to/lastmile_qr_scan", "ios": "https://dc.lft.to/lastmile_qr_scan"}, "fusion_lon": 0.0, "bike_id": "fdd5b027cdb136ab2ebeb21423365aa8", "is_disabled": 0, "lat": 38.93702066666667, "is_reserved": 0, "type": "electric_scooter"}, {"fusion_lat": 0.0, "name": "e30d2fc53bf3e313357e34a29d66b742", "lon": -77.03375966666667, "rental_uris": {"android": "https://dc.lft.to/lastmile_qr_scan", "ios": "https://dc.lft.to/lastmile_qr_scan"}, "fusion_lon": 0.0, "bike_id": "e30d2fc53bf3e313357e34a29d66b742", "is_disabled": 0, "lat": 38.92138083333333, "is_reserved": 0, "type": "electric_scooter"}, {"fusion_lat": 0.0, "name": "b72a4fc156dd76c6aec881478f8dd645", "lon": -77.0486845, "rental_uris": {"android": "https://dc.lft.to/lastmile_qr_scan", "ios": "https://dc.lft.to/lastmile_qr_scan"}, "fusion_lon": 0.0, "bike_id": "b72a4fc156dd76c6aec881478f8dd645", "is_disabled": 0, "lat": 38.90108133333333, "is_reserved": 0, "type": "electric_scooter"}, {"fusion_lat": 0.0, "name": "e02f781c71f5a5016d674d885b7765f5", "lon": -77.04897116666666, "rental_uris": {"android": "https://dc.lft.to/lastmile_qr_scan", "ios": "https://dc.lft.to/lastmile_qr_scan"}, "fusion_lon": 0.0, "bike_id": "e02f781c71f5a5016d674d885b7765f5", "is_disabled": 0, "lat": 38.916003333333336, "is_reserved": 0, "type": "electric_scooter"}, {"fusion_lat": 0.0, "name": "3f514f846aa3eeca91ba79afacf56bc3", "lon": -77.02625466666667, "rental_uris": {"android": "https://dc.lft.to/lastmile_qr_scan", "ios": "https://dc.lft.to/lastmile_qr_scan"}, "fusion_lon": 0.0, "bike_id": "3f514f846aa3eeca91ba79afacf56bc3", "is_disabled": 0, "lat": 38.88131833333333, "is_reserved": 0, "type": "electric_scooter"}, {"fusion_lat": 0.0, "name": "c5adff5daba8a13f978f25a822b6e4e4", "lon": -77.003627, "rental_uris": {"android": "https://dc.lft.to/lastmile_qr_scan", "ios": "https://dc.lft.to/lastmile_qr_scan"}, "fusion_lon": 0.0, "bike_id": "c5adff5daba8a13f978f25a822b6e4e4", "is_disabled": 0, "lat": 38.91106333333333, "is_reserved": 0, "type": "electric_scooter"}, {"fusion_lat": 0.0, "name": "80009c0720345ea7a5a6aa27a9de3fe2", "lon": -77.04656683333333, "rental_uris": {"android": "https://dc.lft.to/lastmile_qr_scan", "ios": "https://dc.lft.to/lastmile_qr_scan"}, "fusion_lon": 0.0, "bike_id": "80009c0720345ea7a5a6aa27a9de3fe2", "is_disabled": 0, "lat": 38.91165766666667, "is_reserved": 0, "type": "electric_scooter"}, {"fusion_lat": 0.0, "name": "7c4cb178c6cc5c63b5c93bf4fd83801c", "lon": -76.97625633333334, "rental_uris": {"android": "https://dc.lft.to/lastmile_qr_scan", "ios": "https://dc.lft.to/lastmile_qr_scan"}, "fusion_lon": 0.0, "bike_id": "7c4cb178c6cc5c63b5c93bf4fd83801c", "is_disabled": 0, "lat": 38.9056575, "is_reserved": 0, "type": "electric_scooter"}, {"fusion_lat": 0.0, "name": "82654ed423aa576583355900a00f29ae", "lon": -77.07716733333334, "rental_uris": {"android": "https://dc.lft.to/lastmile_qr_scan", "ios": "https://dc.lft.to/lastmile_qr_scan"}, "fusion_lon": 0.0, "bike_id": "82654ed423aa576583355900a00f29ae", "is_disabled": 0, "lat": 38.93133266666667, "is_reserved": 0, "type": "electric_bike"}, {"fusion_lat": 0.0, "name": "f3c5f8265259654fc7183e9ba387b8b5", "lon": -77.02441066666667, "rental_uris": {"android": "https://dc.lft.to/lastmile_qr_scan", "ios": "https://dc.lft.to/lastmile_qr_scan"}, "fusion_lon": 0.0, "bike_id": "f3c5f8265259654fc7183e9ba387b8b5", "is_disabled": 0, "lat": 38.924969833333336, "is_reserved": 0, "type": "electric_scooter"}, {"fusion_lat": 0.0, "name": "f29e961e047aa290d9b1fd8a3e0daa3f", "lon": -77.04071766666667, "rental_uris": {"android": "https://dc.lft.to/lastmile_qr_scan", "ios": "https://dc.lft.to/lastmile_qr_scan"}, "fusion_lon": 0.0, "bike_id": "f29e961e047aa290d9b1fd8a3e0daa3f", "is_disabled": 0, "lat": 38.904578, "is_reserved": 0, "type": "electric_scooter"}, {"fusion_lat": 0.0, "name": "8c25bb57e852c8f47673225a74afaa20", "lon": -77.05726416666667, "rental_uris": {"android": "https://dc.lft.to/lastmile_qr_scan", "ios": "https://dc.lft.to/lastmile_qr_scan"}, "fusion_lon": 0.0, "bike_id": "8c25bb57e852c8f47673225a74afaa20", "is_disabled": 0, "lat": 38.933620833333336, "is_reserved": 0, "type": "electric_scooter"}, {"fusion_lat": 0.0, "name": "58b46404f0de9fd78abe01a186477a07", "lon": -77.01609733333333, "rental_uris": {"android": "https://dc.lft.to/lastmile_qr_scan", "ios": "https://dc.lft.to/lastmile_qr_scan"}, "fusion_lon": 0.0, "bike_id": "58b46404f0de9fd78abe01a186477a07", "is_disabled": 0, "lat": 38.88505583333333, "is_reserved": 0, "type": "electric_scooter"}, {"fusion_lat": 0.0, "name": "b75cf3613deb9a81bdb0b0e6d3478aa2", "lon": -76.93738116666667, "rental_uris": {"android": "https://dc.lft.to/lastmile_qr_scan", "ios": "https://dc.lft.to/lastmile_qr_scan"}, "fusion_lon": 0.0, "bike_id": "b75cf3613deb9a81bdb0b0e6d3478aa2", "is_disabled": 0, "lat": 38.890004833333336, "is_reserved": 0, "type": "electric_scooter"}, {"fusion_lat": 0.0, "name": "e878ffd64f44809474a46f517a69f02a", "lon": -77.03455, "rental_uris": {"android": "https://dc.lft.to/lastmile_qr_scan", "ios": "https://dc.lft.to/lastmile_qr_scan"}, "fusion_lon": 0.0, "bike_id": "e878ffd64f44809474a46f517a69f02a", "is_disabled": 0, "lat": 38.920530666666664, "is_reserved": 0, "type": "electric_scooter"}, {"fusion_lat": 0.0, "name": "823e76d63eb7060207ac5e8009bfef18", "lon": -77.041934, "rental_uris": {"android": "https://dc.lft.to/lastmile_qr_scan", "ios": "https://dc.lft.to/lastmile_qr_scan"}, "fusion_lon": 0.0, "bike_id": "823e76d63eb7060207ac5e8009bfef18", "is_disabled": 0, "lat": 38.92059233333333, "is_reserved": 0, "type": "electric_scooter"}, {"fusion_lat": 0.0, "name": "8ea2a9d842585e979b485444499b628b", "lon": -77.04487283333333, "rental_uris": {"android": "https://dc.lft.to/lastmile_qr_scan", "ios": "https://dc.lft.to/lastmile_qr_scan"}, "fusion_lon": 0.0, "bike_id": "8ea2a9d842585e979b485444499b628b", "is_disabled": 0, "lat": 38.915172, "is_reserved": 0, "type": "electric_scooter"}, {"fusion_lat": 0.0, "name": "040c5c0bb7d8a43ca1769be5e2f71291", "lon": -77.031878, "rental_uris": {"android": "https://dc.lft.to/lastmile_qr_scan", "ios": "https://dc.lft.to/lastmile_qr_scan"}, "fusion_lon": 0.0, "bike_id": "040c5c0bb7d8a43ca1769be5e2f71291", "is_disabled": 0, "lat": 38.892345, "is_reserved": 0, "type": "electric_scooter"}, {"fusion_lat": 0.0, "name": "9ac188394560e1834a0acda657961084", "lon": -77.02609816666667, "rental_uris": {"android": "https://dc.lft.to/lastmile_qr_scan", "ios": "https://dc.lft.to/lastmile_qr_scan"}, "fusion_lon": 0.0, "bike_id": "9ac188394560e1834a0acda657961084", "is_disabled": 0, "lat": 38.95179483333333, "is_reserved": 0, "type": "electric_scooter"}, {"fusion_lat": 0.0, "name": "42a2cbbfb5da4e9a32d1fc2edcf7c729", "lon": -77.03222616666666, "rental_uris": {"android": "https://dc.lft.to/lastmile_qr_scan", "ios": "https://dc.lft.to/lastmile_qr_scan"}, "fusion_lon": 0.0, "bike_id": "42a2cbbfb5da4e9a32d1fc2edcf7c729", "is_disabled": 0, "lat": 38.8922045, "is_reserved": 0, "type": "electric_scooter"}, {"fusion_lat": 0.0, "name": "7ee0352a0559d3d69cc0ce72053801b6", "lon": -77.02966283333333, "rental_uris": {"android": "https://dc.lft.to/lastmile_qr_scan", "ios": "https://dc.lft.to/lastmile_qr_scan"}, "fusion_lon": 0.0, "bike_id": "7ee0352a0559d3d69cc0ce72053801b6", "is_disabled": 0, "lat": 38.91889483333333, "is_reserved": 0, "type": "electric_scooter"}, {"fusion_lat": 0.0, "name": "ad584e6b7de9f9c0e3724569be15e727", "lon": -77.03382783333333, "rental_uris": {"android": "https://dc.lft.to/lastmile_qr_scan", "ios": "https://dc.lft.to/lastmile_qr_scan"}, "fusion_lon": 0.0, "bike_id": "ad584e6b7de9f9c0e3724569be15e727", "is_disabled": 0, "lat": 38.905513, "is_reserved": 0, "type": "electric_scooter"}, {"fusion_lat": 0.0, "name": "bb5274c81166a9a352c67b45f1982163", "lon": -76.9926765, "rental_uris": {"android": "https://dc.lft.to/lastmile_qr_scan", "ios": "https://dc.lft.to/lastmile_qr_scan"}, "fusion_lon": 0.0, "bike_id": "bb5274c81166a9a352c67b45f1982163", "is_disabled": 0, "lat": 38.85757683333333, "is_reserved": 0, "type": "electric_scooter"}, {"fusion_lat": 0.0, "name": "009a5332f32097638434110e5663ec79", "lon": -77.0057175, "rental_uris": {"android": "https://dc.lft.to/lastmile_qr_scan", "ios": "https://dc.lft.to/lastmile_qr_scan"}, "fusion_lon": 0.0, "bike_id": "009a5332f32097638434110e5663ec79", "is_disabled": 0, "lat": 38.8755125, "is_reserved": 0, "type": "electric_scooter"}, {"fusion_lat": 0.0, "name": "4bd3d70a7245b04a1f0d020037f17d2f", "lon": -77.04256933333333, "rental_uris": {"android": "https://dc.lft.to/lastmile_qr_scan", "ios": "https://dc.lft.to/lastmile_qr_scan"}, "fusion_lon": 0.0, "bike_id": "4bd3d70a7245b04a1f0d020037f17d2f", "is_disabled": 0, "lat": 38.90398016666666, "is_reserved": 0, "type": "electric_scooter"}, {"fusion_lat": 0.0, "name": "dcddeb73d4e66d6274060d79a07ea3f8", "lon": -77.05052866666666, "rental_uris": {"android": "https://dc.lft.to/lastmile_qr_scan", "ios": "https://dc.lft.to/lastmile_qr_scan"}, "fusion_lon": 0.0, "bike_id": "dcddeb73d4e66d6274060d79a07ea3f8", "is_disabled": 0, "lat": 38.9052885, "is_reserved": 0, "type": "electric_scooter"}, {"fusion_lat": 0.0, "name": "1faf698712f8d01004c2e0d907f07526", "lon": -77.16689183333334, "rental_uris": {"android": "https://dc.lft.to/lastmile_qr_scan", "ios": "https://dc.lft.to/lastmile_qr_scan"}, "fusion_lon": 0.0, "bike_id": "1faf698712f8d01004c2e0d907f07526", "is_disabled": 0, "lat": 38.88561983333334, "is_reserved": 0, "type": "electric_bike"}, {"fusion_lat": 0.0, "name": "4f639a0457c5a85e33d7279fa8c9d60e", "lon": -77.037954, "rental_uris": {"android": "https://dc.lft.to/lastmile_qr_scan", "ios": "https://dc.lft.to/lastmile_qr_scan"}, "fusion_lon": 0.0, "bike_id": "4f639a0457c5a85e33d7279fa8c9d60e", "is_disabled": 0, "lat": 38.93040633333333, "is_reserved": 0, "type": "electric_scooter"}, {"fusion_lat": 0.0, "name": "bf044b846856b2a36fc98f51a32db985", "lon": -77.03202483333334, "rental_uris": {"android": "https://dc.lft.to/lastmile_qr_scan", "ios": "https://dc.lft.to/lastmile_qr_scan"}, "fusion_lon": 0.0, "bike_id": "bf044b846856b2a36fc98f51a32db985", "is_disabled": 0, "lat": 38.91772233333333, "is_reserved": 0, "type": "electric_scooter"}, {"fusion_lat": 0.0, "name": "4d7891ec4f87c5ceec55611e3f8f6662", "lon": -76.95587466666667, "rental_uris": {"android": "https://dc.lft.to/lastmile_qr_scan", "ios": "https://dc.lft.to/lastmile_qr_scan"}, "fusion_lon": 0.0, "bike_id": "4d7891ec4f87c5ceec55611e3f8f6662", "is_disabled": 0, "lat": 38.886086666666664, "is_reserved": 0, "type": "electric_scooter"}, {"fusion_lat": 0.0, "name": "4f8ad032d2fa8711bd0fcc576910c269", "lon": -77.02121466666667, "rental_uris": {"android": "https://dc.lft.to/lastmile_qr_scan", "ios": "https://dc.lft.to/lastmile_qr_scan"}, "fusion_lon": 0.0, "bike_id": "4f8ad032d2fa8711bd0fcc576910c269", "is_disabled": 0, "lat": 38.914144, "is_reserved": 0, "type": "electric_scooter"},