{"data": {"bikes": [{"is_reserved": 0, "bike_id": "63385550461eecc59abd32bf405e8192", "type": "electric_scooter", "name": "63385550461eecc59abd32bf405e8192", "is_disabled": 0, "fusion_lon": 0.0, "rental_uris": {"android": "https://dc.lft.to/lastmile_qr_scan", "ios": "https://dc.lft.to/lastmile_qr_scan"}, "lat": 38.9649645, "lon": -77.06284766666667, "fusion_lat": 0.0}, {"is_reserved": 0, "bike_id": "78322de862b0ef1953ccbc298d8403fa", "type": "electric_scooter", "name": "78322de862b0ef1953ccbc298d8403fa", "is_disabled": 0, "fusion_lon": 0.0, "rental_uris": {"android": "https://dc.lft.to/lastmile_qr_scan", "ios": "https://dc.lft.to/lastmile_qr_scan"}, "lat": 38.905825, "lon": -76.9862765, "fusion_lat": 0.0}, {"is_reserved": 0, "bike_id": "6eca903f0a6dad5056b8395426ed424b", "type": "electric_scooter", "name": "6eca903f0a6dad5056b8395426ed424b", "is_disabled": 0, "fusion_lon": 0.0, "rental_uris": {"android": "https://dc.lft.to/lastmile_qr_scan", "ios": "https://dc.lft.to/lastmile_qr_scan"}, "lat": 38.932183333333334, "lon": -77.041213, "fusion_lat": 0.0}, {"is_reserved": 0, "bike_id": "a44bda868659f3b9b536bdb3cbf1cd9a", "type": "electric_scooter", "name": "a44bda868659f3b9b536bdb3cbf1cd9a", "is_disabled": 0, "fusion_lon": 0.0, "rental_uris": {"android": "https://dc.lft.to/lastmile_qr_scan", "ios": "https://dc.lft.to/lastmile_qr_scan"}, "lat": 38.9062555, "lon": -77.02607216666667, "fusion_lat": 0.0}, {"is_reserved": 0, "bike_id": "f123dfaa33607a3f635ab106d890a0e0", "type": "electric_scooter", "name": "f123dfaa33607a3f635ab106d890a0e0", "is_disabled": 0, "fusion_lon": 0.0, "rental_uris": {"android": "https://dc.lft.to/lastmile_qr_scan", "ios": "https://dc.lft.to/lastmile_qr_scan"}, "lat": 38.900209333333336, "lon": -77.0439265, "fusion_lat": 0.0}, {"is_reserved": 0, "bike_id": "2caa2baa948c665814bb233ad3cc71a2", "type": "electric_scooter", "name": "2caa2baa948c665814bb233ad3cc71a2", "is_disabled": 0, "fusion_lon": 0.0, "rental_uris": {"android": "https://dc.lft.to/lastmile_qr_scan", "ios": "https://dc.lft.to/lastmile_qr_scan"}, "lat": 38.94301433333333, "lon": -77.05928216666666, "fusion_lat": 0.0}, {"is_reserved": 0, "bike_id": "fb50b89ece6f15ee5d7bd8699a5c1f18", "type": "electric_scooter", "name": "fb50b89ece6f15ee5d7bd8699a5c1f18", "is_disabled": 0, "fusion_lon": 0.0, "rental_uris": {"android": "https://dc.lft.to/lastmile_qr_scan", "ios": "https://dc.lft.to/lastmile_qr_scan"}, "lat": 38.8985165, "lon": -76.93186116666666, "fusion_lat": 0.0}, {"is_reserved": 0, "bike_id": "6e2df437e417079fa202284964922ce3", "type": "electric_scooter", "name": "6e2df437e417079fa202284964922ce3", "is_disabled": 0, "fusion_lon": 0.0, "rental_uris": {"android": "https://dc.lft.to/lastmile_qr_scan", "ios": "https://dc.lft.to/lastmile_qr_scan"}, "lat": 38.944568833333335, "lon": -77.063458, "fusion_lat": 0.0}, {"is_reserved": 0, "bike_id": "c0849dcd1ebdd2613cb9318fea6252ad", "type": "electric_scooter", "name": "c0849dcd1ebdd2613cb9318fea6252ad", "is_disabled": 0, "fusion_lon": 0.0, "rental_uris": {"android": "https://dc.lft.to/lastmile_qr_scan", "ios": "https://dc.lft.to/lastmile_qr_scan"}, "lat": 38.91802283333333, "lon": -77.06825266666667, "fusion_lat": 0.0}, {"is_reserved": 0, "bike_id": "abfe8dbd02fb46356e1ca3e7557cb2ff", "type": "electric_scooter", "name": "abfe8dbd02fb46356e1ca3e7557cb2ff", "is_disabled": 0, "fusion_lon": 0.0, "rental_uris": {"android": "https://dc.lft.to/lastmile_qr_scan", "ios": "https://dc.lft.to/lastmile_qr_scan"}, "lat": 38.916112166666665, "lon": -77.02203483333334, "fusion_lat": 0.0}, {"is_reserved": 0, "bike_id": "61e804a20e7b71a48fa81745f991c706", "type": "electric_scooter", "name": "61e804a20e7b71a48fa81745f991c706", "is_disabled": 0, "fusion_lon": 0.0, "rental_uris": {"android": "https://dc.lft.to/lastmile_qr_scan", "ios": "https://dc.lft.to/lastmile_qr_scan"}, "lat": 38.905113, "lon": -77.02590866666667, "fusion_lat": 0.0}, {"is_reserved": 0, "bike_id": "3d2c2f0f56d6cbb7cd1d2338314d9cf9", "type": "electric_scooter", "name": "3d2c2f0f56d6cbb7cd1d2338314d9cf9", "is_disabled": 0, "fusion_lon": 0.0, "rental_uris": {"android": "https://dc.lft.to/lastmile_qr_scan", "ios": "https://dc.lft.to/lastmile_qr_scan"}, "lat": 38.92773416666667, "lon": -77.02779733333334, "fusion_lat": 0.0}, {"is_reserved": 0, "bike_id": "900bc97989b40849fbc33636fa8b70f7", "type": "electric_scooter", "name": "900bc97989b40849fbc33636fa8b70f7", "is_disabled": 0, "fusion_lon": 0.0, "rental_uris": {"android": "https://dc.lft.to/lastmile_qr_scan", "ios": "https://dc.lft.to/lastmile_qr_scan"}, "lat": 38.907345666666664, "lon": -77.02978866666666, "fusion_lat": 0.0}, {"is_reserved": 0, "bike_id": "7f3af0e5dbc621dbe6dba1a30f4c9e2c", "type": "electric_scooter", "name": "7f3af0e5dbc621dbe6dba1a30f4c9e2c", "is_disabled": 0, "fusion_lon": 0.0, "rental_uris": {"android": "https://dc.lft.to/lastmile_qr_scan", "ios": "https://dc.lft.to/lastmile_qr_scan"}, "lat": 38.89957716666667, "lon": -77.048794, "fusion_lat": 0.0}, {"is_reserved": 0, "bike_id": "bf2cc7b844271ca160719612019e554d", "type": "electric_scooter", "name": "bf2cc7b844271ca160719612019e554d", "is_disabled": 0, "fusion_lon": 0.0, "rental_uris": {"android": "https://dc.lft.to/lastmile_qr_scan", "ios": "https://dc.lft.to/lastmile_qr_scan"}, "lat": 38.92023183333333, "lon": -76.9956065, "fusion_lat": 0.0}, {"is_reserved": 0, "bike_id": "0db36d3d5e4629679edcac81938f82f4", "type": "electric_scooter", "name": "0db36d3d5e4629679edcac81938f82f4", "is_disabled": 0, "fusion_lon": 0.0, "rental_uris": {"android": "https://dc.lft.to/lastmile_qr_scan", "ios": "https://dc.lft.to/lastmile_qr_scan"}, "lat": 38.89870783333333, "lon": -76.94667, "fusion_lat": 0.0}, {"is_reserved": 0, "bike_id": "6604c876daa93b86876d4420a54ad745", "type": "electric_scooter", "name": "6604c876daa93b86876d4420a54ad745", "is_disabled": 0, "fusion_lon": 0.0, "rental_uris": {"android": "https://dc.lft.to/lastmile_qr_scan", "ios": "https://dc.lft.to/lastmile_qr_scan"}, "lat": 38.8688715, "lon": -76.98233333333333, "fusion_lat": 0.0}, {"is_reserved": 0, "bike_id": "1948929f0a3611b5f311f256c2566c15", "type": "electric_scooter", "name": "1948929f0a3611b5f311f256c2566c15", "is_disabled": 0, "fusion_lon": 0.0, "rental_uris": {"android": "https://dc.lft.to/lastmile_qr_scan", "ios": "https://dc.lft.to/lastmile_qr_scan"}, "lat": 38.9361035, "lon": -77.0589325, "fusion_lat": 0.0}, {"is_reserved": 0, "bike_id": "eb49fb0aa7b4a027d5998eca351c5be3", "type": "electric_scooter", "name": "eb49fb0aa7b4a027d5998eca351c5be3", "is_disabled": 0, "fusion_lon": 0.0, "rental_uris": {"android": "https://dc.lft.to/lastmile_qr_scan", "ios": "https://dc.lft.to/lastmile_qr_scan"}, "lat": 38.911183333333334, "lon": -77.0383035, "fusion_lat": 0.0}, {"is_reserved": 0, "bike_id": "705d0fd2fe428a0b5b04b7e4bedf0ab0", "type": "electric_scooter", "name": "705d0fd2fe428a0b5b04b7e4bedf0ab0", "is_disabled": 0, "fusion_lon": 0.0, "rental_uris": {"android": "https://dc.lft.to/lastmile_qr_scan", "ios": "https://dc.lft.to/lastmile_qr_scan"}, "lat": 38.900117333333334, "lon": -77.00329116666667, "fusion_lat": 0.0}, {"is_reserved": 0, "bike_id": "08d2ba22e39d1b89e2e82efa7e237603", "type": "electric_scooter", "name": "08d2ba22e39d1b89e2e82efa7e237603", "is_disabled": 0, "fusion_lon": 0.0, "rental_uris": {"android": "https://dc.lft.to/lastmile_qr_scan", "ios": "https://dc.lft.to/lastmile_qr_scan"}, "lat": 38.92048466666667, "lon": -77.02433466666666, "fusion_lat": 0.0}, {"is_reserved": 0, "bike_id": "63837123dbb6be0b597ef2b068741205", "type": "electric_scooter", "name": "63837123dbb6be0b597ef2b068741205", "is_disabled": 0, "fusion_lon": 0.0, "rental_uris": {"android": "https://dc.lft.to/lastmile_qr_scan", "ios": "https://dc.lft.to/lastmile_qr_scan"}, "lat": 38.911037666666665, "lon": -77.02640483333333, "fusion_lat": 0.0}, {"is_reserved": 0, "bike_id": "72a8874954ae12a3a52d36dbcd3958f9", "type": "electric_scooter", "name": "72a8874954ae12a3a52d36dbcd3958f9", "is_disabled": 0, "fusion_lon": 0.0, "rental_uris": {"android": "https://dc.lft.to/lastmile_qr_scan", "ios": "https://dc.lft.to/lastmile_qr_scan"}, "lat": 38.966071666666664, "lon": -77.02108916666667, "fusion_lat": 0.0}, {"is_reserved": 0, "bike_id": "7296500d0ed23b044e45109e555a9dbf", "type": "electric_scooter", "name": "7296500d0ed23b044e45109e555a9dbf", "is_disabled": 0, "fusion_lon": 0.0, "rental_uris": {"android": "https://dc.lft.to/lastmile_qr_scan", "ios": "https://dc.lft.to/lastmile_qr_scan"}, "lat": 38.91847166666667, "lon": -76.96538233333334, "fusion_lat": 0.0}, {"is_reserved": 0, "bike_id": "5085237da4bcc14e7e07a371e7760826", "type": "electric_scooter", "name": "5085237da4bcc14e7e07a371e7760826", "is_disabled": 0, "fusion_lon": 0.0, "rental_uris": {"android": "https://dc.lft.to/lastmile_qr_scan", "ios": "https://dc.lft.to/lastmile_qr_scan"}, "lat": 38.93558083333333, "lon": -77.0588065, "fusion_lat": 0.0}, {"is_reserved": 0, "bike_id": "ba08d25cc8e053ba6affab81286de862", "type": "electric_scooter", "name": "ba08d25cc8e053ba6affab81286de862", "is_disabled": 0, "fusion_lon": 0.0, "rental_uris": {"android": "https://dc.lft.to/lastmile_qr_scan", "ios": "https://dc.lft.to/lastmile_qr_scan"}, "lat": 38.875183166666666, "lon": -77.0009445, "fusion_lat": 0.0}, {"is_reserved": 0, "bike_id": "aff2ee295a07d22cc89d4c28623ccbad", "type": "electric_scooter", "name": "aff2ee295a07d22cc89d4c28623ccbad", "is_disabled": 0, "fusion_lon": 0.0, "rental_uris": {"android": "https://dc.lft.to/lastmile_qr_scan", "ios": "https://dc.lft.to/lastmile_qr_scan"}, "lat": 38.88705433333333, "lon": -77.021865, "fusion_lat": 0.0}, {"is_reserved": 0, "bike_id": "8ef65577e71d50cb7b76e50f0aba5a9f", "type": "electric_bike", "name": "8ef65577e71d50cb7b76e50f0aba5a9f", "is_disabled": 0, "fusion_lon": 0.0, "rental_uris": {"android": "https://dc.lft.to/lastmile_qr_scan", "ios": "https://dc.lft.to/lastmile_qr_scan"}, "lat": 38.881312666666666, "lon": -77.00199966666666, "fusion_lat": 0.0}, {"is_reserved": 0, "bike_id": "9fc41e7ea87b86256205dffcc7254659", "type": "electric_scooter", "name": "9fc41e7ea87b86256205dffcc7254659", "is_disabled": 0, "fusion_lon": 0.0, "rental_uris": {"android": "https://dc.lft.to/lastmile_qr_scan", "ios": "https://dc.lft.to/lastmile_qr_scan"}, "lat": 38.890790333333335, "lon": -76.995073, "fusion_lat": 0.0}, {"is_reserved": 0, "bike_id": "bb3acd936fe4f60c5a26391e632b797e", "type": "electric_scooter", "name": "bb3acd936fe4f60c5a26391e632b797e", "is_disabled": 0, "fusion_lon": 0.0, "rental_uris": {"android": "https://dc.lft.to/lastmile_qr_scan", "ios": "https://dc.lft.to/lastmile_qr_scan"}, "lat": 38.88497983333333, "lon": -77.006001, "fusion_lat": 0.0}, {"is_reserved": 0, "bike_id": "a469b2c1123cf76025f7ce4bcd98c55c", "type": "electric_scooter", "name": "a469b2c1123cf76025f7ce4bcd98c55c", "is_disabled": 0, "fusion_lon": 0.0, "rental_uris": {"android": "https://dc.lft.to/lastmile_qr_scan", "ios": "https://dc.lft.to/lastmile_qr_scan"}, "lat": 38.90387833333333, "lon": -77.05369933333333, "fusion_lat": 0.0}, {"is_reserved": 0, "bike_id": "b7ac96eab082dee0553c868fcabc3d08", "type": "electric_scooter", "name": "b7ac96eab082dee0553c868fcabc3d08", "is_disabled": 0, "fusion_lon": 0.0, "rental_uris": {"android": "https://dc.lft.to/lastmile_qr_scan", "ios": "https://dc.lft.to/lastmile_qr_scan"}, "lat": 38.93932916666667, "lon": -77.025791, "fusion_lat": 0.0}, {"is_reserved": 0, "bike_id": "3d93c5dc670d813aefe95a536b157ed3", "type": "electric_scooter", "name": "3d93c5dc670d813aefe95a536b157ed3", "is_disabled": 0, "fusion_lon": 0.0, "rental_uris": {"android": "https://dc.lft.to/lastmile_qr_scan", "ios": "https://dc.lft.to/lastmile_qr_scan"}, "lat": 38.886061833333336, "lon": -77.0199395, "fusion_lat": 0.0}, {"is_reserved": 0, "bike_id": "3ea171ae349b39e4324e3f97cb8b8ab2", "type": "electric_scooter", "name": "3ea171ae349b39e4324e3f97cb8b8ab2", "is_disabled": 0, "fusion_lon": 0.0, "rental_uris": {"android": "https://dc.lft.to/lastmile_qr_scan", "ios": "https://dc.lft.to/lastmile_qr_scan"}, "lat": 38.909448, "lon": -77.03456533333333, "fusion_lat": 0.0}, {"is_reserved": 0, "bike_id": "65846df8fb1d76fb2693b76092b4ee66", "type": "electric_scooter", "name": "65846df8fb1d76fb2693b76092b4ee66", "is_disabled": 0, "fusion_lon": 0.0, "rental_uris": {"android": "https://dc.lft.to/lastmile_qr_scan", "ios": "https://dc.lft.to/lastmile_qr_scan"}, "lat": 38.900308333333335, "lon": -76.9986885, "fusion_lat": 0.0}, {"is_reserved": 0, "bike_id": "da50bc3329d40527198dc86d07422181", "type": "electric_scooter", "name": "da50bc3329d40527198dc86d07422181", "is_disabled": 0, "fusion_lon": 0.0, "rental_uris": {"android": "https://dc.lft.to/lastmile_qr_scan", "ios": "https://dc.lft.to/lastmile_qr_scan"}, "lat": 38.91795833333333, "lon": -77.02112633333333, "fusion_lat": 0.0}, {"is_reserved": 0, "bike_id": "1507d21d3ffe238f54f1894743d0601b", "type": "electric_scooter", "name": "1507d21d3ffe238f54f1894743d0601b", "is_disabled": 0, "fusion_lon": 0.0, "rental_uris": {"android": "https://dc.lft.to/lastmile_qr_scan", "ios": "https://dc.lft.to/lastmile_qr_scan"}, "lat": 38.901849166666665, "lon": -77.04816733333334, "fusion_lat": 0.0}, {"is_reserved": 0, "bike_id": "ac1a241f85f970f0db713feaf131793f", "type": "electric_scooter", "name": "ac1a241f85f970f0db713feaf131793f", "is_disabled": 0, "fusion_lon": 0.0, "rental_uris": {"android": "https://dc.lft.to/lastmile_qr_scan", "ios": "https://dc.lft.to/lastmile_qr_scan"}, "lat": 38.91446466666667, "lon": -77.02286483333333, "fusion_lat": 0.0}, {"is_reserved": 0, "bike_id": "1e32b5b6cd0948b160b75965e796439c", "type": "electric_scooter", "name": "1e32b5b6cd0948b160b75965e796439c", "is_disabled": 0, "fusion_lon": 0.0, "rental_uris": {"android": "https://dc.lft.to/lastmile_qr_scan", "ios": "https://dc.lft.to/lastmile_qr_scan"}, "lat": 38.889675833333335, "lon": -76.9803555, "fusion_lat": 0.0}, {"is_reserved": 0, "bike_id": "94ea4e465dcbfcb9775e231cd2bc558e", "type": "electric_scooter", "name": "94ea4e465dcbfcb9775e231cd2bc558e", "is_disabled": 0, "fusion_lon": 0.0, "rental_uris": {"android": "https://dc.lft.to/lastmile_qr_scan", "ios": "https://dc.lft.to/lastmile_qr_scan"}, "lat": 38.932669, "lon": -77.019248, "fusion_lat": 0.0}, {"is_reserved": 0, "bike_id": "81e7e9b559d6de4fd3675c544be0dc6b", "type": "electric_scooter", "name": "81e7e9b559d6de4fd3675c544be0dc6b", "is_disabled": 0, "fusion_lon": 0.0, "rental_uris": {"android": "https://dc.lft.to/lastmile_qr_scan", "ios": "https://dc.lft.to/lastmile_qr_scan"}, "lat": 38.8902635, "lon": -76.94463733333333, "fusion_lat": 0.0}, {"is_reserved": 0, "bike_id": "ab67444b60afb865d702f0e5f4e8b90b", "type": "electric_scooter", "name": "ab67444b60afb865d702f0e5f4e8b90b", "is_disabled": 0, "fusion_lon": 0.0, "rental_uris": {"android": "https://dc.lft.to/lastmile_qr_scan", "ios": "https://dc.lft.to/lastmile_qr_scan"}, "lat": 38.87855966666667, "lon": -77.00782766666667, "fusion_lat": 0.0}, {"is_reserved": 0, "bike_id": "7f410f14e1d802f2ec387873ad6ab18a", "type": "electric_scooter", "name": "7f410f14e1d802f2ec387873ad6ab18a", "is_disabled": 0, "fusion_lon": 0.0, "rental_uris": {"android": "https://dc.lft.to/lastmile_qr_scan", "ios": "https://dc.lft.to/lastmile_qr_scan"}, "lat": 38.90568833333333, "lon": -77.03447816666667, "fusion_lat": 0.0}, {"is_reserved": 0, "bike_id": "6e6babe1cbf587c57e1b1df587d3222b", "type": "electric_scooter", "name": "6e6babe1cbf587c57e1b1df587d3222b", "is_disabled": 0, "fusion_lon": 0.0, "rental_uris": {"android": "https://dc.lft.to/lastmile_qr_scan", "ios": "https://dc.lft.to/lastmile_qr_scan"}, "lat": 38.91121183333333, "lon": -77.04082283333334, "fusion_lat": 0.0}, {"is_reserved": 0, "bike_id": "9b5aa578e5a44a9bbb638f88446e14e7", "type": "electric_scooter", "name": "9b5aa578e5a44a9bbb638f88446e14e7", "is_disabled": 0, "fusion_lon": 0.0, "rental_uris": {"android": "https://dc.lft.to/lastmile_qr_scan", "ios": "https://dc.lft.to/lastmile_qr_scan"}, "lat": 38.90025833333333, "lon": -76.99868383333333, "fusion_lat": 0.0}, {"is_reserved": 0, "bike_id": "d6bac89025b1a6559c7ffa52d19565fa", "type": "electric_bike", "name": "d6bac89025b1a6559c7ffa52d19565fa", "is_disabled": 0, "fusion_lon": 0.0, "rental_uris": {"android": "https://dc.lft.to/lastmile_qr_scan", "ios": "https://dc.lft.to/lastmile_qr_scan"}, "lat": 38.958788, "lon": -77.01027883333333, "fusion_lat": 0.0}, {"is_reserved": 0, "bike_id": "925cfaa703e6c83d6708905b89f771c9", "type": "electric_scooter", "name": "925cfaa703e6c83d6708905b89f771c9", "is_disabled": 0, "fusion_lon": 0.0, "rental_uris": {"android": "https://dc.lft.to/lastmile_qr_scan", "ios": "https://dc.lft.to/lastmile_qr_scan"}, "lat": 38.92660883333333, "lon": -77.02286366666667, "fusion_lat": 0.0}, {"is_reserved": 0, "bike_id": "3a94a2a45c30e2b2262dc5c04eaadcb6", "type": "electric_scooter", "name": "3a94a2a45c30e2b2262dc5c04eaadcb6", "is_disabled": 0, "fusion_lon": 0.0, "rental_uris": {"android": "https://dc.lft.to/lastmile_qr_scan", "ios": "https://dc.lft.to/lastmile_qr_scan"}, "lat": 38.92785683333334, "lon": -77.03148933333334, "fusion_lat": 0.0}, {"is_reserved": 0, "bike_id": "04657a34fc1b6dbf3caee3af1d22d3d3", "type": "electric_scooter", "name": "04657a34fc1b6dbf3caee3af1d22d3d3", "is_disabled": 0, "fusion_lon": 0.0, "rental_uris": {"android": "https://dc.lft.to/lastmile_qr_scan", "ios": "https://dc.lft.to/lastmile_qr_scan"}, "lat": 38.91672066666667, "lon": -77.022054, "fusion_lat": 0.0}, {"is_reserved": 0, "bike_id": "9c0d3611e8b6196ed4c709890886d7a2", "type": "electric_bike", "name": "9c0d3611e8b6196ed4c709890886d7a2", "is_disabled": 0, "fusion_lon": 0.0, "rental_uris": {"android": "https://dc.lft.to/lastmile_qr_scan", "ios": "https://dc.lft.to/lastmile_qr_scan"}, "lat": 38.799838333333334, "lon": -77.12978816666667, "fusion_lat": 0.0}, {"is_reserved": 0, "bike_id": "4a97b3a124465bfe4421360aeae339de", "type": "electric_scooter", "name": "4a97b3a124465bfe4421360aeae339de", "is_disabled": 0, "fusion_lon": 0.0, "rental_uris": {"android": "https://dc.lft.to/lastmile_qr_scan", "ios": "https://dc.lft.to/lastmile_qr_scan"}, "lat": 38.92610033333333, "lon": -77.02166066666666, "fusion_lat": 0.0}, {"is_reserved": 0, "bike_id": "0ba31e96d7b9c8bbe59735f728d3f998", "type": "electric_scooter", "name": "0ba31e96d7b9c8bbe59735f728d3f998", "is_disabled": 0, "fusion_lon": 0.0, "rental_uris": {"android": "https://dc.lft.to/lastmile_qr_scan", "ios": "https://dc.lft.to/lastmile_qr_scan"}, "lat": 38.921529, "lon": -77.033803, "fusion_lat": 0.0}, {"is_reserved": 0, "bike_id": "7d09965f78df53fb7b3ab39cc7c2582e", "type": "electric_scooter", "name": "7d09965f78df53fb7b3ab39cc7c2582e", "is_disabled": 0, "fusion_lon": 0.0, "rental_uris": {"android": "https://dc.lft.to/lastmile_qr_scan", "ios": "https://dc.lft.to/lastmile_qr_scan"}, "lat": 38.90034466666667, "lon": -76.99867766666667, "fusion_lat": 0.0}, {"is_reserved": 0, "bike_id": "893b0ff16a5b0a720d1de15a6121390b", "type": "electric_scooter", "name": "893b0ff16a5b0a720d1de15a6121390b", "is_disabled": 0, "fusion_lon": 0.0, "rental_uris": {"android": "https://dc.lft.to/lastmile_qr_scan", "ios": "https://dc.lft.to/lastmile_qr_scan"}, "lat": 38.92446316666667, "lon": -77.020297, "fusion_lat": 0.0}, {"is_reserved": 0, "bike_id": "3f54157e4d45824f41d6202a7d5cd519", "type": "electric_scooter", "name": "3f54157e4d45824f41d6202a7d5cd519", "is_disabled": 0, "fusion_lon": 0.0, "rental_uris": {"android": "https://dc.lft.to/lastmile_qr_scan", "ios": "https://dc.lft.to/lastmile_qr_scan"}, "lat": 38.92162783333333, "lon": -77.020955, "fusion_lat": 0.0}, {"is_reserved": 0, "bike_id": "7e48203439bce3f26f84242db6ee0419", "type": "electric_scooter", "name": "7e48203439bce3f26f84242db6ee0419", "is_disabled": 0, "fusion_lon": 0.0, "rental_uris": {"android": "https://dc.lft.to/lastmile_qr_scan", "ios": "https://dc.lft.to/lastmile_qr_scan"}, "lat": 38.935625333333334, "lon": -77.08181483333334, "fusion_lat": 0.0}, {"is_reserved": 0, "bike_id": "889c011d87f59cc58de9e8b8c01657bf", "type": "electric_bike", "name": "889c011d87f59cc58de9e8b8c01657bf", "is_disabled": 0, "fusion_lon": 0.0, "rental_uris": {"android": "https://dc.lft.to/lastmile_qr_scan", "ios": "https://dc.lft.to/lastmile_qr_scan"}, "lat": 38.857716833333335, "lon": -76.98768766666667, "fusion_lat": 0.0}, {"is_reserved": 0, "bike_id": "a5fb429ce92362134bf4cec8c1a1f952", "type": "electric_scooter", "name": "a5fb429ce92362134bf4cec8c1a1f952", "is_disabled": 0, "fusion_lon": 0.0, "rental_uris": {"android": "https://dc.lft.to/lastmile_qr_scan", "ios": "https://dc.lft.to/lastmile_qr_scan"}, "lat": 38.878813, "lon": -77.00048383333333, "fusion_lat": 0.0}, {"is_reserved": 0, "bike_id": "8603141bfcbdcea377130e05381ed395", "type": "electric_scooter", "name": "8603141bfcbdcea377130e05381ed395", "is_disabled": 0, "fusion_lon": 0.0, "rental_uris": {"android": "https://dc.lft.to/lastmile_qr_scan", "ios": "https://dc.lft.to/lastmile_qr_scan"}, "lat": 38.8843245, "lon": -77.0279915, "fusion_lat": 0.0}, {"is_reserved": 0, "bike_id": "1bdd4298cdf6c5ec0d702be73e117b83", "type": "electric_scooter", "name": "1bdd4298cdf6c5ec0d702be73e117b83", "is_disabled": 0, "fusion_lon": 0.0, "rental_uris": {"android": "https://dc.lft.to/lastmile_qr_scan", "ios": "https://dc.lft.to/lastmile_qr_scan"}, "lat": 38.9230285, "lon": -77.03798183333333, "fusion_lat": 0.0}, {"is_reserved": 0, "bike_id": "b05f2c28007cfdcbbea4298a23a46aa1", "type": "electric_scooter", "name": "b05f2c28007cfdcbbea4298a23a46aa1", "is_disabled": 0, "fusion_lon": 0.0, "rental_uris": {"android": "https://dc.lft.to/lastmile_qr_scan", "ios": "https://dc.lft.to/lastmile_qr_scan"}, "lat": 38.93302216666667, "lon": -77.0214085, "fusion_lat": 0.0}, {"is_reserved": 0, "bike_id": "d7e175277d10586e476a37cd2e505701", "type": "electric_scooter", "name": "d7e175277d10586e476a37cd2e505701", "is_disabled": 0, "fusion_lon": 0.0, "rental_uris": {"android": "https://dc.lft.to/lastmile_qr_scan", "ios": "https://dc.lft.to/lastmile_qr_scan"}, "lat": 38.93688683333333, "lon": -77.03594233333334, "fusion_lat": 0.0}, {"is_reserved": 0, "bike_id": "fe8b02f6c470738f4ffbcbfebc0ba2f3", "type": "electric_scooter", "name": "fe8b02f6c470738f4ffbcbfebc0ba2f3", "is_disabled": 0, "fusion_lon": 0.0, "rental_uris": {"android": "https://dc.lft.to/lastmile_qr_scan", "ios": "https://dc.lft.to/lastmile_qr_scan"}, "lat": 38.916959166666665, "lon": -77.03907316666667, "fusion_lat": 0.0}, {"is_reserved": 0, "bike_id": "d25c6528ecd8fbd14e0bfee5e7fbec4e", "type": "electric_scooter", "name": "d25c6528ecd8fbd14e0bfee5e7fbec4e", "is_disabled": 0, "fusion_lon": 0.0, "rental_uris": {"android": "https://dc.lft.to/lastmile_qr_scan", "ios": "https://dc.lft.to/lastmile_qr_scan"}, "lat": 38.904098833333336, "lon": -76.97333133333333, "fusion_lat": 0.0}, {"is_reserved": 0, "bike_id": "c2165bc99b024aaa07996ad505eea5d0", "type": "electric_scooter", "name": "c2165bc99b024aaa07996ad505eea5d0", "is_disabled": 0, "fusion_lon": 0.0, "rental_uris": {"android": "https://dc.lft.to/lastmile_qr_scan", "ios": "https://dc.lft.to/lastmile_qr_scan"}, "lat": 38.9206195, "lon": -77.02506166666667, "fusion_lat": 0.0}, {"is_reserved": 0, "bike_id": "7150aaa16749dca8524a49083b4074d2", "type": "electric_scooter", "name": "7150aaa16749dca8524a49083b4074d2", "is_disabled": 0, "fusion_lon": 0.0, "rental_uris": {"android": "https://dc.lft.to/lastmile_qr_scan", "ios": "https://dc.lft.to/lastmile_qr_scan"}, "lat": 38.9011105, "lon": -77.050075, "fusion_lat": 0.0}, {"is_reserved": 0, "bike_id": "c296043bce9e9549f9279783496ab3fd", "type": "electric_scooter", "name": "c296043bce9e9549f9279783496ab3fd", "is_disabled": 0, "fusion_lon": 0.0, "rental_uris": {"android": "https://dc.lft.to/lastmile_qr_scan", "ios": "https://dc.lft.to/lastmile_qr_scan"}, "lat": 38.92452183333333, "lon": -77.02221166666666, "fusion_lat": 0.0}, {"is_reserved": 0, "bike_id": "c031ab29c2cc95f67b8d2bcc42442451", "type": "electric_scooter", "name": "c031ab29c2cc95f67b8d2bcc42442451", "is_disabled": 0, "fusion_lon": 0.0, "rental_uris": {"android": "https://dc.lft.to/lastmile_qr_scan", "ios": "https://dc.lft.to/lastmile_qr_scan"}, "lat": 38.92492416666666, "lon": -77.02179, "fusion_lat": 0.0}, {"is_reserved": 0, "bike_id": "9c8bc3f8be2e3442da8956bf6930749a", "type": "electric_scooter", "name": "9c8bc3f8be2e3442da8956bf6930749a", "is_disabled": 0, "fusion_lon": 0.0, "rental_uris": {"android": "https://dc.lft.to/lastmile_qr_scan", "ios": "https://dc.lft.to/lastmile_qr_scan"}, "lat": 38.91402466666667, "lon": -77.01807833333334, "fusion_lat": 0.0}, {"is_reserved": 0, "bike_id": "0a3d59b7eb72c0e304630d3559061909", "type": "electric_scooter", "name": "0a3d59b7eb72c0e304630d3559061909", "is_disabled": 0, "fusion_lon": 0.0, "rental_uris": {"android": "https://dc.lft.to/lastmile_qr_scan", "ios": "https://dc.lft.to/lastmile_qr_scan"}, "lat": 38.9141695, "lon": -77.0217795, "fusion_lat": 0.0}, {"is_reserved": 0, "bike_id": "6e5ecfee5a7394fcfe66a5a4432f10a2", "type": "electric_scooter", "name": "6e5ecfee5a7394fcfe66a5a4432f10a2", "is_disabled": 0, "fusion_lon": 0.0, "rental_uris": {"android": "https://dc.lft.to/lastmile_qr_scan", "ios": "https://dc.lft.to/lastmile_qr_scan"}, "lat": 38.934023333333336, "lon": -77.04122666666666, "fusion_lat": 0.0}, {"is_reserved": 0, "bike_id": "99957d3f2112c702f6593bb6ecccc4e7", "type": "electric_scooter", "name": "99957d3f2112c702f6593bb6ecccc4e7", "is_disabled": 0, "fusion_lon": 0.0, "rental_uris": {"android": "https://dc.lft.to/lastmile_qr_scan", "ios": "https://dc.lft.to/lastmile_qr_scan"}, "lat": 38.922376666666665, "lon": -77.03916483333333, "fusion_lat": 0.0}, {"is_reserved": 0, "bike_id": "0e535208eefd63b21861c5018fae5bb1", "type": "electric_scooter", "name": "0e535208eefd63b21861c5018fae5bb1", "is_disabled": 0, "fusion_lon": 0.0, "rental_uris": {"android": "https://dc.lft.to/lastmile_qr_scan", "ios": "https://dc.lft.to/lastmile_qr_scan"}, "lat": 38.92315816666667, "lon": -77.03863383333334, "fusion_lat": 0.0}, {"is_reserved": 0, "bike_id": "d06d6af1323781141f2b556414530c3d", "type": "electric_scooter", "name": "d06d6af1323781141f2b556414530c3d", "is_disabled": 0, "fusion_lon": 0.0, "rental_uris": {"android": "https://dc.lft.to/lastmile_qr_scan", "ios": "https://dc.lft.to/lastmile_qr_scan"}, "lat": 38.8999815, "lon": -77.021823, "fusion_lat": 0.0}, {"is_reserved": 0, "bike_id": "17893954d0ec69b1c6e91b726cb50a6d", "type": "electric_bike", "name": "17893954d0ec69b1c6e91b726cb50a6d", "is_disabled": 0, "fusion_lon": 0.0, "rental_uris": {"android": "https://dc.lft.to/lastmile_qr_scan", "ios": "https://dc.lft.to/lastmile_qr_scan"}, "lat": 38.83864483333333, "lon": -76.99700916666667, "fusion_lat": 0.0}, {"is_reserved": 0, "bike_id": "bad5a732f4c9702ba00a3a3f97e127fb", "type": "electric_scooter", "name": "bad5a732f4c9702ba00a3a3f97e127fb", "is_disabled": 0, "fusion_lon": 0.0, "rental_uris": {"android": "https://dc.lft.to/lastmile_qr_scan", "ios": "https://dc.lft.to/lastmile_qr_scan"}, "lat": 38.89961616666667, "lon": -77.01622133333333, "fusion_lat": 0.0}, {"is_reserved": 0, "bike_id": "94853085be6776dda6432bd5466a043c", "type": "electric_scooter", "name": "94853085be6776dda6432bd5466a043c", "is_disabled": 0, "fusion_lon": 0.0, "rental_uris": {"android": "https://dc.lft.to/lastmile_qr_scan", "ios": "https://dc.lft.to/lastmile_qr_scan"}, "lat": 38.879451, "lon": -77.00757666666667, "fusion_lat": 0.0}, {"is_reserved": 0, "bike_id": "039b985b51713dc3722db7612c095a87", "type": "electric_scooter", "name": "039b985b51713dc3722db7612c095a87", "is_disabled": 0, "fusion_lon": 0.0, "rental_uris": {"android": "https://dc.lft.to/lastmile_qr_scan", "ios": "https://dc.lft.to/lastmile_qr_scan"}, "lat": 38.949382666666665, "lon": -77.066424, "fusion_lat": 0.0}, {"is_reserved": 0, "bike_id": "0dd3a65e515804ab3d9aa70cd6740968", "type": "electric_scooter", "name": "0dd3a65e515804ab3d9aa70cd6740968", "is_disabled": 0, "fusion_lon": 0.0, "rental_uris": {"android": "https://dc.lft.to/lastmile_qr_scan", "ios": "https://dc.lft.to/lastmile_qr_scan"}, "lat": 38.88429166666667, "lon": -76.99682816666666, "fusion_lat": 0.0}, {"is_reserved": 0, "bike_id": "306e2efb19b2644e14d15bec6224c195", "type": "electric_scooter", "name": "306e2efb19b2644e14d15bec6224c195", "is_disabled": 0, "fusion_lon": 0.0, "rental_uris": {"android": "https://dc.lft.to/lastmile_qr_scan", "ios": "https://dc.lft.to/lastmile_qr_scan"}, "lat": 38.9038025, "lon": -77.04214683333333, "fusion_lat": 0.0}, {"is_reserved": 0, "bike_id": "0940256b8565a8221c6a47ae44067d13", "type": "electric_bike", "name": "0940256b8565a8221c6a47ae44067d13", "is_disabled": 0, "fusion_lon": 0.0, "rental_uris": {"android": "https://dc.lft.to/lastmile_qr_scan", "ios": "https://dc.lft.to/lastmile_qr_scan"}, "lat": 38.98216816666667, "lon": -77.09655083333334, "fusion_lat": 0.0}, {"is_reserved": 0, "bike_id": "42847e797731326420a117046073c520", "type": "electric_scooter", "name": "42847e797731326420a117046073c520", "is_disabled": 0, "fusion_lon": 0.0, "rental_uris": {"android": "https://dc.lft.to/lastmile_qr_scan", "ios": "https://dc.lft.to/lastmile_qr_scan"}, "lat": 38.9063945, "lon": -76.985762, "fusion_lat": 0.0}, {"is_reserved": 0, "bike_id": "15ded3b7a8483ac2f707713a75ea5f80", "type": "electric_scooter", "name": "15ded3b7a8483ac2f707713a75ea5f80", "is_disabled": 0, "fusion_lon": 0.0, "rental_uris": {"android": "https://dc.lft.to/lastmile_qr_scan", "ios": "https://dc.lft.to/lastmile_qr_scan"}, "lat": 38.925888, "lon": -77.02497283333334, "fusion_lat": 0.0}, {"is_reserved": 0, "bike_id": "b714d5f408e1e6496f78c71420ea194c", "type": "electric_bike", "name": "b714d5f408e1e6496f78c71420ea194c", "is_disabled": 0, "fusion_lon": 0.0, "rental_uris": {"android": "https://dc.lft.to/lastmile_qr_scan", "ios": "https://dc.lft.to/lastmile_qr_scan"}, "lat": 38.863587833333334, "lon": -77.08275883333333, "fusion_lat": 0.0}, {"is_reserved": 0, "bike_id": "6505b2e8ead8cee83e9a7442924d05de", "type": "electric_bike", "name": "6505b2e8ead8cee83e9a7442924d05de", "is_disabled": 0, "fusion_lon": 0.0, "rental_uris": {"android": "https://dc.lft.to/lastmile_qr_scan", "ios": "https://dc.lft.to/lastmile_qr_scan"}, "lat": 38.99231416666667, "lon": -77.06530316666667, "fusion_lat": 0.0}, {"is_reserved": 0, "bike_id": "ea0d513bc2dc7b0ab4ab782a5fea2223", "type": "electric_bike", "name": "ea0d513bc2dc7b0ab4ab782a5fea2223", "is_disabled": 0, "fusion_lon": 0.0, "rental_uris": {"android": "https://dc.lft.to/lastmile_qr_scan", "ios": "https://dc.lft.to/lastmile_qr_scan"}, "lat": 38.906926166666665, "lon": -76.95254533333333, "fusion_lat": 0.0}, {"is_reserved": 0, "bike_id": "6804c822bcda43fe8332fe5836103578", "type": "electric_scooter", "name": "6804c822bcda43fe8332fe5836103578", "is_disabled": 0, "fusion_lon": 0.0, "rental_uris": {"android": "https://dc.lft.to/lastmile_qr_scan", "ios": "https://dc.lft.to/lastmile_qr_scan"}, "lat": 38.89849266666667, "lon": -77.0138155, "fusion_lat": 0.0}, {"is_reserved": 0, "bike_id": "782909395b5decd40dd040e6735f3537", "type": "electric_scooter", "name": "782909395b5decd40dd040e6735f3537", "is_disabled": 0, "fusion_lon": 0.0, "rental_uris": {"android": "https://dc.lft.to/lastmile_qr_scan", "ios": "https://dc.lft.to/lastmile_qr_scan"}, "lat": 38.914898, "lon": -77.0456585, "fusion_lat": 0.0}, {"is_reserved": 0, "bike_id": "be2cb12fddc0e50c81fa90d2f2916daa", "type": "electric_scooter", "name": "be2cb12fddc0e50c81fa90d2f2916daa", "is_disabled": 0, "fusion_lon": 0.0, "rental_uris": {"android": "https://dc.lft.to/lastmile_qr_scan", "ios": "https://dc.lft.to/lastmile_qr_scan"}, "lat": 38.911932666666665, "lon": -77.00725416666667, "fusion_lat": 0.0}, {"is_reserved": 0, "bike_id": "ce1fb937bf7d0b52c7051ef254d74336", "type": "electric_scooter", "name": "ce1fb937bf7d0b52c7051ef254d74336", "is_disabled": 0, "fusion_lon": 0.0, "rental_uris": {"android": "https://dc.lft.to/lastmile_qr_scan", "ios": "https://dc.lft.to/lastmile_qr_scan"}, "lat": 38.92354483333333, "lon": -77.03408216666666, "fusion_lat": 0.0}, {"is_reserved": 0, "bike_id": "cf27bd4c73514cc527cb3e47af2bfbda", "type": "electric_scooter", "name": "cf27bd4c73514cc527cb3e47af2bfbda", "is_disabled": 0, "fusion_lon": 0.0, "rental_uris": {"android": "https://dc.lft.to/lastmile_qr_scan", "ios": "https://dc.lft.to/lastmile_qr_scan"}, "lat": 38.89352933333333, "lon": -77.00335433333333, "fusion_lat": 0.0}, {"is_reserved": 0, "bike_id": "687daf32368bd32e57d0b5e175ec1d34", "type": "electric_scooter", "name": "687daf32368bd32e57d0b5e175ec1d34", "is_disabled": 0, "fusion_lon": 0.0, "rental_uris": {"android": "https://dc.lft.to/lastmile_qr_scan", "ios": "https://dc.lft.to/lastmile_qr_scan"}, "lat": 38.92233483333333, "lon": -77.03364816666667, "fusion_lat": 0.0}, {"is_reserved": 0, "bike_id": "53be4ecd6402a8e2b37707beef0701a7", "type": "electric_scooter", "name": "53be4ecd6402a8e2b37707beef0701a7", "is_disabled": 0, "fusion_lon": 0.0, "rental_uris": {"android": "https://dc.lft.to/lastmile_qr_scan", "ios": "https://dc.lft.to/lastmile_qr_scan"}, "lat": 38.91873283333334, "lon": -77.04196733333333, "fusion_lat": 0.0}, {"is_reserved": 0, "bike_id": "e0b157b0a9bb3b9792fd0cb0a6d51aac", "type": "electric_scooter", "name": "e0b157b0a9bb3b9792fd0cb0a6d51aac", "is_disabled": 0, "fusion_lon": 0.0, "rental_uris": {"android": "https://dc.lft.to/lastmile_qr_scan", "ios": "https://dc.lft.to/lastmile_qr_scan"}, "lat": 38.89548033333333, "lon": -77.009132, "fusion_lat": 0.0}, {"is_reserved": 0, "bike_id": "621e021dc8b809637bc21c21ea568d21", "type": "electric_scooter", "name": "621e021dc8b809637bc21c21ea568d21", "is_disabled": 0, "fusion_lon": 0.0, "rental_uris": {"android": "https://dc.lft.to/lastmile_qr_scan", "ios": "https://dc.lft.to/lastmile_qr_scan"}, "lat": 38.909956, "lon": -77.04011966666667, "fusion_lat": 0.0}, {"is_reserved": 0, "bike_id": "9e98878cfdc07d587947cef9f8d37947", "type": "electric_scooter", "name": "9e98878cfdc07d587947cef9f8d37947", "is_disabled": 0, "fusion_lon": 0.0, "rental_uris": {"android": "https://dc.lft.to/lastmile_qr_scan", "ios": "https://dc.lft.to/lastmile_qr_scan"}, "lat": 38.936183, "lon": -77.032846, "fusion_lat": 0.0}, {"is_reserved": 0, "bike_id": "058279616d651093a97445e29c2692ff", "type": "electric_scooter", "name": "058279616d651093a97445e29c2692ff", "is_disabled": 0, "fusion_lon": 0.0, "rental_uris": {"android": "https://dc.lft.to/lastmile_qr_scan", "ios": "https://dc.lft.to/lastmile_qr_scan"}, "lat": 38.89719983333333, "lon": -76.98359733333334, "fusion_lat": 0.0}, {"is_reserved": 0, "bike_id": "9e19759c19900ab541fb3c53b88868ab", "type": "electric_scooter", "name": "9e19759c19900ab541fb3c53b88868ab", "is_disabled": 0, "fusion_lon": 0.0, "rental_uris": {"android": "https://dc.lft.to/lastmile_qr_scan", "ios": "https://dc.lft.to/lastmile_qr_scan"}, "lat": 38.87626983333333, "lon": -77.00957283333334, "fusion_lat": 0.0}, {"is_reserved": 0, "bike_id": "464a06d9d92519f0ee201a0746283624", "type": "electric_scooter", "name": "464a06d9d92519f0ee201a0746283624", "is_disabled": 0, "fusion_lon": 0.0, "rental_uris": {"android": "https://dc.lft.to/lastmile_qr_scan", "ios": "https://dc.lft.to/lastmile_qr_scan"}, "lat": 38.901377333333336, "lon": -77.05943533333334, "fusion_lat": 0.0}, {"is_reserved": 0, "bike_id": "63e5beca86a22c476c0332ed2b907185", "type": "electric_scooter", "name": "63e5beca86a22c476c0332ed2b907185", "is_disabled": 0, "fusion_lon": 0.0, "rental_uris": {"android": "https://dc.lft.to/lastmile_qr_scan", "ios": "https://dc.lft.to/lastmile_qr_scan"}, "lat": 38.9265915, "lon": -76.99560283333334, "fusion_lat": 0.0}, {"is_reserved": 0, "bike_id": "5472767379c6ff9a119d596760ed4891", "type": "electric_scooter", "name": "5472767379c6ff9a119d596760ed4891", "is_disabled": 0, "fusion_lon": 0.0, "rental_uris": {"android": "https://dc.lft.to/lastmile_qr_scan", "ios": "https://dc.lft.to/lastmile_qr_scan"}, "lat": 38.881255, "lon": -76.99347483333334, "fusion_lat": 0.0}, {"is_reserved": 0, "bike_id": "ef90e9ad3e6cacfed2946c38b1e3a4d5", "type": "electric_scooter", "name": "ef90e9ad3e6cacfed2946c38b1e3a4d5", "is_disabled": 0, "fusion_lon": 0.0, "rental_uris": {"android": "https://dc.lft.to/lastmile_qr_scan", "ios": "https://dc.lft.to/lastmile_qr_scan"}, "lat": 38.924637, "lon": -77.05234, "fusion_lat": 0.0}, {"is_reserved": 0, "bike_id": "23f4118fe236c365aeb6571bc8e2a2c2", "type": "electric_scooter", "name": "23f4118fe236c365aeb6571bc8e2a2c2", "is_disabled": 0, "fusion_lon": 0.0, "rental_uris": {"android": "https://dc.lft.to/lastmile_qr_scan", "ios": "https://dc.lft.to/lastmile_qr_scan"}, "lat": 38.9047155, "lon": -77.02143166666667, "fusion_lat": 0.0}, {"is_reserved": 0, "bike_id": "5ac14a935e3aa34930834fd1f6243d7b", "type": "electric_scooter", "name": "5ac14a935e3aa34930834fd1f6243d7b", "is_disabled": 0, "fusion_lon": 0.0, "rental_uris": {"android": "https://dc.lft.to/lastmile_qr_scan", "ios": "https://dc.lft.to/lastmile_qr_scan"}, "lat": 38.905427333333336, "lon": -77.022196, "fusion_lat": 0.0}, {"is_reserved": 0, "bike_id": "6851218e042a8fc9315275d0827e93e2", "type": "electric_scooter", "name": "6851218e042a8fc9315275d0827e93e2", "is_disabled": 0, "fusion_lon": 0.0, "rental_uris": {"android": "https://dc.lft.to/lastmile_qr_scan", "ios": "https://dc.lft.to/lastmile_qr_scan"}, "lat": 38.91781183333333, "lon": -77.04305916666667, "fusion_lat": 0.0}, {"is_reserved": 0, "bike_id": "6ab4578a862c3c13eb89b67fc03ced58", "type": "electric_scooter", "name": "6ab4578a862c3c13eb89b67fc03ced58", "is_disabled": 0, "fusion_lon": 0.0, "rental_uris": {"android": "https://dc.lft.to/lastmile_qr_scan", "ios": "https://dc.lft.to/lastmile_qr_scan"}, "lat": 38.8948155, "lon": -76.99137133333333, "fusion_lat": 0.0}, {"is_reserved": 0, "bike_id": "ce160513dfec18b3b9deaab5ab1d1f24", "type": "electric_scooter", "name": "ce160513dfec18b3b9deaab5ab1d1f24", "is_disabled": 0, "fusion_lon": 0.0, "rental_uris": {"android": "https://dc.lft.to/lastmile_qr_scan", "ios": "https://dc.lft.to/lastmile_qr_scan"}, "lat": 38.939669, "lon": -77.032879, "fusion_lat": 0.0}, {"is_reserved": 0, "bike_id": "073d47688a1cd643bfd90a39503d0b9a", "type": "electric_scooter", "name": "073d47688a1cd643bfd90a39503d0b9a", "is_disabled": 0, "fusion_lon": 0.0, "rental_uris": {"android": "https://dc.lft.to/lastmile_qr_scan", "ios": "https://dc.lft.to/lastmile_qr_scan"}, "lat": 38.91622, "lon": -77.0092505, "fusion_lat": 0.0}, {"is_reserved": 0, "bike_id": "55b3cb6e814669e39f4c912e410fcacc", "type": "electric_scooter", "name": "55b3cb6e814669e39f4c912e410fcacc", "is_disabled": 0, "fusion_lon": 0.0, "rental_uris": {"android": "https://dc.lft.to/lastmile_qr_scan", "ios": "https://dc.lft.to/lastmile_qr_scan"}, "lat": 38.91656166666667, "lon": -77.0218595, "fusion_lat": 0.0}, {"is_reserved": 0, "bike_id": "b2c5c577df8ffeebd14423ba82dcdc50", "type": "electric_scooter", "name": "b2c5c577df8ffeebd14423ba82dcdc50", "is_disabled": 0, "fusion_lon": 0.0, "rental_uris": {"android": "https://dc.lft.to/lastmile_qr_scan", "ios": "https://dc.lft.to/lastmile_qr_scan"}, "lat": 38.918776, "lon": -77.03504033333333, "fusion_lat": 0.0}, {"is_reserved": 0, "bike_id": "8944a5416e0f67aa1e83cd29da1e4c60", "type": "electric_scooter", "name": "8944a5416e0f67aa1e83cd29da1e4c60", "is_disabled": 0, "fusion_lon": 0.0, "rental_uris": {"android": "https://dc.lft.to/lastmile_qr_scan", "ios": "https://dc.lft.to/lastmile_qr_scan"}, "lat": 38.902656666666665, "lon": -77.01767616666666, "fusion_lat": 0.0}, {"is_reserved": 0, "bike_id": "0c45adc1bbbdd26cc578d0c82ae52db3", "type": "electric_scooter", "name": "0c45adc1bbbdd26cc578d0c82ae52db3", "is_disabled": 0, "fusion_lon": 0.0, "rental_uris": {"android": "https://dc.lft.to/lastmile_qr_scan", "ios": "https://dc.lft.to/lastmile_qr_scan"}, "lat": 38.85825833333333, "lon": -76.990108, "fusion_lat": 0.0}, {"is_reserved": 0, "bike_id": "459de8bafc862731eedb026f480bb3ae", "type": "electric_scooter", "name": "459de8bafc862731eedb026f480bb3ae", "is_disabled": 0, "fusion_lon": 0.0, "rental_uris": {"android": "https://dc.lft.to/lastmile_qr_scan", "ios": "https://dc.lft.to/lastmile_qr_scan"}, "lat": 38.92720033333333, "lon": -77.02089733333334, "fusion_lat": 0.0}, {"is_reserved": 0, "bike_id": "e6b8ffd7118366033a3fc80287a8a36a", "type": "electric_scooter", "name": "e6b8ffd7118366033a3fc80287a8a36a", "is_disabled": 0, "fusion_lon": 0.0, "rental_uris": {"android": "https://dc.lft.to/lastmile_qr_scan", "ios": "https://dc.lft.to/lastmile_qr_scan"}, "lat": 38.887293666666665, "lon": -77.031999, "fusion_lat": 0.0}, {"is_reserved": 0, "bike_id": "de6d825812f08bb966b84f7aebd70a72", "type": "electric_scooter", "name": "de6d825812f08bb966b84f7aebd70a72", "is_disabled": 0, "fusion_lon": 0.0, "rental_uris": {"android": "https://dc.lft.to/lastmile_qr_scan", "ios": "https://dc.lft.to/lastmile_qr_scan"}, "lat": 38.90641733333333, "lon": -77.0513005, "fusion_lat": 0.0}, {"is_reserved": 0, "bike_id": "243f7158b344dd32c5d07bf6296e4428", "type": "electric_scooter", "name": "243f7158b344dd32c5d07bf6296e4428", "is_disabled": 0, "fusion_lon": 0.0, "rental_uris": {"android": "https://dc.lft.to/lastmile_qr_scan", "ios": "https://dc.lft.to/lastmile_qr_scan"}, "lat": 38.942881166666666, "lon": -77.03619383333333, "fusion_lat": 0.0}, {"is_reserved": 0, "bike_id": "f82c676b270f3247cd38d0e6eac68459", "type": "electric_scooter", "name": "f82c676b270f3247cd38d0e6eac68459", "is_disabled": 0, "fusion_lon": 0.0, "rental_uris": {"android": "https://dc.lft.to/lastmile_qr_scan", "ios": "https://dc.lft.to/lastmile_qr_scan"}, "lat": 38.949774166666664, "lon": -77.0269575, "fusion_lat": 0.0}, {"is_reserved": 0, "bike_id": "01fde9abbf83c569c76e0d76f6de7941", "type": "electric_scooter", "name": "01fde9abbf83c569c76e0d76f6de7941", "is_disabled": 0, "fusion_lon": 0.0, "rental_uris": {"android": "https://dc.lft.to/lastmile_qr_scan", "ios": "https://dc.lft.to/lastmile_qr_scan"}, "lat": 38.92092066666667, "lon": -77.0259765, "fusion_lat": 0.0}, {"is_reserved": 0, "bike_id": "0ceb85c8705912af1966132090310e6b", "type": "electric_scooter", "name": "0ceb85c8705912af1966132090310e6b", "is_disabled": 0, "fusion_lon": 0.0, "rental_uris": {"android": "https://dc.lft.to/lastmile_qr_scan", "ios": "https://dc.lft.to/lastmile_qr_scan"}, "lat": 38.919361333333335, "lon": -77.03222666666667, "fusion_lat": 0.0}, {"is_reserved": 0, "bike_id": "d451a6d22655994b2232647be445ee9e", "type": "electric_bike", "name": "d451a6d22655994b2232647be445ee9e", "is_disabled": 0, "fusion_lon": 0.0, "rental_uris": {"android": "https://dc.lft.to/lastmile_qr_scan", "ios": "https://dc.lft.to/lastmile_qr_scan"}, "lat": 38.955234, "lon": -76.9567495, "fusion_lat": 0.0}, {"is_reserved": 0, "bike_id": "4439823d8833ff0d18afbe956132e16b", "type": "electric_scooter", "name": "4439823d8833ff0d18afbe956132e16b", "is_disabled": 0, "fusion_lon": 0.0, "rental_uris": {"android": "https://dc.lft.to/lastmile_qr_scan", "ios": "https://dc.lft.to/lastmile_qr_scan"}, "lat": 38.90380183333333, "lon": -77.00882, "fusion_lat": 0.0}, {"is_reserved": 0, "bike_id": "7dcb4af0528704aae37c297de1fbf62e", "type": "electric_bike", "name": "7dcb4af0528704aae37c297de1fbf62e", "is_disabled": 0, "fusion_lon": 0.0, "rental_uris": {"android": "https://dc.lft.to/lastmile_qr_scan", "ios": "https://dc.lft.to/lastmile_qr_scan"}, "lat": 39.02623283333333, "lon": -77.038806, "fusion_lat": 0.0}, {"is_reserved": 0, "bike_id": "448dfcead1b243efd813162768bcf476", "type": "electric_scooter", "name": "448dfcead1b243efd813162768bcf476", "is_disabled": 0, "fusion_lon": 0.0, "rental_uris": {"android": "https://dc.lft.to/lastmile_qr_scan", "ios": "https://dc.lft.to/lastmile_qr_scan"}, "lat": 38.8919715, "lon": -77.02381666666666, "fusion_lat": 0.0}, {"is_reserved": 0, "bike_id": "ace5251daffa665266a4960a38593422", "type": "electric_scooter", "name": "ace5251daffa665266a4960a38593422", "is_disabled": 0, "fusion_lon": 0.0, "rental_uris": {"android": "https://dc.lft.to/lastmile_qr_scan", "ios": "https://dc.lft.to/lastmile_qr_scan"}, "lat": 38.9013425, "lon": -77.04545966666667, "fusion_lat": 0.0}, {"is_reserved": 0, "bike_id": "604c95ee5b8b2fcfd3b2d113dad1b0af", "type": "electric_scooter", "name": "604c95ee5b8b2fcfd3b2d113dad1b0af", "is_disabled": 0, "fusion_lon": 0.0, "rental_uris": {"android": "https://dc.lft.to/lastmile_qr_scan", "ios": "https://dc.lft.to/lastmile_qr_scan"}, "lat": 38.897760166666664, "lon": -77.00924866666666, "fusion_lat": 0.0}, {"is_reserved": 0, "bike_id": "fb99dd82fd66232a8948134d03e3272f", "type": "electric_scooter", "name": "fb99dd82fd66232a8948134d03e3272f", "is_disabled": 0, "fusion_lon": 0.0, "rental_uris": {"android": "https://dc.lft.to/lastmile_qr_scan", "ios": "https://dc.lft.to/lastmile_qr_scan"}, "lat": 38.90211333333333, "lon": -77.0483905, "fusion_lat": 0.0}, {"is_reserved": 0, "bike_id": "4bc9776b765f00403ac2797159e2c5e8", "type": "electric_scooter", "name": "4bc9776b765f00403ac2797159e2c5e8", "is_disabled": 0, "fusion_lon": 0.0, "rental_uris": {"android": "https://dc.lft.to/lastmile_qr_scan", "ios": "https://dc.lft.to/lastmile_qr_scan"}, "lat": 38.906353, "lon": -77.02996816666666, "fusion_lat": 0.0}, {"is_reserved": 0, "bike_id": "30d53e8ee96722dd8c58ebe1a3465973", "type": "electric_bike", "name": "30d53e8ee96722dd8c58ebe1a3465973", "is_disabled": 0, "fusion_lon": 0.0, "rental_uris": {"android": "https://dc.lft.to/lastmile_qr_scan", "ios": "https://dc.lft.to/lastmile_qr_scan"}, "lat": 38.8956345, "lon": -77.12740933333333, "fusion_lat": 0.0}, {"is_reserved": 0, "bike_id": "4545108ad9da383a0da6d481ea2b60c1", "type": "electric_scooter", "name": "4545108ad9da383a0da6d481ea2b60c1", "is_disabled": 0, "fusion_lon": 0.0, "rental_uris": {"android": "https://dc.lft.to/lastmile_qr_scan", "ios": "https://dc.lft.to/lastmile_qr_scan"}, "lat": 38.899206, "lon": -76.9457745, "fusion_lat": 0.0}, {"is_reserved": 0, "bike_id": "de0ed711c2a829b919dd034fcd469d5c", "type": "electric_scooter", "name": "de0ed711c2a829b919dd034fcd469d5c", "is_disabled": 0, "fusion_lon": 0.0, "rental_uris": {"android": "https://dc.lft.to/lastmile_qr_scan", "ios": "https://dc.lft.to/lastmile_qr_scan"}, "lat": 38.91529383333334, "lon": -77.04469716666667, "fusion_lat": 0.0}, {"is_reserved": 0, "bike_id": "a7d51484b5125b26048407e76292cfb4", "type": "electric_scooter", "name": "a7d51484b5125b26048407e76292cfb4", "is_disabled": 0, "fusion_lon": 0.0, "rental_uris": {"android": "https://dc.lft.to/lastmile_qr_scan", "ios": "https://dc.lft.to/lastmile_qr_scan"}, "lat": 38.888593, "lon": -76.97908966666667, "fusion_lat": 0.0}, {"is_reserved": 0, "bike_id": "b643d4962cd150e988e4352c8853133c", "type": "electric_scooter", "name": "b643d4962cd150e988e4352c8853133c", "is_disabled": 0, "fusion_lon": 0.0, "rental_uris": {"android": "https://dc.lft.to/lastmile_qr_scan", "ios": "https://dc.lft.to/lastmile_qr_scan"}, "lat": 38.918221833333334, "lon": -77.01209416666667, "fusion_lat": 0.0}, {"is_reserved": 0, "bike_id": "8e95280cf403526f55fb1db73bc18786", "type": "electric_scooter", "name": "8e95280cf403526f55fb1db73bc18786", "is_disabled": 0, "fusion_lon": 0.0, "rental_uris": {"android": "https://dc.lft.to/lastmile_qr_scan", "ios": "https://dc.lft.to/lastmile_qr_scan"}, "lat": 38.900078, "lon": -77.00233266666666, "fusion_lat": 0.0}, {"is_reserved": 0, "bike_id": "87bdf645f44b20081abe0a6ec42fdfe0", "type": "electric_scooter", "name": "87bdf645f44b20081abe0a6ec42fdfe0", "is_disabled": 0, "fusion_lon": 0.0, "rental_uris": {"android": "https://dc.lft.to/lastmile_qr_scan", "ios": "https://dc.lft.to/lastmile_qr_scan"}, "lat": 38.84713966666666, "lon": -76.96819016666667, "fusion_lat": 0.0}, {"is_reserved": 0, "bike_id": "2881cc1fb8c82da1e47259d5ee61b920", "type": "electric_scooter", "name": "2881cc1fb8c82da1e47259d5ee61b920", "is_disabled": 0, "fusion_lon": 0.0, "rental_uris": {"android": "https://dc.lft.to/lastmile_qr_scan", "ios": "https://dc.lft.to/lastmile_qr_scan"}, "lat": 38.900467, "lon": -76.98848283333334, "fusion_lat": 0.0}, {"is_reserved": 0, "bike_id": "fa8db9f6303372508b2b627de59666c2", "type": "electric_scooter", "name": "fa8db9f6303372508b2b627de59666c2", "is_disabled": 0, "fusion_lon": 0.0, "rental_uris": {"android": "https://dc.lft.to/lastmile_qr_scan", "ios": "https://dc.lft.to/lastmile_qr_scan"}, "lat": 38.901216166666664, "lon": -77.04097333333333, "fusion_lat": 0.0}, {"is_reserved": 0, "bike_id": "df738a6bc21a2cb52e049718e21fa6dc", "type": "electric_scooter", "name": "df738a6bc21a2cb52e049718e21fa6dc", "is_disabled": 0, "fusion_lon": 0.0, "rental_uris": {"android": "https://dc.lft.to/lastmile_qr_scan", "ios": "https://dc.lft.to/lastmile_qr_scan"}, "lat": 38.909765, "lon": -77.04874066666666, "fusion_lat": 0.0}, {"is_reserved": 0, "bike_id": "c48e062e5bac94426f1d01353daeca82", "type": "electric_scooter", "name": "c48e062e5bac94426f1d01353daeca82", "is_disabled": 0, "fusion_lon": 0.0, "rental_uris": {"android": "https://dc.lft.to/lastmile_qr_scan", "ios": "https://dc.lft.to/lastmile_qr_scan"}, "lat": 38.89047933333333, "lon": -76.9897945, "fusion_lat": 0.0}, {"is_reserved": 0, "bike_id": "ce981e92fa4c8ad17b429ca4ffe9b857", "type": "electric_scooter", "name": "ce981e92fa4c8ad17b429ca4ffe9b857", "is_disabled": 0, "fusion_lon": 0.0, "rental_uris": {"android": "https://dc.lft.to/lastmile_qr_scan", "ios": "https://dc.lft.to/lastmile_qr_scan"}, "lat": 38.914172, "lon": -77.0180595, "fusion_lat": 0.0}, {"is_reserved": 0, "bike_id": "5387581179b65c50c239fb127c6a453e", "type": "electric_scooter", "name": "5387581179b65c50c239fb127c6a453e", "is_disabled": 0, "fusion_lon": 0.0, "rental_uris": {"android": "https://dc.lft.to/lastmile_qr_scan", "ios": "https://dc.lft.to/lastmile_qr_scan"}, "lat": 38.90982, "lon": -77.06472133333334, "fusion_lat": 0.0}, {"is_reserved": 0, "bike_id": "5d04d4bc41a817c66fee40a06690a29b", "type": "electric_bike", "name": "5d04d4bc41a817c66fee40a06690a29b", "is_disabled": 0, "fusion_lon": 0.0, "rental_uris": {"android": "https://dc.lft.to/lastmile_qr_scan", "ios": "https://dc.lft.to/lastmile_qr_scan"}, "lat": 38.875789, "lon": -77.23408883333333, "fusion_lat": 0.0}, {"is_reserved": 0, "bike_id": "95e6fda285655aabc1ef4040af10a451", "type": "electric_scooter", "name": "95e6fda285655aabc1ef4040af10a451", "is_disabled": 0, "fusion_lon": 0.0, "rental_uris": {"android": "https://dc.lft.to/lastmile_qr_scan", "ios": "https://dc.lft.to/lastmile_qr_scan"}, "lat": 38.915735833333336, "lon": -76.98390683333334, "fusion_lat": 0.0}, {"is_reserved": 0, "bike_id": "469b2b948ff1e28f83b5fe34ef37d474", "type": "electric_scooter", "name": "469b2b948ff1e28f83b5fe34ef37d474", "is_disabled": 0, "fusion_lon": 0.0, "rental_uris": {"android": "https://dc.lft.to/lastmile_qr_scan", "ios": "https://dc.lft.to/lastmile_qr_scan"}, "lat": 38.9098165, "lon": -77.00884433333333, "fusion_lat": 0.0}, {"is_reserved": 0, "bike_id": "5d270b5d21ffbb0f9d98a2e8a1925a51", "type": "electric_scooter", "name": "5d270b5d21ffbb0f9d98a2e8a1925a51", "is_disabled": 0, "fusion_lon": 0.0, "rental_uris": {"android": "https://dc.lft.to/lastmile_qr_scan", "ios": "https://dc.lft.to/lastmile_qr_scan"}, "lat": 38.905679166666665, "lon": -77.00128416666666, "fusion_lat": 0.0}, {"is_reserved": 0, "bike_id": "90e1364a4d515ccdaab3ef6dd90cdbcb", "type": "electric_scooter", "name": "90e1364a4d515ccdaab3ef6dd90cdbcb", "is_disabled": 0, "fusion_lon": 0.0, "rental_uris": {"android": "https://dc.lft.to/lastmile_qr_scan", "ios": "https://dc.lft.to/lastmile_qr_scan"}, "lat": 38.878811, "lon": -77.00056316666667, "fusion_lat": 0.0}, {"is_reserved": 0, "bike_id": "99a9ece77b12087c9dc1c52158a5672e", "type": "electric_scooter", "name": "99a9ece77b12087c9dc1c52158a5672e", "is_disabled": 0, "fusion_lon": 0.0, "rental_uris": {"android": "https://dc.lft.to/lastmile_qr_scan", "ios": "https://dc.lft.to/lastmile_qr_scan"}, "lat": 38.914635, "lon": -77.002042, "fusion_lat": 0.0}, {"is_reserved": 0, "bike_id": "be77cc31ccc6b2bfc833b64ea81a23c8", "type": "electric_scooter", "name": "be77cc31ccc6b2bfc833b64ea81a23c8", "is_disabled": 0, "fusion_lon": 0.0, "rental_uris": {"android": "https://dc.lft.to/lastmile_qr_scan", "ios": "https://dc.lft.to/lastmile_qr_scan"}, "lat": 38.915611166666665, "lon": -77.0387195, "fusion_lat": 0.0}, {"is_reserved": 0, "bike_id": "af46cb1c24dd7b5234e370d7dceb01c4", "type": "electric_bike", "name": "af46cb1c24dd7b5234e370d7dceb01c4", "is_disabled": 0, "fusion_lon": 0.0, "rental_uris": {"android": "https://dc.lft.to/lastmile_qr_scan", "ios": "https://dc.lft.to/lastmile_qr_scan"}, "lat": 38.8654985, "lon": -76.97348666666667, "fusion_lat": 0.0}, {"is_reserved": 0, "bike_id": "5da8eab6f5f61b5851ea94bb4c072e5a", "type": "electric_scooter", "name": "5da8eab6f5f61b5851ea94bb4c072e5a", "is_disabled": 0, "fusion_lon": 0.0, "rental_uris": {"android": "https://dc.lft.to/lastmile_qr_scan", "ios": "https://dc.lft.to/lastmile_qr_scan"}, "lat": 38.88728416666667, "lon": -77.01537583333334, "fusion_lat": 0.0}, {"is_reserved": 0, "bike_id": "3f479ca8ad7903065560b109be934289", "type": "electric_scooter", "name": "3f479ca8ad7903065560b109be934289", "is_disabled": 0, "fusion_lon": 0.0, "rental_uris": {"android": "https://dc.lft.to/lastmile_qr_scan", "ios": "https://dc.lft.to/lastmile_qr_scan"}, "lat": 38.920409166666666, "lon": -77.02458016666667, "fusion_lat": 0.0}, {"is_reserved": 0, "bike_id": "f12900585d281b80cf241538f3be2883", "type": "electric_scooter", "name": "f12900585d281b80cf241538f3be2883", "is_disabled": 0, "fusion_lon": 0.0, "rental_uris": {"android": "https://dc.lft.to/lastmile_qr_scan", "ios": "https://dc.lft.to/lastmile_qr_scan"}, "lat": 38.892361, "lon": -77.02791, "fusion_lat": 0.0}, {"is_reserved": 0, "bike_id": "4b43dce2af2b7223437dce943ffd605e", "type": "electric_scooter", "name": "4b43dce2af2b7223437dce943ffd605e", "is_disabled": 0, "fusion_lon": 0.0, "rental_uris": {"android": "https://dc.lft.to/lastmile_qr_scan", "ios": "https://dc.lft.to/lastmile_qr_scan"}, "lat": 38.92310716666667, "lon": -77.028919, "fusion_lat": 0.0}, {"is_reserved": 0, "bike_id": "477b7c52f8033e8e1af77462171d02fe", "type": "electric_bike", "name": "477b7c52f8033e8e1af77462171d02fe", "is_disabled": 0, "fusion_lon": 0.0, "rental_uris": {"android": "https://dc.lft.to/lastmile_qr_scan", "ios": "https://dc.lft.to/lastmile_qr_scan"}, "lat": 38.87280766666667, "lon": -77.233214, "fusion_lat": 0.0}, {"is_reserved": 0, "bike_id": "372ba3ce4a51e08593b33e0bbe88efb6", "type": "electric_bike", "name": "372ba3ce4a51e08593b33e0bbe88efb6", "is_disabled": 0, "fusion_lon": 0.0, "rental_uris": {"android": "https://dc.lft.to/lastmile_qr_scan", "ios": "https://dc.lft.to/lastmile_qr_scan"}, "lat": 38.83787133333333, "lon": -77.09351333333333, "fusion_lat": 0.0}, {"is_reserved": 0, "bike_id": "e1a77bd71210da9b1e4bf91f23c75a1d", "type": "electric_bike", "name": "e1a77bd71210da9b1e4bf91f23c75a1d", "is_disabled": 0, "fusion_lon": 0.0, "rental_uris": {"android": "https://dc.lft.to/lastmile_qr_scan", "ios": "https://dc.lft.to/lastmile_qr_scan"}, "lat": 38.89080333333333, "lon": -77.18304983333333, "fusion_lat": 0.0}, {"is_reserved": 0, "bike_id": "44ca52e4563e4c9a3004fe3ae82d62dd", "type": "electric_scooter", "name": "44ca52e4563e4c9a3004fe3ae82d62dd", "is_disabled": 0, "fusion_lon": 0.0, "rental_uris": {"android": "https://dc.lft.to/lastmile_qr_scan", "ios": "https://dc.lft.to/lastmile_qr_scan"}, "lat": 38.93582033333333, "lon": -77.024445, "fusion_lat": 0.0}, {"is_reserved": 0, "bike_id": "de2a09e4ee7af4c2b1e45f34fb576e40", "type": "electric_scooter", "name": "de2a09e4ee7af4c2b1e45f34fb576e40", "is_disabled": 0, "fusion_lon": 0.0, "rental_uris": {"android": "https://dc.lft.to/lastmile_qr_scan", "ios": "https://dc.lft.to/lastmile_qr_scan"}, "lat": 38.916596166666665, "lon": -77.0385035, "fusion_lat": 0.0}, {"is_reserved": 0, "bike_id": "7f711eaa6345e89e738fe859fda56d67", "type": "electric_bike", "name": "7f711eaa6345e89e738fe859fda56d67", "is_disabled": 0, "fusion_lon": 0.0, "rental_uris": {"android": "https://dc.lft.to/lastmile_qr_scan", "ios": "https://dc.lft.to/lastmile_qr_scan"}, "lat": 38.842827666666665, "lon": -76.98824733333333, "fusion_lat": 0.0}, {"is_reserved": 0, "bike_id": "958b0836c6ba67aea6456d2cd19e1986", "type": "electric_scooter", "name": "958b0836c6ba67aea6456d2cd19e1986", "is_disabled": 0, "fusion_lon": 0.0, "rental_uris": {"android": "https://dc.lft.to/lastmile_qr_scan", "ios": "https://dc.lft.to/lastmile_qr_scan"}, "lat": 38.944143333333336, "lon": -77.06339283333334, "fusion_lat": 0.0}, {"is_reserved": 0, "bike_id": "a2d9f14490ac39dd43410bfc605e8e79", "type": "electric_bike", "name": "a2d9f14490ac39dd43410bfc605e8e79", "is_disabled": 0, "fusion_lon": 0.0, "rental_uris": {"android": "https://dc.lft.to/lastmile_qr_scan", "ios": "https://dc.lft.to/lastmile_qr_scan"}, "lat": 38.92181316666667, "lon": -77.038115, "fusion_lat": 0.0}, {"is_reserved": 0, "bike_id": "5283cc53eeb285fc7b868a563782b413", "type": "electric_scooter", "name": "5283cc53eeb285fc7b868a563782b413", "is_disabled": 0, "fusion_lon": 0.0, "rental_uris": {"android": "https://dc.lft.to/lastmile_qr_scan", "ios": "https://dc.lft.to/lastmile_qr_scan"}, "lat": 38.921313, "lon": -77.01797833333333, "fusion_lat": 0.0}, {"is_reserved": 0, "bike_id": "75976422eb73c6de3d0e3a90ac0adfe1", "type": "electric_scooter", "name": "75976422eb73c6de3d0e3a90ac0adfe1", "is_disabled": 0, "fusion_lon": 0.0, "rental_uris": {"android": "https://dc.lft.to/lastmile_qr_scan", "ios": "https://dc.lft.to/lastmile_qr_scan"}, "lat": 38.923388, "lon": -77.009161, "fusion_lat": 0.0}, {"is_reserved": 0, "bike_id": "9103c5475bf5c541cad4ab52226cfc5a", "type": "electric_scooter", "name": "9103c5475bf5c541cad4ab52226cfc5a", "is_disabled": 0, "fusion_lon": 0.0, "rental_uris": {"android": "https://dc.lft.to/lastmile_qr_scan", "ios": "https://dc.lft.to/lastmile_qr_scan"}, "lat": 38.914281, "lon": -77.02815633333333, "fusion_lat": 0.0}, {"is_reserved": 0, "bike_id": "3fbd2d3a9812b6e2eabd07befab69a55", "type": "electric_scooter", "name": "3fbd2d3a9812b6e2eabd07befab69a55", "is_disabled": 0, "fusion_lon": 0.0, "rental_uris": {"android": "https://dc.lft.to/lastmile_qr_scan", "ios": "https://dc.lft.to/lastmile_qr_scan"}, "lat": 38.908709, "lon": -77.02317816666667, "fusion_lat": 0.0}, {"is_reserved": 0, "bike_id": "bb45acc74102f07b6a6fb5859f1ca6af", "type": "electric_scooter", "name": "bb45acc74102f07b6a6fb5859f1ca6af", "is_disabled": 0, "fusion_lon": 0.0, "rental_uris": {"android": "https://dc.lft.to/lastmile_qr_scan", "ios": "https://dc.lft.to/lastmile_qr_scan"}, "lat": 38.9193915, "lon": -77.04489983333333, "fusion_lat": 0.0}, {"is_reserved": 0, "bike_id": "6109d1ce16379ee8c1af68478d79d247", "type": "electric_scooter", "name": "6109d1ce16379ee8c1af68478d79d247", "is_disabled": 0, "fusion_lon": 0.0, "rental_uris": {"android": "https://dc.lft.to/lastmile_qr_scan", "ios": "https://dc.lft.to/lastmile_qr_scan"}, "lat": 38.914158, "lon": -77.01337383333333, "fusion_lat": 0.0}, {"is_reserved": 0, "bike_id": "3aded1f2e0cd4a5d6417228c3e0f4e92", "type": "electric_scooter", "name": "3aded1f2e0cd4a5d6417228c3e0f4e92", "is_disabled": 0, "fusion_lon": 0.0, "rental_uris": {"android": "https://dc.lft.to/lastmile_qr_scan", "ios": "https://dc.lft.to/lastmile_qr_scan"}, "lat": 38.920708166666664, "lon": -77.02314216666667, "fusion_lat": 0.0}, {"is_reserved": 0, "bike_id": "808f5df76d49602a63dd8cbb138ba8ff", "type": "electric_scooter", "name": "808f5df76d49602a63dd8cbb138ba8ff", "is_disabled": 0, "fusion_lon": 0.0, "rental_uris": {"android": "https://dc.lft.to/lastmile_qr_scan", "ios": "https://dc.lft.to/lastmile_qr_scan"}, "lat": 38.89499083333333, "lon": -76.94873166666666, "fusion_lat": 0.0}, {"is_reserved": 0, "bike_id": "1ee3d510bfc97b6bddf96a0604bdbb62", "type": "electric_scooter", "name": "1ee3d510bfc97b6bddf96a0604bdbb62", "is_disabled": 0, "fusion_lon": 0.0, "rental_uris": {"android": "https://dc.lft.to/lastmile_qr_scan", "ios": "https://dc.lft.to/lastmile_qr_scan"}, "lat": 38.900272666666666, "lon": -77.04883016666666, "fusion_lat": 0.0}, {"is_reserved": 0, "bike_id": "1d6597baa5cd04d26c3e81e03b9af8d2", "type": "electric_scooter", "name": "1d6597baa5cd04d26c3e81e03b9af8d2", "is_disabled": 0, "fusion_lon": 0.0, "rental_uris": {"android": "https://dc.lft.to/lastmile_qr_scan", "ios": "https://dc.lft.to/lastmile_qr_scan"}, "lat": 38.915524, "lon": -77.02824466666667, "fusion_lat": 0.0}, {"is_reserved": 0, "bike_id": "192269b6690153b4fbaffc95253ea69b", "type": "electric_scooter", "name": "192269b6690153b4fbaffc95253ea69b", "is_disabled": 0, "fusion_lon": 0.0, "rental_uris": {"android": "https://dc.lft.to/lastmile_qr_scan", "ios": "https://dc.lft.to/lastmile_qr_scan"}, "lat": 38.9160275, "lon": -77.03665866666667, "fusion_lat": 0.0}, {"is_reserved": 0, "bike_id": "84be8e14143c74c5194265d5cc649166", "type": "electric_scooter", "name": "84be8e14143c74c5194265d5cc649166", "is_disabled": 0, "fusion_lon": 0.0, "rental_uris": {"android": "https://dc.lft.to/lastmile_qr_scan", "ios": "https://dc.lft.to/lastmile_qr_scan"}, "lat": 38.92075483333333, "lon": -77.03661033333333, "fusion_lat": 0.0}, {"is_reserved": 0, "bike_id": "69d95ca42ad2c0cf46f213739c655ccf", "type": "electric_scooter", "name": "69d95ca42ad2c0cf46f213739c655ccf", "is_disabled": 0, "fusion_lon": 0.0, "rental_uris": {"android": "https://dc.lft.to/lastmile_qr_scan", "ios": "https://dc.lft.to/lastmile_qr_scan"}, "lat": 38.956122, "lon": -77.02762516666667, "fusion_lat": 0.0}, {"is_reserved": 0, "bike_id": "7bbc5557b9d51ea18aa7c4a864214c54", "type": "electric_scooter", "name": "7bbc5557b9d51ea18aa7c4a864214c54", "is_disabled": 0, "fusion_lon": 0.0, "rental_uris": {"android": "https://dc.lft.to/lastmile_qr_scan", "ios": "https://dc.lft.to/lastmile_qr_scan"}, "lat": 38.92417066666667, "lon": -77.03539016666667, "fusion_lat": 0.0}, {"is_reserved": 0, "bike_id": "d322e3f0a80893a943563cb66781edd4", "type": "electric_scooter", "name": "d322e3f0a80893a943563cb66781edd4", "is_disabled": 0, "fusion_lon": 0.0, "rental_uris": {"android": "https://dc.lft.to/lastmile_qr_scan", "ios": "https://dc.lft.to/lastmile_qr_scan"}, "lat": 38.912657333333335, "lon": -77.03874433333333, "fusion_lat": 0.0}, {"is_reserved": 0, "bike_id": "d9d77ffe05f40e15266b5301d34403bc", "type": "electric_scooter", "name": "d9d77ffe05f40e15266b5301d34403bc", "is_disabled": 0, "fusion_lon": 0.0, "rental_uris": {"android": "https://dc.lft.to/lastmile_qr_scan", "ios": "https://dc.lft.to/lastmile_qr_scan"}, "lat": 38.886038, "lon": -76.92507466666666, "fusion_lat": 0.0}, {"is_reserved": 0, "bike_id": "046866f3069b52928e3c0b10a3dde979", "type": "electric_scooter", "name": "046866f3069b52928e3c0b10a3dde979", "is_disabled": 0, "fusion_lon": 0.0, "rental_uris": {"android": "https://dc.lft.to/lastmile_qr_scan", "ios": "https://dc.lft.to/lastmile_qr_scan"}, "lat": 38.87291716666667, "lon": -77.0170165, "fusion_lat": 0.0}, {"is_reserved": 0, "bike_id": "aa7683e6be7393fcf173deda6607db77", "type": "electric_scooter", "name": "aa7683e6be7393fcf173deda6607db77", "is_disabled": 0, "fusion_lon": 0.0, "rental_uris": {"android": "https://dc.lft.to/lastmile_qr_scan", "ios": "https://dc.lft.to/lastmile_qr_scan"}, "lat": 38.876775333333335, "lon": -77.00056216666667, "fusion_lat": 0.0}, {"is_reserved": 0, "bike_id": "9f710bb9ec0aabdb6506d392c4267fa8", "type": "electric_scooter", "name": "9f710bb9ec0aabdb6506d392c4267fa8", "is_disabled": 0, "fusion_lon": 0.0, "rental_uris": {"android": "https://dc.lft.to/lastmile_qr_scan", "ios": "https://dc.lft.to/lastmile_qr_scan"}, "lat": 38.88086533333333, "lon": -76.9950745, "fusion_lat": 0.0}, {"is_reserved": 0, "bike_id": "7b894551466ab77d1dda00e981998ce8", "type": "electric_scooter", "name": "7b894551466ab77d1dda00e981998ce8", "is_disabled": 0, "fusion_lon": 0.0, "rental_uris": {"android": "https://dc.lft.to/lastmile_qr_scan", "ios": "https://dc.lft.to/lastmile_qr_scan"}, "lat": 38.924187833333335, "lon": -77.01943033333333, "fusion_lat": 0.0}, {"is_reserved": 0, "bike_id": "e3c22530d4019e215e9adc367cb0d39b", "type": "electric_scooter", "name": "e3c22530d4019e215e9adc367cb0d39b", "is_disabled": 0, "fusion_lon": 0.0, "rental_uris": {"android": "https://dc.lft.to/lastmile_qr_scan", "ios": "https://dc.lft.to/lastmile_qr_scan"}, "lat": 38.9178115, "lon": -77.02422316666667, "fusion_lat": 0.0}, {"is_reserved": 0, "bike_id": "ff1d29fc1c867eb63ba80a416a8b8765", "type": "electric_scooter", "name": "ff1d29fc1c867eb63ba80a416a8b8765", "is_disabled": 0, "fusion_lon": 0.0, "rental_uris": {"android": "https://dc.lft.to/lastmile_qr_scan", "ios": "https://dc.lft.to/lastmile_qr_scan"}, "lat": 38.899093, "lon": -77.02286366666667, "fusion_lat": 0.0}, {"is_reserved": 0, "bike_id": "587546d764e48223b9614642dd1d5386", "type": "electric_scooter", "name": "587546d764e48223b9614642dd1d5386", "is_disabled": 0, "fusion_lon": 0.0, "rental_uris": {"android": "https://dc.lft.to/lastmile_qr_scan", "ios": "https://dc.lft.to/lastmile_qr_scan"}, "lat": 38.919423, "lon": -77.01802883333333, "fusion_lat": 0.0}, {"is_reserved": 0, "bike_id": "d1a93086ba35fac0dc5fc7e31f9ff419", "type": "electric_scooter", "name": "d1a93086ba35fac0dc5fc7e31f9ff419", "is_disabled": 0, "fusion_lon": 0.0, "rental_uris": {"android": "https://dc.lft.to/lastmile_qr_scan", "ios": "https://dc.lft.to/lastmile_qr_scan"}, "lat": 38.89097816666666, "lon": -76.9883475, "fusion_lat": 0.0}, {"is_reserved": 0, "bike_id": "002ae9c36cb6a82e970d9e8406571bbb", "type": "electric_scooter", "name": "002ae9c36cb6a82e970d9e8406571bbb", "is_disabled": 0, "fusion_lon": 0.0, "rental_uris": {"android": "https://dc.lft.to/lastmile_qr_scan", "ios": "https://dc.lft.to/lastmile_qr_scan"}, "lat": 38.915625666666664, "lon": -77.03167433333333, "fusion_lat": 0.0}, {"is_reserved": 0, "bike_id": "a20020329f6bdbe71c142887081f5e88", "type": "electric_scooter", "name": "a20020329f6bdbe71c142887081f5e88", "is_disabled": 0, "fusion_lon": 0.0, "rental_uris": {"android": "https://dc.lft.to/lastmile_qr_scan", "ios": "https://dc.lft.to/lastmile_qr_scan"}, "lat": 38.893674833333336, "lon": -77.01545516666667, "fusion_lat": 0.0}, {"is_reserved": 0, "bike_id": "ed9e7e472bd019cba7859447a3824184", "type": "electric_scooter", "name": "ed9e7e472bd019cba7859447a3824184", "is_disabled": 0, "fusion_lon": 0.0, "rental_uris": {"android": "https://dc.lft.to/lastmile_qr_scan", "ios": "https://dc.lft.to/lastmile_qr_scan"}, "lat": 38.908266833333336, "lon": -76.99669916666667, "fusion_lat": 0.0}, {"is_reserved": 0, "bike_id": "4988cbe2983824de2c2ba1c90a10f862", "type": "electric_scooter", "name": "4988cbe2983824de2c2ba1c90a10f862", "is_disabled": 0, "fusion_lon": 0.0, "rental_uris": {"android": "https://dc.lft.to/lastmile_qr_scan", "ios": "https://dc.lft.to/lastmile_qr_scan"}, "lat": 38.9068625, "lon": -77.06135583333334, "fusion_lat": 0.0}, {"is_reserved": 0, "bike_id": "d8548579f15e79a3d7abe3950f2fa1cc", "type": "electric_scooter", "name": "d8548579f15e79a3d7abe3950f2fa1cc", "is_disabled": 0, "fusion_lon": 0.0, "rental_uris": {"android": "https://dc.lft.to/lastmile_qr_scan", "ios": "https://dc.lft.to/lastmile_qr_scan"}, "lat": 38.902346, "lon": -77.03220466666667, "fusion_lat": 0.0}, {"is_reserved": 0, "bike_id": "de1c162e4cb481109ff1f862ab6fdefa", "type": "electric_scooter", "name": "de1c162e4cb481109ff1f862ab6fdefa", "is_disabled": 0, "fusion_lon": 0.0, "rental_uris": {"android": "https://dc.lft.to/lastmile_qr_scan", "ios": "https://dc.lft.to/lastmile_qr_scan"}, "lat": 38.874046, "lon": -77.00043633333334, "fusion_lat": 0.0}, {"is_reserved": 0, "bike_id": "adad10f68a74af21cbb60445f3f1f0e4", "type": "electric_scooter", "name": "adad10f68a74af21cbb60445f3f1f0e4", "is_disabled": 0, "fusion_lon": 0.0, "rental_uris": {"android": "https://dc.lft.to/lastmile_qr_scan", "ios": "https://dc.lft.to/lastmile_qr_scan"}, "lat": 38.911932666666665, "lon": -77.00727433333333, "fusion_lat": 0.0}, {"is_reserved": 0, "bike_id": "94e3d2a93a29aa3502781dc75768db73", "type": "electric_bike", "name": "94e3d2a93a29aa3502781dc75768db73", "is_disabled": 0, "fusion_lon": 0.0, "rental_uris": {"android": "https://dc.lft.to/lastmile_qr_scan", "ios": "https://dc.lft.to/lastmile_qr_scan"}, "lat": 38.90558983333333, "lon": -77.01842666666667, "fusion_lat": 0.0}, {"is_reserved": 0, "bike_id": "b3669597aff49a5a1f127fee5900c159", "type": "electric_scooter", "name": "b3669597aff49a5a1f127fee5900c159", "is_disabled": 0, "fusion_lon": 0.0, "rental_uris": {"android": "https://dc.lft.to/lastmile_qr_scan", "ios": "https://dc.lft.to/lastmile_qr_scan"}, "lat": 38.92463383333333, "lon": -77.05238566666667, "fusion_lat": 0.0}, {"is_reserved": 0, "bike_id": "9ef6e8030745aae8bb3c8925b40b2366", "type": "electric_scooter", "name": "9ef6e8030745aae8bb3c8925b40b2366", "is_disabled": 0, "fusion_lon": 0.0, "rental_uris": {"android": "https://dc.lft.to/lastmile_qr_scan", "ios": "https://dc.lft.to/lastmile_qr_scan"}, "lat": 38.895455, "lon": -76.98240116666666, "fusion_lat": 0.0}, {"is_reserved": 0, "bike_id": "18ed621cf1c19594a4a123785c15a45d", "type": "electric_scooter", "name": "18ed621cf1c19594a4a123785c15a45d", "is_disabled": 0, "fusion_lon": 0.0, "rental_uris": {"android": "https://dc.lft.to/lastmile_qr_scan", "ios": "https://dc.lft.to/lastmile_qr_scan"}, "lat": 38.87793816666667, "lon": -77.00109716666667, "fusion_lat": 0.0}, {"is_reserved": 0, "bike_id": "7dfe7c1cd258e3d100dadb05f2a1cec6", "type": "electric_scooter", "name": "7dfe7c1cd258e3d100dadb05f2a1cec6", "is_disabled": 0, "fusion_lon": 0.0, "rental_uris": {"android": "https://dc.lft.to/lastmile_qr_scan", "ios": "https://dc.lft.to/lastmile_qr_scan"}, "lat": 38.911926, "lon": -77.03220316666666, "fusion_lat": 0.0}, {"is_reserved": 0, "bike_id": "42484c653759b762003fbffbf419bd4c", "type": "electric_scooter", "name": "42484c653759b762003fbffbf419bd4c", "is_disabled": 0, "fusion_lon": 0.0, "rental_uris": {"android": "https://dc.lft.to/lastmile_qr_scan", "ios": "https://dc.lft.to/lastmile_qr_scan"}, "lat": 38.9195815, "lon": -77.078685, "fusion_lat": 0.0}, {"is_reserved": 0, "bike_id": "b66cd0e97e3d881db23e5fa7776ea8b0", "type": "electric_scooter", "name": "b66cd0e97e3d881db23e5fa7776ea8b0", "is_disabled": 0, "fusion_lon": 0.0, "rental_uris": {"android": "https://dc.lft.to/lastmile_qr_scan", "ios": "https://dc.lft.to/lastmile_qr_scan"}, "lat": 38.89725283333333, "lon": -76.92591833333333, "fusion_lat": 0.0}, {"is_reserved": 0, "bike_id": "ebe01c28295e53f02aabd99c78f169ef", "type": "electric_scooter", "name": "ebe01c28295e53f02aabd99c78f169ef", "is_disabled": 0, "fusion_lon": 0.0, "rental_uris": {"android": "https://dc.lft.to/lastmile_qr_scan", "ios": "https://dc.lft.to/lastmile_qr_scan"}, "lat": 38.920459666666666, "lon": -77.023653, "fusion_lat": 0.0}, {"is_reserved": 0, "bike_id": "bf62b141ba518b29e866e619e5c71d6d", "type": "electric_scooter", "name": "bf62b141ba518b29e866e619e5c71d6d", "is_disabled": 0, "fusion_lon": 0.0, "rental_uris": {"android": "https://dc.lft.to/lastmile_qr_scan", "ios": "https://dc.lft.to/lastmile_qr_scan"}, "lat": 38.916200833333335, "lon": -77.04863333333333, "fusion_lat": 0.0}, {"is_reserved": 0, "bike_id": "291315c6baab120c8d36efba63c548f5", "type": "electric_scooter", "name": "291315c6baab120c8d36efba63c548f5", "is_disabled": 0, "fusion_lon": 0.0, "rental_uris": {"android": "https://dc.lft.to/lastmile_qr_scan", "ios": "https://dc.lft.to/lastmile_qr_scan"}, "lat": 38.91941083333333, "lon": -77.01801633333334, "fusion_lat": 0.0}, {"is_reserved": 0, "bike_id": "fac19d39dae5b348b0760e5fbafd4f9f", "type": "electric_scooter", "name": "fac19d39dae5b348b0760e5fbafd4f9f", "is_disabled": 0, "fusion_lon": 0.0, "rental_uris": {"android": "https://dc.lft.to/lastmile_qr_scan", "ios": "https://dc.lft.to/lastmile_qr_scan"}, "lat": 38.91411016666667, "lon": -77.0217285, "fusion_lat": 0.0}, {"is_reserved": 0, "bike_id": "0459e3550d179bee50b993cdcdf0daea", "type": "electric_scooter", "name": "0459e3550d179bee50b993cdcdf0daea", "is_disabled": 0, "fusion_lon": 0.0, "rental_uris": {"android": "https://dc.lft.to/lastmile_qr_scan", "ios": "https://dc.lft.to/lastmile_qr_scan"}, "lat": 38.895482666666666, "lon": -77.009092, "fusion_lat": 0.0}, {"is_reserved": 0, "bike_id": "41a6f636d35c0234ba6b3f12c3a181b7", "type": "electric_scooter", "name": "41a6f636d35c0234ba6b3f12c3a181b7", "is_disabled": 0, "fusion_lon": 0.0, "rental_uris": {"android": "https://dc.lft.to/lastmile_qr_scan", "ios": "https://dc.lft.to/lastmile_qr_scan"}, "lat": 38.93132333333333, "lon": -77.057273, "fusion_lat": 0.0}, {"is_reserved": 0, "bike_id": "7c02719cfd29ed08aa1176393bf9f50e", "type": "electric_scooter", "name": "7c02719cfd29ed08aa1176393bf9f50e", "is_disabled": 0, "fusion_lon": 0.0, "rental_uris": {"android": "https://dc.lft.to/lastmile_qr_scan", "ios": "https://dc.lft.to/lastmile_qr_scan"}, "lat": 38.928223333333335, "lon": -77.022579, "fusion_lat": 0.0}, {"is_reserved": 0, "bike_id": "dc8ae6fc6cadf4a7a4f09fb0ba567984", "type": "electric_bike", "name": "dc8ae6fc6cadf4a7a4f09fb0ba567984", "is_disabled": 0, "fusion_lon": 0.0, "rental_uris": {"android": "https://dc.lft.to/lastmile_qr_scan", "ios": "https://dc.lft.to/lastmile_qr_scan"}, "lat": 38.90471, "lon": -76.9295265, "fusion_lat": 0.0}, {"is_reserved": 0, "bike_id": "c8c32a2eae068c40aff849e9e87a32bc", "type": "electric_scooter", "name": "c8c32a2eae068c40aff849e9e87a32bc", "is_disabled": 0, "fusion_lon": 0.0, "rental_uris": {"android": "https://dc.lft.to/lastmile_qr_scan", "ios": "https://dc.lft.to/lastmile_qr_scan"}, "lat": 38.903111, "lon": -77.01883516666666, "fusion_lat": 0.0}, {"is_reserved": 0, "bike_id": "b355d3e0b14c654fb3ba0199f1124e31", "type": "electric_scooter", "name": "b355d3e0b14c654fb3ba0199f1124e31", "is_disabled": 0, "fusion_lon": 0.0, "rental_uris": {"android": "https://dc.lft.to/lastmile_qr_scan", "ios": "https://dc.lft.to/lastmile_qr_scan"}, "lat": 38.918932833333336, "lon": -77.03456683333333, "fusion_lat": 0.0}, {"is_reserved": 0, "bike_id": "6249c3095fd94448aeb21ead0f7dfaf2", "type": "electric_scooter", "name": "6249c3095fd94448aeb21ead0f7dfaf2", "is_disabled": 0, "fusion_lon": 0.0, "rental_uris": {"android": "https://dc.lft.to/lastmile_qr_scan", "ios": "https://dc.lft.to/lastmile_qr_scan"}, "lat": 38.855106, "lon": -76.98635016666667, "fusion_lat": 0.0}, {"is_reserved": 0, "bike_id": "a4c51e44f94f604faa9e12dc5c629407", "type": "electric_scooter", "name": "a4c51e44f94f604faa9e12dc5c629407", "is_disabled": 0, "fusion_lon": 0.0, "rental_uris": {"android": "https://dc.lft.to/lastmile_qr_scan", "ios": "https://dc.lft.to/lastmile_qr_scan"}, "lat": 38.878798333333336, "lon": -77.0005145, "fusion_lat": 0.0}, {"is_reserved": 0, "bike_id": "eafcfc601e9e12dd29b5d723715874d2", "type": "electric_scooter", "name": "eafcfc601e9e12dd29b5d723715874d2", "is_disabled": 0, "fusion_lon": 0.0, "rental_uris": {"android": "https://dc.lft.to/lastmile_qr_scan", "ios": "https://dc.lft.to/lastmile_qr_scan"}, "lat": 38.921364833333335, "lon": -77.0181055, "fusion_lat": 0.0}, {"is_reserved": 0, "bike_id": "dee85544d556102483808736406b66e0", "type": "electric_scooter", "name": "dee85544d556102483808736406b66e0", "is_disabled": 0, "fusion_lon": 0.0, "rental_uris": {"android": "https://dc.lft.to/lastmile_qr_scan", "ios": "https://dc.lft.to/lastmile_qr_scan"}, "lat": 38.908944166666664, "lon": -76.98237333333333, "fusion_lat": 0.0}, {"is_reserved": 0, "bike_id": "488d2c4df386d85b41c11cbd0bf2b7ab", "type": "electric_scooter", "name": "488d2c4df386d85b41c11cbd0bf2b7ab", "is_disabled": 0, "fusion_lon": 0.0, "rental_uris": {"android": "https://dc.lft.to/lastmile_qr_scan", "ios": "https://dc.lft.to/lastmile_qr_scan"}, "lat": 38.88056566666667, "lon": -76.93215583333334, "fusion_lat": 0.0}, {"is_reserved": 0, "bike_id": "6ca2a9fea1f007eb3b299cc50b3901b4", "type": "electric_bike", "name": "6ca2a9fea1f007eb3b299cc50b3901b4", "is_disabled": 0, "fusion_lon": 0.0, "rental_uris": {"android": "https://dc.lft.to/lastmile_qr_scan", "ios": "https://dc.lft.to/lastmile_qr_scan"}, "lat": 38.966786666666664, "lon": -77.0229545, "fusion_lat": 0.0}, {"is_reserved": 0, "bike_id": "6fa93f8115a08dafb68721da290a92c0", "type": "electric_scooter", "name": "6fa93f8115a08dafb68721da290a92c0", "is_disabled": 0, "fusion_lon": 0.0, "rental_uris": {"android": "https://dc.lft.to/lastmile_qr_scan", "ios": "https://dc.lft.to/lastmile_qr_scan"}, "lat": 38.925505333333334, "lon": -77.05296316666667, "fusion_lat": 0.0}, {"is_reserved": 0, "bike_id": "bfeab7928bb88944ea8f2f0e9b0ae40a", "type": "electric_scooter", "name": "bfeab7928bb88944ea8f2f0e9b0ae40a", "is_disabled": 0, "fusion_lon": 0.0, "rental_uris": {"android": "https://dc.lft.to/lastmile_qr_scan", "ios": "https://dc.lft.to/lastmile_qr_scan"}, "lat": 38.892077, "lon": -76.99012333333333, "fusion_lat": 0.0}, {"is_reserved": 0, "bike_id": "14053f5287d28289214d6bc15e53842d", "type": "electric_scooter", "name": "14053f5287d28289214d6bc15e53842d", "is_disabled": 0, "fusion_lon": 0.0, "rental_uris": {"android": "https://dc.lft.to/lastmile_qr_scan", "ios": "https://dc.lft.to/lastmile_qr_scan"}, "lat": 38.918088, "lon": -77.027141, "fusion_lat": 0.0}, {"is_reserved": 0, "bike_id": "853f30f208db6f7893ab7cfbcb0b9233", "type": "electric_scooter", "name": "853f30f208db6f7893ab7cfbcb0b9233", "is_disabled": 0, "fusion_lon": 0.0, "rental_uris": {"android": "https://dc.lft.to/lastmile_qr_scan", "ios": "https://dc.lft.to/lastmile_qr_scan"}, "lat": 38.91914383333334, "lon": -77.029953, "fusion_lat": 0.0}, {"is_reserved": 0, "bike_id": "56c2c79c9547bcc563115b2846fd1709", "type": "electric_scooter", "name": "56c2c79c9547bcc563115b2846fd1709", "is_disabled": 0, "fusion_lon": 0.0, "rental_uris": {"android": "https://dc.lft.to/lastmile_qr_scan", "ios": "https://dc.lft.to/lastmile_qr_scan"}, "lat": 38.9270235, "lon": -77.02078483333334, "fusion_lat": 0.0}, {"is_reserved": 0, "bike_id": "de6e2c536c3797dd6304f55422b2bab7", "type": "electric_scooter", "name": "de6e2c536c3797dd6304f55422b2bab7", "is_disabled": 0, "fusion_lon": 0.0, "rental_uris": {"android": "https://dc.lft.to/lastmile_qr_scan", "ios": "https://dc.lft.to/lastmile_qr_scan"}, "lat": 38.9120285, "lon": -77.03207266666666, "fusion_lat": 0.0}, {"is_reserved": 0, "bike_id": "03fb8b79c7cdc8c825218139d2702625", "type": "electric_scooter", "name": "03fb8b79c7cdc8c825218139d2702625", "is_disabled": 0, "fusion_lon": 0.0, "rental_uris": {"android": "https://dc.lft.to/lastmile_qr_scan", "ios": "https://dc.lft.to/lastmile_qr_scan"}, "lat": 38.9228875, "lon": -77.02244966666666, "fusion_lat": 0.0}, {"is_reserved": 0, "bike_id": "cfa619a1e153d4c8b22ebffb5684f1b7", "type": "electric_scooter", "name": "cfa619a1e153d4c8b22ebffb5684f1b7", "is_disabled": 0, "fusion_lon": 0.0, "rental_uris": {"android": "https://dc.lft.to/lastmile_qr_scan", "ios": "https://dc.lft.to/lastmile_qr_scan"}, "lat": 38.95645433333333, "lon": -77.01319533333333, "fusion_lat": 0.0}, {"is_reserved": 0, "bike_id": "abd59eaecff8a3c5397b758eca9aeb21", "type": "electric_scooter", "name": "abd59eaecff8a3c5397b758eca9aeb21", "is_disabled": 0, "fusion_lon": 0.0, "rental_uris": {"android": "https://dc.lft.to/lastmile_qr_scan", "ios": "https://dc.lft.to/lastmile_qr_scan"}, "lat": 38.886009333333334, "lon": -77.01779566666667, "fusion_lat": 0.0}, {"is_reserved": 0, "bike_id": "13535c71b40c8666cfdb315e1baaea4b", "type": "electric_scooter", "name": "13535c71b40c8666cfdb315e1baaea4b", "is_disabled": 0, "fusion_lon": 0.0, "rental_uris": {"android": "https://dc.lft.to/lastmile_qr_scan", "ios": "https://dc.lft.to/lastmile_qr_scan"}, "lat": 38.944624166666664, "lon": -77.00655116666667, "fusion_lat": 0.0}, {"is_reserved": 0, "bike_id": "4023e753c470c19fb7276614c08dfccd", "type": "electric_scooter", "name": "4023e753c470c19fb7276614c08dfccd", "is_disabled": 0, "fusion_lon": 0.0, "rental_uris": {"android": "https://dc.lft.to/lastmile_qr_scan", "ios": "https://dc.lft.to/lastmile_qr_scan"}, "lat": 38.92430183333333, "lon": -77.04248966666667, "fusion_lat": 0.0}, {"is_reserved": 0, "bike_id": "1e46d79e56739b9618fd59efe8fd435e", "type": "electric_scooter", "name": "1e46d79e56739b9618fd59efe8fd435e", "is_disabled": 0, "fusion_lon": 0.0, "rental_uris": {"android": "https://dc.lft.to/lastmile_qr_scan", "ios": "https://dc.lft.to/lastmile_qr_scan"}, "lat": 38.90487366666667, "lon": -77.0487385, "fusion_lat": 0.0}, {"is_reserved": 0, "bike_id": "3739023b2191ab931a08f63a25140d91", "type": "electric_bike", "name": "3739023b2191ab931a08f63a25140d91", "is_disabled": 0, "fusion_lon": 0.0, "rental_uris": {"android": "https://dc.lft.to/lastmile_qr_scan", "ios": "https://dc.lft.to/lastmile_qr_scan"}, "lat": 38.864871, "lon": -76.9775375, "fusion_lat": 0.0}, {"is_reserved": 0, "bike_id": "baef8fb04ceb1e1526a9c65a9086df74", "type": "electric_scooter", "name": "baef8fb04ceb1e1526a9c65a9086df74", "is_disabled": 0, "fusion_lon": 0.0, "rental_uris": {"android": "https://dc.lft.to/lastmile_qr_scan", "ios": "https://dc.lft.to/lastmile_qr_scan"}, "lat": 38.90244, "lon": -76.98969433333333, "fusion_lat": 0.0}, {"is_reserved": 0, "bike_id": "504978d5c391945cfc61cfbee2c1f311", "type": "electric_scooter", "name": "504978d5c391945cfc61cfbee2c1f311", "is_disabled": 0, "fusion_lon": 0.0, "rental_uris": {"android": "https://dc.lft.to/lastmile_qr_scan", "ios": "https://dc.lft.to/lastmile_qr_scan"}, "lat": 38.908064833333334, "lon": -77.08391383333333, "fusion_lat": 0.0}, {"is_reserved": 0, "bike_id": "aaecb2df044dcc086e0366b85f73e218", "type": "electric_scooter", "name": "aaecb2df044dcc086e0366b85f73e218", "is_disabled": 0, "fusion_lon": 0.0, "rental_uris": {"android": "https://dc.lft.to/lastmile_qr_scan", "ios": "https://dc.lft.to/lastmile_qr_scan"}, "lat": 38.912976, "lon": -77.01742433333334, "fusion_lat": 0.0}, {"is_reserved": 0, "bike_id": "faae43b92d5573e4e51be9ef3d5f6f3d", "type": "electric_scooter", "name": "faae43b92d5573e4e51be9ef3d5f6f3d", "is_disabled": 0, "fusion_lon": 0.0, "rental_uris": {"android": "https://dc.lft.to/lastmile_qr_scan", "ios": "https://dc.lft.to/lastmile_qr_scan"}, "lat": 38.898325666666665, "lon": -77.04382116666666, "fusion_lat": 0.0}, {"is_reserved": 0, "bike_id": "151ee0a41af80b5cc058071dc4190de7", "type": "electric_scooter", "name": "151ee0a41af80b5cc058071dc4190de7", "is_disabled": 0, "fusion_lon": 0.0, "rental_uris": {"android": "https://dc.lft.to/lastmile_qr_scan", "ios": "https://dc.lft.to/lastmile_qr_scan"}, "lat": 38.900787, "lon": -77.05008533333333, "fusion_lat": 0.0}, {"is_reserved": 0, "bike_id": "d539fa627d2e35cd31e12dd43271395e", "type": "electric_scooter", "name": "d539fa627d2e35cd31e12dd43271395e", "is_disabled": 0, "fusion_lon": 0.0, "rental_uris": {"android": "https://dc.lft.to/lastmile_qr_scan", "ios": "https://dc.lft.to/lastmile_qr_scan"}, "lat": 38.90707783333333, "lon": -76.98695433333333, "fusion_lat": 0.0}, {"is_reserved": 0, "bike_id": "64585d133e9cc964ce130d1cd36ca993", "type": "electric_scooter", "name": "64585d133e9cc964ce130d1cd36ca993", "is_disabled": 0, "fusion_lon": 0.0, "rental_uris": {"android": "https://dc.lft.to/lastmile_qr_scan", "ios": "https://dc.lft.to/lastmile_qr_scan"}, "lat": 38.910470333333336, "lon": -77.0646145, "fusion_lat": 0.0}, {"is_reserved": 0, "bike_id": "b5c89ee21358e446dd2902fbc5c97405", "type": "electric_scooter", "name": "b5c89ee21358e446dd2902fbc5c97405", "is_disabled": 0, "fusion_lon": 0.0, "rental_uris": {"android": "https://dc.lft.to/lastmile_qr_scan", "ios": "https://dc.lft.to/lastmile_qr_scan"}, "lat": 38.92761983333333, "lon": -77.03658666666666, "fusion_lat": 0.0}, {"is_reserved": 0, "bike_id": "7d2620d7031a172e51bd35e9627e7142", "type": "electric_bike", "name": "7d2620d7031a172e51bd35e9627e7142", "is_disabled": 0, "fusion_lon": 0.0, "rental_uris": {"android": "https://dc.lft.to/lastmile_qr_scan", "ios": "https://dc.lft.to/lastmile_qr_scan"}, "lat": 38.8813495, "lon": -76.98114583333333, "fusion_lat": 0.0}, {"is_reserved": 0, "bike_id": "be7bd4584bb882ee01fc3317fc86f16a", "type": "electric_scooter", "name": "be7bd4584bb882ee01fc3317fc86f16a", "is_disabled": 0, "fusion_lon": 0.0, "rental_uris": {"android": "https://dc.lft.to/lastmile_qr_scan", "ios": "https://dc.lft.to/lastmile_qr_scan"}, "lat": 38.92246133333333, "lon": -77.03903533333333, "fusion_lat": 0.0}, {"is_reserved": 0, "bike_id": "f7aa5b72b3d9684d4cf8eedd2d8c516f", "type": "electric_scooter", "name": "f7aa5b72b3d9684d4cf8eedd2d8c516f", "is_disabled": 0, "fusion_lon": 0.0, "rental_uris": {"android": "https://dc.lft.to/lastmile_qr_scan", "ios": "https://dc.lft.to/lastmile_qr_scan"}, "lat": 38.93030616666667, "lon": -77.02635166666667, "fusion_lat": 0.0}, {"is_reserved": 0, "bike_id": "79622ac32d2642b56917d2bd5c12f085", "type": "electric_scooter", "name": "79622ac32d2642b56917d2bd5c12f085", "is_disabled": 0, "fusion_lon": 0.0, "rental_uris": {"android": "https://dc.lft.to/lastmile_qr_scan", "ios": "https://dc.lft.to/lastmile_qr_scan"}, "lat": 38.9231805, "lon": -77.0556565, "fusion_lat": 0.0}, {"is_reserved": 0, "bike_id": "5e5750286e04a6f0a15998503aca4645", "type": "electric_scooter", "name": "5e5750286e04a6f0a15998503aca4645", "is_disabled": 0, "fusion_lon": 0.0, "rental_uris": {"android": "https://dc.lft.to/lastmile_qr_scan", "ios": "https://dc.lft.to/lastmile_qr_scan"}, "lat": 38.924468833333336, "lon": -77.0366065, "fusion_lat": 0.0}, {"is_reserved": 0, "bike_id": "847ebf33bde2ca44520845f2c72d3dba", "type": "electric_scooter", "name": "847ebf33bde2ca44520845f2c72d3dba", "is_disabled": 0, "fusion_lon": 0.0, "rental_uris": {"android": "https://dc.lft.to/lastmile_qr_scan", "ios": "https://dc.lft.to/lastmile_qr_scan"}, "lat": 38.90786283333333, "lon": -77.072614, "fusion_lat": 0.0}, {"is_reserved": 0, "bike_id": "16a9ecef071fb2c216da678393671fc5", "type": "electric_scooter", "name": "16a9ecef071fb2c216da678393671fc5", "is_disabled": 0, "fusion_lon": 0.0, "rental_uris": {"android": "https://dc.lft.to/lastmile_qr_scan", "ios": "https://dc.lft.to/lastmile_qr_scan"}, "lat": 38.89043916666667, "lon": -76.9901185, "fusion_lat": 0.0}, {"is_reserved": 0, "bike_id": "1081e4b8c8bf6b70d7db10f13c7bf7c0", "type": "electric_bike", "name": "1081e4b8c8bf6b70d7db10f13c7bf7c0", "is_disabled": 0, "fusion_lon": 0.0, "rental_uris": {"android": "https://dc.lft.to/lastmile_qr_scan", "ios": "https://dc.lft.to/lastmile_qr_scan"}, "lat": 38.932566333333334, "lon": -77.06567966666667, "fusion_lat": 0.0}, {"is_reserved": 0, "bike_id": "02118170450fc91829617e36e2dbd0ac", "type": "electric_scooter", "name": "02118170450fc91829617e36e2dbd0ac", "is_disabled": 0, "fusion_lon": 0.0, "rental_uris": {"android": "https://dc.lft.to/lastmile_qr_scan", "ios": "https://dc.lft.to/lastmile_qr_scan"}, "lat": 38.90644416666667, "lon": -77.01689416666666, "fusion_lat": 0.0}, {"is_reserved": 0, "bike_id": "f42d6925bf63fd46b9104641b719bb8d", "type": "electric_scooter", "name": "f42d6925bf63fd46b9104641b719bb8d", "is_disabled": 0, "fusion_lon": 0.0, "rental_uris": {"android": "https://dc.lft.to/lastmile_qr_scan", "ios": "https://dc.lft.to/lastmile_qr_scan"}, "lat": 38.905261833333334, "lon": -77.04746133333333, "fusion_lat": 0.0}, {"is_reserved": 0, "bike_id": "8b45a333bf24e63fea3f5f339378c085", "type": "electric_scooter", "name": "8b45a333bf24e63fea3f5f339378c085", "is_disabled": 0, "fusion_lon": 0.0, "rental_uris": {"android": "https://dc.lft.to/lastmile_qr_scan", "ios": "https://dc.lft.to/lastmile_qr_scan"}, "lat": 38.91092866666666, "lon": -77.02550916666667, "fusion_lat": 0.0}, {"is_reserved": 0, "bike_id": "e72de7da2cd4a6b85767c0fe0fb73ed8", "type": "electric_scooter", "name": "e72de7da2cd4a6b85767c0fe0fb73ed8", "is_disabled": 0, "fusion_lon": 0.0, "rental_uris": {"android": "https://dc.lft.to/lastmile_qr_scan", "ios": "https://dc.lft.to/lastmile_qr_scan"}, "lat": 38.88602683333333, "lon": -76.92503816666667, "fusion_lat": 0.0}, {"is_reserved": 0, "bike_id": "a0392976ef5ff437266443407f20d75f", "type": "electric_scooter", "name": "a0392976ef5ff437266443407f20d75f", "is_disabled": 0, "fusion_lon": 0.0, "rental_uris": {"android": "https://dc.lft.to/lastmile_qr_scan", "ios": "https://dc.lft.to/lastmile_qr_scan"}, "lat": 38.9488375, "lon": -77.06455916666667, "fusion_lat": 0.0}, {"is_reserved": 0, "bike_id": "5c75fb1abb7096ccc07fb6d9a649074b", "type": "electric_scooter", "name": "5c75fb1abb7096ccc07fb6d9a649074b", "is_disabled": 0, "fusion_lon": 0.0, "rental_uris": {"android": "https://dc.lft.to/lastmile_qr_scan", "ios": "https://dc.lft.to/lastmile_qr_scan"}, "lat": 38.896286, "lon": -77.03326966666667, "fusion_lat": 0.0}, {"is_reserved": 0, "bike_id": "a13fee97a0d5d5f95847d14456e13f87", "type": "electric_scooter", "name": "a13fee97a0d5d5f95847d14456e13f87", "is_disabled": 0, "fusion_lon": 0.0, "rental_uris": {"android": "https://dc.lft.to/lastmile_qr_scan", "ios": "https://dc.lft.to/lastmile_qr_scan"}, "lat": 38.922286166666666, "lon": -77.023362, "fusion_lat": 0.0}, {"is_reserved": 0, "bike_id": "e8fb8f5db8e9c1e199c1b83535d7db37", "type": "electric_scooter", "name": "e8fb8f5db8e9c1e199c1b83535d7db37", "is_disabled": 0, "fusion_lon": 0.0, "rental_uris": {"android": "https://dc.lft.to/lastmile_qr_scan", "ios": "https://dc.lft.to/lastmile_qr_scan"}, "lat": 38.8982475, "lon": -77.03142733333334, "fusion_lat": 0.0}, {"is_reserved": 0, "bike_id": "a05c1783c4a73270efb35cd1dbf58c08", "type": "electric_bike", "name": "a05c1783c4a73270efb35cd1dbf58c08", "is_disabled": 0, "fusion_lon": 0.0, "rental_uris": {"android": "https://dc.lft.to/lastmile_qr_scan", "ios": "https://dc.lft.to/lastmile_qr_scan"}, "lat": 38.90031316666666, "lon": -76.97222416666666, "fusion_lat": 0.0}, {"is_reserved": 0, "bike_id": "cc57b0afb683baee2e28bac774f43d91", "type": "electric_scooter", "name": "cc57b0afb683baee2e28bac774f43d91", "is_disabled": 0, "fusion_lon": 0.0, "rental_uris": {"android": "https://dc.lft.to/lastmile_qr_scan", "ios": "https://dc.lft.to/lastmile_qr_scan"}, "lat": 38.913350333333334, "lon": -77.01198333333333, "fusion_lat": 0.0}, {"is_reserved": 0, "bike_id": "1119d1a70ff995deab75eb00e103557f", "type": "electric_bike", "name": "1119d1a70ff995deab75eb00e103557f", "is_disabled": 0, "fusion_lon": 0.0, "rental_uris": {"android": "https://dc.lft.to/lastmile_qr_scan", "ios": "https://dc.lft.to/lastmile_qr_scan"}, "lat": 38.888713833333334, "lon": -76.97842366666667, "fusion_lat": 0.0}, {"is_reserved": 0, "bike_id": "bb14fcc5398ece2887767b836578f202", "type": "electric_scooter", "name": "bb14fcc5398ece2887767b836578f202", "is_disabled": 0, "fusion_lon": 0.0, "rental_uris": {"android": "https://dc.lft.to/lastmile_qr_scan", "ios": "https://dc.lft.to/lastmile_qr_scan"}, "lat": 38.88513866666667, "lon": -76.92440583333334, "fusion_lat": 0.0}, {"is_reserved": 0, "bike_id": "6fc7d7ce7433521c82792e0a9b491501", "type": "electric_scooter", "name": "6fc7d7ce7433521c82792e0a9b491501", "is_disabled": 0, "fusion_lon": 0.0, "rental_uris": {"android": "https://dc.lft.to/lastmile_qr_scan", "ios": "https://dc.lft.to/lastmile_qr_scan"}, "lat": 38.9055375, "lon": -77.005994, "fusion_lat": 0.0}, {"is_reserved": 0, "bike_id": "bef32f204aa32714e7016a7425ec553c", "type": "electric_bike", "name": "bef32f204aa32714e7016a7425ec553c", "is_disabled": 0, "fusion_lon": 0.0, "rental_uris": {"android": "https://dc.lft.to/lastmile_qr_scan", "ios": "https://dc.lft.to/lastmile_qr_scan"}, "lat": 38.896205333333334, "lon": -76.907519, "fusion_lat": 0.0}, {"is_reserved": 0, "bike_id": "51019eb531b218341644a48810bb3f4a", "type": "electric_scooter", "name": "51019eb531b218341644a48810bb3f4a", "is_disabled": 0, "fusion_lon": 0.0, "rental_uris": {"android": "https://dc.lft.to/lastmile_qr_scan", "ios": "https://dc.lft.to/lastmile_qr_scan"}, "lat": 38.93118066666667, "lon": -77.05618383333334, "fusion_lat": 0.0}, {"is_reserved": 0, "bike_id": "b8d9df469aa707249e7fe40ca2f851f7", "type": "electric_scooter", "name": "b8d9df469aa707249e7fe40ca2f851f7", "is_disabled": 0, "fusion_lon": 0.0, "rental_uris": {"android": "https://dc.lft.to/lastmile_qr_scan", "ios": "https://dc.lft.to/lastmile_qr_scan"}, "lat": 38.9050395, "lon": -77.02946483333334, "fusion_lat": 0.0}, {"is_reserved": 0, "bike_id": "25b5367b20224d9a35e5d4d4c69f60ab", "type": "electric_scooter", "name": "25b5367b20224d9a35e5d4d4c69f60ab", "is_disabled": 0, "fusion_lon": 0.0, "rental_uris": {"android": "https://dc.lft.to/lastmile_qr_scan", "ios": "https://dc.lft.to/lastmile_qr_scan"}, "lat": 38.902412166666664, "lon": -77.017952, "fusion_lat": 0.0}, {"is_reserved": 0, "bike_id": "82003d5e81b90a2617f286b5456065fb", "type": "electric_scooter", "name": "82003d5e81b90a2617f286b5456065fb", "is_disabled": 0, "fusion_lon": 0.0, "rental_uris": {"android": "https://dc.lft.to/lastmile_qr_scan", "ios": "https://dc.lft.to/lastmile_qr_scan"}, "lat": 38.926749666666666, "lon": -77.07835383333334, "fusion_lat": 0.0}, {"is_reserved": 0, "bike_id": "12839169a816eb6befe26b1ab9882e89", "type": "electric_scooter", "name": "12839169a816eb6befe26b1ab9882e89", "is_disabled": 0, "fusion_lon": 0.0, "rental_uris": {"android": "https://dc.lft.to/lastmile_qr_scan", "ios": "https://dc.lft.to/lastmile_qr_scan"}, "lat": 38.88705233333334, "lon": -77.02187083333334, "fusion_lat": 0.0}, {"is_reserved": 0, "bike_id": "bbe8078d45ba7f0ee7f7253fe82d9e46", "type": "electric_scooter", "name": "bbe8078d45ba7f0ee7f7253fe82d9e46", "is_disabled": 0, "fusion_lon": 0.0, "rental_uris": {"android": "https://dc.lft.to/lastmile_qr_scan", "ios": "https://dc.lft.to/lastmile_qr_scan"}, "lat": 38.9155255, "lon": -77.03192333333334, "fusion_lat": 0.0}, {"is_reserved": 0, "bike_id": "312751f78d59171c63861f75766fcbdb", "type": "electric_scooter", "name": "312751f78d59171c63861f75766fcbdb", "is_disabled": 0, "fusion_lon": 0.0, "rental_uris": {"android": "https://dc.lft.to/lastmile_qr_scan", "ios": "https://dc.lft.to/lastmile_qr_scan"}, "lat": 38.88493366666667, "lon": -77.00712816666666, "fusion_lat": 0.0}, {"is_reserved": 0, "bike_id": "27760c09775181f5c9ea3d7c6fda310f", "type": "electric_scooter", "name": "27760c09775181f5c9ea3d7c6fda310f", "is_disabled": 0, "fusion_lon": 0.0, "rental_uris": {"android": "https://dc.lft.to/lastmile_qr_scan", "ios": "https://dc.lft.to/lastmile_qr_scan"}, "lat": 38.906716833333334, "lon": -77.07321916666666, "fusion_lat": 0.0}, {"is_reserved": 0, "bike_id": "fc82a681a94ae278234c70fddf26c355", "type": "electric_scooter", "name": "fc82a681a94ae278234c70fddf26c355", "is_disabled": 0, "fusion_lon": 0.0, "rental_uris": {"android": "https://dc.lft.to/lastmile_qr_scan", "ios": "https://dc.lft.to/lastmile_qr_scan"}, "lat": 38.90232266666667, "lon": -77.039752, "fusion_lat": 0.0}, {"is_reserved": 0, "bike_id": "4b4bbe55743a26a25ecdd64b3e9b896b", "type": "electric_scooter", "name": "4b4bbe55743a26a25ecdd64b3e9b896b", "is_disabled": 0, "fusion_lon": 0.0, "rental_uris": {"android": "https://dc.lft.to/lastmile_qr_scan", "ios": "https://dc.lft.to/lastmile_qr_scan"}, "lat": 38.89222933333333, "lon": -77.04496933333333, "fusion_lat": 0.0}, {"is_reserved": 0, "bike_id": "0b54911bdc7b6fea7b3ea05bc3f198b7", "type": "electric_scooter", "name": "0b54911bdc7b6fea7b3ea05bc3f198b7", "is_disabled": 0, "fusion_lon": 0.0, "rental_uris": {"android": "https://dc.lft.to/lastmile_qr_scan", "ios": "https://dc.lft.to/lastmile_qr_scan"}, "lat": 38.91421716666667, "lon": -77.0316995, "fusion_lat": 0.0}, {"is_reserved": 0, "bike_id": "c13ae1863e5fade634b38df2f2a65090", "type": "electric_scooter", "name": "c13ae1863e5fade634b38df2f2a65090", "is_disabled": 0, "fusion_lon": 0.0, "rental_uris": {"android": "https://dc.lft.to/lastmile_qr_scan", "ios": "https://dc.lft.to/lastmile_qr_scan"}, "lat": 38.908966666666664, "lon": -77.03177133333334, "fusion_lat": 0.0}, {"is_reserved": 0, "bike_id": "a8174c030aa73da6fce0f564bf022652", "type": "electric_scooter", "name": "a8174c030aa73da6fce0f564bf022652", "is_disabled": 0, "fusion_lon": 0.0, "rental_uris": {"android": "https://dc.lft.to/lastmile_qr_scan", "ios": "https://dc.lft.to/lastmile_qr_scan"}, "lat": 38.923728, "lon": -77.050298, "fusion_lat": 0.0}, {"is_reserved": 0, "bike_id": "aa678c665bd0ef3cb18ed900e74bc135", "type": "electric_scooter", "name": "aa678c665bd0ef3cb18ed900e74bc135", "is_disabled": 0, "fusion_lon": 0.0, "rental_uris": {"android": "https://dc.lft.to/lastmile_qr_scan", "ios": "https://dc.lft.to/lastmile_qr_scan"}, "lat": 38.92334816666666, "lon": -77.0228735, "fusion_lat": 0.0}, {"is_reserved": 0, "bike_id": "c4ad3d6ba15bc6940a4f14d456ea2043", "type": "electric_scooter", "name": "c4ad3d6ba15bc6940a4f14d456ea2043", "is_disabled": 0, "fusion_lon": 0.0, "rental_uris": {"android": "https://dc.lft.to/lastmile_qr_scan", "ios": "https://dc.lft.to/lastmile_qr_scan"}, "lat": 38.89370016666667, "lon": -77.04773183333333, "fusion_lat": 0.0}, {"is_reserved": 0, "bike_id": "0f6055122b1ac93919af7763f80fbd2a", "type": "electric_scooter", "name": "0f6055122b1ac93919af7763f80fbd2a", "is_disabled": 0, "fusion_lon": 0.0, "rental_uris": {"android": "https://dc.lft.to/lastmile_qr_scan", "ios": "https://dc.lft.to/lastmile_qr_scan"}, "lat": 38.9211975, "lon": -77.03179533333333, "fusion_lat": 0.0}, {"is_reserved": 0, "bike_id": "72c00f80f5615b72967f19855834c0c2", "type": "electric_scooter", "name": "72c00f80f5615b72967f19855834c0c2", "is_disabled": 0, "fusion_lon": 0.0, "rental_uris": {"android": "https://dc.lft.to/lastmile_qr_scan", "ios": "https://dc.lft.to/lastmile_qr_scan"}, "lat": 38.89564566666667, "lon": -77.0273195, "fusion_lat": 0.0}, {"is_reserved": 0, "bike_id": "acef4f583ced842d7cf37b3696834f3d", "type": "electric_scooter", "name": "acef4f583ced842d7cf37b3696834f3d", "is_disabled": 0, "fusion_lon": 0.0, "rental_uris": {"android": "https://dc.lft.to/lastmile_qr_scan", "ios": "https://dc.lft.to/lastmile_qr_scan"}, "lat": 38.923899, "lon": -77.0406555, "fusion_lat": 0.0}, {"is_reserved": 0, "bike_id": "25f75aaff916665650b2762893a639cb", "type": "electric_scooter", "name": "25f75aaff916665650b2762893a639cb", "is_disabled": 0, "fusion_lon": 0.0, "rental_uris": {"android": "https://dc.lft.to/lastmile_qr_scan", "ios": "https://dc.lft.to/lastmile_qr_scan"}, "lat": 38.9055895, "lon": -77.05007116666667, "fusion_lat": 0.0}, {"is_reserved": 0, "bike_id": "a7ae12d50486f3fa8d4c8baf19921f24", "type": "electric_scooter", "name": "a7ae12d50486f3fa8d4c8baf19921f24", "is_disabled": 0, "fusion_lon": 0.0, "rental_uris": {"android": "https://dc.lft.to/lastmile_qr_scan", "ios": "https://dc.lft.to/lastmile_qr_scan"}, "lat": 38.911197666666666, "lon": -77.03832583333333, "fusion_lat": 0.0}, {"is_reserved": 0, "bike_id": "fc56eabb545084f166934dbcb96ae1c6", "type": "electric_scooter", "name": "fc56eabb545084f166934dbcb96ae1c6", "is_disabled": 0, "fusion_lon": 0.0, "rental_uris": {"android": "https://dc.lft.to/lastmile_qr_scan", "ios": "https://dc.lft.to/lastmile_qr_scan"}, "lat": 38.916717, "lon": -77.03465566666667, "fusion_lat": 0.0}, {"is_reserved": 0, "bike_id": "6838f2b9333a8a62f05cee2ec07e30d7", "type": "electric_scooter", "name": "6838f2b9333a8a62f05cee2ec07e30d7", "is_disabled": 0, "fusion_lon": 0.0, "rental_uris": {"android": "https://dc.lft.to/lastmile_qr_scan", "ios": "https://dc.lft.to/lastmile_qr_scan"}, "lat": 38.921580166666665, "lon": -77.03384666666666, "fusion_lat": 0.0}, {"is_reserved": 0, "bike_id": "ac6df805bec989cbd8dcaa896b177b22", "type": "electric_scooter", "name": "ac6df805bec989cbd8dcaa896b177b22", "is_disabled": 0, "fusion_lon": 0.0, "rental_uris": {"android": "https://dc.lft.to/lastmile_qr_scan", "ios": "https://dc.lft.to/lastmile_qr_scan"}, "lat": 38.9157585, "lon": -76.98394766666667, "fusion_lat": 0.0}, {"is_reserved": 0, "bike_id": "2ad8bfe6609299fb1c6c3438afc991bd", "type": "electric_scooter", "name": "2ad8bfe6609299fb1c6c3438afc991bd", "is_disabled": 0, "fusion_lon": 0.0, "rental_uris": {"android": "https://dc.lft.to/lastmile_qr_scan", "ios": "https://dc.lft.to/lastmile_qr_scan"}, "lat": 38.8926745, "lon": -76.983713, "fusion_lat": 0.0}, {"is_reserved": 0, "bike_id": "dd9a306982490ba27f48cb64c3ab054a", "type": "electric_scooter", "name": "dd9a306982490ba27f48cb64c3ab054a", "is_disabled": 0, "fusion_lon": 0.0, "rental_uris": {"android": "https://dc.lft.to/lastmile_qr_scan", "ios": "https://dc.lft.to/lastmile_qr_scan"}, "lat": 38.89979, "lon": -77.022106, "fusion_lat": 0.0},