{"data": {"bikes": [{"fusion_lon": 0.0, "bike_id": "f45ec752c7e248fc84f85e9675eba3a7", "lon": -77.09952, "type": "electric_bike", "is_disabled": 0, "rental_uris": {"ios": "https://dc.lft.to/lastmile_qr_scan", "android": "https://dc.lft.to/lastmile_qr_scan"}, "is_reserved": 0, "fusion_lat": 0.0, "name": "f45ec752c7e248fc84f85e9675eba3a7", "lat": 39.01484633333333}, {"fusion_lon": 0.0, "bike_id": "710e17313128cf39ad30ffe5c6370e80", "lon": -77.041313, "type": "electric_scooter", "is_disabled": 0, "rental_uris": {"ios": "https://dc.lft.to/lastmile_qr_scan", "android": "https://dc.lft.to/lastmile_qr_scan"}, "is_reserved": 0, "fusion_lat": 0.0, "name": "710e17313128cf39ad30ffe5c6370e80", "lat": 38.9214055}, {"fusion_lon": 0.0, "bike_id": "9814f126ccf189b15d0aa73ab20cd448", "lon": -77.02211683333333, "type": "electric_scooter", "is_disabled": 0, "rental_uris": {"ios": "https://dc.lft.to/lastmile_qr_scan", "android": "https://dc.lft.to/lastmile_qr_scan"}, "is_reserved": 0, "fusion_lat": 0.0, "name": "9814f126ccf189b15d0aa73ab20cd448", "lat": 38.9153615}, {"fusion_lon": 0.0, "bike_id": "65a9c64b281319d00c94f27f1010408c", "lon": -76.99727433333334, "type": "electric_scooter", "is_disabled": 0, "rental_uris": {"ios": "https://dc.lft.to/lastmile_qr_scan", "android": "https://dc.lft.to/lastmile_qr_scan"}, "is_reserved": 0, "fusion_lat": 0.0, "name": "65a9c64b281319d00c94f27f1010408c", "lat": 38.91026333333333}, {"fusion_lon": 0.0, "bike_id": "28f7b1ed9ce7ff431ccf591a5421aea8", "lon": -77.005532, "type": "electric_scooter", "is_disabled": 0, "rental_uris": {"ios": "https://dc.lft.to/lastmile_qr_scan", "android": "https://dc.lft.to/lastmile_qr_scan"}, "is_reserved": 0, "fusion_lat": 0.0, "name": "28f7b1ed9ce7ff431ccf591a5421aea8", "lat": 38.8792645}, {"fusion_lon": 0.0, "bike_id": "0387556770714643209512d844fdfbee", "lon": -77.03989383333334, "type": "electric_scooter", "is_disabled": 0, "rental_uris": {"ios": "https://dc.lft.to/lastmile_qr_scan", "android": "https://dc.lft.to/lastmile_qr_scan"}, "is_reserved": 0, "fusion_lat": 0.0, "name": "0387556770714643209512d844fdfbee", "lat": 38.909673166666664}, {"fusion_lon": 0.0, "bike_id": "94ecb6933e65aad33e7db73d7772c4c9", "lon": -77.03865916666666, "type": "electric_scooter", "is_disabled": 0, "rental_uris": {"ios": "https://dc.lft.to/lastmile_qr_scan", "android": "https://dc.lft.to/lastmile_qr_scan"}, "is_reserved": 0, "fusion_lat": 0.0, "name": "94ecb6933e65aad33e7db73d7772c4c9", "lat": 38.917098}, {"fusion_lon": 0.0, "bike_id": "f15f84ad2f1f40ea8e290559eb888a1d", "lon": -76.99137633333333, "type": "electric_scooter", "is_disabled": 0, "rental_uris": {"ios": "https://dc.lft.to/lastmile_qr_scan", "android": "https://dc.lft.to/lastmile_qr_scan"}, "is_reserved": 0, "fusion_lat": 0.0, "name": "f15f84ad2f1f40ea8e290559eb888a1d", "lat": 38.908910166666665}, {"fusion_lon": 0.0, "bike_id": "44db658ca028b4aeed9d314bc7837b97", "lon": -77.0386195, "type": "electric_scooter", "is_disabled": 0, "rental_uris": {"ios": "https://dc.lft.to/lastmile_qr_scan", "android": "https://dc.lft.to/lastmile_qr_scan"}, "is_reserved": 0, "fusion_lat": 0.0, "name": "44db658ca028b4aeed9d314bc7837b97", "lat": 38.90630683333333}, {"fusion_lon": 0.0, "bike_id": "d5323c0228fbee2d9f8f0740d4be8297", "lon": -76.93385883333333, "type": "electric_scooter", "is_disabled": 0, "rental_uris": {"ios": "https://dc.lft.to/lastmile_qr_scan", "android": "https://dc.lft.to/lastmile_qr_scan"}, "is_reserved": 0, "fusion_lat": 0.0, "name": "d5323c0228fbee2d9f8f0740d4be8297", "lat": 38.899218}, {"fusion_lon": 0.0, "bike_id": "37c212d22bb760ee2c5a89af6d734123", "lon": -76.98921916666667, "type": "electric_scooter", "is_disabled": 0, "rental_uris": {"ios": "https://dc.lft.to/lastmile_qr_scan", "android": "https://dc.lft.to/lastmile_qr_scan"}, "is_reserved": 0, "fusion_lat": 0.0, "name": "37c212d22bb760ee2c5a89af6d734123", "lat": 38.938279666666666}, {"fusion_lon": 0.0, "bike_id": "7493015938b47c57c4b90cf20f71aa71", "lon": -77.0165685, "type": "electric_scooter", "is_disabled": 0, "rental_uris": {"ios": "https://dc.lft.to/lastmile_qr_scan", "android": "https://dc.lft.to/lastmile_qr_scan"}, "is_reserved": 0, "fusion_lat": 0.0, "name": "7493015938b47c57c4b90cf20f71aa71", "lat": 38.913968833333335}, {"fusion_lon": 0.0, "bike_id": "e133d16371e79b55e908731414d31445", "lon": -77.02504916666666, "type": "electric_scooter", "is_disabled": 0, "rental_uris": {"ios": "https://dc.lft.to/lastmile_qr_scan", "android": "https://dc.lft.to/lastmile_qr_scan"}, "is_reserved": 0, "fusion_lat": 0.0, "name": "e133d16371e79b55e908731414d31445", "lat": 38.9192265}, {"fusion_lon": 0.0, "bike_id": "a63569d67bd465cf1c17670b30d60a0b", "lon": -76.98358633333334, "type": "electric_scooter", "is_disabled": 0, "rental_uris": {"ios": "https://dc.lft.to/lastmile_qr_scan", "android": "https://dc.lft.to/lastmile_qr_scan"}, "is_reserved": 0, "fusion_lat": 0.0, "name": "a63569d67bd465cf1c17670b30d60a0b", "lat": 38.887325833333335}, {"fusion_lon": 0.0, "bike_id": "f2324a8fb4931c099d590dd6d6a88a6d", "lon": -76.942112, "type": "electric_scooter", "is_disabled": 0, "rental_uris": {"ios": "https://dc.lft.to/lastmile_qr_scan", "android": "https://dc.lft.to/lastmile_qr_scan"}, "is_reserved": 0, "fusion_lat": 0.0, "name": "f2324a8fb4931c099d590dd6d6a88a6d", "lat": 38.88424116666667}, {"fusion_lon": 0.0, "bike_id": "b939f108653166ead88c5b87151f6e2d", "lon": -77.066616, "type": "electric_bike", "is_disabled": 0, "rental_uris": {"ios": "https://dc.lft.to/lastmile_qr_scan", "android": "https://dc.lft.to/lastmile_qr_scan"}, "is_reserved": 0, "fusion_lat": 0.0, "name": "b939f108653166ead88c5b87151f6e2d", "lat": 38.95056666666667}, {"fusion_lon": 0.0, "bike_id": "45c869a0f63742b7666c7747c81a4c18", "lon": -77.033188, "type": "electric_bike", "is_disabled": 0, "rental_uris": {"ios": "https://dc.lft.to/lastmile_qr_scan", "android": "https://dc.lft.to/lastmile_qr_scan"}, "is_reserved": 0, "fusion_lat": 0.0, "name": "45c869a0f63742b7666c7747c81a4c18", "lat": 38.920538}, {"fusion_lon": 0.0, "bike_id": "a0d8e53f7d7918003af97a2a3362a046", "lon": -77.05172333333333, "type": "electric_scooter", "is_disabled": 0, "rental_uris": {"ios": "https://dc.lft.to/lastmile_qr_scan", "android": "https://dc.lft.to/lastmile_qr_scan"}, "is_reserved": 0, "fusion_lat": 0.0, "name": "a0d8e53f7d7918003af97a2a3362a046", "lat": 38.92346766666667}, {"fusion_lon": 0.0, "bike_id": "d0475b75a0b91747aad5a6b6bd490be7", "lon": -77.0428975, "type": "electric_scooter", "is_disabled": 0, "rental_uris": {"ios": "https://dc.lft.to/lastmile_qr_scan", "android": "https://dc.lft.to/lastmile_qr_scan"}, "is_reserved": 0, "fusion_lat": 0.0, "name": "d0475b75a0b91747aad5a6b6bd490be7", "lat": 38.908117833333336}, {"fusion_lon": 0.0, "bike_id": "63aee761f90cf7727a3eea04333568a3", "lon": -77.03989916666667, "type": "electric_scooter", "is_disabled": 0, "rental_uris": {"ios": "https://dc.lft.to/lastmile_qr_scan", "android": "https://dc.lft.to/lastmile_qr_scan"}, "is_reserved": 0, "fusion_lat": 0.0, "name": "63aee761f90cf7727a3eea04333568a3", "lat": 38.925954}, {"fusion_lon": 0.0, "bike_id": "65690cae35847fceeb4bf393f2306b8d", "lon": -77.03505933333334, "type": "electric_scooter", "is_disabled": 0, "rental_uris": {"ios": "https://dc.lft.to/lastmile_qr_scan", "android": "https://dc.lft.to/lastmile_qr_scan"}, "is_reserved": 0, "fusion_lat": 0.0, "name": "65690cae35847fceeb4bf393f2306b8d", "lat": 38.9188615}, {"fusion_lon": 0.0, "bike_id": "e7b28a0cb757f1c55bf0941cca3c2f72", "lon": -77.04844683333333, "type": "electric_scooter", "is_disabled": 0, "rental_uris": {"ios": "https://dc.lft.to/lastmile_qr_scan", "android": "https://dc.lft.to/lastmile_qr_scan"}, "is_reserved": 0, "fusion_lat": 0.0, "name": "e7b28a0cb757f1c55bf0941cca3c2f72", "lat": 38.90054033333333}, {"fusion_lon": 0.0, "bike_id": "0ebaf13a2f060609d49c62b4587633b0", "lon": -77.00199466666666, "type": "electric_scooter", "is_disabled": 0, "rental_uris": {"ios": "https://dc.lft.to/lastmile_qr_scan", "android": "https://dc.lft.to/lastmile_qr_scan"}, "is_reserved": 0, "fusion_lat": 0.0, "name": "0ebaf13a2f060609d49c62b4587633b0", "lat": 38.90239483333333}, {"fusion_lon": 0.0, "bike_id": "ae10a37500cd29675cf2ddab0eff725c", "lon": -77.05137533333334, "type": "electric_scooter", "is_disabled": 0, "rental_uris": {"ios": "https://dc.lft.to/lastmile_qr_scan", "android": "https://dc.lft.to/lastmile_qr_scan"}, "is_reserved": 0, "fusion_lat": 0.0, "name": "ae10a37500cd29675cf2ddab0eff725c", "lat": 38.9051625}, {"fusion_lon": 0.0, "bike_id": "16e37ae7547b96e6bfe0f3afbfe18d44", "lon": -77.0746395, "type": "electric_scooter", "is_disabled": 0, "rental_uris": {"ios": "https://dc.lft.to/lastmile_qr_scan", "android": "https://dc.lft.to/lastmile_qr_scan"}, "is_reserved": 0, "fusion_lat": 0.0, "name": "16e37ae7547b96e6bfe0f3afbfe18d44", "lat": 38.920821333333336}, {"fusion_lon": 0.0, "bike_id": "0a957b8a717d4972df4ffa390229b8a4", "lon": -77.04660733333333, "type": "electric_scooter", "is_disabled": 0, "rental_uris": {"ios": "https://dc.lft.to/lastmile_qr_scan", "android": "https://dc.lft.to/lastmile_qr_scan"}, "is_reserved": 0, "fusion_lat": 0.0, "name": "0a957b8a717d4972df4ffa390229b8a4", "lat": 38.89233983333333}, {"fusion_lon": 0.0, "bike_id": "b7279da42d80cc8561692969bc502b49", "lon": -77.04133733333333, "type": "electric_scooter", "is_disabled": 0, "rental_uris": {"ios": "https://dc.lft.to/lastmile_qr_scan", "android": "https://dc.lft.to/lastmile_qr_scan"}, "is_reserved": 0, "fusion_lat": 0.0, "name": "b7279da42d80cc8561692969bc502b49", "lat": 38.921439666666664}, {"fusion_lon": 0.0, "bike_id": "747a18ffac79cbc726fffb8e338335c3", "lon": -76.97961716666667, "type": "electric_scooter", "is_disabled": 0, "rental_uris": {"ios": "https://dc.lft.to/lastmile_qr_scan", "android": "https://dc.lft.to/lastmile_qr_scan"}, "is_reserved": 0, "fusion_lat": 0.0, "name": "747a18ffac79cbc726fffb8e338335c3", "lat": 38.8922025}, {"fusion_lon": 0.0, "bike_id": "da9bcc1c613a95ffd1874f4bc26d1d22", "lon": -77.0746475, "type": "electric_scooter", "is_disabled": 0, "rental_uris": {"ios": "https://dc.lft.to/lastmile_qr_scan", "android": "https://dc.lft.to/lastmile_qr_scan"}, "is_reserved": 0, "fusion_lat": 0.0, "name": "da9bcc1c613a95ffd1874f4bc26d1d22", "lat": 38.93556983333333}, {"fusion_lon": 0.0, "bike_id": "5a531c9100b3a034bd6ff28b42a6beee", "lon": -77.0322495, "type": "electric_scooter", "is_disabled": 0, "rental_uris": {"ios": "https://dc.lft.to/lastmile_qr_scan", "android": "https://dc.lft.to/lastmile_qr_scan"}, "is_reserved": 0, "fusion_lat": 0.0, "name": "5a531c9100b3a034bd6ff28b42a6beee", "lat": 38.908700333333336}, {"fusion_lon": 0.0, "bike_id": "a27e823af64ad7698c94ececad987f3f", "lon": -77.04648433333334, "type": "electric_scooter", "is_disabled": 0, "rental_uris": {"ios": "https://dc.lft.to/lastmile_qr_scan", "android": "https://dc.lft.to/lastmile_qr_scan"}, "is_reserved": 0, "fusion_lat": 0.0, "name": "a27e823af64ad7698c94ececad987f3f", "lat": 38.899668}, {"fusion_lon": 0.0, "bike_id": "9255e3351db0661fce1711f5c9213c29", "lon": -77.03662216666666, "type": "electric_scooter", "is_disabled": 0, "rental_uris": {"ios": "https://dc.lft.to/lastmile_qr_scan", "android": "https://dc.lft.to/lastmile_qr_scan"}, "is_reserved": 0, "fusion_lat": 0.0, "name": "9255e3351db0661fce1711f5c9213c29", "lat": 38.92216616666666}, {"fusion_lon": 0.0, "bike_id": "e5a22d69c89f3829a4b7ecc52774fc81", "lon": -77.0500035, "type": "electric_scooter", "is_disabled": 0, "rental_uris": {"ios": "https://dc.lft.to/lastmile_qr_scan", "android": "https://dc.lft.to/lastmile_qr_scan"}, "is_reserved": 0, "fusion_lat": 0.0, "name": "e5a22d69c89f3829a4b7ecc52774fc81", "lat": 38.9053925}, {"fusion_lon": 0.0, "bike_id": "3a93e18843d38aed32de2a92fd026fbc", "lon": -77.01833433333333, "type": "electric_scooter", "is_disabled": 0, "rental_uris": {"ios": "https://dc.lft.to/lastmile_qr_scan", "android": "https://dc.lft.to/lastmile_qr_scan"}, "is_reserved": 0, "fusion_lat": 0.0, "name": "3a93e18843d38aed32de2a92fd026fbc", "lat": 38.922347333333335}, {"fusion_lon": 0.0, "bike_id": "d3a873a66e53bc53b623f8ca77dca665", "lon": -77.06299866666667, "type": "electric_scooter", "is_disabled": 0, "rental_uris": {"ios": "https://dc.lft.to/lastmile_qr_scan", "android": "https://dc.lft.to/lastmile_qr_scan"}, "is_reserved": 0, "fusion_lat": 0.0, "name": "d3a873a66e53bc53b623f8ca77dca665", "lat": 38.90393066666667}, {"fusion_lon": 0.0, "bike_id": "9d5db484102a6fa77ec9e5fc43e3f4b0", "lon": -76.98201033333333, "type": "electric_scooter", "is_disabled": 0, "rental_uris": {"ios": "https://dc.lft.to/lastmile_qr_scan", "android": "https://dc.lft.to/lastmile_qr_scan"}, "is_reserved": 0, "fusion_lat": 0.0, "name": "9d5db484102a6fa77ec9e5fc43e3f4b0", "lat": 38.9019855}, {"fusion_lon": 0.0, "bike_id": "55503318ed7b6761d8c52b35d6bd1fcf", "lon": -77.04991683333333, "type": "electric_scooter", "is_disabled": 0, "rental_uris": {"ios": "https://dc.lft.to/lastmile_qr_scan", "android": "https://dc.lft.to/lastmile_qr_scan"}, "is_reserved": 0, "fusion_lat": 0.0, "name": "55503318ed7b6761d8c52b35d6bd1fcf", "lat": 38.901298}, {"fusion_lon": 0.0, "bike_id": "c79d2be444a2764bf225a70f9563af2f", "lon": -77.032072, "type": "electric_scooter", "is_disabled": 0, "rental_uris": {"ios": "https://dc.lft.to/lastmile_qr_scan", "android": "https://dc.lft.to/lastmile_qr_scan"}, "is_reserved": 0, "fusion_lat": 0.0, "name": "c79d2be444a2764bf225a70f9563af2f", "lat": 38.925836}, {"fusion_lon": 0.0, "bike_id": "151309c75af5e49ad642f8da53e7ccd8", "lon": -77.05006133333333, "type": "electric_scooter", "is_disabled": 0, "rental_uris": {"ios": "https://dc.lft.to/lastmile_qr_scan", "android": "https://dc.lft.to/lastmile_qr_scan"}, "is_reserved": 0, "fusion_lat": 0.0, "name": "151309c75af5e49ad642f8da53e7ccd8", "lat": 38.892366833333334}, {"fusion_lon": 0.0, "bike_id": "dd5651b5001b9f38f8c84513ccb7232b", "lon": -77.02216016666667, "type": "electric_scooter", "is_disabled": 0, "rental_uris": {"ios": "https://dc.lft.to/lastmile_qr_scan", "android": "https://dc.lft.to/lastmile_qr_scan"}, "is_reserved": 0, "fusion_lat": 0.0, "name": "dd5651b5001b9f38f8c84513ccb7232b", "lat": 38.91271116666667}, {"fusion_lon": 0.0, "bike_id": "25cec6467222ea117bd35714ed99dcba", "lon": -77.026739, "type": "electric_scooter", "is_disabled": 0, "rental_uris": {"ios": "https://dc.lft.to/lastmile_qr_scan", "android": "https://dc.lft.to/lastmile_qr_scan"}, "is_reserved": 0, "fusion_lat": 0.0, "name": "25cec6467222ea117bd35714ed99dcba", "lat": 38.946058666666666}, {"fusion_lon": 0.0, "bike_id": "8d66406ddede5a00eb7f6fc1329062fd", "lon": -77.01395916666667, "type": "electric_scooter", "is_disabled": 0, "rental_uris": {"ios": "https://dc.lft.to/lastmile_qr_scan", "android": "https://dc.lft.to/lastmile_qr_scan"}, "is_reserved": 0, "fusion_lat": 0.0, "name": "8d66406ddede5a00eb7f6fc1329062fd", "lat": 38.97468116666667}, {"fusion_lon": 0.0, "bike_id": "eb78e2b859739c455503b6d041d03909", "lon": -76.99162516666667, "type": "electric_scooter", "is_disabled": 0, "rental_uris": {"ios": "https://dc.lft.to/lastmile_qr_scan", "android": "https://dc.lft.to/lastmile_qr_scan"}, "is_reserved": 0, "fusion_lat": 0.0, "name": "eb78e2b859739c455503b6d041d03909", "lat": 38.89777816666667}, {"fusion_lon": 0.0, "bike_id": "edf534e2f15037bf4120f9e3d15cbc4f", "lon": -77.06742283333334, "type": "electric_scooter", "is_disabled": 0, "rental_uris": {"ios": "https://dc.lft.to/lastmile_qr_scan", "android": "https://dc.lft.to/lastmile_qr_scan"}, "is_reserved": 0, "fusion_lat": 0.0, "name": "edf534e2f15037bf4120f9e3d15cbc4f", "lat": 38.905056}, {"fusion_lon": 0.0, "bike_id": "6473e103711b33e973f803ca736de730", "lon": -77.021817, "type": "electric_scooter", "is_disabled": 0, "rental_uris": {"ios": "https://dc.lft.to/lastmile_qr_scan", "android": "https://dc.lft.to/lastmile_qr_scan"}, "is_reserved": 0, "fusion_lat": 0.0, "name": "6473e103711b33e973f803ca736de730", "lat": 38.892306166666664}, {"fusion_lon": 0.0, "bike_id": "9e6607d4bec08ced81fa55a8c3ea8e5b", "lon": -77.0532005, "type": "electric_scooter", "is_disabled": 0, "rental_uris": {"ios": "https://dc.lft.to/lastmile_qr_scan", "android": "https://dc.lft.to/lastmile_qr_scan"}, "is_reserved": 0, "fusion_lat": 0.0, "name": "9e6607d4bec08ced81fa55a8c3ea8e5b", "lat": 38.90476066666667}, {"fusion_lon": 0.0, "bike_id": "f83df85d0d984ec1f1a2a478a2478e7e", "lon": -76.9836025, "type": "electric_scooter", "is_disabled": 0, "rental_uris": {"ios": "https://dc.lft.to/lastmile_qr_scan", "android": "https://dc.lft.to/lastmile_qr_scan"}, "is_reserved": 0, "fusion_lat": 0.0, "name": "f83df85d0d984ec1f1a2a478a2478e7e", "lat": 38.88726033333333}, {"fusion_lon": 0.0, "bike_id": "cb463429ae725468afef6cf3b02d4546", "lon": -77.05047966666666, "type": "electric_scooter", "is_disabled": 0, "rental_uris": {"ios": "https://dc.lft.to/lastmile_qr_scan", "android": "https://dc.lft.to/lastmile_qr_scan"}, "is_reserved": 0, "fusion_lat": 0.0, "name": "cb463429ae725468afef6cf3b02d4546", "lat": 38.92364}, {"fusion_lon": 0.0, "bike_id": "069b2d5e5373e066afd001d304a62711", "lon": -76.99228666666667, "type": "electric_scooter", "is_disabled": 0, "rental_uris": {"ios": "https://dc.lft.to/lastmile_qr_scan", "android": "https://dc.lft.to/lastmile_qr_scan"}, "is_reserved": 0, "fusion_lat": 0.0, "name": "069b2d5e5373e066afd001d304a62711", "lat": 38.86290916666667}, {"fusion_lon": 0.0, "bike_id": "c7108149a41f0e206bc656afdead7bd5", "lon": -77.027185, "type": "electric_scooter", "is_disabled": 0, "rental_uris": {"ios": "https://dc.lft.to/lastmile_qr_scan", "android": "https://dc.lft.to/lastmile_qr_scan"}, "is_reserved": 0, "fusion_lat": 0.0, "name": "c7108149a41f0e206bc656afdead7bd5", "lat": 38.900161833333335}, {"fusion_lon": 0.0, "bike_id": "597b3acd4db36bbdc053c34eea5574da", "lon": -76.99617116666667, "type": "electric_scooter", "is_disabled": 0, "rental_uris": {"ios": "https://dc.lft.to/lastmile_qr_scan", "android": "https://dc.lft.to/lastmile_qr_scan"}, "is_reserved": 0, "fusion_lat": 0.0, "name": "597b3acd4db36bbdc053c34eea5574da", "lat": 38.8825995}, {"fusion_lon": 0.0, "bike_id": "e71a434a6631da48988e6155a18130f5", "lon": -77.018552, "type": "electric_scooter", "is_disabled": 0, "rental_uris": {"ios": "https://dc.lft.to/lastmile_qr_scan", "android": "https://dc.lft.to/lastmile_qr_scan"}, "is_reserved": 0, "fusion_lat": 0.0, "name": "e71a434a6631da48988e6155a18130f5", "lat": 38.9488755}, {"fusion_lon": 0.0, "bike_id": "8c96a13b6b075f8cc124a3f80f51de6c", "lon": -77.07909916666667, "type": "electric_bike", "is_disabled": 0, "rental_uris": {"ios": "https://dc.lft.to/lastmile_qr_scan", "android": "https://dc.lft.to/lastmile_qr_scan"}, "is_reserved": 0, "fusion_lat": 0.0, "name": "8c96a13b6b075f8cc124a3f80f51de6c", "lat": 38.848320666666666}, {"fusion_lon": 0.0, "bike_id": "5c043aa204aeee79b3efecd8d0a16fbe", "lon": -77.0298225, "type": "electric_scooter", "is_disabled": 0, "rental_uris": {"ios": "https://dc.lft.to/lastmile_qr_scan", "android": "https://dc.lft.to/lastmile_qr_scan"}, "is_reserved": 0, "fusion_lat": 0.0, "name": "5c043aa204aeee79b3efecd8d0a16fbe", "lat": 38.907691666666665}, {"fusion_lon": 0.0, "bike_id": "d624c8f271d982532071bf0de03e956d", "lon": -77.05035733333334, "type": "electric_scooter", "is_disabled": 0, "rental_uris": {"ios": "https://dc.lft.to/lastmile_qr_scan", "android": "https://dc.lft.to/lastmile_qr_scan"}, "is_reserved": 0, "fusion_lat": 0.0, "name": "d624c8f271d982532071bf0de03e956d", "lat": 38.89825916666667}, {"fusion_lon": 0.0, "bike_id": "19c09cbef7ee4cb040f335502d2bfc20", "lon": -77.0384655, "type": "electric_scooter", "is_disabled": 0, "rental_uris": {"ios": "https://dc.lft.to/lastmile_qr_scan", "android": "https://dc.lft.to/lastmile_qr_scan"}, "is_reserved": 0, "fusion_lat": 0.0, "name": "19c09cbef7ee4cb040f335502d2bfc20", "lat": 38.90269633333333}, {"fusion_lon": 0.0, "bike_id": "b5c7c20cc875e21f19defe6785f634d8", "lon": -77.020072, "type": "electric_scooter", "is_disabled": 0, "rental_uris": {"ios": "https://dc.lft.to/lastmile_qr_scan", "android": "https://dc.lft.to/lastmile_qr_scan"}, "is_reserved": 0, "fusion_lat": 0.0, "name": "b5c7c20cc875e21f19defe6785f634d8", "lat": 38.92842016666667}, {"fusion_lon": 0.0, "bike_id": "d7f073d98fb5b82ac4f258e071fbc6b4", "lon": -76.99498783333334, "type": "electric_scooter", "is_disabled": 0, "rental_uris": {"ios": "https://dc.lft.to/lastmile_qr_scan", "android": "https://dc.lft.to/lastmile_qr_scan"}, "is_reserved": 0, "fusion_lat": 0.0, "name": "d7f073d98fb5b82ac4f258e071fbc6b4", "lat": 38.899813333333334}, {"fusion_lon": 0.0, "bike_id": "1300311871eaa1d05508d00828ac1977", "lon": -77.01856883333333, "type": "electric_scooter", "is_disabled": 0, "rental_uris": {"ios": "https://dc.lft.to/lastmile_qr_scan", "android": "https://dc.lft.to/lastmile_qr_scan"}, "is_reserved": 0, "fusion_lat": 0.0, "name": "1300311871eaa1d05508d00828ac1977", "lat": 38.9543425}, {"fusion_lon": 0.0, "bike_id": "f65e25b0a793e9336018a142c5365f3b", "lon": -77.02650883333334, "type": "electric_scooter", "is_disabled": 0, "rental_uris": {"ios": "https://dc.lft.to/lastmile_qr_scan", "android": "https://dc.lft.to/lastmile_qr_scan"}, "is_reserved": 0, "fusion_lat": 0.0, "name": "f65e25b0a793e9336018a142c5365f3b", "lat": 38.94102083333333}, {"fusion_lon": 0.0, "bike_id": "19bf11596286f64292209889e6deb6f9", "lon": -76.96916016666667, "type": "electric_bike", "is_disabled": 0, "rental_uris": {"ios": "https://dc.lft.to/lastmile_qr_scan", "android": "https://dc.lft.to/lastmile_qr_scan"}, "is_reserved": 0, "fusion_lat": 0.0, "name": "19bf11596286f64292209889e6deb6f9", "lat": 38.84612283333333}, {"fusion_lon": 0.0, "bike_id": "addedd69dc9e5ad277ae2d776214bf4c", "lon": -77.041041, "type": "electric_scooter", "is_disabled": 0, "rental_uris": {"ios": "https://dc.lft.to/lastmile_qr_scan", "android": "https://dc.lft.to/lastmile_qr_scan"}, "is_reserved": 0, "fusion_lat": 0.0, "name": "addedd69dc9e5ad277ae2d776214bf4c", "lat": 38.89861333333333}, {"fusion_lon": 0.0, "bike_id": "14a75e4cb606870fc75447ceb9accac2", "lon": -77.04242716666667, "type": "electric_scooter", "is_disabled": 0, "rental_uris": {"ios": "https://dc.lft.to/lastmile_qr_scan", "android": "https://dc.lft.to/lastmile_qr_scan"}, "is_reserved": 0, "fusion_lat": 0.0, "name": "14a75e4cb606870fc75447ceb9accac2", "lat": 38.923640166666665}, {"fusion_lon": 0.0, "bike_id": "7aa91c196689ee1aecfa92a942245137", "lon": -77.02012916666666, "type": "electric_scooter", "is_disabled": 0, "rental_uris": {"ios": "https://dc.lft.to/lastmile_qr_scan", "android": "https://dc.lft.to/lastmile_qr_scan"}, "is_reserved": 0, "fusion_lat": 0.0, "name": "7aa91c196689ee1aecfa92a942245137", "lat": 38.924157666666666}, {"fusion_lon": 0.0, "bike_id": "362fc2fd1744c5297de45d982aaac824", "lon": -77.022837, "type": "electric_scooter", "is_disabled": 0, "rental_uris": {"ios": "https://dc.lft.to/lastmile_qr_scan", "android": "https://dc.lft.to/lastmile_qr_scan"}, "is_reserved": 0, "fusion_lat": 0.0, "name": "362fc2fd1744c5297de45d982aaac824", "lat": 38.899933}, {"fusion_lon": 0.0, "bike_id": "e2059735aa635eeef70edb16fc33582c", "lon": -77.04332533333333, "type": "electric_scooter", "is_disabled": 0, "rental_uris": {"ios": "https://dc.lft.to/lastmile_qr_scan", "android": "https://dc.lft.to/lastmile_qr_scan"}, "is_reserved": 0, "fusion_lat": 0.0, "name": "e2059735aa635eeef70edb16fc33582c", "lat": 38.8922275}, {"fusion_lon": 0.0, "bike_id": "4893a3f1d7b110ed7bab57d840491908", "lon": -76.98599983333334, "type": "electric_scooter", "is_disabled": 0, "rental_uris": {"ios": "https://dc.lft.to/lastmile_qr_scan", "android": "https://dc.lft.to/lastmile_qr_scan"}, "is_reserved": 0, "fusion_lat": 0.0, "name": "4893a3f1d7b110ed7bab57d840491908", "lat": 38.8947285}, {"fusion_lon": 0.0, "bike_id": "6310b823e9ce39bbd3ddcc8d145e2033", "lon": -77.02174483333333, "type": "electric_scooter", "is_disabled": 0, "rental_uris": {"ios": "https://dc.lft.to/lastmile_qr_scan", "android": "https://dc.lft.to/lastmile_qr_scan"}, "is_reserved": 0, "fusion_lat": 0.0, "name": "6310b823e9ce39bbd3ddcc8d145e2033", "lat": 38.919913}, {"fusion_lon": 0.0, "bike_id": "8fb6bc928a70d79c297303d4dfc672ab", "lon": -77.01383416666667, "type": "electric_scooter", "is_disabled": 0, "rental_uris": {"ios": "https://dc.lft.to/lastmile_qr_scan", "android": "https://dc.lft.to/lastmile_qr_scan"}, "is_reserved": 0, "fusion_lat": 0.0, "name": "8fb6bc928a70d79c297303d4dfc672ab", "lat": 38.89908883333333}, {"fusion_lon": 0.0, "bike_id": "8a57a30d4f04dc887c6f21adf0cec5a8", "lon": -77.03439466666667, "type": "electric_scooter", "is_disabled": 0, "rental_uris": {"ios": "https://dc.lft.to/lastmile_qr_scan", "android": "https://dc.lft.to/lastmile_qr_scan"}, "is_reserved": 0, "fusion_lat": 0.0, "name": "8a57a30d4f04dc887c6f21adf0cec5a8", "lat": 38.90960033333333}, {"fusion_lon": 0.0, "bike_id": "416fb9e591705c3fd0c11608e38aeac8", "lon": -77.02516066666666, "type": "electric_scooter", "is_disabled": 0, "rental_uris": {"ios": "https://dc.lft.to/lastmile_qr_scan", "android": "https://dc.lft.to/lastmile_qr_scan"}, "is_reserved": 0, "fusion_lat": 0.0, "name": "416fb9e591705c3fd0c11608e38aeac8", "lat": 38.920563}, {"fusion_lon": 0.0, "bike_id": "abb9f174d5d0116cf42e110b8f8de6fd", "lon": -77.00559116666666, "type": "electric_scooter", "is_disabled": 0, "rental_uris": {"ios": "https://dc.lft.to/lastmile_qr_scan", "android": "https://dc.lft.to/lastmile_qr_scan"}, "is_reserved": 0, "fusion_lat": 0.0, "name": "abb9f174d5d0116cf42e110b8f8de6fd", "lat": 38.872366666666665}, {"fusion_lon": 0.0, "bike_id": "b9c3442e8dfa236c2341a8a8395c7f4f", "lon": -77.07794816666667, "type": "electric_bike", "is_disabled": 0, "rental_uris": {"ios": "https://dc.lft.to/lastmile_qr_scan", "android": "https://dc.lft.to/lastmile_qr_scan"}, "is_reserved": 0, "fusion_lat": 0.0, "name": "b9c3442e8dfa236c2341a8a8395c7f4f", "lat": 38.99496166666667}, {"fusion_lon": 0.0, "bike_id": "dfe695f2d00aa5a7eb1861d762c12435", "lon": -77.03661966666667, "type": "electric_scooter", "is_disabled": 0, "rental_uris": {"ios": "https://dc.lft.to/lastmile_qr_scan", "android": "https://dc.lft.to/lastmile_qr_scan"}, "is_reserved": 0, "fusion_lat": 0.0, "name": "dfe695f2d00aa5a7eb1861d762c12435", "lat": 38.922858166666664}, {"fusion_lon": 0.0, "bike_id": "7f16d9c1b6b1e8a5d2aa5a47f4662918", "lon": -77.0255505, "type": "electric_scooter", "is_disabled": 0, "rental_uris": {"ios": "https://dc.lft.to/lastmile_qr_scan", "android": "https://dc.lft.to/lastmile_qr_scan"}, "is_reserved": 0, "fusion_lat": 0.0, "name": "7f16d9c1b6b1e8a5d2aa5a47f4662918", "lat": 38.9309195}, {"fusion_lon": 0.0, "bike_id": "b28c087efbc3481ec379aa67497b9899", "lon": -77.03541766666666, "type": "electric_scooter", "is_disabled": 0, "rental_uris": {"ios": "https://dc.lft.to/lastmile_qr_scan", "android": "https://dc.lft.to/lastmile_qr_scan"}, "is_reserved": 0, "fusion_lat": 0.0, "name": "b28c087efbc3481ec379aa67497b9899", "lat": 38.923463}, {"fusion_lon": 0.0, "bike_id": "9d0ada8fd8f2052fa8182b11c6966e2e", "lon": -77.04348, "type": "electric_scooter", "is_disabled": 0, "rental_uris": {"ios": "https://dc.lft.to/lastmile_qr_scan", "android": "https://dc.lft.to/lastmile_qr_scan"}, "is_reserved": 0, "fusion_lat": 0.0, "name": "9d0ada8fd8f2052fa8182b11c6966e2e", "lat": 38.9214825}, {"fusion_lon": 0.0, "bike_id": "2a255c079fae91b8a71f4f52746ebc5e", "lon": -77.05062883333333, "type": "electric_scooter", "is_disabled": 0, "rental_uris": {"ios": "https://dc.lft.to/lastmile_qr_scan", "android": "https://dc.lft.to/lastmile_qr_scan"}, "is_reserved": 0, "fusion_lat": 0.0, "name": "2a255c079fae91b8a71f4f52746ebc5e", "lat": 38.900614}, {"fusion_lon": 0.0, "bike_id": "2c663be415d1c18db5d28cfb5481fdd0", "lon": -76.98336016666667, "type": "electric_scooter", "is_disabled": 0, "rental_uris": {"ios": "https://dc.lft.to/lastmile_qr_scan", "android": "https://dc.lft.to/lastmile_qr_scan"}, "is_reserved": 0, "fusion_lat": 0.0, "name": "2c663be415d1c18db5d28cfb5481fdd0", "lat": 38.89545233333333}, {"fusion_lon": 0.0, "bike_id": "abf99d636d8e584ce8140ffbaa137d23", "lon": -77.00332416666667, "type": "electric_scooter", "is_disabled": 0, "rental_uris": {"ios": "https://dc.lft.to/lastmile_qr_scan", "android": "https://dc.lft.to/lastmile_qr_scan"}, "is_reserved": 0, "fusion_lat": 0.0, "name": "abf99d636d8e584ce8140ffbaa137d23", "lat": 38.9134095}, {"fusion_lon": 0.0, "bike_id": "dc2b89300fc04a17c34c27e6acc5163e", "lon": -77.14101833333334, "type": "electric_bike", "is_disabled": 0, "rental_uris": {"ios": "https://dc.lft.to/lastmile_qr_scan", "android": "https://dc.lft.to/lastmile_qr_scan"}, "is_reserved": 0, "fusion_lat": 0.0, "name": "dc2b89300fc04a17c34c27e6acc5163e", "lat": 38.98792733333333}, {"fusion_lon": 0.0, "bike_id": "1b61a999260bfe7c20393a4604d5a2b3", "lon": -76.99703166666667, "type": "electric_bike", "is_disabled": 0, "rental_uris": {"ios": "https://dc.lft.to/lastmile_qr_scan", "android": "https://dc.lft.to/lastmile_qr_scan"}, "is_reserved": 0, "fusion_lat": 0.0, "name": "1b61a999260bfe7c20393a4604d5a2b3", "lat": 38.8387255}, {"fusion_lon": 0.0, "bike_id": "233f8ac68d68e70b252e77aeeaad1a09", "lon": -77.0059145, "type": "electric_scooter", "is_disabled": 0, "rental_uris": {"ios": "https://dc.lft.to/lastmile_qr_scan", "android": "https://dc.lft.to/lastmile_qr_scan"}, "is_reserved": 0, "fusion_lat": 0.0, "name": "233f8ac68d68e70b252e77aeeaad1a09", "lat": 38.875791666666665}, {"fusion_lon": 0.0, "bike_id": "8c2099acbadcb4164e22841e3271ff28", "lon": -77.06602083333334, "type": "electric_scooter", "is_disabled": 0, "rental_uris": {"ios": "https://dc.lft.to/lastmile_qr_scan", "android": "https://dc.lft.to/lastmile_qr_scan"}, "is_reserved": 0, "fusion_lat": 0.0, "name": "8c2099acbadcb4164e22841e3271ff28", "lat": 38.904728}, {"fusion_lon": 0.0, "bike_id": "691d42f8e6214b81a816120dff8ec2b4", "lon": -77.04684666666667, "type": "electric_scooter", "is_disabled": 0, "rental_uris": {"ios": "https://dc.lft.to/lastmile_qr_scan", "android": "https://dc.lft.to/lastmile_qr_scan"}, "is_reserved": 0, "fusion_lat": 0.0, "name": "691d42f8e6214b81a816120dff8ec2b4", "lat": 38.9004205}, {"fusion_lon": 0.0, "bike_id": "c7550ced8dec53e19b718c0e4d8dbe3e", "lon": -76.9996745, "type": "electric_scooter", "is_disabled": 0, "rental_uris": {"ios": "https://dc.lft.to/lastmile_qr_scan", "android": "https://dc.lft.to/lastmile_qr_scan"}, "is_reserved": 0, "fusion_lat": 0.0, "name": "c7550ced8dec53e19b718c0e4d8dbe3e", "lat": 38.909435333333334}, {"fusion_lon": 0.0, "bike_id": "8b35500e2ff2eddc1dee123e40f23344", "lon": -77.022012, "type": "electric_scooter", "is_disabled": 0, "rental_uris": {"ios": "https://dc.lft.to/lastmile_qr_scan", "android": "https://dc.lft.to/lastmile_qr_scan"}, "is_reserved": 0, "fusion_lat": 0.0, "name": "8b35500e2ff2eddc1dee123e40f23344", "lat": 38.911330666666665}, {"fusion_lon": 0.0, "bike_id": "017693ae43b83418f77dec9686d0fe9a", "lon": -77.0064355, "type": "electric_scooter", "is_disabled": 0, "rental_uris": {"ios": "https://dc.lft.to/lastmile_qr_scan", "android": "https://dc.lft.to/lastmile_qr_scan"}, "is_reserved": 0, "fusion_lat": 0.0, "name": "017693ae43b83418f77dec9686d0fe9a", "lat": 38.8718515}, {"fusion_lon": 0.0, "bike_id": "8ea173a3074d7c943760bbfb484dfe10", "lon": -77.05470766666667, "type": "electric_scooter", "is_disabled": 0, "rental_uris": {"ios": "https://dc.lft.to/lastmile_qr_scan", "android": "https://dc.lft.to/lastmile_qr_scan"}, "is_reserved": 0, "fusion_lat": 0.0, "name": "8ea173a3074d7c943760bbfb484dfe10", "lat": 38.90295866666666}, {"fusion_lon": 0.0, "bike_id": "e4cc9ac13dcb5ec9b3e5fe2c7510b5f1", "lon": -77.05907816666667, "type": "electric_bike", "is_disabled": 0, "rental_uris": {"ios": "https://dc.lft.to/lastmile_qr_scan", "android": "https://dc.lft.to/lastmile_qr_scan"}, "is_reserved": 0, "fusion_lat": 0.0, "name": "e4cc9ac13dcb5ec9b3e5fe2c7510b5f1", "lat": 38.900841}, {"fusion_lon": 0.0, "bike_id": "91be1f1e1765d0721c4d0040c6aa8df3", "lon": -77.07286966666666, "type": "electric_scooter", "is_disabled": 0, "rental_uris": {"ios": "https://dc.lft.to/lastmile_qr_scan", "android": "https://dc.lft.to/lastmile_qr_scan"}, "is_reserved": 0, "fusion_lat": 0.0, "name": "91be1f1e1765d0721c4d0040c6aa8df3", "lat": 38.92227533333333}, {"fusion_lon": 0.0, "bike_id": "f2e605b7ca7bd8101452775ae19d2497", "lon": -77.00333316666666, "type": "electric_scooter", "is_disabled": 0, "rental_uris": {"ios": "https://dc.lft.to/lastmile_qr_scan", "android": "https://dc.lft.to/lastmile_qr_scan"}, "is_reserved": 0, "fusion_lat": 0.0, "name": "f2e605b7ca7bd8101452775ae19d2497", "lat": 38.8935765}, {"fusion_lon": 0.0, "bike_id": "67c47432a62bfb922e6bd90794d04d93", "lon": -77.02288133333333, "type": "electric_scooter", "is_disabled": 0, "rental_uris": {"ios": "https://dc.lft.to/lastmile_qr_scan", "android": "https://dc.lft.to/lastmile_qr_scan"}, "is_reserved": 0, "fusion_lat": 0.0, "name": "67c47432a62bfb922e6bd90794d04d93", "lat": 38.914549666666666}, {"fusion_lon": 0.0, "bike_id": "55e6e62df27282441f7af15632923b2d", "lon": -77.03337533333334, "type": "electric_scooter", "is_disabled": 0, "rental_uris": {"ios": "https://dc.lft.to/lastmile_qr_scan", "android": "https://dc.lft.to/lastmile_qr_scan"}, "is_reserved": 0, "fusion_lat": 0.0, "name": "55e6e62df27282441f7af15632923b2d", "lat": 38.9721575}, {"fusion_lon": 0.0, "bike_id": "65bf35cd870102bc84ddf1211ccbfb83", "lon": -77.01940333333333, "type": "electric_scooter", "is_disabled": 0, "rental_uris": {"ios": "https://dc.lft.to/lastmile_qr_scan", "android": "https://dc.lft.to/lastmile_qr_scan"}, "is_reserved": 0, "fusion_lat": 0.0, "name": "65bf35cd870102bc84ddf1211ccbfb83", "lat": 38.89928883333333}, {"fusion_lon": 0.0, "bike_id": "5b66d1a143077058e669fe0eaa8f4148", "lon": -77.03785333333333, "type": "electric_scooter", "is_disabled": 0, "rental_uris": {"ios": "https://dc.lft.to/lastmile_qr_scan", "android": "https://dc.lft.to/lastmile_qr_scan"}, "is_reserved": 0, "fusion_lat": 0.0, "name": "5b66d1a143077058e669fe0eaa8f4148", "lat": 38.91819483333333}, {"fusion_lon": 0.0, "bike_id": "aef8073c71d2457b3ae14f573b832148", "lon": -77.10608833333333, "type": "electric_bike", "is_disabled": 0, "rental_uris": {"ios": "https://dc.lft.to/lastmile_qr_scan", "android": "https://dc.lft.to/lastmile_qr_scan"}, "is_reserved": 0, "fusion_lat": 0.0, "name": "aef8073c71d2457b3ae14f573b832148", "lat": 38.93571466666667}, {"fusion_lon": 0.0, "bike_id": "2fe867f91f2cbc0dcf599b4c7390614a", "lon": -76.99258733333333, "type": "electric_scooter", "is_disabled": 0, "rental_uris": {"ios": "https://dc.lft.to/lastmile_qr_scan", "android": "https://dc.lft.to/lastmile_qr_scan"}, "is_reserved": 0, "fusion_lat": 0.0, "name": "2fe867f91f2cbc0dcf599b4c7390614a", "lat": 38.90297483333333}, {"fusion_lon": 0.0, "bike_id": "9dd162cfef031bc3de2990702323ee44", "lon": -76.95235316666667, "type": "electric_scooter", "is_disabled": 0, "rental_uris": {"ios": "https://dc.lft.to/lastmile_qr_scan", "android": "https://dc.lft.to/lastmile_qr_scan"}, "is_reserved": 0, "fusion_lat": 0.0, "name": "9dd162cfef031bc3de2990702323ee44", "lat": 38.893451666666664}, {"fusion_lon": 0.0, "bike_id": "2c8a5f62df420fdf57191dc75317f687", "lon": -77.00222533333333, "type": "electric_scooter", "is_disabled": 0, "rental_uris": {"ios": "https://dc.lft.to/lastmile_qr_scan", "android": "https://dc.lft.to/lastmile_qr_scan"}, "is_reserved": 0, "fusion_lat": 0.0, "name": "2c8a5f62df420fdf57191dc75317f687", "lat": 38.900366166666664}, {"fusion_lon": 0.0, "bike_id": "4fba9d24c16a3345aa315021e38b1bac", "lon": -77.00305983333334, "type": "electric_scooter", "is_disabled": 0, "rental_uris": {"ios": "https://dc.lft.to/lastmile_qr_scan", "android": "https://dc.lft.to/lastmile_qr_scan"}, "is_reserved": 0, "fusion_lat": 0.0, "name": "4fba9d24c16a3345aa315021e38b1bac", "lat": 38.876593}, {"fusion_lon": 0.0, "bike_id": "d1467f29ecb1c9e5f2a121ad5c7a24ed", "lon": -77.01664933333333, "type": "electric_scooter", "is_disabled": 0, "rental_uris": {"ios": "https://dc.lft.to/lastmile_qr_scan", "android": "https://dc.lft.to/lastmile_qr_scan"}, "is_reserved": 0, "fusion_lat": 0.0, "name": "d1467f29ecb1c9e5f2a121ad5c7a24ed", "lat": 38.91848016666667}, {"fusion_lon": 0.0, "bike_id": "fa26d5e98bcdd080eea6f21b7a05ce2b", "lon": -77.0145015, "type": "electric_scooter", "is_disabled": 0, "rental_uris": {"ios": "https://dc.lft.to/lastmile_qr_scan", "android": "https://dc.lft.to/lastmile_qr_scan"}, "is_reserved": 0, "fusion_lat": 0.0, "name": "fa26d5e98bcdd080eea6f21b7a05ce2b", "lat": 38.91596033333333}, {"fusion_lon": 0.0, "bike_id": "d90642d66d2ab75062d156fdbc0abd18", "lon": -77.024474, "type": "electric_scooter", "is_disabled": 0, "rental_uris": {"ios": "https://dc.lft.to/lastmile_qr_scan", "android": "https://dc.lft.to/lastmile_qr_scan"}, "is_reserved": 0, "fusion_lat": 0.0, "name": "d90642d66d2ab75062d156fdbc0abd18", "lat": 38.9234485}, {"fusion_lon": 0.0, "bike_id": "f593766d37e6a5952ebd76ae63ffbd41", "lon": -77.03573716666666, "type": "electric_scooter", "is_disabled": 0, "rental_uris": {"ios": "https://dc.lft.to/lastmile_qr_scan", "android": "https://dc.lft.to/lastmile_qr_scan"}, "is_reserved": 0, "fusion_lat": 0.0, "name": "f593766d37e6a5952ebd76ae63ffbd41", "lat": 38.9176715}, {"fusion_lon": 0.0, "bike_id": "24a73d669b91d0b39260c196d89b4ef7", "lon": -77.03162966666666, "type": "electric_scooter", "is_disabled": 0, "rental_uris": {"ios": "https://dc.lft.to/lastmile_qr_scan", "android": "https://dc.lft.to/lastmile_qr_scan"}, "is_reserved": 0, "fusion_lat": 0.0, "name": "24a73d669b91d0b39260c196d89b4ef7", "lat": 38.899666333333336}, {"fusion_lon": 0.0, "bike_id": "ffda914c30935be6583b63d94e9680cd", "lon": -76.97983783333333, "type": "electric_scooter", "is_disabled": 0, "rental_uris": {"ios": "https://dc.lft.to/lastmile_qr_scan", "android": "https://dc.lft.to/lastmile_qr_scan"}, "is_reserved": 0, "fusion_lat": 0.0, "name": "ffda914c30935be6583b63d94e9680cd", "lat": 38.90731316666667}, {"fusion_lon": 0.0, "bike_id": "72eab2a098d6f8b876ac78f39876ce57", "lon": -77.03092666666667, "type": "electric_scooter", "is_disabled": 0, "rental_uris": {"ios": "https://dc.lft.to/lastmile_qr_scan", "android": "https://dc.lft.to/lastmile_qr_scan"}, "is_reserved": 0, "fusion_lat": 0.0, "name": "72eab2a098d6f8b876ac78f39876ce57", "lat": 38.91062}, {"fusion_lon": 0.0, "bike_id": "0457c5a4077d3bfc3a1f35e0703e1c93", "lon": -77.03543183333333, "type": "electric_scooter", "is_disabled": 0, "rental_uris": {"ios": "https://dc.lft.to/lastmile_qr_scan", "android": "https://dc.lft.to/lastmile_qr_scan"}, "is_reserved": 0, "fusion_lat": 0.0, "name": "0457c5a4077d3bfc3a1f35e0703e1c93", "lat": 38.91843183333334}, {"fusion_lon": 0.0, "bike_id": "a7fb7a0ecc079216cf10443e7ab5cbe3", "lon": -76.9932265, "type": "electric_bike", "is_disabled": 0, "rental_uris": {"ios": "https://dc.lft.to/lastmile_qr_scan", "android": "https://dc.lft.to/lastmile_qr_scan"}, "is_reserved": 0, "fusion_lat": 0.0, "name": "a7fb7a0ecc079216cf10443e7ab5cbe3", "lat": 38.93849383333333}, {"fusion_lon": 0.0, "bike_id": "fd468a76fc7a674cef2c78cd1fa70b6f", "lon": -77.0197175, "type": "electric_scooter", "is_disabled": 0, "rental_uris": {"ios": "https://dc.lft.to/lastmile_qr_scan", "android": "https://dc.lft.to/lastmile_qr_scan"}, "is_reserved": 0, "fusion_lat": 0.0, "name": "fd468a76fc7a674cef2c78cd1fa70b6f", "lat": 38.9085235}, {"fusion_lon": 0.0, "bike_id": "0e227c3068c714472c7c3ad7a1aa852f", "lon": -77.03215016666667, "type": "electric_scooter", "is_disabled": 0, "rental_uris": {"ios": "https://dc.lft.to/lastmile_qr_scan", "android": "https://dc.lft.to/lastmile_qr_scan"}, "is_reserved": 0, "fusion_lat": 0.0, "name": "0e227c3068c714472c7c3ad7a1aa852f", "lat": 38.919890333333335}, {"fusion_lon": 0.0, "bike_id": "c07716cf01eb67521ad79dca473837cd", "lon": -77.02659, "type": "electric_scooter", "is_disabled": 0, "rental_uris": {"ios": "https://dc.lft.to/lastmile_qr_scan", "android": "https://dc.lft.to/lastmile_qr_scan"}, "is_reserved": 0, "fusion_lat": 0.0, "name": "c07716cf01eb67521ad79dca473837cd", "lat": 38.89223066666667}, {"fusion_lon": 0.0, "bike_id": "043203cd88efcd257ec7066452d58f56", "lon": -76.98061233333334, "type": "electric_scooter", "is_disabled": 0, "rental_uris": {"ios": "https://dc.lft.to/lastmile_qr_scan", "android": "https://dc.lft.to/lastmile_qr_scan"}, "is_reserved": 0, "fusion_lat": 0.0, "name": "043203cd88efcd257ec7066452d58f56", "lat": 38.88494983333333}, {"fusion_lon": 0.0, "bike_id": "2645ed5859430bb94ace20b5f0ba13df", "lon": -77.02462283333334, "type": "electric_scooter", "is_disabled": 0, "rental_uris": {"ios": "https://dc.lft.to/lastmile_qr_scan", "android": "https://dc.lft.to/lastmile_qr_scan"}, "is_reserved": 0, "fusion_lat": 0.0, "name": "2645ed5859430bb94ace20b5f0ba13df", "lat": 38.9147695}, {"fusion_lon": 0.0, "bike_id": "b4ff6b0a4e3a2f8550c25508507cce28", "lon": -77.0755925, "type": "electric_scooter", "is_disabled": 0, "rental_uris": {"ios": "https://dc.lft.to/lastmile_qr_scan", "android": "https://dc.lft.to/lastmile_qr_scan"}, "is_reserved": 0, "fusion_lat": 0.0, "name": "b4ff6b0a4e3a2f8550c25508507cce28", "lat": 38.92089683333333}, {"fusion_lon": 0.0, "bike_id": "7bf7e9e259df21f9db9380904fd190d0", "lon": -77.02187416666666, "type": "electric_scooter", "is_disabled": 0, "rental_uris": {"ios": "https://dc.lft.to/lastmile_qr_scan", "android": "https://dc.lft.to/lastmile_qr_scan"}, "is_reserved": 0, "fusion_lat": 0.0, "name": "7bf7e9e259df21f9db9380904fd190d0", "lat": 38.8861685}, {"fusion_lon": 0.0, "bike_id": "e078b55b8b7ac30521807922fd624838", "lon": -76.94198283333333, "type": "electric_scooter", "is_disabled": 0, "rental_uris": {"ios": "https://dc.lft.to/lastmile_qr_scan", "android": "https://dc.lft.to/lastmile_qr_scan"}, "is_reserved": 0, "fusion_lat": 0.0, "name": "e078b55b8b7ac30521807922fd624838", "lat": 38.9022715}, {"fusion_lon": 0.0, "bike_id": "ef02afb5d3a3687d6f6928c01ee6d13b", "lon": -76.99468983333334, "type": "electric_scooter", "is_disabled": 0, "rental_uris": {"ios": "https://dc.lft.to/lastmile_qr_scan", "android": "https://dc.lft.to/lastmile_qr_scan"}, "is_reserved": 0, "fusion_lat": 0.0, "name": "ef02afb5d3a3687d6f6928c01ee6d13b", "lat": 38.90545766666666}, {"fusion_lon": 0.0, "bike_id": "20574a4f93dc8200329060f6d63251d8", "lon": -76.98706116666666, "type": "electric_scooter", "is_disabled": 0, "rental_uris": {"ios": "https://dc.lft.to/lastmile_qr_scan", "android": "https://dc.lft.to/lastmile_qr_scan"}, "is_reserved": 0, "fusion_lat": 0.0, "name": "20574a4f93dc8200329060f6d63251d8", "lat": 38.907039}, {"fusion_lon": 0.0, "bike_id": "2f427248dcf65ee15fed756e29823fad", "lon": -77.0079785, "type": "electric_scooter", "is_disabled": 0, "rental_uris": {"ios": "https://dc.lft.to/lastmile_qr_scan", "android": "https://dc.lft.to/lastmile_qr_scan"}, "is_reserved": 0, "fusion_lat": 0.0, "name": "2f427248dcf65ee15fed756e29823fad", "lat": 38.897124}, {"fusion_lon": 0.0, "bike_id": "4e632dfe85199bd1761e3d9e2a9f22fd", "lon": -77.0202555, "type": "electric_scooter", "is_disabled": 0, "rental_uris": {"ios": "https://dc.lft.to/lastmile_qr_scan", "android": "https://dc.lft.to/lastmile_qr_scan"}, "is_reserved": 0, "fusion_lat": 0.0, "name": "4e632dfe85199bd1761e3d9e2a9f22fd", "lat": 38.924436}, {"fusion_lon": 0.0, "bike_id": "f7d7750f590ba4493bd1d7770eae271f", "lon": -77.007982, "type": "electric_scooter", "is_disabled": 0, "rental_uris": {"ios": "https://dc.lft.to/lastmile_qr_scan", "android": "https://dc.lft.to/lastmile_qr_scan"}, "is_reserved": 0, "fusion_lat": 0.0, "name": "f7d7750f590ba4493bd1d7770eae271f", "lat": 38.8971715}, {"fusion_lon": 0.0, "bike_id": "e3ac4574ce41f42a7676ea0da202e8ac", "lon": -77.07787033333334, "type": "electric_bike", "is_disabled": 0, "rental_uris": {"ios": "https://dc.lft.to/lastmile_qr_scan", "android": "https://dc.lft.to/lastmile_qr_scan"}, "is_reserved": 0, "fusion_lat": 0.0, "name": "e3ac4574ce41f42a7676ea0da202e8ac", "lat": 38.9959945}, {"fusion_lon": 0.0, "bike_id": "04f4bc90373f70a550abe81378230a4b", "lon": -77.01077833333333, "type": "electric_scooter", "is_disabled": 0, "rental_uris": {"ios": "https://dc.lft.to/lastmile_qr_scan", "android": "https://dc.lft.to/lastmile_qr_scan"}, "is_reserved": 0, "fusion_lat": 0.0, "name": "04f4bc90373f70a550abe81378230a4b", "lat": 38.9141265}, {"fusion_lon": 0.0, "bike_id": "37d031a7ef26757dd2ba7412cbda8c4b", "lon": -77.04494133333333, "type": "electric_scooter", "is_disabled": 0, "rental_uris": {"ios": "https://dc.lft.to/lastmile_qr_scan", "android": "https://dc.lft.to/lastmile_qr_scan"}, "is_reserved": 0, "fusion_lat": 0.0, "name": "37d031a7ef26757dd2ba7412cbda8c4b", "lat": 38.908940666666666}, {"fusion_lon": 0.0, "bike_id": "70891ff96da582ae582af9085b212a04", "lon": -77.03183966666667, "type": "electric_scooter", "is_disabled": 0, "rental_uris": {"ios": "https://dc.lft.to/lastmile_qr_scan", "android": "https://dc.lft.to/lastmile_qr_scan"}, "is_reserved": 0, "fusion_lat": 0.0, "name": "70891ff96da582ae582af9085b212a04", "lat": 38.905032166666665}, {"fusion_lon": 0.0, "bike_id": "9005f0da5a6b6bc9623c41b0537dcc8c", "lon": -77.0280525, "type": "electric_scooter", "is_disabled": 0, "rental_uris": {"ios": "https://dc.lft.to/lastmile_qr_scan", "android": "https://dc.lft.to/lastmile_qr_scan"}, "is_reserved": 0, "fusion_lat": 0.0, "name": "9005f0da5a6b6bc9623c41b0537dcc8c", "lat": 38.90266716666667}, {"fusion_lon": 0.0, "bike_id": "1275becf9d563cd03684c77268ca69e1", "lon": -77.0028625, "type": "electric_scooter", "is_disabled": 0, "rental_uris": {"ios": "https://dc.lft.to/lastmile_qr_scan", "android": "https://dc.lft.to/lastmile_qr_scan"}, "is_reserved": 0, "fusion_lat": 0.0, "name": "1275becf9d563cd03684c77268ca69e1", "lat": 38.87660016666667}, {"fusion_lon": 0.0, "bike_id": "37fc8155cf68eea48a5be4e6cb81d24a", "lon": -77.0390785, "type": "electric_scooter", "is_disabled": 0, "rental_uris": {"ios": "https://dc.lft.to/lastmile_qr_scan", "android": "https://dc.lft.to/lastmile_qr_scan"}, "is_reserved": 0, "fusion_lat": 0.0, "name": "37fc8155cf68eea48a5be4e6cb81d24a", "lat": 38.94403416666667}, {"fusion_lon": 0.0, "bike_id": "9ebd57ccfbf32f06b1efabdc4a303a69", "lon": -77.01702016666667, "type": "electric_scooter", "is_disabled": 0, "rental_uris": {"ios": "https://dc.lft.to/lastmile_qr_scan", "android": "https://dc.lft.to/lastmile_qr_scan"}, "is_reserved": 0, "fusion_lat": 0.0, "name": "9ebd57ccfbf32f06b1efabdc4a303a69", "lat": 38.907598}, {"fusion_lon": 0.0, "bike_id": "eb58312c90e528b6d19b36b2c847b035", "lon": -77.01131166666667, "type": "electric_scooter", "is_disabled": 0, "rental_uris": {"ios": "https://dc.lft.to/lastmile_qr_scan", "android": "https://dc.lft.to/lastmile_qr_scan"}, "is_reserved": 0, "fusion_lat": 0.0, "name": "eb58312c90e528b6d19b36b2c847b035", "lat": 38.8852275}, {"fusion_lon": 0.0, "bike_id": "75a6d7d1815d6d5594aae7deec9438e1", "lon": -77.00127116666667, "type": "electric_bike", "is_disabled": 0, "rental_uris": {"ios": "https://dc.lft.to/lastmile_qr_scan", "android": "https://dc.lft.to/lastmile_qr_scan"}, "is_reserved": 0, "fusion_lat": 0.0, "name": "75a6d7d1815d6d5594aae7deec9438e1", "lat": 38.8358045}, {"fusion_lon": 0.0, "bike_id": "d2877c93a3b236fc2cf0f25befbf4f92", "lon": -77.027948, "type": "electric_scooter", "is_disabled": 0, "rental_uris": {"ios": "https://dc.lft.to/lastmile_qr_scan", "android": "https://dc.lft.to/lastmile_qr_scan"}, "is_reserved": 0, "fusion_lat": 0.0, "name": "d2877c93a3b236fc2cf0f25befbf4f92", "lat": 38.892411833333334}, {"fusion_lon": 0.0, "bike_id": "9ceb5031becd3a659aee950be9a389ff", "lon": -77.06015766666667, "type": "electric_scooter", "is_disabled": 0, "rental_uris": {"ios": "https://dc.lft.to/lastmile_qr_scan", "android": "https://dc.lft.to/lastmile_qr_scan"}, "is_reserved": 0, "fusion_lat": 0.0, "name": "9ceb5031becd3a659aee950be9a389ff", "lat": 38.904361}, {"fusion_lon": 0.0, "bike_id": "730dda3baab29b9ae587f641998329b5", "lon": -77.03198233333333, "type": "electric_scooter", "is_disabled": 0, "rental_uris": {"ios": "https://dc.lft.to/lastmile_qr_scan", "android": "https://dc.lft.to/lastmile_qr_scan"}, "is_reserved": 0, "fusion_lat": 0.0, "name": "730dda3baab29b9ae587f641998329b5", "lat": 38.916272666666664}, {"fusion_lon": 0.0, "bike_id": "c1ca553ba129a3c2581e0c369198d33f", "lon": -77.07282166666667, "type": "electric_scooter", "is_disabled": 0, "rental_uris": {"ios": "https://dc.lft.to/lastmile_qr_scan", "android": "https://dc.lft.to/lastmile_qr_scan"}, "is_reserved": 0, "fusion_lat": 0.0, "name": "c1ca553ba129a3c2581e0c369198d33f", "lat": 38.90916983333334}, {"fusion_lon": 0.0, "bike_id": "2fd47f34cffd1aaa5164d2c73b1ced8b", "lon": -76.98721333333333, "type": "electric_bike", "is_disabled": 0, "rental_uris": {"ios": "https://dc.lft.to/lastmile_qr_scan", "android": "https://dc.lft.to/lastmile_qr_scan"}, "is_reserved": 0, "fusion_lat": 0.0, "name": "2fd47f34cffd1aaa5164d2c73b1ced8b", "lat": 38.8633185}, {"fusion_lon": 0.0, "bike_id": "48921d9c3169d63dd15203255e6299b3", "lon": -77.035864, "type": "electric_scooter", "is_disabled": 0, "rental_uris": {"ios": "https://dc.lft.to/lastmile_qr_scan", "android": "https://dc.lft.to/lastmile_qr_scan"}, "is_reserved": 0, "fusion_lat": 0.0, "name": "48921d9c3169d63dd15203255e6299b3", "lat": 38.94396916666667}, {"fusion_lon": 0.0, "bike_id": "1066a9fad4a0b22288f156c20a968c12", "lon": -77.05313866666667, "type": "electric_scooter", "is_disabled": 0, "rental_uris": {"ios": "https://dc.lft.to/lastmile_qr_scan", "android": "https://dc.lft.to/lastmile_qr_scan"}, "is_reserved": 0, "fusion_lat": 0.0, "name": "1066a9fad4a0b22288f156c20a968c12", "lat": 38.902756333333336}, {"fusion_lon": 0.0, "bike_id": "e483a144af2069025a5bf7b2745f736c", "lon": -77.23683616666666, "type": "electric_bike", "is_disabled": 0, "rental_uris": {"ios": "https://dc.lft.to/lastmile_qr_scan", "android": "https://dc.lft.to/lastmile_qr_scan"}, "is_reserved": 0, "fusion_lat": 0.0, "name": "e483a144af2069025a5bf7b2745f736c", "lat": 38.92127766666667}, {"fusion_lon": 0.0, "bike_id": "aca7c2da808cbddee3363bd59f677028", "lon": -77.00316816666667, "type": "electric_scooter", "is_disabled": 0, "rental_uris": {"ios": "https://dc.lft.to/lastmile_qr_scan", "android": "https://dc.lft.to/lastmile_qr_scan"}, "is_reserved": 0, "fusion_lat": 0.0, "name": "aca7c2da808cbddee3363bd59f677028", "lat": 38.87650766666667}, {"fusion_lon": 0.0, "bike_id": "435e596624827d437845561a92901302", "lon": -77.01736416666667, "type": "electric_scooter", "is_disabled": 0, "rental_uris": {"ios": "https://dc.lft.to/lastmile_qr_scan", "android": "https://dc.lft.to/lastmile_qr_scan"}, "is_reserved": 0, "fusion_lat": 0.0, "name": "435e596624827d437845561a92901302", "lat": 38.903549166666664}, {"fusion_lon": 0.0, "bike_id": "1d53b079f5954e4358ea5771557e5ae5", "lon": -77.024302, "type": "electric_scooter", "is_disabled": 0, "rental_uris": {"ios": "https://dc.lft.to/lastmile_qr_scan", "android": "https://dc.lft.to/lastmile_qr_scan"}, "is_reserved": 0, "fusion_lat": 0.0, "name": "1d53b079f5954e4358ea5771557e5ae5", "lat": 38.956273833333334}, {"fusion_lon": 0.0, "bike_id": "1196e889fe820c434cda1c5d4b553fdd", "lon": -77.00875883333333, "type": "electric_scooter", "is_disabled": 0, "rental_uris": {"ios": "https://dc.lft.to/lastmile_qr_scan", "android": "https://dc.lft.to/lastmile_qr_scan"}, "is_reserved": 0, "fusion_lat": 0.0, "name": "1196e889fe820c434cda1c5d4b553fdd", "lat": 38.90573083333334}, {"fusion_lon": 0.0, "bike_id": "cd62440b5d6d91e3ba0938848ba55ae8", "lon": -77.03896916666666, "type": "electric_scooter", "is_disabled": 0, "rental_uris": {"ios": "https://dc.lft.to/lastmile_qr_scan", "android": "https://dc.lft.to/lastmile_qr_scan"}, "is_reserved": 0, "fusion_lat": 0.0, "name": "cd62440b5d6d91e3ba0938848ba55ae8", "lat": 38.922595}, {"fusion_lon": 0.0, "bike_id": "623e9e39916adec241e57bf0dfd1d404", "lon": -77.02507783333333, "type": "electric_scooter", "is_disabled": 0, "rental_uris": {"ios": "https://dc.lft.to/lastmile_qr_scan", "android": "https://dc.lft.to/lastmile_qr_scan"}, "is_reserved": 0, "fusion_lat": 0.0, "name": "623e9e39916adec241e57bf0dfd1d404", "lat": 38.91925083333334}, {"fusion_lon": 0.0, "bike_id": "5c52bd9e647e0405eff01b465529fbe8", "lon": -77.0489705, "type": "electric_scooter", "is_disabled": 0, "rental_uris": {"ios": "https://dc.lft.to/lastmile_qr_scan", "android": "https://dc.lft.to/lastmile_qr_scan"}, "is_reserved": 0, "fusion_lat": 0.0, "name": "5c52bd9e647e0405eff01b465529fbe8", "lat": 38.89230033333333}, {"fusion_lon": 0.0, "bike_id": "1d3611ad42d3cd3f4d59eda11195c5b7", "lon": -77.03774833333334, "type": "electric_scooter", "is_disabled": 0, "rental_uris": {"ios": "https://dc.lft.to/lastmile_qr_scan", "android": "https://dc.lft.to/lastmile_qr_scan"}, "is_reserved": 0, "fusion_lat": 0.0, "name": "1d3611ad42d3cd3f4d59eda11195c5b7", "lat": 38.90284333333334}, {"fusion_lon": 0.0, "bike_id": "616b6be7243398d91f8041cefc14e8e4", "lon": -77.03373216666667, "type": "electric_scooter", "is_disabled": 0, "rental_uris": {"ios": "https://dc.lft.to/lastmile_qr_scan", "android": "https://dc.lft.to/lastmile_qr_scan"}, "is_reserved": 0, "fusion_lat": 0.0, "name": "616b6be7243398d91f8041cefc14e8e4", "lat": 38.93863}, {"fusion_lon": 0.0, "bike_id": "dddfb26977f0a1baeedc1e63e35a685c", "lon": -77.03340683333333, "type": "electric_scooter", "is_disabled": 0, "rental_uris": {"ios": "https://dc.lft.to/lastmile_qr_scan", "android": "https://dc.lft.to/lastmile_qr_scan"}, "is_reserved": 0, "fusion_lat": 0.0, "name": "dddfb26977f0a1baeedc1e63e35a685c", "lat": 38.9097345}, {"fusion_lon": 0.0, "bike_id": "2032f633f5874f0f3fa29d22230e7d22", "lon": -77.01376033333334, "type": "electric_scooter", "is_disabled": 0, "rental_uris": {"ios": "https://dc.lft.to/lastmile_qr_scan", "android": "https://dc.lft.to/lastmile_qr_scan"}, "is_reserved": 0, "fusion_lat": 0.0, "name": "2032f633f5874f0f3fa29d22230e7d22", "lat": 38.896326333333334}, {"fusion_lon": 0.0, "bike_id": "2d401247ee12f794df98c1c1c2ca06a4", "lon": -77.05082883333333, "type": "electric_scooter", "is_disabled": 0, "rental_uris": {"ios": "https://dc.lft.to/lastmile_qr_scan", "android": "https://dc.lft.to/lastmile_qr_scan"}, "is_reserved": 0, "fusion_lat": 0.0, "name": "2d401247ee12f794df98c1c1c2ca06a4", "lat": 38.9234805}, {"fusion_lon": 0.0, "bike_id": "41f79e496fcbbaafffa6890a45dd97c5", "lon": -77.021602, "type": "electric_scooter", "is_disabled": 0, "rental_uris": {"ios": "https://dc.lft.to/lastmile_qr_scan", "android": "https://dc.lft.to/lastmile_qr_scan"}, "is_reserved": 0, "fusion_lat": 0.0, "name": "41f79e496fcbbaafffa6890a45dd97c5", "lat": 38.9260185}, {"fusion_lon": 0.0, "bike_id": "c89b35a012aa7d3dd6dfa241e2cad808", "lon": -77.04101933333334, "type": "electric_scooter", "is_disabled": 0, "rental_uris": {"ios": "https://dc.lft.to/lastmile_qr_scan", "android": "https://dc.lft.to/lastmile_qr_scan"}, "is_reserved": 0, "fusion_lat": 0.0, "name": "c89b35a012aa7d3dd6dfa241e2cad808", "lat": 38.92406016666666}, {"fusion_lon": 0.0, "bike_id": "b3a09d666245742fce6f04d704be88d4", "lon": -77.03865, "type": "electric_scooter", "is_disabled": 0, "rental_uris": {"ios": "https://dc.lft.to/lastmile_qr_scan", "android": "https://dc.lft.to/lastmile_qr_scan"}, "is_reserved": 0, "fusion_lat": 0.0, "name": "b3a09d666245742fce6f04d704be88d4", "lat": 38.93175933333333}, {"fusion_lon": 0.0, "bike_id": "f2d9c61cd743f96c58e2c8ea511889cf", "lon": -77.02223166666667, "type": "electric_scooter", "is_disabled": 0, "rental_uris": {"ios": "https://dc.lft.to/lastmile_qr_scan", "android": "https://dc.lft.to/lastmile_qr_scan"}, "is_reserved": 0, "fusion_lat": 0.0, "name": "f2d9c61cd743f96c58e2c8ea511889cf", "lat": 38.89987883333333}, {"fusion_lon": 0.0, "bike_id": "97925527b22b22dff0839b792577fb80", "lon": -77.00924283333333, "type": "electric_scooter", "is_disabled": 0, "rental_uris": {"ios": "https://dc.lft.to/lastmile_qr_scan", "android": "https://dc.lft.to/lastmile_qr_scan"}, "is_reserved": 0, "fusion_lat": 0.0, "name": "97925527b22b22dff0839b792577fb80", "lat": 38.89597333333333}, {"fusion_lon": 0.0, "bike_id": "d9f321d3b109e9c53efac6b9ae7686a1", "lon": -77.034345, "type": "electric_scooter", "is_disabled": 0, "rental_uris": {"ios": "https://dc.lft.to/lastmile_qr_scan", "android": "https://dc.lft.to/lastmile_qr_scan"}, "is_reserved": 0, "fusion_lat": 0.0, "name": "d9f321d3b109e9c53efac6b9ae7686a1", "lat": 38.909591666666664}, {"fusion_lon": 0.0, "bike_id": "b65110416dfc3c3065df61abdc41a70f", "lon": -77.07302116666666, "type": "electric_scooter", "is_disabled": 0, "rental_uris": {"ios": "https://dc.lft.to/lastmile_qr_scan", "android": "https://dc.lft.to/lastmile_qr_scan"}, "is_reserved": 0, "fusion_lat": 0.0, "name": "b65110416dfc3c3065df61abdc41a70f", "lat": 38.930496166666664}, {"fusion_lon": 0.0, "bike_id": "2a49fc5f05f5b10ea374e26e481190a2", "lon": -76.985131, "type": "electric_bike", "is_disabled": 0, "rental_uris": {"ios": "https://dc.lft.to/lastmile_qr_scan", "android": "https://dc.lft.to/lastmile_qr_scan"}, "is_reserved": 0, "fusion_lat": 0.0, "name": "2a49fc5f05f5b10ea374e26e481190a2", "lat": 38.8808245}, {"fusion_lon": 0.0, "bike_id": "34ee298ef6e26b7d21597ed5dea9d3ef", "lon": -77.039897, "type": "electric_scooter", "is_disabled": 0, "rental_uris": {"ios": "https://dc.lft.to/lastmile_qr_scan", "android": "https://dc.lft.to/lastmile_qr_scan"}, "is_reserved": 0, "fusion_lat": 0.0, "name": "34ee298ef6e26b7d21597ed5dea9d3ef", "lat": 38.90967966666667}, {"fusion_lon": 0.0, "bike_id": "95da908f2edb62e9d699ea0648947431", "lon": -77.025234, "type": "electric_scooter", "is_disabled": 0, "rental_uris": {"ios": "https://dc.lft.to/lastmile_qr_scan", "android": "https://dc.lft.to/lastmile_qr_scan"}, "is_reserved": 0, "fusion_lat": 0.0, "name": "95da908f2edb62e9d699ea0648947431", "lat": 38.90727366666667}, {"fusion_lon": 0.0, "bike_id": "9988eec1bf106f15ca6c306892551174", "lon": -77.03828, "type": "electric_scooter", "is_disabled": 0, "rental_uris": {"ios": "https://dc.lft.to/lastmile_qr_scan", "android": "https://dc.lft.to/lastmile_qr_scan"}, "is_reserved": 0, "fusion_lat": 0.0, "name": "9988eec1bf106f15ca6c306892551174", "lat": 38.9149375}, {"fusion_lon": 0.0, "bike_id": "9fb33847484a214113942535745e0cd5", "lon": -77.029805, "type": "electric_scooter", "is_disabled": 0, "rental_uris": {"ios": "https://dc.lft.to/lastmile_qr_scan", "android": "https://dc.lft.to/lastmile_qr_scan"}, "is_reserved": 0, "fusion_lat": 0.0, "name": "9fb33847484a214113942535745e0cd5", "lat": 38.931905}, {"fusion_lon": 0.0, "bike_id": "2f4a20d80e771a04ec1eef8824665a44", "lon": -77.03256216666666, "type": "electric_scooter", "is_disabled": 0, "rental_uris": {"ios": "https://dc.lft.to/lastmile_qr_scan", "android": "https://dc.lft.to/lastmile_qr_scan"}, "is_reserved": 0, "fusion_lat": 0.0, "name": "2f4a20d80e771a04ec1eef8824665a44", "lat": 38.9352365}, {"fusion_lon": 0.0, "bike_id": "ddd56e3fd206fda64b50c2a5e54f4a31", "lon": -77.048152, "type": "electric_scooter", "is_disabled": 0, "rental_uris": {"ios": "https://dc.lft.to/lastmile_qr_scan", "android": "https://dc.lft.to/lastmile_qr_scan"}, "is_reserved": 0, "fusion_lat": 0.0, "name": "ddd56e3fd206fda64b50c2a5e54f4a31", "lat": 38.916329833333336}, {"fusion_lon": 0.0, "bike_id": "3e3c0a4e9ae3599129095dfbd09c1b4f", "lon": -77.0176195, "type": "electric_scooter", "is_disabled": 0, "rental_uris": {"ios": "https://dc.lft.to/lastmile_qr_scan", "android": "https://dc.lft.to/lastmile_qr_scan"}, "is_reserved": 0, "fusion_lat": 0.0, "name": "3e3c0a4e9ae3599129095dfbd09c1b4f", "lat": 38.95218966666667}, {"fusion_lon": 0.0, "bike_id": "a1e73bc2607a62db5d48810d4ac3ee02", "lon": -77.0162045, "type": "electric_scooter", "is_disabled": 0, "rental_uris": {"ios": "https://dc.lft.to/lastmile_qr_scan", "android": "https://dc.lft.to/lastmile_qr_scan"}, "is_reserved": 0, "fusion_lat": 0.0, "name": "a1e73bc2607a62db5d48810d4ac3ee02", "lat": 38.947372}, {"fusion_lon": 0.0, "bike_id": "ad0542a84538a45e7b4f7d1057ad31d7", "lon": -77.00725266666667, "type": "electric_bike", "is_disabled": 0, "rental_uris": {"ios": "https://dc.lft.to/lastmile_qr_scan", "android": "https://dc.lft.to/lastmile_qr_scan"}, "is_reserved": 0, "fusion_lat": 0.0, "name": "ad0542a84538a45e7b4f7d1057ad31d7", "lat": 38.83246116666667}, {"fusion_lon": 0.0, "bike_id": "1933eb2f727b7fb0360b49515d9d5547", "lon": -77.046579, "type": "electric_scooter", "is_disabled": 0, "rental_uris": {"ios": "https://dc.lft.to/lastmile_qr_scan", "android": "https://dc.lft.to/lastmile_qr_scan"}, "is_reserved": 0, "fusion_lat": 0.0, "name": "1933eb2f727b7fb0360b49515d9d5547", "lat": 38.907173}, {"fusion_lon": 0.0, "bike_id": "ee34ba20b9d74226c0f77b5410388a81", "lon": -77.03944783333333, "type": "electric_scooter", "is_disabled": 0, "rental_uris": {"ios": "https://dc.lft.to/lastmile_qr_scan", "android": "https://dc.lft.to/lastmile_qr_scan"}, "is_reserved": 0, "fusion_lat": 0.0, "name": "ee34ba20b9d74226c0f77b5410388a81", "lat": 38.908216833333334}, {"fusion_lon": 0.0, "bike_id": "a0884efde6c23e82327bd810ae8703f8", "lon": -77.02341466666667, "type": "electric_scooter", "is_disabled": 0, "rental_uris": {"ios": "https://dc.lft.to/lastmile_qr_scan", "android": "https://dc.lft.to/lastmile_qr_scan"}, "is_reserved": 0, "fusion_lat": 0.0, "name": "a0884efde6c23e82327bd810ae8703f8", "lat": 38.931091}, {"fusion_lon": 0.0, "bike_id": "e43ceb78e27a0d9cfe69b56ab912de0e", "lon": -77.02180316666667, "type": "electric_scooter", "is_disabled": 0, "rental_uris": {"ios": "https://dc.lft.to/lastmile_qr_scan", "android": "https://dc.lft.to/lastmile_qr_scan"}, "is_reserved": 0, "fusion_lat": 0.0, "name": "e43ceb78e27a0d9cfe69b56ab912de0e", "lat": 38.895291666666665}, {"fusion_lon": 0.0, "bike_id": "6f60eb2088a37b7481737ca0be85b0b0", "lon": -77.02978166666666, "type": "electric_scooter", "is_disabled": 0, "rental_uris": {"ios": "https://dc.lft.to/lastmile_qr_scan", "android": "https://dc.lft.to/lastmile_qr_scan"}, "is_reserved": 0, "fusion_lat": 0.0, "name": "6f60eb2088a37b7481737ca0be85b0b0", "lat": 38.897588666666664}, {"fusion_lon": 0.0, "bike_id": "03bbdbd2df942736245e47bebc4fd6d2", "lon": -77.03156433333334, "type": "electric_scooter", "is_disabled": 0, "rental_uris": {"ios": "https://dc.lft.to/lastmile_qr_scan", "android": "https://dc.lft.to/lastmile_qr_scan"}, "is_reserved": 0, "fusion_lat": 0.0, "name": "03bbdbd2df942736245e47bebc4fd6d2", "lat": 38.91575266666667}, {"fusion_lon": 0.0, "bike_id": "222debf06fde67630098f19949263121", "lon": -76.95267766666667, "type": "electric_scooter", "is_disabled": 0, "rental_uris": {"ios": "https://dc.lft.to/lastmile_qr_scan", "android": "https://dc.lft.to/lastmile_qr_scan"}, "is_reserved": 0, "fusion_lat": 0.0, "name": "222debf06fde67630098f19949263121", "lat": 38.885096833333336}, {"fusion_lon": 0.0, "bike_id": "6e51e2112c4b27b162e493c0fd262393", "lon": -77.03272116666666, "type": "electric_scooter", "is_disabled": 0, "rental_uris": {"ios": "https://dc.lft.to/lastmile_qr_scan", "android": "https://dc.lft.to/lastmile_qr_scan"}, "is_reserved": 0, "fusion_lat": 0.0, "name": "6e51e2112c4b27b162e493c0fd262393", "lat": 38.9330685}, {"fusion_lon": 0.0, "bike_id": "7a87fd75c7413c9cc13488af3256335e", "lon": -77.04144666666667, "type": "electric_scooter", "is_disabled": 0, "rental_uris": {"ios": "https://dc.lft.to/lastmile_qr_scan", "android": "https://dc.lft.to/lastmile_qr_scan"}, "is_reserved": 0, "fusion_lat": 0.0, "name": "7a87fd75c7413c9cc13488af3256335e", "lat": 38.934682}, {"fusion_lon": 0.0, "bike_id": "6f56650403492fb25df5dc0b19524b7f", "lon": -77.0401, "type": "electric_scooter", "is_disabled": 0, "rental_uris": {"ios": "https://dc.lft.to/lastmile_qr_scan", "android": "https://dc.lft.to/lastmile_qr_scan"}, "is_reserved": 0, "fusion_lat": 0.0, "name": "6f56650403492fb25df5dc0b19524b7f", "lat": 38.899316}, {"fusion_lon": 0.0, "bike_id": "7bb958583526b1a6eacddefb08fed3fd", "lon": -77.03253266666667, "type": "electric_scooter", "is_disabled": 0, "rental_uris": {"ios": "https://dc.lft.to/lastmile_qr_scan", "android": "https://dc.lft.to/lastmile_qr_scan"}, "is_reserved": 0, "fusion_lat": 0.0, "name": "7bb958583526b1a6eacddefb08fed3fd", "lat": 38.92940383333333}, {"fusion_lon": 0.0, "bike_id": "4547e476caec69bbbfcec252e0239d0a", "lon": -77.04037283333334, "type": "electric_scooter", "is_disabled": 0, "rental_uris": {"ios": "https://dc.lft.to/lastmile_qr_scan", "android": "https://dc.lft.to/lastmile_qr_scan"}, "is_reserved": 0, "fusion_lat": 0.0, "name": "4547e476caec69bbbfcec252e0239d0a", "lat": 38.92463466666667}, {"fusion_lon": 0.0, "bike_id": "543b164c21096a13a5076098507ce7af", "lon": -77.0446225, "type": "electric_scooter", "is_disabled": 0, "rental_uris": {"ios": "https://dc.lft.to/lastmile_qr_scan", "android": "https://dc.lft.to/lastmile_qr_scan"}, "is_reserved": 0, "fusion_lat": 0.0, "name": "543b164c21096a13a5076098507ce7af", "lat": 38.89615583333333}, {"fusion_lon": 0.0, "bike_id": "dbefcaaec1de1f00296ff908b3cb818f", "lon": -77.00343216666667, "type": "electric_scooter", "is_disabled": 0, "rental_uris": {"ios": "https://dc.lft.to/lastmile_qr_scan", "android": "https://dc.lft.to/lastmile_qr_scan"}, "is_reserved": 0, "fusion_lat": 0.0, "name": "dbefcaaec1de1f00296ff908b3cb818f", "lat": 38.89532766666667}, {"fusion_lon": 0.0, "bike_id": "ef196f46ff16b34cb659b5afcd070c7e", "lon": -77.031586, "type": "electric_scooter", "is_disabled": 0, "rental_uris": {"ios": "https://dc.lft.to/lastmile_qr_scan", "android": "https://dc.lft.to/lastmile_qr_scan"}, "is_reserved": 0, "fusion_lat": 0.0, "name": "ef196f46ff16b34cb659b5afcd070c7e", "lat": 38.91692166666667}, {"fusion_lon": 0.0, "bike_id": "189dbd4a1d634e901dd0a11cf06b5b6d", "lon": -77.024062, "type": "electric_scooter", "is_disabled": 0, "rental_uris": {"ios": "https://dc.lft.to/lastmile_qr_scan", "android": "https://dc.lft.to/lastmile_qr_scan"}, "is_reserved": 0, "fusion_lat": 0.0, "name": "189dbd4a1d634e901dd0a11cf06b5b6d", "lat": 38.919918}, {"fusion_lon": 0.0, "bike_id": "b9bf6d8c1c854f3493c36d2fe4617146", "lon": -77.021845, "type": "electric_scooter", "is_disabled": 0, "rental_uris": {"ios": "https://dc.lft.to/lastmile_qr_scan", "android": "https://dc.lft.to/lastmile_qr_scan"}, "is_reserved": 0, "fusion_lat": 0.0, "name": "b9bf6d8c1c854f3493c36d2fe4617146", "lat": 38.902182833333335}, {"fusion_lon": 0.0, "bike_id": "7a928f1c765e4ded5b19982be90107f9", "lon": -76.99640833333333, "type": "electric_scooter", "is_disabled": 0, "rental_uris": {"ios": "https://dc.lft.to/lastmile_qr_scan", "android": "https://dc.lft.to/lastmile_qr_scan"}, "is_reserved": 0, "fusion_lat": 0.0, "name": "7a928f1c765e4ded5b19982be90107f9", "lat": 38.925321833333335}, {"fusion_lon": 0.0, "bike_id": "cd8dc1632117ae499e3b73e6ba24963b", "lon": -77.02869516666667, "type": "electric_scooter", "is_disabled": 0, "rental_uris": {"ios": "https://dc.lft.to/lastmile_qr_scan", "android": "https://dc.lft.to/lastmile_qr_scan"}, "is_reserved": 0, "fusion_lat": 0.0, "name": "cd8dc1632117ae499e3b73e6ba24963b", "lat": 38.93278}, {"fusion_lon": 0.0, "bike_id": "54bb6eb1c1789119a79276fee84c0998", "lon": -76.98844933333334, "type": "electric_bike", "is_disabled": 0, "rental_uris": {"ios": "https://dc.lft.to/lastmile_qr_scan", "android": "https://dc.lft.to/lastmile_qr_scan"}, "is_reserved": 0, "fusion_lat": 0.0, "name": "54bb6eb1c1789119a79276fee84c0998", "lat": 38.8428195}, {"fusion_lon": 0.0, "bike_id": "d76943f8552acba940e32abc99ed2a8a", "lon": -77.002296, "type": "electric_scooter", "is_disabled": 0, "rental_uris": {"ios": "https://dc.lft.to/lastmile_qr_scan", "android": "https://dc.lft.to/lastmile_qr_scan"}, "is_reserved": 0, "fusion_lat": 0.0, "name": "d76943f8552acba940e32abc99ed2a8a", "lat": 38.95748316666667}, {"fusion_lon": 0.0, "bike_id": "f1866f9e3b5f197078f874f80c722ca1", "lon": -77.01557066666666, "type": "electric_scooter", "is_disabled": 0, "rental_uris": {"ios": "https://dc.lft.to/lastmile_qr_scan", "android": "https://dc.lft.to/lastmile_qr_scan"}, "is_reserved": 0, "fusion_lat": 0.0, "name": "f1866f9e3b5f197078f874f80c722ca1", "lat": 38.914651}, {"fusion_lon": 0.0, "bike_id": "8c7a1c9e5f8458b794b56e1301f834b8", "lon": -77.02693716666667, "type": "electric_scooter", "is_disabled": 0, "rental_uris": {"ios": "https://dc.lft.to/lastmile_qr_scan", "android": "https://dc.lft.to/lastmile_qr_scan"}, "is_reserved": 0, "fusion_lat": 0.0, "name": "8c7a1c9e5f8458b794b56e1301f834b8", "lat": 38.908512333333334}, {"fusion_lon": 0.0, "bike_id": "260e993eee4f175ab722cbe9e5494a31", "lon": -77.0017065, "type": "electric_scooter", "is_disabled": 0, "rental_uris": {"ios": "https://dc.lft.to/lastmile_qr_scan", "android": "https://dc.lft.to/lastmile_qr_scan"}, "is_reserved": 0, "fusion_lat": 0.0, "name": "260e993eee4f175ab722cbe9e5494a31", "lat": 38.873962666666664}, {"fusion_lon": 0.0, "bike_id": "d37d51031b023133aef7b1183910b9a6", "lon": -76.95705433333333, "type": "electric_bike", "is_disabled": 0, "rental_uris": {"ios": "https://dc.lft.to/lastmile_qr_scan", "android": "https://dc.lft.to/lastmile_qr_scan"}, "is_reserved": 0, "fusion_lat": 0.0, "name": "d37d51031b023133aef7b1183910b9a6", "lat": 38.850905833333336}, {"fusion_lon": 0.0, "bike_id": "af344e413f816933d224bf4a3f894f64", "lon": -77.012293, "type": "electric_scooter", "is_disabled": 0, "rental_uris": {"ios": "https://dc.lft.to/lastmile_qr_scan", "android": "https://dc.lft.to/lastmile_qr_scan"}, "is_reserved": 0, "fusion_lat": 0.0, "name": "af344e413f816933d224bf4a3f894f64", "lat": 38.89347766666667}, {"fusion_lon": 0.0, "bike_id": "55a611c7a2d2e1f9e6b468ff912ce5e4", "lon": -77.01734116666667, "type": "electric_scooter", "is_disabled": 0, "rental_uris": {"ios": "https://dc.lft.to/lastmile_qr_scan", "android": "https://dc.lft.to/lastmile_qr_scan"}, "is_reserved": 0, "fusion_lat": 0.0, "name": "55a611c7a2d2e1f9e6b468ff912ce5e4", "lat": 38.943179666666666}, {"fusion_lon": 0.0, "bike_id": "b7eba3eb16a88c1cbf5c671f19fdc66b", "lon": -77.01651366666667, "type": "electric_scooter", "is_disabled": 0, "rental_uris": {"ios": "https://dc.lft.to/lastmile_qr_scan", "android": "https://dc.lft.to/lastmile_qr_scan"}, "is_reserved": 0, "fusion_lat": 0.0, "name": "b7eba3eb16a88c1cbf5c671f19fdc66b", "lat": 38.89959066666667}, {"fusion_lon": 0.0, "bike_id": "6eff57f2408edf3efc0d689431163a6a", "lon": -77.01949766666667, "type": "electric_scooter", "is_disabled": 0, "rental_uris": {"ios": "https://dc.lft.to/lastmile_qr_scan", "android": "https://dc.lft.to/lastmile_qr_scan"}, "is_reserved": 0, "fusion_lat": 0.0, "name": "6eff57f2408edf3efc0d689431163a6a", "lat": 38.9242}, {"fusion_lon": 0.0, "bike_id": "eab1acff8b32a28461a3f6edf6f8ab43", "lon": -77.01959016666666, "type": "electric_scooter", "is_disabled": 0, "rental_uris": {"ios": "https://dc.lft.to/lastmile_qr_scan", "android": "https://dc.lft.to/lastmile_qr_scan"}, "is_reserved": 0, "fusion_lat": 0.0, "name": "eab1acff8b32a28461a3f6edf6f8ab43", "lat": 38.92325483333333}, {"fusion_lon": 0.0, "bike_id": "2b620147fd2d88be8a2c57470592d05f", "lon": -77.05153966666667, "type": "electric_scooter", "is_disabled": 0, "rental_uris": {"ios": "https://dc.lft.to/lastmile_qr_scan", "android": "https://dc.lft.to/lastmile_qr_scan"}, "is_reserved": 0, "fusion_lat": 0.0, "name": "2b620147fd2d88be8a2c57470592d05f", "lat": 38.90626733333333}, {"fusion_lon": 0.0, "bike_id": "9e3b35ae4cb9870d4588a685be3f9ed6", "lon": -77.02839166666666, "type": "electric_bike", "is_disabled": 0, "rental_uris": {"ios": "https://dc.lft.to/lastmile_qr_scan", "android": "https://dc.lft.to/lastmile_qr_scan"}, "is_reserved": 0, "fusion_lat": 0.0, "name": "9e3b35ae4cb9870d4588a685be3f9ed6", "lat": 38.942639166666666}, {"fusion_lon": 0.0, "bike_id": "2e1c4484d92cadd1d84833921b3f4d58", "lon": -77.02003733333333, "type": "electric_scooter", "is_disabled": 0, "rental_uris": {"ios": "https://dc.lft.to/lastmile_qr_scan", "android": "https://dc.lft.to/lastmile_qr_scan"}, "is_reserved": 0, "fusion_lat": 0.0, "name": "2e1c4484d92cadd1d84833921b3f4d58", "lat": 38.9644695}, {"fusion_lon": 0.0, "bike_id": "ad1fdf3f8619dfdd5f15508e98e05f84", "lon": -77.02758766666666, "type": "electric_scooter", "is_disabled": 0, "rental_uris": {"ios": "https://dc.lft.to/lastmile_qr_scan", "android": "https://dc.lft.to/lastmile_qr_scan"}, "is_reserved": 0, "fusion_lat": 0.0, "name": "ad1fdf3f8619dfdd5f15508e98e05f84", "lat": 38.905711333333336}, {"fusion_lon": 0.0, "bike_id": "f84070d514b71e8d9f64bd5982738ec8", "lon": -77.03462266666666, "type": "electric_scooter", "is_disabled": 0, "rental_uris": {"ios": "https://dc.lft.to/lastmile_qr_scan", "android": "https://dc.lft.to/lastmile_qr_scan"}, "is_reserved": 0, "fusion_lat": 0.0, "name": "f84070d514b71e8d9f64bd5982738ec8", "lat": 38.921589166666664}, {"fusion_lon": 0.0, "bike_id": "dd10569efea2731cf76e1eb2c4b6804e", "lon": -77.04734416666666, "type": "electric_scooter", "is_disabled": 0, "rental_uris": {"ios": "https://dc.lft.to/lastmile_qr_scan", "android": "https://dc.lft.to/lastmile_qr_scan"}, "is_reserved": 0, "fusion_lat": 0.0, "name": "dd10569efea2731cf76e1eb2c4b6804e", "lat": 38.901827833333336}, {"fusion_lon": 0.0, "bike_id": "9097c4f27649683d988073963333e291", "lon": -76.98552016666666, "type": "electric_scooter", "is_disabled": 0, "rental_uris": {"ios": "https://dc.lft.to/lastmile_qr_scan", "android": "https://dc.lft.to/lastmile_qr_scan"}, "is_reserved": 0, "fusion_lat": 0.0, "name": "9097c4f27649683d988073963333e291", "lat": 38.899776333333335}, {"fusion_lon": 0.0, "bike_id": "c75cd4c52b1e3bfd740a5892dc09fcbb", "lon": -76.93752283333333, "type": "electric_scooter", "is_disabled": 0, "rental_uris": {"ios": "https://dc.lft.to/lastmile_qr_scan", "android": "https://dc.lft.to/lastmile_qr_scan"}, "is_reserved": 0, "fusion_lat": 0.0, "name": "c75cd4c52b1e3bfd740a5892dc09fcbb", "lat": 38.890089}, {"fusion_lon": 0.0, "bike_id": "f5c35e5e16e727a16bf31d6d3f40ef53", "lon": -77.02585933333333, "type": "electric_scooter", "is_disabled": 0, "rental_uris": {"ios": "https://dc.lft.to/lastmile_qr_scan", "android": "https://dc.lft.to/lastmile_qr_scan"}, "is_reserved": 0, "fusion_lat": 0.0, "name": "f5c35e5e16e727a16bf31d6d3f40ef53", "lat": 38.90443916666667}, {"fusion_lon": 0.0, "bike_id": "cf544c6cbc44e2e82d7a3c02057ad3e2", "lon": -77.04678216666667, "type": "electric_scooter", "is_disabled": 0, "rental_uris": {"ios": "https://dc.lft.to/lastmile_qr_scan", "android": "https://dc.lft.to/lastmile_qr_scan"}, "is_reserved": 0, "fusion_lat": 0.0, "name": "cf544c6cbc44e2e82d7a3c02057ad3e2", "lat": 38.895552333333335}, {"fusion_lon": 0.0, "bike_id": "0c514b7df4dba5d3992ef7a91e06ac99", "lon": -77.01232333333333, "type": "electric_scooter", "is_disabled": 0, "rental_uris": {"ios": "https://dc.lft.to/lastmile_qr_scan", "android": "https://dc.lft.to/lastmile_qr_scan"}, "is_reserved": 0, "fusion_lat": 0.0, "name": "0c514b7df4dba5d3992ef7a91e06ac99", "lat": 38.916934166666664}, {"fusion_lon": 0.0, "bike_id": "da303792840be0f5a70464d72d6685ac", "lon": -77.02665783333333, "type": "electric_bike", "is_disabled": 0, "rental_uris": {"ios": "https://dc.lft.to/lastmile_qr_scan", "android": "https://dc.lft.to/lastmile_qr_scan"}, "is_reserved": 0, "fusion_lat": 0.0, "name": "da303792840be0f5a70464d72d6685ac", "lat": 38.9943675}, {"fusion_lon": 0.0, "bike_id": "3a827a5df51bea55991edfcc37cee1cb", "lon": -77.07868483333333, "type": "electric_scooter", "is_disabled": 0, "rental_uris": {"ios": "https://dc.lft.to/lastmile_qr_scan", "android": "https://dc.lft.to/lastmile_qr_scan"}, "is_reserved": 0, "fusion_lat": 0.0, "name": "3a827a5df51bea55991edfcc37cee1cb", "lat": 38.89308883333333}, {"fusion_lon": 0.0, "bike_id": "c8c15c273dd8a69fb941e1be5f2cfbc7", "lon": -77.01856183333334, "type": "electric_scooter", "is_disabled": 0, "rental_uris": {"ios": "https://dc.lft.to/lastmile_qr_scan", "android": "https://dc.lft.to/lastmile_qr_scan"}, "is_reserved": 0, "fusion_lat": 0.0, "name": "c8c15c273dd8a69fb941e1be5f2cfbc7", "lat": 38.9056945}, {"fusion_lon": 0.0, "bike_id": "5ab8e03dc85f317ca7d660797cd5b4f1", "lon": -77.0384895, "type": "electric_scooter", "is_disabled": 0, "rental_uris": {"ios": "https://dc.lft.to/lastmile_qr_scan", "android": "https://dc.lft.to/lastmile_qr_scan"}, "is_reserved": 0, "fusion_lat": 0.0, "name": "5ab8e03dc85f317ca7d660797cd5b4f1", "lat": 38.90787433333333}, {"fusion_lon": 0.0, "bike_id": "cdf695677881f8c21334a34537d916b1", "lon": -77.036268, "type": "electric_scooter", "is_disabled": 0, "rental_uris": {"ios": "https://dc.lft.to/lastmile_qr_scan", "android": "https://dc.lft.to/lastmile_qr_scan"}, "is_reserved": 0, "fusion_lat": 0.0, "name": "cdf695677881f8c21334a34537d916b1", "lat": 38.905726}, {"fusion_lon": 0.0, "bike_id": "57dd3830f480ea8f2f0f559185f07081", "lon": -77.09962366666667, "type": "electric_scooter", "is_disabled": 0, "rental_uris": {"ios": "https://dc.lft.to/lastmile_qr_scan", "android": "https://dc.lft.to/lastmile_qr_scan"}, "is_reserved": 0, "fusion_lat": 0.0, "name": "57dd3830f480ea8f2f0f559185f07081", "lat": 38.9497545}, {"fusion_lon": 0.0, "bike_id": "224d526df81e83a22396293e0fbf4aba", "lon": -77.040046, "type": "electric_scooter", "is_disabled": 0, "rental_uris": {"ios": "https://dc.lft.to/lastmile_qr_scan", "android": "https://dc.lft.to/lastmile_qr_scan"}, "is_reserved": 0, "fusion_lat": 0.0, "name": "224d526df81e83a22396293e0fbf4aba", "lat": 38.93421383333333}, {"fusion_lon": 0.0, "bike_id": "cdb8fce97a8a6a19fa86069f2c8acc72", "lon": -77.0448845, "type": "electric_scooter", "is_disabled": 0, "rental_uris": {"ios": "https://dc.lft.to/lastmile_qr_scan", "android": "https://dc.lft.to/lastmile_qr_scan"}, "is_reserved": 0, "fusion_lat": 0.0, "name": "cdb8fce97a8a6a19fa86069f2c8acc72", "lat": 38.892420333333334}, {"fusion_lon": 0.0, "bike_id": "60591fcd552f08d612f2946b1db2dbd1", "lon": -77.08068083333333, "type": "electric_bike", "is_disabled": 0, "rental_uris": {"ios": "https://dc.lft.to/lastmile_qr_scan", "android": "https://dc.lft.to/lastmile_qr_scan"}, "is_reserved": 0, "fusion_lat": 0.0, "name": "60591fcd552f08d612f2946b1db2dbd1", "lat": 39.052556833333334}, {"fusion_lon": 0.0, "bike_id": "5e63e2d47eca3eb133248e2c03b252f3", "lon": -76.9852265, "type": "electric_bike", "is_disabled": 0, "rental_uris": {"ios": "https://dc.lft.to/lastmile_qr_scan", "android": "https://dc.lft.to/lastmile_qr_scan"}, "is_reserved": 0, "fusion_lat": 0.0, "name": "5e63e2d47eca3eb133248e2c03b252f3", "lat": 38.86896566666667}, {"fusion_lon": 0.0, "bike_id": "021ff20f92aa3dbd77226e85487bb6c4", "lon": -77.04180233333334, "type": "electric_scooter", "is_disabled": 0, "rental_uris": {"ios": "https://dc.lft.to/lastmile_qr_scan", "android": "https://dc.lft.to/lastmile_qr_scan"}, "is_reserved": 0, "fusion_lat": 0.0, "name": "021ff20f92aa3dbd77226e85487bb6c4", "lat": 38.90148516666667}, {"fusion_lon": 0.0, "bike_id": "1db33208c31ae49e926f91c0162d9527", "lon": -77.0107985, "type": "electric_scooter", "is_disabled": 0, "rental_uris": {"ios": "https://dc.lft.to/lastmile_qr_scan", "android": "https://dc.lft.to/lastmile_qr_scan"}, "is_reserved": 0, "fusion_lat": 0.0, "name": "1db33208c31ae49e926f91c0162d9527", "lat": 38.8950265}, {"fusion_lon": 0.0, "bike_id": "55f9b2ea1b24a5993cfaba653f4b2b0a", "lon": -77.0759045, "type": "electric_scooter", "is_disabled": 0, "rental_uris": {"ios": "https://dc.lft.to/lastmile_qr_scan", "android": "https://dc.lft.to/lastmile_qr_scan"}, "is_reserved": 0, "fusion_lat": 0.0, "name": "55f9b2ea1b24a5993cfaba653f4b2b0a", "lat": 38.91207133333333}, {"fusion_lon": 0.0, "bike_id": "0f896fae3092df9b7513f07e8b22054e", "lon": -77.02060283333333, "type": "electric_scooter", "is_disabled": 0, "rental_uris": {"ios": "https://dc.lft.to/lastmile_qr_scan", "android": "https://dc.lft.to/lastmile_qr_scan"}, "is_reserved": 0, "fusion_lat": 0.0, "name": "0f896fae3092df9b7513f07e8b22054e", "lat": 38.91569}, {"fusion_lon": 0.0, "bike_id": "ac84bf5408e1e71fda97276af03372fc", "lon": -77.0317925, "type": "electric_scooter", "is_disabled": 0, "rental_uris": {"ios": "https://dc.lft.to/lastmile_qr_scan", "android": "https://dc.lft.to/lastmile_qr_scan"}, "is_reserved": 0, "fusion_lat": 0.0, "name": "ac84bf5408e1e71fda97276af03372fc", "lat": 38.901293333333335}, {"fusion_lon": 0.0, "bike_id": "eb92ff784eabc03c9c3102581dc38cb5", "lon": -77.03867416666667, "type": "electric_scooter", "is_disabled": 0, "rental_uris": {"ios": "https://dc.lft.to/lastmile_qr_scan", "android": "https://dc.lft.to/lastmile_qr_scan"}, "is_reserved": 0, "fusion_lat": 0.0, "name": "eb92ff784eabc03c9c3102581dc38cb5", "lat": 38.90972766666667}, {"fusion_lon": 0.0, "bike_id": "7d56d28674ac7ea4fdc16181eaaf4c2a", "lon": -77.020942, "type": "electric_scooter", "is_disabled": 0, "rental_uris": {"ios": "https://dc.lft.to/lastmile_qr_scan", "android": "https://dc.lft.to/lastmile_qr_scan"}, "is_reserved": 0, "fusion_lat": 0.0, "name": "7d56d28674ac7ea4fdc16181eaaf4c2a", "lat": 38.902341166666666}, {"fusion_lon": 0.0, "bike_id": "815b8a10ea34db13a02b2b6476fd0c1e", "lon": -76.967065, "type": "electric_scooter", "is_disabled": 0, "rental_uris": {"ios": "https://dc.lft.to/lastmile_qr_scan", "android": "https://dc.lft.to/lastmile_qr_scan"}, "is_reserved": 0, "fusion_lat": 0.0, "name": "815b8a10ea34db13a02b2b6476fd0c1e", "lat": 38.86012516666667}, {"fusion_lon": 0.0, "bike_id": "35156178ae7082648222f23654be6d93", "lon": -77.03184066666667, "type": "electric_scooter", "is_disabled": 0, "rental_uris": {"ios": "https://dc.lft.to/lastmile_qr_scan", "android": "https://dc.lft.to/lastmile_qr_scan"}, "is_reserved": 0, "fusion_lat": 0.0, "name": "35156178ae7082648222f23654be6d93", "lat": 38.90817533333333}, {"fusion_lon": 0.0, "bike_id": "de71a8d7b0d2057effba7205043b35c3", "lon": -77.04543366666667, "type": "electric_scooter", "is_disabled": 0, "rental_uris": {"ios": "https://dc.lft.to/lastmile_qr_scan", "android": "https://dc.lft.to/lastmile_qr_scan"}, "is_reserved": 0, "fusion_lat": 0.0, "name": "de71a8d7b0d2057effba7205043b35c3", "lat": 38.91123}, {"fusion_lon": 0.0, "bike_id": "03cf432991da4529ce4df8efe1b1e389", "lon": -77.04987116666666, "type": "electric_scooter", "is_disabled": 0, "rental_uris": {"ios": "https://dc.lft.to/lastmile_qr_scan", "android": "https://dc.lft.to/lastmile_qr_scan"}, "is_reserved": 0, "fusion_lat": 0.0, "name": "03cf432991da4529ce4df8efe1b1e389", "lat": 38.905273333333334}, {"fusion_lon": 0.0, "bike_id": "a26214310f0c92d05fdad3f00208acaf", "lon": -77.05341616666666, "type": "electric_scooter", "is_disabled": 0, "rental_uris": {"ios": "https://dc.lft.to/lastmile_qr_scan", "android": "https://dc.lft.to/lastmile_qr_scan"}, "is_reserved": 0, "fusion_lat": 0.0, "name": "a26214310f0c92d05fdad3f00208acaf", "lat": 38.90412383333334}, {"fusion_lon": 0.0, "bike_id": "d723bf5eae6c2377f9bfc03ced608e7e", "lon": -77.0239915, "type": "electric_scooter", "is_disabled": 0, "rental_uris": {"ios": "https://dc.lft.to/lastmile_qr_scan", "android": "https://dc.lft.to/lastmile_qr_scan"}, "is_reserved": 0, "fusion_lat": 0.0, "name": "d723bf5eae6c2377f9bfc03ced608e7e", "lat": 38.89738533333333}, {"fusion_lon": 0.0, "bike_id": "3e6b769aa3866cf7f54e5ab06e64b96a", "lon": -76.96715833333333, "type": "electric_scooter", "is_disabled": 0, "rental_uris": {"ios": "https://dc.lft.to/lastmile_qr_scan", "android": "https://dc.lft.to/lastmile_qr_scan"}, "is_reserved": 0, "fusion_lat": 0.0, "name": "3e6b769aa3866cf7f54e5ab06e64b96a", "lat": 38.86068083333333}, {"fusion_lon": 0.0, "bike_id": "2b6a15b6ce158ea48c9430f26fd0954f", "lon": -77.04011266666667, "type": "electric_scooter", "is_disabled": 0, "rental_uris": {"ios": "https://dc.lft.to/lastmile_qr_scan", "android": "https://dc.lft.to/lastmile_qr_scan"}, "is_reserved": 0, "fusion_lat": 0.0, "name": "2b6a15b6ce158ea48c9430f26fd0954f", "lat": 38.90843}, {"fusion_lon": 0.0, "bike_id": "ee58b5e9bc69760d87cbccfc6927ac29", "lon": -77.0354295, "type": "electric_scooter", "is_disabled": 0, "rental_uris": {"ios": "https://dc.lft.to/lastmile_qr_scan", "android": "https://dc.lft.to/lastmile_qr_scan"}, "is_reserved": 0, "fusion_lat": 0.0, "name": "ee58b5e9bc69760d87cbccfc6927ac29", "lat": 38.92346083333333}, {"fusion_lon": 0.0, "bike_id": "6e2facb2f415da8aa656ddd68a11bdf6", "lon": -77.011541, "type": "electric_scooter", "is_disabled": 0, "rental_uris": {"ios": "https://dc.lft.to/lastmile_qr_scan", "android": "https://dc.lft.to/lastmile_qr_scan"}, "is_reserved": 0, "fusion_lat": 0.0, "name": "6e2facb2f415da8aa656ddd68a11bdf6", "lat": 38.91611983333333}, {"fusion_lon": 0.0, "bike_id": "1279e11e8adf69e5f50f0d04e3f917d2", "lon": -77.01832366666666, "type": "electric_scooter", "is_disabled": 0, "rental_uris": {"ios": "https://dc.lft.to/lastmile_qr_scan", "android": "https://dc.lft.to/lastmile_qr_scan"}, "is_reserved": 0, "fusion_lat": 0.0, "name": "1279e11e8adf69e5f50f0d04e3f917d2", "lat": 38.92146816666666}, {"fusion_lon": 0.0, "bike_id": "c3312fe345a8f804f5d5123db2199a6f", "lon": -77.04303383333334, "type": "electric_bike", "is_disabled": 0, "rental_uris": {"ios": "https://dc.lft.to/lastmile_qr_scan", "android": "https://dc.lft.to/lastmile_qr_scan"}, "is_reserved": 0, "fusion_lat": 0.0, "name": "c3312fe345a8f804f5d5123db2199a6f", "lat": 39.03434883333333}, {"fusion_lon": 0.0, "bike_id": "7fb25074b48630d30129368768945f18", "lon": -77.04864866666667, "type": "electric_scooter", "is_disabled": 0, "rental_uris": {"ios": "https://dc.lft.to/lastmile_qr_scan", "android": "https://dc.lft.to/lastmile_qr_scan"}, "is_reserved": 0, "fusion_lat": 0.0, "name": "7fb25074b48630d30129368768945f18", "lat": 38.90379983333333}, {"fusion_lon": 0.0, "bike_id": "9dc747199e262de7daf9f0ba68f85333", "lon": -77.01768733333333, "type": "electric_scooter", "is_disabled": 0, "rental_uris": {"ios": "https://dc.lft.to/lastmile_qr_scan", "android": "https://dc.lft.to/lastmile_qr_scan"}, "is_reserved": 0, "fusion_lat": 0.0, "name": "9dc747199e262de7daf9f0ba68f85333", "lat": 38.87726166666667}, {"fusion_lon": 0.0, "bike_id": "b7a3912679a7c86fa5edc431c89ef40c", "lon": -77.01798783333334, "type": "electric_scooter", "is_disabled": 0, "rental_uris": {"ios": "https://dc.lft.to/lastmile_qr_scan", "android": "https://dc.lft.to/lastmile_qr_scan"}, "is_reserved": 0, "fusion_lat": 0.0, "name": "b7a3912679a7c86fa5edc431c89ef40c", "lat": 38.90643633333333}, {"fusion_lon": 0.0, "bike_id": "0212f665ed7a01750e65000ef04fc9d3", "lon": -77.04494933333334, "type": "electric_scooter", "is_disabled": 0, "rental_uris": {"ios": "https://dc.lft.to/lastmile_qr_scan", "android": "https://dc.lft.to/lastmile_qr_scan"}, "is_reserved": 0, "fusion_lat": 0.0, "name": "0212f665ed7a01750e65000ef04fc9d3", "lat": 38.91516}, {"fusion_lon": 0.0, "bike_id": "7efe2cea85359c194ab60bd4c6169c7d", "lon": -77.03399366666666, "type": "electric_scooter", "is_disabled": 0, "rental_uris": {"ios": "https://dc.lft.to/lastmile_qr_scan", "android": "https://dc.lft.to/lastmile_qr_scan"}, "is_reserved": 0, "fusion_lat": 0.0, "name": "7efe2cea85359c194ab60bd4c6169c7d", "lat": 38.92653716666667}, {"fusion_lon": 0.0, "bike_id": "d8e58f70f0ac21a21074f7960a32b22b", "lon": -77.0171125, "type": "electric_scooter", "is_disabled": 0, "rental_uris": {"ios": "https://dc.lft.to/lastmile_qr_scan", "android": "https://dc.lft.to/lastmile_qr_scan"}, "is_reserved": 0, "fusion_lat": 0.0, "name": "d8e58f70f0ac21a21074f7960a32b22b", "lat": 38.92055166666667}, {"fusion_lon": 0.0, "bike_id": "805a34a2204a1445cae529832ed243e6", "lon": -76.9846225, "type": "electric_scooter", "is_disabled": 0, "rental_uris": {"ios": "https://dc.lft.to/lastmile_qr_scan", "android": "https://dc.lft.to/lastmile_qr_scan"}, "is_reserved": 0, "fusion_lat": 0.0, "name": "805a34a2204a1445cae529832ed243e6", "lat": 38.8977595}, {"fusion_lon": 0.0, "bike_id": "61e5ee0828f8bda51e7bb530a4ea414d", "lon": -77.05314216666666, "type": "electric_scooter", "is_disabled": 0, "rental_uris": {"ios": "https://dc.lft.to/lastmile_qr_scan", "android": "https://dc.lft.to/lastmile_qr_scan"}, "is_reserved": 0, "fusion_lat": 0.0, "name": "61e5ee0828f8bda51e7bb530a4ea414d", "lat": 38.90268533333333}, {"fusion_lon": 0.0, "bike_id": "f524187eca566b03cb50b794e8df3d1b", "lon": -77.02132033333334, "type": "electric_scooter", "is_disabled": 0, "rental_uris": {"ios": "https://dc.lft.to/lastmile_qr_scan", "android": "https://dc.lft.to/lastmile_qr_scan"}, "is_reserved": 0, "fusion_lat": 0.0, "name": "f524187eca566b03cb50b794e8df3d1b", "lat": 38.931194833333336}, {"fusion_lon": 0.0, "bike_id": "0f155060463c30b9e911d13da2cb0696", "lon": -77.03784716666667, "type": "electric_scooter", "is_disabled": 0, "rental_uris": {"ios": "https://dc.lft.to/lastmile_qr_scan", "android": "https://dc.lft.to/lastmile_qr_scan"}, "is_reserved": 0, "fusion_lat": 0.0, "name": "0f155060463c30b9e911d13da2cb0696", "lat": 38.9219395}, {"fusion_lon": 0.0, "bike_id": "b1a61470f7b48e6451304787e7f2ca0d", "lon": -77.0415775, "type": "electric_scooter", "is_disabled": 0, "rental_uris": {"ios": "https://dc.lft.to/lastmile_qr_scan", "android": "https://dc.lft.to/lastmile_qr_scan"}, "is_reserved": 0, "fusion_lat": 0.0, "name": "b1a61470f7b48e6451304787e7f2ca0d", "lat": 38.9191575}, {"fusion_lon": 0.0, "bike_id": "e769127e77e54bfffaf4e8e64561aff5", "lon": -77.01975366666667, "type": "electric_scooter", "is_disabled": 0, "rental_uris": {"ios": "https://dc.lft.to/lastmile_qr_scan", "android": "https://dc.lft.to/lastmile_qr_scan"}, "is_reserved": 0, "fusion_lat": 0.0, "name": "e769127e77e54bfffaf4e8e64561aff5", "lat": 38.87632083333333}, {"fusion_lon": 0.0, "bike_id": "969a6c2f9e2de3d0cb095030c734a9dd", "lon": -77.02621666666667, "type": "electric_scooter", "is_disabled": 0, "rental_uris": {"ios": "https://dc.lft.to/lastmile_qr_scan", "android": "https://dc.lft.to/lastmile_qr_scan"}, "is_reserved": 0, "fusion_lat": 0.0, "name": "969a6c2f9e2de3d0cb095030c734a9dd", "lat": 38.9277635}, {"fusion_lon": 0.0, "bike_id": "bc17f93776aedbc4c8e32627a9a2bc0a", "lon": -77.03289666666667, "type": "electric_scooter", "is_disabled": 0, "rental_uris": {"ios": "https://dc.lft.to/lastmile_qr_scan", "android": "https://dc.lft.to/lastmile_qr_scan"}, "is_reserved": 0, "fusion_lat": 0.0, "name": "bc17f93776aedbc4c8e32627a9a2bc0a", "lat": 38.928954}, {"fusion_lon": 0.0, "bike_id": "e99dc626cf643df83c93a7ee4a8a6764", "lon": -77.02707333333333, "type": "electric_scooter", "is_disabled": 0, "rental_uris": {"ios": "https://dc.lft.to/lastmile_qr_scan", "android": "https://dc.lft.to/lastmile_qr_scan"}, "is_reserved": 0, "fusion_lat": 0.0, "name": "e99dc626cf643df83c93a7ee4a8a6764", "lat": 38.9179425}, {"fusion_lon": 0.0, "bike_id": "e10872434e71bbf6f712b25af6aa32a3", "lon": -77.00471016666667, "type": "electric_bike", "is_disabled": 0, "rental_uris": {"ios": "https://dc.lft.to/lastmile_qr_scan", "android": "https://dc.lft.to/lastmile_qr_scan"}, "is_reserved": 0, "fusion_lat": 0.0, "name": "e10872434e71bbf6f712b25af6aa32a3", "lat": 38.914398166666665}, {"fusion_lon": 0.0, "bike_id": "367acf30510700c93aabfa83e400c988", "lon": -77.046923, "type": "electric_scooter", "is_disabled": 0, "rental_uris": {"ios": "https://dc.lft.to/lastmile_qr_scan", "android": "https://dc.lft.to/lastmile_qr_scan"}, "is_reserved": 0, "fusion_lat": 0.0, "name": "367acf30510700c93aabfa83e400c988", "lat": 38.905705833333336}, {"fusion_lon": 0.0, "bike_id": "4ae179aee6807febfbbabb4c0011d3c2", "lon": -77.027862, "type": "electric_scooter", "is_disabled": 0, "rental_uris": {"ios": "https://dc.lft.to/lastmile_qr_scan", "android": "https://dc.lft.to/lastmile_qr_scan"}, "is_reserved": 0, "fusion_lat": 0.0, "name": "4ae179aee6807febfbbabb4c0011d3c2", "lat": 38.89226716666667}, {"fusion_lon": 0.0, "bike_id": "2a659fe3b01cda9d4d148fa5e7cbed29", "lon": -77.0259355, "type": "electric_scooter", "is_disabled": 0, "rental_uris": {"ios": "https://dc.lft.to/lastmile_qr_scan", "android": "https://dc.lft.to/lastmile_qr_scan"}, "is_reserved": 0, "fusion_lat": 0.0, "name": "2a659fe3b01cda9d4d148fa5e7cbed29", "lat": 38.942041}, {"fusion_lon": 0.0, "bike_id": "6abf1fe1ac1bc06fc6b308ee86bb4017", "lon": -77.07312633333333, "type": "electric_scooter", "is_disabled": 0, "rental_uris": {"ios": "https://dc.lft.to/lastmile_qr_scan", "android": "https://dc.lft.to/lastmile_qr_scan"}, "is_reserved": 0, "fusion_lat": 0.0, "name": "6abf1fe1ac1bc06fc6b308ee86bb4017", "lat": 38.922413}, {"fusion_lon": 0.0, "bike_id": "5d3761ee456a6f08069fd11ef96c5e4f", "lon": -77.0238215, "type": "electric_scooter", "is_disabled": 0, "rental_uris": {"ios": "https://dc.lft.to/lastmile_qr_scan", "android": "https://dc.lft.to/lastmile_qr_scan"}, "is_reserved": 0, "fusion_lat": 0.0, "name": "5d3761ee456a6f08069fd11ef96c5e4f", "lat": 38.8873165}, {"fusion_lon": 0.0, "bike_id": "731434bef019206f6c5fe7904b0fe109", "lon": -77.03542966666667, "type": "electric_scooter", "is_disabled": 0, "rental_uris": {"ios": "https://dc.lft.to/lastmile_qr_scan", "android": "https://dc.lft.to/lastmile_qr_scan"}, "is_reserved": 0, "fusion_lat": 0.0, "name": "731434bef019206f6c5fe7904b0fe109", "lat": 38.92583416666667}, {"fusion_lon": 0.0, "bike_id": "f44b0b8e766b9f7203c284c71d92cbf7", "lon": -77.023794, "type": "electric_scooter", "is_disabled": 0, "rental_uris": {"ios": "https://dc.lft.to/lastmile_qr_scan", "android": "https://dc.lft.to/lastmile_qr_scan"}, "is_reserved": 0, "fusion_lat": 0.0, "name": "f44b0b8e766b9f7203c284c71d92cbf7", "lat": 38.89197566666667}, {"fusion_lon": 0.0, "bike_id": "35429d120da32fd57181be8be4335b41", "lon": -77.0297345, "type": "electric_scooter", "is_disabled": 0, "rental_uris": {"ios": "https://dc.lft.to/lastmile_qr_scan", "android": "https://dc.lft.to/lastmile_qr_scan"}, "is_reserved": 0, "fusion_lat": 0.0, "name": "35429d120da32fd57181be8be4335b41", "lat": 38.90726133333333}, {"fusion_lon": 0.0, "bike_id": "c9fa9f93e81c959d244d254da62f79e3", "lon": -77.009292, "type": "electric_scooter", "is_disabled": 0, "rental_uris": {"ios": "https://dc.lft.to/lastmile_qr_scan", "android": "https://dc.lft.to/lastmile_qr_scan"}, "is_reserved": 0, "fusion_lat": 0.0, "name": "c9fa9f93e81c959d244d254da62f79e3", "lat": 38.896097166666664}, {"fusion_lon": 0.0, "bike_id": "87a5f296ef5265d8f26e1ab565328f2f", "lon": -77.01354616666667, "type": "electric_scooter", "is_disabled": 0, "rental_uris": {"ios": "https://dc.lft.to/lastmile_qr_scan", "android": "https://dc.lft.to/lastmile_qr_scan"}, "is_reserved": 0, "fusion_lat": 0.0, "name": "87a5f296ef5265d8f26e1ab565328f2f", "lat": 38.95675033333333}, {"fusion_lon": 0.0, "bike_id": "4db6c38469b5b7438e468c2020f15d2a", "lon": -77.02808016666667, "type": "electric_scooter", "is_disabled": 0, "rental_uris": {"ios": "https://dc.lft.to/lastmile_qr_scan", "android": "https://dc.lft.to/lastmile_qr_scan"}, "is_reserved": 0, "fusion_lat": 0.0, "name": "4db6c38469b5b7438e468c2020f15d2a", "lat": 38.91676316666667}, {"fusion_lon": 0.0, "bike_id": "8defc88b7da71f880a52b104f43188f7", "lon": -77.04110283333333, "type": "electric_scooter", "is_disabled": 0, "rental_uris": {"ios": "https://dc.lft.to/lastmile_qr_scan", "android": "https://dc.lft.to/lastmile_qr_scan"}, "is_reserved": 0, "fusion_lat": 0.0, "name": "8defc88b7da71f880a52b104f43188f7", "lat": 38.920523333333335}, {"fusion_lon": 0.0, "bike_id": "f88e0f0e5c4b1fbf80f688cbe9c0e0ae", "lon": -77.019696, "type": "electric_scooter", "is_disabled": 0, "rental_uris": {"ios": "https://dc.lft.to/lastmile_qr_scan", "android": "https://dc.lft.to/lastmile_qr_scan"}, "is_reserved": 0, "fusion_lat": 0.0, "name": "f88e0f0e5c4b1fbf80f688cbe9c0e0ae", "lat": 38.95652716666667}, {"fusion_lon": 0.0, "bike_id": "43ed5407bdceb4be96d0826ba588e176", "lon": -77.07476116666666, "type": "electric_bike", "is_disabled": 0, "rental_uris": {"ios": "https://dc.lft.to/lastmile_qr_scan", "android": "https://dc.lft.to/lastmile_qr_scan"}, "is_reserved": 0, "fusion_lat": 0.0, "name": "43ed5407bdceb4be96d0826ba588e176", "lat": 38.920796833333334}, {"fusion_lon": 0.0, "bike_id": "10bcb02b075b0fd4d1f5865137caec74", "lon": -77.019084, "type": "electric_scooter", "is_disabled": 0, "rental_uris": {"ios": "https://dc.lft.to/lastmile_qr_scan", "android": "https://dc.lft.to/lastmile_qr_scan"}, "is_reserved": 0, "fusion_lat": 0.0, "name": "10bcb02b075b0fd4d1f5865137caec74", "lat": 38.920185000000004}, {"fusion_lon": 0.0, "bike_id": "8ff781b4b1f0bcca242d3ff7a02c74cd", "lon": -77.07231483333334, "type": "electric_scooter", "is_disabled": 0, "rental_uris": {"ios": "https://dc.lft.to/lastmile_qr_scan", "android": "https://dc.lft.to/lastmile_qr_scan"}, "is_reserved": 0, "fusion_lat": 0.0, "name": "8ff781b4b1f0bcca242d3ff7a02c74cd", "lat": 38.93847783333333}, {"fusion_lon": 0.0, "bike_id": "e4326f28cedb07c848d2f62864014b65", "lon": -77.02745983333334, "type": "electric_scooter", "is_disabled": 0, "rental_uris": {"ios": "https://dc.lft.to/lastmile_qr_scan", "android": "https://dc.lft.to/lastmile_qr_scan"}, "is_reserved": 0, "fusion_lat": 0.0, "name": "e4326f28cedb07c848d2f62864014b65", "lat": 38.96609566666667}, {"fusion_lon": 0.0, "bike_id": "b186a100fc7d0531ab2d8af602f7426d", "lon": -76.98900766666667, "type": "electric_scooter", "is_disabled": 0, "rental_uris": {"ios": "https://dc.lft.to/lastmile_qr_scan", "android": "https://dc.lft.to/lastmile_qr_scan"}, "is_reserved": 0, "fusion_lat": 0.0, "name": "b186a100fc7d0531ab2d8af602f7426d", "lat": 38.86119083333333}, {"fusion_lon": 0.0, "bike_id": "017fcc3726881e37e4dfbfcdf6e56f87", "lon": -77.02184316666667, "type": "electric_scooter", "is_disabled": 0, "rental_uris": {"ios": "https://dc.lft.to/lastmile_qr_scan", "android": "https://dc.lft.to/lastmile_qr_scan"}, "is_reserved": 0, "fusion_lat": 0.0, "name": "017fcc3726881e37e4dfbfcdf6e56f87", "lat": 38.91893566666667}, {"fusion_lon": 0.0, "bike_id": "335a18b8c00d885fbd1eca131c726028", "lon": -77.05743466666667, "type": "electric_scooter", "is_disabled": 0, "rental_uris": {"ios": "https://dc.lft.to/lastmile_qr_scan", "android": "https://dc.lft.to/lastmile_qr_scan"}, "is_reserved": 0, "fusion_lat": 0.0, "name": "335a18b8c00d885fbd1eca131c726028", "lat": 38.935399333333336}, {"fusion_lon": 0.0, "bike_id": "f7dbe61ddd0fe59772b41c6cbada9582", "lon": -77.029911, "type": "electric_scooter", "is_disabled": 0, "rental_uris": {"ios": "https://dc.lft.to/lastmile_qr_scan", "android": "https://dc.lft.to/lastmile_qr_scan"}, "is_reserved": 0, "fusion_lat": 0.0, "name": "f7dbe61ddd0fe59772b41c6cbada9582", "lat": 38.91118383333333}, {"fusion_lon": 0.0, "bike_id": "3dd0598a4e0c1708b38720b90de3ce7c", "lon": -77.04745933333334, "type": "electric_bike", "is_disabled": 0, "rental_uris": {"ios": "https://dc.lft.to/lastmile_qr_scan", "android": "https://dc.lft.to/lastmile_qr_scan"}, "is_reserved": 0, "fusion_lat": 0.0, "name": "3dd0598a4e0c1708b38720b90de3ce7c", "lat": 39.0003085}, {"fusion_lon": 0.0, "bike_id": "57ac5f65f50f9c02b9fd9fcbb849abb9", "lon": -77.00453566666667, "type": "electric_scooter", "is_disabled": 0, "rental_uris": {"ios": "https://dc.lft.to/lastmile_qr_scan", "android": "https://dc.lft.to/lastmile_qr_scan"}, "is_reserved": 0, "fusion_lat": 0.0, "name": "57ac5f65f50f9c02b9fd9fcbb849abb9", "lat": 38.837921333333334}, {"fusion_lon": 0.0, "bike_id": "af41989dc52a3fd543465412e25d8465", "lon": -77.03567483333333, "type": "electric_scooter", "is_disabled": 0, "rental_uris": {"ios": "https://dc.lft.to/lastmile_qr_scan", "android": "https://dc.lft.to/lastmile_qr_scan"}, "is_reserved": 0, "fusion_lat": 0.0, "name": "af41989dc52a3fd543465412e25d8465", "lat": 38.918163166666666}, {"fusion_lon": 0.0, "bike_id": "fc019cb697d1590de602ebc85bf7f19a", "lon": -77.04863866666666, "type": "electric_scooter", "is_disabled": 0, "rental_uris": {"ios": "https://dc.lft.to/lastmile_qr_scan", "android": "https://dc.lft.to/lastmile_qr_scan"}, "is_reserved": 0, "fusion_lat": 0.0, "name": "fc019cb697d1590de602ebc85bf7f19a", "lat": 38.913287}, {"fusion_lon": 0.0, "bike_id": "958bc0fdbb8ec2833c442a7427b7113a", "lon": -77.046794, "type": "electric_scooter", "is_disabled": 0, "rental_uris": {"ios": "https://dc.lft.to/lastmile_qr_scan", "android": "https://dc.lft.to/lastmile_qr_scan"}, "is_reserved": 0, "fusion_lat": 0.0, "name": "958bc0fdbb8ec2833c442a7427b7113a", "lat": 38.89740883333333},