{"data": {"bikes": [{"rental_uris": {"ios": "https://dc.lft.to/lastmile_qr_scan", "android": "https://dc.lft.to/lastmile_qr_scan"}, "type": "electric_scooter", "name": "6ddf77e0a021124e1cfa4d8109ecb1ab", "is_reserved": 0, "lon": -77.05058366666667, "is_disabled": 0, "fusion_lat": 0.0, "lat": 38.900860333333334, "bike_id": "6ddf77e0a021124e1cfa4d8109ecb1ab", "fusion_lon": 0.0}, {"rental_uris": {"ios": "https://dc.lft.to/lastmile_qr_scan", "android": "https://dc.lft.to/lastmile_qr_scan"}, "type": "electric_scooter", "name": "4d45d59d6aaf34dc99a8f82ef30ad5f4", "is_reserved": 0, "lon": -77.04738833333333, "is_disabled": 0, "fusion_lat": 0.0, "lat": 38.90851516666667, "bike_id": "4d45d59d6aaf34dc99a8f82ef30ad5f4", "fusion_lon": 0.0}, {"rental_uris": {"ios": "https://dc.lft.to/lastmile_qr_scan", "android": "https://dc.lft.to/lastmile_qr_scan"}, "type": "electric_scooter", "name": "1372330ce020b5031fdc16bc5dcf9a5c", "is_reserved": 0, "lon": -76.9793705, "is_disabled": 0, "fusion_lat": 0.0, "lat": 38.90657783333333, "bike_id": "1372330ce020b5031fdc16bc5dcf9a5c", "fusion_lon": 0.0}, {"rental_uris": {"ios": "https://dc.lft.to/lastmile_qr_scan", "android": "https://dc.lft.to/lastmile_qr_scan"}, "type": "electric_scooter", "name": "381f2e7962bb03724165caa49098a9df", "is_reserved": 0, "lon": -77.02699683333333, "is_disabled": 0, "fusion_lat": 0.0, "lat": 38.9179945, "bike_id": "381f2e7962bb03724165caa49098a9df", "fusion_lon": 0.0}, {"rental_uris": {"ios": "https://dc.lft.to/lastmile_qr_scan", "android": "https://dc.lft.to/lastmile_qr_scan"}, "type": "electric_scooter", "name": "de57ab558162c038a7d7e2939d6cce13", "is_reserved": 0, "lon": -77.036594, "is_disabled": 0, "fusion_lat": 0.0, "lat": 38.9228425, "bike_id": "de57ab558162c038a7d7e2939d6cce13", "fusion_lon": 0.0}, {"rental_uris": {"ios": "https://dc.lft.to/lastmile_qr_scan", "android": "https://dc.lft.to/lastmile_qr_scan"}, "type": "electric_scooter", "name": "1a30e2cd4e2a6ae772a40ffa8803b207", "is_reserved": 0, "lon": -77.02208366666666, "is_disabled": 0, "fusion_lat": 0.0, "lat": 38.8949445, "bike_id": "1a30e2cd4e2a6ae772a40ffa8803b207", "fusion_lon": 0.0}, {"rental_uris": {"ios": "https://dc.lft.to/lastmile_qr_scan", "android": "https://dc.lft.to/lastmile_qr_scan"}, "type": "electric_bike", "name": "4c3eebc4c251814a588eaed32cdc2c25", "is_reserved": 0, "lon": -77.00139666666666, "is_disabled": 0, "fusion_lat": 0.0, "lat": 38.99500183333333, "bike_id": "4c3eebc4c251814a588eaed32cdc2c25", "fusion_lon": 0.0}, {"rental_uris": {"ios": "https://dc.lft.to/lastmile_qr_scan", "android": "https://dc.lft.to/lastmile_qr_scan"}, "type": "electric_scooter", "name": "4f3f53a42afb53b15df531267eef7def", "is_reserved": 0, "lon": -77.05233483333333, "is_disabled": 0, "fusion_lat": 0.0, "lat": 38.9001155, "bike_id": "4f3f53a42afb53b15df531267eef7def", "fusion_lon": 0.0}, {"rental_uris": {"ios": "https://dc.lft.to/lastmile_qr_scan", "android": "https://dc.lft.to/lastmile_qr_scan"}, "type": "electric_scooter", "name": "7e72efdd8f389a69ecd31c93b0111329", "is_reserved": 0, "lon": -77.009177, "is_disabled": 0, "fusion_lat": 0.0, "lat": 38.8989155, "bike_id": "7e72efdd8f389a69ecd31c93b0111329", "fusion_lon": 0.0}, {"rental_uris": {"ios": "https://dc.lft.to/lastmile_qr_scan", "android": "https://dc.lft.to/lastmile_qr_scan"}, "type": "electric_scooter", "name": "bee1fde31224ef8712c7a262b627c82b", "is_reserved": 0, "lon": -77.06473816666667, "is_disabled": 0, "fusion_lat": 0.0, "lat": 38.91025483333333, "bike_id": "bee1fde31224ef8712c7a262b627c82b", "fusion_lon": 0.0}, {"rental_uris": {"ios": "https://dc.lft.to/lastmile_qr_scan", "android": "https://dc.lft.to/lastmile_qr_scan"}, "type": "electric_scooter", "name": "b6a54ed5659a159a7c5b528e3738172c", "is_reserved": 0, "lon": -77.00755766666667, "is_disabled": 0, "fusion_lat": 0.0, "lat": 38.925244, "bike_id": "b6a54ed5659a159a7c5b528e3738172c", "fusion_lon": 0.0}, {"rental_uris": {"ios": "https://dc.lft.to/lastmile_qr_scan", "android": "https://dc.lft.to/lastmile_qr_scan"}, "type": "electric_scooter", "name": "27dcb02c7ea332c9665bb173dc6b3d30", "is_reserved": 0, "lon": -77.00410983333333, "is_disabled": 0, "fusion_lat": 0.0, "lat": 38.90569166666667, "bike_id": "27dcb02c7ea332c9665bb173dc6b3d30", "fusion_lon": 0.0}, {"rental_uris": {"ios": "https://dc.lft.to/lastmile_qr_scan", "android": "https://dc.lft.to/lastmile_qr_scan"}, "type": "electric_scooter", "name": "35fef4aa67e303eaceef5c5f5445b50a", "is_reserved": 0, "lon": -77.02697016666667, "is_disabled": 0, "fusion_lat": 0.0, "lat": 38.923252833333336, "bike_id": "35fef4aa67e303eaceef5c5f5445b50a", "fusion_lon": 0.0}, {"rental_uris": {"ios": "https://dc.lft.to/lastmile_qr_scan", "android": "https://dc.lft.to/lastmile_qr_scan"}, "type": "electric_scooter", "name": "8585605e7d988928df83b1064b886c6c", "is_reserved": 0, "lon": -76.93292816666667, "is_disabled": 0, "fusion_lat": 0.0, "lat": 38.89684783333333, "bike_id": "8585605e7d988928df83b1064b886c6c", "fusion_lon": 0.0}, {"rental_uris": {"ios": "https://dc.lft.to/lastmile_qr_scan", "android": "https://dc.lft.to/lastmile_qr_scan"}, "type": "electric_scooter", "name": "14ea59d3291850ec6e3827aa607f19d9", "is_reserved": 0, "lon": -77.02200683333334, "is_disabled": 0, "fusion_lat": 0.0, "lat": 38.91130016666666, "bike_id": "14ea59d3291850ec6e3827aa607f19d9", "fusion_lon": 0.0}, {"rental_uris": {"ios": "https://dc.lft.to/lastmile_qr_scan", "android": "https://dc.lft.to/lastmile_qr_scan"}, "type": "electric_bike", "name": "7d614fef7d2f8323e2a11e9063d11ecf", "is_reserved": 0, "lon": -76.98348416666667, "is_disabled": 0, "fusion_lat": 0.0, "lat": 38.862622333333334, "bike_id": "7d614fef7d2f8323e2a11e9063d11ecf", "fusion_lon": 0.0}, {"rental_uris": {"ios": "https://dc.lft.to/lastmile_qr_scan", "android": "https://dc.lft.to/lastmile_qr_scan"}, "type": "electric_scooter", "name": "752c7b2c432c83d7fba1b99891579283", "is_reserved": 0, "lon": -76.999599, "is_disabled": 0, "fusion_lat": 0.0, "lat": 38.894175833333335, "bike_id": "752c7b2c432c83d7fba1b99891579283", "fusion_lon": 0.0}, {"rental_uris": {"ios": "https://dc.lft.to/lastmile_qr_scan", "android": "https://dc.lft.to/lastmile_qr_scan"}, "type": "electric_scooter", "name": "e791579aa3c20ff2f2ac44af67ee4368", "is_reserved": 0, "lon": -77.01780233333334, "is_disabled": 0, "fusion_lat": 0.0, "lat": 38.94414666666667, "bike_id": "e791579aa3c20ff2f2ac44af67ee4368", "fusion_lon": 0.0}, {"rental_uris": {"ios": "https://dc.lft.to/lastmile_qr_scan", "android": "https://dc.lft.to/lastmile_qr_scan"}, "type": "electric_bike", "name": "ed341fd1e37c032ede5d3f743ef5c7b2", "is_reserved": 0, "lon": -76.9180605, "is_disabled": 0, "fusion_lat": 0.0, "lat": 38.999997666666665, "bike_id": "ed341fd1e37c032ede5d3f743ef5c7b2", "fusion_lon": 0.0}, {"rental_uris": {"ios": "https://dc.lft.to/lastmile_qr_scan", "android": "https://dc.lft.to/lastmile_qr_scan"}, "type": "electric_scooter", "name": "eac9aec79d631fcf25b9845aa6ad01e8", "is_reserved": 0, "lon": -77.0714805, "is_disabled": 0, "fusion_lat": 0.0, "lat": 38.895677166666665, "bike_id": "eac9aec79d631fcf25b9845aa6ad01e8", "fusion_lon": 0.0}, {"rental_uris": {"ios": "https://dc.lft.to/lastmile_qr_scan", "android": "https://dc.lft.to/lastmile_qr_scan"}, "type": "electric_scooter", "name": "49bd401f3d80a27079d2310fea54d6db", "is_reserved": 0, "lon": -77.03293166666667, "is_disabled": 0, "fusion_lat": 0.0, "lat": 38.9204125, "bike_id": "49bd401f3d80a27079d2310fea54d6db", "fusion_lon": 0.0}, {"rental_uris": {"ios": "https://dc.lft.to/lastmile_qr_scan", "android": "https://dc.lft.to/lastmile_qr_scan"}, "type": "electric_scooter", "name": "2249eaefbf22e79e78bc993f23ad4973", "is_reserved": 0, "lon": -77.04999616666667, "is_disabled": 0, "fusion_lat": 0.0, "lat": 38.906204, "bike_id": "2249eaefbf22e79e78bc993f23ad4973", "fusion_lon": 0.0}, {"rental_uris": {"ios": "https://dc.lft.to/lastmile_qr_scan", "android": "https://dc.lft.to/lastmile_qr_scan"}, "type": "electric_scooter", "name": "4f691b5b41cc05ace3af34ab4c629604", "is_reserved": 0, "lon": -77.00551233333333, "is_disabled": 0, "fusion_lat": 0.0, "lat": 38.87530183333333, "bike_id": "4f691b5b41cc05ace3af34ab4c629604", "fusion_lon": 0.0}, {"rental_uris": {"ios": "https://dc.lft.to/lastmile_qr_scan", "android": "https://dc.lft.to/lastmile_qr_scan"}, "type": "electric_scooter", "name": "8a8daf8e6a3fd010330e30653f4602c1", "is_reserved": 0, "lon": -77.0455285, "is_disabled": 0, "fusion_lat": 0.0, "lat": 38.909779666666665, "bike_id": "8a8daf8e6a3fd010330e30653f4602c1", "fusion_lon": 0.0}, {"rental_uris": {"ios": "https://dc.lft.to/lastmile_qr_scan", "android": "https://dc.lft.to/lastmile_qr_scan"}, "type": "electric_scooter", "name": "6fe2bc7be38a7d75905dacc5e66378ec", "is_reserved": 0, "lon": -77.01796633333333, "is_disabled": 0, "fusion_lat": 0.0, "lat": 38.88597583333333, "bike_id": "6fe2bc7be38a7d75905dacc5e66378ec", "fusion_lon": 0.0}, {"rental_uris": {"ios": "https://dc.lft.to/lastmile_qr_scan", "android": "https://dc.lft.to/lastmile_qr_scan"}, "type": "electric_scooter", "name": "c7e72b266bef73c0e3933de29909d0a6", "is_reserved": 0, "lon": -77.053387, "is_disabled": 0, "fusion_lat": 0.0, "lat": 38.9044655, "bike_id": "c7e72b266bef73c0e3933de29909d0a6", "fusion_lon": 0.0}, {"rental_uris": {"ios": "https://dc.lft.to/lastmile_qr_scan", "android": "https://dc.lft.to/lastmile_qr_scan"}, "type": "electric_scooter", "name": "373816148fd2b4f72ac9fc15ec69aaa6", "is_reserved": 0, "lon": -77.04209983333334, "is_disabled": 0, "fusion_lat": 0.0, "lat": 38.90394833333333, "bike_id": "373816148fd2b4f72ac9fc15ec69aaa6", "fusion_lon": 0.0}, {"rental_uris": {"ios": "https://dc.lft.to/lastmile_qr_scan", "android": "https://dc.lft.to/lastmile_qr_scan"}, "type": "electric_scooter", "name": "06f8d517924c72e876fbd0a193f77928", "is_reserved": 0, "lon": -77.03209, "is_disabled": 0, "fusion_lat": 0.0, "lat": 38.908910166666665, "bike_id": "06f8d517924c72e876fbd0a193f77928", "fusion_lon": 0.0}, {"rental_uris": {"ios": "https://dc.lft.to/lastmile_qr_scan", "android": "https://dc.lft.to/lastmile_qr_scan"}, "type": "electric_scooter", "name": "127507b499b899029fdb2af2408d1699", "is_reserved": 0, "lon": -76.96506483333333, "is_disabled": 0, "fusion_lat": 0.0, "lat": 38.8764845, "bike_id": "127507b499b899029fdb2af2408d1699", "fusion_lon": 0.0}, {"rental_uris": {"ios": "https://dc.lft.to/lastmile_qr_scan", "android": "https://dc.lft.to/lastmile_qr_scan"}, "type": "electric_scooter", "name": "69d3f45087ee660f92051f4c02882936", "is_reserved": 0, "lon": -76.92235166666667, "is_disabled": 0, "fusion_lat": 0.0, "lat": 38.8999285, "bike_id": "69d3f45087ee660f92051f4c02882936", "fusion_lon": 0.0}, {"rental_uris": {"ios": "https://dc.lft.to/lastmile_qr_scan", "android": "https://dc.lft.to/lastmile_qr_scan"}, "type": "electric_bike", "name": "0efd7744600155690137773cc2b474eb", "is_reserved": 0, "lon": -77.06638666666667, "is_disabled": 0, "fusion_lat": 0.0, "lat": 38.94976783333333, "bike_id": "0efd7744600155690137773cc2b474eb", "fusion_lon": 0.0}, {"rental_uris": {"ios": "https://dc.lft.to/lastmile_qr_scan", "android": "https://dc.lft.to/lastmile_qr_scan"}, "type": "electric_scooter", "name": "8af64d7bafb8bf12c8399ddbb396a4f5", "is_reserved": 0, "lon": -77.0435015, "is_disabled": 0, "fusion_lat": 0.0, "lat": 38.907112, "bike_id": "8af64d7bafb8bf12c8399ddbb396a4f5", "fusion_lon": 0.0}, {"rental_uris": {"ios": "https://dc.lft.to/lastmile_qr_scan", "android": "https://dc.lft.to/lastmile_qr_scan"}, "type": "electric_scooter", "name": "c00065cd05daeaffa4ce9ca6dfa7ab86", "is_reserved": 0, "lon": -77.02231583333334, "is_disabled": 0, "fusion_lat": 0.0, "lat": 38.892218, "bike_id": "c00065cd05daeaffa4ce9ca6dfa7ab86", "fusion_lon": 0.0}, {"rental_uris": {"ios": "https://dc.lft.to/lastmile_qr_scan", "android": "https://dc.lft.to/lastmile_qr_scan"}, "type": "electric_scooter", "name": "bace7414491910f658cfcd1c04c0a634", "is_reserved": 0, "lon": -77.02759383333333, "is_disabled": 0, "fusion_lat": 0.0, "lat": 38.912067666666665, "bike_id": "bace7414491910f658cfcd1c04c0a634", "fusion_lon": 0.0}, {"rental_uris": {"ios": "https://dc.lft.to/lastmile_qr_scan", "android": "https://dc.lft.to/lastmile_qr_scan"}, "type": "electric_scooter", "name": "21698db5568b2c20d3357ad63096c2af", "is_reserved": 0, "lon": -77.02807133333333, "is_disabled": 0, "fusion_lat": 0.0, "lat": 38.906086, "bike_id": "21698db5568b2c20d3357ad63096c2af", "fusion_lon": 0.0}, {"rental_uris": {"ios": "https://dc.lft.to/lastmile_qr_scan", "android": "https://dc.lft.to/lastmile_qr_scan"}, "type": "electric_scooter", "name": "63e58e9452ea0aaafcbf51642882fa51", "is_reserved": 0, "lon": -77.02011616666667, "is_disabled": 0, "fusion_lat": 0.0, "lat": 38.898719666666665, "bike_id": "63e58e9452ea0aaafcbf51642882fa51", "fusion_lon": 0.0}, {"rental_uris": {"ios": "https://dc.lft.to/lastmile_qr_scan", "android": "https://dc.lft.to/lastmile_qr_scan"}, "type": "electric_scooter", "name": "56b3f4d8b2039b397a0b0b837c26b071", "is_reserved": 0, "lon": -77.04594733333333, "is_disabled": 0, "fusion_lat": 0.0, "lat": 38.914254666666665, "bike_id": "56b3f4d8b2039b397a0b0b837c26b071", "fusion_lon": 0.0}, {"rental_uris": {"ios": "https://dc.lft.to/lastmile_qr_scan", "android": "https://dc.lft.to/lastmile_qr_scan"}, "type": "electric_scooter", "name": "78f6735c1419da6fa1aa982dbcdd57da", "is_reserved": 0, "lon": -77.02025083333334, "is_disabled": 0, "fusion_lat": 0.0, "lat": 38.93639666666667, "bike_id": "78f6735c1419da6fa1aa982dbcdd57da", "fusion_lon": 0.0}, {"rental_uris": {"ios": "https://dc.lft.to/lastmile_qr_scan", "android": "https://dc.lft.to/lastmile_qr_scan"}, "type": "electric_scooter", "name": "7e14f4e69aff10e39331985bd8b78856", "is_reserved": 0, "lon": -77.04565266666667, "is_disabled": 0, "fusion_lat": 0.0, "lat": 38.9178245, "bike_id": "7e14f4e69aff10e39331985bd8b78856", "fusion_lon": 0.0}, {"rental_uris": {"ios": "https://dc.lft.to/lastmile_qr_scan", "android": "https://dc.lft.to/lastmile_qr_scan"}, "type": "electric_scooter", "name": "dd61743010469d88d29bc640cd6d1d07", "is_reserved": 0, "lon": -77.04781283333334, "is_disabled": 0, "fusion_lat": 0.0, "lat": 38.9086395, "bike_id": "dd61743010469d88d29bc640cd6d1d07", "fusion_lon": 0.0}, {"rental_uris": {"ios": "https://dc.lft.to/lastmile_qr_scan", "android": "https://dc.lft.to/lastmile_qr_scan"}, "type": "electric_scooter", "name": "4fc3cb77206768553cabd42cf070a4e4", "is_reserved": 0, "lon": -77.00990733333333, "is_disabled": 0, "fusion_lat": 0.0, "lat": 38.920263, "bike_id": "4fc3cb77206768553cabd42cf070a4e4", "fusion_lon": 0.0}, {"rental_uris": {"ios": "https://dc.lft.to/lastmile_qr_scan", "android": "https://dc.lft.to/lastmile_qr_scan"}, "type": "electric_scooter", "name": "314ea7dd35d1293404f20c43254aa25a", "is_reserved": 0, "lon": -77.00219966666667, "is_disabled": 0, "fusion_lat": 0.0, "lat": 38.8944615, "bike_id": "314ea7dd35d1293404f20c43254aa25a", "fusion_lon": 0.0}, {"rental_uris": {"ios": "https://dc.lft.to/lastmile_qr_scan", "android": "https://dc.lft.to/lastmile_qr_scan"}, "type": "electric_scooter", "name": "11f4e89459e47cca2fdcd29e137a94ae", "is_reserved": 0, "lon": -77.00922216666666, "is_disabled": 0, "fusion_lat": 0.0, "lat": 38.907596166666664, "bike_id": "11f4e89459e47cca2fdcd29e137a94ae", "fusion_lon": 0.0}, {"rental_uris": {"ios": "https://dc.lft.to/lastmile_qr_scan", "android": "https://dc.lft.to/lastmile_qr_scan"}, "type": "electric_bike", "name": "fb8557b1b24e9e6cef23722a9d4d66f3", "is_reserved": 0, "lon": -77.050895, "is_disabled": 0, "fusion_lat": 0.0, "lat": 38.8132765, "bike_id": "fb8557b1b24e9e6cef23722a9d4d66f3", "fusion_lon": 0.0}, {"rental_uris": {"ios": "https://dc.lft.to/lastmile_qr_scan", "android": "https://dc.lft.to/lastmile_qr_scan"}, "type": "electric_scooter", "name": "b85ae4d1ca6f673c3bfa1d4698e25391", "is_reserved": 0, "lon": -77.043569, "is_disabled": 0, "fusion_lat": 0.0, "lat": 38.921483333333335, "bike_id": "b85ae4d1ca6f673c3bfa1d4698e25391", "fusion_lon": 0.0}, {"rental_uris": {"ios": "https://dc.lft.to/lastmile_qr_scan", "android": "https://dc.lft.to/lastmile_qr_scan"}, "type": "electric_scooter", "name": "12f44ff41e9e48549c53421a33c2fbca", "is_reserved": 0, "lon": -77.01484, "is_disabled": 0, "fusion_lat": 0.0, "lat": 38.887412833333336, "bike_id": "12f44ff41e9e48549c53421a33c2fbca", "fusion_lon": 0.0}, {"rental_uris": {"ios": "https://dc.lft.to/lastmile_qr_scan", "android": "https://dc.lft.to/lastmile_qr_scan"}, "type": "electric_scooter", "name": "b4ea9ce3351e19833226e92d0fe2dae4", "is_reserved": 0, "lon": -77.03853916666667, "is_disabled": 0, "fusion_lat": 0.0, "lat": 38.91276233333333, "bike_id": "b4ea9ce3351e19833226e92d0fe2dae4", "fusion_lon": 0.0}, {"rental_uris": {"ios": "https://dc.lft.to/lastmile_qr_scan", "android": "https://dc.lft.to/lastmile_qr_scan"}, "type": "electric_scooter", "name": "723bba981a29d9036197d7f8cb2e9bcb", "is_reserved": 0, "lon": -77.0249025, "is_disabled": 0, "fusion_lat": 0.0, "lat": 38.925914166666665, "bike_id": "723bba981a29d9036197d7f8cb2e9bcb", "fusion_lon": 0.0}, {"rental_uris": {"ios": "https://dc.lft.to/lastmile_qr_scan", "android": "https://dc.lft.to/lastmile_qr_scan"}, "type": "electric_scooter", "name": "1d82604c7b8028c79950aa0a69f95fb9", "is_reserved": 0, "lon": -77.072789, "is_disabled": 0, "fusion_lat": 0.0, "lat": 38.9353715, "bike_id": "1d82604c7b8028c79950aa0a69f95fb9", "fusion_lon": 0.0}, {"rental_uris": {"ios": "https://dc.lft.to/lastmile_qr_scan", "android": "https://dc.lft.to/lastmile_qr_scan"}, "type": "electric_scooter", "name": "57d1712ae47efe6dbad96015fa69902b", "is_reserved": 0, "lon": -77.02068316666667, "is_disabled": 0, "fusion_lat": 0.0, "lat": 38.908460166666664, "bike_id": "57d1712ae47efe6dbad96015fa69902b", "fusion_lon": 0.0}, {"rental_uris": {"ios": "https://dc.lft.to/lastmile_qr_scan", "android": "https://dc.lft.to/lastmile_qr_scan"}, "type": "electric_bike", "name": "4bc32cbfe6329f818376360f6804f9cc", "is_reserved": 0, "lon": -76.97319433333334, "is_disabled": 0, "fusion_lat": 0.0, "lat": 38.865042833333334, "bike_id": "4bc32cbfe6329f818376360f6804f9cc", "fusion_lon": 0.0}, {"rental_uris": {"ios": "https://dc.lft.to/lastmile_qr_scan", "android": "https://dc.lft.to/lastmile_qr_scan"}, "type": "electric_scooter", "name": "08c9c781ebd39c23bcdde91403ce79b0", "is_reserved": 0, "lon": -77.03440966666666, "is_disabled": 0, "fusion_lat": 0.0, "lat": 38.909727, "bike_id": "08c9c781ebd39c23bcdde91403ce79b0", "fusion_lon": 0.0}, {"rental_uris": {"ios": "https://dc.lft.to/lastmile_qr_scan", "android": "https://dc.lft.to/lastmile_qr_scan"}, "type": "electric_scooter", "name": "3e0658ed5d00340e4c2809e563124ae7", "is_reserved": 0, "lon": -77.03177483333333, "is_disabled": 0, "fusion_lat": 0.0, "lat": 38.89225283333333, "bike_id": "3e0658ed5d00340e4c2809e563124ae7", "fusion_lon": 0.0}, {"rental_uris": {"ios": "https://dc.lft.to/lastmile_qr_scan", "android": "https://dc.lft.to/lastmile_qr_scan"}, "type": "electric_scooter", "name": "80f853865d455bd419e649f478620e20", "is_reserved": 0, "lon": -77.01930233333333, "is_disabled": 0, "fusion_lat": 0.0, "lat": 38.917278833333334, "bike_id": "80f853865d455bd419e649f478620e20", "fusion_lon": 0.0}, {"rental_uris": {"ios": "https://dc.lft.to/lastmile_qr_scan", "android": "https://dc.lft.to/lastmile_qr_scan"}, "type": "electric_scooter", "name": "6013ba67b99bf8d0c3bd27a37a493c99", "is_reserved": 0, "lon": -77.0438715, "is_disabled": 0, "fusion_lat": 0.0, "lat": 38.9165015, "bike_id": "6013ba67b99bf8d0c3bd27a37a493c99", "fusion_lon": 0.0}, {"rental_uris": {"ios": "https://dc.lft.to/lastmile_qr_scan", "android": "https://dc.lft.to/lastmile_qr_scan"}, "type": "electric_scooter", "name": "33f912a05d553ce8fc0ed0165f1a064f", "is_reserved": 0, "lon": -77.02764283333333, "is_disabled": 0, "fusion_lat": 0.0, "lat": 38.92378883333333, "bike_id": "33f912a05d553ce8fc0ed0165f1a064f", "fusion_lon": 0.0}, {"rental_uris": {"ios": "https://dc.lft.to/lastmile_qr_scan", "android": "https://dc.lft.to/lastmile_qr_scan"}, "type": "electric_scooter", "name": "2617cf21970843e1c14fddaed9c2ae14", "is_reserved": 0, "lon": -77.01215183333333, "is_disabled": 0, "fusion_lat": 0.0, "lat": 38.91681116666667, "bike_id": "2617cf21970843e1c14fddaed9c2ae14", "fusion_lon": 0.0}, {"rental_uris": {"ios": "https://dc.lft.to/lastmile_qr_scan", "android": "https://dc.lft.to/lastmile_qr_scan"}, "type": "electric_scooter", "name": "8c79ee61617cc19dff0d0b958fe846c4", "is_reserved": 0, "lon": -76.97801433333333, "is_disabled": 0, "fusion_lat": 0.0, "lat": 38.90306533333333, "bike_id": "8c79ee61617cc19dff0d0b958fe846c4", "fusion_lon": 0.0}, {"rental_uris": {"ios": "https://dc.lft.to/lastmile_qr_scan", "android": "https://dc.lft.to/lastmile_qr_scan"}, "type": "electric_scooter", "name": "96dcf920f86c9a5f2660531a4cc1d743", "is_reserved": 0, "lon": -77.0333245, "is_disabled": 0, "fusion_lat": 0.0, "lat": 38.8962985, "bike_id": "96dcf920f86c9a5f2660531a4cc1d743", "fusion_lon": 0.0}, {"rental_uris": {"ios": "https://dc.lft.to/lastmile_qr_scan", "android": "https://dc.lft.to/lastmile_qr_scan"}, "type": "electric_scooter", "name": "6e7a930d37917981204bca530611340c", "is_reserved": 0, "lon": -77.029816, "is_disabled": 0, "fusion_lat": 0.0, "lat": 38.92371883333333, "bike_id": "6e7a930d37917981204bca530611340c", "fusion_lon": 0.0}, {"rental_uris": {"ios": "https://dc.lft.to/lastmile_qr_scan", "android": "https://dc.lft.to/lastmile_qr_scan"}, "type": "electric_scooter", "name": "0a875e9eedd4a8163ab9ca0bd520139f", "is_reserved": 0, "lon": -76.96979533333334, "is_disabled": 0, "fusion_lat": 0.0, "lat": 38.87399, "bike_id": "0a875e9eedd4a8163ab9ca0bd520139f", "fusion_lon": 0.0}, {"rental_uris": {"ios": "https://dc.lft.to/lastmile_qr_scan", "android": "https://dc.lft.to/lastmile_qr_scan"}, "type": "electric_scooter", "name": "48e382cd17b1cce6ab5846d87740a7d3", "is_reserved": 0, "lon": -77.02230133333333, "is_disabled": 0, "fusion_lat": 0.0, "lat": 38.892180333333336, "bike_id": "48e382cd17b1cce6ab5846d87740a7d3", "fusion_lon": 0.0}, {"rental_uris": {"ios": "https://dc.lft.to/lastmile_qr_scan", "android": "https://dc.lft.to/lastmile_qr_scan"}, "type": "electric_scooter", "name": "2e9f34f5ab3ecbd0e58159d7f3739913", "is_reserved": 0, "lon": -76.961541, "is_disabled": 0, "fusion_lat": 0.0, "lat": 38.8835975, "bike_id": "2e9f34f5ab3ecbd0e58159d7f3739913", "fusion_lon": 0.0}, {"rental_uris": {"ios": "https://dc.lft.to/lastmile_qr_scan", "android": "https://dc.lft.to/lastmile_qr_scan"}, "type": "electric_scooter", "name": "be09389743d09b142ac93c213f0e6ceb", "is_reserved": 0, "lon": -77.03634016666666, "is_disabled": 0, "fusion_lat": 0.0, "lat": 38.935063166666666, "bike_id": "be09389743d09b142ac93c213f0e6ceb", "fusion_lon": 0.0}, {"rental_uris": {"ios": "https://dc.lft.to/lastmile_qr_scan", "android": "https://dc.lft.to/lastmile_qr_scan"}, "type": "electric_scooter", "name": "03d9808222bd1bf373dc7865955315b1", "is_reserved": 0, "lon": -77.03469516666667, "is_disabled": 0, "fusion_lat": 0.0, "lat": 38.917054666666665, "bike_id": "03d9808222bd1bf373dc7865955315b1", "fusion_lon": 0.0}, {"rental_uris": {"ios": "https://dc.lft.to/lastmile_qr_scan", "android": "https://dc.lft.to/lastmile_qr_scan"}, "type": "electric_scooter", "name": "230765cebc9da776504bf40696b2e8c3", "is_reserved": 0, "lon": -77.00316983333333, "is_disabled": 0, "fusion_lat": 0.0, "lat": 38.919041666666665, "bike_id": "230765cebc9da776504bf40696b2e8c3", "fusion_lon": 0.0}, {"rental_uris": {"ios": "https://dc.lft.to/lastmile_qr_scan", "android": "https://dc.lft.to/lastmile_qr_scan"}, "type": "electric_scooter", "name": "77aaad25df4d043a836fe8e6bffbbb86", "is_reserved": 0, "lon": -77.027257, "is_disabled": 0, "fusion_lat": 0.0, "lat": 38.89737433333333, "bike_id": "77aaad25df4d043a836fe8e6bffbbb86", "fusion_lon": 0.0}, {"rental_uris": {"ios": "https://dc.lft.to/lastmile_qr_scan", "android": "https://dc.lft.to/lastmile_qr_scan"}, "type": "electric_bike", "name": "db4fad077d3be5e080e39609c58969b9", "is_reserved": 0, "lon": -76.94165216666667, "is_disabled": 0, "fusion_lat": 0.0, "lat": 38.865526, "bike_id": "db4fad077d3be5e080e39609c58969b9", "fusion_lon": 0.0}, {"rental_uris": {"ios": "https://dc.lft.to/lastmile_qr_scan", "android": "https://dc.lft.to/lastmile_qr_scan"}, "type": "electric_scooter", "name": "d27e72e527265daa8cd3cff36adb3812", "is_reserved": 0, "lon": -77.0023455, "is_disabled": 0, "fusion_lat": 0.0, "lat": 38.9002635, "bike_id": "d27e72e527265daa8cd3cff36adb3812", "fusion_lon": 0.0}, {"rental_uris": {"ios": "https://dc.lft.to/lastmile_qr_scan", "android": "https://dc.lft.to/lastmile_qr_scan"}, "type": "electric_scooter", "name": "9cfdaf163e38a67b1dd8f28793944b29", "is_reserved": 0, "lon": -77.03952983333333, "is_disabled": 0, "fusion_lat": 0.0, "lat": 38.89247483333333, "bike_id": "9cfdaf163e38a67b1dd8f28793944b29", "fusion_lon": 0.0}, {"rental_uris": {"ios": "https://dc.lft.to/lastmile_qr_scan", "android": "https://dc.lft.to/lastmile_qr_scan"}, "type": "electric_scooter", "name": "ce2f9eeec960d482d22bc2d2aa14d5ed", "is_reserved": 0, "lon": -77.04963616666667, "is_disabled": 0, "fusion_lat": 0.0, "lat": 38.91325333333333, "bike_id": "ce2f9eeec960d482d22bc2d2aa14d5ed", "fusion_lon": 0.0}, {"rental_uris": {"ios": "https://dc.lft.to/lastmile_qr_scan", "android": "https://dc.lft.to/lastmile_qr_scan"}, "type": "electric_scooter", "name": "77cd916387a0194ac9a632fc79189ba1", "is_reserved": 0, "lon": -77.04110083333333, "is_disabled": 0, "fusion_lat": 0.0, "lat": 38.9346405, "bike_id": "77cd916387a0194ac9a632fc79189ba1", "fusion_lon": 0.0}, {"rental_uris": {"ios": "https://dc.lft.to/lastmile_qr_scan", "android": "https://dc.lft.to/lastmile_qr_scan"}, "type": "electric_scooter", "name": "7a252711922f0325e64238b55cca4776", "is_reserved": 0, "lon": -77.0199685, "is_disabled": 0, "fusion_lat": 0.0, "lat": 38.90046733333333, "bike_id": "7a252711922f0325e64238b55cca4776", "fusion_lon": 0.0}, {"rental_uris": {"ios": "https://dc.lft.to/lastmile_qr_scan", "android": "https://dc.lft.to/lastmile_qr_scan"}, "type": "electric_scooter", "name": "f592cf2c234b14c4f8330a2be91c7140", "is_reserved": 0, "lon": -77.016195, "is_disabled": 0, "fusion_lat": 0.0, "lat": 38.899693, "bike_id": "f592cf2c234b14c4f8330a2be91c7140", "fusion_lon": 0.0}, {"rental_uris": {"ios": "https://dc.lft.to/lastmile_qr_scan", "android": "https://dc.lft.to/lastmile_qr_scan"}, "type": "electric_scooter", "name": "c64d46c688780724bf022cf39cd49b85", "is_reserved": 0, "lon": -76.9803045, "is_disabled": 0, "fusion_lat": 0.0, "lat": 38.916815166666666, "bike_id": "c64d46c688780724bf022cf39cd49b85", "fusion_lon": 0.0}, {"rental_uris": {"ios": "https://dc.lft.to/lastmile_qr_scan", "android": "https://dc.lft.to/lastmile_qr_scan"}, "type": "electric_scooter", "name": "25a6ccf64d457ae24d40888e5298ddd0", "is_reserved": 0, "lon": -77.04875166666666, "is_disabled": 0, "fusion_lat": 0.0, "lat": 38.913360833333336, "bike_id": "25a6ccf64d457ae24d40888e5298ddd0", "fusion_lon": 0.0}, {"rental_uris": {"ios": "https://dc.lft.to/lastmile_qr_scan", "android": "https://dc.lft.to/lastmile_qr_scan"}, "type": "electric_scooter", "name": "48967cf62ec67efdf0862dfd0a193cd8", "is_reserved": 0, "lon": -77.04605016666666, "is_disabled": 0, "fusion_lat": 0.0, "lat": 38.91489466666667, "bike_id": "48967cf62ec67efdf0862dfd0a193cd8", "fusion_lon": 0.0}, {"rental_uris": {"ios": "https://dc.lft.to/lastmile_qr_scan", "android": "https://dc.lft.to/lastmile_qr_scan"}, "type": "electric_scooter", "name": "429b51a88d6620d47a87ac75f195948e", "is_reserved": 0, "lon": -77.0366655, "is_disabled": 0, "fusion_lat": 0.0, "lat": 38.9172105, "bike_id": "429b51a88d6620d47a87ac75f195948e", "fusion_lon": 0.0}, {"rental_uris": {"ios": "https://dc.lft.to/lastmile_qr_scan", "android": "https://dc.lft.to/lastmile_qr_scan"}, "type": "electric_scooter", "name": "a7efa6c988e0722a03db7991afa0bffc", "is_reserved": 0, "lon": -77.02614666666666, "is_disabled": 0, "fusion_lat": 0.0, "lat": 38.951821, "bike_id": "a7efa6c988e0722a03db7991afa0bffc", "fusion_lon": 0.0}, {"rental_uris": {"ios": "https://dc.lft.to/lastmile_qr_scan", "android": "https://dc.lft.to/lastmile_qr_scan"}, "type": "electric_scooter", "name": "589e8ce9cdd385743df7d821e4fe9272", "is_reserved": 0, "lon": -77.02570516666667, "is_disabled": 0, "fusion_lat": 0.0, "lat": 38.88744233333333, "bike_id": "589e8ce9cdd385743df7d821e4fe9272", "fusion_lon": 0.0}, {"rental_uris": {"ios": "https://dc.lft.to/lastmile_qr_scan", "android": "https://dc.lft.to/lastmile_qr_scan"}, "type": "electric_scooter", "name": "914709e4c702fb40463a82cd85ec20aa", "is_reserved": 0, "lon": -77.025035, "is_disabled": 0, "fusion_lat": 0.0, "lat": 38.942074, "bike_id": "914709e4c702fb40463a82cd85ec20aa", "fusion_lon": 0.0}, {"rental_uris": {"ios": "https://dc.lft.to/lastmile_qr_scan", "android": "https://dc.lft.to/lastmile_qr_scan"}, "type": "electric_scooter", "name": "085b1cc43715f9621041f5e85c92e4d8", "is_reserved": 0, "lon": -76.98315716666667, "is_disabled": 0, "fusion_lat": 0.0, "lat": 38.9258775, "bike_id": "085b1cc43715f9621041f5e85c92e4d8", "fusion_lon": 0.0}, {"rental_uris": {"ios": "https://dc.lft.to/lastmile_qr_scan", "android": "https://dc.lft.to/lastmile_qr_scan"}, "type": "electric_bike", "name": "1d38ae89737893c1fbae6ac6a5871bfa", "is_reserved": 0, "lon": -77.00725316666667, "is_disabled": 0, "fusion_lat": 0.0, "lat": 38.832443833333336, "bike_id": "1d38ae89737893c1fbae6ac6a5871bfa", "fusion_lon": 0.0}, {"rental_uris": {"ios": "https://dc.lft.to/lastmile_qr_scan", "android": "https://dc.lft.to/lastmile_qr_scan"}, "type": "electric_scooter", "name": "25496f765a494ffbb7d1651d59aa2bda", "is_reserved": 0, "lon": -77.02312833333333, "is_disabled": 0, "fusion_lat": 0.0, "lat": 38.917655, "bike_id": "25496f765a494ffbb7d1651d59aa2bda", "fusion_lon": 0.0}, {"rental_uris": {"ios": "https://dc.lft.to/lastmile_qr_scan", "android": "https://dc.lft.to/lastmile_qr_scan"}, "type": "electric_bike", "name": "de9b5e39962ae0cb3b0de47a710d506e", "is_reserved": 0, "lon": -76.98057416666667, "is_disabled": 0, "fusion_lat": 0.0, "lat": 38.97248283333333, "bike_id": "de9b5e39962ae0cb3b0de47a710d506e", "fusion_lon": 0.0}, {"rental_uris": {"ios": "https://dc.lft.to/lastmile_qr_scan", "android": "https://dc.lft.to/lastmile_qr_scan"}, "type": "electric_scooter", "name": "f2d177e381ae8065da8873c020d2862d", "is_reserved": 0, "lon": -77.02410333333333, "is_disabled": 0, "fusion_lat": 0.0, "lat": 38.94504633333333, "bike_id": "f2d177e381ae8065da8873c020d2862d", "fusion_lon": 0.0}, {"rental_uris": {"ios": "https://dc.lft.to/lastmile_qr_scan", "android": "https://dc.lft.to/lastmile_qr_scan"}, "type": "electric_scooter", "name": "d1574a00e4fa87705323125e03705c14", "is_reserved": 0, "lon": -77.01757, "is_disabled": 0, "fusion_lat": 0.0, "lat": 38.880108166666666, "bike_id": "d1574a00e4fa87705323125e03705c14", "fusion_lon": 0.0}, {"rental_uris": {"ios": "https://dc.lft.to/lastmile_qr_scan", "android": "https://dc.lft.to/lastmile_qr_scan"}, "type": "electric_scooter", "name": "89713cc6d3e0170f2df35ef86be04546", "is_reserved": 0, "lon": -77.036343, "is_disabled": 0, "fusion_lat": 0.0, "lat": 38.930519333333336, "bike_id": "89713cc6d3e0170f2df35ef86be04546", "fusion_lon": 0.0}, {"rental_uris": {"ios": "https://dc.lft.to/lastmile_qr_scan", "android": "https://dc.lft.to/lastmile_qr_scan"}, "type": "electric_scooter", "name": "d111e31d256722cd14db28f6700088e4", "is_reserved": 0, "lon": -77.02698683333334, "is_disabled": 0, "fusion_lat": 0.0, "lat": 38.923968333333335, "bike_id": "d111e31d256722cd14db28f6700088e4", "fusion_lon": 0.0}, {"rental_uris": {"ios": "https://dc.lft.to/lastmile_qr_scan", "android": "https://dc.lft.to/lastmile_qr_scan"}, "type": "electric_scooter", "name": "753e7d7c0948343b2a71c8be27742771", "is_reserved": 0, "lon": -77.03975433333333, "is_disabled": 0, "fusion_lat": 0.0, "lat": 38.901210166666665, "bike_id": "753e7d7c0948343b2a71c8be27742771", "fusion_lon": 0.0}, {"rental_uris": {"ios": "https://dc.lft.to/lastmile_qr_scan", "android": "https://dc.lft.to/lastmile_qr_scan"}, "type": "electric_scooter", "name": "f5f953d9e1527db7f672329919d476ec", "is_reserved": 0, "lon": -77.058358, "is_disabled": 0, "fusion_lat": 0.0, "lat": 38.930538166666665, "bike_id": "f5f953d9e1527db7f672329919d476ec", "fusion_lon": 0.0}, {"rental_uris": {"ios": "https://dc.lft.to/lastmile_qr_scan", "android": "https://dc.lft.to/lastmile_qr_scan"}, "type": "electric_bike", "name": "3775077132ed475c9c1ab8c2c39b928d", "is_reserved": 0, "lon": -76.9795575, "is_disabled": 0, "fusion_lat": 0.0, "lat": 38.920328833333336, "bike_id": "3775077132ed475c9c1ab8c2c39b928d", "fusion_lon": 0.0}, {"rental_uris": {"ios": "https://dc.lft.to/lastmile_qr_scan", "android": "https://dc.lft.to/lastmile_qr_scan"}, "type": "electric_scooter", "name": "6c935ac60773e0b45381d8bd143e6808", "is_reserved": 0, "lon": -77.03520366666666, "is_disabled": 0, "fusion_lat": 0.0, "lat": 38.922584, "bike_id": "6c935ac60773e0b45381d8bd143e6808", "fusion_lon": 0.0}, {"rental_uris": {"ios": "https://dc.lft.to/lastmile_qr_scan", "android": "https://dc.lft.to/lastmile_qr_scan"}, "type": "electric_scooter", "name": "8adf19f3ca405fd53e96dd6fb37da0e3", "is_reserved": 0, "lon": -77.0243845, "is_disabled": 0, "fusion_lat": 0.0, "lat": 38.897454833333335, "bike_id": "8adf19f3ca405fd53e96dd6fb37da0e3", "fusion_lon": 0.0}, {"rental_uris": {"ios": "https://dc.lft.to/lastmile_qr_scan", "android": "https://dc.lft.to/lastmile_qr_scan"}, "type": "electric_scooter", "name": "d0c0588c033fc5626ca5b48014ce6d85", "is_reserved": 0, "lon": -77.04906366666667, "is_disabled": 0, "fusion_lat": 0.0, "lat": 38.90382533333333, "bike_id": "d0c0588c033fc5626ca5b48014ce6d85", "fusion_lon": 0.0}, {"rental_uris": {"ios": "https://dc.lft.to/lastmile_qr_scan", "android": "https://dc.lft.to/lastmile_qr_scan"}, "type": "electric_scooter", "name": "910aadf6575fb67834e4d0374c9f6a2c", "is_reserved": 0, "lon": -77.01217583333333, "is_disabled": 0, "fusion_lat": 0.0, "lat": 38.8716965, "bike_id": "910aadf6575fb67834e4d0374c9f6a2c", "fusion_lon": 0.0}, {"rental_uris": {"ios": "https://dc.lft.to/lastmile_qr_scan", "android": "https://dc.lft.to/lastmile_qr_scan"}, "type": "electric_bike", "name": "ef8362ee2c0f9794ff0d0f1898073481", "is_reserved": 0, "lon": -76.9361465, "is_disabled": 0, "fusion_lat": 0.0, "lat": 38.97049366666667, "bike_id": "ef8362ee2c0f9794ff0d0f1898073481", "fusion_lon": 0.0}, {"rental_uris": {"ios": "https://dc.lft.to/lastmile_qr_scan", "android": "https://dc.lft.to/lastmile_qr_scan"}, "type": "electric_scooter", "name": "4cd2defd0f42d4a92dbf6328a975b132", "is_reserved": 0, "lon": -77.034815, "is_disabled": 0, "fusion_lat": 0.0, "lat": 38.93547983333333, "bike_id": "4cd2defd0f42d4a92dbf6328a975b132", "fusion_lon": 0.0}, {"rental_uris": {"ios": "https://dc.lft.to/lastmile_qr_scan", "android": "https://dc.lft.to/lastmile_qr_scan"}, "type": "electric_scooter", "name": "632f65f5640da3ec78d0e06c819c79d6", "is_reserved": 0, "lon": -77.00730733333333, "is_disabled": 0, "fusion_lat": 0.0, "lat": 38.905747833333336, "bike_id": "632f65f5640da3ec78d0e06c819c79d6", "fusion_lon": 0.0}, {"rental_uris": {"ios": "https://dc.lft.to/lastmile_qr_scan", "android": "https://dc.lft.to/lastmile_qr_scan"}, "type": "electric_scooter", "name": "35c51883d4b71fd74d16439a48d188e2", "is_reserved": 0, "lon": -77.03241816666667, "is_disabled": 0, "fusion_lat": 0.0, "lat": 38.905445, "bike_id": "35c51883d4b71fd74d16439a48d188e2", "fusion_lon": 0.0}, {"rental_uris": {"ios": "https://dc.lft.to/lastmile_qr_scan", "android": "https://dc.lft.to/lastmile_qr_scan"}, "type": "electric_scooter", "name": "1e228ef0e48ae1172369030c640818b8", "is_reserved": 0, "lon": -77.01431583333333, "is_disabled": 0, "fusion_lat": 0.0, "lat": 38.914615, "bike_id": "1e228ef0e48ae1172369030c640818b8", "fusion_lon": 0.0}, {"rental_uris": {"ios": "https://dc.lft.to/lastmile_qr_scan", "android": "https://dc.lft.to/lastmile_qr_scan"}, "type": "electric_scooter", "name": "ce1f67826b23980e0b3d40137a8c4db5", "is_reserved": 0, "lon": -77.033847, "is_disabled": 0, "fusion_lat": 0.0, "lat": 38.90263866666667, "bike_id": "ce1f67826b23980e0b3d40137a8c4db5", "fusion_lon": 0.0}, {"rental_uris": {"ios": "https://dc.lft.to/lastmile_qr_scan", "android": "https://dc.lft.to/lastmile_qr_scan"}, "type": "electric_scooter", "name": "12689035bbbf58e331f844ca17354aa6", "is_reserved": 0, "lon": -77.03402083333333, "is_disabled": 0, "fusion_lat": 0.0, "lat": 38.93539366666667, "bike_id": "12689035bbbf58e331f844ca17354aa6", "fusion_lon": 0.0}, {"rental_uris": {"ios": "https://dc.lft.to/lastmile_qr_scan", "android": "https://dc.lft.to/lastmile_qr_scan"}, "type": "electric_scooter", "name": "f89e31660b04b14d6367d8eaafd5ff83", "is_reserved": 0, "lon": -77.02379933333333, "is_disabled": 0, "fusion_lat": 0.0, "lat": 38.919717166666665, "bike_id": "f89e31660b04b14d6367d8eaafd5ff83", "fusion_lon": 0.0}, {"rental_uris": {"ios": "https://dc.lft.to/lastmile_qr_scan", "android": "https://dc.lft.to/lastmile_qr_scan"}, "type": "electric_scooter", "name": "d9ea1b4c9e16f03228921ccc37a18f12", "is_reserved": 0, "lon": -77.07255866666667, "is_disabled": 0, "fusion_lat": 0.0, "lat": 38.933215, "bike_id": "d9ea1b4c9e16f03228921ccc37a18f12", "fusion_lon": 0.0}, {"rental_uris": {"ios": "https://dc.lft.to/lastmile_qr_scan", "android": "https://dc.lft.to/lastmile_qr_scan"}, "type": "electric_scooter", "name": "8621cd09ef5776bb75874af3b9ab8b0f", "is_reserved": 0, "lon": -77.03537933333334, "is_disabled": 0, "fusion_lat": 0.0, "lat": 38.93613033333333, "bike_id": "8621cd09ef5776bb75874af3b9ab8b0f", "fusion_lon": 0.0}, {"rental_uris": {"ios": "https://dc.lft.to/lastmile_qr_scan", "android": "https://dc.lft.to/lastmile_qr_scan"}, "type": "electric_scooter", "name": "c9ede6579c714c390a322281cd39ecab", "is_reserved": 0, "lon": -77.02552983333334, "is_disabled": 0, "fusion_lat": 0.0, "lat": 38.93092216666667, "bike_id": "c9ede6579c714c390a322281cd39ecab", "fusion_lon": 0.0}, {"rental_uris": {"ios": "https://dc.lft.to/lastmile_qr_scan", "android": "https://dc.lft.to/lastmile_qr_scan"}, "type": "electric_scooter", "name": "184383463c42427c6dcaf068bf279a41", "is_reserved": 0, "lon": -76.978038, "is_disabled": 0, "fusion_lat": 0.0, "lat": 38.90310133333333, "bike_id": "184383463c42427c6dcaf068bf279a41", "fusion_lon": 0.0}, {"rental_uris": {"ios": "https://dc.lft.to/lastmile_qr_scan", "android": "https://dc.lft.to/lastmile_qr_scan"}, "type": "electric_scooter", "name": "a85080c072e484e1b0af76eabaefc189", "is_reserved": 0, "lon": -76.990094, "is_disabled": 0, "fusion_lat": 0.0, "lat": 38.899926, "bike_id": "a85080c072e484e1b0af76eabaefc189", "fusion_lon": 0.0}, {"rental_uris": {"ios": "https://dc.lft.to/lastmile_qr_scan", "android": "https://dc.lft.to/lastmile_qr_scan"}, "type": "electric_scooter", "name": "b2ba04a864dcb661e3774d202f26c962", "is_reserved": 0, "lon": -77.02221033333333, "is_disabled": 0, "fusion_lat": 0.0, "lat": 38.92085183333333, "bike_id": "b2ba04a864dcb661e3774d202f26c962", "fusion_lon": 0.0}, {"rental_uris": {"ios": "https://dc.lft.to/lastmile_qr_scan", "android": "https://dc.lft.to/lastmile_qr_scan"}, "type": "electric_scooter", "name": "3c82c1036ec6460655933742dd7b558f", "is_reserved": 0, "lon": -77.023062, "is_disabled": 0, "fusion_lat": 0.0, "lat": 38.91392233333333, "bike_id": "3c82c1036ec6460655933742dd7b558f", "fusion_lon": 0.0}, {"rental_uris": {"ios": "https://dc.lft.to/lastmile_qr_scan", "android": "https://dc.lft.to/lastmile_qr_scan"}, "type": "electric_scooter", "name": "369f5f04a653ec8f28927bee690b945a", "is_reserved": 0, "lon": -77.04494866666667, "is_disabled": 0, "fusion_lat": 0.0, "lat": 38.919236166666664, "bike_id": "369f5f04a653ec8f28927bee690b945a", "fusion_lon": 0.0}, {"rental_uris": {"ios": "https://dc.lft.to/lastmile_qr_scan", "android": "https://dc.lft.to/lastmile_qr_scan"}, "type": "electric_scooter", "name": "d2775bab48b98da18901c64a74ddefa6", "is_reserved": 0, "lon": -77.00922316666667, "is_disabled": 0, "fusion_lat": 0.0, "lat": 38.896898666666665, "bike_id": "d2775bab48b98da18901c64a74ddefa6", "fusion_lon": 0.0}, {"rental_uris": {"ios": "https://dc.lft.to/lastmile_qr_scan", "android": "https://dc.lft.to/lastmile_qr_scan"}, "type": "electric_scooter", "name": "bbdea18c18867adbc01b15c1f357f90d", "is_reserved": 0, "lon": -77.03322033333333, "is_disabled": 0, "fusion_lat": 0.0, "lat": 38.918048166666665, "bike_id": "bbdea18c18867adbc01b15c1f357f90d", "fusion_lon": 0.0}, {"rental_uris": {"ios": "https://dc.lft.to/lastmile_qr_scan", "android": "https://dc.lft.to/lastmile_qr_scan"}, "type": "electric_scooter", "name": "1536aa492c054b368e416f683cbd5773", "is_reserved": 0, "lon": -77.02512133333333, "is_disabled": 0, "fusion_lat": 0.0, "lat": 38.89746233333334, "bike_id": "1536aa492c054b368e416f683cbd5773", "fusion_lon": 0.0}, {"rental_uris": {"ios": "https://dc.lft.to/lastmile_qr_scan", "android": "https://dc.lft.to/lastmile_qr_scan"}, "type": "electric_scooter", "name": "8eb8dbe5589fb6ab795829e8d80a5ff6", "is_reserved": 0, "lon": -77.02554016666667, "is_disabled": 0, "fusion_lat": 0.0, "lat": 38.9309065, "bike_id": "8eb8dbe5589fb6ab795829e8d80a5ff6", "fusion_lon": 0.0}, {"rental_uris": {"ios": "https://dc.lft.to/lastmile_qr_scan", "android": "https://dc.lft.to/lastmile_qr_scan"}, "type": "electric_scooter", "name": "d4c016a095f782d8b1bdb5a3d4ed7399", "is_reserved": 0, "lon": -77.0476305, "is_disabled": 0, "fusion_lat": 0.0, "lat": 38.91866433333333, "bike_id": "d4c016a095f782d8b1bdb5a3d4ed7399", "fusion_lon": 0.0}, {"rental_uris": {"ios": "https://dc.lft.to/lastmile_qr_scan", "android": "https://dc.lft.to/lastmile_qr_scan"}, "type": "electric_scooter", "name": "839e7b0632d77ea3cc0b2497e041d858", "is_reserved": 0, "lon": -77.03934583333333, "is_disabled": 0, "fusion_lat": 0.0, "lat": 38.901574, "bike_id": "839e7b0632d77ea3cc0b2497e041d858", "fusion_lon": 0.0}, {"rental_uris": {"ios": "https://dc.lft.to/lastmile_qr_scan", "android": "https://dc.lft.to/lastmile_qr_scan"}, "type": "electric_scooter", "name": "3314d65fbfa21b80ea0349575a844bcd", "is_reserved": 0, "lon": -77.0528225, "is_disabled": 0, "fusion_lat": 0.0, "lat": 38.925521333333336, "bike_id": "3314d65fbfa21b80ea0349575a844bcd", "fusion_lon": 0.0}, {"rental_uris": {"ios": "https://dc.lft.to/lastmile_qr_scan", "android": "https://dc.lft.to/lastmile_qr_scan"}, "type": "electric_scooter", "name": "b9f70fab47d5213a9ba5e8809c279f89", "is_reserved": 0, "lon": -77.04329783333333, "is_disabled": 0, "fusion_lat": 0.0, "lat": 38.92620616666667, "bike_id": "b9f70fab47d5213a9ba5e8809c279f89", "fusion_lon": 0.0}, {"rental_uris": {"ios": "https://dc.lft.to/lastmile_qr_scan", "android": "https://dc.lft.to/lastmile_qr_scan"}, "type": "electric_bike", "name": "803117ec4b55cbfc1170ec4a6a1ca5e2", "is_reserved": 0, "lon": -77.015685, "is_disabled": 0, "fusion_lat": 0.0, "lat": 38.911032166666665, "bike_id": "803117ec4b55cbfc1170ec4a6a1ca5e2", "fusion_lon": 0.0}, {"rental_uris": {"ios": "https://dc.lft.to/lastmile_qr_scan", "android": "https://dc.lft.to/lastmile_qr_scan"}, "type": "electric_scooter", "name": "3a3399f24308bd342fb59271ec21dd6b", "is_reserved": 0, "lon": -77.04034316666667, "is_disabled": 0, "fusion_lat": 0.0, "lat": 38.9047645, "bike_id": "3a3399f24308bd342fb59271ec21dd6b", "fusion_lon": 0.0}, {"rental_uris": {"ios": "https://dc.lft.to/lastmile_qr_scan", "android": "https://dc.lft.to/lastmile_qr_scan"}, "type": "electric_scooter", "name": "f64bc690b4d1e3d2b6548ad18d7f5426", "is_reserved": 0, "lon": -77.0468095, "is_disabled": 0, "fusion_lat": 0.0, "lat": 38.91808133333333, "bike_id": "f64bc690b4d1e3d2b6548ad18d7f5426", "fusion_lon": 0.0}, {"rental_uris": {"ios": "https://dc.lft.to/lastmile_qr_scan", "android": "https://dc.lft.to/lastmile_qr_scan"}, "type": "electric_scooter", "name": "a79e9d726141086d1be3014a753e51bf", "is_reserved": 0, "lon": -77.00799683333334, "is_disabled": 0, "fusion_lat": 0.0, "lat": 38.91264983333333, "bike_id": "a79e9d726141086d1be3014a753e51bf", "fusion_lon": 0.0}, {"rental_uris": {"ios": "https://dc.lft.to/lastmile_qr_scan", "android": "https://dc.lft.to/lastmile_qr_scan"}, "type": "electric_scooter", "name": "b4570a338db4cbd29cfcb713e1365fff", "is_reserved": 0, "lon": -77.03255183333333, "is_disabled": 0, "fusion_lat": 0.0, "lat": 38.90961333333333, "bike_id": "b4570a338db4cbd29cfcb713e1365fff", "fusion_lon": 0.0}, {"rental_uris": {"ios": "https://dc.lft.to/lastmile_qr_scan", "android": "https://dc.lft.to/lastmile_qr_scan"}, "type": "electric_scooter", "name": "34dcfd6c060ba048b5293bce97a5ba24", "is_reserved": 0, "lon": -77.03185266666667, "is_disabled": 0, "fusion_lat": 0.0, "lat": 38.88700883333333, "bike_id": "34dcfd6c060ba048b5293bce97a5ba24", "fusion_lon": 0.0}, {"rental_uris": {"ios": "https://dc.lft.to/lastmile_qr_scan", "android": "https://dc.lft.to/lastmile_qr_scan"}, "type": "electric_scooter", "name": "6a1806a9b8660e250115f6b381a9b157", "is_reserved": 0, "lon": -77.036561, "is_disabled": 0, "fusion_lat": 0.0, "lat": 38.9238165, "bike_id": "6a1806a9b8660e250115f6b381a9b157", "fusion_lon": 0.0}, {"rental_uris": {"ios": "https://dc.lft.to/lastmile_qr_scan", "android": "https://dc.lft.to/lastmile_qr_scan"}, "type": "electric_scooter", "name": "b39a44e927779a86c04f084f61229283", "is_reserved": 0, "lon": -76.9821255, "is_disabled": 0, "fusion_lat": 0.0, "lat": 38.8863955, "bike_id": "b39a44e927779a86c04f084f61229283", "fusion_lon": 0.0}, {"rental_uris": {"ios": "https://dc.lft.to/lastmile_qr_scan", "android": "https://dc.lft.to/lastmile_qr_scan"}, "type": "electric_scooter", "name": "4fa91ea765ea8f6c4aedea0563e1c96a", "is_reserved": 0, "lon": -77.0220555, "is_disabled": 0, "fusion_lat": 0.0, "lat": 38.88708883333334, "bike_id": "4fa91ea765ea8f6c4aedea0563e1c96a", "fusion_lon": 0.0}, {"rental_uris": {"ios": "https://dc.lft.to/lastmile_qr_scan", "android": "https://dc.lft.to/lastmile_qr_scan"}, "type": "electric_scooter", "name": "7adc153faf48c30b729215a71ae39398", "is_reserved": 0, "lon": -77.03658766666666, "is_disabled": 0, "fusion_lat": 0.0, "lat": 38.9184725, "bike_id": "7adc153faf48c30b729215a71ae39398", "fusion_lon": 0.0}, {"rental_uris": {"ios": "https://dc.lft.to/lastmile_qr_scan", "android": "https://dc.lft.to/lastmile_qr_scan"}, "type": "electric_scooter", "name": "351231b8c55cc592f782530719e3e761", "is_reserved": 0, "lon": -77.04536266666666, "is_disabled": 0, "fusion_lat": 0.0, "lat": 38.89752683333333, "bike_id": "351231b8c55cc592f782530719e3e761", "fusion_lon": 0.0}, {"rental_uris": {"ios": "https://dc.lft.to/lastmile_qr_scan", "android": "https://dc.lft.to/lastmile_qr_scan"}, "type": "electric_scooter", "name": "b0223fa0a2cac8cd9e214badf1b29bc1", "is_reserved": 0, "lon": -77.03296183333333, "is_disabled": 0, "fusion_lat": 0.0, "lat": 38.92046933333334, "bike_id": "b0223fa0a2cac8cd9e214badf1b29bc1", "fusion_lon": 0.0}, {"rental_uris": {"ios": "https://dc.lft.to/lastmile_qr_scan", "android": "https://dc.lft.to/lastmile_qr_scan"}, "type": "electric_scooter", "name": "d5b84829d5c9ad1734947dd52bafbad2", "is_reserved": 0, "lon": -77.01961516666667, "is_disabled": 0, "fusion_lat": 0.0, "lat": 38.93382233333333, "bike_id": "d5b84829d5c9ad1734947dd52bafbad2", "fusion_lon": 0.0}, {"rental_uris": {"ios": "https://dc.lft.to/lastmile_qr_scan", "android": "https://dc.lft.to/lastmile_qr_scan"}, "type": "electric_scooter", "name": "a99f2b7b6519a3026b2dcf2e4578224b", "is_reserved": 0, "lon": -77.02586866666667, "is_disabled": 0, "fusion_lat": 0.0, "lat": 38.920373, "bike_id": "a99f2b7b6519a3026b2dcf2e4578224b", "fusion_lon": 0.0}, {"rental_uris": {"ios": "https://dc.lft.to/lastmile_qr_scan", "android": "https://dc.lft.to/lastmile_qr_scan"}, "type": "electric_scooter", "name": "84a6c95e199daa68ad94058a2039bfa5", "is_reserved": 0, "lon": -77.03284, "is_disabled": 0, "fusion_lat": 0.0, "lat": 38.92747333333333, "bike_id": "84a6c95e199daa68ad94058a2039bfa5", "fusion_lon": 0.0}, {"rental_uris": {"ios": "https://dc.lft.to/lastmile_qr_scan", "android": "https://dc.lft.to/lastmile_qr_scan"}, "type": "electric_scooter", "name": "62daca68807894cc38d694bd81cc70ab", "is_reserved": 0, "lon": -77.06521033333334, "is_disabled": 0, "fusion_lat": 0.0, "lat": 38.9498795, "bike_id": "62daca68807894cc38d694bd81cc70ab", "fusion_lon": 0.0}, {"rental_uris": {"ios": "https://dc.lft.to/lastmile_qr_scan", "android": "https://dc.lft.to/lastmile_qr_scan"}, "type": "electric_scooter", "name": "905132d5ef894626635aad0acda2acf1", "is_reserved": 0, "lon": -76.98986333333333, "is_disabled": 0, "fusion_lat": 0.0, "lat": 38.864956, "bike_id": "905132d5ef894626635aad0acda2acf1", "fusion_lon": 0.0}, {"rental_uris": {"ios": "https://dc.lft.to/lastmile_qr_scan", "android": "https://dc.lft.to/lastmile_qr_scan"}, "type": "electric_scooter", "name": "bcb5c7da0ecef05f0ab0f294bfa35101", "is_reserved": 0, "lon": -77.03716466666667, "is_disabled": 0, "fusion_lat": 0.0, "lat": 38.9118205, "bike_id": "bcb5c7da0ecef05f0ab0f294bfa35101", "fusion_lon": 0.0}, {"rental_uris": {"ios": "https://dc.lft.to/lastmile_qr_scan", "android": "https://dc.lft.to/lastmile_qr_scan"}, "type": "electric_scooter", "name": "fb33023da9f079038fc8796f86310024", "is_reserved": 0, "lon": -77.04181266666667, "is_disabled": 0, "fusion_lat": 0.0, "lat": 38.9139855, "bike_id": "fb33023da9f079038fc8796f86310024", "fusion_lon": 0.0}, {"rental_uris": {"ios": "https://dc.lft.to/lastmile_qr_scan", "android": "https://dc.lft.to/lastmile_qr_scan"}, "type": "electric_scooter", "name": "a14c47f1ba4df9b03331b8d4c56f769e", "is_reserved": 0, "lon": -77.039114, "is_disabled": 0, "fusion_lat": 0.0, "lat": 38.922384666666666, "bike_id": "a14c47f1ba4df9b03331b8d4c56f769e", "fusion_lon": 0.0}, {"rental_uris": {"ios": "https://dc.lft.to/lastmile_qr_scan", "android": "https://dc.lft.to/lastmile_qr_scan"}, "type": "electric_scooter", "name": "798554f7aad562316f9dd7924b960297", "is_reserved": 0, "lon": -77.036577, "is_disabled": 0, "fusion_lat": 0.0, "lat": 38.92284183333334, "bike_id": "798554f7aad562316f9dd7924b960297", "fusion_lon": 0.0}, {"rental_uris": {"ios": "https://dc.lft.to/lastmile_qr_scan", "android": "https://dc.lft.to/lastmile_qr_scan"}, "type": "electric_scooter", "name": "77dc759630ac41677662a19a374888a6", "is_reserved": 0, "lon": -77.03699466666667, "is_disabled": 0, "fusion_lat": 0.0, "lat": 38.932834666666665, "bike_id": "77dc759630ac41677662a19a374888a6", "fusion_lon": 0.0}, {"rental_uris": {"ios": "https://dc.lft.to/lastmile_qr_scan", "android": "https://dc.lft.to/lastmile_qr_scan"}, "type": "electric_scooter", "name": "ab067bfb178dd53580932536b74b3cf5", "is_reserved": 0, "lon": -77.022657, "is_disabled": 0, "fusion_lat": 0.0, "lat": 38.924106333333334, "bike_id": "ab067bfb178dd53580932536b74b3cf5", "fusion_lon": 0.0}, {"rental_uris": {"ios": "https://dc.lft.to/lastmile_qr_scan", "android": "https://dc.lft.to/lastmile_qr_scan"}, "type": "electric_scooter", "name": "c252ef40397f655a33756d748eb58734", "is_reserved": 0, "lon": -77.06521816666667, "is_disabled": 0, "fusion_lat": 0.0, "lat": 38.90582416666667, "bike_id": "c252ef40397f655a33756d748eb58734", "fusion_lon": 0.0}, {"rental_uris": {"ios": "https://dc.lft.to/lastmile_qr_scan", "android": "https://dc.lft.to/lastmile_qr_scan"}, "type": "electric_scooter", "name": "3b912630986f52e19249301c6a12e9f4", "is_reserved": 0, "lon": -77.02353066666667, "is_disabled": 0, "fusion_lat": 0.0, "lat": 38.935374833333334, "bike_id": "3b912630986f52e19249301c6a12e9f4", "fusion_lon": 0.0}, {"rental_uris": {"ios": "https://dc.lft.to/lastmile_qr_scan", "android": "https://dc.lft.to/lastmile_qr_scan"}, "type": "electric_scooter", "name": "ede9743a79539e87c74c52220cc3fb1b", "is_reserved": 0, "lon": -77.01349533333334, "is_disabled": 0, "fusion_lat": 0.0, "lat": 38.9193635, "bike_id": "ede9743a79539e87c74c52220cc3fb1b", "fusion_lon": 0.0}, {"rental_uris": {"ios": "https://dc.lft.to/lastmile_qr_scan", "android": "https://dc.lft.to/lastmile_qr_scan"}, "type": "electric_scooter", "name": "af8ce7677edfa71ca4e52e90d5dcab55", "is_reserved": 0, "lon": -77.03190183333334, "is_disabled": 0, "fusion_lat": 0.0, "lat": 38.90871816666667, "bike_id": "af8ce7677edfa71ca4e52e90d5dcab55", "fusion_lon": 0.0}, {"rental_uris": {"ios": "https://dc.lft.to/lastmile_qr_scan", "android": "https://dc.lft.to/lastmile_qr_scan"}, "type": "electric_scooter", "name": "1b69b9cba92321216cd90814dcb9a1ea", "is_reserved": 0, "lon": -77.01014866666667, "is_disabled": 0, "fusion_lat": 0.0, "lat": 38.914040166666666, "bike_id": "1b69b9cba92321216cd90814dcb9a1ea", "fusion_lon": 0.0}, {"rental_uris": {"ios": "https://dc.lft.to/lastmile_qr_scan", "android": "https://dc.lft.to/lastmile_qr_scan"}, "type": "electric_scooter", "name": "1ea723730b9d60eae879ac1fc24c3d9b", "is_reserved": 0, "lon": -77.021305, "is_disabled": 0, "fusion_lat": 0.0, "lat": 38.91337566666667, "bike_id": "1ea723730b9d60eae879ac1fc24c3d9b", "fusion_lon": 0.0}, {"rental_uris": {"ios": "https://dc.lft.to/lastmile_qr_scan", "android": "https://dc.lft.to/lastmile_qr_scan"}, "type": "electric_scooter", "name": "6222fedbda219247554ca0992ed40f09", "is_reserved": 0, "lon": -77.03130583333333, "is_disabled": 0, "fusion_lat": 0.0, "lat": 38.92371333333333, "bike_id": "6222fedbda219247554ca0992ed40f09", "fusion_lon": 0.0}, {"rental_uris": {"ios": "https://dc.lft.to/lastmile_qr_scan", "android": "https://dc.lft.to/lastmile_qr_scan"}, "type": "electric_scooter", "name": "f063e7f5c0328830a1045639cb69676c", "is_reserved": 0, "lon": -77.03292616666667, "is_disabled": 0, "fusion_lat": 0.0, "lat": 38.92453733333333, "bike_id": "f063e7f5c0328830a1045639cb69676c", "fusion_lon": 0.0}, {"rental_uris": {"ios": "https://dc.lft.to/lastmile_qr_scan", "android": "https://dc.lft.to/lastmile_qr_scan"}, "type": "electric_scooter", "name": "16ef4d111818eb3ae374d772a707f112", "is_reserved": 0, "lon": -77.0366055, "is_disabled": 0, "fusion_lat": 0.0, "lat": 38.910004666666666, "bike_id": "16ef4d111818eb3ae374d772a707f112", "fusion_lon": 0.0}, {"rental_uris": {"ios": "https://dc.lft.to/lastmile_qr_scan", "android": "https://dc.lft.to/lastmile_qr_scan"}, "type": "electric_scooter", "name": "44983da6244109dd57c99c3d4835274d", "is_reserved": 0, "lon": -77.044914, "is_disabled": 0, "fusion_lat": 0.0, "lat": 38.91519433333333, "bike_id": "44983da6244109dd57c99c3d4835274d", "fusion_lon": 0.0}, {"rental_uris": {"ios": "https://dc.lft.to/lastmile_qr_scan", "android": "https://dc.lft.to/lastmile_qr_scan"}, "type": "electric_scooter", "name": "737a50417f5504441fe4bc1e1428e9ec", "is_reserved": 0, "lon": -77.0423155, "is_disabled": 0, "fusion_lat": 0.0, "lat": 38.921888833333334, "bike_id": "737a50417f5504441fe4bc1e1428e9ec", "fusion_lon": 0.0}, {"rental_uris": {"ios": "https://dc.lft.to/lastmile_qr_scan", "android": "https://dc.lft.to/lastmile_qr_scan"}, "type": "electric_scooter", "name": "3292b6ecccf4a12cbae103e3595c8c40", "is_reserved": 0, "lon": -77.0177005, "is_disabled": 0, "fusion_lat": 0.0, "lat": 38.88727733333333, "bike_id": "3292b6ecccf4a12cbae103e3595c8c40", "fusion_lon": 0.0}, {"rental_uris": {"ios": "https://dc.lft.to/lastmile_qr_scan", "android": "https://dc.lft.to/lastmile_qr_scan"}, "type": "electric_scooter", "name": "73e0a3c87294f63ae0848d826f38504a", "is_reserved": 0, "lon": -76.933865, "is_disabled": 0, "fusion_lat": 0.0, "lat": 38.89901716666667, "bike_id": "73e0a3c87294f63ae0848d826f38504a", "fusion_lon": 0.0}, {"rental_uris": {"ios": "https://dc.lft.to/lastmile_qr_scan", "android": "https://dc.lft.to/lastmile_qr_scan"}, "type": "electric_scooter", "name": "444713b7b5126791d198221e71e4c62c", "is_reserved": 0, "lon": -77.02175283333334, "is_disabled": 0, "fusion_lat": 0.0, "lat": 38.91978133333333, "bike_id": "444713b7b5126791d198221e71e4c62c", "fusion_lon": 0.0}, {"rental_uris": {"ios": "https://dc.lft.to/lastmile_qr_scan", "android": "https://dc.lft.to/lastmile_qr_scan"}, "type": "electric_scooter", "name": "133bf24e45d29e856253c7416f3424f0", "is_reserved": 0, "lon": -77.00795316666667, "is_disabled": 0, "fusion_lat": 0.0, "lat": 38.897133, "bike_id": "133bf24e45d29e856253c7416f3424f0", "fusion_lon": 0.0}, {"rental_uris": {"ios": "https://dc.lft.to/lastmile_qr_scan", "android": "https://dc.lft.to/lastmile_qr_scan"}, "type": "electric_scooter", "name": "6dc841b61619655327370b00bb4828cf", "is_reserved": 0, "lon": -77.04670466666667, "is_disabled": 0, "fusion_lat": 0.0, "lat": 38.9211555, "bike_id": "6dc841b61619655327370b00bb4828cf", "fusion_lon": 0.0}, {"rental_uris": {"ios": "https://dc.lft.to/lastmile_qr_scan", "android": "https://dc.lft.to/lastmile_qr_scan"}, "type": "electric_scooter", "name": "6f6d461de01c54ee021afba810b13317", "is_reserved": 0, "lon": -77.00120766666667, "is_disabled": 0, "fusion_lat": 0.0, "lat": 38.87798383333333, "bike_id": "6f6d461de01c54ee021afba810b13317", "fusion_lon": 0.0}, {"rental_uris": {"ios": "https://dc.lft.to/lastmile_qr_scan", "android": "https://dc.lft.to/lastmile_qr_scan"}, "type": "electric_scooter", "name": "31305685e5bde54f000d9bb9b0636437", "is_reserved": 0, "lon": -76.983193, "is_disabled": 0, "fusion_lat": 0.0, "lat": 38.87832616666667, "bike_id": "31305685e5bde54f000d9bb9b0636437", "fusion_lon": 0.0}, {"rental_uris": {"ios": "https://dc.lft.to/lastmile_qr_scan", "android": "https://dc.lft.to/lastmile_qr_scan"}, "type": "electric_scooter", "name": "936ca01feb0f66784d14c1dbea73dfaa", "is_reserved": 0, "lon": -76.98702416666667, "is_disabled": 0, "fusion_lat": 0.0, "lat": 38.85962466666667, "bike_id": "936ca01feb0f66784d14c1dbea73dfaa", "fusion_lon": 0.0}, {"rental_uris": {"ios": "https://dc.lft.to/lastmile_qr_scan", "android": "https://dc.lft.to/lastmile_qr_scan"}, "type": "electric_scooter", "name": "3aa25b8ac91546bf92392a24aa647e9d", "is_reserved": 0, "lon": -77.01478983333334, "is_disabled": 0, "fusion_lat": 0.0, "lat": 38.943309666666664, "bike_id": "3aa25b8ac91546bf92392a24aa647e9d", "fusion_lon": 0.0}, {"rental_uris": {"ios": "https://dc.lft.to/lastmile_qr_scan", "android": "https://dc.lft.to/lastmile_qr_scan"}, "type": "electric_scooter", "name": "3066c21c7c9a60ad0605e3302b37c7f2", "is_reserved": 0, "lon": -76.973581, "is_disabled": 0, "fusion_lat": 0.0, "lat": 38.84999216666667, "bike_id": "3066c21c7c9a60ad0605e3302b37c7f2", "fusion_lon": 0.0}, {"rental_uris": {"ios": "https://dc.lft.to/lastmile_qr_scan", "android": "https://dc.lft.to/lastmile_qr_scan"}, "type": "electric_scooter", "name": "11b0b9d9be54780767be03877985682a", "is_reserved": 0, "lon": -77.04140416666667, "is_disabled": 0, "fusion_lat": 0.0, "lat": 38.930420166666664, "bike_id": "11b0b9d9be54780767be03877985682a", "fusion_lon": 0.0}, {"rental_uris": {"ios": "https://dc.lft.to/lastmile_qr_scan", "android": "https://dc.lft.to/lastmile_qr_scan"}, "type": "electric_scooter", "name": "6d7d258cc3ee150ba8b4537b8f29094c", "is_reserved": 0, "lon": -77.00575283333333, "is_disabled": 0, "fusion_lat": 0.0, "lat": 38.9068915, "bike_id": "6d7d258cc3ee150ba8b4537b8f29094c", "fusion_lon": 0.0}, {"rental_uris": {"ios": "https://dc.lft.to/lastmile_qr_scan", "android": "https://dc.lft.to/lastmile_qr_scan"}, "type": "electric_scooter", "name": "b1b04e7375753e31e0f3400e337789db", "is_reserved": 0, "lon": -77.02652816666667, "is_disabled": 0, "fusion_lat": 0.0, "lat": 38.881123333333335, "bike_id": "b1b04e7375753e31e0f3400e337789db", "fusion_lon": 0.0}, {"rental_uris": {"ios": "https://dc.lft.to/lastmile_qr_scan", "android": "https://dc.lft.to/lastmile_qr_scan"}, "type": "electric_scooter", "name": "b29fc76b29aee34a3768b40aed23e359", "is_reserved": 0, "lon": -77.01579766666667, "is_disabled": 0, "fusion_lat": 0.0, "lat": 38.87652666666666, "bike_id": "b29fc76b29aee34a3768b40aed23e359", "fusion_lon": 0.0}, {"rental_uris": {"ios": "https://dc.lft.to/lastmile_qr_scan", "android": "https://dc.lft.to/lastmile_qr_scan"}, "type": "electric_scooter", "name": "59098e702cc798fe3ccffd82bf5aabb8", "is_reserved": 0, "lon": -76.99043833333333, "is_disabled": 0, "fusion_lat": 0.0, "lat": 38.86369366666667, "bike_id": "59098e702cc798fe3ccffd82bf5aabb8", "fusion_lon": 0.0}, {"rental_uris": {"ios": "https://dc.lft.to/lastmile_qr_scan", "android": "https://dc.lft.to/lastmile_qr_scan"}, "type": "electric_scooter", "name": "fdab93a1d52d80aa40ea420a1b9511ff", "is_reserved": 0, "lon": -77.0266835, "is_disabled": 0, "fusion_lat": 0.0, "lat": 38.90253283333333, "bike_id": "fdab93a1d52d80aa40ea420a1b9511ff", "fusion_lon": 0.0}, {"rental_uris": {"ios": "https://dc.lft.to/lastmile_qr_scan", "android": "https://dc.lft.to/lastmile_qr_scan"}, "type": "electric_bike", "name": "e59497b6f36a0e18607439189b8e8472", "is_reserved": 0, "lon": -76.9453685, "is_disabled": 0, "fusion_lat": 0.0, "lat": 38.8674815, "bike_id": "e59497b6f36a0e18607439189b8e8472", "fusion_lon": 0.0}, {"rental_uris": {"ios": "https://dc.lft.to/lastmile_qr_scan", "android": "https://dc.lft.to/lastmile_qr_scan"}, "type": "electric_scooter", "name": "f5eac7bee108e0904e2115fd736f0359", "is_reserved": 0, "lon": -77.027204, "is_disabled": 0, "fusion_lat": 0.0, "lat": 38.924793, "bike_id": "f5eac7bee108e0904e2115fd736f0359", "fusion_lon": 0.0}, {"rental_uris": {"ios": "https://dc.lft.to/lastmile_qr_scan", "android": "https://dc.lft.to/lastmile_qr_scan"}, "type": "electric_scooter", "name": "e0cc69f2f892f1efa84182f3411b102b", "is_reserved": 0, "lon": -77.051574, "is_disabled": 0, "fusion_lat": 0.0, "lat": 38.904441, "bike_id": "e0cc69f2f892f1efa84182f3411b102b", "fusion_lon": 0.0}, {"rental_uris": {"ios": "https://dc.lft.to/lastmile_qr_scan", "android": "https://dc.lft.to/lastmile_qr_scan"}, "type": "electric_scooter", "name": "a736b2e1b2f76d7a4a6a6b629b734dd9", "is_reserved": 0, "lon": -77.03668766666667, "is_disabled": 0, "fusion_lat": 0.0, "lat": 38.92141016666667, "bike_id": "a736b2e1b2f76d7a4a6a6b629b734dd9", "fusion_lon": 0.0}, {"rental_uris": {"ios": "https://dc.lft.to/lastmile_qr_scan", "android": "https://dc.lft.to/lastmile_qr_scan"}, "type": "electric_scooter", "name": "d6e04b868f4148cd8837931a3422a336", "is_reserved": 0, "lon": -77.03331033333333, "is_disabled": 0, "fusion_lat": 0.0, "lat": 38.9285465, "bike_id": "d6e04b868f4148cd8837931a3422a336", "fusion_lon": 0.0}, {"rental_uris": {"ios": "https://dc.lft.to/lastmile_qr_scan", "android": "https://dc.lft.to/lastmile_qr_scan"}, "type": "electric_scooter", "name": "3d3bb0df7699b67d7ad1a024c06463f3", "is_reserved": 0, "lon": -77.0060435, "is_disabled": 0, "fusion_lat": 0.0, "lat": 38.90553666666667, "bike_id": "3d3bb0df7699b67d7ad1a024c06463f3", "fusion_lon": 0.0}, {"rental_uris": {"ios": "https://dc.lft.to/lastmile_qr_scan", "android": "https://dc.lft.to/lastmile_qr_scan"}, "type": "electric_scooter", "name": "10bcdc72168b18f561cd1accaa345ed3", "is_reserved": 0, "lon": -77.01317083333333, "is_disabled": 0, "fusion_lat": 0.0, "lat": 38.92029683333333, "bike_id": "10bcdc72168b18f561cd1accaa345ed3", "fusion_lon": 0.0}, {"rental_uris": {"ios": "https://dc.lft.to/lastmile_qr_scan", "android": "https://dc.lft.to/lastmile_qr_scan"}, "type": "electric_scooter", "name": "25043201b1bfcad92a6540e9db8af5dd", "is_reserved": 0, "lon": -76.999423, "is_disabled": 0, "fusion_lat": 0.0, "lat": 38.9005785, "bike_id": "25043201b1bfcad92a6540e9db8af5dd", "fusion_lon": 0.0}, {"rental_uris": {"ios": "https://dc.lft.to/lastmile_qr_scan", "android": "https://dc.lft.to/lastmile_qr_scan"}, "type": "electric_scooter", "name": "bb7f5b518cf9449790efe06ce500a28a", "is_reserved": 0, "lon": -77.03341583333334, "is_disabled": 0, "fusion_lat": 0.0, "lat": 38.9254315, "bike_id": "bb7f5b518cf9449790efe06ce500a28a", "fusion_lon": 0.0}, {"rental_uris": {"ios": "https://dc.lft.to/lastmile_qr_scan", "android": "https://dc.lft.to/lastmile_qr_scan"}, "type": "electric_scooter", "name": "9ee961702d095861f8168eb58a974c1c", "is_reserved": 0, "lon": -77.07014383333333, "is_disabled": 0, "fusion_lat": 0.0, "lat": 38.893166, "bike_id": "9ee961702d095861f8168eb58a974c1c", "fusion_lon": 0.0}, {"rental_uris": {"ios": "https://dc.lft.to/lastmile_qr_scan", "android": "https://dc.lft.to/lastmile_qr_scan"}, "type": "electric_scooter", "name": "233c206ed890b267253b49f088954839", "is_reserved": 0, "lon": -77.05006166666666, "is_disabled": 0, "fusion_lat": 0.0, "lat": 38.892271666666666, "bike_id": "233c206ed890b267253b49f088954839", "fusion_lon": 0.0}, {"rental_uris": {"ios": "https://dc.lft.to/lastmile_qr_scan", "android": "https://dc.lft.to/lastmile_qr_scan"}, "type": "electric_bike", "name": "48da3f5c638d2ebe010acc931d0d2797", "is_reserved": 0, "lon": -76.94153, "is_disabled": 0, "fusion_lat": 0.0, "lat": 38.8901615, "bike_id": "48da3f5c638d2ebe010acc931d0d2797", "fusion_lon": 0.0}, {"rental_uris": {"ios": "https://dc.lft.to/lastmile_qr_scan", "android": "https://dc.lft.to/lastmile_qr_scan"}, "type": "electric_bike", "name": "921385f041b53f866729e209895d748b", "is_reserved": 0, "lon": -76.975573, "is_disabled": 0, "fusion_lat": 0.0, "lat": 38.90435166666666, "bike_id": "921385f041b53f866729e209895d748b", "fusion_lon": 0.0}, {"rental_uris": {"ios": "https://dc.lft.to/lastmile_qr_scan", "android": "https://dc.lft.to/lastmile_qr_scan"}, "type": "electric_scooter", "name": "76e0ab63ec4dda262f2b899de6f44432", "is_reserved": 0, "lon": -77.049476, "is_disabled": 0, "fusion_lat": 0.0, "lat": 38.920187166666665, "bike_id": "76e0ab63ec4dda262f2b899de6f44432", "fusion_lon": 0.0}, {"rental_uris": {"ios": "https://dc.lft.to/lastmile_qr_scan", "android": "https://dc.lft.to/lastmile_qr_scan"}, "type": "electric_bike", "name": "b56e663edfafa0e046dfc2bce1a8c4c1", "is_reserved": 0, "lon": -76.9515735, "is_disabled": 0, "fusion_lat": 0.0, "lat": 39.084332833333335, "bike_id": "b56e663edfafa0e046dfc2bce1a8c4c1", "fusion_lon": 0.0}, {"rental_uris": {"ios": "https://dc.lft.to/lastmile_qr_scan", "android": "https://dc.lft.to/lastmile_qr_scan"}, "type": "electric_scooter", "name": "42b5da365c915daa7e8899d67ab0b8d0", "is_reserved": 0, "lon": -77.00157083333333, "is_disabled": 0, "fusion_lat": 0.0, "lat": 38.821327, "bike_id": "42b5da365c915daa7e8899d67ab0b8d0", "fusion_lon": 0.0}, {"rental_uris": {"ios": "https://dc.lft.to/lastmile_qr_scan", "android": "https://dc.lft.to/lastmile_qr_scan"}, "type": "electric_scooter", "name": "7e52e2a0ea606b5180b6e4c1d06dc303", "is_reserved": 0, "lon": -76.930409, "is_disabled": 0, "fusion_lat": 0.0, "lat": 38.8839875, "bike_id": "7e52e2a0ea606b5180b6e4c1d06dc303", "fusion_lon": 0.0}, {"rental_uris": {"ios": "https://dc.lft.to/lastmile_qr_scan", "android": "https://dc.lft.to/lastmile_qr_scan"}, "type": "electric_scooter", "name": "cdbec7dfc6cf178b4fe97ae35695d5eb", "is_reserved": 0, "lon": -77.03848633333334, "is_disabled": 0, "fusion_lat": 0.0, "lat": 38.90657783333333, "bike_id": "cdbec7dfc6cf178b4fe97ae35695d5eb", "fusion_lon": 0.0}, {"rental_uris": {"ios": "https://dc.lft.to/lastmile_qr_scan", "android": "https://dc.lft.to/lastmile_qr_scan"}, "type": "electric_scooter", "name": "b3f93b22f33e2a4fe2e9a12e4459db22", "is_reserved": 0, "lon": -77.019383, "is_disabled": 0, "fusion_lat": 0.0, "lat": 38.94697, "bike_id": "b3f93b22f33e2a4fe2e9a12e4459db22", "fusion_lon": 0.0}, {"rental_uris": {"ios": "https://dc.lft.to/lastmile_qr_scan", "android": "https://dc.lft.to/lastmile_qr_scan"}, "type": "electric_scooter", "name": "30251664e80cbcc2d69540231fc4c2c0", "is_reserved": 0, "lon": -77.01829233333333, "is_disabled": 0, "fusion_lat": 0.0, "lat": 38.901015, "bike_id": "30251664e80cbcc2d69540231fc4c2c0", "fusion_lon": 0.0}, {"rental_uris": {"ios": "https://dc.lft.to/lastmile_qr_scan", "android": "https://dc.lft.to/lastmile_qr_scan"}, "type": "electric_bike", "name": "8eca7e5f5d113fedcbeb2e0e6022e7c3", "is_reserved": 0, "lon": -77.22824816666666, "is_disabled": 0, "fusion_lat": 0.0, "lat": 38.882633, "bike_id": "8eca7e5f5d113fedcbeb2e0e6022e7c3", "fusion_lon": 0.0}, {"rental_uris": {"ios": "https://dc.lft.to/lastmile_qr_scan", "android": "https://dc.lft.to/lastmile_qr_scan"}, "type": "electric_scooter", "name": "a4f82264a5926f59a324467a3fa854b7", "is_reserved": 0, "lon": -77.02625033333334, "is_disabled": 0, "fusion_lat": 0.0, "lat": 38.90508833333333, "bike_id": "a4f82264a5926f59a324467a3fa854b7", "fusion_lon": 0.0}, {"rental_uris": {"ios": "https://dc.lft.to/lastmile_qr_scan", "android": "https://dc.lft.to/lastmile_qr_scan"}, "type": "electric_scooter", "name": "77e8a7ca5697fea53cc0cc23399513d5", "is_reserved": 0, "lon": -77.04335033333334, "is_disabled": 0, "fusion_lat": 0.0, "lat": 38.89220066666667, "bike_id": "77e8a7ca5697fea53cc0cc23399513d5", "fusion_lon": 0.0}, {"rental_uris": {"ios": "https://dc.lft.to/lastmile_qr_scan", "android": "https://dc.lft.to/lastmile_qr_scan"}, "type": "electric_scooter", "name": "e936a4fee6fd9e91a4de249681d03598", "is_reserved": 0, "lon": -77.03087766666667, "is_disabled": 0, "fusion_lat": 0.0, "lat": 38.933012166666664, "bike_id": "e936a4fee6fd9e91a4de249681d03598", "fusion_lon": 0.0}, {"rental_uris": {"ios": "https://dc.lft.to/lastmile_qr_scan", "android": "https://dc.lft.to/lastmile_qr_scan"}, "type": "electric_bike", "name": "57aaa9ad46416241ccb9d73c4375c21d", "is_reserved": 0, "lon": -77.01434616666667, "is_disabled": 0, "fusion_lat": 0.0, "lat": 38.8766605, "bike_id": "57aaa9ad46416241ccb9d73c4375c21d", "fusion_lon": 0.0}, {"rental_uris": {"ios": "https://dc.lft.to/lastmile_qr_scan", "android": "https://dc.lft.to/lastmile_qr_scan"}, "type": "electric_scooter", "name": "1e9b1f1d3b288ad9885ba40e06237bf6", "is_reserved": 0, "lon": -77.00775116666667, "is_disabled": 0, "fusion_lat": 0.0, "lat": 38.95243883333333, "bike_id": "1e9b1f1d3b288ad9885ba40e06237bf6", "fusion_lon": 0.0}, {"rental_uris": {"ios": "https://dc.lft.to/lastmile_qr_scan", "android": "https://dc.lft.to/lastmile_qr_scan"}, "type": "electric_scooter", "name": "ff99e49b4520fc112396df3a99535693", "is_reserved": 0, "lon": -77.01340666666667, "is_disabled": 0, "fusion_lat": 0.0, "lat": 38.9191315, "bike_id": "ff99e49b4520fc112396df3a99535693", "fusion_lon": 0.0}, {"rental_uris": {"ios": "https://dc.lft.to/lastmile_qr_scan", "android": "https://dc.lft.to/lastmile_qr_scan"}, "type": "electric_scooter", "name": "81de323f834c6e2f51d6b014190a3d5d", "is_reserved": 0, "lon": -76.948265, "is_disabled": 0, "fusion_lat": 0.0, "lat": 38.885181333333335, "bike_id": "81de323f834c6e2f51d6b014190a3d5d", "fusion_lon": 0.0}, {"rental_uris": {"ios": "https://dc.lft.to/lastmile_qr_scan", "android": "https://dc.lft.to/lastmile_qr_scan"}, "type": "electric_scooter", "name": "346eb9e389ffb5cfc12c61b2cd50bc51", "is_reserved": 0, "lon": -77.04366066666667, "is_disabled": 0, "fusion_lat": 0.0, "lat": 38.892145, "bike_id": "346eb9e389ffb5cfc12c61b2cd50bc51", "fusion_lon": 0.0}, {"rental_uris": {"ios": "https://dc.lft.to/lastmile_qr_scan", "android": "https://dc.lft.to/lastmile_qr_scan"}, "type": "electric_scooter", "name": "78c08f6df04c40169fd0665c55f31294", "is_reserved": 0, "lon": -77.0283255, "is_disabled": 0, "fusion_lat": 0.0, "lat": 38.91406, "bike_id": "78c08f6df04c40169fd0665c55f31294", "fusion_lon": 0.0}, {"rental_uris": {"ios": "https://dc.lft.to/lastmile_qr_scan", "android": "https://dc.lft.to/lastmile_qr_scan"}, "type": "electric_scooter", "name": "17ee19f1645f2c15a3bb557cc74c704b", "is_reserved": 0, "lon": -77.03554633333333, "is_disabled": 0, "fusion_lat": 0.0, "lat": 38.90488666666667, "bike_id": "17ee19f1645f2c15a3bb557cc74c704b", "fusion_lon": 0.0}, {"rental_uris": {"ios": "https://dc.lft.to/lastmile_qr_scan", "android": "https://dc.lft.to/lastmile_qr_scan"}, "type": "electric_scooter", "name": "5c823f0deb0887e05b22ee02c47a1e2a", "is_reserved": 0, "lon": -77.01821766666667, "is_disabled": 0, "fusion_lat": 0.0, "lat": 38.90080483333333, "bike_id": "5c823f0deb0887e05b22ee02c47a1e2a", "fusion_lon": 0.0}, {"rental_uris": {"ios": "https://dc.lft.to/lastmile_qr_scan", "android": "https://dc.lft.to/lastmile_qr_scan"}, "type": "electric_scooter", "name": "976e20777a123328c8930ef8c9bc27fb", "is_reserved": 0, "lon": -77.0227945, "is_disabled": 0, "fusion_lat": 0.0, "lat": 38.91644383333333, "bike_id": "976e20777a123328c8930ef8c9bc27fb", "fusion_lon": 0.0}, {"rental_uris": {"ios": "https://dc.lft.to/lastmile_qr_scan", "android": "https://dc.lft.to/lastmile_qr_scan"}, "type": "electric_scooter", "name": "547a2262df4437dab50c0180dce2b743", "is_reserved": 0, "lon": -77.04139733333334, "is_disabled": 0, "fusion_lat": 0.0, "lat": 38.92170866666667, "bike_id": "547a2262df4437dab50c0180dce2b743", "fusion_lon": 0.0}, {"rental_uris": {"ios": "https://dc.lft.to/lastmile_qr_scan", "android": "https://dc.lft.to/lastmile_qr_scan"}, "type": "electric_scooter", "name": "853d4fb2f1d59cca59d86f57b180864f", "is_reserved": 0, "lon": -77.03762366666666, "is_disabled": 0, "fusion_lat": 0.0, "lat": 38.90663283333333, "bike_id": "853d4fb2f1d59cca59d86f57b180864f", "fusion_lon": 0.0}, {"rental_uris": {"ios": "https://dc.lft.to/lastmile_qr_scan", "android": "https://dc.lft.to/lastmile_qr_scan"}, "type": "electric_scooter", "name": "7f41085d11eee6f8e99aa8a517b82aab", "is_reserved": 0, "lon": -77.01768766666666, "is_disabled": 0, "fusion_lat": 0.0, "lat": 38.905114166666664, "bike_id": "7f41085d11eee6f8e99aa8a517b82aab", "fusion_lon": 0.0}, {"rental_uris": {"ios": "https://dc.lft.to/lastmile_qr_scan", "android": "https://dc.lft.to/lastmile_qr_scan"}, "type": "electric_scooter", "name": "6fe61898fd4633be448322c37ff5cc31", "is_reserved": 0, "lon": -76.95191633333333, "is_disabled": 0, "fusion_lat": 0.0, "lat": 38.9051435, "bike_id": "6fe61898fd4633be448322c37ff5cc31", "fusion_lon": 0.0}, {"rental_uris": {"ios": "https://dc.lft.to/lastmile_qr_scan", "android": "https://dc.lft.to/lastmile_qr_scan"}, "type": "electric_bike", "name": "511e3a0625092ccab6e53b8e7ccd8662", "is_reserved": 0, "lon": -77.00196083333333, "is_disabled": 0, "fusion_lat": 0.0, "lat": 38.94151133333333, "bike_id": "511e3a0625092ccab6e53b8e7ccd8662", "fusion_lon": 0.0}, {"rental_uris": {"ios": "https://dc.lft.to/lastmile_qr_scan", "android": "https://dc.lft.to/lastmile_qr_scan"}, "type": "electric_scooter", "name": "b9565fdc70804a4451889a2717f79b6e", "is_reserved": 0, "lon": -77.03444916666666, "is_disabled": 0, "fusion_lat": 0.0, "lat": 38.907299, "bike_id": "b9565fdc70804a4451889a2717f79b6e", "fusion_lon": 0.0}, {"rental_uris": {"ios": "https://dc.lft.to/lastmile_qr_scan", "android": "https://dc.lft.to/lastmile_qr_scan"}, "type": "electric_scooter", "name": "3565ab89a7553351f9603723db9c4876", "is_reserved": 0, "lon": -77.01997533333333, "is_disabled": 0, "fusion_lat": 0.0, "lat": 38.96625316666667, "bike_id": "3565ab89a7553351f9603723db9c4876", "fusion_lon": 0.0}, {"rental_uris": {"ios": "https://dc.lft.to/lastmile_qr_scan", "android": "https://dc.lft.to/lastmile_qr_scan"}, "type": "electric_scooter", "name": "f3113c4c8a2010136f23edea2d47ecd5", "is_reserved": 0, "lon": -77.00601183333333, "is_disabled": 0, "fusion_lat": 0.0, "lat": 38.90556766666667, "bike_id": "f3113c4c8a2010136f23edea2d47ecd5", "fusion_lon": 0.0}, {"rental_uris": {"ios": "https://dc.lft.to/lastmile_qr_scan", "android": "https://dc.lft.to/lastmile_qr_scan"}, "type": "electric_scooter", "name": "e711a1582c35ace656594a40852d2fcc", "is_reserved": 0, "lon": -77.0175745, "is_disabled": 0, "fusion_lat": 0.0, "lat": 38.8768475, "bike_id": "e711a1582c35ace656594a40852d2fcc", "fusion_lon": 0.0}, {"rental_uris": {"ios": "https://dc.lft.to/lastmile_qr_scan", "android": "https://dc.lft.to/lastmile_qr_scan"}, "type": "electric_scooter", "name": "142c4f142723ee29ec5f8088fac7a962", "is_reserved": 0, "lon": -76.92634933333333, "is_disabled": 0, "fusion_lat": 0.0, "lat": 38.901864, "bike_id": "142c4f142723ee29ec5f8088fac7a962", "fusion_lon": 0.0}, {"rental_uris": {"ios": "https://dc.lft.to/lastmile_qr_scan", "android": "https://dc.lft.to/lastmile_qr_scan"}, "type": "electric_scooter", "name": "67d05cb9901a9994bbc30ebc141d70ea", "is_reserved": 0, "lon": -77.02171866666667, "is_disabled": 0, "fusion_lat": 0.0, "lat": 38.929949666666666, "bike_id": "67d05cb9901a9994bbc30ebc141d70ea", "fusion_lon": 0.0}, {"rental_uris": {"ios": "https://dc.lft.to/lastmile_qr_scan", "android": "https://dc.lft.to/lastmile_qr_scan"}, "type": "electric_scooter", "name": "e76cb259dca800ddb9f665848ba11935", "is_reserved": 0, "lon": -76.98333066666666, "is_disabled": 0, "fusion_lat": 0.0, "lat": 38.900871333333335, "bike_id": "e76cb259dca800ddb9f665848ba11935", "fusion_lon": 0.0}, {"rental_uris": {"ios": "https://dc.lft.to/lastmile_qr_scan", "android": "https://dc.lft.to/lastmile_qr_scan"}, "type": "electric_scooter", "name": "e1fb294eefa5d8a6ec32a3c00a319ba4", "is_reserved": 0, "lon": -77.043788, "is_disabled": 0, "fusion_lat": 0.0, "lat": 38.934286166666666, "bike_id": "e1fb294eefa5d8a6ec32a3c00a319ba4", "fusion_lon": 0.0}, {"rental_uris": {"ios": "https://dc.lft.to/lastmile_qr_scan", "android": "https://dc.lft.to/lastmile_qr_scan"}, "type": "electric_scooter", "name": "7eb854c4fa007035ecc7ae83b21c00d9", "is_reserved": 0, "lon": -77.03382633333334, "is_disabled": 0, "fusion_lat": 0.0, "lat": 38.899709333333334, "bike_id": "7eb854c4fa007035ecc7ae83b21c00d9", "fusion_lon": 0.0}, {"rental_uris": {"ios": "https://dc.lft.to/lastmile_qr_scan", "android": "https://dc.lft.to/lastmile_qr_scan"}, "type": "electric_scooter", "name": "1e4d78c5ad538155530129a539cfa071", "is_reserved": 0, "lon": -77.032589, "is_disabled": 0, "fusion_lat": 0.0, "lat": 38.939805666666665, "bike_id": "1e4d78c5ad538155530129a539cfa071", "fusion_lon": 0.0}, {"rental_uris": {"ios": "https://dc.lft.to/lastmile_qr_scan", "android": "https://dc.lft.to/lastmile_qr_scan"}, "type": "electric_scooter", "name": "99510d3b967f060c8f86a36cefec92b5", "is_reserved": 0, "lon": -77.0348385, "is_disabled": 0, "fusion_lat": 0.0, "lat": 38.931127833333335, "bike_id": "99510d3b967f060c8f86a36cefec92b5", "fusion_lon": 0.0}, {"rental_uris": {"ios": "https://dc.lft.to/lastmile_qr_scan", "android": "https://dc.lft.to/lastmile_qr_scan"}, "type": "electric_scooter", "name": "7ef78e3024845499b40362152755dee5", "is_reserved": 0, "lon": -77.02032866666667, "is_disabled": 0, "fusion_lat": 0.0, "lat": 38.8930835, "bike_id": "7ef78e3024845499b40362152755dee5", "fusion_lon": 0.0}, {"rental_uris": {"ios": "https://dc.lft.to/lastmile_qr_scan", "android": "https://dc.lft.to/lastmile_qr_scan"}, "type": "electric_scooter", "name": "ddc65be3ffb5740c7153e1954e673445", "is_reserved": 0, "lon": -77.03041733333333, "is_disabled": 0, "fusion_lat": 0.0, "lat": 38.922414, "bike_id": "ddc65be3ffb5740c7153e1954e673445", "fusion_lon": 0.0}, {"rental_uris": {"ios": "https://dc.lft.to/lastmile_qr_scan", "android": "https://dc.lft.to/lastmile_qr_scan"}, "type": "electric_scooter", "name": "cb74e839001ce3b48e109439aece21a9", "is_reserved": 0, "lon": -77.00604533333333, "is_disabled": 0, "fusion_lat": 0.0, "lat": 38.9055715, "bike_id": "cb74e839001ce3b48e109439aece21a9", "fusion_lon": 0.0}, {"rental_uris": {"ios": "https://dc.lft.to/lastmile_qr_scan", "android": "https://dc.lft.to/lastmile_qr_scan"}, "type": "electric_scooter", "name": "a70a580422d6faab1c5e1094d37408f9", "is_reserved": 0, "lon": -77.050092, "is_disabled": 0, "fusion_lat": 0.0, "lat": 38.9008245, "bike_id": "a70a580422d6faab1c5e1094d37408f9", "fusion_lon": 0.0}, {"rental_uris": {"ios": "https://dc.lft.to/lastmile_qr_scan", "android": "https://dc.lft.to/lastmile_qr_scan"}, "type": "electric_scooter", "name": "a1802d6fc54dc772bebf68088e301b8e", "is_reserved": 0, "lon": -77.03385466666667, "is_disabled": 0, "fusion_lat": 0.0, "lat": 38.90268716666667, "bike_id": "a1802d6fc54dc772bebf68088e301b8e", "fusion_lon": 0.0}, {"rental_uris": {"ios": "https://dc.lft.to/lastmile_qr_scan", "android": "https://dc.lft.to/lastmile_qr_scan"}, "type": "electric_scooter", "name": "f6203463c9ff2f98faf62fc0aa34ea96", "is_reserved": 0, "lon": -77.029816, "is_disabled": 0, "fusion_lat": 0.0, "lat": 38.90535466666667, "bike_id": "f6203463c9ff2f98faf62fc0aa34ea96", "fusion_lon": 0.0}, {"rental_uris": {"ios": "https://dc.lft.to/lastmile_qr_scan", "android": "https://dc.lft.to/lastmile_qr_scan"}, "type": "electric_scooter", "name": "b310da1ef9d69ed82e1f6b155e8d8749", "is_reserved": 0, "lon": -77.03889883333333, "is_disabled": 0, "fusion_lat": 0.0, "lat": 38.90360733333333, "bike_id": "b310da1ef9d69ed82e1f6b155e8d8749", "fusion_lon": 0.0}, {"rental_uris": {"ios": "https://dc.lft.to/lastmile_qr_scan", "android": "https://dc.lft.to/lastmile_qr_scan"}, "type": "electric_scooter", "name": "4d526e8b2cb545418caa11394918f18b", "is_reserved": 0, "lon": -77.009153, "is_disabled": 0, "fusion_lat": 0.0, "lat": 38.923364166666666, "bike_id": "4d526e8b2cb545418caa11394918f18b", "fusion_lon": 0.0}, {"rental_uris": {"ios": "https://dc.lft.to/lastmile_qr_scan", "android": "https://dc.lft.to/lastmile_qr_scan"}, "type": "electric_scooter", "name": "5272d1d2869ad1493d875f7d77bdfc25", "is_reserved": 0, "lon": -77.053177, "is_disabled": 0, "fusion_lat": 0.0, "lat": 38.906430666666665, "bike_id": "5272d1d2869ad1493d875f7d77bdfc25", "fusion_lon": 0.0}, {"rental_uris": {"ios": "https://dc.lft.to/lastmile_qr_scan", "android": "https://dc.lft.to/lastmile_qr_scan"}, "type": "electric_scooter", "name": "4928186bf752af11071e3f8844ee4236", "is_reserved": 0, "lon": -77.028822, "is_disabled": 0, "fusion_lat": 0.0, "lat": 38.904452666666664, "bike_id": "4928186bf752af11071e3f8844ee4236", "fusion_lon": 0.0}, {"rental_uris": {"ios": "https://dc.lft.to/lastmile_qr_scan", "android": "https://dc.lft.to/lastmile_qr_scan"}, "type": "electric_scooter", "name": "d3d56e0a3b8c0883b5f7587d11ab2b4d", "is_reserved": 0, "lon": -77.03916633333333, "is_disabled": 0, "fusion_lat": 0.0, "lat": 38.9083035, "bike_id": "d3d56e0a3b8c0883b5f7587d11ab2b4d", "fusion_lon": 0.0}, {"rental_uris": {"ios": "https://dc.lft.to/lastmile_qr_scan", "android": "https://dc.lft.to/lastmile_qr_scan"}, "type": "electric_scooter", "name": "7754485515e430fa142cae1c077ba1ba", "is_reserved": 0, "lon": -77.04186666666666, "is_disabled": 0, "fusion_lat": 0.0, "lat": 38.92050866666666, "bike_id": "7754485515e430fa142cae1c077ba1ba", "fusion_lon": 0.0}, {"rental_uris": {"ios": "https://dc.lft.to/lastmile_qr_scan", "android": "https://dc.lft.to/lastmile_qr_scan"}, "type": "electric_scooter", "name": "8e8a5ea1903511813829e268ff567986", "is_reserved": 0, "lon": -77.02216633333333, "is_disabled": 0, "fusion_lat": 0.0, "lat": 38.88708066666667, "bike_id": "8e8a5ea1903511813829e268ff567986", "fusion_lon": 0.0}, {"rental_uris": {"ios": "https://dc.lft.to/lastmile_qr_scan", "android": "https://dc.lft.to/lastmile_qr_scan"}, "type": "electric_bike", "name": "e8e4dc2f9a2dc916a0046a403d0ba34d", "is_reserved": 0, "lon": -77.01218466666667, "is_disabled": 0, "fusion_lat": 0.0, "lat": 38.87188666666667, "bike_id": "e8e4dc2f9a2dc916a0046a403d0ba34d", "fusion_lon": 0.0}, {"rental_uris": {"ios": "https://dc.lft.to/lastmile_qr_scan", "android": "https://dc.lft.to/lastmile_qr_scan"}, "type": "electric_scooter", "name": "bcca629a2caeb0a6c57f1ce25c6ff0ef", "is_reserved": 0, "lon": -77.02596916666667, "is_disabled": 0, "fusion_lat": 0.0, "lat": 38.91689316666667, "bike_id": "bcca629a2caeb0a6c57f1ce25c6ff0ef", "fusion_lon": 0.0}, {"rental_uris": {"ios": "https://dc.lft.to/lastmile_qr_scan", "android": "https://dc.lft.to/lastmile_qr_scan"}, "type": "electric_bike", "name": "b4a725e125887f65ee63bb5af36cf02b", "is_reserved": 0, "lon": -77.21663933333333, "is_disabled": 0, "fusion_lat": 0.0, "lat": 38.89504983333333, "bike_id": "b4a725e125887f65ee63bb5af36cf02b", "fusion_lon": 0.0}, {"rental_uris": {"ios": "https://dc.lft.to/lastmile_qr_scan", "android": "https://dc.lft.to/lastmile_qr_scan"}, "type": "electric_scooter", "name": "3b73fb13d3d5686435b8759519c49e8f", "is_reserved": 0, "lon": -77.03162233333333, "is_disabled": 0, "fusion_lat": 0.0, "lat": 38.9181665, "bike_id": "3b73fb13d3d5686435b8759519c49e8f", "fusion_lon": 0.0}, {"rental_uris": {"ios": "https://dc.lft.to/lastmile_qr_scan", "android": "https://dc.lft.to/lastmile_qr_scan"}, "type": "electric_bike", "name": "e7a5ebd556c5f4a84c82e8f3838928a3", "is_reserved": 0, "lon": -77.0972055, "is_disabled": 0, "fusion_lat": 0.0, "lat": 38.80735833333333, "bike_id": "e7a5ebd556c5f4a84c82e8f3838928a3", "fusion_lon": 0.0}, {"rental_uris": {"ios": "https://dc.lft.to/lastmile_qr_scan", "android": "https://dc.lft.to/lastmile_qr_scan"}, "type": "electric_scooter", "name": "e3e3a14d9ae9802968332590a4d48278", "is_reserved": 0, "lon": -77.0378395, "is_disabled": 0, "fusion_lat": 0.0, "lat": 38.9157615, "bike_id": "e3e3a14d9ae9802968332590a4d48278", "fusion_lon": 0.0}, {"rental_uris": {"ios": "https://dc.lft.to/lastmile_qr_scan", "android": "https://dc.lft.to/lastmile_qr_scan"}, "type": "electric_scooter", "name": "c18664e7d639ce4dfc970dc99d731894", "is_reserved": 0, "lon": -77.02210516666666, "is_disabled": 0, "fusion_lat": 0.0, "lat": 38.887335, "bike_id": "c18664e7d639ce4dfc970dc99d731894", "fusion_lon": 0.0}, {"rental_uris": {"ios": "https://dc.lft.to/lastmile_qr_scan", "android": "https://dc.lft.to/lastmile_qr_scan"}, "type": "electric_scooter", "name": "784e71277314dfdb67f59213e41c093b", "is_reserved": 0, "lon": -77.0501005, "is_disabled": 0, "fusion_lat": 0.0, "lat": 38.90533466666667, "bike_id": "784e71277314dfdb67f59213e41c093b", "fusion_lon": 0.0}, {"rental_uris": {"ios": "https://dc.lft.to/lastmile_qr_scan", "android": "https://dc.lft.to/lastmile_qr_scan"}, "type": "electric_scooter", "name": "03540020c5edfeee6182a20931de5e60", "is_reserved": 0, "lon": -77.0308115, "is_disabled": 0, "fusion_lat": 0.0, "lat": 38.938742833333336, "bike_id": "03540020c5edfeee6182a20931de5e60", "fusion_lon": 0.0}, {"rental_uris": {"ios": "https://dc.lft.to/lastmile_qr_scan", "android": "https://dc.lft.to/lastmile_qr_scan"}, "type": "electric_bike", "name": "f9e2436342059ad9209b4845f07f5c01", "is_reserved": 0, "lon": -76.97529383333334, "is_disabled": 0, "fusion_lat": 0.0, "lat": 38.90326816666666, "bike_id": "f9e2436342059ad9209b4845f07f5c01", "fusion_lon": 0.0}, {"rental_uris": {"ios": "https://dc.lft.to/lastmile_qr_scan", "android": "https://dc.lft.to/lastmile_qr_scan"}, "type": "electric_scooter", "name": "08d720137537022b63c2f7eae70f045a", "is_reserved": 0, "lon": -76.998852, "is_disabled": 0, "fusion_lat": 0.0, "lat": 38.920517833333335, "bike_id": "08d720137537022b63c2f7eae70f045a", "fusion_lon": 0.0}, {"rental_uris": {"ios": "https://dc.lft.to/lastmile_qr_scan", "android": "https://dc.lft.to/lastmile_qr_scan"}, "type": "electric_scooter", "name": "4cf9aa2773fa56850108d459845aeb6e", "is_reserved": 0, "lon": -77.07722783333334, "is_disabled": 0, "fusion_lat": 0.0, "lat": 38.942934, "bike_id": "4cf9aa2773fa56850108d459845aeb6e", "fusion_lon": 0.0}, {"rental_uris": {"ios": "https://dc.lft.to/lastmile_qr_scan", "android": "https://dc.lft.to/lastmile_qr_scan"}, "type": "electric_scooter", "name": "58582e0491a70e657a37433041773b5a", "is_reserved": 0, "lon": -77.03452716666666, "is_disabled": 0, "fusion_lat": 0.0, "lat": 38.934321, "bike_id": "58582e0491a70e657a37433041773b5a", "fusion_lon": 0.0}, {"rental_uris": {"ios": "https://dc.lft.to/lastmile_qr_scan", "android": "https://dc.lft.to/lastmile_qr_scan"}, "type": "electric_scooter", "name": "9acc98308c75a1bf304e9af745e14b2b", "is_reserved": 0, "lon": -77.04886083333334, "is_disabled": 0, "fusion_lat": 0.0, "lat": 38.89899233333333, "bike_id": "9acc98308c75a1bf304e9af745e14b2b", "fusion_lon": 0.0}, {"rental_uris": {"ios": "https://dc.lft.to/lastmile_qr_scan", "android": "https://dc.lft.to/lastmile_qr_scan"}, "type": "electric_scooter", "name": "123058e9ffa4b12d224ab03f5b9a52d0", "is_reserved": 0, "lon": -77.03139016666667, "is_disabled": 0, "fusion_lat": 0.0, "lat": 38.912666, "bike_id": "123058e9ffa4b12d224ab03f5b9a52d0", "fusion_lon": 0.0}, {"rental_uris": {"ios": "https://dc.lft.to/lastmile_qr_scan", "android": "https://dc.lft.to/lastmile_qr_scan"}, "type": "electric_scooter", "name": "b55cd54f9cc59d75c62a17411775ebc6", "is_reserved": 0, "lon": -76.99388566666667, "is_disabled": 0, "fusion_lat": 0.0, "lat": 38.91009783333333, "bike_id": "b55cd54f9cc59d75c62a17411775ebc6", "fusion_lon": 0.0}, {"rental_uris": {"ios": "https://dc.lft.to/lastmile_qr_scan", "android": "https://dc.lft.to/lastmile_qr_scan"}, "type": "electric_scooter", "name": "9142ef246d44140f3d15b20bbf39fe05", "is_reserved": 0, "lon": -77.01815333333333, "is_disabled": 0, "fusion_lat": 0.0, "lat": 38.911104, "bike_id": "9142ef246d44140f3d15b20bbf39fe05", "fusion_lon": 0.0}, {"rental_uris": {"ios": "https://dc.lft.to/lastmile_qr_scan", "android": "https://dc.lft.to/lastmile_qr_scan"}, "type": "electric_scooter", "name": "6149e989f9cb8df3ab7ac354edb5ef6e", "is_reserved": 0, "lon": -76.99829266666667, "is_disabled": 0, "fusion_lat": 0.0, "lat": 38.90010216666667, "bike_id": "6149e989f9cb8df3ab7ac354edb5ef6e", "fusion_lon": 0.0}, {"rental_uris": {"ios": "https://dc.lft.to/lastmile_qr_scan", "android": "https://dc.lft.to/lastmile_qr_scan"}, "type": "electric_scooter", "name": "4ca567cefd88bcb5a577a1150457f1a5", "is_reserved": 0, "lon": -77.056811, "is_disabled": 0, "fusion_lat": 0.0, "lat": 38.933868, "bike_id": "4ca567cefd88bcb5a577a1150457f1a5", "fusion_lon": 0.0}, {"rental_uris": {"ios": "https://dc.lft.to/lastmile_qr_scan", "android": "https://dc.lft.to/lastmile_qr_scan"}, "type": "electric_scooter", "name": "5ef0e924456e755af4b13ec282997bd9", "is_reserved": 0, "lon": -77.0262525, "is_disabled": 0, "fusion_lat": 0.0, "lat": 38.8922415, "bike_id": "5ef0e924456e755af4b13ec282997bd9", "fusion_lon": 0.0}, {"rental_uris": {"ios": "https://dc.lft.to/lastmile_qr_scan", "android": "https://dc.lft.to/lastmile_qr_scan"}, "type": "electric_bike", "name": "893d364791c8fe456defc5255c38a8bd", "is_reserved": 0, "lon": -76.9742205, "is_disabled": 0, "fusion_lat": 0.0, "lat": 38.93237033333333, "bike_id": "893d364791c8fe456defc5255c38a8bd", "fusion_lon": 0.0}, {"rental_uris": {"ios": "https://dc.lft.to/lastmile_qr_scan", "android": "https://dc.lft.to/lastmile_qr_scan"}, "type": "electric_scooter", "name": "79d29df713835fc84905d18c85e44905", "is_reserved": 0, "lon": -77.04179266666667, "is_disabled": 0, "fusion_lat": 0.0, "lat": 38.9139665, "bike_id": "79d29df713835fc84905d18c85e44905", "fusion_lon": 0.0}, {"rental_uris": {"ios": "https://dc.lft.to/lastmile_qr_scan", "android": "https://dc.lft.to/lastmile_qr_scan"}, "type": "electric_bike", "name": "f8039a5c4be358bba17b3b4b980929ab", "is_reserved": 0, "lon": -76.95078333333333, "is_disabled": 0, "fusion_lat": 0.0, "lat": 39.08439966666667, "bike_id": "f8039a5c4be358bba17b3b4b980929ab", "fusion_lon": 0.0}, {"rental_uris": {"ios": "https://dc.lft.to/lastmile_qr_scan", "android": "https://dc.lft.to/lastmile_qr_scan"}, "type": "electric_bike", "name": "4dd9af47d3d88622a0d2783372398a29", "is_reserved": 0, "lon": -76.9824965, "is_disabled": 0, "fusion_lat": 0.0, "lat": 38.95325533333333, "bike_id": "4dd9af47d3d88622a0d2783372398a29", "fusion_lon": 0.0}, {"rental_uris": {"ios": "https://dc.lft.to/lastmile_qr_scan", "android": "https://dc.lft.to/lastmile_qr_scan"}, "type": "electric_scooter", "name": "81935de4fde4097c9431773f6e8b217b", "is_reserved": 0, "lon": -77.02483, "is_disabled": 0, "fusion_lat": 0.0, "lat": 38.93512333333334, "bike_id": "81935de4fde4097c9431773f6e8b217b", "fusion_lon": 0.0}, {"rental_uris": {"ios": "https://dc.lft.to/lastmile_qr_scan", "android": "https://dc.lft.to/lastmile_qr_scan"}, "type": "electric_scooter", "name": "61b84d01caa204ae4ba75313b148ebec", "is_reserved": 0, "lon": -77.00748433333334, "is_disabled": 0, "fusion_lat": 0.0, "lat": 38.911033833333335, "bike_id": "61b84d01caa204ae4ba75313b148ebec", "fusion_lon": 0.0}, {"rental_uris": {"ios": "https://dc.lft.to/lastmile_qr_scan", "android": "https://dc.lft.to/lastmile_qr_scan"}, "type": "electric_scooter", "name": "e72e542b8448d6d420b7b742a88aeb02", "is_reserved": 0, "lon": -77.0421975, "is_disabled": 0, "fusion_lat": 0.0, "lat": 38.9111695, "bike_id": "e72e542b8448d6d420b7b742a88aeb02", "fusion_lon": 0.0}, {"rental_uris": {"ios": "https://dc.lft.to/lastmile_qr_scan", "android": "https://dc.lft.to/lastmile_qr_scan"}, "type": "electric_scooter", "name": "fb1f678ac7e02063609d750ef07b69d2", "is_reserved": 0, "lon": -77.03438216666666, "is_disabled": 0, "fusion_lat": 0.0, "lat": 38.905672, "bike_id": "fb1f678ac7e02063609d750ef07b69d2", "fusion_lon": 0.0}, {"rental_uris": {"ios": "https://dc.lft.to/lastmile_qr_scan", "android": "https://dc.lft.to/lastmile_qr_scan"}, "type": "electric_scooter", "name": "d85bef33283fe8bcc586415a9296cc23", "is_reserved": 0, "lon": -77.0388145, "is_disabled": 0, "fusion_lat": 0.0, "lat": 38.903533333333336, "bike_id": "d85bef33283fe8bcc586415a9296cc23", "fusion_lon": 0.0}, {"rental_uris": {"ios": "https://dc.lft.to/lastmile_qr_scan", "android": "https://dc.lft.to/lastmile_qr_scan"}, "type": "electric_scooter", "name": "d7ef2eda86c6ac8c51a02837c608a06a", "is_reserved": 0, "lon": -77.02587466666667, "is_disabled": 0, "fusion_lat": 0.0, "lat": 38.8844435, "bike_id": "d7ef2eda86c6ac8c51a02837c608a06a", "fusion_lon": 0.0}, {"rental_uris": {"ios": "https://dc.lft.to/lastmile_qr_scan", "android": "https://dc.lft.to/lastmile_qr_scan"}, "type": "electric_scooter", "name": "c68dc6d17ffcebd0bb2868112101e4e7", "is_reserved": 0, "lon": -77.04035083333333, "is_disabled": 0, "fusion_lat": 0.0, "lat": 38.921607, "bike_id": "c68dc6d17ffcebd0bb2868112101e4e7", "fusion_lon": 0.0}, {"rental_uris": {"ios": "https://dc.lft.to/lastmile_qr_scan", "android": "https://dc.lft.to/lastmile_qr_scan"}, "type": "electric_scooter", "name": "e75b087dd24df142d30455e4e38f4ac0", "is_reserved": 0, "lon": -77.04085083333334, "is_disabled": 0, "fusion_lat": 0.0, "lat": 38.9478645, "bike_id": "e75b087dd24df142d30455e4e38f4ac0", "fusion_lon": 0.0}, {"rental_uris": {"ios": "https://dc.lft.to/lastmile_qr_scan", "android": "https://dc.lft.to/lastmile_qr_scan"}, "type": "electric_scooter", "name": "35f73af6748e9e0eeb02b578618a5cb1", "is_reserved": 0, "lon": -77.0208905, "is_disabled": 0, "fusion_lat": 0.0, "lat": 38.927100333333335, "bike_id": "35f73af6748e9e0eeb02b578618a5cb1", "fusion_lon": 0.0}, {"rental_uris": {"ios": "https://dc.lft.to/lastmile_qr_scan", "android": "https://dc.lft.to/lastmile_qr_scan"}, "type": "electric_scooter", "name": "a907fbe08e6f3dedd797eee867236019", "is_reserved": 0, "lon": -77.04365666666666, "is_disabled": 0, "fusion_lat": 0.0, "lat": 38.897244, "bike_id": "a907fbe08e6f3dedd797eee867236019", "fusion_lon": 0.0}, {"rental_uris": {"ios": "https://dc.lft.to/lastmile_qr_scan", "android": "https://dc.lft.to/lastmile_qr_scan"}, "type": "electric_scooter", "name": "8d3c9db3b1fd3938b27c72d64351acfe", "is_reserved": 0, "lon": -77.03419283333334, "is_disabled": 0, "fusion_lat": 0.0, "lat": 38.9239615, "bike_id": "8d3c9db3b1fd3938b27c72d64351acfe", "fusion_lon": 0.0}, {"rental_uris": {"ios": "https://dc.lft.to/lastmile_qr_scan", "android": "https://dc.lft.to/lastmile_qr_scan"}, "type": "electric_bike", "name": "a99b4692966fb5e1bcccfaa60d0d921f", "is_reserved": 0, "lon": -76.98011866666667, "is_disabled": 0, "fusion_lat": 0.0, "lat": 38.8531535, "bike_id": "a99b4692966fb5e1bcccfaa60d0d921f", "fusion_lon": 0.0}, {"rental_uris": {"ios": "https://dc.lft.to/lastmile_qr_scan", "android": "https://dc.lft.to/lastmile_qr_scan"}, "type": "electric_scooter", "name": "5716fed1dc1761c8ffb1a61e085b6f19", "is_reserved": 0, "lon": -77.025018, "is_disabled": 0, "fusion_lat": 0.0, "lat": 38.94210483333333, "bike_id": "5716fed1dc1761c8ffb1a61e085b6f19", "fusion_lon": 0.0}, {"rental_uris": {"ios": "https://dc.lft.to/lastmile_qr_scan", "android": "https://dc.lft.to/lastmile_qr_scan"}, "type": "electric_scooter", "name": "8d3fc09995a1bb709d40767b999bea80", "is_reserved": 0, "lon": -77.011995, "is_disabled": 0, "fusion_lat": 0.0, "lat": 38.9110815, "bike_id": "8d3fc09995a1bb709d40767b999bea80", "fusion_lon": 0.0}, {"rental_uris": {"ios": "https://dc.lft.to/lastmile_qr_scan", "android": "https://dc.lft.to/lastmile_qr_scan"}, "type": "electric_scooter", "name": "208181f64f9dac24b0a7b1537e91bf69", "is_reserved": 0, "lon": -77.00718566666667, "is_disabled": 0, "fusion_lat": 0.0, "lat": 38.911033333333336, "bike_id": "208181f64f9dac24b0a7b1537e91bf69", "fusion_lon": 0.0}, {"rental_uris": {"ios": "https://dc.lft.to/lastmile_qr_scan", "android": "https://dc.lft.to/lastmile_qr_scan"}, "type": "electric_scooter", "name": "f99af7b089aa65556278fac3b5def235", "is_reserved": 0, "lon": -77.0370385, "is_disabled": 0, "fusion_lat": 0.0, "lat": 38.92773016666666, "bike_id": "f99af7b089aa65556278fac3b5def235", "fusion_lon": 0.0}, {"rental_uris": {"ios": "https://dc.lft.to/lastmile_qr_scan", "android": "https://dc.lft.to/lastmile_qr_scan"}, "type": "electric_bike", "name": "9664a7a157e17e345220a5403d5563ee", "is_reserved": 0, "lon": -76.99991966666667, "is_disabled": 0, "fusion_lat": 0.0, "lat": 38.96400116666667, "bike_id": "9664a7a157e17e345220a5403d5563ee", "fusion_lon": 0.0}, {"rental_uris": {"ios": "https://dc.lft.to/lastmile_qr_scan", "android": "https://dc.lft.to/lastmile_qr_scan"}, "type": "electric_scooter", "name": "2d04c4bb49c30ad10b18aaa36757bd9c", "is_reserved": 0, "lon": -77.02578733333333, "is_disabled": 0, "fusion_lat": 0.0, "lat": 38.925286, "bike_id": "2d04c4bb49c30ad10b18aaa36757bd9c", "fusion_lon": 0.0}, {"rental_uris": {"ios": "https://dc.lft.to/lastmile_qr_scan", "android": "https://dc.lft.to/lastmile_qr_scan"}, "type": "electric_scooter", "name": "691f38ddd269221e153f732e96fbb42c", "is_reserved": 0, "lon": -77.03826483333333, "is_disabled": 0, "fusion_lat": 0.0, "lat": 38.91256516666667, "bike_id": "691f38ddd269221e153f732e96fbb42c", "fusion_lon": 0.0}, {"rental_uris": {"ios": "https://dc.lft.to/lastmile_qr_scan", "android": "https://dc.lft.to/lastmile_qr_scan"}, "type": "electric_bike", "name": "5cdfd5a02b3247058e8a9955c8c2a872", "is_reserved": 0, "lon": -76.9777565, "is_disabled": 0, "fusion_lat": 0.0, "lat": 38.85721733333333, "bike_id": "5cdfd5a02b3247058e8a9955c8c2a872", "fusion_lon": 0.0}, {"rental_uris": {"ios": "https://dc.lft.to/lastmile_qr_scan", "android": "https://dc.lft.to/lastmile_qr_scan"}, "type": "electric_scooter", "name": "0c0a311b906a29b2eababb2dfaf32bea", "is_reserved": 0, "lon": -77.04361916666667, "is_disabled": 0, "fusion_lat": 0.0, "lat": 38.89217766666667, "bike_id": "0c0a311b906a29b2eababb2dfaf32bea", "fusion_lon": 0.0}, {"rental_uris": {"ios": "https://dc.lft.to/lastmile_qr_scan", "android": "https://dc.lft.to/lastmile_qr_scan"}, "type": "electric_scooter", "name": "78377d79920aeee20688fba1ad6f68f1", "is_reserved": 0, "lon": -77.03250883333334, "is_disabled": 0, "fusion_lat": 0.0, "lat": 38.932493, "bike_id": "78377d79920aeee20688fba1ad6f68f1", "fusion_lon": 0.0}, {"rental_uris": {"ios": "https://dc.lft.to/lastmile_qr_scan", "android": "https://dc.lft.to/lastmile_qr_scan"}, "type": "electric_scooter", "name": "31ad0ce5529c48443b9ccdf902284d3f", "is_reserved": 0, "lon": -77.045604, "is_disabled": 0, "fusion_lat": 0.0, "lat": 38.91321333333333, "bike_id": "31ad0ce5529c48443b9ccdf902284d3f", "fusion_lon": 0.0}, {"rental_uris": {"ios": "https://dc.lft.to/lastmile_qr_scan", "android": "https://dc.lft.to/lastmile_qr_scan"}, "type": "electric_scooter", "name": "d10f46c27b28a6d26f8662c1dbe2b704", "is_reserved": 0, "lon": -77.02372966666667, "is_disabled": 0, "fusion_lat": 0.0, "lat": 38.9168385, "bike_id": "d10f46c27b28a6d26f8662c1dbe2b704", "fusion_lon": 0.0}, {"rental_uris": {"ios": "https://dc.lft.to/lastmile_qr_scan", "android": "https://dc.lft.to/lastmile_qr_scan"}, "type": "electric_scooter", "name": "d33cc669693ec21b2e1cd1c5819825b9", "is_reserved": 0, "lon": -76.98078683333334, "is_disabled": 0, "fusion_lat": 0.0, "lat": 38.9018355, "bike_id": "d33cc669693ec21b2e1cd1c5819825b9", "fusion_lon": 0.0}, {"rental_uris": {"ios": "https://dc.lft.to/lastmile_qr_scan", "android": "https://dc.lft.to/lastmile_qr_scan"}, "type": "electric_scooter", "name": "27708cc66e669c81f39267981f15b8ea", "is_reserved": 0, "lon": -77.03249816666667, "is_disabled": 0, "fusion_lat": 0.0, "lat": 38.91981416666667, "bike_id": "27708cc66e669c81f39267981f15b8ea", "fusion_lon": 0.0}, {"rental_uris": {"ios": "https://dc.lft.to/lastmile_qr_scan", "android": "https://dc.lft.to/lastmile_qr_scan"},