{"data": {"bikes": [{"fusion_lat": 0.0, "name": "6c332d63c51ca3c86e0aebe2871090ef", "is_disabled": 0, "rental_uris": {"android": "https://dc.lft.to/lastmile_qr_scan", "ios": "https://dc.lft.to/lastmile_qr_scan"}, "fusion_lon": 0.0, "lat": 38.9069765, "bike_id": "6c332d63c51ca3c86e0aebe2871090ef", "type": "electric_scooter", "is_reserved": 0, "lon": -77.06528366666667}, {"fusion_lat": 0.0, "name": "2d19f7e9b114577f1b207401674e9a0e", "is_disabled": 0, "rental_uris": {"android": "https://dc.lft.to/lastmile_qr_scan", "ios": "https://dc.lft.to/lastmile_qr_scan"}, "fusion_lon": 0.0, "lat": 38.8967225, "bike_id": "2d19f7e9b114577f1b207401674e9a0e", "type": "electric_scooter", "is_reserved": 0, "lon": -77.05111433333333}, {"fusion_lat": 0.0, "name": "db79192c24e911be3dbee274e126f0e5", "is_disabled": 0, "rental_uris": {"android": "https://dc.lft.to/lastmile_qr_scan", "ios": "https://dc.lft.to/lastmile_qr_scan"}, "fusion_lon": 0.0, "lat": 38.904004, "bike_id": "db79192c24e911be3dbee274e126f0e5", "type": "electric_scooter", "is_reserved": 0, "lon": -77.04285133333333}, {"fusion_lat": 0.0, "name": "8f752bbfc02bfc8825907590ce6ff618", "is_disabled": 0, "rental_uris": {"android": "https://dc.lft.to/lastmile_qr_scan", "ios": "https://dc.lft.to/lastmile_qr_scan"}, "fusion_lon": 0.0, "lat": 38.92324383333333, "bike_id": "8f752bbfc02bfc8825907590ce6ff618", "type": "electric_scooter", "is_reserved": 0, "lon": -77.02962516666666}, {"fusion_lat": 0.0, "name": "58ba202b19d09c4744832ae9a4972585", "is_disabled": 0, "rental_uris": {"android": "https://dc.lft.to/lastmile_qr_scan", "ios": "https://dc.lft.to/lastmile_qr_scan"}, "fusion_lon": 0.0, "lat": 38.8832315, "bike_id": "58ba202b19d09c4744832ae9a4972585", "type": "electric_scooter", "is_reserved": 0, "lon": -77.01377783333334}, {"fusion_lat": 0.0, "name": "a1733e1177a6145fbd282e253c8354cc", "is_disabled": 0, "rental_uris": {"android": "https://dc.lft.to/lastmile_qr_scan", "ios": "https://dc.lft.to/lastmile_qr_scan"}, "fusion_lon": 0.0, "lat": 38.8763695, "bike_id": "a1733e1177a6145fbd282e253c8354cc", "type": "electric_scooter", "is_reserved": 0, "lon": -77.0074375}, {"fusion_lat": 0.0, "name": "76edf5b10a29d8869be37bfcf1a446cb", "is_disabled": 0, "rental_uris": {"android": "https://dc.lft.to/lastmile_qr_scan", "ios": "https://dc.lft.to/lastmile_qr_scan"}, "fusion_lon": 0.0, "lat": 38.924487666666664, "bike_id": "76edf5b10a29d8869be37bfcf1a446cb", "type": "electric_scooter", "is_reserved": 0, "lon": -77.00879466666666}, {"fusion_lat": 0.0, "name": "76831b7c6076f0f80def3317eab64de0", "is_disabled": 0, "rental_uris": {"android": "https://dc.lft.to/lastmile_qr_scan", "ios": "https://dc.lft.to/lastmile_qr_scan"}, "fusion_lon": 0.0, "lat": 38.972580666666666, "bike_id": "76831b7c6076f0f80def3317eab64de0", "type": "electric_bike", "is_reserved": 0, "lon": -76.99275683333333}, {"fusion_lat": 0.0, "name": "be4bf1885ee199f2f9ae9a0427231939", "is_disabled": 0, "rental_uris": {"android": "https://dc.lft.to/lastmile_qr_scan", "ios": "https://dc.lft.to/lastmile_qr_scan"}, "fusion_lon": 0.0, "lat": 39.03431233333333, "bike_id": "be4bf1885ee199f2f9ae9a0427231939", "type": "electric_bike", "is_reserved": 0, "lon": -77.0433355}, {"fusion_lat": 0.0, "name": "7b0b21b48e4048f1cf1da452bea2405a", "is_disabled": 0, "rental_uris": {"android": "https://dc.lft.to/lastmile_qr_scan", "ios": "https://dc.lft.to/lastmile_qr_scan"}, "fusion_lon": 0.0, "lat": 38.89487716666667, "bike_id": "7b0b21b48e4048f1cf1da452bea2405a", "type": "electric_scooter", "is_reserved": 0, "lon": -77.02680633333334}, {"fusion_lat": 0.0, "name": "7380f5d58e528f84beb5e734ed6a8c93", "is_disabled": 0, "rental_uris": {"android": "https://dc.lft.to/lastmile_qr_scan", "ios": "https://dc.lft.to/lastmile_qr_scan"}, "fusion_lon": 0.0, "lat": 38.9196425, "bike_id": "7380f5d58e528f84beb5e734ed6a8c93", "type": "electric_scooter", "is_reserved": 0, "lon": -77.04176566666666}, {"fusion_lat": 0.0, "name": "be07ba54037469ea3d332ef464b9e103", "is_disabled": 0, "rental_uris": {"android": "https://dc.lft.to/lastmile_qr_scan", "ios": "https://dc.lft.to/lastmile_qr_scan"}, "fusion_lon": 0.0, "lat": 38.90341883333333, "bike_id": "be07ba54037469ea3d332ef464b9e103", "type": "electric_scooter", "is_reserved": 0, "lon": -77.0074585}, {"fusion_lat": 0.0, "name": "ed761533d52e0d673fddf0c7b6a01ad6", "is_disabled": 0, "rental_uris": {"android": "https://dc.lft.to/lastmile_qr_scan", "ios": "https://dc.lft.to/lastmile_qr_scan"}, "fusion_lon": 0.0, "lat": 38.861805333333336, "bike_id": "ed761533d52e0d673fddf0c7b6a01ad6", "type": "electric_bike", "is_reserved": 0, "lon": -77.05960183333333}, {"fusion_lat": 0.0, "name": "9a96521edec3e45c714d21df775c1fab", "is_disabled": 0, "rental_uris": {"android": "https://dc.lft.to/lastmile_qr_scan", "ios": "https://dc.lft.to/lastmile_qr_scan"}, "fusion_lon": 0.0, "lat": 38.90001133333333, "bike_id": "9a96521edec3e45c714d21df775c1fab", "type": "electric_scooter", "is_reserved": 0, "lon": -77.05591616666666}, {"fusion_lat": 0.0, "name": "105c092e37e2ad50b918f7c406f0093c", "is_disabled": 0, "rental_uris": {"android": "https://dc.lft.to/lastmile_qr_scan", "ios": "https://dc.lft.to/lastmile_qr_scan"}, "fusion_lon": 0.0, "lat": 38.91263633333333, "bike_id": "105c092e37e2ad50b918f7c406f0093c", "type": "electric_scooter", "is_reserved": 0, "lon": -77.039109}, {"fusion_lat": 0.0, "name": "6b5490e6b99408402e7529ecbc463ff3", "is_disabled": 0, "rental_uris": {"android": "https://dc.lft.to/lastmile_qr_scan", "ios": "https://dc.lft.to/lastmile_qr_scan"}, "fusion_lon": 0.0, "lat": 38.941916666666664, "bike_id": "6b5490e6b99408402e7529ecbc463ff3", "type": "electric_scooter", "is_reserved": 0, "lon": -77.0240705}, {"fusion_lat": 0.0, "name": "c6199a6f2fea0d4f086f0ad1cf484207", "is_disabled": 0, "rental_uris": {"android": "https://dc.lft.to/lastmile_qr_scan", "ios": "https://dc.lft.to/lastmile_qr_scan"}, "fusion_lon": 0.0, "lat": 38.86139933333333, "bike_id": "c6199a6f2fea0d4f086f0ad1cf484207", "type": "electric_bike", "is_reserved": 0, "lon": -76.9716975}, {"fusion_lat": 0.0, "name": "43208ad8004ebfc167c182e0a8caca28", "is_disabled": 0, "rental_uris": {"android": "https://dc.lft.to/lastmile_qr_scan", "ios": "https://dc.lft.to/lastmile_qr_scan"}, "fusion_lon": 0.0, "lat": 38.92746666666667, "bike_id": "43208ad8004ebfc167c182e0a8caca28", "type": "electric_scooter", "is_reserved": 0, "lon": -77.03301183333333}, {"fusion_lat": 0.0, "name": "a02f36c46b1a70cbee102606350acadf", "is_disabled": 0, "rental_uris": {"android": "https://dc.lft.to/lastmile_qr_scan", "ios": "https://dc.lft.to/lastmile_qr_scan"}, "fusion_lon": 0.0, "lat": 38.90547016666667, "bike_id": "a02f36c46b1a70cbee102606350acadf", "type": "electric_scooter", "is_reserved": 0, "lon": -77.006252}, {"fusion_lat": 0.0, "name": "7a36a362a9309a27f4c2c29d9074af5b", "is_disabled": 0, "rental_uris": {"android": "https://dc.lft.to/lastmile_qr_scan", "ios": "https://dc.lft.to/lastmile_qr_scan"}, "fusion_lon": 0.0, "lat": 38.926571833333334, "bike_id": "7a36a362a9309a27f4c2c29d9074af5b", "type": "electric_scooter", "is_reserved": 0, "lon": -77.02425366666667}, {"fusion_lat": 0.0, "name": "ae94580a9d2da22f4aba7cf7a5d98ccb", "is_disabled": 0, "rental_uris": {"android": "https://dc.lft.to/lastmile_qr_scan", "ios": "https://dc.lft.to/lastmile_qr_scan"}, "fusion_lon": 0.0, "lat": 38.902045666666666, "bike_id": "ae94580a9d2da22f4aba7cf7a5d98ccb", "type": "electric_scooter", "is_reserved": 0, "lon": -76.97506816666667}, {"fusion_lat": 0.0, "name": "cbcca0c6d749d11e3822bac8308169e8", "is_disabled": 0, "rental_uris": {"android": "https://dc.lft.to/lastmile_qr_scan", "ios": "https://dc.lft.to/lastmile_qr_scan"}, "fusion_lon": 0.0, "lat": 38.94291283333333, "bike_id": "cbcca0c6d749d11e3822bac8308169e8", "type": "electric_scooter", "is_reserved": 0, "lon": -77.0216935}, {"fusion_lat": 0.0, "name": "e3884096072325eb579f056eac890b19", "is_disabled": 0, "rental_uris": {"android": "https://dc.lft.to/lastmile_qr_scan", "ios": "https://dc.lft.to/lastmile_qr_scan"}, "fusion_lon": 0.0, "lat": 38.894686, "bike_id": "e3884096072325eb579f056eac890b19", "type": "electric_scooter", "is_reserved": 0, "lon": -77.02695633333333}, {"fusion_lat": 0.0, "name": "a195992d512a692a86f141cf18f7dfba", "is_disabled": 0, "rental_uris": {"android": "https://dc.lft.to/lastmile_qr_scan", "ios": "https://dc.lft.to/lastmile_qr_scan"}, "fusion_lon": 0.0, "lat": 38.887397166666666, "bike_id": "a195992d512a692a86f141cf18f7dfba", "type": "electric_scooter", "is_reserved": 0, "lon": -77.01531383333334}, {"fusion_lat": 0.0, "name": "a3a05936ae4958ae447b7746773912cf", "is_disabled": 0, "rental_uris": {"android": "https://dc.lft.to/lastmile_qr_scan", "ios": "https://dc.lft.to/lastmile_qr_scan"}, "fusion_lon": 0.0, "lat": 38.91414566666667, "bike_id": "a3a05936ae4958ae447b7746773912cf", "type": "electric_scooter", "is_reserved": 0, "lon": -77.03174083333333}, {"fusion_lat": 0.0, "name": "3e4b03baa06367102f55c5ab8339a030", "is_disabled": 0, "rental_uris": {"android": "https://dc.lft.to/lastmile_qr_scan", "ios": "https://dc.lft.to/lastmile_qr_scan"}, "fusion_lon": 0.0, "lat": 38.8996455, "bike_id": "3e4b03baa06367102f55c5ab8339a030", "type": "electric_scooter", "is_reserved": 0, "lon": -77.0070405}, {"fusion_lat": 0.0, "name": "aaa0b7ad49edd30b0951f4605855dc9d", "is_disabled": 0, "rental_uris": {"android": "https://dc.lft.to/lastmile_qr_scan", "ios": "https://dc.lft.to/lastmile_qr_scan"}, "fusion_lon": 0.0, "lat": 38.8861185, "bike_id": "aaa0b7ad49edd30b0951f4605855dc9d", "type": "electric_scooter", "is_reserved": 0, "lon": -77.01248083333333}, {"fusion_lat": 0.0, "name": "60a181af9eb3ab2173d3bdd46993b92c", "is_disabled": 0, "rental_uris": {"android": "https://dc.lft.to/lastmile_qr_scan", "ios": "https://dc.lft.to/lastmile_qr_scan"}, "fusion_lon": 0.0, "lat": 38.885572833333335, "bike_id": "60a181af9eb3ab2173d3bdd46993b92c", "type": "electric_scooter", "is_reserved": 0, "lon": -76.9771395}, {"fusion_lat": 0.0, "name": "e12d6cfb40b292c89564ba3317caeaf2", "is_disabled": 0, "rental_uris": {"android": "https://dc.lft.to/lastmile_qr_scan", "ios": "https://dc.lft.to/lastmile_qr_scan"}, "fusion_lon": 0.0, "lat": 38.92311866666667, "bike_id": "e12d6cfb40b292c89564ba3317caeaf2", "type": "electric_scooter", "is_reserved": 0, "lon": -77.02904316666667}, {"fusion_lat": 0.0, "name": "5a9119325f7778a76480d666dd2e0fd5", "is_disabled": 0, "rental_uris": {"android": "https://dc.lft.to/lastmile_qr_scan", "ios": "https://dc.lft.to/lastmile_qr_scan"}, "fusion_lon": 0.0, "lat": 38.91923083333333, "bike_id": "5a9119325f7778a76480d666dd2e0fd5", "type": "electric_scooter", "is_reserved": 0, "lon": -77.0096975}, {"fusion_lat": 0.0, "name": "1ba2796fefc0ec4dbd8d2e76f4ce6aa6", "is_disabled": 0, "rental_uris": {"android": "https://dc.lft.to/lastmile_qr_scan", "ios": "https://dc.lft.to/lastmile_qr_scan"}, "fusion_lon": 0.0, "lat": 38.92952233333333, "bike_id": "1ba2796fefc0ec4dbd8d2e76f4ce6aa6", "type": "electric_scooter", "is_reserved": 0, "lon": -77.0297255}, {"fusion_lat": 0.0, "name": "c692f1878f520107ee8df24059a9c07e", "is_disabled": 0, "rental_uris": {"android": "https://dc.lft.to/lastmile_qr_scan", "ios": "https://dc.lft.to/lastmile_qr_scan"}, "fusion_lon": 0.0, "lat": 38.9339005, "bike_id": "c692f1878f520107ee8df24059a9c07e", "type": "electric_scooter", "is_reserved": 0, "lon": -77.0237465}, {"fusion_lat": 0.0, "name": "e057b067bbe9994d0ddb7c2db2441d70", "is_disabled": 0, "rental_uris": {"android": "https://dc.lft.to/lastmile_qr_scan", "ios": "https://dc.lft.to/lastmile_qr_scan"}, "fusion_lon": 0.0, "lat": 38.916569333333335, "bike_id": "e057b067bbe9994d0ddb7c2db2441d70", "type": "electric_scooter", "is_reserved": 0, "lon": -77.02276266666667}, {"fusion_lat": 0.0, "name": "94d1c8f23ae2a5933ac4ba3f8560b31d", "is_disabled": 0, "rental_uris": {"android": "https://dc.lft.to/lastmile_qr_scan", "ios": "https://dc.lft.to/lastmile_qr_scan"}, "fusion_lon": 0.0, "lat": 38.916271, "bike_id": "94d1c8f23ae2a5933ac4ba3f8560b31d", "type": "electric_scooter", "is_reserved": 0, "lon": -77.03944916666667}, {"fusion_lat": 0.0, "name": "2eeea44e4f8e34ab61e034702690b8a6", "is_disabled": 0, "rental_uris": {"android": "https://dc.lft.to/lastmile_qr_scan", "ios": "https://dc.lft.to/lastmile_qr_scan"}, "fusion_lon": 0.0, "lat": 38.90563566666667, "bike_id": "2eeea44e4f8e34ab61e034702690b8a6", "type": "electric_scooter", "is_reserved": 0, "lon": -77.04348566666667}, {"fusion_lat": 0.0, "name": "9078e8e96c419f2a45f89b681d98295e", "is_disabled": 0, "rental_uris": {"android": "https://dc.lft.to/lastmile_qr_scan", "ios": "https://dc.lft.to/lastmile_qr_scan"}, "fusion_lon": 0.0, "lat": 38.900613166666666, "bike_id": "9078e8e96c419f2a45f89b681d98295e", "type": "electric_scooter", "is_reserved": 0, "lon": -77.0542585}, {"fusion_lat": 0.0, "name": "6d39d85c7bef2c4af6ceadbefb6f087c", "is_disabled": 0, "rental_uris": {"android": "https://dc.lft.to/lastmile_qr_scan", "ios": "https://dc.lft.to/lastmile_qr_scan"}, "fusion_lon": 0.0, "lat": 38.8813215, "bike_id": "6d39d85c7bef2c4af6ceadbefb6f087c", "type": "electric_bike", "is_reserved": 0, "lon": -76.998408}, {"fusion_lat": 0.0, "name": "6b4367443df4b73c6c41ba6f8aa1ee16", "is_disabled": 0, "rental_uris": {"android": "https://dc.lft.to/lastmile_qr_scan", "ios": "https://dc.lft.to/lastmile_qr_scan"}, "fusion_lon": 0.0, "lat": 38.91109733333333, "bike_id": "6b4367443df4b73c6c41ba6f8aa1ee16", "type": "electric_scooter", "is_reserved": 0, "lon": -76.997685}, {"fusion_lat": 0.0, "name": "cefb9b49af37be291ecdfaea9f99583b", "is_disabled": 0, "rental_uris": {"android": "https://dc.lft.to/lastmile_qr_scan", "ios": "https://dc.lft.to/lastmile_qr_scan"}, "fusion_lon": 0.0, "lat": 38.89743433333334, "bike_id": "cefb9b49af37be291ecdfaea9f99583b", "type": "electric_scooter", "is_reserved": 0, "lon": -77.04955983333333}, {"fusion_lat": 0.0, "name": "b3f0472945ca8f23c8879b8174d39b35", "is_disabled": 0, "rental_uris": {"android": "https://dc.lft.to/lastmile_qr_scan", "ios": "https://dc.lft.to/lastmile_qr_scan"}, "fusion_lon": 0.0, "lat": 38.93951916666666, "bike_id": "b3f0472945ca8f23c8879b8174d39b35", "type": "electric_scooter", "is_reserved": 0, "lon": -77.08592633333333}, {"fusion_lat": 0.0, "name": "5262b8ee47fccf9d716af81bf90f20c1", "is_disabled": 0, "rental_uris": {"android": "https://dc.lft.to/lastmile_qr_scan", "ios": "https://dc.lft.to/lastmile_qr_scan"}, "fusion_lon": 0.0, "lat": 38.85797433333333, "bike_id": "5262b8ee47fccf9d716af81bf90f20c1", "type": "electric_scooter", "is_reserved": 0, "lon": -76.98911466666667}, {"fusion_lat": 0.0, "name": "42a8863b92b9bf6523b6a5e73d615063", "is_disabled": 0, "rental_uris": {"android": "https://dc.lft.to/lastmile_qr_scan", "ios": "https://dc.lft.to/lastmile_qr_scan"}, "fusion_lon": 0.0, "lat": 38.898563833333334, "bike_id": "42a8863b92b9bf6523b6a5e73d615063", "type": "electric_scooter", "is_reserved": 0, "lon": -76.97667833333334}, {"fusion_lat": 0.0, "name": "550d6d90e378e5ce1a2cacd4a3e5a0fd", "is_disabled": 0, "rental_uris": {"android": "https://dc.lft.to/lastmile_qr_scan", "ios": "https://dc.lft.to/lastmile_qr_scan"}, "fusion_lon": 0.0, "lat": 38.87995383333333, "bike_id": "550d6d90e378e5ce1a2cacd4a3e5a0fd", "type": "electric_scooter", "is_reserved": 0, "lon": -77.02404633333333}, {"fusion_lat": 0.0, "name": "45304315c265979f204b0cdc9029f5c7", "is_disabled": 0, "rental_uris": {"android": "https://dc.lft.to/lastmile_qr_scan", "ios": "https://dc.lft.to/lastmile_qr_scan"}, "fusion_lon": 0.0, "lat": 38.88283083333334, "bike_id": "45304315c265979f204b0cdc9029f5c7", "type": "electric_scooter", "is_reserved": 0, "lon": -77.0312065}, {"fusion_lat": 0.0, "name": "cc2e2568f6c0ef473ff54f74c35add50", "is_disabled": 0, "rental_uris": {"android": "https://dc.lft.to/lastmile_qr_scan", "ios": "https://dc.lft.to/lastmile_qr_scan"}, "fusion_lon": 0.0, "lat": 38.798543333333335, "bike_id": "cc2e2568f6c0ef473ff54f74c35add50", "type": "electric_bike", "is_reserved": 0, "lon": -77.0630615}, {"fusion_lat": 0.0, "name": "d99fff776408590e3de04699e8f22049", "is_disabled": 0, "rental_uris": {"android": "https://dc.lft.to/lastmile_qr_scan", "ios": "https://dc.lft.to/lastmile_qr_scan"}, "fusion_lon": 0.0, "lat": 38.890884166666666, "bike_id": "d99fff776408590e3de04699e8f22049", "type": "electric_scooter", "is_reserved": 0, "lon": -76.91925816666667}, {"fusion_lat": 0.0, "name": "78e79aee70c5678e4bb55276a050d898", "is_disabled": 0, "rental_uris": {"android": "https://dc.lft.to/lastmile_qr_scan", "ios": "https://dc.lft.to/lastmile_qr_scan"}, "fusion_lon": 0.0, "lat": 38.91257266666667, "bike_id": "78e79aee70c5678e4bb55276a050d898", "type": "electric_scooter", "is_reserved": 0, "lon": -77.03175833333333}, {"fusion_lat": 0.0, "name": "6fb8a6b0859a698689ed774bd04c776a", "is_disabled": 0, "rental_uris": {"android": "https://dc.lft.to/lastmile_qr_scan", "ios": "https://dc.lft.to/lastmile_qr_scan"}, "fusion_lon": 0.0, "lat": 38.92309516666667, "bike_id": "6fb8a6b0859a698689ed774bd04c776a", "type": "electric_scooter", "is_reserved": 0, "lon": -77.04135483333333}, {"fusion_lat": 0.0, "name": "7336945304dc2871a8d69c361621f527", "is_disabled": 0, "rental_uris": {"android": "https://dc.lft.to/lastmile_qr_scan", "ios": "https://dc.lft.to/lastmile_qr_scan"}, "fusion_lon": 0.0, "lat": 38.90120533333333, "bike_id": "7336945304dc2871a8d69c361621f527", "type": "electric_scooter", "is_reserved": 0, "lon": -77.04441683333333}, {"fusion_lat": 0.0, "name": "34ff28c282bde04bbb3365ff46de57eb", "is_disabled": 0, "rental_uris": {"android": "https://dc.lft.to/lastmile_qr_scan", "ios": "https://dc.lft.to/lastmile_qr_scan"}, "fusion_lon": 0.0, "lat": 38.93241283333333, "bike_id": "34ff28c282bde04bbb3365ff46de57eb", "type": "electric_scooter", "is_reserved": 0, "lon": -77.03432316666667}, {"fusion_lat": 0.0, "name": "7ea0fbb61e08d8c3087c6a815947e388", "is_disabled": 0, "rental_uris": {"android": "https://dc.lft.to/lastmile_qr_scan", "ios": "https://dc.lft.to/lastmile_qr_scan"}, "fusion_lon": 0.0, "lat": 38.9443455, "bike_id": "7ea0fbb61e08d8c3087c6a815947e388", "type": "electric_bike", "is_reserved": 0, "lon": -77.02598016666667}, {"fusion_lat": 0.0, "name": "27c1f84d89f439fb680c055fbb47245f", "is_disabled": 0, "rental_uris": {"android": "https://dc.lft.to/lastmile_qr_scan", "ios": "https://dc.lft.to/lastmile_qr_scan"}, "fusion_lon": 0.0, "lat": 38.947525166666665, "bike_id": "27c1f84d89f439fb680c055fbb47245f", "type": "electric_scooter", "is_reserved": 0, "lon": -77.0072045}, {"fusion_lat": 0.0, "name": "585ba544829a9fdd6b2e681cb25efffb", "is_disabled": 0, "rental_uris": {"android": "https://dc.lft.to/lastmile_qr_scan", "ios": "https://dc.lft.to/lastmile_qr_scan"}, "fusion_lon": 0.0, "lat": 38.91474133333333, "bike_id": "585ba544829a9fdd6b2e681cb25efffb", "type": "electric_scooter", "is_reserved": 0, "lon": -77.04548466666667}, {"fusion_lat": 0.0, "name": "b1dbe6037f3f5b409a14841e9dd6de10", "is_disabled": 0, "rental_uris": {"android": "https://dc.lft.to/lastmile_qr_scan", "ios": "https://dc.lft.to/lastmile_qr_scan"}, "fusion_lon": 0.0, "lat": 38.87633133333333, "bike_id": "b1dbe6037f3f5b409a14841e9dd6de10", "type": "electric_scooter", "is_reserved": 0, "lon": -77.00948583333333}, {"fusion_lat": 0.0, "name": "6c870e3c455e6c85f00fe4d451a4e917", "is_disabled": 0, "rental_uris": {"android": "https://dc.lft.to/lastmile_qr_scan", "ios": "https://dc.lft.to/lastmile_qr_scan"}, "fusion_lon": 0.0, "lat": 38.896211, "bike_id": "6c870e3c455e6c85f00fe4d451a4e917", "type": "electric_scooter", "is_reserved": 0, "lon": -77.02808366666666}, {"fusion_lat": 0.0, "name": "2a429d4a7bf1027773e9f8b71e2ce938", "is_disabled": 0, "rental_uris": {"android": "https://dc.lft.to/lastmile_qr_scan", "ios": "https://dc.lft.to/lastmile_qr_scan"}, "fusion_lon": 0.0, "lat": 38.926079, "bike_id": "2a429d4a7bf1027773e9f8b71e2ce938", "type": "electric_scooter", "is_reserved": 0, "lon": -77.0221805}, {"fusion_lat": 0.0, "name": "de4b664fc9f93bd6cca06011a94471d5", "is_disabled": 0, "rental_uris": {"android": "https://dc.lft.to/lastmile_qr_scan", "ios": "https://dc.lft.to/lastmile_qr_scan"}, "fusion_lon": 0.0, "lat": 38.86680283333333, "bike_id": "de4b664fc9f93bd6cca06011a94471d5", "type": "electric_scooter", "is_reserved": 0, "lon": -76.9856755}, {"fusion_lat": 0.0, "name": "a88d56691b2dbcb3d86d0f600ec11f03", "is_disabled": 0, "rental_uris": {"android": "https://dc.lft.to/lastmile_qr_scan", "ios": "https://dc.lft.to/lastmile_qr_scan"}, "fusion_lon": 0.0, "lat": 38.89923116666667, "bike_id": "a88d56691b2dbcb3d86d0f600ec11f03", "type": "electric_scooter", "is_reserved": 0, "lon": -77.0409465}, {"fusion_lat": 0.0, "name": "860211b46cf9aaa7bbdaa18136a8958c", "is_disabled": 0, "rental_uris": {"android": "https://dc.lft.to/lastmile_qr_scan", "ios": "https://dc.lft.to/lastmile_qr_scan"}, "fusion_lon": 0.0, "lat": 38.9181205, "bike_id": "860211b46cf9aaa7bbdaa18136a8958c", "type": "electric_scooter", "is_reserved": 0, "lon": -77.03332633333333}, {"fusion_lat": 0.0, "name": "87a57e43612c2945d1a58407d6fbb6a9", "is_disabled": 0, "rental_uris": {"android": "https://dc.lft.to/lastmile_qr_scan", "ios": "https://dc.lft.to/lastmile_qr_scan"}, "fusion_lon": 0.0, "lat": 38.92323233333333, "bike_id": "87a57e43612c2945d1a58407d6fbb6a9", "type": "electric_scooter", "is_reserved": 0, "lon": -77.01954416666666}, {"fusion_lat": 0.0, "name": "e0f3cac6b108644bbaaf3132811f5c94", "is_disabled": 0, "rental_uris": {"android": "https://dc.lft.to/lastmile_qr_scan", "ios": "https://dc.lft.to/lastmile_qr_scan"}, "fusion_lon": 0.0, "lat": 38.897159, "bike_id": "e0f3cac6b108644bbaaf3132811f5c94", "type": "electric_scooter", "is_reserved": 0, "lon": -77.007972}, {"fusion_lat": 0.0, "name": "0f9a0f85582eaa7b152dee15e01d8290", "is_disabled": 0, "rental_uris": {"android": "https://dc.lft.to/lastmile_qr_scan", "ios": "https://dc.lft.to/lastmile_qr_scan"}, "fusion_lon": 0.0, "lat": 38.86682783333333, "bike_id": "0f9a0f85582eaa7b152dee15e01d8290", "type": "electric_scooter", "is_reserved": 0, "lon": -76.98570133333334}, {"fusion_lat": 0.0, "name": "081ea5210317225fc8ab3b88f18edab2", "is_disabled": 0, "rental_uris": {"android": "https://dc.lft.to/lastmile_qr_scan", "ios": "https://dc.lft.to/lastmile_qr_scan"}, "fusion_lon": 0.0, "lat": 38.89801383333333, "bike_id": "081ea5210317225fc8ab3b88f18edab2", "type": "electric_scooter", "is_reserved": 0, "lon": -77.02407133333334}, {"fusion_lat": 0.0, "name": "5facc394b0871ff1e7053825669fc021", "is_disabled": 0, "rental_uris": {"android": "https://dc.lft.to/lastmile_qr_scan", "ios": "https://dc.lft.to/lastmile_qr_scan"}, "fusion_lon": 0.0, "lat": 38.94435716666667, "bike_id": "5facc394b0871ff1e7053825669fc021", "type": "electric_scooter", "is_reserved": 0, "lon": -77.063999}, {"fusion_lat": 0.0, "name": "b47a914bc9bc8ee8efcdfa76817b68f8", "is_disabled": 0, "rental_uris": {"android": "https://dc.lft.to/lastmile_qr_scan", "ios": "https://dc.lft.to/lastmile_qr_scan"}, "fusion_lon": 0.0, "lat": 38.931939166666666, "bike_id": "b47a914bc9bc8ee8efcdfa76817b68f8", "type": "electric_scooter", "is_reserved": 0, "lon": -77.04302416666667}, {"fusion_lat": 0.0, "name": "d5eb68a93e1ea126aff4cb188aa25da8", "is_disabled": 0, "rental_uris": {"android": "https://dc.lft.to/lastmile_qr_scan", "ios": "https://dc.lft.to/lastmile_qr_scan"}, "fusion_lon": 0.0, "lat": 38.897250166666666, "bike_id": "d5eb68a93e1ea126aff4cb188aa25da8", "type": "electric_scooter", "is_reserved": 0, "lon": -77.00219766666666}, {"fusion_lat": 0.0, "name": "6b36193cf2807b5a7ff2865459663eb3", "is_disabled": 0, "rental_uris": {"android": "https://dc.lft.to/lastmile_qr_scan", "ios": "https://dc.lft.to/lastmile_qr_scan"}, "fusion_lon": 0.0, "lat": 38.8855185, "bike_id": "6b36193cf2807b5a7ff2865459663eb3", "type": "electric_scooter", "is_reserved": 0, "lon": -76.997764}, {"fusion_lat": 0.0, "name": "7d859c39b98f3f4f82f53f5af4b17405", "is_disabled": 0, "rental_uris": {"android": "https://dc.lft.to/lastmile_qr_scan", "ios": "https://dc.lft.to/lastmile_qr_scan"}, "fusion_lon": 0.0, "lat": 38.92376733333333, "bike_id": "7d859c39b98f3f4f82f53f5af4b17405", "type": "electric_scooter", "is_reserved": 0, "lon": -77.05152383333333}, {"fusion_lat": 0.0, "name": "ecd2d90e6020a7fb8a5316b45ccd20a4", "is_disabled": 0, "rental_uris": {"android": "https://dc.lft.to/lastmile_qr_scan", "ios": "https://dc.lft.to/lastmile_qr_scan"}, "fusion_lon": 0.0, "lat": 38.90408, "bike_id": "ecd2d90e6020a7fb8a5316b45ccd20a4", "type": "electric_scooter", "is_reserved": 0, "lon": -76.973327}, {"fusion_lat": 0.0, "name": "780fae2222b5455915a4aa6616041564", "is_disabled": 0, "rental_uris": {"android": "https://dc.lft.to/lastmile_qr_scan", "ios": "https://dc.lft.to/lastmile_qr_scan"}, "fusion_lon": 0.0, "lat": 38.911192166666666, "bike_id": "780fae2222b5455915a4aa6616041564", "type": "electric_scooter", "is_reserved": 0, "lon": -77.03566366666666}, {"fusion_lat": 0.0, "name": "f8211e2d4a122dbde5d9d514bc154537", "is_disabled": 0, "rental_uris": {"android": "https://dc.lft.to/lastmile_qr_scan", "ios": "https://dc.lft.to/lastmile_qr_scan"}, "fusion_lon": 0.0, "lat": 38.886206333333334, "bike_id": "f8211e2d4a122dbde5d9d514bc154537", "type": "electric_scooter", "is_reserved": 0, "lon": -77.02290083333334}, {"fusion_lat": 0.0, "name": "eafcfce6ed51ae95f755bca3b06af0dd", "is_disabled": 0, "rental_uris": {"android": "https://dc.lft.to/lastmile_qr_scan", "ios": "https://dc.lft.to/lastmile_qr_scan"}, "fusion_lon": 0.0, "lat": 38.899452833333335, "bike_id": "eafcfce6ed51ae95f755bca3b06af0dd", "type": "electric_scooter", "is_reserved": 0, "lon": -77.015994}, {"fusion_lat": 0.0, "name": "8b2139a544cc278c47e4fdcb9ccf82b5", "is_disabled": 0, "rental_uris": {"android": "https://dc.lft.to/lastmile_qr_scan", "ios": "https://dc.lft.to/lastmile_qr_scan"}, "fusion_lon": 0.0, "lat": 38.88302683333333, "bike_id": "8b2139a544cc278c47e4fdcb9ccf82b5", "type": "electric_scooter", "is_reserved": 0, "lon": -76.94851683333333}, {"fusion_lat": 0.0, "name": "14eaecf7dac09d0f376d3621bcba8dc3", "is_disabled": 0, "rental_uris": {"android": "https://dc.lft.to/lastmile_qr_scan", "ios": "https://dc.lft.to/lastmile_qr_scan"}, "fusion_lon": 0.0, "lat": 38.88425933333333, "bike_id": "14eaecf7dac09d0f376d3621bcba8dc3", "type": "electric_scooter", "is_reserved": 0, "lon": -76.98573266666666}, {"fusion_lat": 0.0, "name": "52b0488fad44e9a3a84f9b722dec0b40", "is_disabled": 0, "rental_uris": {"android": "https://dc.lft.to/lastmile_qr_scan", "ios": "https://dc.lft.to/lastmile_qr_scan"}, "fusion_lon": 0.0, "lat": 38.89234616666667, "bike_id": "52b0488fad44e9a3a84f9b722dec0b40", "type": "electric_scooter", "is_reserved": 0, "lon": -77.04160733333333}, {"fusion_lat": 0.0, "name": "38fd48e9353c0c53e30f29ac55b8c86a", "is_disabled": 0, "rental_uris": {"android": "https://dc.lft.to/lastmile_qr_scan", "ios": "https://dc.lft.to/lastmile_qr_scan"}, "fusion_lon": 0.0, "lat": 38.900145333333334, "bike_id": "38fd48e9353c0c53e30f29ac55b8c86a", "type": "electric_scooter", "is_reserved": 0, "lon": -76.99899283333333}, {"fusion_lat": 0.0, "name": "1e48c87487cc68bb5978435082d0998b", "is_disabled": 0, "rental_uris": {"android": "https://dc.lft.to/lastmile_qr_scan", "ios": "https://dc.lft.to/lastmile_qr_scan"}, "fusion_lon": 0.0, "lat": 39.070522, "bike_id": "1e48c87487cc68bb5978435082d0998b", "type": "electric_bike", "is_reserved": 0, "lon": -77.1148975}, {"fusion_lat": 0.0, "name": "dad2259c19cc3378d19b6ce7b2c1c41f", "is_disabled": 0, "rental_uris": {"android": "https://dc.lft.to/lastmile_qr_scan", "ios": "https://dc.lft.to/lastmile_qr_scan"}, "fusion_lon": 0.0, "lat": 38.89906083333333, "bike_id": "dad2259c19cc3378d19b6ce7b2c1c41f", "type": "electric_scooter", "is_reserved": 0, "lon": -76.92741283333334}, {"fusion_lat": 0.0, "name": "0c7d4f6c75e8c7558d6e96e5631915e8", "is_disabled": 0, "rental_uris": {"android": "https://dc.lft.to/lastmile_qr_scan", "ios": "https://dc.lft.to/lastmile_qr_scan"}, "fusion_lon": 0.0, "lat": 38.8739675, "bike_id": "0c7d4f6c75e8c7558d6e96e5631915e8", "type": "electric_scooter", "is_reserved": 0, "lon": -77.000598}, {"fusion_lat": 0.0, "name": "e2d01df73bf05a7926bed1aba54af087", "is_disabled": 0, "rental_uris": {"android": "https://dc.lft.to/lastmile_qr_scan", "ios": "https://dc.lft.to/lastmile_qr_scan"}, "fusion_lon": 0.0, "lat": 38.945326333333334, "bike_id": "e2d01df73bf05a7926bed1aba54af087", "type": "electric_scooter", "is_reserved": 0, "lon": -77.02530733333333}, {"fusion_lat": 0.0, "name": "2220e2d37fecee2f84ebe5941a388a29", "is_disabled": 0, "rental_uris": {"android": "https://dc.lft.to/lastmile_qr_scan", "ios": "https://dc.lft.to/lastmile_qr_scan"}, "fusion_lon": 0.0, "lat": 38.86587133333333, "bike_id": "2220e2d37fecee2f84ebe5941a388a29", "type": "electric_scooter", "is_reserved": 0, "lon": -76.98924316666667}, {"fusion_lat": 0.0, "name": "3f3c16e4b3d94e86506afaee91a13e7d", "is_disabled": 0, "rental_uris": {"android": "https://dc.lft.to/lastmile_qr_scan", "ios": "https://dc.lft.to/lastmile_qr_scan"}, "fusion_lon": 0.0, "lat": 38.887683333333335, "bike_id": "3f3c16e4b3d94e86506afaee91a13e7d", "type": "electric_scooter", "is_reserved": 0, "lon": -76.9774955}, {"fusion_lat": 0.0, "name": "2966b8a0460e9ad698c1d8c2484cb404", "is_disabled": 0, "rental_uris": {"android": "https://dc.lft.to/lastmile_qr_scan", "ios": "https://dc.lft.to/lastmile_qr_scan"}, "fusion_lon": 0.0, "lat": 38.89230233333333, "bike_id": "2966b8a0460e9ad698c1d8c2484cb404", "type": "electric_scooter", "is_reserved": 0, "lon": -77.0171355}, {"fusion_lat": 0.0, "name": "5e59f34735d6d5dfc61fadca9a6780b7", "is_disabled": 0, "rental_uris": {"android": "https://dc.lft.to/lastmile_qr_scan", "ios": "https://dc.lft.to/lastmile_qr_scan"}, "fusion_lon": 0.0, "lat": 38.90683466666667, "bike_id": "5e59f34735d6d5dfc61fadca9a6780b7", "type": "electric_scooter", "is_reserved": 0, "lon": -76.98499766666667}, {"fusion_lat": 0.0, "name": "a3c4eada87b1addf7459983c8d81441e", "is_disabled": 0, "rental_uris": {"android": "https://dc.lft.to/lastmile_qr_scan", "ios": "https://dc.lft.to/lastmile_qr_scan"}, "fusion_lon": 0.0, "lat": 38.89628066666667, "bike_id": "a3c4eada87b1addf7459983c8d81441e", "type": "electric_scooter", "is_reserved": 0, "lon": -77.00918166666666}, {"fusion_lat": 0.0, "name": "65a8046b1643ae35bd7e5ae53e45f350", "is_disabled": 0, "rental_uris": {"android": "https://dc.lft.to/lastmile_qr_scan", "ios": "https://dc.lft.to/lastmile_qr_scan"}, "fusion_lon": 0.0, "lat": 38.91531416666667, "bike_id": "65a8046b1643ae35bd7e5ae53e45f350", "type": "electric_scooter", "is_reserved": 0, "lon": -77.01223216666666}, {"fusion_lat": 0.0, "name": "144885a6037fee43dadf551d2850965a", "is_disabled": 0, "rental_uris": {"android": "https://dc.lft.to/lastmile_qr_scan", "ios": "https://dc.lft.to/lastmile_qr_scan"}, "fusion_lon": 0.0, "lat": 38.92123466666666, "bike_id": "144885a6037fee43dadf551d2850965a", "type": "electric_scooter", "is_reserved": 0, "lon": -77.04387883333334}, {"fusion_lat": 0.0, "name": "548fb36f83fa64d293f331adbd8f74ef", "is_disabled": 0, "rental_uris": {"android": "https://dc.lft.to/lastmile_qr_scan", "ios": "https://dc.lft.to/lastmile_qr_scan"}, "fusion_lon": 0.0, "lat": 38.92820616666667, "bike_id": "548fb36f83fa64d293f331adbd8f74ef", "type": "electric_scooter", "is_reserved": 0, "lon": -77.05443666666666}, {"fusion_lat": 0.0, "name": "ef2e9cebb2e91ea713bc9d73fc4fd370", "is_disabled": 0, "rental_uris": {"android": "https://dc.lft.to/lastmile_qr_scan", "ios": "https://dc.lft.to/lastmile_qr_scan"}, "fusion_lon": 0.0, "lat": 38.8546345, "bike_id": "ef2e9cebb2e91ea713bc9d73fc4fd370", "type": "electric_scooter", "is_reserved": 0, "lon": -76.9722925}, {"fusion_lat": 0.0, "name": "a509cc7eba5f4b889b23fe1da91153f0", "is_disabled": 0, "rental_uris": {"android": "https://dc.lft.to/lastmile_qr_scan", "ios": "https://dc.lft.to/lastmile_qr_scan"}, "fusion_lon": 0.0, "lat": 38.910167666666666, "bike_id": "a509cc7eba5f4b889b23fe1da91153f0", "type": "electric_scooter", "is_reserved": 0, "lon": -77.00919766666667}, {"fusion_lat": 0.0, "name": "62fe6fa5950759472d69fb285e8c5848", "is_disabled": 0, "rental_uris": {"android": "https://dc.lft.to/lastmile_qr_scan", "ios": "https://dc.lft.to/lastmile_qr_scan"}, "fusion_lon": 0.0, "lat": 38.886238666666664, "bike_id": "62fe6fa5950759472d69fb285e8c5848", "type": "electric_scooter", "is_reserved": 0, "lon": -77.01534833333334}, {"fusion_lat": 0.0, "name": "c1ef45e72b1c9f1592da6c71e8b38427", "is_disabled": 0, "rental_uris": {"android": "https://dc.lft.to/lastmile_qr_scan", "ios": "https://dc.lft.to/lastmile_qr_scan"}, "fusion_lon": 0.0, "lat": 38.905363, "bike_id": "c1ef45e72b1c9f1592da6c71e8b38427", "type": "electric_scooter", "is_reserved": 0, "lon": -77.056747}, {"fusion_lat": 0.0, "name": "7470f0fd3b8c9d24390197eea48d8709", "is_disabled": 0, "rental_uris": {"android": "https://dc.lft.to/lastmile_qr_scan", "ios": "https://dc.lft.to/lastmile_qr_scan"}, "fusion_lon": 0.0, "lat": 38.90575716666667, "bike_id": "7470f0fd3b8c9d24390197eea48d8709", "type": "electric_scooter", "is_reserved": 0, "lon": -77.020242}, {"fusion_lat": 0.0, "name": "806557ac19412ff471157adc9db84c2a", "is_disabled": 0, "rental_uris": {"android": "https://dc.lft.to/lastmile_qr_scan", "ios": "https://dc.lft.to/lastmile_qr_scan"}, "fusion_lon": 0.0, "lat": 38.90615366666667, "bike_id": "806557ac19412ff471157adc9db84c2a", "type": "electric_scooter", "is_reserved": 0, "lon": -77.00569416666667}, {"fusion_lat": 0.0, "name": "23ce18b95c37d3a72d542d102748d51d", "is_disabled": 0, "rental_uris": {"android": "https://dc.lft.to/lastmile_qr_scan", "ios": "https://dc.lft.to/lastmile_qr_scan"}, "fusion_lon": 0.0, "lat": 38.963677833333335, "bike_id": "23ce18b95c37d3a72d542d102748d51d", "type": "electric_scooter", "is_reserved": 0, "lon": -77.02043933333333}, {"fusion_lat": 0.0, "name": "0015e3d15646ef8ea8a0970eba724a05", "is_disabled": 0, "rental_uris": {"android": "https://dc.lft.to/lastmile_qr_scan", "ios": "https://dc.lft.to/lastmile_qr_scan"}, "fusion_lon": 0.0, "lat": 38.928512, "bike_id": "0015e3d15646ef8ea8a0970eba724a05", "type": "electric_scooter", "is_reserved": 0, "lon": -77.02442366666666}, {"fusion_lat": 0.0, "name": "bb6bf9cd330de379020017ce309188cb", "is_disabled": 0, "rental_uris": {"android": "https://dc.lft.to/lastmile_qr_scan", "ios": "https://dc.lft.to/lastmile_qr_scan"}, "fusion_lon": 0.0, "lat": 38.91105233333333, "bike_id": "bb6bf9cd330de379020017ce309188cb", "type": "electric_scooter", "is_reserved": 0, "lon": -77.08124866666667}, {"fusion_lat": 0.0, "name": "ed5acd853b388e8c0a4b77527c948daa", "is_disabled": 0, "rental_uris": {"android": "https://dc.lft.to/lastmile_qr_scan", "ios": "https://dc.lft.to/lastmile_qr_scan"}, "fusion_lon": 0.0, "lat": 38.9096725, "bike_id": "ed5acd853b388e8c0a4b77527c948daa", "type": "electric_bike", "is_reserved": 0, "lon": -76.98423983333333}, {"fusion_lat": 0.0, "name": "ec091f36f9dfd3aaedf1088a4c6eddc6", "is_disabled": 0, "rental_uris": {"android": "https://dc.lft.to/lastmile_qr_scan", "ios": "https://dc.lft.to/lastmile_qr_scan"}, "fusion_lon": 0.0, "lat": 38.922932, "bike_id": "ec091f36f9dfd3aaedf1088a4c6eddc6", "type": "electric_scooter", "is_reserved": 0, "lon": -77.041452}, {"fusion_lat": 0.0, "name": "fb42ff03e6aed4f899781d552e76415c", "is_disabled": 0, "rental_uris": {"android": "https://dc.lft.to/lastmile_qr_scan", "ios": "https://dc.lft.to/lastmile_qr_scan"}, "fusion_lon": 0.0, "lat": 38.90446033333333, "bike_id": "fb42ff03e6aed4f899781d552e76415c", "type": "electric_scooter", "is_reserved": 0, "lon": -77.0269795}, {"fusion_lat": 0.0, "name": "675e6327ae372c8f99533264320fce63", "is_disabled": 0, "rental_uris": {"android": "https://dc.lft.to/lastmile_qr_scan", "ios": "https://dc.lft.to/lastmile_qr_scan"}, "fusion_lon": 0.0, "lat": 38.9026595, "bike_id": "675e6327ae372c8f99533264320fce63", "type": "electric_scooter", "is_reserved": 0, "lon": -77.05315966666667}, {"fusion_lat": 0.0, "name": "42b94a190556faa708ed4ec22f42f898", "is_disabled": 0, "rental_uris": {"android": "https://dc.lft.to/lastmile_qr_scan", "ios": "https://dc.lft.to/lastmile_qr_scan"}, "fusion_lon": 0.0, "lat": 38.898326833333336, "bike_id": "42b94a190556faa708ed4ec22f42f898", "type": "electric_scooter", "is_reserved": 0, "lon": -77.04955516666666}, {"fusion_lat": 0.0, "name": "ced16bcb2eaff559f5df3ba71ef93665", "is_disabled": 0, "rental_uris": {"android": "https://dc.lft.to/lastmile_qr_scan", "ios": "https://dc.lft.to/lastmile_qr_scan"}, "fusion_lon": 0.0, "lat": 38.866816, "bike_id": "ced16bcb2eaff559f5df3ba71ef93665", "type": "electric_scooter", "is_reserved": 0, "lon": -76.985774}, {"fusion_lat": 0.0, "name": "cf505249d36af7d6f197671c4d3c8bfd", "is_disabled": 0, "rental_uris": {"android": "https://dc.lft.to/lastmile_qr_scan", "ios": "https://dc.lft.to/lastmile_qr_scan"}, "fusion_lon": 0.0, "lat": 38.887363, "bike_id": "cf505249d36af7d6f197671c4d3c8bfd", "type": "electric_scooter", "is_reserved": 0, "lon": -77.0033635}, {"fusion_lat": 0.0, "name": "dbccc83c9b22ec95f12f7fe4b52beb2e", "is_disabled": 0, "rental_uris": {"android": "https://dc.lft.to/lastmile_qr_scan", "ios": "https://dc.lft.to/lastmile_qr_scan"}, "fusion_lon": 0.0, "lat": 38.898289166666665, "bike_id": "dbccc83c9b22ec95f12f7fe4b52beb2e", "type": "electric_scooter", "is_reserved": 0, "lon": -77.04677283333334}, {"fusion_lat": 0.0, "name": "a8febf5a9ff49e164d278cfb762aee55", "is_disabled": 0, "rental_uris": {"android": "https://dc.lft.to/lastmile_qr_scan", "ios": "https://dc.lft.to/lastmile_qr_scan"}, "fusion_lon": 0.0, "lat": 38.86627883333333, "bike_id": "a8febf5a9ff49e164d278cfb762aee55", "type": "electric_scooter", "is_reserved": 0, "lon": -76.9871035}, {"fusion_lat": 0.0, "name": "cce8a91ec6ca56b155754c4602021b91", "is_disabled": 0, "rental_uris": {"android": "https://dc.lft.to/lastmile_qr_scan", "ios": "https://dc.lft.to/lastmile_qr_scan"}, "fusion_lon": 0.0, "lat": 38.920262666666666, "bike_id": "cce8a91ec6ca56b155754c4602021b91", "type": "electric_scooter", "is_reserved": 0, "lon": -77.03150133333334}, {"fusion_lat": 0.0, "name": "8a11b143f76e5a51080bb55629ba5d9d", "is_disabled": 0, "rental_uris": {"android": "https://dc.lft.to/lastmile_qr_scan", "ios": "https://dc.lft.to/lastmile_qr_scan"}, "fusion_lon": 0.0, "lat": 38.827800333333336, "bike_id": "8a11b143f76e5a51080bb55629ba5d9d", "type": "electric_bike", "is_reserved": 0, "lon": -77.12490666666666}, {"fusion_lat": 0.0, "name": "30ebd9ee841dd213f28643c1c03475fd", "is_disabled": 0, "rental_uris": {"android": "https://dc.lft.to/lastmile_qr_scan", "ios": "https://dc.lft.to/lastmile_qr_scan"}, "fusion_lon": 0.0, "lat": 38.93703216666667, "bike_id": "30ebd9ee841dd213f28643c1c03475fd", "type": "electric_scooter", "is_reserved": 0, "lon": -77.0560395}, {"fusion_lat": 0.0, "name": "f8e8c814c29358dff3dff4d7d299adf8", "is_disabled": 0, "rental_uris": {"android": "https://dc.lft.to/lastmile_qr_scan", "ios": "https://dc.lft.to/lastmile_qr_scan"}, "fusion_lon": 0.0, "lat": 38.860327166666664, "bike_id": "f8e8c814c29358dff3dff4d7d299adf8", "type": "electric_scooter", "is_reserved": 0, "lon": -76.98374483333333}, {"fusion_lat": 0.0, "name": "86bb38de874bf5fe24c1f1b1b7554c41", "is_disabled": 0, "rental_uris": {"android": "https://dc.lft.to/lastmile_qr_scan", "ios": "https://dc.lft.to/lastmile_qr_scan"}, "fusion_lon": 0.0, "lat": 38.885401333333334, "bike_id": "86bb38de874bf5fe24c1f1b1b7554c41", "type": "electric_scooter", "is_reserved": 0, "lon": -77.0005425}, {"fusion_lat": 0.0, "name": "2142f5f948cd7e4dfd58c1ab81fe0e14", "is_disabled": 0, "rental_uris": {"android": "https://dc.lft.to/lastmile_qr_scan", "ios": "https://dc.lft.to/lastmile_qr_scan"}, "fusion_lon": 0.0, "lat": 38.88705183333333, "bike_id": "2142f5f948cd7e4dfd58c1ab81fe0e14", "type": "electric_scooter", "is_reserved": 0, "lon": -77.00251433333334}, {"fusion_lat": 0.0, "name": "bc06ebe0b3df3f96b0fb67db637d8369", "is_disabled": 0, "rental_uris": {"android": "https://dc.lft.to/lastmile_qr_scan", "ios": "https://dc.lft.to/lastmile_qr_scan"}, "fusion_lon": 0.0, "lat": 38.9002665, "bike_id": "bc06ebe0b3df3f96b0fb67db637d8369", "type": "electric_scooter", "is_reserved": 0, "lon": -77.04686733333334}, {"fusion_lat": 0.0, "name": "fe1c947b12fbc331362bbd4500e7e079", "is_disabled": 0, "rental_uris": {"android": "https://dc.lft.to/lastmile_qr_scan", "ios": "https://dc.lft.to/lastmile_qr_scan"}, "fusion_lon": 0.0, "lat": 38.879517166666666, "bike_id": "fe1c947b12fbc331362bbd4500e7e079", "type": "electric_scooter", "is_reserved": 0, "lon": -76.99011466666667}, {"fusion_lat": 0.0, "name": "ee3e4dd65d58af96d30aa774ab455983", "is_disabled": 0, "rental_uris": {"android": "https://dc.lft.to/lastmile_qr_scan", "ios": "https://dc.lft.to/lastmile_qr_scan"}, "fusion_lon": 0.0, "lat": 38.8985405, "bike_id": "ee3e4dd65d58af96d30aa774ab455983", "type": "electric_scooter", "is_reserved": 0, "lon": -77.05067733333334}, {"fusion_lat": 0.0, "name": "19569a9476e252ae3b6974311c6b5df8", "is_disabled": 0, "rental_uris": {"android": "https://dc.lft.to/lastmile_qr_scan", "ios": "https://dc.lft.to/lastmile_qr_scan"}, "fusion_lon": 0.0, "lat": 38.916406333333335, "bike_id": "19569a9476e252ae3b6974311c6b5df8", "type": "electric_scooter", "is_reserved": 0, "lon": -77.031368}, {"fusion_lat": 0.0, "name": "10f6f2dec9e52ab313cb5c94e7357421", "is_disabled": 0, "rental_uris": {"android": "https://dc.lft.to/lastmile_qr_scan", "ios": "https://dc.lft.to/lastmile_qr_scan"}, "fusion_lon": 0.0, "lat": 38.905636333333334, "bike_id": "10f6f2dec9e52ab313cb5c94e7357421", "type": "electric_scooter", "is_reserved": 0, "lon": -77.02411383333333}, {"fusion_lat": 0.0, "name": "baf6c597c0349b202098e4e4b53d9e14", "is_disabled": 0, "rental_uris": {"android": "https://dc.lft.to/lastmile_qr_scan", "ios": "https://dc.lft.to/lastmile_qr_scan"}, "fusion_lon": 0.0, "lat": 38.8831085, "bike_id": "baf6c597c0349b202098e4e4b53d9e14", "type": "electric_scooter", "is_reserved": 0, "lon": -77.01765733333333}, {"fusion_lat": 0.0, "name": "36ed91e2949b3ff02638a8badb91c35a", "is_disabled": 0, "rental_uris": {"android": "https://dc.lft.to/lastmile_qr_scan", "ios": "https://dc.lft.to/lastmile_qr_scan"}, "fusion_lon": 0.0, "lat": 38.910584166666666, "bike_id": "36ed91e2949b3ff02638a8badb91c35a", "type": "electric_scooter", "is_reserved": 0, "lon": -77.04415166666666}, {"fusion_lat": 0.0, "name": "4816e7424adedc7cf5b81b443acbc22a", "is_disabled": 0, "rental_uris": {"android": "https://dc.lft.to/lastmile_qr_scan", "ios": "https://dc.lft.to/lastmile_qr_scan"}, "fusion_lon": 0.0, "lat": 38.92182316666667, "bike_id": "4816e7424adedc7cf5b81b443acbc22a", "type": "electric_scooter", "is_reserved": 0, "lon": -77.0382215}, {"fusion_lat": 0.0, "name": "bce90d0e6c4b7fae55456d8478946076", "is_disabled": 0, "rental_uris": {"android": "https://dc.lft.to/lastmile_qr_scan", "ios": "https://dc.lft.to/lastmile_qr_scan"}, "fusion_lon": 0.0, "lat": 38.89736933333333, "bike_id": "bce90d0e6c4b7fae55456d8478946076", "type": "electric_scooter", "is_reserved": 0, "lon": -77.03212666666667}, {"fusion_lat": 0.0, "name": "5dc4011c4513d80d27c18a0fb4244cca", "is_disabled": 0, "rental_uris": {"android": "https://dc.lft.to/lastmile_qr_scan", "ios": "https://dc.lft.to/lastmile_qr_scan"}, "fusion_lon": 0.0, "lat": 38.914722, "bike_id": "5dc4011c4513d80d27c18a0fb4244cca", "type": "electric_scooter", "is_reserved": 0, "lon": -77.045437}, {"fusion_lat": 0.0, "name": "54a03b6ef6f695348957bff751ba772e", "is_disabled": 0, "rental_uris": {"android": "https://dc.lft.to/lastmile_qr_scan", "ios": "https://dc.lft.to/lastmile_qr_scan"}, "fusion_lon": 0.0, "lat": 38.9035495, "bike_id": "54a03b6ef6f695348957bff751ba772e", "type": "electric_scooter", "is_reserved": 0, "lon": -76.99955316666667}, {"fusion_lat": 0.0, "name": "d0343181f4be8ac96e7911003fd7ca6a", "is_disabled": 0, "rental_uris": {"android": "https://dc.lft.to/lastmile_qr_scan", "ios": "https://dc.lft.to/lastmile_qr_scan"}, "fusion_lon": 0.0, "lat": 38.82175183333333, "bike_id": "d0343181f4be8ac96e7911003fd7ca6a", "type": "electric_bike", "is_reserved": 0, "lon": -76.99507183333333}, {"fusion_lat": 0.0, "name": "37771e33812745a9d13248da5d253488", "is_disabled": 0, "rental_uris": {"android": "https://dc.lft.to/lastmile_qr_scan", "ios": "https://dc.lft.to/lastmile_qr_scan"}, "fusion_lon": 0.0, "lat": 38.9155465, "bike_id": "37771e33812745a9d13248da5d253488", "type": "electric_scooter", "is_reserved": 0, "lon": -77.03216233333333}, {"fusion_lat": 0.0, "name": "1cf9bcdd2890c73a0026fc84a349ccd2", "is_disabled": 0, "rental_uris": {"android": "https://dc.lft.to/lastmile_qr_scan", "ios": "https://dc.lft.to/lastmile_qr_scan"}, "fusion_lon": 0.0, "lat": 38.804445666666666, "bike_id": "1cf9bcdd2890c73a0026fc84a349ccd2", "type": "electric_bike", "is_reserved": 0, "lon": -77.0538565}, {"fusion_lat": 0.0, "name": "cefcb9e37b8d70ee7ffa0d1a8d283b73", "is_disabled": 0, "rental_uris": {"android": "https://dc.lft.to/lastmile_qr_scan", "ios": "https://dc.lft.to/lastmile_qr_scan"}, "fusion_lon": 0.0, "lat": 38.926027, "bike_id": "cefcb9e37b8d70ee7ffa0d1a8d283b73", "type": "electric_scooter", "is_reserved": 0, "lon": -77.02153283333334}, {"fusion_lat": 0.0, "name": "97c6c2c0c73fdac16196ddffbb83b6c3", "is_disabled": 0, "rental_uris": {"android": "https://dc.lft.to/lastmile_qr_scan", "ios": "https://dc.lft.to/lastmile_qr_scan"}, "fusion_lon": 0.0, "lat": 38.877503, "bike_id": "97c6c2c0c73fdac16196ddffbb83b6c3", "type": "electric_scooter", "is_reserved": 0, "lon": -77.01429466666667}, {"fusion_lat": 0.0, "name": "bddfda0c1bb4c7a5be4ff314dbf34b65", "is_disabled": 0, "rental_uris": {"android": "https://dc.lft.to/lastmile_qr_scan", "ios": "https://dc.lft.to/lastmile_qr_scan"}, "fusion_lon": 0.0, "lat": 38.898288, "bike_id": "bddfda0c1bb4c7a5be4ff314dbf34b65", "type": "electric_scooter", "is_reserved": 0, "lon": -76.94631366666667}, {"fusion_lat": 0.0, "name": "6f4721c5534b508a2eceb14f4a8e3d16", "is_disabled": 0, "rental_uris": {"android": "https://dc.lft.to/lastmile_qr_scan", "ios": "https://dc.lft.to/lastmile_qr_scan"}, "fusion_lon": 0.0, "lat": 38.900074833333335, "bike_id": "6f4721c5534b508a2eceb14f4a8e3d16", "type": "electric_scooter", "is_reserved": 0, "lon": -77.00689}, {"fusion_lat": 0.0, "name": "f3f04bccc1301c270f3bb33a72cbb0f9", "is_disabled": 0, "rental_uris": {"android": "https://dc.lft.to/lastmile_qr_scan", "ios": "https://dc.lft.to/lastmile_qr_scan"}, "fusion_lon": 0.0, "lat": 38.9282975, "bike_id": "f3f04bccc1301c270f3bb33a72cbb0f9", "type": "electric_scooter", "is_reserved": 0, "lon": -77.032905}, {"fusion_lat": 0.0, "name": "d13782e4f99b5bb4f878db7b372eb041", "is_disabled": 0, "rental_uris": {"android": "https://dc.lft.to/lastmile_qr_scan", "ios": "https://dc.lft.to/lastmile_qr_scan"}, "fusion_lon": 0.0, "lat": 38.934577833333336, "bike_id": "d13782e4f99b5bb4f878db7b372eb041", "type": "electric_scooter", "is_reserved": 0, "lon": -77.04121966666666}, {"fusion_lat": 0.0, "name": "633f64c53081258ae7c44d9522202173", "is_disabled": 0, "rental_uris": {"android": "https://dc.lft.to/lastmile_qr_scan", "ios": "https://dc.lft.to/lastmile_qr_scan"}, "fusion_lon": 0.0, "lat": 38.913641166666665, "bike_id": "633f64c53081258ae7c44d9522202173", "type": "electric_scooter", "is_reserved": 0, "lon": -77.04558983333334}, {"fusion_lat": 0.0, "name": "e2be8ffb8a1abfb93170c53f22049e1d", "is_disabled": 0, "rental_uris": {"android": "https://dc.lft.to/lastmile_qr_scan", "ios": "https://dc.lft.to/lastmile_qr_scan"}, "fusion_lon": 0.0, "lat": 38.88484066666667, "bike_id": "e2be8ffb8a1abfb93170c53f22049e1d", "type": "electric_scooter", "is_reserved": 0, "lon": -77.00712616666667}, {"fusion_lat": 0.0, "name": "0f829c8d59a71a6a388da4824de1244d", "is_disabled": 0, "rental_uris": {"android": "https://dc.lft.to/lastmile_qr_scan", "ios": "https://dc.lft.to/lastmile_qr_scan"}, "fusion_lon": 0.0, "lat": 38.914132333333335, "bike_id": "0f829c8d59a71a6a388da4824de1244d", "type": "electric_scooter", "is_reserved": 0, "lon": -77.03894133333333}, {"fusion_lat": 0.0, "name": "f88075d8181cf2c2d8845ac19ff8b68d", "is_disabled": 0, "rental_uris": {"android": "https://dc.lft.to/lastmile_qr_scan", "ios": "https://dc.lft.to/lastmile_qr_scan"}, "fusion_lon": 0.0, "lat": 38.9369985, "bike_id": "f88075d8181cf2c2d8845ac19ff8b68d", "type": "electric_scooter", "is_reserved": 0, "lon": -77.03283616666667}, {"fusion_lat": 0.0, "name": "aad4c571876ebdd5623096d8a1093a2c", "is_disabled": 0, "rental_uris": {"android": "https://dc.lft.to/lastmile_qr_scan", "ios": "https://dc.lft.to/lastmile_qr_scan"}, "fusion_lon": 0.0, "lat": 38.8668315, "bike_id": "aad4c571876ebdd5623096d8a1093a2c", "type": "electric_scooter", "is_reserved": 0, "lon": -76.98565283333333}, {"fusion_lat": 0.0, "name": "771ef7861478b65c074e618db923091f", "is_disabled": 0, "rental_uris": {"android": "https://dc.lft.to/lastmile_qr_scan", "ios": "https://dc.lft.to/lastmile_qr_scan"}, "fusion_lon": 0.0, "lat": 38.897292166666666, "bike_id": "771ef7861478b65c074e618db923091f", "type": "electric_scooter", "is_reserved": 0, "lon": -77.04356666666666}, {"fusion_lat": 0.0, "name": "2fa21e8e2b55823e86588d4e8cf5c6ad", "is_disabled": 0, "rental_uris": {"android": "https://dc.lft.to/lastmile_qr_scan", "ios": "https://dc.lft.to/lastmile_qr_scan"}, "fusion_lon": 0.0, "lat": 38.93527016666667, "bike_id": "2fa21e8e2b55823e86588d4e8cf5c6ad", "type": "electric_scooter", "is_reserved": 0, "lon": -77.0365}, {"fusion_lat": 0.0, "name": "f7a65a2a73aa55dea5e67a65c39c29ee", "is_disabled": 0, "rental_uris": {"android": "https://dc.lft.to/lastmile_qr_scan", "ios": "https://dc.lft.to/lastmile_qr_scan"}, "fusion_lon": 0.0, "lat": 38.922496, "bike_id": "f7a65a2a73aa55dea5e67a65c39c29ee", "type": "electric_scooter", "is_reserved": 0, "lon": -77.04209766666666}, {"fusion_lat": 0.0, "name": "ee76dad3fb8aea76cc61bb92ac1e24bb", "is_disabled": 0, "rental_uris": {"android": "https://dc.lft.to/lastmile_qr_scan", "ios": "https://dc.lft.to/lastmile_qr_scan"}, "fusion_lon": 0.0, "lat": 38.898658, "bike_id": "ee76dad3fb8aea76cc61bb92ac1e24bb", "type": "electric_scooter", "is_reserved": 0, "lon": -76.94634916666666}, {"fusion_lat": 0.0, "name": "a483c1ba7c2483d1d9ff122b0d31ef52", "is_disabled": 0, "rental_uris": {"android": "https://dc.lft.to/lastmile_qr_scan", "ios": "https://dc.lft.to/lastmile_qr_scan"}, "fusion_lon": 0.0, "lat": 38.84279466666667, "bike_id": "a483c1ba7c2483d1d9ff122b0d31ef52", "type": "electric_bike", "is_reserved": 0, "lon": -77.04501116666667}, {"fusion_lat": 0.0, "name": "2c93c96e1d26a80397f8379810a930d0", "is_disabled": 0, "rental_uris": {"android": "https://dc.lft.to/lastmile_qr_scan", "ios": "https://dc.lft.to/lastmile_qr_scan"}, "fusion_lon": 0.0, "lat": 38.88299083333333, "bike_id": "2c93c96e1d26a80397f8379810a930d0", "type": "electric_scooter", "is_reserved": 0, "lon": -77.01772933333334}, {"fusion_lat": 0.0, "name": "1a6a0927408f4862f82758b4fa2f406d", "is_disabled": 0, "rental_uris": {"android": "https://dc.lft.to/lastmile_qr_scan", "ios": "https://dc.lft.to/lastmile_qr_scan"}, "fusion_lon": 0.0, "lat": 39.052532166666666, "bike_id": "1a6a0927408f4862f82758b4fa2f406d", "type": "electric_bike", "is_reserved": 0, "lon": -77.08064916666666}, {"fusion_lat": 0.0, "name": "5a502a7a0572d050f779e52b8e824759", "is_disabled": 0, "rental_uris": {"android": "https://dc.lft.to/lastmile_qr_scan", "ios": "https://dc.lft.to/lastmile_qr_scan"}, "fusion_lon": 0.0, "lat": 38.89873333333333, "bike_id": "5a502a7a0572d050f779e52b8e824759", "type": "electric_scooter", "is_reserved": 0, "lon": -76.931828}, {"fusion_lat": 0.0, "name": "41bbf06f2dd4f3d9ed125ce9fb370d13", "is_disabled": 0, "rental_uris": {"android": "https://dc.lft.to/lastmile_qr_scan", "ios": "https://dc.lft.to/lastmile_qr_scan"}, "fusion_lon": 0.0, "lat": 38.9190365, "bike_id": "41bbf06f2dd4f3d9ed125ce9fb370d13", "type": "electric_scooter", "is_reserved": 0, "lon": -77.04101183333333}, {"fusion_lat": 0.0, "name": "4c3716e749797c3430ae257aab0dd4c0", "is_disabled": 0, "rental_uris": {"android": "https://dc.lft.to/lastmile_qr_scan", "ios": "https://dc.lft.to/lastmile_qr_scan"}, "fusion_lon": 0.0, "lat": 38.9111795, "bike_id": "4c3716e749797c3430ae257aab0dd4c0", "type": "electric_scooter", "is_reserved": 0, "lon": -77.022384}, {"fusion_lat": 0.0, "name": "b4e739e3803e54fad1b9dbb2fe927192", "is_disabled": 0, "rental_uris": {"android": "https://dc.lft.to/lastmile_qr_scan", "ios": "https://dc.lft.to/lastmile_qr_scan"}, "fusion_lon": 0.0, "lat": 38.90010933333333, "bike_id": "b4e739e3803e54fad1b9dbb2fe927192", "type": "electric_scooter", "is_reserved": 0, "lon": -77.03494133333334}, {"fusion_lat": 0.0, "name": "b874ec58c0e17e370aa2a6bf6dc17e6f", "is_disabled": 0, "rental_uris": {"android": "https://dc.lft.to/lastmile_qr_scan", "ios": "https://dc.lft.to/lastmile_qr_scan"}, "fusion_lon": 0.0, "lat": 38.923148, "bike_id": "b874ec58c0e17e370aa2a6bf6dc17e6f", "type": "electric_scooter", "is_reserved": 0, "lon": -77.01949833333333}, {"fusion_lat": 0.0, "name": "d58879ae9335a594b2c85166cf99b991", "is_disabled": 0, "rental_uris": {"android": "https://dc.lft.to/lastmile_qr_scan", "ios": "https://dc.lft.to/lastmile_qr_scan"}, "fusion_lon": 0.0, "lat": 38.887379333333335, "bike_id": "d58879ae9335a594b2c85166cf99b991", "type": "electric_scooter", "is_reserved": 0, "lon": -77.01530666666666}, {"fusion_lat": 0.0, "name": "49bd8a3dac626a15bf8fcdf2c441e4d9", "is_disabled": 0, "rental_uris": {"android": "https://dc.lft.to/lastmile_qr_scan", "ios": "https://dc.lft.to/lastmile_qr_scan"}, "fusion_lon": 0.0, "lat": 38.883327, "bike_id": "49bd8a3dac626a15bf8fcdf2c441e4d9", "type": "electric_scooter", "is_reserved": 0, "lon": -77.017321}, {"fusion_lat": 0.0, "name": "3e543669aaf99da7510e129975aef97a", "is_disabled": 0, "rental_uris": {"android": "https://dc.lft.to/lastmile_qr_scan", "ios": "https://dc.lft.to/lastmile_qr_scan"}, "fusion_lon": 0.0, "lat": 38.909763833333336, "bike_id": "3e543669aaf99da7510e129975aef97a", "type": "electric_scooter", "is_reserved": 0, "lon": -77.065053}, {"fusion_lat": 0.0, "name": "5842c4680d553542f19882cb5369bc52", "is_disabled": 0, "rental_uris": {"android": "https://dc.lft.to/lastmile_qr_scan", "ios": "https://dc.lft.to/lastmile_qr_scan"}, "fusion_lon": 0.0, "lat": 38.915571166666666, "bike_id": "5842c4680d553542f19882cb5369bc52", "type": "electric_scooter", "is_reserved": 0, "lon": -77.03160916666667}, {"fusion_lat": 0.0, "name": "eb96e6c1a365337fb21270c7cb12977e", "is_disabled": 0, "rental_uris": {"android": "https://dc.lft.to/lastmile_qr_scan", "ios": "https://dc.lft.to/lastmile_qr_scan"}, "fusion_lon": 0.0, "lat": 38.8975965, "bike_id": "eb96e6c1a365337fb21270c7cb12977e", "type": "electric_scooter", "is_reserved": 0, "lon": -77.008933}, {"fusion_lat": 0.0, "name": "c1a83ceb918fdf261caff3d451de77a2", "is_disabled": 0, "rental_uris": {"android": "https://dc.lft.to/lastmile_qr_scan", "ios": "https://dc.lft.to/lastmile_qr_scan"}, "fusion_lon": 0.0, "lat": 38.920753833333336, "bike_id": "c1a83ceb918fdf261caff3d451de77a2", "type": "electric_scooter", "is_reserved": 0, "lon": -77.02510333333333}, {"fusion_lat": 0.0, "name": "0a47fe3a1c2340ed072673982cbf5ebf", "is_disabled": 0, "rental_uris": {"android": "https://dc.lft.to/lastmile_qr_scan", "ios": "https://dc.lft.to/lastmile_qr_scan"}, "fusion_lon": 0.0, "lat": 38.89618383333333, "bike_id": "0a47fe3a1c2340ed072673982cbf5ebf", "type": "electric_scooter", "is_reserved": 0, "lon": -77.00924383333333}, {"fusion_lat": 0.0, "name": "e7f70eee2aff64b86d73559b27d734f1", "is_disabled": 0, "rental_uris": {"android": "https://dc.lft.to/lastmile_qr_scan", "ios": "https://dc.lft.to/lastmile_qr_scan"}, "fusion_lon": 0.0, "lat": 38.933961333333336, "bike_id": "e7f70eee2aff64b86d73559b27d734f1", "type": "electric_scooter", "is_reserved": 0, "lon": -77.05741583333334}, {"fusion_lat": 0.0, "name": "50bb6d45f40029a99c782722a3681ba4", "is_disabled": 0, "rental_uris": {"android": "https://dc.lft.to/lastmile_qr_scan", "ios": "https://dc.lft.to/lastmile_qr_scan"}, "fusion_lon": 0.0, "lat": 38.89789616666667, "bike_id": "50bb6d45f40029a99c782722a3681ba4", "type": "electric_scooter", "is_reserved": 0, "lon": -77.02821816666666}, {"fusion_lat": 0.0, "name": "0f04007d475c53e9c548cc8a03008d51", "is_disabled": 0, "rental_uris": {"android": "https://dc.lft.to/lastmile_qr_scan", "ios": "https://dc.lft.to/lastmile_qr_scan"}, "fusion_lon": 0.0, "lat": 38.89677183333333, "bike_id": "0f04007d475c53e9c548cc8a03008d51", "type": "electric_scooter", "is_reserved": 0, "lon": -77.00516033333334}, {"fusion_lat": 0.0, "name": "243a3685c1aa396949477292bc986c48", "is_disabled": 0, "rental_uris": {"android": "https://dc.lft.to/lastmile_qr_scan", "ios": "https://dc.lft.to/lastmile_qr_scan"}, "fusion_lon": 0.0, "lat": 38.9082915, "bike_id": "243a3685c1aa396949477292bc986c48", "type": "electric_scooter", "is_reserved": 0, "lon": -76.98425266666666}, {"fusion_lat": 0.0, "name": "0f6a3c82af59d60614e2fa068eb9103a", "is_disabled": 0, "rental_uris": {"android": "https://dc.lft.to/lastmile_qr_scan", "ios": "https://dc.lft.to/lastmile_qr_scan"}, "fusion_lon": 0.0, "lat": 38.910449, "bike_id": "0f6a3c82af59d60614e2fa068eb9103a", "type": "electric_scooter", "is_reserved": 0, "lon": -77.041049}, {"fusion_lat": 0.0, "name": "d16ae586153bdfaf24e327ec62165024", "is_disabled": 0, "rental_uris": {"android": "https://dc.lft.to/lastmile_qr_scan", "ios": "https://dc.lft.to/lastmile_qr_scan"}, "fusion_lon": 0.0, "lat": 38.885896833333334, "bike_id": "d16ae586153bdfaf24e327ec62165024", "type": "electric_scooter", "is_reserved": 0, "lon": -77.01718433333333}, {"fusion_lat": 0.0, "name": "119085b8653a80243e78fbcac21c5cb8", "is_disabled": 0, "rental_uris": {"android": "https://dc.lft.to/lastmile_qr_scan", "ios": "https://dc.lft.to/lastmile_qr_scan"}, "fusion_lon": 0.0, "lat": 38.95055266666667, "bike_id": "119085b8653a80243e78fbcac21c5cb8", "type": "electric_scooter", "is_reserved": 0, "lon": -77.08028583333333}, {"fusion_lat": 0.0, "name": "1531913d11a3cb0837d69e79d2a0d3cb", "is_disabled": 0, "rental_uris": {"android": "https://dc.lft.to/lastmile_qr_scan", "ios": "https://dc.lft.to/lastmile_qr_scan"}, "fusion_lon": 0.0, "lat": 38.91712366666667, "bike_id": "1531913d11a3cb0837d69e79d2a0d3cb", "type": "electric_scooter", "is_reserved": 0, "lon": -77.02808716666667}, {"fusion_lat": 0.0, "name": "a6a74b4d9a0bf3b50f7d1fdfcc05d3b3", "is_disabled": 0, "rental_uris": {"android": "https://dc.lft.to/lastmile_qr_scan", "ios": "https://dc.lft.to/lastmile_qr_scan"}, "fusion_lon": 0.0, "lat": 38.9339545, "bike_id": "a6a74b4d9a0bf3b50f7d1fdfcc05d3b3", "type": "electric_scooter", "is_reserved": 0, "lon": -77.05770983333333}, {"fusion_lat": 0.0, "name": "1f639e679089db2c7df05b63c5449841", "is_disabled": 0, "rental_uris": {"android": "https://dc.lft.to/lastmile_qr_scan", "ios": "https://dc.lft.to/lastmile_qr_scan"}, "fusion_lon": 0.0, "lat": 38.928836, "bike_id": "1f639e679089db2c7df05b63c5449841", "type": "electric_scooter", "is_reserved": 0, "lon": -77.03216666666667}, {"fusion_lat": 0.0, "name": "9f35de8c652e658194840e0931beb038", "is_disabled": 0, "rental_uris": {"android": "https://dc.lft.to/lastmile_qr_scan", "ios": "https://dc.lft.to/lastmile_qr_scan"}, "fusion_lon": 0.0, "lat": 38.924985, "bike_id": "9f35de8c652e658194840e0931beb038", "type": "electric_scooter", "is_reserved": 0, "lon": -77.05122366666667}, {"fusion_lat": 0.0, "name": "ac94575e713a13574494447f9720bd8f", "is_disabled": 0, "rental_uris": {"android": "https://dc.lft.to/lastmile_qr_scan", "ios": "https://dc.lft.to/lastmile_qr_scan"}, "fusion_lon": 0.0, "lat": 38.904466, "bike_id": "ac94575e713a13574494447f9720bd8f", "type": "electric_scooter", "is_reserved": 0, "lon": -76.9742055}, {"fusion_lat": 0.0, "name": "2cae5086c19142d0d48f90f43fc1b6ae", "is_disabled": 0, "rental_uris": {"android": "https://dc.lft.to/lastmile_qr_scan", "ios": "https://dc.lft.to/lastmile_qr_scan"}, "fusion_lon": 0.0, "lat": 38.89897883333333, "bike_id": "2cae5086c19142d0d48f90f43fc1b6ae", "type": "electric_scooter", "is_reserved": 0, "lon": -77.03940933333334}, {"fusion_lat": 0.0, "name": "ddcd2567c2d6813d987ac48508611719", "is_disabled": 0, "rental_uris": {"android": "https://dc.lft.to/lastmile_qr_scan", "ios": "https://dc.lft.to/lastmile_qr_scan"}, "fusion_lon": 0.0, "lat": 38.90838516666667, "bike_id": "ddcd2567c2d6813d987ac48508611719", "type": "electric_scooter", "is_reserved": 0, "lon": -77.03941733333333}, {"fusion_lat": 0.0, "name": "a58b4df048008d722c8920b2cdcc6ea3", "is_disabled": 0, "rental_uris": {"android": "https://dc.lft.to/lastmile_qr_scan", "ios": "https://dc.lft.to/lastmile_qr_scan"}, "fusion_lon": 0.0, "lat": 38.896095333333335, "bike_id": "a58b4df048008d722c8920b2cdcc6ea3", "type": "electric_scooter", "is_reserved": 0, "lon": -76.992788}, {"fusion_lat": 0.0, "name": "5962bfed40872e979b895380c64cf0bc", "is_disabled": 0, "rental_uris": {"android": "https://dc.lft.to/lastmile_qr_scan", "ios": "https://dc.lft.to/lastmile_qr_scan"}, "fusion_lon": 0.0, "lat": 38.932637166666666, "bike_id": "5962bfed40872e979b895380c64cf0bc", "type": "electric_scooter", "is_reserved": 0, "lon": -77.03111083333333}, {"fusion_lat": 0.0, "name": "c7b9b7efe76a958966b18976238dba20", "is_disabled": 0, "rental_uris": {"android": "https://dc.lft.to/lastmile_qr_scan", "ios": "https://dc.lft.to/lastmile_qr_scan"}, "fusion_lon": 0.0, "lat": 38.91472666666667, "bike_id": "c7b9b7efe76a958966b18976238dba20", "type": "electric_scooter", "is_reserved": 0, "lon": -76.98409366666667}, {"fusion_lat": 0.0, "name": "773461af3fdd59ec10855e87284643e4", "is_disabled": 0, "rental_uris": {"android": "https://dc.lft.to/lastmile_qr_scan", "ios": "https://dc.lft.to/lastmile_qr_scan"}, "fusion_lon": 0.0, "lat": 38.901452, "bike_id": "773461af3fdd59ec10855e87284643e4", "type": "electric_scooter", "is_reserved": 0, "lon": -77.009325}, {"fusion_lat": 0.0, "name": "7a7a01409a1840efe833bf928ceb215d", "is_disabled": 0, "rental_uris": {"android": "https://dc.lft.to/lastmile_qr_scan", "ios": "https://dc.lft.to/lastmile_qr_scan"}, "fusion_lon": 0.0, "lat": 38.9142125, "bike_id": "7a7a01409a1840efe833bf928ceb215d", "type": "electric_scooter", "is_reserved": 0, "lon": -77.03463733333334}, {"fusion_lat": 0.0, "name": "570001ee22a81a7d5b8d90bcbaa06446", "is_disabled": 0, "rental_uris": {"android": "https://dc.lft.to/lastmile_qr_scan", "ios": "https://dc.lft.to/lastmile_qr_scan"}, "fusion_lon": 0.0, "lat": 38.88312783333333, "bike_id": "570001ee22a81a7d5b8d90bcbaa06446", "type": "electric_scooter", "is_reserved": 0, "lon": -77.0176705}, {"fusion_lat": 0.0, "name": "324d66ed2ed9256faaee9326f611ca29", "is_disabled": 0, "rental_uris": {"android": "https://dc.lft.to/lastmile_qr_scan", "ios": "https://dc.lft.to/lastmile_qr_scan"}, "fusion_lon": 0.0, "lat": 38.9218255, "bike_id": "324d66ed2ed9256faaee9326f611ca29", "type": "electric_scooter", "is_reserved": 0, "lon": -77.03816866666666}, {"fusion_lat": 0.0, "name": "d7b3f317e8a2a8e54a6c75b171ba7ab3", "is_disabled": 0, "rental_uris": {"android": "https://dc.lft.to/lastmile_qr_scan", "ios": "https://dc.lft.to/lastmile_qr_scan"}, "fusion_lon": 0.0, "lat": 38.931891666666665, "bike_id": "d7b3f317e8a2a8e54a6c75b171ba7ab3", "type": "electric_bike", "is_reserved": 0, "lon": -77.22927083333333}, {"fusion_lat": 0.0, "name": "40ddeaf8ca7f4b97239f1b80dddf51a9", "is_disabled": 0, "rental_uris": {"android": "https://dc.lft.to/lastmile_qr_scan", "ios": "https://dc.lft.to/lastmile_qr_scan"}, "fusion_lon": 0.0, "lat": 38.82032433333333, "bike_id": "40ddeaf8ca7f4b97239f1b80dddf51a9", "type": "electric_bike", "is_reserved": 0, "lon": -77.0535255}, {"fusion_lat": 0.0, "name": "ebf7bade30ab3bae8424b84465e1714a", "is_disabled": 0, "rental_uris": {"android": "https://dc.lft.to/lastmile_qr_scan", "ios": "https://dc.lft.to/lastmile_qr_scan"}, "fusion_lon": 0.0, "lat": 38.92075783333333, "bike_id": "ebf7bade30ab3bae8424b84465e1714a", "type": "electric_scooter", "is_reserved": 0, "lon": -76.99728016666667}, {"fusion_lat": 0.0, "name": "0ee680ad41d65af6718104d06b531701", "is_disabled": 0, "rental_uris": {"android": "https://dc.lft.to/lastmile_qr_scan", "ios": "https://dc.lft.to/lastmile_qr_scan"}, "fusion_lon": 0.0, "lat": 38.913067166666664, "bike_id": "0ee680ad41d65af6718104d06b531701", "type": "electric_scooter", "is_reserved": 0, "lon": -77.03199416666666}, {"fusion_lat": 0.0, "name": "09b1c79478b6039b2a5035686dc8a045", "is_disabled": 0, "rental_uris": {"android": "https://dc.lft.to/lastmile_qr_scan", "ios": "https://dc.lft.to/lastmile_qr_scan"}, "fusion_lon": 0.0, "lat": 38.93455266666667, "bike_id": "09b1c79478b6039b2a5035686dc8a045", "type": "electric_scooter", "is_reserved": 0, "lon": -77.07267133333333}, {"fusion_lat": 0.0, "name": "fc711b91014775c57e080b5efd83aee1", "is_disabled": 0, "rental_uris": {"android": "https://dc.lft.to/lastmile_qr_scan", "ios": "https://dc.lft.to/lastmile_qr_scan"}, "fusion_lon": 0.0, "lat": 38.88293683333333, "bike_id": "fc711b91014775c57e080b5efd83aee1", "type": "electric_scooter", "is_reserved": 0, "lon": -77.0247745}, {"fusion_lat": 0.0, "name": "b2f492d1957fd8ca85ab41d98934c731", "is_disabled": 0, "rental_uris": {"android": "https://dc.lft.to/lastmile_qr_scan", "ios": "https://dc.lft.to/lastmile_qr_scan"}, "fusion_lon": 0.0, "lat": 38.89872183333333, "bike_id": "b2f492d1957fd8ca85ab41d98934c731", "type": "electric_scooter", "is_reserved": 0, "lon": -76.93189266666667}, {"fusion_lat": 0.0, "name": "d1a664941e1c00e31182cca68e7e8994", "is_disabled": 0, "rental_uris": {"android": "https://dc.lft.to/lastmile_qr_scan", "ios": "https://dc.lft.to/lastmile_qr_scan"}, "fusion_lon": 0.0, "lat": 38.885011, "bike_id": "d1a664941e1c00e31182cca68e7e8994", "type": "electric_scooter", "is_reserved": 0, "lon": -77.00699233333333}, {"fusion_lat": 0.0, "name": "9c3748dbd6a99bede70b2594fefc872d", "is_disabled": 0, "rental_uris": {"android": "https://dc.lft.to/lastmile_qr_scan", "ios": "https://dc.lft.to/lastmile_qr_scan"}, "fusion_lon": 0.0, "lat": 38.895574, "bike_id": "9c3748dbd6a99bede70b2594fefc872d", "type": "electric_scooter", "is_reserved": 0, "lon": -77.02716633333333}, {"fusion_lat": 0.0, "name": "cfc3aa09d2fc3387a4d66c011cfbf6d9", "is_disabled": 0, "rental_uris": {"android": "https://dc.lft.to/lastmile_qr_scan", "ios": "https://dc.lft.to/lastmile_qr_scan"}, "fusion_lon": 0.0, "lat": 38.88390533333333, "bike_id": "cfc3aa09d2fc3387a4d66c011cfbf6d9", "type": "electric_bike", "is_reserved": 0, "lon": -76.96067283333333}, {"fusion_lat": 0.0, "name": "92c394eb21cd2c03918bb36e2023caa6", "is_disabled": 0, "rental_uris": {"android": "https://dc.lft.to/lastmile_qr_scan", "ios": "https://dc.lft.to/lastmile_qr_scan"}, "fusion_lon": 0.0, "lat": 38.9309025, "bike_id": "92c394eb21cd2c03918bb36e2023caa6", "type": "electric_scooter", "is_reserved": 0, "lon": -77.02561966666667}, {"fusion_lat": 0.0, "name": "edbdfe85c967aecb65fb358c3491127d", "is_disabled": 0, "rental_uris": {"android": "https://dc.lft.to/lastmile_qr_scan", "ios": "https://dc.lft.to/lastmile_qr_scan"}, "fusion_lon": 0.0, "lat": 38.8655605, "bike_id": "edbdfe85c967aecb65fb358c3491127d", "type": "electric_scooter", "is_reserved": 0, "lon": -76.983497}, {"fusion_lat": 0.0, "name": "e7b231bfe01a8aab6d79b09c1c6c9736", "is_disabled": 0, "rental_uris": {"android": "https://dc.lft.to/lastmile_qr_scan", "ios": "https://dc.lft.to/lastmile_qr_scan"}, "fusion_lon": 0.0, "lat": 38.9077655, "bike_id": "e7b231bfe01a8aab6d79b09c1c6c9736", "type": "electric_scooter", "is_reserved": 0, "lon": -77.0111055}, {"fusion_lat": 0.0, "name": "423b2419fb5967d6be3a954a0183ecb4", "is_disabled": 0, "rental_uris": {"android": "https://dc.lft.to/lastmile_qr_scan", "ios": "https://dc.lft.to/lastmile_qr_scan"}, "fusion_lon": 0.0, "lat": 38.91816933333333, "bike_id": "423b2419fb5967d6be3a954a0183ecb4", "type": "electric_scooter", "is_reserved": 0, "lon": -77.02502983333333}, {"fusion_lat": 0.0, "name": "34d046c851dfcee2fa99866975a8ea6f", "is_disabled": 0, "rental_uris": {"android": "https://dc.lft.to/lastmile_qr_scan", "ios": "https://dc.lft.to/lastmile_qr_scan"}, "fusion_lon": 0.0, "lat": 38.897953666666666, "bike_id": "34d046c851dfcee2fa99866975a8ea6f", "type": "electric_scooter", "is_reserved": 0, "lon": -77.010726}, {"fusion_lat": 0.0, "name": "f97bce42c300fd8ff4c9eb074e788202", "is_disabled": 0, "rental_uris": {"android": "https://dc.lft.to/lastmile_qr_scan", "ios": "https://dc.lft.to/lastmile_qr_scan"}, "fusion_lon": 0.0, "lat": 38.898864, "bike_id": "f97bce42c300fd8ff4c9eb074e788202", "type": "electric_scooter", "is_reserved": 0, "lon": -76.976767}, {"fusion_lat": 0.0, "name": "31313226788440666898c8a96ac1fc43", "is_disabled": 0, "rental_uris": {"android": "https://dc.lft.to/lastmile_qr_scan", "ios": "https://dc.lft.to/lastmile_qr_scan"}, "fusion_lon": 0.0, "lat": 38.88487033333333, "bike_id": "31313226788440666898c8a96ac1fc43", "type": "electric_scooter", "is_reserved": 0, "lon": -77.0071325}, {"fusion_lat": 0.0, "name": "7d65715db142a5e26e77dca113409e3f", "is_disabled": 0, "rental_uris": {"android": "https://dc.lft.to/lastmile_qr_scan", "ios": "https://dc.lft.to/lastmile_qr_scan"}, "fusion_lon": 0.0, "lat": 38.8889465, "bike_id": "7d65715db142a5e26e77dca113409e3f", "type": "electric_scooter", "is_reserved": 0, "lon": -76.97732883333333}, {"fusion_lat": 0.0, "name": "84a3c61d92b54fb6b3b0be6fd7fce805", "is_disabled": 0, "rental_uris": {"android": "https://dc.lft.to/lastmile_qr_scan", "ios": "https://dc.lft.to/lastmile_qr_scan"}, "fusion_lon": 0.0, "lat": 38.867614833333334, "bike_id": "84a3c61d92b54fb6b3b0be6fd7fce805", "type": "electric_scooter", "is_reserved": 0, "lon": -76.98273083333333}, {"fusion_lat": 0.0, "name": "89113336f106475e4ee77ca4122fc9d1", "is_disabled": 0, "rental_uris": {"android": "https://dc.lft.to/lastmile_qr_scan", "ios": "https://dc.lft.to/lastmile_qr_scan"}, "fusion_lon": 0.0, "lat": 38.90195466666667, "bike_id": "89113336f106475e4ee77ca4122fc9d1", "type": "electric_scooter", "is_reserved": 0, "lon": -76.98203366666667}, {"fusion_lat": 0.0, "name": "541c9222814d9abbf0abbce5864fece1", "is_disabled": 0, "rental_uris": {"android": "https://dc.lft.to/lastmile_qr_scan", "ios": "https://dc.lft.to/lastmile_qr_scan"}, "fusion_lon": 0.0, "lat": 38.9155425, "bike_id": "541c9222814d9abbf0abbce5864fece1", "type": "electric_scooter", "is_reserved": 0, "lon": -77.03173233333334}, {"fusion_lat": 0.0, "name": "3f5b8532b92269f3ff45c2c4d7c6e60a", "is_disabled": 0, "rental_uris": {"android": "https://dc.lft.to/lastmile_qr_scan", "ios": "https://dc.lft.to/lastmile_qr_scan"}, "fusion_lon": 0.0, "lat": 38.84052466666667, "bike_id": "3f5b8532b92269f3ff45c2c4d7c6e60a", "type": "electric_scooter", "is_reserved": 0, "lon": -76.9766465}, {"fusion_lat": 0.0, "name": "b97258d336a83ca1574b4502830e60f5", "is_disabled": 0, "rental_uris": {"android": "https://dc.lft.to/lastmile_qr_scan", "ios": "https://dc.lft.to/lastmile_qr_scan"}, "fusion_lon": 0.0, "lat": 38.94991, "bike_id": "b97258d336a83ca1574b4502830e60f5", "type": "electric_scooter", "is_reserved": 0, "lon": -77.02709116666666}, {"fusion_lat": 0.0, "name": "cd02ac66b302d76e0f0a92b12499e4ac", "is_disabled": 0, "rental_uris": {"android": "https://dc.lft.to/lastmile_qr_scan", "ios": "https://dc.lft.to/lastmile_qr_scan"}, "fusion_lon": 0.0, "lat": 38.9044575, "bike_id": "cd02ac66b302d76e0f0a92b12499e4ac", "type": "electric_bike", "is_reserved": 0, "lon": -76.97420183333334}, {"fusion_lat": 0.0, "name": "fc4719766ef064352035c4cf177dd95a", "is_disabled": 0, "rental_uris": {"android": "https://dc.lft.to/lastmile_qr_scan", "ios": "https://dc.lft.to/lastmile_qr_scan"}, "fusion_lon": 0.0, "lat": 38.89764866666667, "bike_id": "fc4719766ef064352035c4cf177dd95a", "type": "electric_scooter", "is_reserved": 0, "lon": -76.98550483333334}, {"fusion_lat": 0.0, "name": "a27cfe259dda81ae78c90e090e1dbf8d", "is_disabled": 0, "rental_uris": {"android": "https://dc.lft.to/lastmile_qr_scan", "ios": "https://dc.lft.to/lastmile_qr_scan"}, "fusion_lon": 0.0, "lat": 38.914031333333334, "bike_id": "a27cfe259dda81ae78c90e090e1dbf8d", "type": "electric_scooter", "is_reserved": 0, "lon": -77.0265915}, {"fusion_lat": 0.0, "name": "3ea7267f72dda1e8ddd8c5568a37415b", "is_disabled": 0, "rental_uris": {"android": "https://dc.lft.to/lastmile_qr_scan", "ios": "https://dc.lft.to/lastmile_qr_scan"}, "fusion_lon": 0.0, "lat": 38.94651866666667, "bike_id": "3ea7267f72dda1e8ddd8c5568a37415b", "type": "electric_scooter", "is_reserved": 0, "lon": -77.06479683333333}, {"fusion_lat": 0.0, "name": "8be917aed4a97bd2f33b0d1e66345b34", "is_disabled": 0, "rental_uris": {"android": "https://dc.lft.to/lastmile_qr_scan", "ios": "https://dc.lft.to/lastmile_qr_scan"}, "fusion_lon": 0.0, "lat": 38.89834183333333, "bike_id": "8be917aed4a97bd2f33b0d1e66345b34", "type": "electric_scooter", "is_reserved": 0, "lon": -76.93180366666667}, {"fusion_lat": 0.0, "name": "4f4effdfdf3aa907350e8608fd85d28f", "is_disabled": 0, "rental_uris": {"android": "https://dc.lft.to/lastmile_qr_scan", "ios": "https://dc.lft.to/lastmile_qr_scan"}, "fusion_lon": 0.0, "lat": 38.92085866666667, "bike_id": "4f4effdfdf3aa907350e8608fd85d28f", "type": "electric_scooter", "is_reserved": 0, "lon": -77.02322583333333}, {"fusion_lat": 0.0, "name": "cd91b94839051f0541685c0a7d305e32", "is_disabled": 0, "rental_uris": {"android": "https://dc.lft.to/lastmile_qr_scan", "ios": "https://dc.lft.to/lastmile_qr_scan"}, "fusion_lon": 0.0, "lat": 38.94329716666667, "bike_id": "cd91b94839051f0541685c0a7d305e32", "type": "electric_scooter", "is_reserved": 0, "lon": -77.02684883333333}, {"fusion_lat": 0.0, "name": "5d2bed5b872e145df6f752b52df8006d", "is_disabled": 0, "rental_uris": {"android": "https://dc.lft.to/lastmile_qr_scan", "ios": "https://dc.lft.to/lastmile_qr_scan"}, "fusion_lon": 0.0, "lat": 38.91710066666667, "bike_id": "5d2bed5b872e145df6f752b52df8006d", "type": "electric_scooter", "is_reserved": 0, "lon": -77.00124916666667}, {"fusion_lat": 0.0, "name": "75440e368d3b5b7bcb61362b4c1b5af1", "is_disabled": 0, "rental_uris": {"android": "https://dc.lft.to/lastmile_qr_scan", "ios": "https://dc.lft.to/lastmile_qr_scan"}, "fusion_lon": 0.0, "lat": 38.905845666666664, "bike_id": "75440e368d3b5b7bcb61362b4c1b5af1", "type": "electric_scooter", "is_reserved": 0, "lon": -77.04624}, {"fusion_lat": 0.0, "name": "346df854d65cc60d4ad42e97849c81e1", "is_disabled": 0, "rental_uris": {"android": "https://dc.lft.to/lastmile_qr_scan", "ios": "https://dc.lft.to/lastmile_qr_scan"}, "fusion_lon": 0.0, "lat": 38.92873133333333, "bike_id": "346df854d65cc60d4ad42e97849c81e1", "type": "electric_scooter", "is_reserved": 0, "lon": -77.03790183333334}, {"fusion_lat": 0.0, "name": "32dc2e36bcfc8ec6d34f8f1d03c0b171", "is_disabled": 0, "rental_uris": {"android": "https://dc.lft.to/lastmile_qr_scan", "ios": "https://dc.lft.to/lastmile_qr_scan"}, "fusion_lon": 0.0, "lat": 38.896312, "bike_id": "32dc2e36bcfc8ec6d34f8f1d03c0b171", "type": "electric_scooter", "is_reserved": 0, "lon": -77.03323733333333}, {"fusion_lat": 0.0, "name": "cd047efca4342b600fe857b6e2a3ffc6", "is_disabled": 0, "rental_uris": {"android": "https://dc.lft.to/lastmile_qr_scan", "ios": "https://dc.lft.to/lastmile_qr_scan"}, "fusion_lon": 0.0, "lat": 38.899209666666664, "bike_id": "cd047efca4342b600fe857b6e2a3ffc6", "type": "electric_scooter", "is_reserved": 0, "lon": -77.07191333333333}, {"fusion_lat": 0.0, "name": "d9f06303c75ebdc89d593ecb010258a4", "is_disabled": 0, "rental_uris": {"android": "https://dc.lft.to/lastmile_qr_scan", "ios": "https://dc.lft.to/lastmile_qr_scan"}, "fusion_lon": 0.0, "lat": 38.938824833333335, "bike_id": "d9f06303c75ebdc89d593ecb010258a4", "type": "electric_scooter", "is_reserved": 0, "lon": -77.03085816666666}, {"fusion_lat": 0.0, "name": "6f82027a435706801a25f2cfc76bff1c", "is_disabled": 0, "rental_uris": {"android": "https://dc.lft.to/lastmile_qr_scan", "ios": "https://dc.lft.to/lastmile_qr_scan"}, "fusion_lon": 0.0, "lat": 38.873892166666664, "bike_id": "6f82027a435706801a25f2cfc76bff1c", "type": "electric_scooter", "is_reserved": 0, "lon": -77.00019183333333}, {"fusion_lat": 0.0, "name": "074548fbf2dd5780fa150bcffde88921", "is_disabled": 0, "rental_uris": {"android": "https://dc.lft.to/lastmile_qr_scan", "ios": "https://dc.lft.to/lastmile_qr_scan"}, "fusion_lon": 0.0, "lat": 38.937834, "bike_id": "074548fbf2dd5780fa150bcffde88921", "type": "electric_scooter", "is_reserved": 0, "lon": -77.02453}, {"fusion_lat": 0.0, "name": "b5461f136d36cdcca16dda45ac4d87a7", "is_disabled": 0, "rental_uris": {"android": "https://dc.lft.to/lastmile_qr_scan", "ios": "https://dc.lft.to/lastmile_qr_scan"}, "fusion_lon": 0.0, "lat": 38.904172333333335, "bike_id": "b5461f136d36cdcca16dda45ac4d87a7", "type": "electric_scooter", "is_reserved": 0, "lon": -77.02589466666667}, {"fusion_lat": 0.0, "name": "e088d32b2946b9cbce2f7074d034dff1", "is_disabled": 0, "rental_uris": {"android": "https://dc.lft.to/lastmile_qr_scan", "ios": "https://dc.lft.to/lastmile_qr_scan"}, "fusion_lon": 0.0, "lat": 38.93967983333334, "bike_id": "e088d32b2946b9cbce2f7074d034dff1", "type": "electric_scooter", "is_reserved": 0, "lon": -77.03254}, {"fusion_lat": 0.0, "name": "f76c94f82991e8c478834ba34d7bfbfc", "is_disabled": 0, "rental_uris": {"android": "https://dc.lft.to/lastmile_qr_scan", "ios": "https://dc.lft.to/lastmile_qr_scan"}, "fusion_lon": 0.0, "lat": 38.90057733333333, "bike_id": "f76c94f82991e8c478834ba34d7bfbfc", "type": "electric_scooter", "is_reserved": 0, "lon": -76.98556016666667}, {"fusion_lat": 0.0, "name": "cd187e1ec3cff342068303e37aa6bceb", "is_disabled": 0, "rental_uris": {"android": "https://dc.lft.to/lastmile_qr_scan", "ios": "https://dc.lft.to/lastmile_qr_scan"}, "fusion_lon": 0.0, "lat": 38.890657833333336, "bike_id": "cd187e1ec3cff342068303e37aa6bceb", "type": "electric_scooter", "is_reserved": 0, "lon": -76.944544}, {"fusion_lat": 0.0, "name": "420a88948985f226a8af2f9ba8bf36ae", "is_disabled": 0, "rental_uris": {"android": "https://dc.lft.to/lastmile_qr_scan", "ios": "https://dc.lft.to/lastmile_qr_scan"}, "fusion_lon": 0.0, "lat": 38.89530833333333, "bike_id": "420a88948985f226a8af2f9ba8bf36ae", "type": "electric_scooter", "is_reserved": 0, "lon": -77.01197566666667}, {"fusion_lat": 0.0, "name": "ddb2182506c0cc9aa9ab29074c9a073b", "is_disabled": 0, "rental_uris": {"android": "https://dc.lft.to/lastmile_qr_scan", "ios": "https://dc.lft.to/lastmile_qr_scan"}, "fusion_lon": 0.0, "lat": 38.925135166666664, "bike_id": "ddb2182506c0cc9aa9ab29074c9a073b", "type": "electric_scooter", "is_reserved": 0, "lon": -76.99559566666667}, {"fusion_lat": 0.0, "name": "a3d94fed352a6b67821c324e994f6666", "is_disabled": 0, "rental_uris": {"android": "https://dc.lft.to/lastmile_qr_scan", "ios": "https://dc.lft.to/lastmile_qr_scan"}, "fusion_lon": 0.0, "lat": 38.917447833333334, "bike_id": "a3d94fed352a6b67821c324e994f6666", "type": "electric_scooter", "is_reserved": 0, "lon": -77.03857816666667}, {"fusion_lat": 0.0, "name": "59eba86a4511d4c56ebac4058567c1bb", "is_disabled": 0, "rental_uris": {"android": "https://dc.lft.to/lastmile_qr_scan", "ios": "https://dc.lft.to/lastmile_qr_scan"}, "fusion_lon": 0.0, "lat": 38.87544416666667, "bike_id": "59eba86a4511d4c56ebac4058567c1bb", "type": "electric_scooter", "is_reserved": 0, "lon": -77.005697}, {"fusion_lat": 0.0, "name": "eb1fadf55d9ae46d6c240771f4a6759b", "is_disabled": 0, "rental_uris": {"android": "https://dc.lft.to/lastmile_qr_scan", "ios": "https://dc.lft.to/lastmile_qr_scan"}, "fusion_lon": 0.0, "lat": 38.90252566666667, "bike_id": "eb1fadf55d9ae46d6c240771f4a6759b", "type": "electric_scooter", "is_reserved": 0, "lon": -77.0175595}, {"fusion_lat": 0.0, "name": "733ca935dc6857d8fba4df14bbd9722c", "is_disabled": 0, "rental_uris": {"android": "https://dc.lft.to/lastmile_qr_scan", "ios": "https://dc.lft.to/lastmile_qr_scan"}, "fusion_lon": 0.0, "lat": 38.92860016666667, "bike_id": "733ca935dc6857d8fba4df14bbd9722c", "type": "electric_scooter", "is_reserved": 0, "lon": -77.03097566666666}, {"fusion_lat": 0.0, "name": "1312b74508ad6e08b3ea12916462ae9b", "is_disabled": 0, "rental_uris": {"android": "https://dc.lft.to/lastmile_qr_scan", "ios": "https://dc.lft.to/lastmile_qr_scan"}, "fusion_lon": 0.0, "lat": 38.922951833333336, "bike_id": "1312b74508ad6e08b3ea12916462ae9b", "type": "electric_scooter", "is_reserved": 0, "lon": -77.04297566666666}, {"fusion_lat": 0.0, "name": "f6a44c1663e337d9002405ba5b8f86b1", "is_disabled": 0, "rental_uris": {"android": "https://dc.lft.to/lastmile_qr_scan", "ios": "https://dc.lft.to/lastmile_qr_scan"}, "fusion_lon": 0.0, "lat": 38.91718566666667, "bike_id": "f6a44c1663e337d9002405ba5b8f86b1", "type": "electric_scooter", "is_reserved": 0, "lon": -77.0333715}, {"fusion_lat": 0.0, "name": "003572ac21adf0f9c160b31417bc779b", "is_disabled": 0, "rental_uris": {"android": "https://dc.lft.to/lastmile_qr_scan", "ios": "https://dc.lft.to/lastmile_qr_scan"}, "fusion_lon": 0.0, "lat": 38.8922365, "bike_id": "003572ac21adf0f9c160b31417bc779b", "type": "electric_scooter", "is_reserved": 0, "lon": -77.03990483333334}, {"fusion_lat": 0.0, "name": "5f235bb6167dd41aaa40fe04585b4d48", "is_disabled": 0, "rental_uris": {"android": "https://dc.lft.to/lastmile_qr_scan", "ios": "https://dc.lft.to/lastmile_qr_scan"}, "fusion_lon": 0.0, "lat": 38.9563505, "bike_id": "5f235bb6167dd41aaa40fe04585b4d48", "type": "electric_scooter", "is_reserved": 0, "lon": -77.0330415}, {"fusion_lat": 0.0, "name": "c485bbe61b09729a0d638734a3e26ec4", "is_disabled": 0, "rental_uris": {"android": "https://dc.lft.to/lastmile_qr_scan", "ios": "https://dc.lft.to/lastmile_qr_scan"}, "fusion_lon": 0.0, "lat": 38.917747, "bike_id": "c485bbe61b09729a0d638734a3e26ec4", "type": "electric_scooter", "is_reserved": 0, "lon": -77.0410115}, {"fusion_lat": 0.0, "name": "f76359b9a0a84c3adf4c98e4b507ec03", "is_disabled": 0, "rental_uris": {"android": "https://dc.lft.to/lastmile_qr_scan", "ios": "https://dc.lft.to/lastmile_qr_scan"}, "fusion_lon": 0.0, "lat": 38.916692166666664, "bike_id": "f76359b9a0a84c3adf4c98e4b507ec03", "type": "electric_scooter", "is_reserved": 0, "lon": -77.02708533333333}, {"fusion_lat": 0.0, "name": "90fe69422a803f987bd9d65baadd4e3d", "is_disabled": 0, "rental_uris": {"android": "https://dc.lft.to/lastmile_qr_scan", "ios": "https://dc.lft.to/lastmile_qr_scan"}, "fusion_lon": 0.0, "lat": 38.88987633333333, "bike_id": "90fe69422a803f987bd9d65baadd4e3d", "type": "electric_scooter", "is_reserved": 0, "lon": -76.98738866666666}, {"fusion_lat": 0.0, "name": "577ed031c29620c71ce5a8c888957fe2", "is_disabled": 0, "rental_uris": {"android": "https://dc.lft.to/lastmile_qr_scan", "ios": "https://dc.lft.to/lastmile_qr_scan"}, "fusion_lon": 0.0, "lat": 38.8983065, "bike_id": "577ed031c29620c71ce5a8c888957fe2", "type": "electric_scooter", "is_reserved": 0, "lon": -77.03164283333334}, {"fusion_lat": 0.0, "name": "3b49ba3e29d3e88f3318a526f575257e", "is_disabled": 0, "rental_uris": {"android": "https://dc.lft.to/lastmile_qr_scan", "ios": "https://dc.lft.to/lastmile_qr_scan"}, "fusion_lon": 0.0, "lat": 38.900268, "bike_id": "3b49ba3e29d3e88f3318a526f575257e", "type": "electric_scooter", "is_reserved": 0, "lon": -77.01191416666667}, {"fusion_lat": 0.0, "name": "42ac9a0bd5e63e609b4ef38cc08356db", "is_disabled": 0, "rental_uris": {"android": "https://dc.lft.to/lastmile_qr_scan", "ios": "https://dc.lft.to/lastmile_qr_scan"}, "fusion_lon": 0.0, "lat": 38.9209155, "bike_id": "42ac9a0bd5e63e609b4ef38cc08356db", "type": "electric_scooter", "is_reserved": 0, "lon": -77.0231105}, {"fusion_lat": 0.0, "name": "e4b3ad825a3fa1470804379bacca05c2", "is_disabled": 0, "rental_uris": {"android": "https://dc.lft.to/lastmile_qr_scan", "ios": "https://dc.lft.to/lastmile_qr_scan"}, "fusion_lon": 0.0, "lat": 38.886025, "bike_id": "e4b3ad825a3fa1470804379bacca05c2", "type": "electric_scooter", "is_reserved": 0, "lon": -77.02291633333333}, {"fusion_lat": 0.0, "name": "94dc8fcb8fbb59f87918ab14efc50aab", "is_disabled": 0, "rental_uris": {"android": "https://dc.lft.to/lastmile_qr_scan", "ios": "https://dc.lft.to/lastmile_qr_scan"}, "fusion_lon": 0.0, "lat": 38.9209815, "bike_id": "94dc8fcb8fbb59f87918ab14efc50aab", "type": "electric_scooter", "is_reserved": 0, "lon": -77.02507633333333}, {"fusion_lat": 0.0, "name": "c4f7dbbe896b87e9db89ca252d6082d1", "is_disabled": 0, "rental_uris": {"android": "https://dc.lft.to/lastmile_qr_scan", "ios": "https://dc.lft.to/lastmile_qr_scan"}, "fusion_lon": 0.0, "lat": 38.883126833333336, "bike_id": "c4f7dbbe896b87e9db89ca252d6082d1", "type": "electric_scooter", "is_reserved": 0, "lon": -77.01770116666667}, {"fusion_lat": 0.0, "name": "ac69507425159ca66949bfb37d25fe8f", "is_disabled": 0, "rental_uris": {"android": "https://dc.lft.to/lastmile_qr_scan", "ios": "https://dc.lft.to/lastmile_qr_scan"}, "fusion_lon": 0.0, "lat": 38.885081666666665, "bike_id": "ac69507425159ca66949bfb37d25fe8f", "type": "electric_scooter", "is_reserved": 0, "lon": -77.021044}, {"fusion_lat": 0.0, "name": "c4825a31e7855008a53a6c98cf142ebc", "is_disabled": 0, "rental_uris": {"android": "https://dc.lft.to/lastmile_qr_scan", "ios": "https://dc.lft.to/lastmile_qr_scan"}, "fusion_lon": 0.0, "lat": 38.90928266666667, "bike_id": "c4825a31e7855008a53a6c98cf142ebc", "type": "electric_scooter", "is_reserved": 0, "lon": -77.02128983333333}, {"fusion_lat": 0.0, "name": "57b448c296608f34d2352cbbd34612ba", "is_disabled": 0, "rental_uris": {"android": "https://dc.lft.to/lastmile_qr_scan", "ios": "https://dc.lft.to/lastmile_qr_scan"}, "fusion_lon": 0.0, "lat": 38.89821766666667, "bike_id": "57b448c296608f34d2352cbbd34612ba", "type": "electric_scooter", "is_reserved": 0, "lon": -77.02446266666666}, {"fusion_lat": 0.0, "name": "42b3707e9f2514aaa5eaa9ecb04c97a7", "is_disabled": 0, "rental_uris": {"android": "https://dc.lft.to/lastmile_qr_scan", "ios": "https://dc.lft.to/lastmile_qr_scan"}, "fusion_lon": 0.0, "lat": 38.90028266666667, "bike_id": "42b3707e9f2514aaa5eaa9ecb04c97a7", "type": "electric_scooter", "is_reserved": 0, "lon": -77.04329066666666}, {"fusion_lat": 0.0, "name": "460581e811d84e0f5cc7805466f4ffbd", "is_disabled": 0, "rental_uris": {"android": "https://dc.lft.to/lastmile_qr_scan", "ios": "https://dc.lft.to/lastmile_qr_scan"}, "fusion_lon": 0.0, "lat": 38.91885216666667, "bike_id": "460581e811d84e0f5cc7805466f4ffbd", "type": "electric_scooter", "is_reserved": 0, "lon": -77.02972783333334}, {"fusion_lat": 0.0, "name": "743dd95139bb828f97ec46750936b8c9", "is_disabled": 0, "rental_uris": {"android": "https://dc.lft.to/lastmile_qr_scan", "ios": "https://dc.lft.to/lastmile_qr_scan"}, "fusion_lon": 0.0, "lat": 38.922664, "bike_id": "743dd95139bb828f97ec46750936b8c9", "type": "electric_scooter", "is_reserved": 0, "lon": -77.0296925}, {"fusion_lat": 0.0, "name": "7f99322bf389e33edd96bdfb188c7660", "is_disabled": 0, "rental_uris": {"android": "https://dc.lft.to/lastmile_qr_scan", "ios": "https://dc.lft.to/lastmile_qr_scan"}, "fusion_lon": 0.0, "lat": 38.8749175, "bike_id": "7f99322bf389e33edd96bdfb188c7660", "type": "electric_bike", "is_reserved": 0, "lon": -77.21122083333333}, {"fusion_lat": 0.0, "name": "99525a7508e5758443d51da4e28d7009", "is_disabled": 0, "rental_uris": {"android": "https://dc.lft.to/lastmile_qr_scan", "ios": "https://dc.lft.to/lastmile_qr_scan"}, "fusion_lon": 0.0, "lat": 38.912588666666664, "bike_id": "99525a7508e5758443d51da4e28d7009", "type": "electric_scooter", "is_reserved": 0, "lon": -77.0314305}, {"fusion_lat": 0.0, "name": "0d9da0a731a76e3169b8b7d708329e9e", "is_disabled": 0, "rental_uris": {"android": "https://dc.lft.to/lastmile_qr_scan", "ios": "https://dc.lft.to/lastmile_qr_scan"}, "fusion_lon": 0.0, "lat": 38.904447833333336, "bike_id": "0d9da0a731a76e3169b8b7d708329e9e", "type": "electric_scooter", "is_reserved": 0, "lon": -77.03133883333334}, {"fusion_lat": 0.0, "name": "a16cecd16e341a6843f7bb4fc18c4805", "is_disabled": 0, "rental_uris": {"android": "https://dc.lft.to/lastmile_qr_scan", "ios": "https://dc.lft.to/lastmile_qr_scan"}, "fusion_lon": 0.0, "lat": 38.948334333333335, "bike_id": "a16cecd16e341a6843f7bb4fc18c4805", "type": "electric_scooter", "is_reserved": 0, "lon": -77.08001483333334}, {"fusion_lat": 0.0, "name": "6ca0c0b52a2b7894a2f46ed7ea48ef66", "is_disabled": 0, "rental_uris": {"android": "https://dc.lft.to/lastmile_qr_scan", "ios": "https://dc.lft.to/lastmile_qr_scan"}, "fusion_lon": 0.0, "lat": 38.9462825, "bike_id": "6ca0c0b52a2b7894a2f46ed7ea48ef66", "type": "electric_scooter", "is_reserved": 0, "lon": -77.080232}, {"fusion_lat": 0.0, "name": "f5b076b8acd089ec304d7dc969657dba", "is_disabled": 0, "rental_uris": {"android": "https://dc.lft.to/lastmile_qr_scan", "ios": "https://dc.lft.to/lastmile_qr_scan"}, "fusion_lon": 0.0, "lat": 38.896073666666666, "bike_id": "f5b076b8acd089ec304d7dc969657dba", "type": "electric_bike", "is_reserved": 0, "lon": -76.907396}, {"fusion_lat": 0.0, "name": "61830583aca75ede80f332fdffab89ac", "is_disabled": 0, "rental_uris": {"android": "https://dc.lft.to/lastmile_qr_scan", "ios": "https://dc.lft.to/lastmile_qr_scan"}, "fusion_lon": 0.0, "lat": 38.9010045, "bike_id": "61830583aca75ede80f332fdffab89ac", "type": "electric_bike", "is_reserved": 0, "lon": -77.03190016666667}, {"fusion_lat": 0.0, "name": "4a4e2ed332c62a8926721fe485eb17f9", "is_disabled": 0, "rental_uris": {"android": "https://dc.lft.to/lastmile_qr_scan", "ios": "https://dc.lft.to/lastmile_qr_scan"}, "fusion_lon": 0.0, "lat": 38.846114, "bike_id": "4a4e2ed332c62a8926721fe485eb17f9", "type": "electric_bike", "is_reserved": 0, "lon": -76.96903766666667}, {"fusion_lat": 0.0, "name": "6b46292ca7b09681d8786853396db0d1", "is_disabled": 0, "rental_uris": {"android": "https://dc.lft.to/lastmile_qr_scan", "ios": "https://dc.lft.to/lastmile_qr_scan"}, "fusion_lon": 0.0, "lat": 38.909764333333335, "bike_id": "6b46292ca7b09681d8786853396db0d1", "type": "electric_scooter", "is_reserved": 0, "lon": -77.02815933333333}, {"fusion_lat": 0.0, "name": "f2876316758db56acc76bc61f236392e", "is_disabled": 0, "rental_uris": {"android": "https://dc.lft.to/lastmile_qr_scan", "ios": "https://dc.lft.to/lastmile_qr_scan"}, "fusion_lon": 0.0, "lat": 38.91491083333333, "bike_id": "f2876316758db56acc76bc61f236392e", "type": "electric_bike", "is_reserved": 0, "lon": -77.01011433333333}, {"fusion_lat": 0.0, "name": "795e353d6d3c23c5895028b72f5fdd65", "is_disabled": 0, "rental_uris": {"android": "https://dc.lft.to/lastmile_qr_scan", "ios": "https://dc.lft.to/lastmile_qr_scan"}, "fusion_lon": 0.0, "lat": 38.917063666666664, "bike_id": "795e353d6d3c23c5895028b72f5fdd65", "type": "electric_scooter", "is_reserved": 0, "lon": -77.04049266666667}, {"fusion_lat": 0.0, "name": "96698eb040a3a29eb3555f8970cfca22", "is_disabled": 0, "rental_uris": {"android": "https://dc.lft.to/lastmile_qr_scan", "ios": "https://dc.lft.to/lastmile_qr_scan"}, "fusion_lon": 0.0, "lat": 38.9101765, "bike_id": "96698eb040a3a29eb3555f8970cfca22", "type": "electric_scooter", "is_reserved": 0, "lon": -76.997233}, {"fusion_lat": 0.0, "name": "2f930de8c36587576e3c3828c3cf24da", "is_disabled": 0, "rental_uris": {"android": "https://dc.lft.to/lastmile_qr_scan", "ios": "https://dc.lft.to/lastmile_qr_scan"}, "fusion_lon": 0.0, "lat": 38.83865266666667, "bike_id": "2f930de8c36587576e3c3828c3cf24da", "type": "electric_scooter", "is_reserved": 0, "lon": -76.99699083333333}, {"fusion_lat": 0.0, "name": "8bd388eeededbdfdf6483686dde45ec2", "is_disabled": 0, "rental_uris": {"android": "https://dc.lft.to/lastmile_qr_scan", "ios": "https://dc.lft.to/lastmile_qr_scan"}, "fusion_lon": 0.0, "lat": 38.92124783333333, "bike_id": "8bd388eeededbdfdf6483686dde45ec2", "type": "electric_scooter", "is_reserved": 0, "lon": -77.04116083333334}, {"fusion_lat": 0.0, "name": "5433cf3e182bafacdb9db4d3af555ab9", "is_disabled": 0, "rental_uris": {"android": "https://dc.lft.to/lastmile_qr_scan", "ios": "https://dc.lft.to/lastmile_qr_scan"}, "fusion_lon": 0.0, "lat": 38.918206166666664, "bike_id": "5433cf3e182bafacdb9db4d3af555ab9", "type": "electric_scooter", "is_reserved": 0, "lon": -77.03845483333333}, {"fusion_lat": 0.0, "name": "0de06859187b437271c6fed1cf8d35f0", "is_disabled": 0, "rental_uris": {"android": "https://dc.lft.to/lastmile_qr_scan", "ios": "https://dc.lft.to/lastmile_qr_scan"}, "fusion_lon": 0.0, "lat": 38.8985275, "bike_id": "0de06859187b437271c6fed1cf8d35f0", "type": "electric_scooter", "is_reserved": 0, "lon": -77.00762266666666}, {"fusion_lat": 0.0, "name": "37433b92b6387ebb07320f8b0e962f1e", "is_disabled": 0, "rental_uris": {"android": "https://dc.lft.to/lastmile_qr_scan", "ios": "https://dc.lft.to/lastmile_qr_scan"}, "fusion_lon": 0.0, "lat": 38.87793883333333, "bike_id": "37433b92b6387ebb07320f8b0e962f1e", "type": "electric_scooter", "is_reserved": 0, "lon": -76.99016116666667}, {"fusion_lat": 0.0, "name": "33a7a860e0464086f5db035fdd2db2f5", "is_disabled": 0, "rental_uris": {"android": "https://dc.lft.to/lastmile_qr_scan", "ios": "https://dc.lft.to/lastmile_qr_scan"}, "fusion_lon": 0.0, "lat": 38.884910166666664, "bike_id": "33a7a860e0464086f5db035fdd2db2f5", "type": "electric_scooter", "is_reserved": 0, "lon": -76.95652866666667}, {"fusion_lat": 0.0, "name": "d1ac6d8842b5039c93c41f3ccd4fc4d5", "is_disabled": 0, "rental_uris": {"android": "https://dc.lft.to/lastmile_qr_scan", "ios": "https://dc.lft.to/lastmile_qr_scan"}, "fusion_lon": 0.0, "lat": 38.9093115, "bike_id": "d1ac6d8842b5039c93c41f3ccd4fc4d5", "type": "electric_scooter", "is_reserved": 0, "lon": -77.04479733333334}, {"fusion_lat": 0.0, "name": "83763f2be54513f3dece5324a8212562", "is_disabled": 0, "rental_uris": {"android": "https://dc.lft.to/lastmile_qr_scan", "ios": "https://dc.lft.to/lastmile_qr_scan"}, "fusion_lon": 0.0, "lat": 38.91318966666667, "bike_id": "83763f2be54513f3dece5324a8212562", "type": "electric_scooter", "is_reserved": 0, "lon": -77.0317265}, {"fusion_lat": 0.0, "name": "3d9a885a6c6ad52701ac3eed9b2d6abe", "is_disabled": 0, "rental_uris": {"android": "https://dc.lft.to/lastmile_qr_scan", "ios": "https://dc.lft.to/lastmile_qr_scan"}, "fusion_lon": 0.0, "lat": 38.91418316666667, "bike_id": "3d9a885a6c6ad52701ac3eed9b2d6abe", "type": "electric_scooter", "is_reserved": 0, "lon": -77.03148716666666}, {"fusion_lat": 0.0, "name": "527437fc31fe876defd3dbfe77c001ca", "is_disabled": 0, "rental_uris": {"android": "https://dc.lft.to/lastmile_qr_scan", "ios": "https://dc.lft.to/lastmile_qr_scan"}, "fusion_lon": 0.0, "lat": 38.90393316666667, "bike_id": "527437fc31fe876defd3dbfe77c001ca", "type": "electric_scooter", "is_reserved": 0, "lon": -76.98947283333334}, {"fusion_lat": 0.0, "name": "35413fca9c6569bcde115ffdd68cb22f", "is_disabled": 0, "rental_uris": {"android": "https://dc.lft.to/lastmile_qr_scan", "ios": "https://dc.lft.to/lastmile_qr_scan"}, "fusion_lon": 0.0, "lat": 38.83948683333333, "bike_id": "35413fca9c6569bcde115ffdd68cb22f", "type": "electric_bike", "is_reserved": 0, "lon": -77.087533}, {"fusion_lat": 0.0, "name": "84e08ff8291fd6fcf061a96649b2f5a7", "is_disabled": 0, "rental_uris": {"android": "https://dc.lft.to/lastmile_qr_scan", "ios": "https://dc.lft.to/lastmile_qr_scan"}, "fusion_lon": 0.0, "lat": 38.930620833333336, "bike_id": "84e08ff8291fd6fcf061a96649b2f5a7", "type": "electric_scooter", "is_reserved": 0, "lon": -77.0232305}, {"fusion_lat": 0.0, "name": "af3e7f1311aea0d2ecb8c57af84f5395", "is_disabled": 0, "rental_uris": {"android": "https://dc.lft.to/lastmile_qr_scan", "ios": "https://dc.lft.to/lastmile_qr_scan"}, "fusion_lon": 0.0, "lat": 38.91706166666667, "bike_id": "af3e7f1311aea0d2ecb8c57af84f5395", "type": "electric_scooter", "is_reserved": 0, "lon": -77.02293183333333}, {"fusion_lat": 0.0, "name": "447a2b026c635db1a0898ab88adb27c1", "is_disabled": 0, "rental_uris": {"android": "https://dc.lft.to/lastmile_qr_scan", "ios": "https://dc.lft.to/lastmile_qr_scan"}, "fusion_lon": 0.0, "lat": 38.994127166666665, "bike_id": "447a2b026c635db1a0898ab88adb27c1", "type": "electric_bike", "is_reserved": 0, "lon": -77.03100966666666}, {"fusion_lat": 0.0, "name": "a2ce8cc668f0cf9c349084e1e18618dc", "is_disabled": 0, "rental_uris": {"android": "https://dc.lft.to/lastmile_qr_scan", "ios": "https://dc.lft.to/lastmile_qr_scan"}, "fusion_lon": 0.0, "lat": 38.92889516666666, "bike_id": "a2ce8cc668f0cf9c349084e1e18618dc", "type": "electric_scooter", "is_reserved": 0, "lon": -77.0329425}, {"fusion_lat": 0.0, "name": "dfbd100ad03e77684a39936b989a2707", "is_disabled": 0, "rental_uris": {"android": "https://dc.lft.to/lastmile_qr_scan", "ios": "https://dc.lft.to/lastmile_qr_scan"}, "fusion_lon": 0.0, "lat": 38.8577745, "bike_id": "dfbd100ad03e77684a39936b989a2707", "type": "electric_scooter", "is_reserved": 0, "lon": -76.97300883333334}, {"fusion_lat": 0.0, "name": "1bffc937f983406d84d9a4ad4615e263", "is_disabled": 0, "rental_uris": {"android": "https://dc.lft.to/lastmile_qr_scan", "ios": "https://dc.lft.to/lastmile_qr_scan"}, "fusion_lon": 0.0, "lat": 38.9459395, "bike_id": "1bffc937f983406d84d9a4ad4615e263", "type": "electric_scooter", "is_reserved": 0, "lon": -77.029843}, {"fusion_lat": 0.0, "name": "d52af6c36fee4585052c4cb88e33552a", "is_disabled": 0, "rental_uris": {"android": "https://dc.lft.to/lastmile_qr_scan", "ios": "https://dc.lft.to/lastmile_qr_scan"}, "fusion_lon": 0.0, "lat": 38.90382683333333, "bike_id": "d52af6c36fee4585052c4cb88e33552a", "type": "electric_scooter", "is_reserved": 0, "lon": -77.06132466666666}, {"fusion_lat": 0.0, "name": "ffa35438203bed6797d2b6b9ed3f681b", "is_disabled": 0, "rental_uris": {"android": "https://dc.lft.to/lastmile_qr_scan", "ios": "https://dc.lft.to/lastmile_qr_scan"}, "fusion_lon": 0.0, "lat": 38.84504116666667, "bike_id": "ffa35438203bed6797d2b6b9ed3f681b", "type": "electric_bike", "is_reserved": 0, "lon": -76.99351266666666}, {"fusion_lat": 0.0, "name": "8914b2252dfa36c5faa5ef668d1a3a49", "is_disabled": 0, "rental_uris": {"android": "https://dc.lft.to/lastmile_qr_scan", "ios": "https://dc.lft.to/lastmile_qr_scan"}, "fusion_lon": 0.0, "lat": 38.91182883333333, "bike_id": "8914b2252dfa36c5faa5ef668d1a3a49", "type": "electric_scooter", "is_reserved": 0, "lon": -77.03952383333333}, {"fusion_lat": 0.0, "name": "c2b8bf28f58569a44a02066784830603", "is_disabled": 0, "rental_uris": {"android": "https://dc.lft.to/lastmile_qr_scan", "ios": "https://dc.lft.to/lastmile_qr_scan"}, "fusion_lon": 0.0, "lat": 38.886746, "bike_id": "c2b8bf28f58569a44a02066784830603", "type": "electric_bike", "is_reserved": 0, "lon": -77.16248583333333}, {"fusion_lat": 0.0, "name": "eced1cc43cb82a86ea75f43c122b4678", "is_disabled": 0, "rental_uris": {"android": "https://dc.lft.to/lastmile_qr_scan", "ios": "https://dc.lft.to/lastmile_qr_scan"}, "fusion_lon": 0.0, "lat": 38.92534583333333, "bike_id": "eced1cc43cb82a86ea75f43c122b4678", "type": "electric_scooter", "is_reserved": 0, "lon": -77.05568583333333}, {"fusion_lat": 0.0, "name": "ce39f3bc0bbd847a124841099e96bad6", "is_disabled": 0, "rental_uris": {"android": "https://dc.lft.to/lastmile_qr_scan", "ios": "https://dc.lft.to/lastmile_qr_scan"}, "fusion_lon": 0.0, "lat": 38.88460633333333, "bike_id": "ce39f3bc0bbd847a124841099e96bad6", "type": "electric_scooter", "is_reserved": 0, "lon": -76.92619083333334}, {"fusion_lat": 0.0, "name": "9258ceef907afc9efada4f09938ee024", "is_disabled": 0, "rental_uris": {"android": "https://dc.lft.to/lastmile_qr_scan", "ios": "https://dc.lft.to/lastmile_qr_scan"}, "fusion_lon": 0.0, "lat": 38.920787, "bike_id": "9258ceef907afc9efada4f09938ee024", "type": "electric_scooter", "is_reserved": 0, "lon": -77.02508833333333}, {"fusion_lat": 0.0, "name": "ab32e9ffe048a22475aa2cc9118da4df", "is_disabled": 0, "rental_uris": {"android": "https://dc.lft.to/lastmile_qr_scan", "ios": "https://dc.lft.to/lastmile_qr_scan"}, "fusion_lon": 0.0, "lat": 38.90397766666667, "bike_id": "ab32e9ffe048a22475aa2cc9118da4df", "type": "electric_scooter", "is_reserved": 0, "lon": -76.98466833333333}, {"fusion_lat": 0.0, "name": "503191d7a5e13f7993a29caa61fc050d", "is_disabled": 0, "rental_uris": {"android": "https://dc.lft.to/lastmile_qr_scan", "ios": "https://dc.lft.to/lastmile_qr_scan"}, "fusion_lon": 0.0, "lat": 38.898715833333334, "bike_id": "503191d7a5e13f7993a29caa61fc050d", "type": "electric_scooter", "is_reserved": 0, "lon": -77.021725},