{"data": {"bikes": [{"rental_uris": {"android": "https://dc.lft.to/lastmile_qr_scan", "ios": "https://dc.lft.to/lastmile_qr_scan"}, "type": "electric_scooter", "lon": -77.03513966666667, "name": "1426c34b8694acbcd033345ef8ce7af8", "bike_id": "1426c34b8694acbcd033345ef8ce7af8", "fusion_lat": 0.0, "is_reserved": 0, "lat": 38.92627933333333, "fusion_lon": 0.0, "is_disabled": 0}, {"rental_uris": {"android": "https://dc.lft.to/lastmile_qr_scan", "ios": "https://dc.lft.to/lastmile_qr_scan"}, "type": "electric_scooter", "lon": -77.03152033333333, "name": "309a468cac2208e2e4a209409b83e2e3", "bike_id": "309a468cac2208e2e4a209409b83e2e3", "fusion_lat": 0.0, "is_reserved": 0, "lat": 38.887428666666665, "fusion_lon": 0.0, "is_disabled": 0}, {"rental_uris": {"android": "https://dc.lft.to/lastmile_qr_scan", "ios": "https://dc.lft.to/lastmile_qr_scan"}, "type": "electric_bike", "lon": -76.99397, "name": "1105edc45820cf5c0fe42300935e956f", "bike_id": "1105edc45820cf5c0fe42300935e956f", "fusion_lat": 0.0, "is_reserved": 0, "lat": 38.9226655, "fusion_lon": 0.0, "is_disabled": 0}, {"rental_uris": {"android": "https://dc.lft.to/lastmile_qr_scan", "ios": "https://dc.lft.to/lastmile_qr_scan"}, "type": "electric_scooter", "lon": -77.03439833333333, "name": "c91a383de671948b01620ad8b0b8c6b4", "bike_id": "c91a383de671948b01620ad8b0b8c6b4", "fusion_lat": 0.0, "is_reserved": 0, "lat": 38.902597, "fusion_lon": 0.0, "is_disabled": 0}, {"rental_uris": {"android": "https://dc.lft.to/lastmile_qr_scan", "ios": "https://dc.lft.to/lastmile_qr_scan"}, "type": "electric_scooter", "lon": -76.94842833333334, "name": "7203414925ce28769555ac0a3b64d9f4", "bike_id": "7203414925ce28769555ac0a3b64d9f4", "fusion_lat": 0.0, "is_reserved": 0, "lat": 38.89483233333333, "fusion_lon": 0.0, "is_disabled": 0}, {"rental_uris": {"android": "https://dc.lft.to/lastmile_qr_scan", "ios": "https://dc.lft.to/lastmile_qr_scan"}, "type": "electric_scooter", "lon": -77.055146, "name": "5e653bfdd449ea07bd0202014c4ab0c5", "bike_id": "5e653bfdd449ea07bd0202014c4ab0c5", "fusion_lat": 0.0, "is_reserved": 0, "lat": 38.94410633333333, "fusion_lon": 0.0, "is_disabled": 0}, {"rental_uris": {"android": "https://dc.lft.to/lastmile_qr_scan", "ios": "https://dc.lft.to/lastmile_qr_scan"}, "type": "electric_scooter", "lon": -77.02407783333334, "name": "61968668a6f0891396361e3aef81fdce", "bike_id": "61968668a6f0891396361e3aef81fdce", "fusion_lat": 0.0, "is_reserved": 0, "lat": 38.893764166666664, "fusion_lon": 0.0, "is_disabled": 0}, {"rental_uris": {"android": "https://dc.lft.to/lastmile_qr_scan", "ios": "https://dc.lft.to/lastmile_qr_scan"}, "type": "electric_scooter", "lon": -77.03010516666667, "name": "bef6778383b85dd3bc00f33e702a5d75", "bike_id": "bef6778383b85dd3bc00f33e702a5d75", "fusion_lat": 0.0, "is_reserved": 0, "lat": 38.93112433333334, "fusion_lon": 0.0, "is_disabled": 0}, {"rental_uris": {"android": "https://dc.lft.to/lastmile_qr_scan", "ios": "https://dc.lft.to/lastmile_qr_scan"}, "type": "electric_scooter", "lon": -77.04597933333334, "name": "df739d04524d665f5d2af55c1790a9be", "bike_id": "df739d04524d665f5d2af55c1790a9be", "fusion_lat": 0.0, "is_reserved": 0, "lat": 38.92124316666667, "fusion_lon": 0.0, "is_disabled": 0}, {"rental_uris": {"android": "https://dc.lft.to/lastmile_qr_scan", "ios": "https://dc.lft.to/lastmile_qr_scan"}, "type": "electric_scooter", "lon": -77.001111, "name": "2289b400c653a1c4e52b9a77b9a0cf9e", "bike_id": "2289b400c653a1c4e52b9a77b9a0cf9e", "fusion_lat": 0.0, "is_reserved": 0, "lat": 38.916320666666664, "fusion_lon": 0.0, "is_disabled": 0}, {"rental_uris": {"android": "https://dc.lft.to/lastmile_qr_scan", "ios": "https://dc.lft.to/lastmile_qr_scan"}, "type": "electric_scooter", "lon": -76.94855916666667, "name": "d79f4ca5c8664bb1f99c317077b8629c", "bike_id": "d79f4ca5c8664bb1f99c317077b8629c", "fusion_lat": 0.0, "is_reserved": 0, "lat": 38.88301033333333, "fusion_lon": 0.0, "is_disabled": 0}, {"rental_uris": {"android": "https://dc.lft.to/lastmile_qr_scan", "ios": "https://dc.lft.to/lastmile_qr_scan"}, "type": "electric_scooter", "lon": -76.98608183333333, "name": "2163898d00cbed7a2c624632e9f16a70", "bike_id": "2163898d00cbed7a2c624632e9f16a70", "fusion_lat": 0.0, "is_reserved": 0, "lat": 38.85440783333333, "fusion_lon": 0.0, "is_disabled": 0}, {"rental_uris": {"android": "https://dc.lft.to/lastmile_qr_scan", "ios": "https://dc.lft.to/lastmile_qr_scan"}, "type": "electric_scooter", "lon": -76.98902083333333, "name": "b45fcdb81568073d6660c4b526f137aa", "bike_id": "b45fcdb81568073d6660c4b526f137aa", "fusion_lat": 0.0, "is_reserved": 0, "lat": 38.902226166666665, "fusion_lon": 0.0, "is_disabled": 0}, {"rental_uris": {"android": "https://dc.lft.to/lastmile_qr_scan", "ios": "https://dc.lft.to/lastmile_qr_scan"}, "type": "electric_scooter", "lon": -77.0588225, "name": "18ae8c119e26f61e065a693e465de150", "bike_id": "18ae8c119e26f61e065a693e465de150", "fusion_lat": 0.0, "is_reserved": 0, "lat": 38.936331333333335, "fusion_lon": 0.0, "is_disabled": 0}, {"rental_uris": {"android": "https://dc.lft.to/lastmile_qr_scan", "ios": "https://dc.lft.to/lastmile_qr_scan"}, "type": "electric_bike", "lon": -76.92997233333334, "name": "767b5c43a50f38b646f3d0e3f79d5a6b", "bike_id": "767b5c43a50f38b646f3d0e3f79d5a6b", "fusion_lat": 0.0, "is_reserved": 0, "lat": 38.88797983333333, "fusion_lon": 0.0, "is_disabled": 0}, {"rental_uris": {"android": "https://dc.lft.to/lastmile_qr_scan", "ios": "https://dc.lft.to/lastmile_qr_scan"}, "type": "electric_scooter", "lon": -77.07267166666666, "name": "cb073920ca80dee90c263e938541012c", "bike_id": "cb073920ca80dee90c263e938541012c", "fusion_lat": 0.0, "is_reserved": 0, "lat": 38.93477, "fusion_lon": 0.0, "is_disabled": 0}, {"rental_uris": {"android": "https://dc.lft.to/lastmile_qr_scan", "ios": "https://dc.lft.to/lastmile_qr_scan"}, "type": "electric_scooter", "lon": -77.0707005, "name": "11af228b4a49353a0aeb98ce98efc54b", "bike_id": "11af228b4a49353a0aeb98ce98efc54b", "fusion_lat": 0.0, "is_reserved": 0, "lat": 38.91931016666667, "fusion_lon": 0.0, "is_disabled": 0}, {"rental_uris": {"android": "https://dc.lft.to/lastmile_qr_scan", "ios": "https://dc.lft.to/lastmile_qr_scan"}, "type": "electric_scooter", "lon": -77.03802883333333, "name": "c1be3208490e43664aebe6c27d74e405", "bike_id": "c1be3208490e43664aebe6c27d74e405", "fusion_lat": 0.0, "is_reserved": 0, "lat": 38.93012733333333, "fusion_lon": 0.0, "is_disabled": 0}, {"rental_uris": {"android": "https://dc.lft.to/lastmile_qr_scan", "ios": "https://dc.lft.to/lastmile_qr_scan"}, "type": "electric_bike", "lon": -77.15266716666666, "name": "be681fe68fcff16757e4ccc7c5f32b2f", "bike_id": "be681fe68fcff16757e4ccc7c5f32b2f", "fusion_lat": 0.0, "is_reserved": 0, "lat": 39.105641166666665, "fusion_lon": 0.0, "is_disabled": 0}, {"rental_uris": {"android": "https://dc.lft.to/lastmile_qr_scan", "ios": "https://dc.lft.to/lastmile_qr_scan"}, "type": "electric_scooter", "lon": -76.9650585, "name": "bba57f3a4c0e1b1be09b916a30b926d5", "bike_id": "bba57f3a4c0e1b1be09b916a30b926d5", "fusion_lat": 0.0, "is_reserved": 0, "lat": 38.87646016666667, "fusion_lon": 0.0, "is_disabled": 0}, {"rental_uris": {"android": "https://dc.lft.to/lastmile_qr_scan", "ios": "https://dc.lft.to/lastmile_qr_scan"}, "type": "electric_scooter", "lon": -76.98327083333334, "name": "44fbc7b9045dc1c3cb33210a5f090185", "bike_id": "44fbc7b9045dc1c3cb33210a5f090185", "fusion_lat": 0.0, "is_reserved": 0, "lat": 38.86169566666667, "fusion_lon": 0.0, "is_disabled": 0}, {"rental_uris": {"android": "https://dc.lft.to/lastmile_qr_scan", "ios": "https://dc.lft.to/lastmile_qr_scan"}, "type": "electric_bike", "lon": -76.96839216666666, "name": "ab220d97164e24c1c2e6112c7b6026f9", "bike_id": "ab220d97164e24c1c2e6112c7b6026f9", "fusion_lat": 0.0, "is_reserved": 0, "lat": 38.924441, "fusion_lon": 0.0, "is_disabled": 0}, {"rental_uris": {"android": "https://dc.lft.to/lastmile_qr_scan", "ios": "https://dc.lft.to/lastmile_qr_scan"}, "type": "electric_scooter", "lon": -77.04714416666667, "name": "5ea32c43efe45e20a70b7f2c64b1cef3", "bike_id": "5ea32c43efe45e20a70b7f2c64b1cef3", "fusion_lat": 0.0, "is_reserved": 0, "lat": 38.8996695, "fusion_lon": 0.0, "is_disabled": 0}, {"rental_uris": {"android": "https://dc.lft.to/lastmile_qr_scan", "ios": "https://dc.lft.to/lastmile_qr_scan"}, "type": "electric_scooter", "lon": -77.03265016666667, "name": "ff3d4d18767ce129ce6ad7ed9c417792", "bike_id": "ff3d4d18767ce129ce6ad7ed9c417792", "fusion_lat": 0.0, "is_reserved": 0, "lat": 38.935211, "fusion_lon": 0.0, "is_disabled": 0}, {"rental_uris": {"android": "https://dc.lft.to/lastmile_qr_scan", "ios": "https://dc.lft.to/lastmile_qr_scan"}, "type": "electric_bike", "lon": -77.01999783333333, "name": "36278958ec128cbda7c1294e86cd05c3", "bike_id": "36278958ec128cbda7c1294e86cd05c3", "fusion_lat": 0.0, "is_reserved": 0, "lat": 38.960214666666666, "fusion_lon": 0.0, "is_disabled": 0}, {"rental_uris": {"android": "https://dc.lft.to/lastmile_qr_scan", "ios": "https://dc.lft.to/lastmile_qr_scan"}, "type": "electric_scooter", "lon": -77.0634785, "name": "344911a225b5dea4e86b7dc01be56a9e", "bike_id": "344911a225b5dea4e86b7dc01be56a9e", "fusion_lat": 0.0, "is_reserved": 0, "lat": 38.913393166666665, "fusion_lon": 0.0, "is_disabled": 0}, {"rental_uris": {"android": "https://dc.lft.to/lastmile_qr_scan", "ios": "https://dc.lft.to/lastmile_qr_scan"}, "type": "electric_scooter", "lon": -77.03901633333334, "name": "09e7704b63062d636d166f910ffde5bc", "bike_id": "09e7704b63062d636d166f910ffde5bc", "fusion_lat": 0.0, "is_reserved": 0, "lat": 38.92220116666667, "fusion_lon": 0.0, "is_disabled": 0}, {"rental_uris": {"android": "https://dc.lft.to/lastmile_qr_scan", "ios": "https://dc.lft.to/lastmile_qr_scan"}, "type": "electric_scooter", "lon": -77.01643616666667, "name": "33549f9560db01a609eb8a3f394e1384", "bike_id": "33549f9560db01a609eb8a3f394e1384", "fusion_lat": 0.0, "is_reserved": 0, "lat": 38.8833035, "fusion_lon": 0.0, "is_disabled": 0}, {"rental_uris": {"android": "https://dc.lft.to/lastmile_qr_scan", "ios": "https://dc.lft.to/lastmile_qr_scan"}, "type": "electric_scooter", "lon": -77.030021, "name": "f68d71bdd47f5288709808c317c87b4b", "bike_id": "f68d71bdd47f5288709808c317c87b4b", "fusion_lat": 0.0, "is_reserved": 0, "lat": 38.927962, "fusion_lon": 0.0, "is_disabled": 0}, {"rental_uris": {"android": "https://dc.lft.to/lastmile_qr_scan", "ios": "https://dc.lft.to/lastmile_qr_scan"}, "type": "electric_bike", "lon": -77.353092, "name": "ac5b77a4f2cf5a273174ec56da303f21", "bike_id": "ac5b77a4f2cf5a273174ec56da303f21", "fusion_lat": 0.0, "is_reserved": 0, "lat": 38.94999466666667, "fusion_lon": 0.0, "is_disabled": 0}, {"rental_uris": {"android": "https://dc.lft.to/lastmile_qr_scan", "ios": "https://dc.lft.to/lastmile_qr_scan"}, "type": "electric_scooter", "lon": -76.99715816666667, "name": "50774b660977974974b55b3307bcfb3e", "bike_id": "50774b660977974974b55b3307bcfb3e", "fusion_lat": 0.0, "is_reserved": 0, "lat": 38.9110105, "fusion_lon": 0.0, "is_disabled": 0}, {"rental_uris": {"android": "https://dc.lft.to/lastmile_qr_scan", "ios": "https://dc.lft.to/lastmile_qr_scan"}, "type": "electric_scooter", "lon": -77.02727233333333, "name": "330d15b2b0c829edb12355a057b63c5a", "bike_id": "330d15b2b0c829edb12355a057b63c5a", "fusion_lat": 0.0, "is_reserved": 0, "lat": 38.95136266666667, "fusion_lon": 0.0, "is_disabled": 0}, {"rental_uris": {"android": "https://dc.lft.to/lastmile_qr_scan", "ios": "https://dc.lft.to/lastmile_qr_scan"}, "type": "electric_scooter", "lon": -77.00602866666667, "name": "c3fe30565552d37bbe4bbfcc456380b6", "bike_id": "c3fe30565552d37bbe4bbfcc456380b6", "fusion_lat": 0.0, "is_reserved": 0, "lat": 38.90564416666667, "fusion_lon": 0.0, "is_disabled": 0}, {"rental_uris": {"android": "https://dc.lft.to/lastmile_qr_scan", "ios": "https://dc.lft.to/lastmile_qr_scan"}, "type": "electric_bike", "lon": -77.014412, "name": "724e1ed408027fd8c9688152c9d67b1d", "bike_id": "724e1ed408027fd8c9688152c9d67b1d", "fusion_lat": 0.0, "is_reserved": 0, "lat": 38.876724833333334, "fusion_lon": 0.0, "is_disabled": 0}, {"rental_uris": {"android": "https://dc.lft.to/lastmile_qr_scan", "ios": "https://dc.lft.to/lastmile_qr_scan"}, "type": "electric_scooter", "lon": -77.02406033333334, "name": "b374af3f478352936173ce1765a981d4", "bike_id": "b374af3f478352936173ce1765a981d4", "fusion_lat": 0.0, "is_reserved": 0, "lat": 38.919973666666664, "fusion_lon": 0.0, "is_disabled": 0}, {"rental_uris": {"android": "https://dc.lft.to/lastmile_qr_scan", "ios": "https://dc.lft.to/lastmile_qr_scan"}, "type": "electric_scooter", "lon": -77.04665316666667, "name": "5648336f72d57f4891a2b330b26dcbd3", "bike_id": "5648336f72d57f4891a2b330b26dcbd3", "fusion_lat": 0.0, "is_reserved": 0, "lat": 38.893040166666665, "fusion_lon": 0.0, "is_disabled": 0}, {"rental_uris": {"android": "https://dc.lft.to/lastmile_qr_scan", "ios": "https://dc.lft.to/lastmile_qr_scan"}, "type": "electric_scooter", "lon": -77.02356433333334, "name": "7efa2ffc7d5cad3be593c75b09d6474d", "bike_id": "7efa2ffc7d5cad3be593c75b09d6474d", "fusion_lat": 0.0, "is_reserved": 0, "lat": 38.9178905, "fusion_lon": 0.0, "is_disabled": 0}, {"rental_uris": {"android": "https://dc.lft.to/lastmile_qr_scan", "ios": "https://dc.lft.to/lastmile_qr_scan"}, "type": "electric_scooter", "lon": -76.96919733333333, "name": "a84c0bf4f81f0e66f61c180ed25957db", "bike_id": "a84c0bf4f81f0e66f61c180ed25957db", "fusion_lat": 0.0, "is_reserved": 0, "lat": 38.85523833333333, "fusion_lon": 0.0, "is_disabled": 0}, {"rental_uris": {"android": "https://dc.lft.to/lastmile_qr_scan", "ios": "https://dc.lft.to/lastmile_qr_scan"}, "type": "electric_scooter", "lon": -77.04410366666667, "name": "0516ded17d1c068b1f8e0196953f3f81", "bike_id": "0516ded17d1c068b1f8e0196953f3f81", "fusion_lat": 0.0, "is_reserved": 0, "lat": 38.8742645, "fusion_lon": 0.0, "is_disabled": 0}, {"rental_uris": {"android": "https://dc.lft.to/lastmile_qr_scan", "ios": "https://dc.lft.to/lastmile_qr_scan"}, "type": "electric_bike", "lon": -77.0502855, "name": "a081f4275ca0bac01895c165ab0ea0d2", "bike_id": "a081f4275ca0bac01895c165ab0ea0d2", "fusion_lat": 0.0, "is_reserved": 0, "lat": 38.91108833333333, "fusion_lon": 0.0, "is_disabled": 0}, {"rental_uris": {"android": "https://dc.lft.to/lastmile_qr_scan", "ios": "https://dc.lft.to/lastmile_qr_scan"}, "type": "electric_scooter", "lon": -77.05031633333333, "name": "427fdd39c95d65778bdd0ec1af965943", "bike_id": "427fdd39c95d65778bdd0ec1af965943", "fusion_lat": 0.0, "is_reserved": 0, "lat": 38.923609666666664, "fusion_lon": 0.0, "is_disabled": 0}, {"rental_uris": {"android": "https://dc.lft.to/lastmile_qr_scan", "ios": "https://dc.lft.to/lastmile_qr_scan"}, "type": "electric_scooter", "lon": -77.04053333333333, "name": "7102f40cbd0dfae0d384fe0fcef191d3", "bike_id": "7102f40cbd0dfae0d384fe0fcef191d3", "fusion_lat": 0.0, "is_reserved": 0, "lat": 38.92876316666667, "fusion_lon": 0.0, "is_disabled": 0}, {"rental_uris": {"android": "https://dc.lft.to/lastmile_qr_scan", "ios": "https://dc.lft.to/lastmile_qr_scan"}, "type": "electric_scooter", "lon": -77.02208233333333, "name": "3aeeb984c685c3446488955a5e03a54f", "bike_id": "3aeeb984c685c3446488955a5e03a54f", "fusion_lat": 0.0, "is_reserved": 0, "lat": 38.91269033333333, "fusion_lon": 0.0, "is_disabled": 0}, {"rental_uris": {"android": "https://dc.lft.to/lastmile_qr_scan", "ios": "https://dc.lft.to/lastmile_qr_scan"}, "type": "electric_scooter", "lon": -77.0318995, "name": "1f8cb8e99f2100a36340cce0f3161ac0", "bike_id": "1f8cb8e99f2100a36340cce0f3161ac0", "fusion_lat": 0.0, "is_reserved": 0, "lat": 38.91863166666667, "fusion_lon": 0.0, "is_disabled": 0}, {"rental_uris": {"android": "https://dc.lft.to/lastmile_qr_scan", "ios": "https://dc.lft.to/lastmile_qr_scan"}, "type": "electric_scooter", "lon": -77.03261, "name": "45dbe5e5c29c5fad6ea11a8a95baa3f3", "bike_id": "45dbe5e5c29c5fad6ea11a8a95baa3f3", "fusion_lat": 0.0, "is_reserved": 0, "lat": 38.942548333333335, "fusion_lon": 0.0, "is_disabled": 0}, {"rental_uris": {"android": "https://dc.lft.to/lastmile_qr_scan", "ios": "https://dc.lft.to/lastmile_qr_scan"}, "type": "electric_scooter", "lon": -77.02263416666666, "name": "1d1bfb3e5c3d217cc2c7331518f917c4", "bike_id": "1d1bfb3e5c3d217cc2c7331518f917c4", "fusion_lat": 0.0, "is_reserved": 0, "lat": 38.917362833333335, "fusion_lon": 0.0, "is_disabled": 0}, {"rental_uris": {"android": "https://dc.lft.to/lastmile_qr_scan", "ios": "https://dc.lft.to/lastmile_qr_scan"}, "type": "electric_bike", "lon": -77.0915905, "name": "2d2423e9fbdd90f436fbe185776dd445", "bike_id": "2d2423e9fbdd90f436fbe185776dd445", "fusion_lat": 0.0, "is_reserved": 0, "lat": 38.96762983333333, "fusion_lon": 0.0, "is_disabled": 0}, {"rental_uris": {"android": "https://dc.lft.to/lastmile_qr_scan", "ios": "https://dc.lft.to/lastmile_qr_scan"}, "type": "electric_scooter", "lon": -77.03264133333333, "name": "96abab76f0e0706e959c43508873c824", "bike_id": "96abab76f0e0706e959c43508873c824", "fusion_lat": 0.0, "is_reserved": 0, "lat": 38.932531833333336, "fusion_lon": 0.0, "is_disabled": 0}, {"rental_uris": {"android": "https://dc.lft.to/lastmile_qr_scan", "ios": "https://dc.lft.to/lastmile_qr_scan"}, "type": "electric_scooter", "lon": -77.03127066666667, "name": "e99f197d7c7e6c344861a101bc75fa7d", "bike_id": "e99f197d7c7e6c344861a101bc75fa7d", "fusion_lat": 0.0, "is_reserved": 0, "lat": 38.9737675, "fusion_lon": 0.0, "is_disabled": 0}, {"rental_uris": {"android": "https://dc.lft.to/lastmile_qr_scan", "ios": "https://dc.lft.to/lastmile_qr_scan"}, "type": "electric_scooter", "lon": -77.05610133333333, "name": "70e9d828e28b38365b975648ff63343b", "bike_id": "70e9d828e28b38365b975648ff63343b", "fusion_lat": 0.0, "is_reserved": 0, "lat": 38.92425883333333, "fusion_lon": 0.0, "is_disabled": 0}, {"rental_uris": {"android": "https://dc.lft.to/lastmile_qr_scan", "ios": "https://dc.lft.to/lastmile_qr_scan"}, "type": "electric_scooter", "lon": -77.02728683333333, "name": "7ded1a370392ff9786feba00048dc8e0", "bike_id": "7ded1a370392ff9786feba00048dc8e0", "fusion_lat": 0.0, "is_reserved": 0, "lat": 38.933999666666665, "fusion_lon": 0.0, "is_disabled": 0}, {"rental_uris": {"android": "https://dc.lft.to/lastmile_qr_scan", "ios": "https://dc.lft.to/lastmile_qr_scan"}, "type": "electric_scooter", "lon": -77.09202966666666, "name": "cbf6c6e56d81aa4de3c47cf8f1f67d48", "bike_id": "cbf6c6e56d81aa4de3c47cf8f1f67d48", "fusion_lat": 0.0, "is_reserved": 0, "lat": 38.91713266666667, "fusion_lon": 0.0, "is_disabled": 0}, {"rental_uris": {"android": "https://dc.lft.to/lastmile_qr_scan", "ios": "https://dc.lft.to/lastmile_qr_scan"}, "type": "electric_scooter", "lon": -77.03208266666667, "name": "f71d71f413ac155a83431a30b9581e7c", "bike_id": "f71d71f413ac155a83431a30b9581e7c", "fusion_lat": 0.0, "is_reserved": 0, "lat": 38.909147833333336, "fusion_lon": 0.0, "is_disabled": 0}, {"rental_uris": {"android": "https://dc.lft.to/lastmile_qr_scan", "ios": "https://dc.lft.to/lastmile_qr_scan"}, "type": "electric_scooter", "lon": -77.026087, "name": "d3f2a182808cd7faea82eaf9e6cf3a4a", "bike_id": "d3f2a182808cd7faea82eaf9e6cf3a4a", "fusion_lat": 0.0, "is_reserved": 0, "lat": 38.9048445, "fusion_lon": 0.0, "is_disabled": 0}, {"rental_uris": {"android": "https://dc.lft.to/lastmile_qr_scan", "ios": "https://dc.lft.to/lastmile_qr_scan"}, "type": "electric_scooter", "lon": -77.02432766666666, "name": "65b3601d9a3015f55e09282208c4c165", "bike_id": "65b3601d9a3015f55e09282208c4c165", "fusion_lat": 0.0, "is_reserved": 0, "lat": 38.927520666666666, "fusion_lon": 0.0, "is_disabled": 0}, {"rental_uris": {"android": "https://dc.lft.to/lastmile_qr_scan", "ios": "https://dc.lft.to/lastmile_qr_scan"}, "type": "electric_bike", "lon": -77.02427416666667, "name": "1dbee648428f78b7595bba2a2d2af855", "bike_id": "1dbee648428f78b7595bba2a2d2af855", "fusion_lat": 0.0, "is_reserved": 0, "lat": 38.925959666666664, "fusion_lon": 0.0, "is_disabled": 0}, {"rental_uris": {"android": "https://dc.lft.to/lastmile_qr_scan", "ios": "https://dc.lft.to/lastmile_qr_scan"}, "type": "electric_scooter", "lon": -77.02759366666666, "name": "675ce5b41070e8b4e970496cd7a200fa", "bike_id": "675ce5b41070e8b4e970496cd7a200fa", "fusion_lat": 0.0, "is_reserved": 0, "lat": 38.92376083333333, "fusion_lon": 0.0, "is_disabled": 0}, {"rental_uris": {"android": "https://dc.lft.to/lastmile_qr_scan", "ios": "https://dc.lft.to/lastmile_qr_scan"}, "type": "electric_scooter", "lon": -77.0499295, "name": "6abe7c6140bc26a1ce089266cd11556b", "bike_id": "6abe7c6140bc26a1ce089266cd11556b", "fusion_lat": 0.0, "is_reserved": 0, "lat": 38.900847666666664, "fusion_lon": 0.0, "is_disabled": 0}, {"rental_uris": {"android": "https://dc.lft.to/lastmile_qr_scan", "ios": "https://dc.lft.to/lastmile_qr_scan"}, "type": "electric_scooter", "lon": -77.03958816666666, "name": "107963ea357d53f9708a925882e6cfb1", "bike_id": "107963ea357d53f9708a925882e6cfb1", "fusion_lat": 0.0, "is_reserved": 0, "lat": 38.90433733333333, "fusion_lon": 0.0, "is_disabled": 0}, {"rental_uris": {"android": "https://dc.lft.to/lastmile_qr_scan", "ios": "https://dc.lft.to/lastmile_qr_scan"}, "type": "electric_scooter", "lon": -77.004506, "name": "10b56bcf7f98d4f8410b1dd8ad4768be", "bike_id": "10b56bcf7f98d4f8410b1dd8ad4768be", "fusion_lat": 0.0, "is_reserved": 0, "lat": 38.928943333333336, "fusion_lon": 0.0, "is_disabled": 0}, {"rental_uris": {"android": "https://dc.lft.to/lastmile_qr_scan", "ios": "https://dc.lft.to/lastmile_qr_scan"}, "type": "electric_scooter", "lon": -77.0224095, "name": "9fb202b48923d4e8c1ca0e532528d78d", "bike_id": "9fb202b48923d4e8c1ca0e532528d78d", "fusion_lat": 0.0, "is_reserved": 0, "lat": 38.913563333333336, "fusion_lon": 0.0, "is_disabled": 0}, {"rental_uris": {"android": "https://dc.lft.to/lastmile_qr_scan", "ios": "https://dc.lft.to/lastmile_qr_scan"}, "type": "electric_scooter", "lon": -77.04704416666667, "name": "335c813ddf8282b142d23dc70c054d1f", "bike_id": "335c813ddf8282b142d23dc70c054d1f", "fusion_lat": 0.0, "is_reserved": 0, "lat": 38.91252983333333, "fusion_lon": 0.0, "is_disabled": 0}, {"rental_uris": {"android": "https://dc.lft.to/lastmile_qr_scan", "ios": "https://dc.lft.to/lastmile_qr_scan"}, "type": "electric_scooter", "lon": -77.02780433333334, "name": "c931ad1eefedd9bc6429e2c735788dac", "bike_id": "c931ad1eefedd9bc6429e2c735788dac", "fusion_lat": 0.0, "is_reserved": 0, "lat": 38.961628833333336, "fusion_lon": 0.0, "is_disabled": 0}, {"rental_uris": {"android": "https://dc.lft.to/lastmile_qr_scan", "ios": "https://dc.lft.to/lastmile_qr_scan"}, "type": "electric_scooter", "lon": -77.04651983333333, "name": "def794745c9b1851a421698d5f07a43c", "bike_id": "def794745c9b1851a421698d5f07a43c", "fusion_lat": 0.0, "is_reserved": 0, "lat": 38.90492533333333, "fusion_lon": 0.0, "is_disabled": 0}, {"rental_uris": {"android": "https://dc.lft.to/lastmile_qr_scan", "ios": "https://dc.lft.to/lastmile_qr_scan"}, "type": "electric_scooter", "lon": -77.03387266666667, "name": "2a738eb15bfcb739619ff9d69eda8c8f", "bike_id": "2a738eb15bfcb739619ff9d69eda8c8f", "fusion_lat": 0.0, "is_reserved": 0, "lat": 38.921565666666666, "fusion_lon": 0.0, "is_disabled": 0}, {"rental_uris": {"android": "https://dc.lft.to/lastmile_qr_scan", "ios": "https://dc.lft.to/lastmile_qr_scan"}, "type": "electric_scooter", "lon": -77.03284933333333, "name": "727d6f4d58486fc2e593b989705a6b53", "bike_id": "727d6f4d58486fc2e593b989705a6b53", "fusion_lat": 0.0, "is_reserved": 0, "lat": 38.939901666666664, "fusion_lon": 0.0, "is_disabled": 0}, {"rental_uris": {"android": "https://dc.lft.to/lastmile_qr_scan", "ios": "https://dc.lft.to/lastmile_qr_scan"}, "type": "electric_bike", "lon": -77.00591283333333, "name": "602214707cc1ea8a625415082bdfd5b9", "bike_id": "602214707cc1ea8a625415082bdfd5b9", "fusion_lat": 0.0, "is_reserved": 0, "lat": 38.87648266666667, "fusion_lon": 0.0, "is_disabled": 0}, {"rental_uris": {"android": "https://dc.lft.to/lastmile_qr_scan", "ios": "https://dc.lft.to/lastmile_qr_scan"}, "type": "electric_scooter", "lon": -77.023587, "name": "bf108d9222e8a8b334839488d078671a", "bike_id": "bf108d9222e8a8b334839488d078671a", "fusion_lat": 0.0, "is_reserved": 0, "lat": 38.925031833333335, "fusion_lon": 0.0, "is_disabled": 0}, {"rental_uris": {"android": "https://dc.lft.to/lastmile_qr_scan", "ios": "https://dc.lft.to/lastmile_qr_scan"}, "type": "electric_scooter", "lon": -76.99141133333333, "name": "0df43fb21cfca7019266f597a91b3da2", "bike_id": "0df43fb21cfca7019266f597a91b3da2", "fusion_lat": 0.0, "is_reserved": 0, "lat": 38.89730016666667, "fusion_lon": 0.0, "is_disabled": 0}, {"rental_uris": {"android": "https://dc.lft.to/lastmile_qr_scan", "ios": "https://dc.lft.to/lastmile_qr_scan"}, "type": "electric_scooter", "lon": -77.04343266666666, "name": "0d4d642a64da4975e409a814b80c113c", "bike_id": "0d4d642a64da4975e409a814b80c113c", "fusion_lat": 0.0, "is_reserved": 0, "lat": 38.93130216666667, "fusion_lon": 0.0, "is_disabled": 0}, {"rental_uris": {"android": "https://dc.lft.to/lastmile_qr_scan", "ios": "https://dc.lft.to/lastmile_qr_scan"}, "type": "electric_scooter", "lon": -76.998431, "name": "ca6799b9d001cb35234ea2fe5d7df3b1", "bike_id": "ca6799b9d001cb35234ea2fe5d7df3b1", "fusion_lat": 0.0, "is_reserved": 0, "lat": 38.95364266666667, "fusion_lon": 0.0, "is_disabled": 0}, {"rental_uris": {"android": "https://dc.lft.to/lastmile_qr_scan", "ios": "https://dc.lft.to/lastmile_qr_scan"}, "type": "electric_scooter", "lon": -77.068533, "name": "3d409359c84dcf2c074d03338b20a7d9", "bike_id": "3d409359c84dcf2c074d03338b20a7d9", "fusion_lat": 0.0, "is_reserved": 0, "lat": 38.95195, "fusion_lon": 0.0, "is_disabled": 0}, {"rental_uris": {"android": "https://dc.lft.to/lastmile_qr_scan", "ios": "https://dc.lft.to/lastmile_qr_scan"}, "type": "electric_scooter", "lon": -77.04381583333333, "name": "07512b0c21f6d5c7cd614f0d7834a499", "bike_id": "07512b0c21f6d5c7cd614f0d7834a499", "fusion_lat": 0.0, "is_reserved": 0, "lat": 38.920675833333334, "fusion_lon": 0.0, "is_disabled": 0}, {"rental_uris": {"android": "https://dc.lft.to/lastmile_qr_scan", "ios": "https://dc.lft.to/lastmile_qr_scan"}, "type": "electric_scooter", "lon": -77.02387266666666, "name": "b1ff471dc04e34fdf4c378e35ddae6c9", "bike_id": "b1ff471dc04e34fdf4c378e35ddae6c9", "fusion_lat": 0.0, "is_reserved": 0, "lat": 38.90707033333333, "fusion_lon": 0.0, "is_disabled": 0}, {"rental_uris": {"android": "https://dc.lft.to/lastmile_qr_scan", "ios": "https://dc.lft.to/lastmile_qr_scan"}, "type": "electric_scooter", "lon": -77.04324966666667, "name": "3ae421ea303c314ceecccc64201bff02", "bike_id": "3ae421ea303c314ceecccc64201bff02", "fusion_lat": 0.0, "is_reserved": 0, "lat": 38.892204166666666, "fusion_lon": 0.0, "is_disabled": 0}, {"rental_uris": {"android": "https://dc.lft.to/lastmile_qr_scan", "ios": "https://dc.lft.to/lastmile_qr_scan"}, "type": "electric_scooter", "lon": -77.03782083333333, "name": "7cf46ae7f02ca7a9d2e10897228c7c6e", "bike_id": "7cf46ae7f02ca7a9d2e10897228c7c6e", "fusion_lat": 0.0, "is_reserved": 0, "lat": 38.906892166666665, "fusion_lon": 0.0, "is_disabled": 0}, {"rental_uris": {"android": "https://dc.lft.to/lastmile_qr_scan", "ios": "https://dc.lft.to/lastmile_qr_scan"}, "type": "electric_scooter", "lon": -77.06892416666666, "name": "e296889bc5928bd33446476f30035373", "bike_id": "e296889bc5928bd33446476f30035373", "fusion_lat": 0.0, "is_reserved": 0, "lat": 38.905140833333334, "fusion_lon": 0.0, "is_disabled": 0}, {"rental_uris": {"android": "https://dc.lft.to/lastmile_qr_scan", "ios": "https://dc.lft.to/lastmile_qr_scan"}, "type": "electric_scooter", "lon": -77.01839333333334, "name": "3cb214f8c04ccc1c94cff24f6ad98b6f", "bike_id": "3cb214f8c04ccc1c94cff24f6ad98b6f", "fusion_lat": 0.0, "is_reserved": 0, "lat": 38.909569833333336, "fusion_lon": 0.0, "is_disabled": 0}, {"rental_uris": {"android": "https://dc.lft.to/lastmile_qr_scan", "ios": "https://dc.lft.to/lastmile_qr_scan"}, "type": "electric_scooter", "lon": -76.996143, "name": "c83b85af71ed2b0020025dc68ca0f3b0", "bike_id": "c83b85af71ed2b0020025dc68ca0f3b0", "fusion_lat": 0.0, "is_reserved": 0, "lat": 38.89760283333333, "fusion_lon": 0.0, "is_disabled": 0}, {"rental_uris": {"android": "https://dc.lft.to/lastmile_qr_scan", "ios": "https://dc.lft.to/lastmile_qr_scan"}, "type": "electric_scooter", "lon": -77.02173366666666, "name": "684a797b73e00c2b6c4a2efd8cec659c", "bike_id": "684a797b73e00c2b6c4a2efd8cec659c", "fusion_lat": 0.0, "is_reserved": 0, "lat": 38.887434666666664, "fusion_lon": 0.0, "is_disabled": 0}, {"rental_uris": {"android": "https://dc.lft.to/lastmile_qr_scan", "ios": "https://dc.lft.to/lastmile_qr_scan"}, "type": "electric_scooter", "lon": -77.0384825, "name": "663c76189656426e2af1e008a70f99c0", "bike_id": "663c76189656426e2af1e008a70f99c0", "fusion_lat": 0.0, "is_reserved": 0, "lat": 38.91537233333333, "fusion_lon": 0.0, "is_disabled": 0}, {"rental_uris": {"android": "https://dc.lft.to/lastmile_qr_scan", "ios": "https://dc.lft.to/lastmile_qr_scan"}, "type": "electric_scooter", "lon": -77.0219775, "name": "04e1200672a14546b56ac3c8fb2c11dd", "bike_id": "04e1200672a14546b56ac3c8fb2c11dd", "fusion_lat": 0.0, "is_reserved": 0, "lat": 38.89637166666667, "fusion_lon": 0.0, "is_disabled": 0}, {"rental_uris": {"android": "https://dc.lft.to/lastmile_qr_scan", "ios": "https://dc.lft.to/lastmile_qr_scan"}, "type": "electric_scooter", "lon": -77.03082016666667, "name": "2fa758b12506eb765f4cd3d022ba841a", "bike_id": "2fa758b12506eb765f4cd3d022ba841a", "fusion_lat": 0.0, "is_reserved": 0, "lat": 38.927171666666666, "fusion_lon": 0.0, "is_disabled": 0}, {"rental_uris": {"android": "https://dc.lft.to/lastmile_qr_scan", "ios": "https://dc.lft.to/lastmile_qr_scan"}, "type": "electric_scooter", "lon": -76.99680383333333, "name": "95c6f850b1c5262a39d179f7a6d21135", "bike_id": "95c6f850b1c5262a39d179f7a6d21135", "fusion_lat": 0.0, "is_reserved": 0, "lat": 38.887002, "fusion_lon": 0.0, "is_disabled": 0}, {"rental_uris": {"android": "https://dc.lft.to/lastmile_qr_scan", "ios": "https://dc.lft.to/lastmile_qr_scan"}, "type": "electric_bike", "lon": -77.00505216666667, "name": "f01e15a6cb8a148511614a095544e865", "bike_id": "f01e15a6cb8a148511614a095544e865", "fusion_lat": 0.0, "is_reserved": 0, "lat": 38.87532566666667, "fusion_lon": 0.0, "is_disabled": 0}, {"rental_uris": {"android": "https://dc.lft.to/lastmile_qr_scan", "ios": "https://dc.lft.to/lastmile_qr_scan"}, "type": "electric_scooter", "lon": -77.03020183333334, "name": "9c9bcc61f3b8e53585a2afaf1d3e15f7", "bike_id": "9c9bcc61f3b8e53585a2afaf1d3e15f7", "fusion_lat": 0.0, "is_reserved": 0, "lat": 38.926764666666664, "fusion_lon": 0.0, "is_disabled": 0}, {"rental_uris": {"android": "https://dc.lft.to/lastmile_qr_scan", "ios": "https://dc.lft.to/lastmile_qr_scan"}, "type": "electric_scooter", "lon": -76.99952433333333, "name": "2b1d16fb3dab3a07260bd41ea250abc4", "bike_id": "2b1d16fb3dab3a07260bd41ea250abc4", "fusion_lat": 0.0, "is_reserved": 0, "lat": 38.84289166666667, "fusion_lon": 0.0, "is_disabled": 0}, {"rental_uris": {"android": "https://dc.lft.to/lastmile_qr_scan", "ios": "https://dc.lft.to/lastmile_qr_scan"}, "type": "electric_scooter", "lon": -77.0343375, "name": "697dd31de4ca132c64d606302c0e606f", "bike_id": "697dd31de4ca132c64d606302c0e606f", "fusion_lat": 0.0, "is_reserved": 0, "lat": 38.90575916666667, "fusion_lon": 0.0, "is_disabled": 0}, {"rental_uris": {"android": "https://dc.lft.to/lastmile_qr_scan", "ios": "https://dc.lft.to/lastmile_qr_scan"}, "type": "electric_scooter", "lon": -77.02696016666667, "name": "9c8dfbb645fdacc049a53d40278db236", "bike_id": "9c8dfbb645fdacc049a53d40278db236", "fusion_lat": 0.0, "is_reserved": 0, "lat": 38.8999715, "fusion_lon": 0.0, "is_disabled": 0}, {"rental_uris": {"android": "https://dc.lft.to/lastmile_qr_scan", "ios": "https://dc.lft.to/lastmile_qr_scan"}, "type": "electric_scooter", "lon": -77.05435333333334, "name": "e0f2cf8bbbfc0820186438d1775bd2b4", "bike_id": "e0f2cf8bbbfc0820186438d1775bd2b4", "fusion_lat": 0.0, "is_reserved": 0, "lat": 38.92854366666667, "fusion_lon": 0.0, "is_disabled": 0}, {"rental_uris": {"android": "https://dc.lft.to/lastmile_qr_scan", "ios": "https://dc.lft.to/lastmile_qr_scan"}, "type": "electric_bike", "lon": -77.08577833333334, "name": "881bf5b05f1ea347315d817f8f254462", "bike_id": "881bf5b05f1ea347315d817f8f254462", "fusion_lat": 0.0, "is_reserved": 0, "lat": 38.87421616666666, "fusion_lon": 0.0, "is_disabled": 0}, {"rental_uris": {"android": "https://dc.lft.to/lastmile_qr_scan", "ios": "https://dc.lft.to/lastmile_qr_scan"}, "type": "electric_scooter", "lon": -76.94726883333334, "name": "4266eecc85ac906a1db109bc60469927", "bike_id": "4266eecc85ac906a1db109bc60469927", "fusion_lat": 0.0, "is_reserved": 0, "lat": 38.89671766666667, "fusion_lon": 0.0, "is_disabled": 0}, {"rental_uris": {"android": "https://dc.lft.to/lastmile_qr_scan", "ios": "https://dc.lft.to/lastmile_qr_scan"}, "type": "electric_scooter", "lon": -77.02284783333333, "name": "33641ef4d2531fc76f009c6cd9bae593", "bike_id": "33641ef4d2531fc76f009c6cd9bae593", "fusion_lat": 0.0, "is_reserved": 0, "lat": 38.917370166666664, "fusion_lon": 0.0, "is_disabled": 0}, {"rental_uris": {"android": "https://dc.lft.to/lastmile_qr_scan", "ios": "https://dc.lft.to/lastmile_qr_scan"}, "type": "electric_scooter", "lon": -77.02544783333333, "name": "803aac82dece571d13a096cae693e23f", "bike_id": "803aac82dece571d13a096cae693e23f", "fusion_lat": 0.0, "is_reserved": 0, "lat": 38.9071575, "fusion_lon": 0.0, "is_disabled": 0}, {"rental_uris": {"android": "https://dc.lft.to/lastmile_qr_scan", "ios": "https://dc.lft.to/lastmile_qr_scan"}, "type": "electric_scooter", "lon": -77.00603466666666, "name": "6a3ed0d5d96d18b0436530f2d8c9d4ce", "bike_id": "6a3ed0d5d96d18b0436530f2d8c9d4ce", "fusion_lat": 0.0, "is_reserved": 0, "lat": 38.9055995, "fusion_lon": 0.0, "is_disabled": 0}, {"rental_uris": {"android": "https://dc.lft.to/lastmile_qr_scan", "ios": "https://dc.lft.to/lastmile_qr_scan"}, "type": "electric_bike", "lon": -77.02498083333333, "name": "624520351588c3ac65a07eaf9180ad1a", "bike_id": "624520351588c3ac65a07eaf9180ad1a", "fusion_lat": 0.0, "is_reserved": 0, "lat": 38.97408133333333, "fusion_lon": 0.0, "is_disabled": 0}, {"rental_uris": {"android": "https://dc.lft.to/lastmile_qr_scan", "ios": "https://dc.lft.to/lastmile_qr_scan"}, "type": "electric_scooter", "lon": -77.025126, "name": "d8395b50ac9dd4f27e1e143263d4c444", "bike_id": "d8395b50ac9dd4f27e1e143263d4c444", "fusion_lat": 0.0, "is_reserved": 0, "lat": 38.941748, "fusion_lon": 0.0, "is_disabled": 0}, {"rental_uris": {"android": "https://dc.lft.to/lastmile_qr_scan", "ios": "https://dc.lft.to/lastmile_qr_scan"}, "type": "electric_scooter", "lon": -76.9804485, "name": "3e381bb0fb4f393ebf8613eb982c4e58", "bike_id": "3e381bb0fb4f393ebf8613eb982c4e58", "fusion_lat": 0.0, "is_reserved": 0, "lat": 38.91679533333333, "fusion_lon": 0.0, "is_disabled": 0}, {"rental_uris": {"android": "https://dc.lft.to/lastmile_qr_scan", "ios": "https://dc.lft.to/lastmile_qr_scan"}, "type": "electric_scooter", "lon": -77.05437083333334, "name": "da36cf5a922cf5cef3d48ad0cd0895b6", "bike_id": "da36cf5a922cf5cef3d48ad0cd0895b6", "fusion_lat": 0.0, "is_reserved": 0, "lat": 38.89599466666667, "fusion_lon": 0.0, "is_disabled": 0}, {"rental_uris": {"android": "https://dc.lft.to/lastmile_qr_scan", "ios": "https://dc.lft.to/lastmile_qr_scan"}, "type": "electric_scooter", "lon": -77.03364433333333, "name": "ddb7479728bea45cc8391cf9e15dc623", "bike_id": "ddb7479728bea45cc8391cf9e15dc623", "fusion_lat": 0.0, "is_reserved": 0, "lat": 38.9118135, "fusion_lon": 0.0, "is_disabled": 0}, {"rental_uris": {"android": "https://dc.lft.to/lastmile_qr_scan", "ios": "https://dc.lft.to/lastmile_qr_scan"}, "type": "electric_scooter", "lon": -77.010115, "name": "1c2d4f35626c9f3a75b9359433935edd", "bike_id": "1c2d4f35626c9f3a75b9359433935edd", "fusion_lat": 0.0, "is_reserved": 0, "lat": 38.86716166666667, "fusion_lon": 0.0, "is_disabled": 0}, {"rental_uris": {"android": "https://dc.lft.to/lastmile_qr_scan", "ios": "https://dc.lft.to/lastmile_qr_scan"}, "type": "electric_scooter", "lon": -77.0303545, "name": "f507382b8ebae211ac383d359fcc3486", "bike_id": "f507382b8ebae211ac383d359fcc3486", "fusion_lat": 0.0, "is_reserved": 0, "lat": 38.90860816666667, "fusion_lon": 0.0, "is_disabled": 0}, {"rental_uris": {"android": "https://dc.lft.to/lastmile_qr_scan", "ios": "https://dc.lft.to/lastmile_qr_scan"}, "type": "electric_bike", "lon": -77.0318115, "name": "a01aae13b628b2f9b820e31cc74748e1", "bike_id": "a01aae13b628b2f9b820e31cc74748e1", "fusion_lat": 0.0, "is_reserved": 0, "lat": 38.9163895, "fusion_lon": 0.0, "is_disabled": 0}, {"rental_uris": {"android": "https://dc.lft.to/lastmile_qr_scan", "ios": "https://dc.lft.to/lastmile_qr_scan"}, "type": "electric_scooter", "lon": -77.03196916666667, "name": "63bd728634db3459cd2334c821cdfd21", "bike_id": "63bd728634db3459cd2334c821cdfd21", "fusion_lat": 0.0, "is_reserved": 0, "lat": 38.9189805, "fusion_lon": 0.0, "is_disabled": 0}, {"rental_uris": {"android": "https://dc.lft.to/lastmile_qr_scan", "ios": "https://dc.lft.to/lastmile_qr_scan"}, "type": "electric_scooter", "lon": -77.0121585, "name": "134831b44d339e278880c61f1508ac17", "bike_id": "134831b44d339e278880c61f1508ac17", "fusion_lat": 0.0, "is_reserved": 0, "lat": 38.90056283333333, "fusion_lon": 0.0, "is_disabled": 0}, {"rental_uris": {"android": "https://dc.lft.to/lastmile_qr_scan", "ios": "https://dc.lft.to/lastmile_qr_scan"}, "type": "electric_scooter", "lon": -77.00650066666667, "name": "1697125fb6eaa29fa673d23e0943453f", "bike_id": "1697125fb6eaa29fa673d23e0943453f", "fusion_lat": 0.0, "is_reserved": 0, "lat": 38.8833165, "fusion_lon": 0.0, "is_disabled": 0}, {"rental_uris": {"android": "https://dc.lft.to/lastmile_qr_scan", "ios": "https://dc.lft.to/lastmile_qr_scan"}, "type": "electric_scooter", "lon": -77.03189533333334, "name": "c36cbd20cb7e513e221acf2ecd9c53d2", "bike_id": "c36cbd20cb7e513e221acf2ecd9c53d2", "fusion_lat": 0.0, "is_reserved": 0, "lat": 38.907605, "fusion_lon": 0.0, "is_disabled": 0}, {"rental_uris": {"android": "https://dc.lft.to/lastmile_qr_scan", "ios": "https://dc.lft.to/lastmile_qr_scan"}, "type": "electric_scooter", "lon": -77.031983, "name": "3f6d8472f82e29283c1306e0d890cd76", "bike_id": "3f6d8472f82e29283c1306e0d890cd76", "fusion_lat": 0.0, "is_reserved": 0, "lat": 38.907478166666664, "fusion_lon": 0.0, "is_disabled": 0}, {"rental_uris": {"android": "https://dc.lft.to/lastmile_qr_scan", "ios": "https://dc.lft.to/lastmile_qr_scan"}, "type": "electric_scooter", "lon": -77.01116566666667, "name": "95420f81b20e27e74ff4878fedb06474", "bike_id": "95420f81b20e27e74ff4878fedb06474", "fusion_lat": 0.0, "is_reserved": 0, "lat": 38.90361433333333, "fusion_lon": 0.0, "is_disabled": 0}, {"rental_uris": {"android": "https://dc.lft.to/lastmile_qr_scan", "ios": "https://dc.lft.to/lastmile_qr_scan"}, "type": "electric_bike", "lon": -76.9495785, "name": "41c3767983c9847c1e98e572fe29ce13", "bike_id": "41c3767983c9847c1e98e572fe29ce13", "fusion_lat": 0.0, "is_reserved": 0, "lat": 38.9350245, "fusion_lon": 0.0, "is_disabled": 0}, {"rental_uris": {"android": "https://dc.lft.to/lastmile_qr_scan", "ios": "https://dc.lft.to/lastmile_qr_scan"}, "type": "electric_bike", "lon": -77.02102383333333, "name": "74d84d992d81674aa2681d0b41f1ec44", "bike_id": "74d84d992d81674aa2681d0b41f1ec44", "fusion_lat": 0.0, "is_reserved": 0, "lat": 39.02295016666667, "fusion_lon": 0.0, "is_disabled": 0}, {"rental_uris": {"android": "https://dc.lft.to/lastmile_qr_scan", "ios": "https://dc.lft.to/lastmile_qr_scan"}, "type": "electric_scooter", "lon": -77.03264983333334, "name": "aa5f6d595d2c27c3e1eb4508d1e0c915", "bike_id": "aa5f6d595d2c27c3e1eb4508d1e0c915", "fusion_lat": 0.0, "is_reserved": 0, "lat": 38.93668133333333, "fusion_lon": 0.0, "is_disabled": 0}, {"rental_uris": {"android": "https://dc.lft.to/lastmile_qr_scan", "ios": "https://dc.lft.to/lastmile_qr_scan"}, "type": "electric_scooter", "lon": -77.04816566666666, "name": "92aa90cec8d36be74f7dee4441a114bd", "bike_id": "92aa90cec8d36be74f7dee4441a114bd", "fusion_lat": 0.0, "is_reserved": 0, "lat": 38.92032783333333, "fusion_lon": 0.0, "is_disabled": 0}, {"rental_uris": {"android": "https://dc.lft.to/lastmile_qr_scan", "ios": "https://dc.lft.to/lastmile_qr_scan"}, "type": "electric_scooter", "lon": -77.00608983333333, "name": "a8fd4a6c10087c1951fdde7be3ffc713", "bike_id": "a8fd4a6c10087c1951fdde7be3ffc713", "fusion_lat": 0.0, "is_reserved": 0, "lat": 38.90566533333333, "fusion_lon": 0.0, "is_disabled": 0}, {"rental_uris": {"android": "https://dc.lft.to/lastmile_qr_scan", "ios": "https://dc.lft.to/lastmile_qr_scan"}, "type": "electric_scooter", "lon": -77.06038816666667, "name": "8fcdefa8b03ff19cb1be352f109a23f1", "bike_id": "8fcdefa8b03ff19cb1be352f109a23f1", "fusion_lat": 0.0, "is_reserved": 0, "lat": 38.93934516666667, "fusion_lon": 0.0, "is_disabled": 0}, {"rental_uris": {"android": "https://dc.lft.to/lastmile_qr_scan", "ios": "https://dc.lft.to/lastmile_qr_scan"}, "type": "electric_scooter", "lon": -77.023644, "name": "9cb97c35b1e37abbf3a57898647245e5", "bike_id": "9cb97c35b1e37abbf3a57898647245e5", "fusion_lat": 0.0, "is_reserved": 0, "lat": 38.9178595, "fusion_lon": 0.0, "is_disabled": 0}, {"rental_uris": {"android": "https://dc.lft.to/lastmile_qr_scan", "ios": "https://dc.lft.to/lastmile_qr_scan"}, "type": "electric_scooter", "lon": -77.0511155, "name": "c5f63ed6496a08fc7d49290108d3b5bf", "bike_id": "c5f63ed6496a08fc7d49290108d3b5bf", "fusion_lat": 0.0, "is_reserved": 0, "lat": 38.905158166666666, "fusion_lon": 0.0, "is_disabled": 0}, {"rental_uris": {"android": "https://dc.lft.to/lastmile_qr_scan", "ios": "https://dc.lft.to/lastmile_qr_scan"}, "type": "electric_scooter", "lon": -77.074222, "name": "0c1c57592f4c97c73486ed0058b41f7d", "bike_id": "0c1c57592f4c97c73486ed0058b41f7d", "fusion_lat": 0.0, "is_reserved": 0, "lat": 38.910900833333336, "fusion_lon": 0.0, "is_disabled": 0}, {"rental_uris": {"android": "https://dc.lft.to/lastmile_qr_scan", "ios": "https://dc.lft.to/lastmile_qr_scan"}, "type": "electric_scooter", "lon": -77.02559566666666, "name": "6a93bf1cd9ea654ec3077cd8ec8730a4", "bike_id": "6a93bf1cd9ea654ec3077cd8ec8730a4", "fusion_lat": 0.0, "is_reserved": 0, "lat": 38.94163533333333, "fusion_lon": 0.0, "is_disabled": 0}, {"rental_uris": {"android": "https://dc.lft.to/lastmile_qr_scan", "ios": "https://dc.lft.to/lastmile_qr_scan"}, "type": "electric_scooter", "lon": -77.00589983333333, "name": "fe9f767c79679a0f6a874ee7bd48e22c", "bike_id": "fe9f767c79679a0f6a874ee7bd48e22c", "fusion_lat": 0.0, "is_reserved": 0, "lat": 38.88377033333333, "fusion_lon": 0.0, "is_disabled": 0}, {"rental_uris": {"android": "https://dc.lft.to/lastmile_qr_scan", "ios": "https://dc.lft.to/lastmile_qr_scan"}, "type": "electric_scooter", "lon": -77.00581616666666, "name": "3b46692c834d866e62bf62aadd758069", "bike_id": "3b46692c834d866e62bf62aadd758069", "fusion_lat": 0.0, "is_reserved": 0, "lat": 38.8853085, "fusion_lon": 0.0, "is_disabled": 0}, {"rental_uris": {"android": "https://dc.lft.to/lastmile_qr_scan", "ios": "https://dc.lft.to/lastmile_qr_scan"}, "type": "electric_scooter", "lon": -77.03252083333334, "name": "baeb2b0790a4657cf2c0e92e075d3db2", "bike_id": "baeb2b0790a4657cf2c0e92e075d3db2", "fusion_lat": 0.0, "is_reserved": 0, "lat": 38.933780666666664, "fusion_lon": 0.0, "is_disabled": 0}, {"rental_uris": {"android": "https://dc.lft.to/lastmile_qr_scan", "ios": "https://dc.lft.to/lastmile_qr_scan"}, "type": "electric_scooter", "lon": -77.03962666666666, "name": "f9aae6d8b9779d9edac7b70f1e76be58", "bike_id": "f9aae6d8b9779d9edac7b70f1e76be58", "fusion_lat": 0.0, "is_reserved": 0, "lat": 38.90925933333333, "fusion_lon": 0.0, "is_disabled": 0}, {"rental_uris": {"android": "https://dc.lft.to/lastmile_qr_scan", "ios": "https://dc.lft.to/lastmile_qr_scan"}, "type": "electric_bike", "lon": -77.12898866666667, "name": "915670d04bd2a449a7789911990f284a", "bike_id": "915670d04bd2a449a7789911990f284a", "fusion_lat": 0.0, "is_reserved": 0, "lat": 38.863763666666664, "fusion_lon": 0.0, "is_disabled": 0}, {"rental_uris": {"android": "https://dc.lft.to/lastmile_qr_scan", "ios": "https://dc.lft.to/lastmile_qr_scan"}, "type": "electric_scooter", "lon": -76.99388783333333, "name": "3409897883d09dc237af9f39def1866c", "bike_id": "3409897883d09dc237af9f39def1866c", "fusion_lat": 0.0, "is_reserved": 0, "lat": 38.884495666666666, "fusion_lon": 0.0, "is_disabled": 0}, {"rental_uris": {"android": "https://dc.lft.to/lastmile_qr_scan", "ios": "https://dc.lft.to/lastmile_qr_scan"}, "type": "electric_scooter", "lon": -77.04674233333333, "name": "122c07910fd0a38408e7e3716e1c93f5", "bike_id": "122c07910fd0a38408e7e3716e1c93f5", "fusion_lat": 0.0, "is_reserved": 0, "lat": 38.89554483333333, "fusion_lon": 0.0, "is_disabled": 0}, {"rental_uris": {"android": "https://dc.lft.to/lastmile_qr_scan", "ios": "https://dc.lft.to/lastmile_qr_scan"}, "type": "electric_scooter", "lon": -77.057648, "name": "371e5e4e654a2932f530308ab510fdb8", "bike_id": "371e5e4e654a2932f530308ab510fdb8", "fusion_lat": 0.0, "is_reserved": 0, "lat": 38.90526583333333, "fusion_lon": 0.0, "is_disabled": 0}, {"rental_uris": {"android": "https://dc.lft.to/lastmile_qr_scan", "ios": "https://dc.lft.to/lastmile_qr_scan"}, "type": "electric_scooter", "lon": -76.983226, "name": "77191bca2de905b1343168c515cd6a83", "bike_id": "77191bca2de905b1343168c515cd6a83", "fusion_lat": 0.0, "is_reserved": 0, "lat": 38.90740516666666, "fusion_lon": 0.0, "is_disabled": 0}, {"rental_uris": {"android": "https://dc.lft.to/lastmile_qr_scan", "ios": "https://dc.lft.to/lastmile_qr_scan"}, "type": "electric_scooter", "lon": -77.04473766666666, "name": "dd0b0f30a736f291bbf0b65a076d9436", "bike_id": "dd0b0f30a736f291bbf0b65a076d9436", "fusion_lat": 0.0, "is_reserved": 0, "lat": 38.914036833333334, "fusion_lon": 0.0, "is_disabled": 0}, {"rental_uris": {"android": "https://dc.lft.to/lastmile_qr_scan", "ios": "https://dc.lft.to/lastmile_qr_scan"}, "type": "electric_scooter", "lon": -77.01175816666667, "name": "b583b1e356d0bb37fed63df92d1304e9", "bike_id": "b583b1e356d0bb37fed63df92d1304e9", "fusion_lat": 0.0, "is_reserved": 0, "lat": 38.90030816666667, "fusion_lon": 0.0, "is_disabled": 0}, {"rental_uris": {"android": "https://dc.lft.to/lastmile_qr_scan", "ios": "https://dc.lft.to/lastmile_qr_scan"}, "type": "electric_scooter", "lon": -77.02977083333333, "name": "a2c8e059a006ffff3b6db3c525db5059", "bike_id": "a2c8e059a006ffff3b6db3c525db5059", "fusion_lat": 0.0, "is_reserved": 0, "lat": 38.9066975, "fusion_lon": 0.0, "is_disabled": 0}, {"rental_uris": {"android": "https://dc.lft.to/lastmile_qr_scan", "ios": "https://dc.lft.to/lastmile_qr_scan"}, "type": "electric_scooter", "lon": -77.031705, "name": "f71a2129f5898d7ea85dce07c7b1e184", "bike_id": "f71a2129f5898d7ea85dce07c7b1e184", "fusion_lat": 0.0, "is_reserved": 0, "lat": 38.900504, "fusion_lon": 0.0, "is_disabled": 0}, {"rental_uris": {"android": "https://dc.lft.to/lastmile_qr_scan", "ios": "https://dc.lft.to/lastmile_qr_scan"}, "type": "electric_scooter", "lon": -77.0237145, "name": "0882195aa774a73552bcb1dcaa2a5445", "bike_id": "0882195aa774a73552bcb1dcaa2a5445", "fusion_lat": 0.0, "is_reserved": 0, "lat": 38.91780466666667, "fusion_lon": 0.0, "is_disabled": 0}, {"rental_uris": {"android": "https://dc.lft.to/lastmile_qr_scan", "ios": "https://dc.lft.to/lastmile_qr_scan"}, "type": "electric_scooter", "lon": -77.036871, "name": "81df1010aa49374bc16a8cc3c17fbe98", "bike_id": "81df1010aa49374bc16a8cc3c17fbe98", "fusion_lat": 0.0, "is_reserved": 0, "lat": 38.916763833333334, "fusion_lon": 0.0, "is_disabled": 0}, {"rental_uris": {"android": "https://dc.lft.to/lastmile_qr_scan", "ios": "https://dc.lft.to/lastmile_qr_scan"}, "type": "electric_scooter", "lon": -77.00199166666667, "name": "037f787e9885fe1e4b707da588ab0e46", "bike_id": "037f787e9885fe1e4b707da588ab0e46", "fusion_lat": 0.0, "is_reserved": 0, "lat": 38.91431266666667, "fusion_lon": 0.0, "is_disabled": 0}, {"rental_uris": {"android": "https://dc.lft.to/lastmile_qr_scan", "ios": "https://dc.lft.to/lastmile_qr_scan"}, "type": "electric_scooter", "lon": -77.01209416666667, "name": "b76015d7eb3d4c20e5850d81d16a2abf", "bike_id": "b76015d7eb3d4c20e5850d81d16a2abf", "fusion_lat": 0.0, "is_reserved": 0, "lat": 38.913034833333334, "fusion_lon": 0.0, "is_disabled": 0}, {"rental_uris": {"android": "https://dc.lft.to/lastmile_qr_scan", "ios": "https://dc.lft.to/lastmile_qr_scan"}, "type": "electric_scooter", "lon": -76.9870675, "name": "e696f22934c2b42489367a31ae8b93e2", "bike_id": "e696f22934c2b42489367a31ae8b93e2", "fusion_lat": 0.0, "is_reserved": 0, "lat": 38.86530166666667, "fusion_lon": 0.0, "is_disabled": 0}, {"rental_uris": {"android": "https://dc.lft.to/lastmile_qr_scan", "ios": "https://dc.lft.to/lastmile_qr_scan"}, "type": "electric_scooter", "lon": -77.02214416666666, "name": "591f150aa10ad2d71ecf933b5139368e", "bike_id": "591f150aa10ad2d71ecf933b5139368e", "fusion_lat": 0.0, "is_reserved": 0, "lat": 38.905721666666665, "fusion_lon": 0.0, "is_disabled": 0}, {"rental_uris": {"android": "https://dc.lft.to/lastmile_qr_scan", "ios": "https://dc.lft.to/lastmile_qr_scan"}, "type": "electric_scooter", "lon": -76.947069, "name": "f081ca5ada8aeab3e98e7ff84fceb9eb", "bike_id": "f081ca5ada8aeab3e98e7ff84fceb9eb", "fusion_lat": 0.0, "is_reserved": 0, "lat": 38.896681, "fusion_lon": 0.0, "is_disabled": 0}, {"rental_uris": {"android": "https://dc.lft.to/lastmile_qr_scan", "ios": "https://dc.lft.to/lastmile_qr_scan"}, "type": "electric_scooter", "lon": -77.03261383333333, "name": "8964b8c78eddf9e855e97d5a1a4c0ce0", "bike_id": "8964b8c78eddf9e855e97d5a1a4c0ce0", "fusion_lat": 0.0, "is_reserved": 0, "lat": 38.92815933333333, "fusion_lon": 0.0, "is_disabled": 0}, {"rental_uris": {"android": "https://dc.lft.to/lastmile_qr_scan", "ios": "https://dc.lft.to/lastmile_qr_scan"}, "type": "electric_bike", "lon": -77.12983066666666, "name": "d8a59229d15ce2061ddd718c48064862", "bike_id": "d8a59229d15ce2061ddd718c48064862", "fusion_lat": 0.0, "is_reserved": 0, "lat": 38.799854, "fusion_lon": 0.0, "is_disabled": 0}, {"rental_uris": {"android": "https://dc.lft.to/lastmile_qr_scan", "ios": "https://dc.lft.to/lastmile_qr_scan"}, "type": "electric_scooter", "lon": -77.03252683333334, "name": "a658bbce3d05d6554128d68de7d9043e", "bike_id": "a658bbce3d05d6554128d68de7d9043e", "fusion_lat": 0.0, "is_reserved": 0, "lat": 38.92888966666666, "fusion_lon": 0.0, "is_disabled": 0}, {"rental_uris": {"android": "https://dc.lft.to/lastmile_qr_scan", "ios": "https://dc.lft.to/lastmile_qr_scan"}, "type": "electric_scooter", "lon": -77.01183833333333, "name": "799881996eecc949b5fc8fd8eb0ec4e4", "bike_id": "799881996eecc949b5fc8fd8eb0ec4e4", "fusion_lat": 0.0, "is_reserved": 0, "lat": 38.8930505, "fusion_lon": 0.0, "is_disabled": 0}, {"rental_uris": {"android": "https://dc.lft.to/lastmile_qr_scan", "ios": "https://dc.lft.to/lastmile_qr_scan"}, "type": "electric_bike", "lon": -77.07041966666667, "name": "c224a7ab75410801d5291a265bba79df", "bike_id": "c224a7ab75410801d5291a265bba79df", "fusion_lat": 0.0, "is_reserved": 0, "lat": 38.824381, "fusion_lon": 0.0, "is_disabled": 0}, {"rental_uris": {"android": "https://dc.lft.to/lastmile_qr_scan", "ios": "https://dc.lft.to/lastmile_qr_scan"}, "type": "electric_bike", "lon": -76.9159855, "name": "f3d1161395d6bf3d5aa4b7040565f27b", "bike_id": "f3d1161395d6bf3d5aa4b7040565f27b", "fusion_lat": 0.0, "is_reserved": 0, "lat": 38.8798155, "fusion_lon": 0.0, "is_disabled": 0}, {"rental_uris": {"android": "https://dc.lft.to/lastmile_qr_scan", "ios": "https://dc.lft.to/lastmile_qr_scan"}, "type": "electric_scooter", "lon": -76.97629466666666, "name": "37d3c63fa0b4f29f35fac1615e378850", "bike_id": "37d3c63fa0b4f29f35fac1615e378850", "fusion_lat": 0.0, "is_reserved": 0, "lat": 38.905707666666665, "fusion_lon": 0.0, "is_disabled": 0}, {"rental_uris": {"android": "https://dc.lft.to/lastmile_qr_scan", "ios": "https://dc.lft.to/lastmile_qr_scan"}, "type": "electric_scooter", "lon": -77.0226185, "name": "9ddc7367791d398662c8518b71606f98", "bike_id": "9ddc7367791d398662c8518b71606f98", "fusion_lat": 0.0, "is_reserved": 0, "lat": 38.9282225, "fusion_lon": 0.0, "is_disabled": 0}, {"rental_uris": {"android": "https://dc.lft.to/lastmile_qr_scan", "ios": "https://dc.lft.to/lastmile_qr_scan"}, "type": "electric_bike", "lon": -77.0121895, "name": "7c1a7af99c65627df3e0287be45e3b00", "bike_id": "7c1a7af99c65627df3e0287be45e3b00", "fusion_lat": 0.0, "is_reserved": 0, "lat": 38.87098966666667, "fusion_lon": 0.0, "is_disabled": 0}, {"rental_uris": {"android": "https://dc.lft.to/lastmile_qr_scan", "ios": "https://dc.lft.to/lastmile_qr_scan"}, "type": "electric_scooter", "lon": -77.05059083333333, "name": "1298c9d1d580a0758da01da205123862", "bike_id": "1298c9d1d580a0758da01da205123862", "fusion_lat": 0.0, "is_reserved": 0, "lat": 38.923706, "fusion_lon": 0.0, "is_disabled": 0}, {"rental_uris": {"android": "https://dc.lft.to/lastmile_qr_scan", "ios": "https://dc.lft.to/lastmile_qr_scan"}, "type": "electric_bike", "lon": -77.1281435, "name": "8ab1b337dbbad191f53fbf2c7aee3287", "bike_id": "8ab1b337dbbad191f53fbf2c7aee3287", "fusion_lat": 0.0, "is_reserved": 0, "lat": 38.86529216666667, "fusion_lon": 0.0, "is_disabled": 0}, {"rental_uris": {"android": "https://dc.lft.to/lastmile_qr_scan", "ios": "https://dc.lft.to/lastmile_qr_scan"}, "type": "electric_scooter", "lon": -77.01944766666666, "name": "77e5de3402cc1db564b9dbc7c54115d3", "bike_id": "77e5de3402cc1db564b9dbc7c54115d3", "fusion_lat": 0.0, "is_reserved": 0, "lat": 38.90969233333333, "fusion_lon": 0.0, "is_disabled": 0}, {"rental_uris": {"android": "https://dc.lft.to/lastmile_qr_scan", "ios": "https://dc.lft.to/lastmile_qr_scan"}, "type": "electric_scooter", "lon": -76.99451916666666, "name": "946f28a4e27a27f354124767b563aedc", "bike_id": "946f28a4e27a27f354124767b563aedc", "fusion_lat": 0.0, "is_reserved": 0, "lat": 38.9050385, "fusion_lon": 0.0, "is_disabled": 0}, {"rental_uris": {"android": "https://dc.lft.to/lastmile_qr_scan", "ios": "https://dc.lft.to/lastmile_qr_scan"}, "type": "electric_scooter", "lon": -77.0423455, "name": "354824c63103d8684bb400f2ae0f11df", "bike_id": "354824c63103d8684bb400f2ae0f11df", "fusion_lat": 0.0, "is_reserved": 0, "lat": 38.92268833333333, "fusion_lon": 0.0, "is_disabled": 0}, {"rental_uris": {"android": "https://dc.lft.to/lastmile_qr_scan", "ios": "https://dc.lft.to/lastmile_qr_scan"}, "type": "electric_scooter", "lon": -77.06391333333333, "name": "34e4118358b02e94997804dfcb5e2044", "bike_id": "34e4118358b02e94997804dfcb5e2044", "fusion_lat": 0.0, "is_reserved": 0, "lat": 38.92903616666667, "fusion_lon": 0.0, "is_disabled": 0}, {"rental_uris": {"android": "https://dc.lft.to/lastmile_qr_scan", "ios": "https://dc.lft.to/lastmile_qr_scan"}, "type": "electric_scooter", "lon": -77.0465915, "name": "d436407f1232da102dc59e824b9f11c9", "bike_id": "d436407f1232da102dc59e824b9f11c9", "fusion_lat": 0.0, "is_reserved": 0, "lat": 38.892332833333334, "fusion_lon": 0.0, "is_disabled": 0}, {"rental_uris": {"android": "https://dc.lft.to/lastmile_qr_scan", "ios": "https://dc.lft.to/lastmile_qr_scan"}, "type": "electric_bike", "lon": -76.98749366666667, "name": "218bd84da5c36426639e3b1a24d6b6d7", "bike_id": "218bd84da5c36426639e3b1a24d6b6d7", "fusion_lat": 0.0, "is_reserved": 0, "lat": 38.98821366666667, "fusion_lon": 0.0, "is_disabled": 0}, {"rental_uris": {"android": "https://dc.lft.to/lastmile_qr_scan", "ios": "https://dc.lft.to/lastmile_qr_scan"}, "type": "electric_scooter", "lon": -76.99630683333334, "name": "0819c4b6c7887aa31fee82e20ea5f9b4", "bike_id": "0819c4b6c7887aa31fee82e20ea5f9b4", "fusion_lat": 0.0, "is_reserved": 0, "lat": 38.84620666666667, "fusion_lon": 0.0, "is_disabled": 0}, {"rental_uris": {"android": "https://dc.lft.to/lastmile_qr_scan", "ios": "https://dc.lft.to/lastmile_qr_scan"}, "type": "electric_scooter", "lon": -77.02291083333333, "name": "d04417ece179e54dbad8d2570eb66800", "bike_id": "d04417ece179e54dbad8d2570eb66800", "fusion_lat": 0.0, "is_reserved": 0, "lat": 38.917876666666665, "fusion_lon": 0.0, "is_disabled": 0}, {"rental_uris": {"android": "https://dc.lft.to/lastmile_qr_scan", "ios": "https://dc.lft.to/lastmile_qr_scan"}, "type": "electric_scooter", "lon": -77.01142816666666, "name": "f213b511fab31408f077bb8831bea164", "bike_id": "f213b511fab31408f077bb8831bea164", "fusion_lat": 0.0, "is_reserved": 0, "lat": 38.9064555, "fusion_lon": 0.0, "is_disabled": 0}, {"rental_uris": {"android": "https://dc.lft.to/lastmile_qr_scan", "ios": "https://dc.lft.to/lastmile_qr_scan"}, "type": "electric_scooter", "lon": -77.01949033333334, "name": "0ca9db7c6b7de00d785626fc4cd07ce6", "bike_id": "0ca9db7c6b7de00d785626fc4cd07ce6", "fusion_lat": 0.0, "is_reserved": 0, "lat": 38.9241955, "fusion_lon": 0.0, "is_disabled": 0}, {"rental_uris": {"android": "https://dc.lft.to/lastmile_qr_scan", "ios": "https://dc.lft.to/lastmile_qr_scan"}, "type": "electric_scooter", "lon": -76.934646, "name": "754333e1f7c13f07c4d9ee48d3bf7044", "bike_id": "754333e1f7c13f07c4d9ee48d3bf7044", "fusion_lat": 0.0, "is_reserved": 0, "lat": 38.901842, "fusion_lon": 0.0, "is_disabled": 0}, {"rental_uris": {"android": "https://dc.lft.to/lastmile_qr_scan", "ios": "https://dc.lft.to/lastmile_qr_scan"}, "type": "electric_scooter", "lon": -76.99777316666666, "name": "49a822654bbc62db16f9229381a5524c", "bike_id": "49a822654bbc62db16f9229381a5524c", "fusion_lat": 0.0, "is_reserved": 0, "lat": 38.84421833333333, "fusion_lon": 0.0, "is_disabled": 0}, {"rental_uris": {"android": "https://dc.lft.to/lastmile_qr_scan", "ios": "https://dc.lft.to/lastmile_qr_scan"}, "type": "electric_scooter", "lon": -77.02813483333334, "name": "5b9732a44d21d4b6eeb768a02a170d51", "bike_id": "5b9732a44d21d4b6eeb768a02a170d51", "fusion_lat": 0.0, "is_reserved": 0, "lat": 38.896141166666666, "fusion_lon": 0.0, "is_disabled": 0}, {"rental_uris": {"android": "https://dc.lft.to/lastmile_qr_scan", "ios": "https://dc.lft.to/lastmile_qr_scan"}, "type": "electric_bike", "lon": -76.93460316666666, "name": "915a6808b886edd3b541b5aa5238748d", "bike_id": "915a6808b886edd3b541b5aa5238748d", "fusion_lat": 0.0, "is_reserved": 0, "lat": 38.969634166666665, "fusion_lon": 0.0, "is_disabled": 0}, {"rental_uris": {"android": "https://dc.lft.to/lastmile_qr_scan", "ios": "https://dc.lft.to/lastmile_qr_scan"}, "type": "electric_scooter", "lon": -77.04573966666666, "name": "2f4cbe133a15404c2469ffdbb7d21a90", "bike_id": "2f4cbe133a15404c2469ffdbb7d21a90", "fusion_lat": 0.0, "is_reserved": 0, "lat": 38.900153333333336, "fusion_lon": 0.0, "is_disabled": 0}, {"rental_uris": {"android": "https://dc.lft.to/lastmile_qr_scan", "ios": "https://dc.lft.to/lastmile_qr_scan"}, "type": "electric_scooter", "lon": -77.04851033333334, "name": "dc230cc3fbde0c54eacf42229b983fdf", "bike_id": "dc230cc3fbde0c54eacf42229b983fdf", "fusion_lat": 0.0, "is_reserved": 0, "lat": 38.9042375, "fusion_lon": 0.0, "is_disabled": 0}, {"rental_uris": {"android": "https://dc.lft.to/lastmile_qr_scan", "ios": "https://dc.lft.to/lastmile_qr_scan"}, "type": "electric_bike", "lon": -76.96557216666666, "name": "b2cd8d658c6d0e33fe59c389081db61d", "bike_id": "b2cd8d658c6d0e33fe59c389081db61d", "fusion_lat": 0.0, "is_reserved": 0, "lat": 38.950869, "fusion_lon": 0.0, "is_disabled": 0}, {"rental_uris": {"android": "https://dc.lft.to/lastmile_qr_scan", "ios": "https://dc.lft.to/lastmile_qr_scan"}, "type": "electric_scooter", "lon": -77.0784975, "name": "a8efbb033e9b6fb6a843d4fa25dbf28a", "bike_id": "a8efbb033e9b6fb6a843d4fa25dbf28a", "fusion_lat": 0.0, "is_reserved": 0, "lat": 38.93143666666667, "fusion_lon": 0.0, "is_disabled": 0}, {"rental_uris": {"android": "https://dc.lft.to/lastmile_qr_scan", "ios": "https://dc.lft.to/lastmile_qr_scan"}, "type": "electric_scooter", "lon": -77.05029233333333, "name": "988ebed971ecc9a76073c10d9de6835a", "bike_id": "988ebed971ecc9a76073c10d9de6835a", "fusion_lat": 0.0, "is_reserved": 0, "lat": 38.923628, "fusion_lon": 0.0, "is_disabled": 0}, {"rental_uris": {"android": "https://dc.lft.to/lastmile_qr_scan", "ios": "https://dc.lft.to/lastmile_qr_scan"}, "type": "electric_scooter", "lon": -77.0385825, "name": "4078ef701a91de44431c488756d97c56", "bike_id": "4078ef701a91de44431c488756d97c56", "fusion_lat": 0.0, "is_reserved": 0, "lat": 38.9118905, "fusion_lon": 0.0, "is_disabled": 0}, {"rental_uris": {"android": "https://dc.lft.to/lastmile_qr_scan", "ios": "https://dc.lft.to/lastmile_qr_scan"}, "type": "electric_scooter", "lon": -77.0307425, "name": "8eb1f3736e3e6db28d4bacde6689a9e6", "bike_id": "8eb1f3736e3e6db28d4bacde6689a9e6", "fusion_lat": 0.0, "is_reserved": 0, "lat": 38.922451333333335, "fusion_lon": 0.0, "is_disabled": 0}, {"rental_uris": {"android": "https://dc.lft.to/lastmile_qr_scan", "ios": "https://dc.lft.to/lastmile_qr_scan"}, "type": "electric_scooter", "lon": -77.0349805, "name": "f40c92fd77692b62dead3aa1b50e4ea7", "bike_id": "f40c92fd77692b62dead3aa1b50e4ea7", "fusion_lat": 0.0, "is_reserved": 0, "lat": 38.9170925, "fusion_lon": 0.0, "is_disabled": 0}, {"rental_uris": {"android": "https://dc.lft.to/lastmile_qr_scan", "ios": "https://dc.lft.to/lastmile_qr_scan"}, "type": "electric_scooter", "lon": -77.029675, "name": "024000003d842d52a4a27545f56f5cdf", "bike_id": "024000003d842d52a4a27545f56f5cdf", "fusion_lat": 0.0, "is_reserved": 0, "lat": 38.92459916666667, "fusion_lon": 0.0, "is_disabled": 0}, {"rental_uris": {"android": "https://dc.lft.to/lastmile_qr_scan", "ios": "https://dc.lft.to/lastmile_qr_scan"}, "type": "electric_scooter", "lon": -77.05457283333334, "name": "7d957e6f1b233e95a5bbab033f70b759", "bike_id": "7d957e6f1b233e95a5bbab033f70b759", "fusion_lat": 0.0, "is_reserved": 0, "lat": 38.92901783333333, "fusion_lon": 0.0, "is_disabled": 0}, {"rental_uris": {"android": "https://dc.lft.to/lastmile_qr_scan", "ios": "https://dc.lft.to/lastmile_qr_scan"}, "type": "electric_scooter", "lon": -77.03048733333334, "name": "497214dbcd774d9f93202a8a0c9e41b4", "bike_id": "497214dbcd774d9f93202a8a0c9e41b4", "fusion_lat": 0.0, "is_reserved": 0, "lat": 38.884085666666664, "fusion_lon": 0.0, "is_disabled": 0}, {"rental_uris": {"android": "https://dc.lft.to/lastmile_qr_scan", "ios": "https://dc.lft.to/lastmile_qr_scan"}, "type": "electric_scooter", "lon": -77.01212583333333, "name": "42380258d2badcc71562e33ebf85e700", "bike_id": "42380258d2badcc71562e33ebf85e700", "fusion_lat": 0.0, "is_reserved": 0, "lat": 38.90833933333333, "fusion_lon": 0.0, "is_disabled": 0}, {"rental_uris": {"android": "https://dc.lft.to/lastmile_qr_scan", "ios": "https://dc.lft.to/lastmile_qr_scan"}, "type": "electric_scooter", "lon": -77.00757683333333, "name": "dfc62466a50bd6fd9390e2f7e8ce6ca0", "bike_id": "dfc62466a50bd6fd9390e2f7e8ce6ca0", "fusion_lat": 0.0, "is_reserved": 0, "lat": 38.879006333333336, "fusion_lon": 0.0, "is_disabled": 0}, {"rental_uris": {"android": "https://dc.lft.to/lastmile_qr_scan", "ios": "https://dc.lft.to/lastmile_qr_scan"}, "type": "electric_scooter", "lon": -77.04812283333334, "name": "818bd6376b450d288b6bc82693b5a3e7", "bike_id": "818bd6376b450d288b6bc82693b5a3e7", "fusion_lat": 0.0, "is_reserved": 0, "lat": 38.91918916666667, "fusion_lon": 0.0, "is_disabled": 0}, {"rental_uris": {"android": "https://dc.lft.to/lastmile_qr_scan", "ios": "https://dc.lft.to/lastmile_qr_scan"}, "type": "electric_scooter", "lon": -76.97183016666666, "name": "b430f8b4eca89f39bfd34b46a77b52f7", "bike_id": "b430f8b4eca89f39bfd34b46a77b52f7", "fusion_lat": 0.0, "is_reserved": 0, "lat": 38.91261183333334, "fusion_lon": 0.0, "is_disabled": 0}, {"rental_uris": {"android": "https://dc.lft.to/lastmile_qr_scan", "ios": "https://dc.lft.to/lastmile_qr_scan"}, "type": "electric_scooter", "lon": -77.03876883333334, "name": "0c9aa289ebefb72266bc601c66574597", "bike_id": "0c9aa289ebefb72266bc601c66574597", "fusion_lat": 0.0, "is_reserved": 0, "lat": 38.90970866666667, "fusion_lon": 0.0, "is_disabled": 0}, {"rental_uris": {"android": "https://dc.lft.to/lastmile_qr_scan", "ios": "https://dc.lft.to/lastmile_qr_scan"}, "type": "electric_scooter", "lon": -77.02711166666667, "name": "6917a11b520caace88487920e554e098", "bike_id": "6917a11b520caace88487920e554e098", "fusion_lat": 0.0, "is_reserved": 0, "lat": 38.924628, "fusion_lon": 0.0, "is_disabled": 0}, {"rental_uris": {"android": "https://dc.lft.to/lastmile_qr_scan", "ios": "https://dc.lft.to/lastmile_qr_scan"}, "type": "electric_scooter", "lon": -77.04250483333334, "name": "ee3adfbdfe679ba221eeb530327a3c7f", "bike_id": "ee3adfbdfe679ba221eeb530327a3c7f", "fusion_lat": 0.0, "is_reserved": 0, "lat": 38.91778016666667, "fusion_lon": 0.0, "is_disabled": 0}, {"rental_uris": {"android": "https://dc.lft.to/lastmile_qr_scan", "ios": "https://dc.lft.to/lastmile_qr_scan"}, "type": "electric_scooter", "lon": -77.007945, "name": "a12ce91108e7de7686e817fb1e9d761f", "bike_id": "a12ce91108e7de7686e817fb1e9d761f", "fusion_lat": 0.0, "is_reserved": 0, "lat": 38.87927116666667, "fusion_lon": 0.0, "is_disabled": 0}, {"rental_uris": {"android": "https://dc.lft.to/lastmile_qr_scan", "ios": "https://dc.lft.to/lastmile_qr_scan"}, "type": "electric_scooter", "lon": -77.0276015, "name": "8c5fd8bc3f334ebfc0347a280fc69349", "bike_id": "8c5fd8bc3f334ebfc0347a280fc69349", "fusion_lat": 0.0, "is_reserved": 0, "lat": 38.942873666666664, "fusion_lon": 0.0, "is_disabled": 0}, {"rental_uris": {"android": "https://dc.lft.to/lastmile_qr_scan", "ios": "https://dc.lft.to/lastmile_qr_scan"}, "type": "electric_scooter", "lon": -77.02954916666667, "name": "0c4c1724183d0feaed59f3e2f758723a", "bike_id": "0c4c1724183d0feaed59f3e2f758723a", "fusion_lat": 0.0, "is_reserved": 0, "lat": 38.90773033333333, "fusion_lon": 0.0, "is_disabled": 0}, {"rental_uris": {"android": "https://dc.lft.to/lastmile_qr_scan", "ios": "https://dc.lft.to/lastmile_qr_scan"}, "type": "electric_bike", "lon": -77.0954875, "name": "1d78ade796aa8fdb2963ca19bf2993f9", "bike_id": "1d78ade796aa8fdb2963ca19bf2993f9", "fusion_lat": 0.0, "is_reserved": 0, "lat": 38.83806216666667, "fusion_lon": 0.0, "is_disabled": 0}, {"rental_uris": {"android": "https://dc.lft.to/lastmile_qr_scan", "ios": "https://dc.lft.to/lastmile_qr_scan"}, "type": "electric_bike", "lon": -77.07258266666666, "name": "2fe8a7b0c74009027a72e37b1a2f3ffe", "bike_id": "2fe8a7b0c74009027a72e37b1a2f3ffe", "fusion_lat": 0.0, "is_reserved": 0, "lat": 38.959097166666666, "fusion_lon": 0.0, "is_disabled": 0}, {"rental_uris": {"android": "https://dc.lft.to/lastmile_qr_scan", "ios": "https://dc.lft.to/lastmile_qr_scan"}, "type": "electric_scooter", "lon": -77.022578, "name": "cb8d9bb7ce455cd61625a6e26412a802", "bike_id": "cb8d9bb7ce455cd61625a6e26412a802", "fusion_lat": 0.0, "is_reserved": 0, "lat": 38.928266, "fusion_lon": 0.0, "is_disabled": 0}, {"rental_uris": {"android": "https://dc.lft.to/lastmile_qr_scan", "ios": "https://dc.lft.to/lastmile_qr_scan"}, "type": "electric_scooter", "lon": -77.0326365, "name": "78957cacccd0022f0414549849ca40c6", "bike_id": "78957cacccd0022f0414549849ca40c6", "fusion_lat": 0.0, "is_reserved": 0, "lat": 38.932509, "fusion_lon": 0.0, "is_disabled": 0}, {"rental_uris": {"android": "https://dc.lft.to/lastmile_qr_scan", "ios": "https://dc.lft.to/lastmile_qr_scan"}, "type": "electric_bike", "lon": -77.10096933333334, "name": "37c9eac856d159c46dbdea2220bbc523", "bike_id": "37c9eac856d159c46dbdea2220bbc523", "fusion_lat": 0.0, "is_reserved": 0, "lat": 38.8586355, "fusion_lon": 0.0, "is_disabled": 0}, {"rental_uris": {"android": "https://dc.lft.to/lastmile_qr_scan", "ios": "https://dc.lft.to/lastmile_qr_scan"}, "type": "electric_scooter", "lon": -77.03670966666667, "name": "d0e8da6271ad0de4ee62d470bc375f11", "bike_id": "d0e8da6271ad0de4ee62d470bc375f11", "fusion_lat": 0.0, "is_reserved": 0, "lat": 38.9363555, "fusion_lon": 0.0, "is_disabled": 0}, {"rental_uris": {"android": "https://dc.lft.to/lastmile_qr_scan", "ios": "https://dc.lft.to/lastmile_qr_scan"}, "type": "electric_scooter", "lon": -76.98407583333334, "name": "c2c9d1ff815673935bbb667ef0b8b170", "bike_id": "c2c9d1ff815673935bbb667ef0b8b170", "fusion_lat": 0.0, "is_reserved": 0, "lat": 38.85969166666667, "fusion_lon": 0.0, "is_disabled": 0}, {"rental_uris": {"android": "https://dc.lft.to/lastmile_qr_scan", "ios": "https://dc.lft.to/lastmile_qr_scan"}, "type": "electric_scooter", "lon": -77.03072516666667, "name": "af80e8af3e6c7a69309757c08be3ce1a", "bike_id": "af80e8af3e6c7a69309757c08be3ce1a", "fusion_lat": 0.0, "is_reserved": 0, "lat": 38.905676, "fusion_lon": 0.0, "is_disabled": 0}, {"rental_uris": {"android": "https://dc.lft.to/lastmile_qr_scan", "ios": "https://dc.lft.to/lastmile_qr_scan"}, "type": "electric_scooter", "lon": -77.07109416666667, "name": "d8ae7c44a5f7f5be12860187d05e3008", "bike_id": "d8ae7c44a5f7f5be12860187d05e3008", "fusion_lat": 0.0, "is_reserved": 0, "lat": 38.91416266666667, "fusion_lon": 0.0, "is_disabled": 0}, {"rental_uris": {"android": "https://dc.lft.to/lastmile_qr_scan", "ios": "https://dc.lft.to/lastmile_qr_scan"}, "type": "electric_scooter", "lon": -77.0449365, "name": "b2dbc1da5643eccf36c76d4cb110b09a", "bike_id": "b2dbc1da5643eccf36c76d4cb110b09a", "fusion_lat": 0.0, "is_reserved": 0, "lat": 38.89653783333333, "fusion_lon": 0.0, "is_disabled": 0}, {"rental_uris": {"android": "https://dc.lft.to/lastmile_qr_scan", "ios": "https://dc.lft.to/lastmile_qr_scan"}, "type": "electric_scooter", "lon": -77.04875583333333, "name": "88882f8f7cffa10bd812d65dd3a4d6f8", "bike_id": "88882f8f7cffa10bd812d65dd3a4d6f8", "fusion_lat": 0.0, "is_reserved": 0, "lat": 38.8929375, "fusion_lon": 0.0, "is_disabled": 0}, {"rental_uris": {"android": "https://dc.lft.to/lastmile_qr_scan", "ios": "https://dc.lft.to/lastmile_qr_scan"}, "type": "electric_scooter", "lon": -77.0448385, "name": "4c62fe8929959e5eed6ec6081f1e48ec", "bike_id": "4c62fe8929959e5eed6ec6081f1e48ec", "fusion_lat": 0.0, "is_reserved": 0, "lat": 38.9037655, "fusion_lon": 0.0, "is_disabled": 0}, {"rental_uris": {"android": "https://dc.lft.to/lastmile_qr_scan", "ios": "https://dc.lft.to/lastmile_qr_scan"}, "type": "electric_scooter", "lon": -76.97910633333333, "name": "8dbc7a74dc7672bb37b8a2dcb545b60f", "bike_id": "8dbc7a74dc7672bb37b8a2dcb545b60f", "fusion_lat": 0.0, "is_reserved": 0, "lat": 38.89434983333334, "fusion_lon": 0.0, "is_disabled": 0}, {"rental_uris": {"android": "https://dc.lft.to/lastmile_qr_scan", "ios": "https://dc.lft.to/lastmile_qr_scan"}, "type": "electric_scooter", "lon": -76.98526716666667, "name": "c354727c7455ca5a9abf7febcd193442", "bike_id": "c354727c7455ca5a9abf7febcd193442", "fusion_lat": 0.0, "is_reserved": 0, "lat": 38.858485333333334, "fusion_lon": 0.0, "is_disabled": 0}, {"rental_uris": {"android": "https://dc.lft.to/lastmile_qr_scan", "ios": "https://dc.lft.to/lastmile_qr_scan"}, "type": "electric_scooter", "lon": -76.97713116666667, "name": "68c3fbfcf0d639f1175353582fc21b04", "bike_id": "68c3fbfcf0d639f1175353582fc21b04", "fusion_lat": 0.0, "is_reserved": 0, "lat": 38.9002545, "fusion_lon": 0.0, "is_disabled": 0}, {"rental_uris": {"android": "https://dc.lft.to/lastmile_qr_scan", "ios": "https://dc.lft.to/lastmile_qr_scan"}, "type": "electric_scooter", "lon": -77.02648633333334, "name": "d6562d4ebd591a0db4c3e2eb2b5dfc2a", "bike_id": "d6562d4ebd591a0db4c3e2eb2b5dfc2a", "fusion_lat": 0.0, "is_reserved": 0, "lat": 38.90261366666667, "fusion_lon": 0.0, "is_disabled": 0}, {"rental_uris": {"android": "https://dc.lft.to/lastmile_qr_scan", "ios": "https://dc.lft.to/lastmile_qr_scan"}, "type": "electric_scooter", "lon": -77.02688033333334, "name": "7d7fab63c8db7f529bf80f731efc118b", "bike_id": "7d7fab63c8db7f529bf80f731efc118b", "fusion_lat": 0.0, "is_reserved": 0, "lat": 38.90964233333333, "fusion_lon": 0.0, "is_disabled": 0}, {"rental_uris": {"android": "https://dc.lft.to/lastmile_qr_scan", "ios": "https://dc.lft.to/lastmile_qr_scan"}, "type": "electric_scooter", "lon": -77.00192083333333, "name": "c927a8cdbccd6562bf50b3bff26e48d6", "bike_id": "c927a8cdbccd6562bf50b3bff26e48d6", "fusion_lat": 0.0, "is_reserved": 0, "lat": 38.87825433333333, "fusion_lon": 0.0, "is_disabled": 0}, {"rental_uris": {"android": "https://dc.lft.to/lastmile_qr_scan", "ios": "https://dc.lft.to/lastmile_qr_scan"}, "type": "electric_bike", "lon": -77.10684533333334, "name": "e14e95f4aa14865986761db3b78a09b1", "bike_id": "e14e95f4aa14865986761db3b78a09b1", "fusion_lat": 0.0, "is_reserved": 0, "lat": 38.93578483333334, "fusion_lon": 0.0, "is_disabled": 0}, {"rental_uris": {"android": "https://dc.lft.to/lastmile_qr_scan", "ios": "https://dc.lft.to/lastmile_qr_scan"}, "type": "electric_scooter", "lon": -77.021296, "name": "5158618e3dd8518c812b52cbfed32910", "bike_id": "5158618e3dd8518c812b52cbfed32910", "fusion_lat": 0.0, "is_reserved": 0, "lat": 38.89488766666667, "fusion_lon": 0.0, "is_disabled": 0}, {"rental_uris": {"android": "https://dc.lft.to/lastmile_qr_scan", "ios": "https://dc.lft.to/lastmile_qr_scan"}, "type": "electric_scooter", "lon": -77.0139475, "name": "3b336e46a1cdc9654efed500e25ccb4f", "bike_id": "3b336e46a1cdc9654efed500e25ccb4f", "fusion_lat": 0.0, "is_reserved": 0, "lat": 38.880302, "fusion_lon": 0.0, "is_disabled": 0}, {"rental_uris": {"android": "https://dc.lft.to/lastmile_qr_scan", "ios": "https://dc.lft.to/lastmile_qr_scan"}, "type": "electric_scooter", "lon": -77.042234, "name": "7cb20a50818b0046894f4c085ae81dac", "bike_id": "7cb20a50818b0046894f4c085ae81dac", "fusion_lat": 0.0, "is_reserved": 0, "lat": 38.9170365, "fusion_lon": 0.0, "is_disabled": 0}, {"rental_uris": {"android": "https://dc.lft.to/lastmile_qr_scan", "ios": "https://dc.lft.to/lastmile_qr_scan"}, "type": "electric_scooter", "lon": -77.00606466666666, "name": "93511007c7f15584676a1363608a978e", "bike_id": "93511007c7f15584676a1363608a978e", "fusion_lat": 0.0, "is_reserved": 0, "lat": 38.905652, "fusion_lon": 0.0, "is_disabled": 0}, {"rental_uris": {"android": "https://dc.lft.to/lastmile_qr_scan", "ios": "https://dc.lft.to/lastmile_qr_scan"}, "type": "electric_scooter", "lon": -77.04159483333333, "name": "c7ba770e85ba3d28eefd280eb3c7c792", "bike_id": "c7ba770e85ba3d28eefd280eb3c7c792", "fusion_lat": 0.0, "is_reserved": 0, "lat": 38.914219333333335, "fusion_lon": 0.0, "is_disabled": 0}, {"rental_uris": {"android": "https://dc.lft.to/lastmile_qr_scan", "ios": "https://dc.lft.to/lastmile_qr_scan"}, "type": "electric_scooter", "lon": -77.04231883333334, "name": "c9ca1541ff68f9d4e3297ad1bf6aee89", "bike_id": "c9ca1541ff68f9d4e3297ad1bf6aee89", "fusion_lat": 0.0, "is_reserved": 0, "lat": 38.911085, "fusion_lon": 0.0, "is_disabled": 0}, {"rental_uris": {"android": "https://dc.lft.to/lastmile_qr_scan", "ios": "https://dc.lft.to/lastmile_qr_scan"}, "type": "electric_scooter", "lon": -76.974549, "name": "2779e213cd572cecae221b404b83909e", "bike_id": "2779e213cd572cecae221b404b83909e", "fusion_lat": 0.0, "is_reserved": 0, "lat": 38.863681166666666, "fusion_lon": 0.0, "is_disabled": 0}, {"rental_uris": {"android": "https://dc.lft.to/lastmile_qr_scan", "ios": "https://dc.lft.to/lastmile_qr_scan"}, "type": "electric_scooter", "lon": -77.036601, "name": "d07b51e4a15e869753d11b305f26c72c", "bike_id": "d07b51e4a15e869753d11b305f26c72c", "fusion_lat": 0.0, "is_reserved": 0, "lat": 38.9186405, "fusion_lon": 0.0, "is_disabled": 0}, {"rental_uris": {"android": "https://dc.lft.to/lastmile_qr_scan", "ios": "https://dc.lft.to/lastmile_qr_scan"}, "type": "electric_scooter", "lon": -77.04186333333334, "name": "6a54a7d1e713046d258711a67b6fa0de", "bike_id": "6a54a7d1e713046d258711a67b6fa0de", "fusion_lat": 0.0, "is_reserved": 0, "lat": 38.920486, "fusion_lon": 0.0, "is_disabled": 0}, {"rental_uris": {"android": "https://dc.lft.to/lastmile_qr_scan", "ios": "https://dc.lft.to/lastmile_qr_scan"}, "type": "electric_scooter", "lon": -77.00187483333333, "name": "72ea9055cdfb1c3365aa5f8bad3c8b95", "bike_id": "72ea9055cdfb1c3365aa5f8bad3c8b95", "fusion_lat": 0.0, "is_reserved": 0, "lat": 38.900246333333335, "fusion_lon": 0.0, "is_disabled": 0}, {"rental_uris": {"android": "https://dc.lft.to/lastmile_qr_scan", "ios": "https://dc.lft.to/lastmile_qr_scan"}, "type": "electric_scooter", "lon": -77.0160735, "name": "ad1180736806e4aa34a1dc02aa8027cd", "bike_id": "ad1180736806e4aa34a1dc02aa8027cd", "fusion_lat": 0.0, "is_reserved": 0, "lat": 38.8995845, "fusion_lon": 0.0, "is_disabled": 0}, {"rental_uris": {"android": "https://dc.lft.to/lastmile_qr_scan", "ios": "https://dc.lft.to/lastmile_qr_scan"}, "type": "electric_bike", "lon": -77.06977116666667, "name": "463789799cbbf19e105ffd6462fdcdee", "bike_id": "463789799cbbf19e105ffd6462fdcdee", "fusion_lat": 0.0, "is_reserved": 0, "lat": 38.9527015, "fusion_lon": 0.0, "is_disabled": 0}, {"rental_uris": {"android": "https://dc.lft.to/lastmile_qr_scan", "ios": "https://dc.lft.to/lastmile_qr_scan"}, "type": "electric_scooter", "lon": -77.042001, "name": "140162debcaee244b55ca4d2065684e0", "bike_id": "140162debcaee244b55ca4d2065684e0", "fusion_lat": 0.0, "is_reserved": 0, "lat": 38.892219833333336, "fusion_lon": 0.0, "is_disabled": 0}, {"rental_uris": {"android": "https://dc.lft.to/lastmile_qr_scan", "ios": "https://dc.lft.to/lastmile_qr_scan"}, "type": "electric_scooter", "lon": -77.02707533333333, "name": "3d954a07cd9ce58a35ecf9f8f8a61b1b", "bike_id": "3d954a07cd9ce58a35ecf9f8f8a61b1b", "fusion_lat": 0.0, "is_reserved": 0, "lat": 38.92782233333333, "fusion_lon": 0.0, "is_disabled": 0}, {"rental_uris": {"android": "https://dc.lft.to/lastmile_qr_scan", "ios": "https://dc.lft.to/lastmile_qr_scan"}, "type": "electric_scooter", "lon": -77.00152933333334, "name": "81006a9f870fbcdeaae5f30410dcb900", "bike_id": "81006a9f870fbcdeaae5f30410dcb900", "fusion_lat": 0.0, "is_reserved": 0, "lat": 38.90018966666667, "fusion_lon": 0.0, "is_disabled": 0}, {"rental_uris": {"android": "https://dc.lft.to/lastmile_qr_scan", "ios": "https://dc.lft.to/lastmile_qr_scan"}, "type": "electric_scooter", "lon": -76.9903655, "name": "81fba1fd6fef34871d261280b4ac5daa", "bike_id": "81fba1fd6fef34871d261280b4ac5daa", "fusion_lat": 0.0, "is_reserved": 0, "lat": 38.898512333333336, "fusion_lon": 0.0, "is_disabled": 0}, {"rental_uris": {"android": "https://dc.lft.to/lastmile_qr_scan", "ios": "https://dc.lft.to/lastmile_qr_scan"}, "type": "electric_scooter", "lon": -77.03266333333333, "name": "7b60eba63ec56f31beed9df7070898f6", "bike_id": "7b60eba63ec56f31beed9df7070898f6", "fusion_lat": 0.0, "is_reserved": 0, "lat": 38.902725833333335, "fusion_lon": 0.0, "is_disabled": 0}, {"rental_uris": {"android": "https://dc.lft.to/lastmile_qr_scan", "ios": "https://dc.lft.to/lastmile_qr_scan"}, "type": "electric_scooter", "lon": -77.0083635, "name": "67900071900aaa1fb5914aa5b2723e74", "bike_id": "67900071900aaa1fb5914aa5b2723e74", "fusion_lat": 0.0, "is_reserved": 0, "lat": 38.915505, "fusion_lon": 0.0, "is_disabled": 0}, {"rental_uris": {"android": "https://dc.lft.to/lastmile_qr_scan", "ios": "https://dc.lft.to/lastmile_qr_scan"}, "type": "electric_scooter", "lon": -77.040581, "name": "a015bd6357c60a319cffd8fe19f3074f", "bike_id": "a015bd6357c60a319cffd8fe19f3074f", "fusion_lat": 0.0, "is_reserved": 0, "lat": 38.926466833333336, "fusion_lon": 0.0, "is_disabled": 0}, {"rental_uris": {"android": "https://dc.lft.to/lastmile_qr_scan", "ios": "https://dc.lft.to/lastmile_qr_scan"}, "type": "electric_bike", "lon": -76.9053625, "name": "3ed572c37b4b2be8bce4ffb16184cb1b", "bike_id": "3ed572c37b4b2be8bce4ffb16184cb1b", "fusion_lat": 0.0, "is_reserved": 0, "lat": 38.897350333333335, "fusion_lon": 0.0, "is_disabled": 0}, {"rental_uris": {"android": "https://dc.lft.to/lastmile_qr_scan", "ios": "https://dc.lft.to/lastmile_qr_scan"}, "type": "electric_scooter", "lon": -77.0344855, "name": "94bb9641e852a5b9ca088a49888beb70", "bike_id": "94bb9641e852a5b9ca088a49888beb70", "fusion_lat": 0.0, "is_reserved": 0, "lat": 38.905869333333335, "fusion_lon": 0.0, "is_disabled": 0}, {"rental_uris": {"android": "https://dc.lft.to/lastmile_qr_scan", "ios": "https://dc.lft.to/lastmile_qr_scan"}, "type": "electric_scooter", "lon": -77.01865116666667, "name": "d9cbd7a16f03d498eef0ee9d328053aa", "bike_id": "d9cbd7a16f03d498eef0ee9d328053aa", "fusion_lat": 0.0, "is_reserved": 0, "lat": 38.9491925, "fusion_lon": 0.0, "is_disabled": 0}, {"rental_uris": {"android": "https://dc.lft.to/lastmile_qr_scan", "ios": "https://dc.lft.to/lastmile_qr_scan"}, "type": "electric_scooter", "lon": -77.03048516666667, "name": "eedafaebeca5a7d135ccbb8539b25e7b", "bike_id": "eedafaebeca5a7d135ccbb8539b25e7b", "fusion_lat": 0.0, "is_reserved": 0, "lat": 38.909724833333335, "fusion_lon": 0.0, "is_disabled": 0}, {"rental_uris": {"android": "https://dc.lft.to/lastmile_qr_scan", "ios": "https://dc.lft.to/lastmile_qr_scan"}, "type": "electric_scooter", "lon": -77.02829883333334, "name": "45d23ba37079df9fba787e9b56258f0b", "bike_id": "45d23ba37079df9fba787e9b56258f0b", "fusion_lat": 0.0, "is_reserved": 0, "lat": 38.93287183333333, "fusion_lon": 0.0, "is_disabled": 0}, {"rental_uris": {"android": "https://dc.lft.to/lastmile_qr_scan", "ios": "https://dc.lft.to/lastmile_qr_scan"}, "type": "electric_scooter", "lon": -77.05596083333333, "name": "b0f0d66dfdf1752f79ec4953b5ca80d3", "bike_id": "b0f0d66dfdf1752f79ec4953b5ca80d3", "fusion_lat": 0.0, "is_reserved": 0, "lat": 38.936953, "fusion_lon": 0.0, "is_disabled": 0}, {"rental_uris": {"android": "https://dc.lft.to/lastmile_qr_scan", "ios": "https://dc.lft.to/lastmile_qr_scan"}, "type": "electric_scooter", "lon": -77.04743616666667, "name": "d3b3a36bed2497c45d39e4132f216523", "bike_id": "d3b3a36bed2497c45d39e4132f216523", "fusion_lat": 0.0, "is_reserved": 0, "lat": 38.905218166666664, "fusion_lon": 0.0, "is_disabled": 0}, {"rental_uris": {"android": "https://dc.lft.to/lastmile_qr_scan", "ios": "https://dc.lft.to/lastmile_qr_scan"}, "type": "electric_scooter", "lon": -77.03026933333334, "name": "c45cf42bec65b5756196e8f18fb5a267", "bike_id": "c45cf42bec65b5756196e8f18fb5a267", "fusion_lat": 0.0, "is_reserved": 0, "lat": 38.92375, "fusion_lon": 0.0, "is_disabled": 0}, {"rental_uris": {"android": "https://dc.lft.to/lastmile_qr_scan", "ios": "https://dc.lft.to/lastmile_qr_scan"}, "type": "electric_scooter", "lon": -77.02166916666667, "name": "460b0e8018c9b359721859d8b8f30c15", "bike_id": "460b0e8018c9b359721859d8b8f30c15", "fusion_lat": 0.0, "is_reserved": 0, "lat": 38.88742666666667, "fusion_lon": 0.0, "is_disabled": 0}, {"rental_uris": {"android": "https://dc.lft.to/lastmile_qr_scan", "ios": "https://dc.lft.to/lastmile_qr_scan"}, "type": "electric_scooter", "lon": -77.05260533333333, "name": "6cd6961fc3ecde07f1e37a048705c80a", "bike_id": "6cd6961fc3ecde07f1e37a048705c80a", "fusion_lat": 0.0, "is_reserved": 0, "lat": 38.923754, "fusion_lon": 0.0, "is_disabled": 0}, {"rental_uris": {"android": "https://dc.lft.to/lastmile_qr_scan", "ios": "https://dc.lft.to/lastmile_qr_scan"}, "type": "electric_scooter", "lon": -77.05014033333333, "name": "a8807237524769f87c1316ae5b1ee5af", "bike_id": "a8807237524769f87c1316ae5b1ee5af", "fusion_lat": 0.0, "is_reserved": 0, "lat": 38.9055395, "fusion_lon": 0.0, "is_disabled": 0}, {"rental_uris": {"android": "https://dc.lft.to/lastmile_qr_scan", "ios": "https://dc.lft.to/lastmile_qr_scan"}, "type": "electric_scooter", "lon": -77.0209295, "name": "782500d0f74140af0ffd8d126dfea392", "bike_id": "782500d0f74140af0ffd8d126dfea392", "fusion_lat": 0.0, "is_reserved": 0, "lat": 38.911069833333336, "fusion_lon": 0.0, "is_disabled": 0}, {"rental_uris": {"android": "https://dc.lft.to/lastmile_qr_scan", "ios": "https://dc.lft.to/lastmile_qr_scan"}, "type": "electric_scooter", "lon": -77.02172916666666, "name": "9f4d4207288182f0a9d81d50cbe6944d", "bike_id": "9f4d4207288182f0a9d81d50cbe6944d", "fusion_lat": 0.0, "is_reserved": 0, "lat": 38.94289766666667, "fusion_lon": 0.0, "is_disabled": 0}, {"rental_uris": {"android": "https://dc.lft.to/lastmile_qr_scan", "ios": "https://dc.lft.to/lastmile_qr_scan"}, "type": "electric_scooter", "lon": -77.00587366666667, "name": "ad7665f3757f445c8590a8ccb9aecd3b", "bike_id": "ad7665f3757f445c8590a8ccb9aecd3b", "fusion_lat": 0.0, "is_reserved": 0, "lat": 38.876525666666666, "fusion_lon": 0.0, "is_disabled": 0}, {"rental_uris": {"android": "https://dc.lft.to/lastmile_qr_scan", "ios": "https://dc.lft.to/lastmile_qr_scan"}, "type": "electric_scooter", "lon": -76.99490466666667, "name": "d4c66aa3d5a08a02bb1bebe93e4664d1", "bike_id": "d4c66aa3d5a08a02bb1bebe93e4664d1", "fusion_lat": 0.0, "is_reserved": 0, "lat": 38.900960166666664, "fusion_lon": 0.0, "is_disabled": 0}, {"rental_uris": {"android": "https://dc.lft.to/lastmile_qr_scan", "ios": "https://dc.lft.to/lastmile_qr_scan"}, "type": "electric_scooter", "lon": -77.04012233333333, "name": "66cd715a83a9ffcb2b3f1688661087a7", "bike_id": "66cd715a83a9ffcb2b3f1688661087a7", "fusion_lat": 0.0, "is_reserved": 0, "lat": 38.90246666666667, "fusion_lon": 0.0, "is_disabled": 0}, {"rental_uris": {"android": "https://dc.lft.to/lastmile_qr_scan", "ios": "https://dc.lft.to/lastmile_qr_scan"}, "type": "electric_scooter", "lon": -76.99376666666667, "name": "000bfa90e624fc1a689b8129ed8eae0b", "bike_id": "000bfa90e624fc1a689b8129ed8eae0b", "fusion_lat": 0.0, "is_reserved": 0, "lat": 38.886915333333334, "fusion_lon": 0.0, "is_disabled": 0}, {"rental_uris": {"android": "https://dc.lft.to/lastmile_qr_scan", "ios": "https://dc.lft.to/lastmile_qr_scan"}, "type": "electric_scooter", "lon": -77.06816366666666, "name": "ea163f3499f6fbf5f6b132f7177f7294", "bike_id": "ea163f3499f6fbf5f6b132f7177f7294", "fusion_lat": 0.0, "is_reserved": 0, "lat": 38.91641283333333, "fusion_lon": 0.0, "is_disabled": 0}, {"rental_uris": {"android": "https://dc.lft.to/lastmile_qr_scan", "ios": "https://dc.lft.to/lastmile_qr_scan"}, "type": "electric_scooter", "lon": -77.05810016666666, "name": "95433db0d9a89106e5d269e440412631", "bike_id": "95433db0d9a89106e5d269e440412631", "fusion_lat": 0.0, "is_reserved": 0, "lat": 38.9037275, "fusion_lon": 0.0, "is_disabled": 0}, {"rental_uris": {"android": "https://dc.lft.to/lastmile_qr_scan", "ios": "https://dc.lft.to/lastmile_qr_scan"}, "type": "electric_scooter", "lon": -77.02584533333334, "name": "aa612d30aa53030f03eecf60a246ea0f", "bike_id": "aa612d30aa53030f03eecf60a246ea0f", "fusion_lat": 0.0, "is_reserved": 0, "lat": 38.8999945, "fusion_lon": 0.0, "is_disabled": 0}, {"rental_uris": {"android": "https://dc.lft.to/lastmile_qr_scan", "ios": "https://dc.lft.to/lastmile_qr_scan"}, "type": "electric_bike", "lon": -77.1323245, "name": "090235f28bee8d205efe044d72043184", "bike_id": "090235f28bee8d205efe044d72043184", "fusion_lat": 0.0, "is_reserved": 0, "lat": 38.86967833333333, "fusion_lon": 0.0, "is_disabled": 0}, {"rental_uris": {"android": "https://dc.lft.to/lastmile_qr_scan", "ios": "https://dc.lft.to/lastmile_qr_scan"}, "type": "electric_scooter", "lon": -77.03254333333334, "name": "46dc99e2e0a2dbeb5debab126a9f3ed4", "bike_id": "46dc99e2e0a2dbeb5debab126a9f3ed4", "fusion_lat": 0.0, "is_reserved": 0, "lat": 38.92641483333333, "fusion_lon": 0.0, "is_disabled": 0}, {"rental_uris": {"android": "https://dc.lft.to/lastmile_qr_scan", "ios": "https://dc.lft.to/lastmile_qr_scan"}, "type": "electric_scooter", "lon": -77.01962383333333, "name": "47049c4b297a5e0ee9cee813792c76c2", "bike_id": "47049c4b297a5e0ee9cee813792c76c2", "fusion_lat": 0.0, "is_reserved": 0, "lat": 38.8784665, "fusion_lon": 0.0, "is_disabled": 0}, {"rental_uris": {"android": "https://dc.lft.to/lastmile_qr_scan", "ios": "https://dc.lft.to/lastmile_qr_scan"}, "type": "electric_scooter", "lon": -77.04155633333333, "name": "4018c5276475e92d4e32641871453681", "bike_id": "4018c5276475e92d4e32641871453681", "fusion_lat": 0.0, "is_reserved": 0, "lat": 38.914148833333336, "fusion_lon": 0.0, "is_disabled": 0}, {"rental_uris": {"android": "https://dc.lft.to/lastmile_qr_scan", "ios": "https://dc.lft.to/lastmile_qr_scan"}, "type": "electric_scooter", "lon": -77.0239595, "name": "818285ac0111b5db7f31fe5d388e4409", "bike_id": "818285ac0111b5db7f31fe5d388e4409", "fusion_lat": 0.0, "is_reserved": 0, "lat": 38.92074216666666, "fusion_lon": 0.0, "is_disabled": 0}, {"rental_uris": {"android": "https://dc.lft.to/lastmile_qr_scan", "ios": "https://dc.lft.to/lastmile_qr_scan"}, "type": "electric_scooter", "lon": -77.038533, "name": "9708c7c61ada9610150f52a3d6550536", "bike_id": "9708c7c61ada9610150f52a3d6550536", "fusion_lat": 0.0, "is_reserved": 0, "lat": 38.915415333333335, "fusion_lon": 0.0, "is_disabled": 0}, {"rental_uris": {"android": "https://dc.lft.to/lastmile_qr_scan", "ios": "https://dc.lft.to/lastmile_qr_scan"}, "type": "electric_scooter", "lon": -77.03854883333334, "name": "6f502568ef559e74aa81260069ee0b03", "bike_id": "6f502568ef559e74aa81260069ee0b03", "fusion_lat": 0.0, "is_reserved": 0, "lat": 38.91710483333333, "fusion_lon": 0.0, "is_disabled": 0}, {"rental_uris": {"android": "https://dc.lft.to/lastmile_qr_scan", "ios": "https://dc.lft.to/lastmile_qr_scan"}, "type": "electric_scooter", "lon": -77.02479816666667, "name": "9fb6fd53044aed35cb8368ab121be031", "bike_id": "9fb6fd53044aed35cb8368ab121be031", "fusion_lat": 0.0, "is_reserved": 0, "lat": 38.93876733333333, "fusion_lon": 0.0, "is_disabled": 0}, {"rental_uris": {"android": "https://dc.lft.to/lastmile_qr_scan", "ios": "https://dc.lft.to/lastmile_qr_scan"}, "type": "electric_bike", "lon": -77.048999, "name": "9041e1afc41e6d85d262fd3b9ca3ce0e", "bike_id": "9041e1afc41e6d85d262fd3b9ca3ce0e", "fusion_lat": 0.0, "is_reserved": 0, "lat": 38.87492666666667, "fusion_lon": 0.0, "is_disabled": 0}, {"rental_uris": {"android": "https://dc.lft.to/lastmile_qr_scan", "ios": "https://dc.lft.to/lastmile_qr_scan"}, "type": "electric_scooter", "lon": -77.02292583333333, "name": "af8edd4bc46798514871f515ee5fc01e", "bike_id": "af8edd4bc46798514871f515ee5fc01e", "fusion_lat": 0.0, "is_reserved": 0, "lat": 38.91568183333333, "fusion_lon": 0.0, "is_disabled": 0}, {"rental_uris": {"android": "https://dc.lft.to/lastmile_qr_scan", "ios": "https://dc.lft.to/lastmile_qr_scan"}, "type": "electric_scooter", "lon": -77.01904383333333, "name": "50dba7807c4b15c0c6f671d980739a81", "bike_id": "50dba7807c4b15c0c6f671d980739a81", "fusion_lat": 0.0, "is_reserved": 0, "lat": 38.923443, "fusion_lon": 0.0, "is_disabled": 0}, {"rental_uris": {"android": "https://dc.lft.to/lastmile_qr_scan", "ios": "https://dc.lft.to/lastmile_qr_scan"}, "type": "electric_scooter", "lon": -77.05029816666666, "name": "61f16f7d89f6437d6157ae25bd366cc0", "bike_id": "61f16f7d89f6437d6157ae25bd366cc0", "fusion_lat": 0.0, "is_reserved": 0, "lat": 38.923617166666666, "fusion_lon": 0.0, "is_disabled": 0}, {"rental_uris": {"android": "https://dc.lft.to/lastmile_qr_scan", "ios": "https://dc.lft.to/lastmile_qr_scan"}, "type": "electric_scooter", "lon": -77.03193133333333, "name": "ae3f4cf8c000b1327865bd447e651bae", "bike_id": "ae3f4cf8c000b1327865bd447e651bae", "fusion_lat": 0.0, "is_reserved": 0, "lat": 38.91897983333333, "fusion_lon": 0.0, "is_disabled": 0}, {"rental_uris": {"android": "https://dc.lft.to/lastmile_qr_scan", "ios": "https://dc.lft.to/lastmile_qr_scan"}, "type": "electric_scooter", "lon": -77.03286383333334, "name": "4ff93aadb02005b9d5f4a739e6da1a14", "bike_id": "4ff93aadb02005b9d5f4a739e6da1a14", "fusion_lat": 0.0, "is_reserved": 0, "lat": 38.932527, "fusion_lon": 0.0, "is_disabled": 0}, {"rental_uris": {"android": "https://dc.lft.to/lastmile_qr_scan", "ios": "https://dc.lft.to/lastmile_qr_scan"}, "type": "electric_scooter", "lon": -77.0161145, "name": "7afc0e02ad0b30270fbc85d6eab3917c", "bike_id": "7afc0e02ad0b30270fbc85d6eab3917c", "fusion_lat": 0.0, "is_reserved": 0, "lat": 38.905842166666666, "fusion_lon": 0.0, "is_disabled": 0}, {"rental_uris": {"android": "https://dc.lft.to/lastmile_qr_scan", "ios": "https://dc.lft.to/lastmile_qr_scan"}, "type": "electric_scooter", "lon": -77.03935783333333, "name": "4fb50573c2ae3d2b6cb5069f6f5b053d", "bike_id": "4fb50573c2ae3d2b6cb5069f6f5b053d", "fusion_lat": 0.0, "is_reserved": 0, "lat": 38.913896666666666, "fusion_lon": 0.0, "is_disabled": 0}, {"rental_uris": {"android": "https://dc.lft.to/lastmile_qr_scan", "ios": "https://dc.lft.to/lastmile_qr_scan"}, "type": "electric_scooter", "lon": -77.0305945, "name": "5effa5abf6ac140f25968586ff414375", "bike_id": "5effa5abf6ac140f25968586ff414375", "fusion_lat": 0.0, "is_reserved": 0, "lat": 38.88409716666666, "fusion_lon": 0.0, "is_disabled": 0}, {"rental_uris": {"android": "https://dc.lft.to/lastmile_qr_scan", "ios": "https://dc.lft.to/lastmile_qr_scan"}, "type": "electric_scooter", "lon": -77.02469766666667, "name": "46ab3246067e1d684bc852bbae396285", "bike_id": "46ab3246067e1d684bc852bbae396285", "fusion_lat": 0.0, "is_reserved": 0, "lat": 38.906436666666664, "fusion_lon": 0.0, "is_disabled": 0}, {"rental_uris": {"android": "https://dc.lft.to/lastmile_qr_scan", "ios": "https://dc.lft.to/lastmile_qr_scan"}, "type": "electric_scooter", "lon": -77.00270433333333, "name": "e8fcd2af938c84b77229c64355675aa6", "bike_id": "e8fcd2af938c84b77229c64355675aa6", "fusion_lat": 0.0, "is_reserved": 0, "lat": 38.9012925, "fusion_lon": 0.0, "is_disabled": 0}, {"rental_uris": {"android": "https://dc.lft.to/lastmile_qr_scan", "ios": "https://dc.lft.to/lastmile_qr_scan"}, "type": "electric_scooter", "lon": -77.0679085, "name": "81034383b8ce12bf28f0c74222c4e5bb", "bike_id": "81034383b8ce12bf28f0c74222c4e5bb", "fusion_lat": 0.0, "is_reserved": 0, "lat": 38.910772, "fusion_lon": 0.0, "is_disabled": 0}, {"rental_uris": {"android": "https://dc.lft.to/lastmile_qr_scan", "ios": "https://dc.lft.to/lastmile_qr_scan"}, "type": "electric_scooter", "lon": -77.03195983333333, "name": "ca8dc8985137bd1d1fb8b77eed1bed7d", "bike_id": "ca8dc8985137bd1d1fb8b77eed1bed7d", "fusion_lat": 0.0, "is_reserved": 0, "lat": 38.918763166666665, "fusion_lon": 0.0, "is_disabled": 0}, {"rental_uris": {"android": "https://dc.lft.to/lastmile_qr_scan", "ios": "https://dc.lft.to/lastmile_qr_scan"}, "type": "electric_bike", "lon": -77.10030283333333, "name": "1fa4eabc95c80bb1ffcf914966a0ad89", "bike_id": "1fa4eabc95c80bb1ffcf914966a0ad89", "fusion_lat": 0.0, "is_reserved": 0, "lat": 38.990625, "fusion_lon": 0.0, "is_disabled": 0}, {"rental_uris": {"android": "https://dc.lft.to/lastmile_qr_scan", "ios": "https://dc.lft.to/lastmile_qr_scan"}, "type": "electric_scooter", "lon": -77.01336633333334, "name": "fe296beb9972ea81f8e9ee5d0a6ac710", "bike_id": "fe296beb9972ea81f8e9ee5d0a6ac710", "fusion_lat": 0.0, "is_reserved": 0, "lat": 38.881228166666666, "fusion_lon": 0.0, "is_disabled": 0}, {"rental_uris": {"android": "https://dc.lft.to/lastmile_qr_scan", "ios": "https://dc.lft.to/lastmile_qr_scan"}, "type": "electric_scooter", "lon": -77.03880283333334, "name": "67fd2404460d2c6ba882ac34e7332891", "bike_id": "67fd2404460d2c6ba882ac34e7332891", "fusion_lat": 0.0, "is_reserved": 0, "lat": 38.93265666666667, "fusion_lon": 0.0, "is_disabled": 0}, {"rental_uris": {"android": "https://dc.lft.to/lastmile_qr_scan", "ios": "https://dc.lft.to/lastmile_qr_scan"}, "type": "electric_scooter", "lon": -77.03280566666666, "name": "27a434f55a3a077baa946c07a16028ef", "bike_id": "27a434f55a3a077baa946c07a16028ef", "fusion_lat": 0.0, "is_reserved": 0, "lat": 38.93256483333333, "fusion_lon": 0.0, "is_disabled": 0}, {"rental_uris": {"android": "https://dc.lft.to/lastmile_qr_scan", "ios": "https://dc.lft.to/lastmile_qr_scan"}, "type": "electric_scooter", "lon": -77.03355666666667, "name": "9ab3375d5cc1133b6b432863b7bd4def", "bike_id": "9ab3375d5cc1133b6b432863b7bd4def", "fusion_lat": 0.0, "is_reserved": 0, "lat": 38.90373616666667, "fusion_lon": 0.0, "is_disabled": 0}, {"rental_uris": {"android": "https://dc.lft.to/lastmile_qr_scan", "ios": "https://dc.lft.to/lastmile_qr_scan"}, "type": "electric_scooter", "lon": -77.02516266666666, "name": "ed4f71f4d8960d061632be391d13eedd", "bike_id": "ed4f71f4d8960d061632be391d13eedd", "fusion_lat": 0.0, "is_reserved": 0, "lat": 38.91917983333333, "fusion_lon": 0.0, "is_disabled": 0}, {"rental_uris": {"android": "https://dc.lft.to/lastmile_qr_scan", "ios": "https://dc.lft.to/lastmile_qr_scan"}, "type": "electric_scooter", "lon": -77.02408083333333, "name": "348d8fad883b12d8c578dbc91542ce5e", "bike_id": "348d8fad883b12d8c578dbc91542ce5e", "fusion_lat": 0.0, "is_reserved": 0, "lat": 38.919977833333334, "fusion_lon": 0.0, "is_disabled": 0}, {"rental_uris": {"android": "https://dc.lft.to/lastmile_qr_scan", "ios": "https://dc.lft.to/lastmile_qr_scan"}, "type": "electric_scooter", "lon": -77.03446966666667, "name": "b51218873b76a354f12df0f82e869bd6", "bike_id": "b51218873b76a354f12df0f82e869bd6", "fusion_lat": 0.0, "is_reserved": 0, "lat": 38.9286185, "fusion_lon": 0.0, "is_disabled": 0}, {"rental_uris": {"android": "https://dc.lft.to/lastmile_qr_scan", "ios": "https://dc.lft.to/lastmile_qr_scan"}, "type": "electric_scooter", "lon": -77.07990383333333, "name": "9efb25d1e7bc6d66124d27c585e3374e", "bike_id": "9efb25d1e7bc6d66124d27c585e3374e", "fusion_lat": 0.0, "is_reserved": 0, "lat": 38.923687, "fusion_lon": 0.0, "is_disabled": 0}, {"rental_uris": {"android": "https://dc.lft.to/lastmile_qr_scan", "ios": "https://dc.lft.to/lastmile_qr_scan"}, "type": "electric_bike", "lon": -76.97332616666667, "name": "2fe74d854c28b78d655a6d9cc3728698", "bike_id": "2fe74d854c28b78d655a6d9cc3728698", "fusion_lat": 0.0, "is_reserved": 0, "lat": 38.85064666666667, "fusion_lon": 0.0, "is_disabled": 0}, {"rental_uris": {"android": "https://dc.lft.to/lastmile_qr_scan", "ios": "https://dc.lft.to/lastmile_qr_scan"}, "type": "electric_scooter", "lon": -77.0401525, "name": "41f9cf923b3a8ba89232c0fa07751a35", "bike_id": "41f9cf923b3a8ba89232c0fa07751a35", "fusion_lat": 0.0, "is_reserved": 0, "lat": 38.92455983333333, "fusion_lon": 0.0, "is_disabled": 0}, {"rental_uris": {"android": "https://dc.lft.to/lastmile_qr_scan", "ios": "https://dc.lft.to/lastmile_qr_scan"}, "type": "electric_scooter", "lon": -77.025063, "name": "a48e0156cc307755b1083cfb4d5fcfb4", "bike_id": "a48e0156cc307755b1083cfb4d5fcfb4", "fusion_lat": 0.0, "is_reserved": 0, "lat": 38.94199233333333, "fusion_lon": 0.0, "is_disabled": 0}, {"rental_uris": {"android": "https://dc.lft.to/lastmile_qr_scan", "ios": "https://dc.lft.to/lastmile_qr_scan"}, "type": "electric_scooter", "lon": -77.02420816666667, "name": "6c0e102ac199ecc15f957e929cea7f3d", "bike_id": "6c0e102ac199ecc15f957e929cea7f3d", "fusion_lat": 0.0, "is_reserved": 0, "lat": 38.9095775, "fusion_lon": 0.0, "is_disabled": 0}, {"rental_uris": {"android": "https://dc.lft.to/lastmile_qr_scan", "ios": "https://dc.lft.to/lastmile_qr_scan"}, "type": "electric_scooter", "lon": -77.03525066666667, "name": "02f857162077e1e7e9602689511a157a", "bike_id": "02f857162077e1e7e9602689511a157a", "fusion_lat": 0.0, "is_reserved": 0, "lat": 38.923381, "fusion_lon": 0.0, "is_disabled": 0}, {"rental_uris": {"android": "https://dc.lft.to/lastmile_qr_scan", "ios": "https://dc.lft.to/lastmile_qr_scan"}, "type": "electric_scooter", "lon": -77.03969983333333, "name": "f89c94d93e0a219eae7486235d843924", "bike_id": "f89c94d93e0a219eae7486235d843924", "fusion_lat": 0.0, "is_reserved": 0, "lat": 38.90614683333333, "fusion_lon": 0.0, "is_disabled": 0}, {"rental_uris": {"android": "https://dc.lft.to/lastmile_qr_scan", "ios": "https://dc.lft.to/lastmile_qr_scan"}, "type": "electric_scooter", "lon": -77.02169816666667, "name": "64d86a84d3f9c02a5d337abb2b9ffe48", "bike_id": "64d86a84d3f9c02a5d337abb2b9ffe48", "fusion_lat": 0.0, "is_reserved": 0, "lat": 38.88744883333333, "fusion_lon": 0.0, "is_disabled": 0}, {"rental_uris": {"android": "https://dc.lft.to/lastmile_qr_scan", "ios": "https://dc.lft.to/lastmile_qr_scan"}, "type": "electric_scooter", "lon": -77.04723416666667, "name": "82b47cbae93f2ed24ae2e19428634b1f", "bike_id": "82b47cbae93f2ed24ae2e19428634b1f", "fusion_lat": 0.0, "is_reserved": 0, "lat": 38.8960925, "fusion_lon": 0.0, "is_disabled": 0}, {"rental_uris": {"android": "https://dc.lft.to/lastmile_qr_scan", "ios": "https://dc.lft.to/lastmile_qr_scan"}, "type": "electric_scooter", "lon": -77.01955533333333, "name": "720776f3207ac5344a2bcb5ba696e39c", "bike_id": "720776f3207ac5344a2bcb5ba696e39c", "fusion_lat": 0.0, "is_reserved": 0, "lat": 38.93575416666667, "fusion_lon": 0.0, "is_disabled": 0},