{"data": {"bikes": [{"fusion_lat": 0.0, "name": "dcf2f95e81412b98831267b7f74ff143", "is_disabled": 0, "rental_uris": {"android": "https://dc.lft.to/lastmile_qr_scan", "ios": "https://dc.lft.to/lastmile_qr_scan"}, "fusion_lon": 0.0, "lat": 38.93241416666667, "bike_id": "dcf2f95e81412b98831267b7f74ff143", "type": "electric_bike", "is_reserved": 0, "lon": -76.97423116666667}, {"fusion_lat": 0.0, "name": "8d25d77bc4ba1f323a892e864f0ad0ec", "is_disabled": 0, "rental_uris": {"android": "https://dc.lft.to/lastmile_qr_scan", "ios": "https://dc.lft.to/lastmile_qr_scan"}, "fusion_lon": 0.0, "lat": 38.905513, "bike_id": "8d25d77bc4ba1f323a892e864f0ad0ec", "type": "electric_scooter", "is_reserved": 0, "lon": -77.0324355}, {"fusion_lat": 0.0, "name": "92cc5bf7cf6051ffc715150f169daecd", "is_disabled": 0, "rental_uris": {"android": "https://dc.lft.to/lastmile_qr_scan", "ios": "https://dc.lft.to/lastmile_qr_scan"}, "fusion_lon": 0.0, "lat": 38.932600666666666, "bike_id": "92cc5bf7cf6051ffc715150f169daecd", "type": "electric_scooter", "is_reserved": 0, "lon": -77.01912233333333}, {"fusion_lat": 0.0, "name": "c694eede6be6867a3ad0623baa0b8311", "is_disabled": 0, "rental_uris": {"android": "https://dc.lft.to/lastmile_qr_scan", "ios": "https://dc.lft.to/lastmile_qr_scan"}, "fusion_lon": 0.0, "lat": 38.92504866666667, "bike_id": "c694eede6be6867a3ad0623baa0b8311", "type": "electric_bike", "is_reserved": 0, "lon": -77.23324966666667}, {"fusion_lat": 0.0, "name": "f359b1c7af06f38283372d0cbd07a6f8", "is_disabled": 0, "rental_uris": {"android": "https://dc.lft.to/lastmile_qr_scan", "ios": "https://dc.lft.to/lastmile_qr_scan"}, "fusion_lon": 0.0, "lat": 38.905448666666665, "bike_id": "f359b1c7af06f38283372d0cbd07a6f8", "type": "electric_scooter", "is_reserved": 0, "lon": -76.98332333333333}, {"fusion_lat": 0.0, "name": "3870f94939dba344275e7df2f8f71253", "is_disabled": 0, "rental_uris": {"android": "https://dc.lft.to/lastmile_qr_scan", "ios": "https://dc.lft.to/lastmile_qr_scan"}, "fusion_lon": 0.0, "lat": 38.898276833333334, "bike_id": "3870f94939dba344275e7df2f8f71253", "type": "electric_scooter", "is_reserved": 0, "lon": -77.028152}, {"fusion_lat": 0.0, "name": "1ee409610dae403fa6b348761b69ff31", "is_disabled": 0, "rental_uris": {"android": "https://dc.lft.to/lastmile_qr_scan", "ios": "https://dc.lft.to/lastmile_qr_scan"}, "fusion_lon": 0.0, "lat": 38.8972305, "bike_id": "1ee409610dae403fa6b348761b69ff31", "type": "electric_scooter", "is_reserved": 0, "lon": -77.04632566666666}, {"fusion_lat": 0.0, "name": "8a4928fd76c93a1f981c5b9255ea8da8", "is_disabled": 0, "rental_uris": {"android": "https://dc.lft.to/lastmile_qr_scan", "ios": "https://dc.lft.to/lastmile_qr_scan"}, "fusion_lon": 0.0, "lat": 38.9317325, "bike_id": "8a4928fd76c93a1f981c5b9255ea8da8", "type": "electric_scooter", "is_reserved": 0, "lon": -77.056416}, {"fusion_lat": 0.0, "name": "53b167a1c2e2d33bb10e815895dcf9c7", "is_disabled": 0, "rental_uris": {"android": "https://dc.lft.to/lastmile_qr_scan", "ios": "https://dc.lft.to/lastmile_qr_scan"}, "fusion_lon": 0.0, "lat": 38.91292966666666, "bike_id": "53b167a1c2e2d33bb10e815895dcf9c7", "type": "electric_scooter", "is_reserved": 0, "lon": -77.0318415}, {"fusion_lat": 0.0, "name": "b04ca1b9f62ca9f4d7cad0671915df3d", "is_disabled": 0, "rental_uris": {"android": "https://dc.lft.to/lastmile_qr_scan", "ios": "https://dc.lft.to/lastmile_qr_scan"}, "fusion_lon": 0.0, "lat": 38.93489816666667, "bike_id": "b04ca1b9f62ca9f4d7cad0671915df3d", "type": "electric_scooter", "is_reserved": 0, "lon": -77.04532366666666}, {"fusion_lat": 0.0, "name": "dac284c50f27c24a3a8f541f6b1486f2", "is_disabled": 0, "rental_uris": {"android": "https://dc.lft.to/lastmile_qr_scan", "ios": "https://dc.lft.to/lastmile_qr_scan"}, "fusion_lon": 0.0, "lat": 38.9059, "bike_id": "dac284c50f27c24a3a8f541f6b1486f2", "type": "electric_scooter", "is_reserved": 0, "lon": -77.041953}, {"fusion_lat": 0.0, "name": "1fbb1df9d6f2977342917da8230b85fd", "is_disabled": 0, "rental_uris": {"android": "https://dc.lft.to/lastmile_qr_scan", "ios": "https://dc.lft.to/lastmile_qr_scan"}, "fusion_lon": 0.0, "lat": 38.901136666666666, "bike_id": "1fbb1df9d6f2977342917da8230b85fd", "type": "electric_scooter", "is_reserved": 0, "lon": -77.027503}, {"fusion_lat": 0.0, "name": "4262edbdd6a2561b113f1ed2140a64e2", "is_disabled": 0, "rental_uris": {"android": "https://dc.lft.to/lastmile_qr_scan", "ios": "https://dc.lft.to/lastmile_qr_scan"}, "fusion_lon": 0.0, "lat": 38.90520133333333, "bike_id": "4262edbdd6a2561b113f1ed2140a64e2", "type": "electric_scooter", "is_reserved": 0, "lon": -77.06775616666667}, {"fusion_lat": 0.0, "name": "6288028a6065bb6e8657d44b8a69cd6d", "is_disabled": 0, "rental_uris": {"android": "https://dc.lft.to/lastmile_qr_scan", "ios": "https://dc.lft.to/lastmile_qr_scan"}, "fusion_lon": 0.0, "lat": 38.89675183333333, "bike_id": "6288028a6065bb6e8657d44b8a69cd6d", "type": "electric_scooter", "is_reserved": 0, "lon": -76.93210416666666}, {"fusion_lat": 0.0, "name": "bc01bd2f2a387f319a76686ac1636b35", "is_disabled": 0, "rental_uris": {"android": "https://dc.lft.to/lastmile_qr_scan", "ios": "https://dc.lft.to/lastmile_qr_scan"}, "fusion_lon": 0.0, "lat": 38.907223, "bike_id": "bc01bd2f2a387f319a76686ac1636b35", "type": "electric_scooter", "is_reserved": 0, "lon": -77.03186733333334}, {"fusion_lat": 0.0, "name": "e1eb47fcaa2facbdb683fa818e8afa3f", "is_disabled": 0, "rental_uris": {"android": "https://dc.lft.to/lastmile_qr_scan", "ios": "https://dc.lft.to/lastmile_qr_scan"}, "fusion_lon": 0.0, "lat": 38.897312666666664, "bike_id": "e1eb47fcaa2facbdb683fa818e8afa3f", "type": "electric_scooter", "is_reserved": 0, "lon": -77.00834583333334}, {"fusion_lat": 0.0, "name": "389d9c2d76b281d99d21f64b37c91cf3", "is_disabled": 0, "rental_uris": {"android": "https://dc.lft.to/lastmile_qr_scan", "ios": "https://dc.lft.to/lastmile_qr_scan"}, "fusion_lon": 0.0, "lat": 38.90952633333333, "bike_id": "389d9c2d76b281d99d21f64b37c91cf3", "type": "electric_scooter", "is_reserved": 0, "lon": -77.0344395}, {"fusion_lat": 0.0, "name": "e6bc1a50cf205311bd5d85c5bf8dc3d0", "is_disabled": 0, "rental_uris": {"android": "https://dc.lft.to/lastmile_qr_scan", "ios": "https://dc.lft.to/lastmile_qr_scan"}, "fusion_lon": 0.0, "lat": 38.91682516666667, "bike_id": "e6bc1a50cf205311bd5d85c5bf8dc3d0", "type": "electric_scooter", "is_reserved": 0, "lon": -77.041377}, {"fusion_lat": 0.0, "name": "aaf3b1cdd873cee9498d548b71aad644", "is_disabled": 0, "rental_uris": {"android": "https://dc.lft.to/lastmile_qr_scan", "ios": "https://dc.lft.to/lastmile_qr_scan"}, "fusion_lon": 0.0, "lat": 38.918041333333335, "bike_id": "aaf3b1cdd873cee9498d548b71aad644", "type": "electric_scooter", "is_reserved": 0, "lon": -77.04014333333333}, {"fusion_lat": 0.0, "name": "39e6e5ec927ce0ad7cc329a0065261df", "is_disabled": 0, "rental_uris": {"android": "https://dc.lft.to/lastmile_qr_scan", "ios": "https://dc.lft.to/lastmile_qr_scan"}, "fusion_lon": 0.0, "lat": 38.887216, "bike_id": "39e6e5ec927ce0ad7cc329a0065261df", "type": "electric_scooter", "is_reserved": 0, "lon": -76.996442}, {"fusion_lat": 0.0, "name": "d864f3602f8fd0679c83bfc6e981d7b6", "is_disabled": 0, "rental_uris": {"android": "https://dc.lft.to/lastmile_qr_scan", "ios": "https://dc.lft.to/lastmile_qr_scan"}, "fusion_lon": 0.0, "lat": 38.920745, "bike_id": "d864f3602f8fd0679c83bfc6e981d7b6", "type": "electric_scooter", "is_reserved": 0, "lon": -77.02224266666667}, {"fusion_lat": 0.0, "name": "2e3b74af9bbc5fd9c937a069fee8ec63", "is_disabled": 0, "rental_uris": {"android": "https://dc.lft.to/lastmile_qr_scan", "ios": "https://dc.lft.to/lastmile_qr_scan"}, "fusion_lon": 0.0, "lat": 38.918417, "bike_id": "2e3b74af9bbc5fd9c937a069fee8ec63", "type": "electric_scooter", "is_reserved": 0, "lon": -76.965444}, {"fusion_lat": 0.0, "name": "1c3b49237e49ed4c776790c71bc3fe7d", "is_disabled": 0, "rental_uris": {"android": "https://dc.lft.to/lastmile_qr_scan", "ios": "https://dc.lft.to/lastmile_qr_scan"}, "fusion_lon": 0.0, "lat": 38.908433333333335, "bike_id": "1c3b49237e49ed4c776790c71bc3fe7d", "type": "electric_scooter", "is_reserved": 0, "lon": -77.02596216666667}, {"fusion_lat": 0.0, "name": "ba736c9b2fcded24465a35247d38fb7b", "is_disabled": 0, "rental_uris": {"android": "https://dc.lft.to/lastmile_qr_scan", "ios": "https://dc.lft.to/lastmile_qr_scan"}, "fusion_lon": 0.0, "lat": 38.92886, "bike_id": "ba736c9b2fcded24465a35247d38fb7b", "type": "electric_scooter", "is_reserved": 0, "lon": -77.03749333333333}, {"fusion_lat": 0.0, "name": "c8b0b5c7043fb5198420dc27a06f4456", "is_disabled": 0, "rental_uris": {"android": "https://dc.lft.to/lastmile_qr_scan", "ios": "https://dc.lft.to/lastmile_qr_scan"}, "fusion_lon": 0.0, "lat": 38.923127, "bike_id": "c8b0b5c7043fb5198420dc27a06f4456", "type": "electric_scooter", "is_reserved": 0, "lon": -77.04129066666667}, {"fusion_lat": 0.0, "name": "ad0d8cc7f074464559d92be261796daa", "is_disabled": 0, "rental_uris": {"android": "https://dc.lft.to/lastmile_qr_scan", "ios": "https://dc.lft.to/lastmile_qr_scan"}, "fusion_lon": 0.0, "lat": 38.908493666666665, "bike_id": "ad0d8cc7f074464559d92be261796daa", "type": "electric_scooter", "is_reserved": 0, "lon": -76.997636}, {"fusion_lat": 0.0, "name": "7110fdf457b7771eda3223c0880bb090", "is_disabled": 0, "rental_uris": {"android": "https://dc.lft.to/lastmile_qr_scan", "ios": "https://dc.lft.to/lastmile_qr_scan"}, "fusion_lon": 0.0, "lat": 38.914180333333334, "bike_id": "7110fdf457b7771eda3223c0880bb090", "type": "electric_scooter", "is_reserved": 0, "lon": -77.02808616666667}, {"fusion_lat": 0.0, "name": "5bd79df7a52d9fe995fcbf482e3896bd", "is_disabled": 0, "rental_uris": {"android": "https://dc.lft.to/lastmile_qr_scan", "ios": "https://dc.lft.to/lastmile_qr_scan"}, "fusion_lon": 0.0, "lat": 38.917028, "bike_id": "5bd79df7a52d9fe995fcbf482e3896bd", "type": "electric_scooter", "is_reserved": 0, "lon": -77.02419316666666}, {"fusion_lat": 0.0, "name": "01a7049756be1f410de4a42c0ff09cdc", "is_disabled": 0, "rental_uris": {"android": "https://dc.lft.to/lastmile_qr_scan", "ios": "https://dc.lft.to/lastmile_qr_scan"}, "fusion_lon": 0.0, "lat": 38.919139666666666, "bike_id": "01a7049756be1f410de4a42c0ff09cdc", "type": "electric_scooter", "is_reserved": 0, "lon": -77.02817966666667}, {"fusion_lat": 0.0, "name": "ab72575883048ab5efb2f565a4e86c74", "is_disabled": 0, "rental_uris": {"android": "https://dc.lft.to/lastmile_qr_scan", "ios": "https://dc.lft.to/lastmile_qr_scan"}, "fusion_lon": 0.0, "lat": 38.901514, "bike_id": "ab72575883048ab5efb2f565a4e86c74", "type": "electric_scooter", "is_reserved": 0, "lon": -76.93063333333333}, {"fusion_lat": 0.0, "name": "04b25ec329b2d49da6975998bbaf35b0", "is_disabled": 0, "rental_uris": {"android": "https://dc.lft.to/lastmile_qr_scan", "ios": "https://dc.lft.to/lastmile_qr_scan"}, "fusion_lon": 0.0, "lat": 38.92231833333334, "bike_id": "04b25ec329b2d49da6975998bbaf35b0", "type": "electric_scooter", "is_reserved": 0, "lon": -77.04253183333333}, {"fusion_lat": 0.0, "name": "158673ec7fd54387fffb518353e86d01", "is_disabled": 0, "rental_uris": {"android": "https://dc.lft.to/lastmile_qr_scan", "ios": "https://dc.lft.to/lastmile_qr_scan"}, "fusion_lon": 0.0, "lat": 38.92870966666667, "bike_id": "158673ec7fd54387fffb518353e86d01", "type": "electric_scooter", "is_reserved": 0, "lon": -77.034488}, {"fusion_lat": 0.0, "name": "040962b0461791519126b4b3da9cdec8", "is_disabled": 0, "rental_uris": {"android": "https://dc.lft.to/lastmile_qr_scan", "ios": "https://dc.lft.to/lastmile_qr_scan"}, "fusion_lon": 0.0, "lat": 38.961279166666664, "bike_id": "040962b0461791519126b4b3da9cdec8", "type": "electric_bike", "is_reserved": 0, "lon": -77.03265916666666}, {"fusion_lat": 0.0, "name": "74e89847ce55f5fa3586fd4434b70fee", "is_disabled": 0, "rental_uris": {"android": "https://dc.lft.to/lastmile_qr_scan", "ios": "https://dc.lft.to/lastmile_qr_scan"}, "fusion_lon": 0.0, "lat": 38.93566533333333, "bike_id": "74e89847ce55f5fa3586fd4434b70fee", "type": "electric_bike", "is_reserved": 0, "lon": -77.03741283333333}, {"fusion_lat": 0.0, "name": "d80a3463c08091ff2d7590815e2afbda", "is_disabled": 0, "rental_uris": {"android": "https://dc.lft.to/lastmile_qr_scan", "ios": "https://dc.lft.to/lastmile_qr_scan"}, "fusion_lon": 0.0, "lat": 38.92408916666667, "bike_id": "d80a3463c08091ff2d7590815e2afbda", "type": "electric_scooter", "is_reserved": 0, "lon": -77.05169183333334}, {"fusion_lat": 0.0, "name": "2f2723e44f63b53c03f381f7cc55b194", "is_disabled": 0, "rental_uris": {"android": "https://dc.lft.to/lastmile_qr_scan", "ios": "https://dc.lft.to/lastmile_qr_scan"}, "fusion_lon": 0.0, "lat": 38.9154975, "bike_id": "2f2723e44f63b53c03f381f7cc55b194", "type": "electric_scooter", "is_reserved": 0, "lon": -77.029837}, {"fusion_lat": 0.0, "name": "18dcc7ae47b1230d93637a9a8112094e", "is_disabled": 0, "rental_uris": {"android": "https://dc.lft.to/lastmile_qr_scan", "ios": "https://dc.lft.to/lastmile_qr_scan"}, "fusion_lon": 0.0, "lat": 38.921235833333334, "bike_id": "18dcc7ae47b1230d93637a9a8112094e", "type": "electric_scooter", "is_reserved": 0, "lon": -77.04576433333334}, {"fusion_lat": 0.0, "name": "94d596f877678376214cba8490f8771e", "is_disabled": 0, "rental_uris": {"android": "https://dc.lft.to/lastmile_qr_scan", "ios": "https://dc.lft.to/lastmile_qr_scan"}, "fusion_lon": 0.0, "lat": 38.9170545, "bike_id": "94d596f877678376214cba8490f8771e", "type": "electric_scooter", "is_reserved": 0, "lon": -77.0400625}, {"fusion_lat": 0.0, "name": "03c3ff271d76c605ee17dce8d1590b95", "is_disabled": 0, "rental_uris": {"android": "https://dc.lft.to/lastmile_qr_scan", "ios": "https://dc.lft.to/lastmile_qr_scan"}, "fusion_lon": 0.0, "lat": 38.84281416666666, "bike_id": "03c3ff271d76c605ee17dce8d1590b95", "type": "electric_bike", "is_reserved": 0, "lon": -77.045051}, {"fusion_lat": 0.0, "name": "3737779f1ead148f45c8ac139e9a7fd4", "is_disabled": 0, "rental_uris": {"android": "https://dc.lft.to/lastmile_qr_scan", "ios": "https://dc.lft.to/lastmile_qr_scan"}, "fusion_lon": 0.0, "lat": 38.8580145, "bike_id": "3737779f1ead148f45c8ac139e9a7fd4", "type": "electric_bike", "is_reserved": 0, "lon": -77.05140433333334}, {"fusion_lat": 0.0, "name": "56201e3853ccf55485cb7e8d8cfdb1eb", "is_disabled": 0, "rental_uris": {"android": "https://dc.lft.to/lastmile_qr_scan", "ios": "https://dc.lft.to/lastmile_qr_scan"}, "fusion_lon": 0.0, "lat": 38.886723333333336, "bike_id": "56201e3853ccf55485cb7e8d8cfdb1eb", "type": "electric_bike", "is_reserved": 0, "lon": -77.16258633333334}, {"fusion_lat": 0.0, "name": "3b57b5b75533b26befcd9b74333774cf", "is_disabled": 0, "rental_uris": {"android": "https://dc.lft.to/lastmile_qr_scan", "ios": "https://dc.lft.to/lastmile_qr_scan"}, "fusion_lon": 0.0, "lat": 38.910198666666666, "bike_id": "3b57b5b75533b26befcd9b74333774cf", "type": "electric_scooter", "is_reserved": 0, "lon": -77.033163}, {"fusion_lat": 0.0, "name": "7f45694b15ae1664703a77af402e8611", "is_disabled": 0, "rental_uris": {"android": "https://dc.lft.to/lastmile_qr_scan", "ios": "https://dc.lft.to/lastmile_qr_scan"}, "fusion_lon": 0.0, "lat": 38.892217, "bike_id": "7f45694b15ae1664703a77af402e8611", "type": "electric_scooter", "is_reserved": 0, "lon": -77.0263275}, {"fusion_lat": 0.0, "name": "11850e8c0bbad2881f5473d2fff49548", "is_disabled": 0, "rental_uris": {"android": "https://dc.lft.to/lastmile_qr_scan", "ios": "https://dc.lft.to/lastmile_qr_scan"}, "fusion_lon": 0.0, "lat": 38.903317666666666, "bike_id": "11850e8c0bbad2881f5473d2fff49548", "type": "electric_bike", "is_reserved": 0, "lon": -76.9753}, {"fusion_lat": 0.0, "name": "8e9d8e764a4cef8a22bbf0ce327ee1b3", "is_disabled": 0, "rental_uris": {"android": "https://dc.lft.to/lastmile_qr_scan", "ios": "https://dc.lft.to/lastmile_qr_scan"}, "fusion_lon": 0.0, "lat": 38.94342533333333, "bike_id": "8e9d8e764a4cef8a22bbf0ce327ee1b3", "type": "electric_scooter", "is_reserved": 0, "lon": -77.03248633333334}, {"fusion_lat": 0.0, "name": "d8c7c73111e0f7d9baef114238ecb849", "is_disabled": 0, "rental_uris": {"android": "https://dc.lft.to/lastmile_qr_scan", "ios": "https://dc.lft.to/lastmile_qr_scan"}, "fusion_lon": 0.0, "lat": 38.905444333333335, "bike_id": "d8c7c73111e0f7d9baef114238ecb849", "type": "electric_scooter", "is_reserved": 0, "lon": -77.004288}, {"fusion_lat": 0.0, "name": "4205e44837cfe1825f9a2ed53f00e451", "is_disabled": 0, "rental_uris": {"android": "https://dc.lft.to/lastmile_qr_scan", "ios": "https://dc.lft.to/lastmile_qr_scan"}, "fusion_lon": 0.0, "lat": 38.907328666666665, "bike_id": "4205e44837cfe1825f9a2ed53f00e451", "type": "electric_scooter", "is_reserved": 0, "lon": -77.03448666666667}, {"fusion_lat": 0.0, "name": "60069216aedd73b6302870049f27fbf9", "is_disabled": 0, "rental_uris": {"android": "https://dc.lft.to/lastmile_qr_scan", "ios": "https://dc.lft.to/lastmile_qr_scan"}, "fusion_lon": 0.0, "lat": 38.92756716666667, "bike_id": "60069216aedd73b6302870049f27fbf9", "type": "electric_scooter", "is_reserved": 0, "lon": -77.02448666666666}, {"fusion_lat": 0.0, "name": "22d4ffc1260a8b8663802929123d1703", "is_disabled": 0, "rental_uris": {"android": "https://dc.lft.to/lastmile_qr_scan", "ios": "https://dc.lft.to/lastmile_qr_scan"}, "fusion_lon": 0.0, "lat": 38.90806, "bike_id": "22d4ffc1260a8b8663802929123d1703", "type": "electric_scooter", "is_reserved": 0, "lon": -77.04303666666667}, {"fusion_lat": 0.0, "name": "04d2df72e65b3015871a293c4bb29dc8", "is_disabled": 0, "rental_uris": {"android": "https://dc.lft.to/lastmile_qr_scan", "ios": "https://dc.lft.to/lastmile_qr_scan"}, "fusion_lon": 0.0, "lat": 38.94412633333334, "bike_id": "04d2df72e65b3015871a293c4bb29dc8", "type": "electric_scooter", "is_reserved": 0, "lon": -77.063215}, {"fusion_lat": 0.0, "name": "682a92586a223076fcdd13dbcedb7a22", "is_disabled": 0, "rental_uris": {"android": "https://dc.lft.to/lastmile_qr_scan", "ios": "https://dc.lft.to/lastmile_qr_scan"}, "fusion_lon": 0.0, "lat": 38.936044833333334, "bike_id": "682a92586a223076fcdd13dbcedb7a22", "type": "electric_scooter", "is_reserved": 0, "lon": -77.05857616666667}, {"fusion_lat": 0.0, "name": "9d4af14edf4a73fac43828bd94d7cbe3", "is_disabled": 0, "rental_uris": {"android": "https://dc.lft.to/lastmile_qr_scan", "ios": "https://dc.lft.to/lastmile_qr_scan"}, "fusion_lon": 0.0, "lat": 38.92988483333333, "bike_id": "9d4af14edf4a73fac43828bd94d7cbe3", "type": "electric_scooter", "is_reserved": 0, "lon": -77.05508116666667}, {"fusion_lat": 0.0, "name": "863004d8bf5cee629f0a1385ca35e612", "is_disabled": 0, "rental_uris": {"android": "https://dc.lft.to/lastmile_qr_scan", "ios": "https://dc.lft.to/lastmile_qr_scan"}, "fusion_lon": 0.0, "lat": 38.90567433333333, "bike_id": "863004d8bf5cee629f0a1385ca35e612", "type": "electric_scooter", "is_reserved": 0, "lon": -77.00811716666666}, {"fusion_lat": 0.0, "name": "2b6ee9c52d8a57ab4a300614f6afe36c", "is_disabled": 0, "rental_uris": {"android": "https://dc.lft.to/lastmile_qr_scan", "ios": "https://dc.lft.to/lastmile_qr_scan"}, "fusion_lon": 0.0, "lat": 38.92236966666667, "bike_id": "2b6ee9c52d8a57ab4a300614f6afe36c", "type": "electric_scooter", "is_reserved": 0, "lon": -77.04247233333334}, {"fusion_lat": 0.0, "name": "0ec3e0675926c029b12676a528605e08", "is_disabled": 0, "rental_uris": {"android": "https://dc.lft.to/lastmile_qr_scan", "ios": "https://dc.lft.to/lastmile_qr_scan"}, "fusion_lon": 0.0, "lat": 38.92359533333333, "bike_id": "0ec3e0675926c029b12676a528605e08", "type": "electric_scooter", "is_reserved": 0, "lon": -77.05033183333333}, {"fusion_lat": 0.0, "name": "42fdb61c784110ec3519bf4ff6fe8011", "is_disabled": 0, "rental_uris": {"android": "https://dc.lft.to/lastmile_qr_scan", "ios": "https://dc.lft.to/lastmile_qr_scan"}, "fusion_lon": 0.0, "lat": 38.92745583333333, "bike_id": "42fdb61c784110ec3519bf4ff6fe8011", "type": "electric_scooter", "is_reserved": 0, "lon": -77.032414}, {"fusion_lat": 0.0, "name": "bf3fcbbe2e035fa855f53ace2ab7133a", "is_disabled": 0, "rental_uris": {"android": "https://dc.lft.to/lastmile_qr_scan", "ios": "https://dc.lft.to/lastmile_qr_scan"}, "fusion_lon": 0.0, "lat": 38.9077005, "bike_id": "bf3fcbbe2e035fa855f53ace2ab7133a", "type": "electric_scooter", "is_reserved": 0, "lon": -77.03573133333333}, {"fusion_lat": 0.0, "name": "0c6d8c62cf9d445f09ce8eed22cc4ef8", "is_disabled": 0, "rental_uris": {"android": "https://dc.lft.to/lastmile_qr_scan", "ios": "https://dc.lft.to/lastmile_qr_scan"}, "fusion_lon": 0.0, "lat": 38.89222133333333, "bike_id": "0c6d8c62cf9d445f09ce8eed22cc4ef8", "type": "electric_scooter", "is_reserved": 0, "lon": -77.0432365}, {"fusion_lat": 0.0, "name": "80da7c1356b7f3f25227e66d5fb55189", "is_disabled": 0, "rental_uris": {"android": "https://dc.lft.to/lastmile_qr_scan", "ios": "https://dc.lft.to/lastmile_qr_scan"}, "fusion_lon": 0.0, "lat": 38.906400166666664, "bike_id": "80da7c1356b7f3f25227e66d5fb55189", "type": "electric_scooter", "is_reserved": 0, "lon": -77.043384}, {"fusion_lat": 0.0, "name": "c3d05fe4e82f2ee4e7f9ba935d2668fc", "is_disabled": 0, "rental_uris": {"android": "https://dc.lft.to/lastmile_qr_scan", "ios": "https://dc.lft.to/lastmile_qr_scan"}, "fusion_lon": 0.0, "lat": 38.89229016666667, "bike_id": "c3d05fe4e82f2ee4e7f9ba935d2668fc", "type": "electric_scooter", "is_reserved": 0, "lon": -77.0486945}, {"fusion_lat": 0.0, "name": "a8a92ee1341ced98bea68b5decdaff93", "is_disabled": 0, "rental_uris": {"android": "https://dc.lft.to/lastmile_qr_scan", "ios": "https://dc.lft.to/lastmile_qr_scan"}, "fusion_lon": 0.0, "lat": 38.99509116666667, "bike_id": "a8a92ee1341ced98bea68b5decdaff93", "type": "electric_bike", "is_reserved": 0, "lon": -77.02888466666667}, {"fusion_lat": 0.0, "name": "b6aad45ad7923e363e6a4ba51fe7432b", "is_disabled": 0, "rental_uris": {"android": "https://dc.lft.to/lastmile_qr_scan", "ios": "https://dc.lft.to/lastmile_qr_scan"}, "fusion_lon": 0.0, "lat": 38.911226166666665, "bike_id": "b6aad45ad7923e363e6a4ba51fe7432b", "type": "electric_scooter", "is_reserved": 0, "lon": -77.0372815}, {"fusion_lat": 0.0, "name": "0dd862d8504b520859b47a30398a6065", "is_disabled": 0, "rental_uris": {"android": "https://dc.lft.to/lastmile_qr_scan", "ios": "https://dc.lft.to/lastmile_qr_scan"}, "fusion_lon": 0.0, "lat": 38.90226466666667, "bike_id": "0dd862d8504b520859b47a30398a6065", "type": "electric_scooter", "is_reserved": 0, "lon": -77.0548045}, {"fusion_lat": 0.0, "name": "a86781cadfdefa5c0ec8046b5aea50a8", "is_disabled": 0, "rental_uris": {"android": "https://dc.lft.to/lastmile_qr_scan", "ios": "https://dc.lft.to/lastmile_qr_scan"}, "fusion_lon": 0.0, "lat": 38.89743516666667, "bike_id": "a86781cadfdefa5c0ec8046b5aea50a8", "type": "electric_scooter", "is_reserved": 0, "lon": -77.00367766666666}, {"fusion_lat": 0.0, "name": "2f33a158079f4f41377af1a38042f7fc", "is_disabled": 0, "rental_uris": {"android": "https://dc.lft.to/lastmile_qr_scan", "ios": "https://dc.lft.to/lastmile_qr_scan"}, "fusion_lon": 0.0, "lat": 38.90375316666667, "bike_id": "2f33a158079f4f41377af1a38042f7fc", "type": "electric_scooter", "is_reserved": 0, "lon": -77.0174715}, {"fusion_lat": 0.0, "name": "34d685339ac8dfeacac31b86005f4e7f", "is_disabled": 0, "rental_uris": {"android": "https://dc.lft.to/lastmile_qr_scan", "ios": "https://dc.lft.to/lastmile_qr_scan"}, "fusion_lon": 0.0, "lat": 38.91406766666667, "bike_id": "34d685339ac8dfeacac31b86005f4e7f", "type": "electric_scooter", "is_reserved": 0, "lon": -77.03995466666667}, {"fusion_lat": 0.0, "name": "751eaf251a1e720be8d56dede2023701", "is_disabled": 0, "rental_uris": {"android": "https://dc.lft.to/lastmile_qr_scan", "ios": "https://dc.lft.to/lastmile_qr_scan"}, "fusion_lon": 0.0, "lat": 38.911151333333336, "bike_id": "751eaf251a1e720be8d56dede2023701", "type": "electric_scooter", "is_reserved": 0, "lon": -77.0040835}, {"fusion_lat": 0.0, "name": "27f6067396e177adb2b51fc300449adc", "is_disabled": 0, "rental_uris": {"android": "https://dc.lft.to/lastmile_qr_scan", "ios": "https://dc.lft.to/lastmile_qr_scan"}, "fusion_lon": 0.0, "lat": 38.92088783333333, "bike_id": "27f6067396e177adb2b51fc300449adc", "type": "electric_scooter", "is_reserved": 0, "lon": -77.02394666666666}, {"fusion_lat": 0.0, "name": "7f28a631e24de47cb66cb48b41ba42d5", "is_disabled": 0, "rental_uris": {"android": "https://dc.lft.to/lastmile_qr_scan", "ios": "https://dc.lft.to/lastmile_qr_scan"}, "fusion_lon": 0.0, "lat": 38.88182616666667, "bike_id": "7f28a631e24de47cb66cb48b41ba42d5", "type": "electric_bike", "is_reserved": 0, "lon": -77.08633083333334}, {"fusion_lat": 0.0, "name": "557a712c30f6bbaebdede23f305fc6e7", "is_disabled": 0, "rental_uris": {"android": "https://dc.lft.to/lastmile_qr_scan", "ios": "https://dc.lft.to/lastmile_qr_scan"}, "fusion_lon": 0.0, "lat": 38.9078135, "bike_id": "557a712c30f6bbaebdede23f305fc6e7", "type": "electric_scooter", "is_reserved": 0, "lon": -77.0725065}, {"fusion_lat": 0.0, "name": "c92410260e2de1263a2a7330664ae5de", "is_disabled": 0, "rental_uris": {"android": "https://dc.lft.to/lastmile_qr_scan", "ios": "https://dc.lft.to/lastmile_qr_scan"}, "fusion_lon": 0.0, "lat": 38.897269666666666, "bike_id": "c92410260e2de1263a2a7330664ae5de", "type": "electric_scooter", "is_reserved": 0, "lon": -76.99136533333333}, {"fusion_lat": 0.0, "name": "5c58218fa4c84e7915859fbf7b85423d", "is_disabled": 0, "rental_uris": {"android": "https://dc.lft.to/lastmile_qr_scan", "ios": "https://dc.lft.to/lastmile_qr_scan"}, "fusion_lon": 0.0, "lat": 38.903602666666664, "bike_id": "5c58218fa4c84e7915859fbf7b85423d", "type": "electric_scooter", "is_reserved": 0, "lon": -77.045029}, {"fusion_lat": 0.0, "name": "2857d467f017f5766fe451a28ce6e38e", "is_disabled": 0, "rental_uris": {"android": "https://dc.lft.to/lastmile_qr_scan", "ios": "https://dc.lft.to/lastmile_qr_scan"}, "fusion_lon": 0.0, "lat": 38.935792, "bike_id": "2857d467f017f5766fe451a28ce6e38e", "type": "electric_scooter", "is_reserved": 0, "lon": -77.02124583333334}, {"fusion_lat": 0.0, "name": "deb86fc7d4975b2ea4ef523a6e50abaa", "is_disabled": 0, "rental_uris": {"android": "https://dc.lft.to/lastmile_qr_scan", "ios": "https://dc.lft.to/lastmile_qr_scan"}, "fusion_lon": 0.0, "lat": 38.90231, "bike_id": "deb86fc7d4975b2ea4ef523a6e50abaa", "type": "electric_scooter", "is_reserved": 0, "lon": -77.04256766666667}, {"fusion_lat": 0.0, "name": "7c9465bb6443a5df4caa2d83baa6df19", "is_disabled": 0, "rental_uris": {"android": "https://dc.lft.to/lastmile_qr_scan", "ios": "https://dc.lft.to/lastmile_qr_scan"}, "fusion_lon": 0.0, "lat": 38.920834, "bike_id": "7c9465bb6443a5df4caa2d83baa6df19", "type": "electric_scooter", "is_reserved": 0, "lon": -77.02562566666667}, {"fusion_lat": 0.0, "name": "1b203efdfdb25cf3e784468100d3cb4b", "is_disabled": 0, "rental_uris": {"android": "https://dc.lft.to/lastmile_qr_scan", "ios": "https://dc.lft.to/lastmile_qr_scan"}, "fusion_lon": 0.0, "lat": 38.9245545, "bike_id": "1b203efdfdb25cf3e784468100d3cb4b", "type": "electric_scooter", "is_reserved": 0, "lon": -77.03962416666667}, {"fusion_lat": 0.0, "name": "edd1a3317c1d83417042ac907d98b2de", "is_disabled": 0, "rental_uris": {"android": "https://dc.lft.to/lastmile_qr_scan", "ios": "https://dc.lft.to/lastmile_qr_scan"}, "fusion_lon": 0.0, "lat": 38.944193166666665, "bike_id": "edd1a3317c1d83417042ac907d98b2de", "type": "electric_scooter", "is_reserved": 0, "lon": -77.06325966666667}, {"fusion_lat": 0.0, "name": "760f7885c53e9e17dfc15bc65db72bb5", "is_disabled": 0, "rental_uris": {"android": "https://dc.lft.to/lastmile_qr_scan", "ios": "https://dc.lft.to/lastmile_qr_scan"}, "fusion_lon": 0.0, "lat": 38.8958, "bike_id": "760f7885c53e9e17dfc15bc65db72bb5", "type": "electric_scooter", "is_reserved": 0, "lon": -76.98321483333334}, {"fusion_lat": 0.0, "name": "2c36578125a9b92a12d6d6333c205475", "is_disabled": 0, "rental_uris": {"android": "https://dc.lft.to/lastmile_qr_scan", "ios": "https://dc.lft.to/lastmile_qr_scan"}, "fusion_lon": 0.0, "lat": 38.879279, "bike_id": "2c36578125a9b92a12d6d6333c205475", "type": "electric_scooter", "is_reserved": 0, "lon": -77.02366333333333}, {"fusion_lat": 0.0, "name": "2affc2b7acd8dac91fbdea8ccbbb1c5c", "is_disabled": 0, "rental_uris": {"android": "https://dc.lft.to/lastmile_qr_scan", "ios": "https://dc.lft.to/lastmile_qr_scan"}, "fusion_lon": 0.0, "lat": 38.92338066666667, "bike_id": "2affc2b7acd8dac91fbdea8ccbbb1c5c", "type": "electric_scooter", "is_reserved": 0, "lon": -77.0529975}, {"fusion_lat": 0.0, "name": "c1bc0793e9681d3175989baefbd70b14", "is_disabled": 0, "rental_uris": {"android": "https://dc.lft.to/lastmile_qr_scan", "ios": "https://dc.lft.to/lastmile_qr_scan"}, "fusion_lon": 0.0, "lat": 38.90733183333333, "bike_id": "c1bc0793e9681d3175989baefbd70b14", "type": "electric_scooter", "is_reserved": 0, "lon": -77.00760616666666}, {"fusion_lat": 0.0, "name": "6b697e6281885087091be836b95bfc7f", "is_disabled": 0, "rental_uris": {"android": "https://dc.lft.to/lastmile_qr_scan", "ios": "https://dc.lft.to/lastmile_qr_scan"}, "fusion_lon": 0.0, "lat": 38.920999333333334, "bike_id": "6b697e6281885087091be836b95bfc7f", "type": "electric_scooter", "is_reserved": 0, "lon": -77.01783066666667}, {"fusion_lat": 0.0, "name": "dd34c69ff4f701fb78dfe694ad401b45", "is_disabled": 0, "rental_uris": {"android": "https://dc.lft.to/lastmile_qr_scan", "ios": "https://dc.lft.to/lastmile_qr_scan"}, "fusion_lon": 0.0, "lat": 38.90022966666667, "bike_id": "dd34c69ff4f701fb78dfe694ad401b45", "type": "electric_scooter", "is_reserved": 0, "lon": -76.97402316666667}, {"fusion_lat": 0.0, "name": "52739db7f558c8df9ba2abf88a721b98", "is_disabled": 0, "rental_uris": {"android": "https://dc.lft.to/lastmile_qr_scan", "ios": "https://dc.lft.to/lastmile_qr_scan"}, "fusion_lon": 0.0, "lat": 38.92965783333333, "bike_id": "52739db7f558c8df9ba2abf88a721b98", "type": "electric_scooter", "is_reserved": 0, "lon": -77.05520766666666}, {"fusion_lat": 0.0, "name": "8e40e06605d9bf5906bf3430e8f8f541", "is_disabled": 0, "rental_uris": {"android": "https://dc.lft.to/lastmile_qr_scan", "ios": "https://dc.lft.to/lastmile_qr_scan"}, "fusion_lon": 0.0, "lat": 38.887631, "bike_id": "8e40e06605d9bf5906bf3430e8f8f541", "type": "electric_scooter", "is_reserved": 0, "lon": -77.03358066666667}, {"fusion_lat": 0.0, "name": "285b41cf7a1ca906987314eb4da5b29a", "is_disabled": 0, "rental_uris": {"android": "https://dc.lft.to/lastmile_qr_scan", "ios": "https://dc.lft.to/lastmile_qr_scan"}, "fusion_lon": 0.0, "lat": 38.915393, "bike_id": "285b41cf7a1ca906987314eb4da5b29a", "type": "electric_scooter", "is_reserved": 0, "lon": -77.0121835}, {"fusion_lat": 0.0, "name": "4374809290da61c990a492be84cc2507", "is_disabled": 0, "rental_uris": {"android": "https://dc.lft.to/lastmile_qr_scan", "ios": "https://dc.lft.to/lastmile_qr_scan"}, "fusion_lon": 0.0, "lat": 38.91989183333333, "bike_id": "4374809290da61c990a492be84cc2507", "type": "electric_scooter", "is_reserved": 0, "lon": -77.02181733333333}, {"fusion_lat": 0.0, "name": "f07e46e1ad0f70d494db995af4041ae9", "is_disabled": 0, "rental_uris": {"android": "https://dc.lft.to/lastmile_qr_scan", "ios": "https://dc.lft.to/lastmile_qr_scan"}, "fusion_lon": 0.0, "lat": 38.92228, "bike_id": "f07e46e1ad0f70d494db995af4041ae9", "type": "electric_bike", "is_reserved": 0, "lon": -77.0234025}, {"fusion_lat": 0.0, "name": "fad22738f10f4a129624278ec6037fd6", "is_disabled": 0, "rental_uris": {"android": "https://dc.lft.to/lastmile_qr_scan", "ios": "https://dc.lft.to/lastmile_qr_scan"}, "fusion_lon": 0.0, "lat": 38.89820133333333, "bike_id": "fad22738f10f4a129624278ec6037fd6", "type": "electric_scooter", "is_reserved": 0, "lon": -77.0247875}, {"fusion_lat": 0.0, "name": "cf6f2b91fbf0035e6ae3a0e1019a5e55", "is_disabled": 0, "rental_uris": {"android": "https://dc.lft.to/lastmile_qr_scan", "ios": "https://dc.lft.to/lastmile_qr_scan"}, "fusion_lon": 0.0, "lat": 38.89219766666667, "bike_id": "cf6f2b91fbf0035e6ae3a0e1019a5e55", "type": "electric_scooter", "is_reserved": 0, "lon": -77.032093}, {"fusion_lat": 0.0, "name": "6b02a36c93e7007117b566fa37f81d16", "is_disabled": 0, "rental_uris": {"android": "https://dc.lft.to/lastmile_qr_scan", "ios": "https://dc.lft.to/lastmile_qr_scan"}, "fusion_lon": 0.0, "lat": 38.923307333333334, "bike_id": "6b02a36c93e7007117b566fa37f81d16", "type": "electric_scooter", "is_reserved": 0, "lon": -77.0567615}, {"fusion_lat": 0.0, "name": "adeb04d273893ce31a124834aadbfa31", "is_disabled": 0, "rental_uris": {"android": "https://dc.lft.to/lastmile_qr_scan", "ios": "https://dc.lft.to/lastmile_qr_scan"}, "fusion_lon": 0.0, "lat": 38.90949333333333, "bike_id": "adeb04d273893ce31a124834aadbfa31", "type": "electric_scooter", "is_reserved": 0, "lon": -76.98765733333333}, {"fusion_lat": 0.0, "name": "baeb7c1fabbdba3c6836b353048c82de", "is_disabled": 0, "rental_uris": {"android": "https://dc.lft.to/lastmile_qr_scan", "ios": "https://dc.lft.to/lastmile_qr_scan"}, "fusion_lon": 0.0, "lat": 38.9066495, "bike_id": "baeb7c1fabbdba3c6836b353048c82de", "type": "electric_scooter", "is_reserved": 0, "lon": -76.99969266666666}, {"fusion_lat": 0.0, "name": "4dd8edae34196672e158824f56f3d210", "is_disabled": 0, "rental_uris": {"android": "https://dc.lft.to/lastmile_qr_scan", "ios": "https://dc.lft.to/lastmile_qr_scan"}, "fusion_lon": 0.0, "lat": 38.91351066666667, "bike_id": "4dd8edae34196672e158824f56f3d210", "type": "electric_scooter", "is_reserved": 0, "lon": -77.02056033333334}, {"fusion_lat": 0.0, "name": "c32327db2a0351a6c3fef2ed91be0533", "is_disabled": 0, "rental_uris": {"android": "https://dc.lft.to/lastmile_qr_scan", "ios": "https://dc.lft.to/lastmile_qr_scan"}, "fusion_lon": 0.0, "lat": 38.876738333333336, "bike_id": "c32327db2a0351a6c3fef2ed91be0533", "type": "electric_scooter", "is_reserved": 0, "lon": -77.003473}, {"fusion_lat": 0.0, "name": "43aac9dd454d3e672a71c4159430855c", "is_disabled": 0, "rental_uris": {"android": "https://dc.lft.to/lastmile_qr_scan", "ios": "https://dc.lft.to/lastmile_qr_scan"}, "fusion_lon": 0.0, "lat": 38.92318083333333, "bike_id": "43aac9dd454d3e672a71c4159430855c", "type": "electric_scooter", "is_reserved": 0, "lon": -77.04043716666666}, {"fusion_lat": 0.0, "name": "7ff1581971131eca37982879b5d1709b", "is_disabled": 0, "rental_uris": {"android": "https://dc.lft.to/lastmile_qr_scan", "ios": "https://dc.lft.to/lastmile_qr_scan"}, "fusion_lon": 0.0, "lat": 38.90353783333333, "bike_id": "7ff1581971131eca37982879b5d1709b", "type": "electric_scooter", "is_reserved": 0, "lon": -76.97479216666666}, {"fusion_lat": 0.0, "name": "de538357dfc534e943f6495663c9f63e", "is_disabled": 0, "rental_uris": {"android": "https://dc.lft.to/lastmile_qr_scan", "ios": "https://dc.lft.to/lastmile_qr_scan"}, "fusion_lon": 0.0, "lat": 38.923416833333334, "bike_id": "de538357dfc534e943f6495663c9f63e", "type": "electric_scooter", "is_reserved": 0, "lon": -77.05217266666666}, {"fusion_lat": 0.0, "name": "c8842e90355bf111b9439f6154846f39", "is_disabled": 0, "rental_uris": {"android": "https://dc.lft.to/lastmile_qr_scan", "ios": "https://dc.lft.to/lastmile_qr_scan"}, "fusion_lon": 0.0, "lat": 38.922463666666665, "bike_id": "c8842e90355bf111b9439f6154846f39", "type": "electric_scooter", "is_reserved": 0, "lon": -77.03910666666667}, {"fusion_lat": 0.0, "name": "6e086a45e83a3e1e23d54370b36f010e", "is_disabled": 0, "rental_uris": {"android": "https://dc.lft.to/lastmile_qr_scan", "ios": "https://dc.lft.to/lastmile_qr_scan"}, "fusion_lon": 0.0, "lat": 38.931783, "bike_id": "6e086a45e83a3e1e23d54370b36f010e", "type": "electric_scooter", "is_reserved": 0, "lon": -77.01999416666666}, {"fusion_lat": 0.0, "name": "c90f00e3d8b9afd34539b2593fc41b93", "is_disabled": 0, "rental_uris": {"android": "https://dc.lft.to/lastmile_qr_scan", "ios": "https://dc.lft.to/lastmile_qr_scan"}, "fusion_lon": 0.0, "lat": 38.90768933333333, "bike_id": "c90f00e3d8b9afd34539b2593fc41b93", "type": "electric_scooter", "is_reserved": 0, "lon": -77.04279133333333}, {"fusion_lat": 0.0, "name": "ec7dc77fbb4c540d057c4915fce54f89", "is_disabled": 0, "rental_uris": {"android": "https://dc.lft.to/lastmile_qr_scan", "ios": "https://dc.lft.to/lastmile_qr_scan"}, "fusion_lon": 0.0, "lat": 38.9247305, "bike_id": "ec7dc77fbb4c540d057c4915fce54f89", "type": "electric_scooter", "is_reserved": 0, "lon": -77.02077083333333}, {"fusion_lat": 0.0, "name": "79c1652cd2274942a4bd14ea84b366cd", "is_disabled": 0, "rental_uris": {"android": "https://dc.lft.to/lastmile_qr_scan", "ios": "https://dc.lft.to/lastmile_qr_scan"}, "fusion_lon": 0.0, "lat": 38.9035855, "bike_id": "79c1652cd2274942a4bd14ea84b366cd", "type": "electric_scooter", "is_reserved": 0, "lon": -77.0179625}, {"fusion_lat": 0.0, "name": "3f349dbfc1e2ff5571ca71d93d68be64", "is_disabled": 0, "rental_uris": {"android": "https://dc.lft.to/lastmile_qr_scan", "ios": "https://dc.lft.to/lastmile_qr_scan"}, "fusion_lon": 0.0, "lat": 38.87992233333333, "bike_id": "3f349dbfc1e2ff5571ca71d93d68be64", "type": "electric_scooter", "is_reserved": 0, "lon": -76.983825}, {"fusion_lat": 0.0, "name": "c075ee5f26f4528e1c63ad2f881d9a0e", "is_disabled": 0, "rental_uris": {"android": "https://dc.lft.to/lastmile_qr_scan", "ios": "https://dc.lft.to/lastmile_qr_scan"}, "fusion_lon": 0.0, "lat": 38.899717833333334, "bike_id": "c075ee5f26f4528e1c63ad2f881d9a0e", "type": "electric_scooter", "is_reserved": 0, "lon": -77.0527535}, {"fusion_lat": 0.0, "name": "139a64d0480f537b1bae2212fa3340a7", "is_disabled": 0, "rental_uris": {"android": "https://dc.lft.to/lastmile_qr_scan", "ios": "https://dc.lft.to/lastmile_qr_scan"}, "fusion_lon": 0.0, "lat": 38.93094416666667, "bike_id": "139a64d0480f537b1bae2212fa3340a7", "type": "electric_scooter", "is_reserved": 0, "lon": -77.02000733333334}, {"fusion_lat": 0.0, "name": "f33fef4263332404b4f59e2b9cc40136", "is_disabled": 0, "rental_uris": {"android": "https://dc.lft.to/lastmile_qr_scan", "ios": "https://dc.lft.to/lastmile_qr_scan"}, "fusion_lon": 0.0, "lat": 38.89708783333333, "bike_id": "f33fef4263332404b4f59e2b9cc40136", "type": "electric_scooter", "is_reserved": 0, "lon": -77.02462216666666}, {"fusion_lat": 0.0, "name": "1775bd4c046b843763e0d8a1df9d8fb0", "is_disabled": 0, "rental_uris": {"android": "https://dc.lft.to/lastmile_qr_scan", "ios": "https://dc.lft.to/lastmile_qr_scan"}, "fusion_lon": 0.0, "lat": 38.93463066666666, "bike_id": "1775bd4c046b843763e0d8a1df9d8fb0", "type": "electric_scooter", "is_reserved": 0, "lon": -77.04116883333333}, {"fusion_lat": 0.0, "name": "08b19247a116b36992da3db336d60cb9", "is_disabled": 0, "rental_uris": {"android": "https://dc.lft.to/lastmile_qr_scan", "ios": "https://dc.lft.to/lastmile_qr_scan"}, "fusion_lon": 0.0, "lat": 38.88741016666667, "bike_id": "08b19247a116b36992da3db336d60cb9", "type": "electric_scooter", "is_reserved": 0, "lon": -77.01512833333334}, {"fusion_lat": 0.0, "name": "984dcbba697def1e17fb84eb6543460b", "is_disabled": 0, "rental_uris": {"android": "https://dc.lft.to/lastmile_qr_scan", "ios": "https://dc.lft.to/lastmile_qr_scan"}, "fusion_lon": 0.0, "lat": 38.90103833333333, "bike_id": "984dcbba697def1e17fb84eb6543460b", "type": "electric_scooter", "is_reserved": 0, "lon": -76.930412}, {"fusion_lat": 0.0, "name": "96e6e9552d98452e5199803c3a9567b6", "is_disabled": 0, "rental_uris": {"android": "https://dc.lft.to/lastmile_qr_scan", "ios": "https://dc.lft.to/lastmile_qr_scan"}, "fusion_lon": 0.0, "lat": 38.902496166666666, "bike_id": "96e6e9552d98452e5199803c3a9567b6", "type": "electric_scooter", "is_reserved": 0, "lon": -76.98688383333334}, {"fusion_lat": 0.0, "name": "21deaf0a967f2f1bd695c6e6c6ebb918", "is_disabled": 0, "rental_uris": {"android": "https://dc.lft.to/lastmile_qr_scan", "ios": "https://dc.lft.to/lastmile_qr_scan"}, "fusion_lon": 0.0, "lat": 38.92119366666667, "bike_id": "21deaf0a967f2f1bd695c6e6c6ebb918", "type": "electric_scooter", "is_reserved": 0, "lon": -77.04428483333334}, {"fusion_lat": 0.0, "name": "cc242bbe323aad35d5e70c15921581b1", "is_disabled": 0, "rental_uris": {"android": "https://dc.lft.to/lastmile_qr_scan", "ios": "https://dc.lft.to/lastmile_qr_scan"}, "fusion_lon": 0.0, "lat": 38.90078783333333, "bike_id": "cc242bbe323aad35d5e70c15921581b1", "type": "electric_bike", "is_reserved": 0, "lon": -77.0393225}, {"fusion_lat": 0.0, "name": "86acbf3c772e97eb216e4b7fe8d4a179", "is_disabled": 0, "rental_uris": {"android": "https://dc.lft.to/lastmile_qr_scan", "ios": "https://dc.lft.to/lastmile_qr_scan"}, "fusion_lon": 0.0, "lat": 38.911167, "bike_id": "86acbf3c772e97eb216e4b7fe8d4a179", "type": "electric_scooter", "is_reserved": 0, "lon": -77.03444683333333}, {"fusion_lat": 0.0, "name": "bfbb8fa125ec798ad97aa24aa39e6963", "is_disabled": 0, "rental_uris": {"android": "https://dc.lft.to/lastmile_qr_scan", "ios": "https://dc.lft.to/lastmile_qr_scan"}, "fusion_lon": 0.0, "lat": 38.958913833333334, "bike_id": "bfbb8fa125ec798ad97aa24aa39e6963", "type": "electric_scooter", "is_reserved": 0, "lon": -77.00284683333334}, {"fusion_lat": 0.0, "name": "42558b987cd02e60ab4f2c8ba525e02f", "is_disabled": 0, "rental_uris": {"android": "https://dc.lft.to/lastmile_qr_scan", "ios": "https://dc.lft.to/lastmile_qr_scan"}, "fusion_lon": 0.0, "lat": 38.8995705, "bike_id": "42558b987cd02e60ab4f2c8ba525e02f", "type": "electric_scooter", "is_reserved": 0, "lon": -77.02202}, {"fusion_lat": 0.0, "name": "e464640942177c91e4e0eb627af96cb0", "is_disabled": 0, "rental_uris": {"android": "https://dc.lft.to/lastmile_qr_scan", "ios": "https://dc.lft.to/lastmile_qr_scan"}, "fusion_lon": 0.0, "lat": 38.887449833333335, "bike_id": "e464640942177c91e4e0eb627af96cb0", "type": "electric_scooter", "is_reserved": 0, "lon": -77.02129433333333}, {"fusion_lat": 0.0, "name": "63313677aa3861856235366978cb5305", "is_disabled": 0, "rental_uris": {"android": "https://dc.lft.to/lastmile_qr_scan", "ios": "https://dc.lft.to/lastmile_qr_scan"}, "fusion_lon": 0.0, "lat": 38.9245675, "bike_id": "63313677aa3861856235366978cb5305", "type": "electric_scooter", "is_reserved": 0, "lon": -77.03977483333334}, {"fusion_lat": 0.0, "name": "f7bcd8dc16aa7a2c88cbf03392a79ce6", "is_disabled": 0, "rental_uris": {"android": "https://dc.lft.to/lastmile_qr_scan", "ios": "https://dc.lft.to/lastmile_qr_scan"}, "fusion_lon": 0.0, "lat": 38.906734166666666, "bike_id": "f7bcd8dc16aa7a2c88cbf03392a79ce6", "type": "electric_scooter", "is_reserved": 0, "lon": -77.0270625}, {"fusion_lat": 0.0, "name": "29adc6bc696ffa1570547416e2e5096d", "is_disabled": 0, "rental_uris": {"android": "https://dc.lft.to/lastmile_qr_scan", "ios": "https://dc.lft.to/lastmile_qr_scan"}, "fusion_lon": 0.0, "lat": 38.928472, "bike_id": "29adc6bc696ffa1570547416e2e5096d", "type": "electric_scooter", "is_reserved": 0, "lon": -77.01378733333334}, {"fusion_lat": 0.0, "name": "86b520c3193de6442b1a269349b07b81", "is_disabled": 0, "rental_uris": {"android": "https://dc.lft.to/lastmile_qr_scan", "ios": "https://dc.lft.to/lastmile_qr_scan"}, "fusion_lon": 0.0, "lat": 38.92174816666667, "bike_id": "86b520c3193de6442b1a269349b07b81", "type": "electric_scooter", "is_reserved": 0, "lon": -77.04042233333334}, {"fusion_lat": 0.0, "name": "5865e325112bc679be42a8405ca691cc", "is_disabled": 0, "rental_uris": {"android": "https://dc.lft.to/lastmile_qr_scan", "ios": "https://dc.lft.to/lastmile_qr_scan"}, "fusion_lon": 0.0, "lat": 38.87104866666667, "bike_id": "5865e325112bc679be42a8405ca691cc", "type": "electric_scooter", "is_reserved": 0, "lon": -77.0056745}, {"fusion_lat": 0.0, "name": "5c7b3d129e168694a265793006324b27", "is_disabled": 0, "rental_uris": {"android": "https://dc.lft.to/lastmile_qr_scan", "ios": "https://dc.lft.to/lastmile_qr_scan"}, "fusion_lon": 0.0, "lat": 38.92238233333333, "bike_id": "5c7b3d129e168694a265793006324b27", "type": "electric_scooter", "is_reserved": 0, "lon": -77.02910233333333}, {"fusion_lat": 0.0, "name": "fc3d896331e9efeb90450fa72af9ce8f", "is_disabled": 0, "rental_uris": {"android": "https://dc.lft.to/lastmile_qr_scan", "ios": "https://dc.lft.to/lastmile_qr_scan"}, "fusion_lon": 0.0, "lat": 38.9056145, "bike_id": "fc3d896331e9efeb90450fa72af9ce8f", "type": "electric_scooter", "is_reserved": 0, "lon": -77.02095216666666}, {"fusion_lat": 0.0, "name": "08bb389c886aca31186751efa73fbe68", "is_disabled": 0, "rental_uris": {"android": "https://dc.lft.to/lastmile_qr_scan", "ios": "https://dc.lft.to/lastmile_qr_scan"}, "fusion_lon": 0.0, "lat": 38.806713333333335, "bike_id": "08bb389c886aca31186751efa73fbe68", "type": "electric_bike", "is_reserved": 0, "lon": -77.0691805}, {"fusion_lat": 0.0, "name": "29a6c7010e82d04abb0408ee6815657d", "is_disabled": 0, "rental_uris": {"android": "https://dc.lft.to/lastmile_qr_scan", "ios": "https://dc.lft.to/lastmile_qr_scan"}, "fusion_lon": 0.0, "lat": 38.89234116666667, "bike_id": "29a6c7010e82d04abb0408ee6815657d", "type": "electric_scooter", "is_reserved": 0, "lon": -76.9881645}, {"fusion_lat": 0.0, "name": "0488106f6ecfe3499b952d77d4a5299a", "is_disabled": 0, "rental_uris": {"android": "https://dc.lft.to/lastmile_qr_scan", "ios": "https://dc.lft.to/lastmile_qr_scan"}, "fusion_lon": 0.0, "lat": 38.90710816666667, "bike_id": "0488106f6ecfe3499b952d77d4a5299a", "type": "electric_scooter", "is_reserved": 0, "lon": -77.0506415}, {"fusion_lat": 0.0, "name": "bf63cd5ce9ff16a761fe7cd221eaa50f", "is_disabled": 0, "rental_uris": {"android": "https://dc.lft.to/lastmile_qr_scan", "ios": "https://dc.lft.to/lastmile_qr_scan"}, "fusion_lon": 0.0, "lat": 38.948086, "bike_id": "bf63cd5ce9ff16a761fe7cd221eaa50f", "type": "electric_bike", "is_reserved": 0, "lon": -77.0796325}, {"fusion_lat": 0.0, "name": "c17ebb08c602c3a4045d8f0e36012291", "is_disabled": 0, "rental_uris": {"android": "https://dc.lft.to/lastmile_qr_scan", "ios": "https://dc.lft.to/lastmile_qr_scan"}, "fusion_lon": 0.0, "lat": 38.9016855, "bike_id": "c17ebb08c602c3a4045d8f0e36012291", "type": "electric_scooter", "is_reserved": 0, "lon": -76.99262016666667}, {"fusion_lat": 0.0, "name": "39304c0faa01a90a090cdd4e37b27f5d", "is_disabled": 0, "rental_uris": {"android": "https://dc.lft.to/lastmile_qr_scan", "ios": "https://dc.lft.to/lastmile_qr_scan"}, "fusion_lon": 0.0, "lat": 38.905379833333335, "bike_id": "39304c0faa01a90a090cdd4e37b27f5d", "type": "electric_scooter", "is_reserved": 0, "lon": -77.04564716666667}, {"fusion_lat": 0.0, "name": "27a4719fa1c5ff478a8e165113a541f5", "is_disabled": 0, "rental_uris": {"android": "https://dc.lft.to/lastmile_qr_scan", "ios": "https://dc.lft.to/lastmile_qr_scan"}, "fusion_lon": 0.0, "lat": 38.9170095, "bike_id": "27a4719fa1c5ff478a8e165113a541f5", "type": "electric_scooter", "is_reserved": 0, "lon": -77.0096745}, {"fusion_lat": 0.0, "name": "105e72f985f12861d7a9f56c016f6eba", "is_disabled": 0, "rental_uris": {"android": "https://dc.lft.to/lastmile_qr_scan", "ios": "https://dc.lft.to/lastmile_qr_scan"}, "fusion_lon": 0.0, "lat": 38.900969333333336, "bike_id": "105e72f985f12861d7a9f56c016f6eba", "type": "electric_scooter", "is_reserved": 0, "lon": -77.03154233333333}, {"fusion_lat": 0.0, "name": "21c72f554a13dc51f0056f09acfa23f9", "is_disabled": 0, "rental_uris": {"android": "https://dc.lft.to/lastmile_qr_scan", "ios": "https://dc.lft.to/lastmile_qr_scan"}, "fusion_lon": 0.0, "lat": 38.90498433333333, "bike_id": "21c72f554a13dc51f0056f09acfa23f9", "type": "electric_scooter", "is_reserved": 0, "lon": -77.00920616666667}, {"fusion_lat": 0.0, "name": "fc74d9774b5e59a3e5e405bb0a9c3c45", "is_disabled": 0, "rental_uris": {"android": "https://dc.lft.to/lastmile_qr_scan", "ios": "https://dc.lft.to/lastmile_qr_scan"}, "fusion_lon": 0.0, "lat": 38.887345833333335, "bike_id": "fc74d9774b5e59a3e5e405bb0a9c3c45", "type": "electric_scooter", "is_reserved": 0, "lon": -77.01515016666667}, {"fusion_lat": 0.0, "name": "7bbdbc3e7f7e77ab721155b09a3386af", "is_disabled": 0, "rental_uris": {"android": "https://dc.lft.to/lastmile_qr_scan", "ios": "https://dc.lft.to/lastmile_qr_scan"}, "fusion_lon": 0.0, "lat": 38.9408155, "bike_id": "7bbdbc3e7f7e77ab721155b09a3386af", "type": "electric_bike", "is_reserved": 0, "lon": -77.00021183333334}, {"fusion_lat": 0.0, "name": "5890f29dcc071d913441bd7e704d0a39", "is_disabled": 0, "rental_uris": {"android": "https://dc.lft.to/lastmile_qr_scan", "ios": "https://dc.lft.to/lastmile_qr_scan"}, "fusion_lon": 0.0, "lat": 38.917136166666666, "bike_id": "5890f29dcc071d913441bd7e704d0a39", "type": "electric_scooter", "is_reserved": 0, "lon": -77.02947666666667}, {"fusion_lat": 0.0, "name": "82662238d6f2a8e23a6c0ffd4fc3980a", "is_disabled": 0, "rental_uris": {"android": "https://dc.lft.to/lastmile_qr_scan", "ios": "https://dc.lft.to/lastmile_qr_scan"}, "fusion_lon": 0.0, "lat": 38.8872225, "bike_id": "82662238d6f2a8e23a6c0ffd4fc3980a", "type": "electric_scooter", "is_reserved": 0, "lon": -77.02579183333333}, {"fusion_lat": 0.0, "name": "7947af50db3297515f35d2b9ecbae0d8", "is_disabled": 0, "rental_uris": {"android": "https://dc.lft.to/lastmile_qr_scan", "ios": "https://dc.lft.to/lastmile_qr_scan"}, "fusion_lon": 0.0, "lat": 38.90446566666667, "bike_id": "7947af50db3297515f35d2b9ecbae0d8", "type": "electric_scooter", "is_reserved": 0, "lon": -77.05894166666667}, {"fusion_lat": 0.0, "name": "f0629960c3270c0e5a85869115d47acd", "is_disabled": 0, "rental_uris": {"android": "https://dc.lft.to/lastmile_qr_scan", "ios": "https://dc.lft.to/lastmile_qr_scan"}, "fusion_lon": 0.0, "lat": 38.94165066666667, "bike_id": "f0629960c3270c0e5a85869115d47acd", "type": "electric_bike", "is_reserved": 0, "lon": -76.966462}, {"fusion_lat": 0.0, "name": "463e14cd5023e76fe37fc4e3b1f105e7", "is_disabled": 0, "rental_uris": {"android": "https://dc.lft.to/lastmile_qr_scan", "ios": "https://dc.lft.to/lastmile_qr_scan"}, "fusion_lon": 0.0, "lat": 38.89569216666666, "bike_id": "463e14cd5023e76fe37fc4e3b1f105e7", "type": "electric_scooter", "is_reserved": 0, "lon": -77.023878}, {"fusion_lat": 0.0, "name": "8345254fe7a931ba0955ec26077f608e", "is_disabled": 0, "rental_uris": {"android": "https://dc.lft.to/lastmile_qr_scan", "ios": "https://dc.lft.to/lastmile_qr_scan"}, "fusion_lon": 0.0, "lat": 38.9004585, "bike_id": "8345254fe7a931ba0955ec26077f608e", "type": "electric_scooter", "is_reserved": 0, "lon": -77.02409733333333}, {"fusion_lat": 0.0, "name": "bcb4967d9470adf923e5c469884ef187", "is_disabled": 0, "rental_uris": {"android": "https://dc.lft.to/lastmile_qr_scan", "ios": "https://dc.lft.to/lastmile_qr_scan"}, "fusion_lon": 0.0, "lat": 38.873692166666665, "bike_id": "bcb4967d9470adf923e5c469884ef187", "type": "electric_scooter", "is_reserved": 0, "lon": -77.00120483333333}, {"fusion_lat": 0.0, "name": "10fdd3c16a2b58ab7ef182539ac087da", "is_disabled": 0, "rental_uris": {"android": "https://dc.lft.to/lastmile_qr_scan", "ios": "https://dc.lft.to/lastmile_qr_scan"}, "fusion_lon": 0.0, "lat": 38.987888166666664, "bike_id": "10fdd3c16a2b58ab7ef182539ac087da", "type": "electric_bike", "is_reserved": 0, "lon": -77.14099516666667}, {"fusion_lat": 0.0, "name": "7813aa18613d1ef3a3edcea41b2d7981", "is_disabled": 0, "rental_uris": {"android": "https://dc.lft.to/lastmile_qr_scan", "ios": "https://dc.lft.to/lastmile_qr_scan"}, "fusion_lon": 0.0, "lat": 38.908643, "bike_id": "7813aa18613d1ef3a3edcea41b2d7981", "type": "electric_scooter", "is_reserved": 0, "lon": -77.0239775}, {"fusion_lat": 0.0, "name": "4307ed4025379c46eb315eeabea4606d", "is_disabled": 0, "rental_uris": {"android": "https://dc.lft.to/lastmile_qr_scan", "ios": "https://dc.lft.to/lastmile_qr_scan"}, "fusion_lon": 0.0, "lat": 38.920772166666666, "bike_id": "4307ed4025379c46eb315eeabea4606d", "type": "electric_scooter", "is_reserved": 0, "lon": -77.01391483333333}, {"fusion_lat": 0.0, "name": "837ae541b69585c4aaf8b730d0cfea99", "is_disabled": 0, "rental_uris": {"android": "https://dc.lft.to/lastmile_qr_scan", "ios": "https://dc.lft.to/lastmile_qr_scan"}, "fusion_lon": 0.0, "lat": 38.89221466666667, "bike_id": "837ae541b69585c4aaf8b730d0cfea99", "type": "electric_scooter", "is_reserved": 0, "lon": -77.025122}, {"fusion_lat": 0.0, "name": "4c47b3b181fa7674f2012a73298f57bb", "is_disabled": 0, "rental_uris": {"android": "https://dc.lft.to/lastmile_qr_scan", "ios": "https://dc.lft.to/lastmile_qr_scan"}, "fusion_lon": 0.0, "lat": 38.853307, "bike_id": "4c47b3b181fa7674f2012a73298f57bb", "type": "electric_scooter", "is_reserved": 0, "lon": -76.980246}, {"fusion_lat": 0.0, "name": "c7f537a233c034d6bdcb14c722e5517f", "is_disabled": 0, "rental_uris": {"android": "https://dc.lft.to/lastmile_qr_scan", "ios": "https://dc.lft.to/lastmile_qr_scan"}, "fusion_lon": 0.0, "lat": 38.8950335, "bike_id": "c7f537a233c034d6bdcb14c722e5517f", "type": "electric_scooter", "is_reserved": 0, "lon": -77.00325883333333}, {"fusion_lat": 0.0, "name": "8aa123b1c1396c56503f004384d15d00", "is_disabled": 0, "rental_uris": {"android": "https://dc.lft.to/lastmile_qr_scan", "ios": "https://dc.lft.to/lastmile_qr_scan"}, "fusion_lon": 0.0, "lat": 38.901283, "bike_id": "8aa123b1c1396c56503f004384d15d00", "type": "electric_scooter", "is_reserved": 0, "lon": -77.04177483333333}, {"fusion_lat": 0.0, "name": "c4e524124bfc835b23c2d93a6e644041", "is_disabled": 0, "rental_uris": {"android": "https://dc.lft.to/lastmile_qr_scan", "ios": "https://dc.lft.to/lastmile_qr_scan"}, "fusion_lon": 0.0, "lat": 38.934678166666664, "bike_id": "c4e524124bfc835b23c2d93a6e644041", "type": "electric_scooter", "is_reserved": 0, "lon": -77.07213483333334}, {"fusion_lat": 0.0, "name": "d0c6ea592bd1b78aeb7efb252fbf4bfb", "is_disabled": 0, "rental_uris": {"android": "https://dc.lft.to/lastmile_qr_scan", "ios": "https://dc.lft.to/lastmile_qr_scan"}, "fusion_lon": 0.0, "lat": 38.9022695, "bike_id": "d0c6ea592bd1b78aeb7efb252fbf4bfb", "type": "electric_scooter", "is_reserved": 0, "lon": -77.045616}, {"fusion_lat": 0.0, "name": "943ccb2e0e241efab931b2b376c2edd0", "is_disabled": 0, "rental_uris": {"android": "https://dc.lft.to/lastmile_qr_scan", "ios": "https://dc.lft.to/lastmile_qr_scan"}, "fusion_lon": 0.0, "lat": 38.90084516666667, "bike_id": "943ccb2e0e241efab931b2b376c2edd0", "type": "electric_scooter", "is_reserved": 0, "lon": -76.98336233333333}, {"fusion_lat": 0.0, "name": "8afdab6d34f06f677ed5ea71af0cca74", "is_disabled": 0, "rental_uris": {"android": "https://dc.lft.to/lastmile_qr_scan", "ios": "https://dc.lft.to/lastmile_qr_scan"}, "fusion_lon": 0.0, "lat": 38.92276283333333, "bike_id": "8afdab6d34f06f677ed5ea71af0cca74", "type": "electric_scooter", "is_reserved": 0, "lon": -77.0366665}, {"fusion_lat": 0.0, "name": "968acd79451b840099766556d1916570", "is_disabled": 0, "rental_uris": {"android": "https://dc.lft.to/lastmile_qr_scan", "ios": "https://dc.lft.to/lastmile_qr_scan"}, "fusion_lon": 0.0, "lat": 38.93201883333333, "bike_id": "968acd79451b840099766556d1916570", "type": "electric_scooter", "is_reserved": 0, "lon": -77.03506383333334}, {"fusion_lat": 0.0, "name": "716798b570af8a651fec22d7789d88ce", "is_disabled": 0, "rental_uris": {"android": "https://dc.lft.to/lastmile_qr_scan", "ios": "https://dc.lft.to/lastmile_qr_scan"}, "fusion_lon": 0.0, "lat": 38.92937716666667, "bike_id": "716798b570af8a651fec22d7789d88ce", "type": "electric_scooter", "is_reserved": 0, "lon": -77.03281083333333}, {"fusion_lat": 0.0, "name": "769402b68be80dd120a5ecc08bd65238", "is_disabled": 0, "rental_uris": {"android": "https://dc.lft.to/lastmile_qr_scan", "ios": "https://dc.lft.to/lastmile_qr_scan"}, "fusion_lon": 0.0, "lat": 38.916921333333335, "bike_id": "769402b68be80dd120a5ecc08bd65238", "type": "electric_scooter", "is_reserved": 0, "lon": -77.0249625}, {"fusion_lat": 0.0, "name": "814c38a822baba925ca325003f8da283", "is_disabled": 0, "rental_uris": {"android": "https://dc.lft.to/lastmile_qr_scan", "ios": "https://dc.lft.to/lastmile_qr_scan"}, "fusion_lon": 0.0, "lat": 38.92758883333333, "bike_id": "814c38a822baba925ca325003f8da283", "type": "electric_scooter", "is_reserved": 0, "lon": -77.05266016666667}, {"fusion_lat": 0.0, "name": "f315470f332e252eba67a032b6de81a2", "is_disabled": 0, "rental_uris": {"android": "https://dc.lft.to/lastmile_qr_scan", "ios": "https://dc.lft.to/lastmile_qr_scan"}, "fusion_lon": 0.0, "lat": 38.927840833333335, "bike_id": "f315470f332e252eba67a032b6de81a2", "type": "electric_scooter", "is_reserved": 0, "lon": -77.05315033333333}, {"fusion_lat": 0.0, "name": "8326c62173a6d81353a1c779f9128c4f", "is_disabled": 0, "rental_uris": {"android": "https://dc.lft.to/lastmile_qr_scan", "ios": "https://dc.lft.to/lastmile_qr_scan"}, "fusion_lon": 0.0, "lat": 38.9173715, "bike_id": "8326c62173a6d81353a1c779f9128c4f", "type": "electric_scooter", "is_reserved": 0, "lon": -77.03241733333333}, {"fusion_lat": 0.0, "name": "9b9c8f58a03f88cd2a5c58b67e43bd49", "is_disabled": 0, "rental_uris": {"android": "https://dc.lft.to/lastmile_qr_scan", "ios": "https://dc.lft.to/lastmile_qr_scan"}, "fusion_lon": 0.0, "lat": 38.90637516666666, "bike_id": "9b9c8f58a03f88cd2a5c58b67e43bd49", "type": "electric_scooter", "is_reserved": 0, "lon": -77.0058015}, {"fusion_lat": 0.0, "name": "0ed5c80fc18e7af93a3bd3569263dbd4", "is_disabled": 0, "rental_uris": {"android": "https://dc.lft.to/lastmile_qr_scan", "ios": "https://dc.lft.to/lastmile_qr_scan"}, "fusion_lon": 0.0, "lat": 38.921365333333334, "bike_id": "0ed5c80fc18e7af93a3bd3569263dbd4", "type": "electric_scooter", "is_reserved": 0, "lon": -77.019206}, {"fusion_lat": 0.0, "name": "13bb3678a6d686e46f44d370d9f61e99", "is_disabled": 0, "rental_uris": {"android": "https://dc.lft.to/lastmile_qr_scan", "ios": "https://dc.lft.to/lastmile_qr_scan"}, "fusion_lon": 0.0, "lat": 38.89725766666667, "bike_id": "13bb3678a6d686e46f44d370d9f61e99", "type": "electric_scooter", "is_reserved": 0, "lon": -77.04421583333334}, {"fusion_lat": 0.0, "name": "10c0d73a389d95b63e7275c7c62b6b2f", "is_disabled": 0, "rental_uris": {"android": "https://dc.lft.to/lastmile_qr_scan", "ios": "https://dc.lft.to/lastmile_qr_scan"}, "fusion_lon": 0.0, "lat": 38.9198025, "bike_id": "10c0d73a389d95b63e7275c7c62b6b2f", "type": "electric_scooter", "is_reserved": 0, "lon": -77.02376866666667}, {"fusion_lat": 0.0, "name": "b9dfb7396d9961baf1b7d33afb2f00ef", "is_disabled": 0, "rental_uris": {"android": "https://dc.lft.to/lastmile_qr_scan", "ios": "https://dc.lft.to/lastmile_qr_scan"}, "fusion_lon": 0.0, "lat": 38.895977333333335, "bike_id": "b9dfb7396d9961baf1b7d33afb2f00ef", "type": "electric_scooter", "is_reserved": 0, "lon": -77.02585083333334}, {"fusion_lat": 0.0, "name": "68bfaa9f230be737d537dee485e4df19", "is_disabled": 0, "rental_uris": {"android": "https://dc.lft.to/lastmile_qr_scan", "ios": "https://dc.lft.to/lastmile_qr_scan"}, "fusion_lon": 0.0, "lat": 38.91553916666667, "bike_id": "68bfaa9f230be737d537dee485e4df19", "type": "electric_scooter", "is_reserved": 0, "lon": -77.03863016666666}, {"fusion_lat": 0.0, "name": "fd57e9a45e901046014c0067aaaae5cc", "is_disabled": 0, "rental_uris": {"android": "https://dc.lft.to/lastmile_qr_scan", "ios": "https://dc.lft.to/lastmile_qr_scan"}, "fusion_lon": 0.0, "lat": 38.909811833333336, "bike_id": "fd57e9a45e901046014c0067aaaae5cc", "type": "electric_scooter", "is_reserved": 0, "lon": -77.034235}, {"fusion_lat": 0.0, "name": "9d68ac521d8225eedce724492bc0aa6f", "is_disabled": 0, "rental_uris": {"android": "https://dc.lft.to/lastmile_qr_scan", "ios": "https://dc.lft.to/lastmile_qr_scan"}, "fusion_lon": 0.0, "lat": 38.9001775, "bike_id": "9d68ac521d8225eedce724492bc0aa6f", "type": "electric_scooter", "is_reserved": 0, "lon": -76.98813216666667}, {"fusion_lat": 0.0, "name": "2aebfe2d921a2ec32ad6e7003edf40ee", "is_disabled": 0, "rental_uris": {"android": "https://dc.lft.to/lastmile_qr_scan", "ios": "https://dc.lft.to/lastmile_qr_scan"}, "fusion_lon": 0.0, "lat": 38.924640333333336, "bike_id": "2aebfe2d921a2ec32ad6e7003edf40ee", "type": "electric_scooter", "is_reserved": 0, "lon": -77.05200916666666}, {"fusion_lat": 0.0, "name": "5e6ae877aadddc5d66cf106c49071dbd", "is_disabled": 0, "rental_uris": {"android": "https://dc.lft.to/lastmile_qr_scan", "ios": "https://dc.lft.to/lastmile_qr_scan"}, "fusion_lon": 0.0, "lat": 38.9229335, "bike_id": "5e6ae877aadddc5d66cf106c49071dbd", "type": "electric_scooter", "is_reserved": 0, "lon": -77.0421165}, {"fusion_lat": 0.0, "name": "0e7cec24a59b2ed71f28164baa8c8c59", "is_disabled": 0, "rental_uris": {"android": "https://dc.lft.to/lastmile_qr_scan", "ios": "https://dc.lft.to/lastmile_qr_scan"}, "fusion_lon": 0.0, "lat": 38.910195, "bike_id": "0e7cec24a59b2ed71f28164baa8c8c59", "type": "electric_scooter", "is_reserved": 0, "lon": -77.05274066666666}, {"fusion_lat": 0.0, "name": "3c1363adb16cfe8bcb979ffc23623a7e", "is_disabled": 0, "rental_uris": {"android": "https://dc.lft.to/lastmile_qr_scan", "ios": "https://dc.lft.to/lastmile_qr_scan"}, "fusion_lon": 0.0, "lat": 38.8838235, "bike_id": "3c1363adb16cfe8bcb979ffc23623a7e", "type": "electric_scooter", "is_reserved": 0, "lon": -76.93051733333333}, {"fusion_lat": 0.0, "name": "8b3feb35b9ef20c55c6650099bf6b431", "is_disabled": 0, "rental_uris": {"android": "https://dc.lft.to/lastmile_qr_scan", "ios": "https://dc.lft.to/lastmile_qr_scan"}, "fusion_lon": 0.0, "lat": 38.93036, "bike_id": "8b3feb35b9ef20c55c6650099bf6b431", "type": "electric_scooter", "is_reserved": 0, "lon": -77.03800166666667}, {"fusion_lat": 0.0, "name": "3fef59be4907097a346c2379aab07826", "is_disabled": 0, "rental_uris": {"android": "https://dc.lft.to/lastmile_qr_scan", "ios": "https://dc.lft.to/lastmile_qr_scan"}, "fusion_lon": 0.0, "lat": 38.9146765, "bike_id": "3fef59be4907097a346c2379aab07826", "type": "electric_scooter", "is_reserved": 0, "lon": -77.032208}, {"fusion_lat": 0.0, "name": "c119b9d6abbb330cb96ad1edb331d2ff", "is_disabled": 0, "rental_uris": {"android": "https://dc.lft.to/lastmile_qr_scan", "ios": "https://dc.lft.to/lastmile_qr_scan"}, "fusion_lon": 0.0, "lat": 38.883544666666666, "bike_id": "c119b9d6abbb330cb96ad1edb331d2ff", "type": "electric_scooter", "is_reserved": 0, "lon": -77.01358966666666}, {"fusion_lat": 0.0, "name": "fcf23c9b458f1936b8ac5c050be5afad", "is_disabled": 0, "rental_uris": {"android": "https://dc.lft.to/lastmile_qr_scan", "ios": "https://dc.lft.to/lastmile_qr_scan"}, "fusion_lon": 0.0, "lat": 38.919214, "bike_id": "fcf23c9b458f1936b8ac5c050be5afad", "type": "electric_scooter", "is_reserved": 0, "lon": -77.02664416666667}, {"fusion_lat": 0.0, "name": "db67dfb733a897d4fc277f292f84899f", "is_disabled": 0, "rental_uris": {"android": "https://dc.lft.to/lastmile_qr_scan", "ios": "https://dc.lft.to/lastmile_qr_scan"}, "fusion_lon": 0.0, "lat": 38.897436166666665, "bike_id": "db67dfb733a897d4fc277f292f84899f", "type": "electric_scooter", "is_reserved": 0, "lon": -77.00202}, {"fusion_lat": 0.0, "name": "f33c238ca241e0c985ef0a9cfd5d9254", "is_disabled": 0, "rental_uris": {"android": "https://dc.lft.to/lastmile_qr_scan", "ios": "https://dc.lft.to/lastmile_qr_scan"}, "fusion_lon": 0.0, "lat": 38.907209333333334, "bike_id": "f33c238ca241e0c985ef0a9cfd5d9254", "type": "electric_scooter", "is_reserved": 0, "lon": -77.043464}, {"fusion_lat": 0.0, "name": "3ad52a489267739d2acf2e490b7d1df0", "is_disabled": 0, "rental_uris": {"android": "https://dc.lft.to/lastmile_qr_scan", "ios": "https://dc.lft.to/lastmile_qr_scan"}, "fusion_lon": 0.0, "lat": 38.905212666666664, "bike_id": "3ad52a489267739d2acf2e490b7d1df0", "type": "electric_scooter", "is_reserved": 0, "lon": -77.06780316666666}, {"fusion_lat": 0.0, "name": "82be5e463dfea4cdef34bc94da2ff015", "is_disabled": 0, "rental_uris": {"android": "https://dc.lft.to/lastmile_qr_scan", "ios": "https://dc.lft.to/lastmile_qr_scan"}, "fusion_lon": 0.0, "lat": 38.9002105, "bike_id": "82be5e463dfea4cdef34bc94da2ff015", "type": "electric_bike", "is_reserved": 0, "lon": -77.00004866666667}, {"fusion_lat": 0.0, "name": "f8b07af71036d45114bf204350b354a7", "is_disabled": 0, "rental_uris": {"android": "https://dc.lft.to/lastmile_qr_scan", "ios": "https://dc.lft.to/lastmile_qr_scan"}, "fusion_lon": 0.0, "lat": 38.900785166666665, "bike_id": "f8b07af71036d45114bf204350b354a7", "type": "electric_scooter", "is_reserved": 0, "lon": -77.01612233333333}, {"fusion_lat": 0.0, "name": "74e64df1b628e041f917d409d91f91f5", "is_disabled": 0, "rental_uris": {"android": "https://dc.lft.to/lastmile_qr_scan", "ios": "https://dc.lft.to/lastmile_qr_scan"}, "fusion_lon": 0.0, "lat": 38.91706383333333, "bike_id": "74e64df1b628e041f917d409d91f91f5", "type": "electric_scooter", "is_reserved": 0, "lon": -77.03468266666667}, {"fusion_lat": 0.0, "name": "927b6733fcce6cbbb320969b3f0c3b3a", "is_disabled": 0, "rental_uris": {"android": "https://dc.lft.to/lastmile_qr_scan", "ios": "https://dc.lft.to/lastmile_qr_scan"}, "fusion_lon": 0.0, "lat": 38.89608583333333, "bike_id": "927b6733fcce6cbbb320969b3f0c3b3a", "type": "electric_scooter", "is_reserved": 0, "lon": -76.98108016666667}, {"fusion_lat": 0.0, "name": "64c79357e1309d6ebd2a9b35840f95e5", "is_disabled": 0, "rental_uris": {"android": "https://dc.lft.to/lastmile_qr_scan", "ios": "https://dc.lft.to/lastmile_qr_scan"}, "fusion_lon": 0.0, "lat": 38.894689166666666, "bike_id": "64c79357e1309d6ebd2a9b35840f95e5", "type": "electric_scooter", "is_reserved": 0, "lon": -77.02187216666667}, {"fusion_lat": 0.0, "name": "da7d0a467ef3b3fd4e89b0ce0527962d", "is_disabled": 0, "rental_uris": {"android": "https://dc.lft.to/lastmile_qr_scan", "ios": "https://dc.lft.to/lastmile_qr_scan"}, "fusion_lon": 0.0, "lat": 38.8978725, "bike_id": "da7d0a467ef3b3fd4e89b0ce0527962d", "type": "electric_scooter", "is_reserved": 0, "lon": -77.02399483333333}, {"fusion_lat": 0.0, "name": "bb0e09f35dfbf46700d2652daef0cb64", "is_disabled": 0, "rental_uris": {"android": "https://dc.lft.to/lastmile_qr_scan", "ios": "https://dc.lft.to/lastmile_qr_scan"}, "fusion_lon": 0.0, "lat": 38.902962, "bike_id": "bb0e09f35dfbf46700d2652daef0cb64", "type": "electric_scooter", "is_reserved": 0, "lon": -77.03454516666666}, {"fusion_lat": 0.0, "name": "1b72e4ceb82d3143301216439d68e29e", "is_disabled": 0, "rental_uris": {"android": "https://dc.lft.to/lastmile_qr_scan", "ios": "https://dc.lft.to/lastmile_qr_scan"}, "fusion_lon": 0.0, "lat": 38.91106116666667, "bike_id": "1b72e4ceb82d3143301216439d68e29e", "type": "electric_scooter", "is_reserved": 0, "lon": -77.01001066666667}, {"fusion_lat": 0.0, "name": "88674e8048ae9ba9bbfbd96c2d67a572", "is_disabled": 0, "rental_uris": {"android": "https://dc.lft.to/lastmile_qr_scan", "ios": "https://dc.lft.to/lastmile_qr_scan"}, "fusion_lon": 0.0, "lat": 38.92341233333333, "bike_id": "88674e8048ae9ba9bbfbd96c2d67a572", "type": "electric_scooter", "is_reserved": 0, "lon": -77.05179633333333}, {"fusion_lat": 0.0, "name": "1ce86aa2c74d9da49f1b1c02c4704976", "is_disabled": 0, "rental_uris": {"android": "https://dc.lft.to/lastmile_qr_scan", "ios": "https://dc.lft.to/lastmile_qr_scan"}, "fusion_lon": 0.0, "lat": 38.9433095, "bike_id": "1ce86aa2c74d9da49f1b1c02c4704976", "type": "electric_scooter", "is_reserved": 0, "lon": -77.01551833333333}, {"fusion_lat": 0.0, "name": "32e914df857b21c99e03ff0e77f8c31e", "is_disabled": 0, "rental_uris": {"android": "https://dc.lft.to/lastmile_qr_scan", "ios": "https://dc.lft.to/lastmile_qr_scan"}, "fusion_lon": 0.0, "lat": 38.899728333333336, "bike_id": "32e914df857b21c99e03ff0e77f8c31e", "type": "electric_scooter", "is_reserved": 0, "lon": -77.0526645}, {"fusion_lat": 0.0, "name": "55532d4e16efa3d31586305444078083", "is_disabled": 0, "rental_uris": {"android": "https://dc.lft.to/lastmile_qr_scan", "ios": "https://dc.lft.to/lastmile_qr_scan"}, "fusion_lon": 0.0, "lat": 38.89013816666667, "bike_id": "55532d4e16efa3d31586305444078083", "type": "electric_scooter", "is_reserved": 0, "lon": -76.93734633333334}, {"fusion_lat": 0.0, "name": "e0327207862e7f92ed03640b7ce8243b", "is_disabled": 0, "rental_uris": {"android": "https://dc.lft.to/lastmile_qr_scan", "ios": "https://dc.lft.to/lastmile_qr_scan"}, "fusion_lon": 0.0, "lat": 38.9020115, "bike_id": "e0327207862e7f92ed03640b7ce8243b", "type": "electric_scooter", "is_reserved": 0, "lon": -77.05058733333334}, {"fusion_lat": 0.0, "name": "343b62e7768049354d43b213a017bab9", "is_disabled": 0, "rental_uris": {"android": "https://dc.lft.to/lastmile_qr_scan", "ios": "https://dc.lft.to/lastmile_qr_scan"}, "fusion_lon": 0.0, "lat": 38.88755066666667, "bike_id": "343b62e7768049354d43b213a017bab9", "type": "electric_scooter", "is_reserved": 0, "lon": -76.99361766666667}, {"fusion_lat": 0.0, "name": "adbca1dacab19679444a302ab67419cc", "is_disabled": 0, "rental_uris": {"android": "https://dc.lft.to/lastmile_qr_scan", "ios": "https://dc.lft.to/lastmile_qr_scan"}, "fusion_lon": 0.0, "lat": 38.8901785, "bike_id": "adbca1dacab19679444a302ab67419cc", "type": "electric_scooter", "is_reserved": 0, "lon": -76.93732566666667}, {"fusion_lat": 0.0, "name": "7a23963c3e1f1d201553027112fc92dd", "is_disabled": 0, "rental_uris": {"android": "https://dc.lft.to/lastmile_qr_scan", "ios": "https://dc.lft.to/lastmile_qr_scan"}, "fusion_lon": 0.0, "lat": 38.92176416666667, "bike_id": "7a23963c3e1f1d201553027112fc92dd", "type": "electric_scooter", "is_reserved": 0, "lon": -77.04238633333334}, {"fusion_lat": 0.0, "name": "721ddafce030dd32c2cc79483d2f119b", "is_disabled": 0, "rental_uris": {"android": "https://dc.lft.to/lastmile_qr_scan", "ios": "https://dc.lft.to/lastmile_qr_scan"}, "fusion_lon": 0.0, "lat": 38.920634, "bike_id": "721ddafce030dd32c2cc79483d2f119b", "type": "electric_scooter", "is_reserved": 0, "lon": -77.0239645}, {"fusion_lat": 0.0, "name": "914133d01c957761755c6a00047f9e29", "is_disabled": 0, "rental_uris": {"android": "https://dc.lft.to/lastmile_qr_scan", "ios": "https://dc.lft.to/lastmile_qr_scan"}, "fusion_lon": 0.0, "lat": 38.93071616666667, "bike_id": "914133d01c957761755c6a00047f9e29", "type": "electric_scooter", "is_reserved": 0, "lon": -77.022698}, {"fusion_lat": 0.0, "name": "27cc6b15b22c2790775d840e9c1fb7ca", "is_disabled": 0, "rental_uris": {"android": "https://dc.lft.to/lastmile_qr_scan", "ios": "https://dc.lft.to/lastmile_qr_scan"}, "fusion_lon": 0.0, "lat": 38.91681583333333, "bike_id": "27cc6b15b22c2790775d840e9c1fb7ca", "type": "electric_scooter", "is_reserved": 0, "lon": -77.03191916666667}, {"fusion_lat": 0.0, "name": "4962cfe84c7f9715da14b7375378eafd", "is_disabled": 0, "rental_uris": {"android": "https://dc.lft.to/lastmile_qr_scan", "ios": "https://dc.lft.to/lastmile_qr_scan"}, "fusion_lon": 0.0, "lat": 38.93181916666666, "bike_id": "4962cfe84c7f9715da14b7375378eafd", "type": "electric_scooter", "is_reserved": 0, "lon": -77.019631}, {"fusion_lat": 0.0, "name": "8854036fa9461b355d2db242412b2190", "is_disabled": 0, "rental_uris": {"android": "https://dc.lft.to/lastmile_qr_scan", "ios": "https://dc.lft.to/lastmile_qr_scan"}, "fusion_lon": 0.0, "lat": 38.897426333333335, "bike_id": "8854036fa9461b355d2db242412b2190", "type": "electric_scooter", "is_reserved": 0, "lon": -77.003683}, {"fusion_lat": 0.0, "name": "1edf7f3ef8667878d1e0c98c59f5f5bc", "is_disabled": 0, "rental_uris": {"android": "https://dc.lft.to/lastmile_qr_scan", "ios": "https://dc.lft.to/lastmile_qr_scan"}, "fusion_lon": 0.0, "lat": 38.89716833333333, "bike_id": "1edf7f3ef8667878d1e0c98c59f5f5bc", "type": "electric_scooter", "is_reserved": 0, "lon": -77.00799166666667}, {"fusion_lat": 0.0, "name": "abb179b0bbbe08aa51a93dfd81869d29", "is_disabled": 0, "rental_uris": {"android": "https://dc.lft.to/lastmile_qr_scan", "ios": "https://dc.lft.to/lastmile_qr_scan"}, "fusion_lon": 0.0, "lat": 38.921216, "bike_id": "abb179b0bbbe08aa51a93dfd81869d29", "type": "electric_scooter", "is_reserved": 0, "lon": -77.04416066666667}, {"fusion_lat": 0.0, "name": "19ad9a7145830dc1cca1cfb1759fd63f", "is_disabled": 0, "rental_uris": {"android": "https://dc.lft.to/lastmile_qr_scan", "ios": "https://dc.lft.to/lastmile_qr_scan"}, "fusion_lon": 0.0, "lat": 38.926815, "bike_id": "19ad9a7145830dc1cca1cfb1759fd63f", "type": "electric_scooter", "is_reserved": 0, "lon": -77.03096366666666}, {"fusion_lat": 0.0, "name": "cf5d498e0c6fefef7da83dce51825b64", "is_disabled": 0, "rental_uris": {"android": "https://dc.lft.to/lastmile_qr_scan", "ios": "https://dc.lft.to/lastmile_qr_scan"}, "fusion_lon": 0.0, "lat": 38.941189666666666, "bike_id": "cf5d498e0c6fefef7da83dce51825b64", "type": "electric_bike", "is_reserved": 0, "lon": -76.99034516666667}, {"fusion_lat": 0.0, "name": "7e5870c42f167bd1745ed91bb762dce4", "is_disabled": 0, "rental_uris": {"android": "https://dc.lft.to/lastmile_qr_scan", "ios": "https://dc.lft.to/lastmile_qr_scan"}, "fusion_lon": 0.0, "lat": 38.938645333333334, "bike_id": "7e5870c42f167bd1745ed91bb762dce4", "type": "electric_scooter", "is_reserved": 0, "lon": -77.02943966666666}, {"fusion_lat": 0.0, "name": "988907699a769014a41beb0991bfb362", "is_disabled": 0, "rental_uris": {"android": "https://dc.lft.to/lastmile_qr_scan", "ios": "https://dc.lft.to/lastmile_qr_scan"}, "fusion_lon": 0.0, "lat": 38.904611, "bike_id": "988907699a769014a41beb0991bfb362", "type": "electric_scooter", "is_reserved": 0, "lon": -77.039045}, {"fusion_lat": 0.0, "name": "e096c8d5b8ec427ba9962c68cbaa9eb3", "is_disabled": 0, "rental_uris": {"android": "https://dc.lft.to/lastmile_qr_scan", "ios": "https://dc.lft.to/lastmile_qr_scan"}, "fusion_lon": 0.0, "lat": 38.903965, "bike_id": "e096c8d5b8ec427ba9962c68cbaa9eb3", "type": "electric_scooter", "is_reserved": 0, "lon": -77.03843383333333}, {"fusion_lat": 0.0, "name": "c316612e072d7735fac6266e8c62dcac", "is_disabled": 0, "rental_uris": {"android": "https://dc.lft.to/lastmile_qr_scan", "ios": "https://dc.lft.to/lastmile_qr_scan"}, "fusion_lon": 0.0, "lat": 38.900305333333336, "bike_id": "c316612e072d7735fac6266e8c62dcac", "type": "electric_scooter", "is_reserved": 0, "lon": -77.00192816666667}, {"fusion_lat": 0.0, "name": "8633f8dc97e44525a806df8ae80678b2", "is_disabled": 0, "rental_uris": {"android": "https://dc.lft.to/lastmile_qr_scan", "ios": "https://dc.lft.to/lastmile_qr_scan"}, "fusion_lon": 0.0, "lat": 38.90740133333333, "bike_id": "8633f8dc97e44525a806df8ae80678b2", "type": "electric_scooter", "is_reserved": 0, "lon": -77.00348233333334}, {"fusion_lat": 0.0, "name": "fc60426ef3ba82efa5964dbfab27dd95", "is_disabled": 0, "rental_uris": {"android": "https://dc.lft.to/lastmile_qr_scan", "ios": "https://dc.lft.to/lastmile_qr_scan"}, "fusion_lon": 0.0, "lat": 38.920669833333335, "bike_id": "fc60426ef3ba82efa5964dbfab27dd95", "type": "electric_scooter", "is_reserved": 0, "lon": -77.02307433333333}, {"fusion_lat": 0.0, "name": "366bf05545de289b4186606355a801fe", "is_disabled": 0, "rental_uris": {"android": "https://dc.lft.to/lastmile_qr_scan", "ios": "https://dc.lft.to/lastmile_qr_scan"}, "fusion_lon": 0.0, "lat": 38.9169095, "bike_id": "366bf05545de289b4186606355a801fe", "type": "electric_scooter", "is_reserved": 0, "lon": -77.03764716666667}, {"fusion_lat": 0.0, "name": "a6a045a033366504bc9aee36e5b6c37f", "is_disabled": 0, "rental_uris": {"android": "https://dc.lft.to/lastmile_qr_scan", "ios": "https://dc.lft.to/lastmile_qr_scan"}, "fusion_lon": 0.0, "lat": 38.92371033333333, "bike_id": "a6a045a033366504bc9aee36e5b6c37f", "type": "electric_scooter", "is_reserved": 0, "lon": -77.0409805}, {"fusion_lat": 0.0, "name": "17b081fa258c734bc1f33e0896b5e912", "is_disabled": 0, "rental_uris": {"android": "https://dc.lft.to/lastmile_qr_scan", "ios": "https://dc.lft.to/lastmile_qr_scan"}, "fusion_lon": 0.0, "lat": 38.95226233333333, "bike_id": "17b081fa258c734bc1f33e0896b5e912", "type": "electric_bike", "is_reserved": 0, "lon": -77.00280966666666}, {"fusion_lat": 0.0, "name": "61ff4b0325747914977471acff8d1250", "is_disabled": 0, "rental_uris": {"android": "https://dc.lft.to/lastmile_qr_scan", "ios": "https://dc.lft.to/lastmile_qr_scan"}, "fusion_lon": 0.0, "lat": 38.90642616666667, "bike_id": "61ff4b0325747914977471acff8d1250", "type": "electric_scooter", "is_reserved": 0, "lon": -77.00587}, {"fusion_lat": 0.0, "name": "c93ad3e13f89000efdf0c5b1cae78860", "is_disabled": 0, "rental_uris": {"android": "https://dc.lft.to/lastmile_qr_scan", "ios": "https://dc.lft.to/lastmile_qr_scan"}, "fusion_lon": 0.0, "lat": 38.95799216666666, "bike_id": "c93ad3e13f89000efdf0c5b1cae78860", "type": "electric_bike", "is_reserved": 0, "lon": -76.96046616666666}, {"fusion_lat": 0.0, "name": "030c0382e8e545436c0786aa1b0c7ca2", "is_disabled": 0, "rental_uris": {"android": "https://dc.lft.to/lastmile_qr_scan", "ios": "https://dc.lft.to/lastmile_qr_scan"}, "fusion_lon": 0.0, "lat": 38.934445833333335, "bike_id": "030c0382e8e545436c0786aa1b0c7ca2", "type": "electric_bike", "is_reserved": 0, "lon": -77.02726616666666}, {"fusion_lat": 0.0, "name": "6c7b60a8a339441a8d60d1f8d8e9e1bc", "is_disabled": 0, "rental_uris": {"android": "https://dc.lft.to/lastmile_qr_scan", "ios": "https://dc.lft.to/lastmile_qr_scan"}, "fusion_lon": 0.0, "lat": 38.915544833333335, "bike_id": "6c7b60a8a339441a8d60d1f8d8e9e1bc", "type": "electric_scooter", "is_reserved": 0, "lon": -77.021379}, {"fusion_lat": 0.0, "name": "7d01fb207c2fa8177448539fefbcc503", "is_disabled": 0, "rental_uris": {"android": "https://dc.lft.to/lastmile_qr_scan", "ios": "https://dc.lft.to/lastmile_qr_scan"}, "fusion_lon": 0.0, "lat": 38.925006333333336, "bike_id": "7d01fb207c2fa8177448539fefbcc503", "type": "electric_scooter", "is_reserved": 0, "lon": -77.05222183333333}, {"fusion_lat": 0.0, "name": "eb471d3986d5bcadeabbd42bf469b442", "is_disabled": 0, "rental_uris": {"android": "https://dc.lft.to/lastmile_qr_scan", "ios": "https://dc.lft.to/lastmile_qr_scan"}, "fusion_lon": 0.0, "lat": 38.920913, "bike_id": "eb471d3986d5bcadeabbd42bf469b442", "type": "electric_scooter", "is_reserved": 0, "lon": -77.01786866666667}, {"fusion_lat": 0.0, "name": "131bb8595754f0bc9d07907b49a85f2a", "is_disabled": 0, "rental_uris": {"android": "https://dc.lft.to/lastmile_qr_scan", "ios": "https://dc.lft.to/lastmile_qr_scan"}, "fusion_lon": 0.0, "lat": 38.908495333333335, "bike_id": "131bb8595754f0bc9d07907b49a85f2a", "type": "electric_scooter", "is_reserved": 0, "lon": -77.04666883333333}, {"fusion_lat": 0.0, "name": "1816e6b2fe5be0de9fa4b47a4e8255b9", "is_disabled": 0, "rental_uris": {"android": "https://dc.lft.to/lastmile_qr_scan", "ios": "https://dc.lft.to/lastmile_qr_scan"}, "fusion_lon": 0.0, "lat": 38.921987666666666, "bike_id": "1816e6b2fe5be0de9fa4b47a4e8255b9", "type": "electric_scooter", "is_reserved": 0, "lon": -77.080744}, {"fusion_lat": 0.0, "name": "8917dee9fb2a128adc5c33bfe9196340", "is_disabled": 0, "rental_uris": {"android": "https://dc.lft.to/lastmile_qr_scan", "ios": "https://dc.lft.to/lastmile_qr_scan"}, "fusion_lon": 0.0, "lat": 38.91447383333333, "bike_id": "8917dee9fb2a128adc5c33bfe9196340", "type": "electric_scooter", "is_reserved": 0, "lon": -77.04469783333333}, {"fusion_lat": 0.0, "name": "f8811dceb84ea9cde6225dae7d2d1115", "is_disabled": 0, "rental_uris": {"android": "https://dc.lft.to/lastmile_qr_scan", "ios": "https://dc.lft.to/lastmile_qr_scan"}, "fusion_lon": 0.0, "lat": 38.88989933333333, "bike_id": "f8811dceb84ea9cde6225dae7d2d1115", "type": "electric_scooter", "is_reserved": 0, "lon": -76.91419266666666}, {"fusion_lat": 0.0, "name": "23f1ff0fab2e0f155716d7254f0dd2f0", "is_disabled": 0, "rental_uris": {"android": "https://dc.lft.to/lastmile_qr_scan", "ios": "https://dc.lft.to/lastmile_qr_scan"}, "fusion_lon": 0.0, "lat": 38.92211183333333, "bike_id": "23f1ff0fab2e0f155716d7254f0dd2f0", "type": "electric_scooter", "is_reserved": 0, "lon": -77.0423655}, {"fusion_lat": 0.0, "name": "097c4cf4b051a2ed2558b70dd361ffd9", "is_disabled": 0, "rental_uris": {"android": "https://dc.lft.to/lastmile_qr_scan", "ios": "https://dc.lft.to/lastmile_qr_scan"}, "fusion_lon": 0.0, "lat": 38.90567566666667, "bike_id": "097c4cf4b051a2ed2558b70dd361ffd9", "type": "electric_scooter", "is_reserved": 0, "lon": -77.046591}, {"fusion_lat": 0.0, "name": "36df5a20354c614b9402715fbf665a5d", "is_disabled": 0, "rental_uris": {"android": "https://dc.lft.to/lastmile_qr_scan", "ios": "https://dc.lft.to/lastmile_qr_scan"}, "fusion_lon": 0.0, "lat": 38.911371333333335, "bike_id": "36df5a20354c614b9402715fbf665a5d", "type": "electric_scooter", "is_reserved": 0, "lon": -77.03187866666667}, {"fusion_lat": 0.0, "name": "0f89b2496093c2127ea502d83d53e92a", "is_disabled": 0, "rental_uris": {"android": "https://dc.lft.to/lastmile_qr_scan", "ios": "https://dc.lft.to/lastmile_qr_scan"}, "fusion_lon": 0.0, "lat": 38.90995183333333, "bike_id": "0f89b2496093c2127ea502d83d53e92a", "type": "electric_scooter", "is_reserved": 0, "lon": -77.046605}, {"fusion_lat": 0.0, "name": "983fdfb44e585618e5d2754a75d984bd", "is_disabled": 0, "rental_uris": {"android": "https://dc.lft.to/lastmile_qr_scan", "ios": "https://dc.lft.to/lastmile_qr_scan"}, "fusion_lon": 0.0, "lat": 38.901226, "bike_id": "983fdfb44e585618e5d2754a75d984bd", "type": "electric_scooter", "is_reserved": 0, "lon": -77.00209066666666}, {"fusion_lat": 0.0, "name": "1772923ceaf856b767c46a2ff1b225b0", "is_disabled": 0, "rental_uris": {"android": "https://dc.lft.to/lastmile_qr_scan", "ios": "https://dc.lft.to/lastmile_qr_scan"}, "fusion_lon": 0.0, "lat": 38.90549933333333, "bike_id": "1772923ceaf856b767c46a2ff1b225b0", "type": "electric_scooter", "is_reserved": 0, "lon": -77.04654283333333}, {"fusion_lat": 0.0, "name": "f505b3062e9214a00116babc5f5ee029", "is_disabled": 0, "rental_uris": {"android": "https://dc.lft.to/lastmile_qr_scan", "ios": "https://dc.lft.to/lastmile_qr_scan"}, "fusion_lon": 0.0, "lat": 38.938631666666666, "bike_id": "f505b3062e9214a00116babc5f5ee029", "type": "electric_scooter", "is_reserved": 0, "lon": -77.03434516666667}, {"fusion_lat": 0.0, "name": "fab00a8d08ee53d79afed4b99ebd1d4d", "is_disabled": 0, "rental_uris": {"android": "https://dc.lft.to/lastmile_qr_scan", "ios": "https://dc.lft.to/lastmile_qr_scan"}, "fusion_lon": 0.0, "lat": 38.91693016666667, "bike_id": "fab00a8d08ee53d79afed4b99ebd1d4d", "type": "electric_scooter", "is_reserved": 0, "lon": -77.03382733333333}, {"fusion_lat": 0.0, "name": "70851e3af73411db95ff155f787b0557", "is_disabled": 0, "rental_uris": {"android": "https://dc.lft.to/lastmile_qr_scan", "ios": "https://dc.lft.to/lastmile_qr_scan"}, "fusion_lon": 0.0, "lat": 38.899035166666664, "bike_id": "70851e3af73411db95ff155f787b0557", "type": "electric_scooter", "is_reserved": 0, "lon": -76.93351}, {"fusion_lat": 0.0, "name": "2560c2b2fc5496fe5b0a017792be25f2", "is_disabled": 0, "rental_uris": {"android": "https://dc.lft.to/lastmile_qr_scan", "ios": "https://dc.lft.to/lastmile_qr_scan"}, "fusion_lon": 0.0, "lat": 38.9341375, "bike_id": "2560c2b2fc5496fe5b0a017792be25f2", "type": "electric_scooter", "is_reserved": 0, "lon": -77.0415975}, {"fusion_lat": 0.0, "name": "9d0b99af6a2910120681ea4134455a34", "is_disabled": 0, "rental_uris": {"android": "https://dc.lft.to/lastmile_qr_scan", "ios": "https://dc.lft.to/lastmile_qr_scan"}, "fusion_lon": 0.0, "lat": 38.89703383333333, "bike_id": "9d0b99af6a2910120681ea4134455a34", "type": "electric_scooter", "is_reserved": 0, "lon": -77.027635}, {"fusion_lat": 0.0, "name": "0a6d35857a4ae9d3bccc5f4c0042d156", "is_disabled": 0, "rental_uris": {"android": "https://dc.lft.to/lastmile_qr_scan", "ios": "https://dc.lft.to/lastmile_qr_scan"}, "fusion_lon": 0.0, "lat": 38.920299, "bike_id": "0a6d35857a4ae9d3bccc5f4c0042d156", "type": "electric_scooter", "is_reserved": 0, "lon": -76.98994583333334}, {"fusion_lat": 0.0, "name": "99f69365982d19c458309d6daac784da", "is_disabled": 0, "rental_uris": {"android": "https://dc.lft.to/lastmile_qr_scan", "ios": "https://dc.lft.to/lastmile_qr_scan"}, "fusion_lon": 0.0, "lat": 38.89232366666667, "bike_id": "99f69365982d19c458309d6daac784da", "type": "electric_scooter", "is_reserved": 0, "lon": -77.050048}, {"fusion_lat": 0.0, "name": "8b26cf4c7e5eb123e18c1a14fc4ddbe3", "is_disabled": 0, "rental_uris": {"android": "https://dc.lft.to/lastmile_qr_scan", "ios": "https://dc.lft.to/lastmile_qr_scan"}, "fusion_lon": 0.0, "lat": 38.92041783333333, "bike_id": "8b26cf4c7e5eb123e18c1a14fc4ddbe3", "type": "electric_scooter", "is_reserved": 0, "lon": -77.03411633333333}, {"fusion_lat": 0.0, "name": "0bdedbf59f0484cdbbea4e6ac86d4411", "is_disabled": 0, "rental_uris": {"android": "https://dc.lft.to/lastmile_qr_scan", "ios": "https://dc.lft.to/lastmile_qr_scan"}, "fusion_lon": 0.0, "lat": 38.9595575, "bike_id": "0bdedbf59f0484cdbbea4e6ac86d4411", "type": "electric_bike", "is_reserved": 0, "lon": -77.03056366666667}, {"fusion_lat": 0.0, "name": "e3dc868bdc5cd808b84fd3d2eeae58d3", "is_disabled": 0, "rental_uris": {"android": "https://dc.lft.to/lastmile_qr_scan", "ios": "https://dc.lft.to/lastmile_qr_scan"}, "fusion_lon": 0.0, "lat": 38.90541916666667, "bike_id": "e3dc868bdc5cd808b84fd3d2eeae58d3", "type": "electric_scooter", "is_reserved": 0, "lon": -77.04293516666667}, {"fusion_lat": 0.0, "name": "cf45fdb4f6fd68bbbe9d95abb208ae2b", "is_disabled": 0, "rental_uris": {"android": "https://dc.lft.to/lastmile_qr_scan", "ios": "https://dc.lft.to/lastmile_qr_scan"}, "fusion_lon": 0.0, "lat": 38.93448566666667, "bike_id": "cf45fdb4f6fd68bbbe9d95abb208ae2b", "type": "electric_scooter", "is_reserved": 0, "lon": -77.03864333333334}, {"fusion_lat": 0.0, "name": "9b9322a9e7edcbe0f1e1e7579c7558d7", "is_disabled": 0, "rental_uris": {"android": "https://dc.lft.to/lastmile_qr_scan", "ios": "https://dc.lft.to/lastmile_qr_scan"}, "fusion_lon": 0.0, "lat": 38.91406083333333, "bike_id": "9b9322a9e7edcbe0f1e1e7579c7558d7", "type": "electric_scooter", "is_reserved": 0, "lon": -77.02483883333333}, {"fusion_lat": 0.0, "name": "6e97681a85c11f1f5685a22d02cbd744", "is_disabled": 0, "rental_uris": {"android": "https://dc.lft.to/lastmile_qr_scan", "ios": "https://dc.lft.to/lastmile_qr_scan"}, "fusion_lon": 0.0, "lat": 38.96236183333333, "bike_id": "6e97681a85c11f1f5685a22d02cbd744", "type": "electric_bike", "is_reserved": 0, "lon": -76.92802766666667}, {"fusion_lat": 0.0, "name": "2298e395c1dbbddc2ca9e7ce0908fecc", "is_disabled": 0, "rental_uris": {"android": "https://dc.lft.to/lastmile_qr_scan", "ios": "https://dc.lft.to/lastmile_qr_scan"}, "fusion_lon": 0.0, "lat": 38.92783683333333, "bike_id": "2298e395c1dbbddc2ca9e7ce0908fecc", "type": "electric_scooter", "is_reserved": 0, "lon": -77.053168}, {"fusion_lat": 0.0, "name": "98fcd2c49f266b863101aa69ad91a27f", "is_disabled": 0, "rental_uris": {"android": "https://dc.lft.to/lastmile_qr_scan", "ios": "https://dc.lft.to/lastmile_qr_scan"}, "fusion_lon": 0.0, "lat": 38.919311666666665, "bike_id": "98fcd2c49f266b863101aa69ad91a27f", "type": "electric_scooter", "is_reserved": 0, "lon": -77.03453366666666}, {"fusion_lat": 0.0, "name": "b6aa4f52182ace384d069b0989861331", "is_disabled": 0, "rental_uris": {"android": "https://dc.lft.to/lastmile_qr_scan", "ios": "https://dc.lft.to/lastmile_qr_scan"}, "fusion_lon": 0.0, "lat": 38.913963, "bike_id": "b6aa4f52182ace384d069b0989861331", "type": "electric_scooter", "is_reserved": 0, "lon": -77.0318045}, {"fusion_lat": 0.0, "name": "d478e1ed519745da508b1bfc8f67daa7", "is_disabled": 0, "rental_uris": {"android": "https://dc.lft.to/lastmile_qr_scan", "ios": "https://dc.lft.to/lastmile_qr_scan"}, "fusion_lon": 0.0, "lat": 38.91117216666667, "bike_id": "d478e1ed519745da508b1bfc8f67daa7", "type": "electric_scooter", "is_reserved": 0, "lon": -77.03828083333333}, {"fusion_lat": 0.0, "name": "04581b8927396fe0ab9a58be81d468f9", "is_disabled": 0, "rental_uris": {"android": "https://dc.lft.to/lastmile_qr_scan", "ios": "https://dc.lft.to/lastmile_qr_scan"}, "fusion_lon": 0.0, "lat": 38.946798, "bike_id": "04581b8927396fe0ab9a58be81d468f9", "type": "electric_bike", "is_reserved": 0, "lon": -76.95675266666667}, {"fusion_lat": 0.0, "name": "4a366e99b20413f95b135d798fb8d729", "is_disabled": 0, "rental_uris": {"android": "https://dc.lft.to/lastmile_qr_scan", "ios": "https://dc.lft.to/lastmile_qr_scan"}, "fusion_lon": 0.0, "lat": 38.94727683333333, "bike_id": "4a366e99b20413f95b135d798fb8d729", "type": "electric_scooter", "is_reserved": 0, "lon": -77.02768116666667}, {"fusion_lat": 0.0, "name": "fe31462b599eb9b10e27ff839787eec9", "is_disabled": 0, "rental_uris": {"android": "https://dc.lft.to/lastmile_qr_scan", "ios": "https://dc.lft.to/lastmile_qr_scan"}, "fusion_lon": 0.0, "lat": 38.9098175, "bike_id": "fe31462b599eb9b10e27ff839787eec9", "type": "electric_scooter", "is_reserved": 0, "lon": -77.03422833333333}, {"fusion_lat": 0.0, "name": "6ef033d16db4cad6d9d05e280fd065d4", "is_disabled": 0, "rental_uris": {"android": "https://dc.lft.to/lastmile_qr_scan", "ios": "https://dc.lft.to/lastmile_qr_scan"}, "fusion_lon": 0.0, "lat": 38.92455266666666, "bike_id": "6ef033d16db4cad6d9d05e280fd065d4", "type": "electric_scooter", "is_reserved": 0, "lon": -77.039456}, {"fusion_lat": 0.0, "name": "93977e53a275e7ac39d2f703ec68e831", "is_disabled": 0, "rental_uris": {"android": "https://dc.lft.to/lastmile_qr_scan", "ios": "https://dc.lft.to/lastmile_qr_scan"}, "fusion_lon": 0.0, "lat": 38.938719166666665, "bike_id": "93977e53a275e7ac39d2f703ec68e831", "type": "electric_scooter", "is_reserved": 0, "lon": -77.02917166666667}, {"fusion_lat": 0.0, "name": "2998c4576276975bda8f4cf99127b033", "is_disabled": 0, "rental_uris": {"android": "https://dc.lft.to/lastmile_qr_scan", "ios": "https://dc.lft.to/lastmile_qr_scan"}, "fusion_lon": 0.0, "lat": 38.900153, "bike_id": "2998c4576276975bda8f4cf99127b033", "type": "electric_scooter", "is_reserved": 0, "lon": -77.02280516666667}, {"fusion_lat": 0.0, "name": "117a9d6e5ed4fb83d3afb66ae8e21b11", "is_disabled": 0, "rental_uris": {"android": "https://dc.lft.to/lastmile_qr_scan", "ios": "https://dc.lft.to/lastmile_qr_scan"}, "fusion_lon": 0.0, "lat": 38.915989, "bike_id": "117a9d6e5ed4fb83d3afb66ae8e21b11", "type": "electric_scooter", "is_reserved": 0, "lon": -76.9936085}, {"fusion_lat": 0.0, "name": "9a62b3d0e3355c90a7efe5e1ebef6d98", "is_disabled": 0, "rental_uris": {"android": "https://dc.lft.to/lastmile_qr_scan", "ios": "https://dc.lft.to/lastmile_qr_scan"}, "fusion_lon": 0.0, "lat": 38.8972155, "bike_id": "9a62b3d0e3355c90a7efe5e1ebef6d98", "type": "electric_scooter", "is_reserved": 0, "lon": -77.055254}, {"fusion_lat": 0.0, "name": "5fbcb973ba9f06c7d8e546493bb52122", "is_disabled": 0, "rental_uris": {"android": "https://dc.lft.to/lastmile_qr_scan", "ios": "https://dc.lft.to/lastmile_qr_scan"}, "fusion_lon": 0.0, "lat": 38.884331333333336, "bike_id": "5fbcb973ba9f06c7d8e546493bb52122", "type": "electric_scooter", "is_reserved": 0, "lon": -77.0258965}, {"fusion_lat": 0.0, "name": "84d5d895c18c0c29fff5db2a5b778e26", "is_disabled": 0, "rental_uris": {"android": "https://dc.lft.to/lastmile_qr_scan", "ios": "https://dc.lft.to/lastmile_qr_scan"}, "fusion_lon": 0.0, "lat": 38.91260616666667, "bike_id": "84d5d895c18c0c29fff5db2a5b778e26", "type": "electric_scooter", "is_reserved": 0, "lon": -77.0365485}, {"fusion_lat": 0.0, "name": "ae43b3cb64eed1166c8d8d766d24797c", "is_disabled": 0, "rental_uris": {"android": "https://dc.lft.to/lastmile_qr_scan", "ios": "https://dc.lft.to/lastmile_qr_scan"}, "fusion_lon": 0.0, "lat": 38.918041, "bike_id": "ae43b3cb64eed1166c8d8d766d24797c", "type": "electric_scooter", "is_reserved": 0, "lon": -77.034474}, {"fusion_lat": 0.0, "name": "9333163d8bb7bb79b9db32a29ccb16e8", "is_disabled": 0, "rental_uris": {"android": "https://dc.lft.to/lastmile_qr_scan", "ios": "https://dc.lft.to/lastmile_qr_scan"}, "fusion_lon": 0.0, "lat": 38.90232366666667, "bike_id": "9333163d8bb7bb79b9db32a29ccb16e8", "type": "electric_scooter", "is_reserved": 0, "lon": -77.01879216666667}, {"fusion_lat": 0.0, "name": "d60c927f0ca10261f623f23735cde6d7", "is_disabled": 0, "rental_uris": {"android": "https://dc.lft.to/lastmile_qr_scan", "ios": "https://dc.lft.to/lastmile_qr_scan"}, "fusion_lon": 0.0, "lat": 38.925499333333335, "bike_id": "d60c927f0ca10261f623f23735cde6d7", "type": "electric_scooter", "is_reserved": 0, "lon": -77.03330716666666}, {"fusion_lat": 0.0, "name": "49a43788cc4d479dc321d1268fb4ff89", "is_disabled": 0, "rental_uris": {"android": "https://dc.lft.to/lastmile_qr_scan", "ios": "https://dc.lft.to/lastmile_qr_scan"}, "fusion_lon": 0.0, "lat": 38.90242283333333, "bike_id": "49a43788cc4d479dc321d1268fb4ff89", "type": "electric_scooter", "is_reserved": 0, "lon": -77.02008133333334}, {"fusion_lat": 0.0, "name": "121849b8d62bbc6720ee9c61649a7710", "is_disabled": 0, "rental_uris": {"android": "https://dc.lft.to/lastmile_qr_scan", "ios": "https://dc.lft.to/lastmile_qr_scan"}, "fusion_lon": 0.0, "lat": 38.9204675, "bike_id": "121849b8d62bbc6720ee9c61649a7710", "type": "electric_scooter", "is_reserved": 0, "lon": -77.023825}, {"fusion_lat": 0.0, "name": "49dab7a52a3d0ee37f487f965a9104f0", "is_disabled": 0, "rental_uris": {"android": "https://dc.lft.to/lastmile_qr_scan", "ios": "https://dc.lft.to/lastmile_qr_scan"}, "fusion_lon": 0.0, "lat": 38.91444, "bike_id": "49dab7a52a3d0ee37f487f965a9104f0", "type": "electric_scooter", "is_reserved": 0, "lon": -77.012148}, {"fusion_lat": 0.0, "name": "46245d1359289ad3cdb8fe8b8e5d51ec", "is_disabled": 0, "rental_uris": {"android": "https://dc.lft.to/lastmile_qr_scan", "ios": "https://dc.lft.to/lastmile_qr_scan"}, "fusion_lon": 0.0, "lat": 38.90207983333333, "bike_id": "46245d1359289ad3cdb8fe8b8e5d51ec", "type": "electric_scooter", "is_reserved": 0, "lon": -76.97567366666667}, {"fusion_lat": 0.0, "name": "18542034e119d8226003e9130c2c2394", "is_disabled": 0, "rental_uris": {"android": "https://dc.lft.to/lastmile_qr_scan", "ios": "https://dc.lft.to/lastmile_qr_scan"}, "fusion_lon": 0.0, "lat": 38.8536255, "bike_id": "18542034e119d8226003e9130c2c2394", "type": "electric_bike", "is_reserved": 0, "lon": -77.13463916666667}, {"fusion_lat": 0.0, "name": "a7f5810694bb2e8f8e587dc5f1a86bb2", "is_disabled": 0, "rental_uris": {"android": "https://dc.lft.to/lastmile_qr_scan", "ios": "https://dc.lft.to/lastmile_qr_scan"}, "fusion_lon": 0.0, "lat": 38.84757183333333, "bike_id": "a7f5810694bb2e8f8e587dc5f1a86bb2", "type": "electric_scooter", "is_reserved": 0, "lon": -76.99503283333334}, {"fusion_lat": 0.0, "name": "4061f534a1d7b401cfaf8edda5baad6c", "is_disabled": 0, "rental_uris": {"android": "https://dc.lft.to/lastmile_qr_scan", "ios": "https://dc.lft.to/lastmile_qr_scan"}, "fusion_lon": 0.0, "lat": 38.91492566666667, "bike_id": "4061f534a1d7b401cfaf8edda5baad6c", "type": "electric_scooter", "is_reserved": 0, "lon": -77.02183566666666}, {"fusion_lat": 0.0, "name": "7338a507f31c32290e7b7d8d2dcb522c", "is_disabled": 0, "rental_uris": {"android": "https://dc.lft.to/lastmile_qr_scan", "ios": "https://dc.lft.to/lastmile_qr_scan"}, "fusion_lon": 0.0, "lat": 38.86668366666667, "bike_id": "7338a507f31c32290e7b7d8d2dcb522c", "type": "electric_scooter", "is_reserved": 0, "lon": -77.01033116666666}, {"fusion_lat": 0.0, "name": "77e6544ca9bad6ccb9b6c0e648ec3d56", "is_disabled": 0, "rental_uris": {"android": "https://dc.lft.to/lastmile_qr_scan", "ios": "https://dc.lft.to/lastmile_qr_scan"}, "fusion_lon": 0.0, "lat": 38.9406615, "bike_id": "77e6544ca9bad6ccb9b6c0e648ec3d56", "type": "electric_bike", "is_reserved": 0, "lon": -76.99458533333333}, {"fusion_lat": 0.0, "name": "0635095ea56b25ca9464d9ca2cd2e32b", "is_disabled": 0, "rental_uris": {"android": "https://dc.lft.to/lastmile_qr_scan", "ios": "https://dc.lft.to/lastmile_qr_scan"}, "fusion_lon": 0.0, "lat": 38.885498166666665, "bike_id": "0635095ea56b25ca9464d9ca2cd2e32b", "type": "electric_scooter", "is_reserved": 0, "lon": -77.02007383333333}, {"fusion_lat": 0.0, "name": "82b8b3cf0e72cdb3b113b5ecf5dc11b2", "is_disabled": 0, "rental_uris": {"android": "https://dc.lft.to/lastmile_qr_scan", "ios": "https://dc.lft.to/lastmile_qr_scan"}, "fusion_lon": 0.0, "lat": 38.876585166666665, "bike_id": "82b8b3cf0e72cdb3b113b5ecf5dc11b2", "type": "electric_scooter", "is_reserved": 0, "lon": -77.01965}, {"fusion_lat": 0.0, "name": "aef69908119ece52da3d067cbb76433c", "is_disabled": 0, "rental_uris": {"android": "https://dc.lft.to/lastmile_qr_scan", "ios": "https://dc.lft.to/lastmile_qr_scan"}, "fusion_lon": 0.0, "lat": 38.903104, "bike_id": "aef69908119ece52da3d067cbb76433c", "type": "electric_scooter", "is_reserved": 0, "lon": -77.01179866666666}, {"fusion_lat": 0.0, "name": "26ec6f038eab8ee387aed877819b9ff7", "is_disabled": 0, "rental_uris": {"android": "https://dc.lft.to/lastmile_qr_scan", "ios": "https://dc.lft.to/lastmile_qr_scan"}, "fusion_lon": 0.0, "lat": 38.934668333333335, "bike_id": "26ec6f038eab8ee387aed877819b9ff7", "type": "electric_scooter", "is_reserved": 0, "lon": -77.041169}, {"fusion_lat": 0.0, "name": "10fbeb8103ca21edb0360ca1fdfef413", "is_disabled": 0, "rental_uris": {"android": "https://dc.lft.to/lastmile_qr_scan", "ios": "https://dc.lft.to/lastmile_qr_scan"}, "fusion_lon": 0.0, "lat": 38.887351833333334, "bike_id": "10fbeb8103ca21edb0360ca1fdfef413", "type": "electric_scooter", "is_reserved": 0, "lon": -77.00348083333333}, {"fusion_lat": 0.0, "name": "160112b282f08927278b637dc37f68aa", "is_disabled": 0, "rental_uris": {"android": "https://dc.lft.to/lastmile_qr_scan", "ios": "https://dc.lft.to/lastmile_qr_scan"}, "fusion_lon": 0.0, "lat": 38.9072665, "bike_id": "160112b282f08927278b637dc37f68aa", "type": "electric_scooter", "is_reserved": 0, "lon": -77.04811633333334}, {"fusion_lat": 0.0, "name": "953d8b77470a77b27ceb687052a455db", "is_disabled": 0, "rental_uris": {"android": "https://dc.lft.to/lastmile_qr_scan", "ios": "https://dc.lft.to/lastmile_qr_scan"}, "fusion_lon": 0.0, "lat": 38.916248833333334, "bike_id": "953d8b77470a77b27ceb687052a455db", "type": "electric_scooter", "is_reserved": 0, "lon": -77.01347083333333}, {"fusion_lat": 0.0, "name": "fb17d92d6ba3ae29b029667c9d4f53ef", "is_disabled": 0, "rental_uris": {"android": "https://dc.lft.to/lastmile_qr_scan", "ios": "https://dc.lft.to/lastmile_qr_scan"}, "fusion_lon": 0.0, "lat": 38.923277, "bike_id": "fb17d92d6ba3ae29b029667c9d4f53ef", "type": "electric_scooter", "is_reserved": 0, "lon": -77.02085666666666}, {"fusion_lat": 0.0, "name": "76eb89a7d04c102744e9d8af549ff6fc", "is_disabled": 0, "rental_uris": {"android": "https://dc.lft.to/lastmile_qr_scan", "ios": "https://dc.lft.to/lastmile_qr_scan"}, "fusion_lon": 0.0, "lat": 38.90550666666667, "bike_id": "76eb89a7d04c102744e9d8af549ff6fc", "type": "electric_scooter", "is_reserved": 0, "lon": -77.06268566666667}, {"fusion_lat": 0.0, "name": "7dc808ed44f0cc79fa43a5e96f8f4cf7", "is_disabled": 0, "rental_uris": {"android": "https://dc.lft.to/lastmile_qr_scan", "ios": "https://dc.lft.to/lastmile_qr_scan"}, "fusion_lon": 0.0, "lat": 38.892912333333335, "bike_id": "7dc808ed44f0cc79fa43a5e96f8f4cf7", "type": "electric_scooter", "is_reserved": 0, "lon": -77.03178833333334}, {"fusion_lat": 0.0, "name": "87c68fcd9e7b179c204e6f7cdad68c1a", "is_disabled": 0, "rental_uris": {"android": "https://dc.lft.to/lastmile_qr_scan", "ios": "https://dc.lft.to/lastmile_qr_scan"}, "fusion_lon": 0.0, "lat": 38.879275, "bike_id": "87c68fcd9e7b179c204e6f7cdad68c1a", "type": "electric_scooter", "is_reserved": 0, "lon": -77.02384416666666}, {"fusion_lat": 0.0, "name": "1f95c5adaebc22792a3b2013ff150ca5", "is_disabled": 0, "rental_uris": {"android": "https://dc.lft.to/lastmile_qr_scan", "ios": "https://dc.lft.to/lastmile_qr_scan"}, "fusion_lon": 0.0, "lat": 38.87370516666667, "bike_id": "1f95c5adaebc22792a3b2013ff150ca5", "type": "electric_scooter", "is_reserved": 0, "lon": -77.000664}, {"fusion_lat": 0.0, "name": "bdc5ad9b96e21ac2344dbf2785d8cbf6", "is_disabled": 0, "rental_uris": {"android": "https://dc.lft.to/lastmile_qr_scan", "ios": "https://dc.lft.to/lastmile_qr_scan"}, "fusion_lon": 0.0, "lat": 38.926503, "bike_id": "bdc5ad9b96e21ac2344dbf2785d8cbf6", "type": "electric_scooter", "is_reserved": 0, "lon": -77.04141466666667}, {"fusion_lat": 0.0, "name": "7d139db07c6f064ba4815d55fe760946", "is_disabled": 0, "rental_uris": {"android": "https://dc.lft.to/lastmile_qr_scan", "ios": "https://dc.lft.to/lastmile_qr_scan"}, "fusion_lon": 0.0, "lat": 38.927632833333334, "bike_id": "7d139db07c6f064ba4815d55fe760946", "type": "electric_scooter", "is_reserved": 0, "lon": -77.02953283333333}, {"fusion_lat": 0.0, "name": "09e5d0d201875274538e3655737edaa2", "is_disabled": 0, "rental_uris": {"android": "https://dc.lft.to/lastmile_qr_scan", "ios": "https://dc.lft.to/lastmile_qr_scan"}, "fusion_lon": 0.0, "lat": 38.874621166666664, "bike_id": "09e5d0d201875274538e3655737edaa2", "type": "electric_scooter", "is_reserved": 0, "lon": -77.0047675},