{"data": {"bikes": [{"name": "ba53334757487a2c66053595db1249a9", "type": "electric_scooter", "lat": 38.91318583333333, "is_reserved": 0, "lon": -77.0220875, "fusion_lon": 0.0, "is_disabled": 0, "fusion_lat": 0.0, "bike_id": "ba53334757487a2c66053595db1249a9", "rental_uris": {"ios": "https://dc.lft.to/lastmile_qr_scan", "android": "https://dc.lft.to/lastmile_qr_scan"}}, {"name": "64532f8e6a48a9e63fd6fd8b59e0e187", "type": "electric_scooter", "lat": 38.8946825, "is_reserved": 0, "lon": -76.97721733333333, "fusion_lon": 0.0, "is_disabled": 0, "fusion_lat": 0.0, "bike_id": "64532f8e6a48a9e63fd6fd8b59e0e187", "rental_uris": {"ios": "https://dc.lft.to/lastmile_qr_scan", "android": "https://dc.lft.to/lastmile_qr_scan"}}, {"name": "2eb7f9e703be5ce04bbac5afdc7e9855", "type": "electric_scooter", "lat": 38.941789166666666, "is_reserved": 0, "lon": -77.03653533333333, "fusion_lon": 0.0, "is_disabled": 0, "fusion_lat": 0.0, "bike_id": "2eb7f9e703be5ce04bbac5afdc7e9855", "rental_uris": {"ios": "https://dc.lft.to/lastmile_qr_scan", "android": "https://dc.lft.to/lastmile_qr_scan"}}, {"name": "3203c37ac4efea9e2845173e92de1288", "type": "electric_bike", "lat": 38.9317475, "is_reserved": 0, "lon": -77.0353325, "fusion_lon": 0.0, "is_disabled": 0, "fusion_lat": 0.0, "bike_id": "3203c37ac4efea9e2845173e92de1288", "rental_uris": {"ios": "https://dc.lft.to/lastmile_qr_scan", "android": "https://dc.lft.to/lastmile_qr_scan"}}, {"name": "230ba59d93f727ab8dba385bca3aff98", "type": "electric_scooter", "lat": 38.91194983333333, "is_reserved": 0, "lon": -77.03219833333333, "fusion_lon": 0.0, "is_disabled": 0, "fusion_lat": 0.0, "bike_id": "230ba59d93f727ab8dba385bca3aff98", "rental_uris": {"ios": "https://dc.lft.to/lastmile_qr_scan", "android": "https://dc.lft.to/lastmile_qr_scan"}}, {"name": "d9758a9311863fe7c8e145c4ca3eb302", "type": "electric_scooter", "lat": 38.897401, "is_reserved": 0, "lon": -76.94253633333334, "fusion_lon": 0.0, "is_disabled": 0, "fusion_lat": 0.0, "bike_id": "d9758a9311863fe7c8e145c4ca3eb302", "rental_uris": {"ios": "https://dc.lft.to/lastmile_qr_scan", "android": "https://dc.lft.to/lastmile_qr_scan"}}, {"name": "ed57023602f61ba2e5df7cca3022e60d", "type": "electric_scooter", "lat": 38.90007166666667, "is_reserved": 0, "lon": -77.032933, "fusion_lon": 0.0, "is_disabled": 0, "fusion_lat": 0.0, "bike_id": "ed57023602f61ba2e5df7cca3022e60d", "rental_uris": {"ios": "https://dc.lft.to/lastmile_qr_scan", "android": "https://dc.lft.to/lastmile_qr_scan"}}, {"name": "14f9c66dba508ac194dd4377a55de608", "type": "electric_scooter", "lat": 38.90865566666667, "is_reserved": 0, "lon": -77.02485766666666, "fusion_lon": 0.0, "is_disabled": 0, "fusion_lat": 0.0, "bike_id": "14f9c66dba508ac194dd4377a55de608", "rental_uris": {"ios": "https://dc.lft.to/lastmile_qr_scan", "android": "https://dc.lft.to/lastmile_qr_scan"}}, {"name": "60541f6342d9e92f02204166264d6055", "type": "electric_scooter", "lat": 38.88744116666667, "is_reserved": 0, "lon": -77.0202155, "fusion_lon": 0.0, "is_disabled": 0, "fusion_lat": 0.0, "bike_id": "60541f6342d9e92f02204166264d6055", "rental_uris": {"ios": "https://dc.lft.to/lastmile_qr_scan", "android": "https://dc.lft.to/lastmile_qr_scan"}}, {"name": "c08317d77c16f84f85c375fafac78d03", "type": "electric_scooter", "lat": 38.942064333333335, "is_reserved": 0, "lon": -77.0251995, "fusion_lon": 0.0, "is_disabled": 0, "fusion_lat": 0.0, "bike_id": "c08317d77c16f84f85c375fafac78d03", "rental_uris": {"ios": "https://dc.lft.to/lastmile_qr_scan", "android": "https://dc.lft.to/lastmile_qr_scan"}}, {"name": "b0f19ca6e6418d3e17ac9a1641ac5582", "type": "electric_scooter", "lat": 38.88400566666667, "is_reserved": 0, "lon": -76.99524933333333, "fusion_lon": 0.0, "is_disabled": 0, "fusion_lat": 0.0, "bike_id": "b0f19ca6e6418d3e17ac9a1641ac5582", "rental_uris": {"ios": "https://dc.lft.to/lastmile_qr_scan", "android": "https://dc.lft.to/lastmile_qr_scan"}}, {"name": "c66565be835fd9a0548e2c1ad184e6b4", "type": "electric_scooter", "lat": 38.93568166666667, "is_reserved": 0, "lon": -77.03728683333334, "fusion_lon": 0.0, "is_disabled": 0, "fusion_lat": 0.0, "bike_id": "c66565be835fd9a0548e2c1ad184e6b4", "rental_uris": {"ios": "https://dc.lft.to/lastmile_qr_scan", "android": "https://dc.lft.to/lastmile_qr_scan"}}, {"name": "5b2af5f06828248586e07adbf4caa1b9", "type": "electric_scooter", "lat": 38.92877716666667, "is_reserved": 0, "lon": -77.03755466666667, "fusion_lon": 0.0, "is_disabled": 0, "fusion_lat": 0.0, "bike_id": "5b2af5f06828248586e07adbf4caa1b9", "rental_uris": {"ios": "https://dc.lft.to/lastmile_qr_scan", "android": "https://dc.lft.to/lastmile_qr_scan"}}, {"name": "946c6eb0b0bdbecbe2ff1227b5b24fa5", "type": "electric_bike", "lat": 38.94314933333333, "is_reserved": 0, "lon": -76.9616745, "fusion_lon": 0.0, "is_disabled": 0, "fusion_lat": 0.0, "bike_id": "946c6eb0b0bdbecbe2ff1227b5b24fa5", "rental_uris": {"ios": "https://dc.lft.to/lastmile_qr_scan", "android": "https://dc.lft.to/lastmile_qr_scan"}}, {"name": "0bb809cfe8fa1b44c9ffb320afbc8873", "type": "electric_scooter", "lat": 38.91170566666667, "is_reserved": 0, "lon": -77.01980083333333, "fusion_lon": 0.0, "is_disabled": 0, "fusion_lat": 0.0, "bike_id": "0bb809cfe8fa1b44c9ffb320afbc8873", "rental_uris": {"ios": "https://dc.lft.to/lastmile_qr_scan", "android": "https://dc.lft.to/lastmile_qr_scan"}}, {"name": "2d7ebb9c37e3c8d0b9afcf0f1ebc088d", "type": "electric_bike", "lat": 38.9126295, "is_reserved": 0, "lon": -77.01247033333334, "fusion_lon": 0.0, "is_disabled": 0, "fusion_lat": 0.0, "bike_id": "2d7ebb9c37e3c8d0b9afcf0f1ebc088d", "rental_uris": {"ios": "https://dc.lft.to/lastmile_qr_scan", "android": "https://dc.lft.to/lastmile_qr_scan"}}, {"name": "2a952a66f80bb70375cafc555f664f2e", "type": "electric_scooter", "lat": 38.88493583333333, "is_reserved": 0, "lon": -77.007279, "fusion_lon": 0.0, "is_disabled": 0, "fusion_lat": 0.0, "bike_id": "2a952a66f80bb70375cafc555f664f2e", "rental_uris": {"ios": "https://dc.lft.to/lastmile_qr_scan", "android": "https://dc.lft.to/lastmile_qr_scan"}}, {"name": "7c9648ec695bc9c251b22cd9fe34e8cf", "type": "electric_scooter", "lat": 38.89612733333333, "is_reserved": 0, "lon": -76.99968083333333, "fusion_lon": 0.0, "is_disabled": 0, "fusion_lat": 0.0, "bike_id": "7c9648ec695bc9c251b22cd9fe34e8cf", "rental_uris": {"ios": "https://dc.lft.to/lastmile_qr_scan", "android": "https://dc.lft.to/lastmile_qr_scan"}}, {"name": "fa45424da81291137b9d1742b06dc4b1", "type": "electric_scooter", "lat": 38.863718, "is_reserved": 0, "lon": -77.01361666666666, "fusion_lon": 0.0, "is_disabled": 0, "fusion_lat": 0.0, "bike_id": "fa45424da81291137b9d1742b06dc4b1", "rental_uris": {"ios": "https://dc.lft.to/lastmile_qr_scan", "android": "https://dc.lft.to/lastmile_qr_scan"}}, {"name": "d3c258b77c16974f996ab058e6655368", "type": "electric_bike", "lat": 38.94584866666667, "is_reserved": 0, "lon": -77.00271, "fusion_lon": 0.0, "is_disabled": 0, "fusion_lat": 0.0, "bike_id": "d3c258b77c16974f996ab058e6655368", "rental_uris": {"ios": "https://dc.lft.to/lastmile_qr_scan", "android": "https://dc.lft.to/lastmile_qr_scan"}}, {"name": "efca8b818a817889fc67cbffa00f875b", "type": "electric_scooter", "lat": 38.918000666666664, "is_reserved": 0, "lon": -77.001665, "fusion_lon": 0.0, "is_disabled": 0, "fusion_lat": 0.0, "bike_id": "efca8b818a817889fc67cbffa00f875b", "rental_uris": {"ios": "https://dc.lft.to/lastmile_qr_scan", "android": "https://dc.lft.to/lastmile_qr_scan"}}, {"name": "4a5d665198559aa0175359514c9d0421", "type": "electric_scooter", "lat": 38.903691, "is_reserved": 0, "lon": -77.01769183333333, "fusion_lon": 0.0, "is_disabled": 0, "fusion_lat": 0.0, "bike_id": "4a5d665198559aa0175359514c9d0421", "rental_uris": {"ios": "https://dc.lft.to/lastmile_qr_scan", "android": "https://dc.lft.to/lastmile_qr_scan"}}, {"name": "b54bc8b91aca16fd68a96b82842a0219", "type": "electric_scooter", "lat": 38.9126055, "is_reserved": 0, "lon": -77.0063395, "fusion_lon": 0.0, "is_disabled": 0, "fusion_lat": 0.0, "bike_id": "b54bc8b91aca16fd68a96b82842a0219", "rental_uris": {"ios": "https://dc.lft.to/lastmile_qr_scan", "android": "https://dc.lft.to/lastmile_qr_scan"}}, {"name": "3a66fdc026a143e3bc0383b4909ab008", "type": "electric_bike", "lat": 38.965060666666666, "is_reserved": 0, "lon": -77.0282535, "fusion_lon": 0.0, "is_disabled": 0, "fusion_lat": 0.0, "bike_id": "3a66fdc026a143e3bc0383b4909ab008", "rental_uris": {"ios": "https://dc.lft.to/lastmile_qr_scan", "android": "https://dc.lft.to/lastmile_qr_scan"}}, {"name": "4c608f010836b5676ce6ce3d43478edf", "type": "electric_scooter", "lat": 38.89222266666667, "is_reserved": 0, "lon": -77.02141083333333, "fusion_lon": 0.0, "is_disabled": 0, "fusion_lat": 0.0, "bike_id": "4c608f010836b5676ce6ce3d43478edf", "rental_uris": {"ios": "https://dc.lft.to/lastmile_qr_scan", "android": "https://dc.lft.to/lastmile_qr_scan"}}, {"name": "f4de067d4c32a84f44ab124768d5cfdd", "type": "electric_bike", "lat": 39.030514, "is_reserved": 0, "lon": -77.09491416666667, "fusion_lon": 0.0, "is_disabled": 0, "fusion_lat": 0.0, "bike_id": "f4de067d4c32a84f44ab124768d5cfdd", "rental_uris": {"ios": "https://dc.lft.to/lastmile_qr_scan", "android": "https://dc.lft.to/lastmile_qr_scan"}}, {"name": "1e54dcf8c4fb792638594483889bf60b", "type": "electric_scooter", "lat": 38.908307, "is_reserved": 0, "lon": -76.997019, "fusion_lon": 0.0, "is_disabled": 0, "fusion_lat": 0.0, "bike_id": "1e54dcf8c4fb792638594483889bf60b", "rental_uris": {"ios": "https://dc.lft.to/lastmile_qr_scan", "android": "https://dc.lft.to/lastmile_qr_scan"}}, {"name": "fd795a3e8f7de2a8edf6299b975aa15c", "type": "electric_scooter", "lat": 38.92843, "is_reserved": 0, "lon": -77.054281, "fusion_lon": 0.0, "is_disabled": 0, "fusion_lat": 0.0, "bike_id": "fd795a3e8f7de2a8edf6299b975aa15c", "rental_uris": {"ios": "https://dc.lft.to/lastmile_qr_scan", "android": "https://dc.lft.to/lastmile_qr_scan"}}, {"name": "f19a7e50eba1a5b0eafd3a18408cd4ce", "type": "electric_scooter", "lat": 38.903612833333334, "is_reserved": 0, "lon": -77.00738016666666, "fusion_lon": 0.0, "is_disabled": 0, "fusion_lat": 0.0, "bike_id": "f19a7e50eba1a5b0eafd3a18408cd4ce", "rental_uris": {"ios": "https://dc.lft.to/lastmile_qr_scan", "android": "https://dc.lft.to/lastmile_qr_scan"}}, {"name": "e76e49708c3e9e0fa6d7ab39d78f36b7", "type": "electric_scooter", "lat": 38.87965633333334, "is_reserved": 0, "lon": -76.985419, "fusion_lon": 0.0, "is_disabled": 0, "fusion_lat": 0.0, "bike_id": "e76e49708c3e9e0fa6d7ab39d78f36b7", "rental_uris": {"ios": "https://dc.lft.to/lastmile_qr_scan", "android": "https://dc.lft.to/lastmile_qr_scan"}}, {"name": "6e82d473a321262f5c5be8e22289ca66", "type": "electric_scooter", "lat": 38.8913095, "is_reserved": 0, "lon": -77.003441, "fusion_lon": 0.0, "is_disabled": 0, "fusion_lat": 0.0, "bike_id": "6e82d473a321262f5c5be8e22289ca66", "rental_uris": {"ios": "https://dc.lft.to/lastmile_qr_scan", "android": "https://dc.lft.to/lastmile_qr_scan"}}, {"name": "4c237652bb4f42804c4df882dd347123", "type": "electric_scooter", "lat": 38.89195816666667, "is_reserved": 0, "lon": -77.01547433333333, "fusion_lon": 0.0, "is_disabled": 0, "fusion_lat": 0.0, "bike_id": "4c237652bb4f42804c4df882dd347123", "rental_uris": {"ios": "https://dc.lft.to/lastmile_qr_scan", "android": "https://dc.lft.to/lastmile_qr_scan"}}, {"name": "f8a1bdd01613151541d2f46ce87a2e0e", "type": "electric_scooter", "lat": 38.89578, "is_reserved": 0, "lon": -77.02563033333334, "fusion_lon": 0.0, "is_disabled": 0, "fusion_lat": 0.0, "bike_id": "f8a1bdd01613151541d2f46ce87a2e0e", "rental_uris": {"ios": "https://dc.lft.to/lastmile_qr_scan", "android": "https://dc.lft.to/lastmile_qr_scan"}}, {"name": "178b9453816027f399a4cc91d0bb58ad", "type": "electric_scooter", "lat": 38.87671233333333, "is_reserved": 0, "lon": -77.00085966666667, "fusion_lon": 0.0, "is_disabled": 0, "fusion_lat": 0.0, "bike_id": "178b9453816027f399a4cc91d0bb58ad", "rental_uris": {"ios": "https://dc.lft.to/lastmile_qr_scan", "android": "https://dc.lft.to/lastmile_qr_scan"}}, {"name": "9a64ef3771fa280a3cf88af526272b18", "type": "electric_scooter", "lat": 38.902795166666664, "is_reserved": 0, "lon": -77.01817333333334, "fusion_lon": 0.0, "is_disabled": 0, "fusion_lat": 0.0, "bike_id": "9a64ef3771fa280a3cf88af526272b18", "rental_uris": {"ios": "https://dc.lft.to/lastmile_qr_scan", "android": "https://dc.lft.to/lastmile_qr_scan"}}, {"name": "575548f5f89a4eebafa46a67a10543a5", "type": "electric_scooter", "lat": 38.905166, "is_reserved": 0, "lon": -77.0512455, "fusion_lon": 0.0, "is_disabled": 0, "fusion_lat": 0.0, "bike_id": "575548f5f89a4eebafa46a67a10543a5", "rental_uris": {"ios": "https://dc.lft.to/lastmile_qr_scan", "android": "https://dc.lft.to/lastmile_qr_scan"}}, {"name": "fb46b9bab7d1eaccd87dfeb96af5d534", "type": "electric_scooter", "lat": 38.93788883333333, "is_reserved": 0, "lon": -77.024467, "fusion_lon": 0.0, "is_disabled": 0, "fusion_lat": 0.0, "bike_id": "fb46b9bab7d1eaccd87dfeb96af5d534", "rental_uris": {"ios": "https://dc.lft.to/lastmile_qr_scan", "android": "https://dc.lft.to/lastmile_qr_scan"}}, {"name": "e0c257bb77be3cd85edf0754fae9f8de", "type": "electric_scooter", "lat": 38.932222333333335, "is_reserved": 0, "lon": -77.03541233333333, "fusion_lon": 0.0, "is_disabled": 0, "fusion_lat": 0.0, "bike_id": "e0c257bb77be3cd85edf0754fae9f8de", "rental_uris": {"ios": "https://dc.lft.to/lastmile_qr_scan", "android": "https://dc.lft.to/lastmile_qr_scan"}}, {"name": "400849964a4873d441af7613fe1c4969", "type": "electric_scooter", "lat": 38.889373166666665, "is_reserved": 0, "lon": -76.948131, "fusion_lon": 0.0, "is_disabled": 0, "fusion_lat": 0.0, "bike_id": "400849964a4873d441af7613fe1c4969", "rental_uris": {"ios": "https://dc.lft.to/lastmile_qr_scan", "android": "https://dc.lft.to/lastmile_qr_scan"}}, {"name": "ebbbd6084a726a7b4185f1eb3616e90b", "type": "electric_scooter", "lat": 38.9031375, "is_reserved": 0, "lon": -77.03812233333333, "fusion_lon": 0.0, "is_disabled": 0, "fusion_lat": 0.0, "bike_id": "ebbbd6084a726a7b4185f1eb3616e90b", "rental_uris": {"ios": "https://dc.lft.to/lastmile_qr_scan", "android": "https://dc.lft.to/lastmile_qr_scan"}}, {"name": "d35d049d0eeb960fea0c2a18d66ee9a9", "type": "electric_scooter", "lat": 38.92912716666667, "is_reserved": 0, "lon": -77.02193233333334, "fusion_lon": 0.0, "is_disabled": 0, "fusion_lat": 0.0, "bike_id": "d35d049d0eeb960fea0c2a18d66ee9a9", "rental_uris": {"ios": "https://dc.lft.to/lastmile_qr_scan", "android": "https://dc.lft.to/lastmile_qr_scan"}}, {"name": "aaa13ff930a36e8c2bc62b3a97218f2a", "type": "electric_bike", "lat": 38.958847, "is_reserved": 0, "lon": -76.92482016666666, "fusion_lon": 0.0, "is_disabled": 0, "fusion_lat": 0.0, "bike_id": "aaa13ff930a36e8c2bc62b3a97218f2a", "rental_uris": {"ios": "https://dc.lft.to/lastmile_qr_scan", "android": "https://dc.lft.to/lastmile_qr_scan"}}, {"name": "cd582622001806988ffbe6a13eac8740", "type": "electric_scooter", "lat": 38.90016033333333, "is_reserved": 0, "lon": -76.994517, "fusion_lon": 0.0, "is_disabled": 0, "fusion_lat": 0.0, "bike_id": "cd582622001806988ffbe6a13eac8740", "rental_uris": {"ios": "https://dc.lft.to/lastmile_qr_scan", "android": "https://dc.lft.to/lastmile_qr_scan"}}, {"name": "958c50f2058665a68ac84a5056480c29", "type": "electric_scooter", "lat": 38.903653, "is_reserved": 0, "lon": -77.03965566666666, "fusion_lon": 0.0, "is_disabled": 0, "fusion_lat": 0.0, "bike_id": "958c50f2058665a68ac84a5056480c29", "rental_uris": {"ios": "https://dc.lft.to/lastmile_qr_scan", "android": "https://dc.lft.to/lastmile_qr_scan"}}, {"name": "f640d86198556f08d37aba2342281828", "type": "electric_bike", "lat": 38.8386, "is_reserved": 0, "lon": -77.08866016666667, "fusion_lon": 0.0, "is_disabled": 0, "fusion_lat": 0.0, "bike_id": "f640d86198556f08d37aba2342281828", "rental_uris": {"ios": "https://dc.lft.to/lastmile_qr_scan", "android": "https://dc.lft.to/lastmile_qr_scan"}}, {"name": "01b4044b971d01f1611a9b985ab7796d", "type": "electric_bike", "lat": 38.9008005, "is_reserved": 0, "lon": -76.98011566666666, "fusion_lon": 0.0, "is_disabled": 0, "fusion_lat": 0.0, "bike_id": "01b4044b971d01f1611a9b985ab7796d", "rental_uris": {"ios": "https://dc.lft.to/lastmile_qr_scan", "android": "https://dc.lft.to/lastmile_qr_scan"}}, {"name": "335eb909c38ad6a495c00433c22ad839", "type": "electric_bike", "lat": 38.97329633333333, "is_reserved": 0, "lon": -77.02150883333333, "fusion_lon": 0.0, "is_disabled": 0, "fusion_lat": 0.0, "bike_id": "335eb909c38ad6a495c00433c22ad839", "rental_uris": {"ios": "https://dc.lft.to/lastmile_qr_scan", "android": "https://dc.lft.to/lastmile_qr_scan"}}, {"name": "1af0207293aff6880574d538bbe060c2", "type": "electric_scooter", "lat": 38.941144, "is_reserved": 0, "lon": -77.026594, "fusion_lon": 0.0, "is_disabled": 0, "fusion_lat": 0.0, "bike_id": "1af0207293aff6880574d538bbe060c2", "rental_uris": {"ios": "https://dc.lft.to/lastmile_qr_scan", "android": "https://dc.lft.to/lastmile_qr_scan"}}, {"name": "88903092464cae03720f8c053dea5e56", "type": "electric_scooter", "lat": 38.8849165, "is_reserved": 0, "lon": -77.02855016666666, "fusion_lon": 0.0, "is_disabled": 0, "fusion_lat": 0.0, "bike_id": "88903092464cae03720f8c053dea5e56", "rental_uris": {"ios": "https://dc.lft.to/lastmile_qr_scan", "android": "https://dc.lft.to/lastmile_qr_scan"}}, {"name": "d1dbbbe0e04279807e192cffb71c0b82", "type": "electric_scooter", "lat": 38.908617, "is_reserved": 0, "lon": -76.98621233333333, "fusion_lon": 0.0, "is_disabled": 0, "fusion_lat": 0.0, "bike_id": "d1dbbbe0e04279807e192cffb71c0b82", "rental_uris": {"ios": "https://dc.lft.to/lastmile_qr_scan", "android": "https://dc.lft.to/lastmile_qr_scan"}}, {"name": "a24539cfc13aa29252b938385718a591", "type": "electric_scooter", "lat": 38.900324166666664, "is_reserved": 0, "lon": -76.9883375, "fusion_lon": 0.0, "is_disabled": 0, "fusion_lat": 0.0, "bike_id": "a24539cfc13aa29252b938385718a591", "rental_uris": {"ios": "https://dc.lft.to/lastmile_qr_scan", "android": "https://dc.lft.to/lastmile_qr_scan"}}, {"name": "d56cd7b7e3149b723aade48bd6606bcd", "type": "electric_scooter", "lat": 38.9051535, "is_reserved": 0, "lon": -77.06587716666667, "fusion_lon": 0.0, "is_disabled": 0, "fusion_lat": 0.0, "bike_id": "d56cd7b7e3149b723aade48bd6606bcd", "rental_uris": {"ios": "https://dc.lft.to/lastmile_qr_scan", "android": "https://dc.lft.to/lastmile_qr_scan"}}, {"name": "62712e023231c490f156319c9ac1131b", "type": "electric_bike", "lat": 38.903652666666666, "is_reserved": 0, "lon": -76.983271, "fusion_lon": 0.0, "is_disabled": 0, "fusion_lat": 0.0, "bike_id": "62712e023231c490f156319c9ac1131b", "rental_uris": {"ios": "https://dc.lft.to/lastmile_qr_scan", "android": "https://dc.lft.to/lastmile_qr_scan"}}, {"name": "11fae9b4ac4c65848015571ddf8aa9e9", "type": "electric_scooter", "lat": 38.8635605, "is_reserved": 0, "lon": -76.99067266666667, "fusion_lon": 0.0, "is_disabled": 0, "fusion_lat": 0.0, "bike_id": "11fae9b4ac4c65848015571ddf8aa9e9", "rental_uris": {"ios": "https://dc.lft.to/lastmile_qr_scan", "android": "https://dc.lft.to/lastmile_qr_scan"}}, {"name": "17935b2847da33b7b0d33565ef828b4e", "type": "electric_scooter", "lat": 38.90166466666667, "is_reserved": 0, "lon": -77.00016116666667, "fusion_lon": 0.0, "is_disabled": 0, "fusion_lat": 0.0, "bike_id": "17935b2847da33b7b0d33565ef828b4e", "rental_uris": {"ios": "https://dc.lft.to/lastmile_qr_scan", "android": "https://dc.lft.to/lastmile_qr_scan"}}, {"name": "7ef8d0bf71736517207c3ef87e4b1bdd", "type": "electric_scooter", "lat": 38.905489, "is_reserved": 0, "lon": -77.04648083333333, "fusion_lon": 0.0, "is_disabled": 0, "fusion_lat": 0.0, "bike_id": "7ef8d0bf71736517207c3ef87e4b1bdd", "rental_uris": {"ios": "https://dc.lft.to/lastmile_qr_scan", "android": "https://dc.lft.to/lastmile_qr_scan"}}, {"name": "40c0b916457d686519ebc4654cbd76bd", "type": "electric_scooter", "lat": 38.9036655, "is_reserved": 0, "lon": -77.0449085, "fusion_lon": 0.0, "is_disabled": 0, "fusion_lat": 0.0, "bike_id": "40c0b916457d686519ebc4654cbd76bd", "rental_uris": {"ios": "https://dc.lft.to/lastmile_qr_scan", "android": "https://dc.lft.to/lastmile_qr_scan"}}, {"name": "a08dfb286be63c3f25a28e7b76b73a87", "type": "electric_scooter", "lat": 38.89626533333333, "is_reserved": 0, "lon": -77.03231466666666, "fusion_lon": 0.0, "is_disabled": 0, "fusion_lat": 0.0, "bike_id": "a08dfb286be63c3f25a28e7b76b73a87", "rental_uris": {"ios": "https://dc.lft.to/lastmile_qr_scan", "android": "https://dc.lft.to/lastmile_qr_scan"}}, {"name": "814a91932a9577a7be61850432b693e5", "type": "electric_scooter", "lat": 38.894839833333336, "is_reserved": 0, "lon": -77.01011666666666, "fusion_lon": 0.0, "is_disabled": 0, "fusion_lat": 0.0, "bike_id": "814a91932a9577a7be61850432b693e5", "rental_uris": {"ios": "https://dc.lft.to/lastmile_qr_scan", "android": "https://dc.lft.to/lastmile_qr_scan"}}, {"name": "15d42d052e099ae365c76c3b42c16257", "type": "electric_bike", "lat": 38.92210266666667, "is_reserved": 0, "lon": -76.987978, "fusion_lon": 0.0, "is_disabled": 0, "fusion_lat": 0.0, "bike_id": "15d42d052e099ae365c76c3b42c16257", "rental_uris": {"ios": "https://dc.lft.to/lastmile_qr_scan", "android": "https://dc.lft.to/lastmile_qr_scan"}}, {"name": "2ce2df4b64893f3ef90724c51a04ec26", "type": "electric_scooter", "lat": 38.918205666666665, "is_reserved": 0, "lon": -77.03143216666666, "fusion_lon": 0.0, "is_disabled": 0, "fusion_lat": 0.0, "bike_id": "2ce2df4b64893f3ef90724c51a04ec26", "rental_uris": {"ios": "https://dc.lft.to/lastmile_qr_scan", "android": "https://dc.lft.to/lastmile_qr_scan"}}, {"name": "8dac1404913fca21d7767f8976423c2c", "type": "electric_bike", "lat": 38.8757775, "is_reserved": 0, "lon": -77.10563683333334, "fusion_lon": 0.0, "is_disabled": 0, "fusion_lat": 0.0, "bike_id": "8dac1404913fca21d7767f8976423c2c", "rental_uris": {"ios": "https://dc.lft.to/lastmile_qr_scan", "android": "https://dc.lft.to/lastmile_qr_scan"}}, {"name": "bf09c301ad3de5605628bf76174509db", "type": "electric_scooter", "lat": 38.935093333333334, "is_reserved": 0, "lon": -77.01997083333333, "fusion_lon": 0.0, "is_disabled": 0, "fusion_lat": 0.0, "bike_id": "bf09c301ad3de5605628bf76174509db", "rental_uris": {"ios": "https://dc.lft.to/lastmile_qr_scan", "android": "https://dc.lft.to/lastmile_qr_scan"}}, {"name": "d206e58d8f8258c96d2c0daa141de79e", "type": "electric_scooter", "lat": 38.90267133333333, "is_reserved": 0, "lon": -77.00328283333333, "fusion_lon": 0.0, "is_disabled": 0, "fusion_lat": 0.0, "bike_id": "d206e58d8f8258c96d2c0daa141de79e", "rental_uris": {"ios": "https://dc.lft.to/lastmile_qr_scan", "android": "https://dc.lft.to/lastmile_qr_scan"}}, {"name": "347c60bf2baf1701b9babefae732ba30", "type": "electric_scooter", "lat": 38.90062433333333, "is_reserved": 0, "lon": -77.04820433333333, "fusion_lon": 0.0, "is_disabled": 0, "fusion_lat": 0.0, "bike_id": "347c60bf2baf1701b9babefae732ba30", "rental_uris": {"ios": "https://dc.lft.to/lastmile_qr_scan", "android": "https://dc.lft.to/lastmile_qr_scan"}}, {"name": "270b4c4fb95744d2ffee6c5ee4fd0a45", "type": "electric_scooter", "lat": 38.90368933333333, "is_reserved": 0, "lon": -77.01625516666667, "fusion_lon": 0.0, "is_disabled": 0, "fusion_lat": 0.0, "bike_id": "270b4c4fb95744d2ffee6c5ee4fd0a45", "rental_uris": {"ios": "https://dc.lft.to/lastmile_qr_scan", "android": "https://dc.lft.to/lastmile_qr_scan"}}, {"name": "4a84ffa9af9eaef6405be2f4923fb930", "type": "electric_scooter", "lat": 38.883943333333335, "is_reserved": 0, "lon": -76.93041833333334, "fusion_lon": 0.0, "is_disabled": 0, "fusion_lat": 0.0, "bike_id": "4a84ffa9af9eaef6405be2f4923fb930", "rental_uris": {"ios": "https://dc.lft.to/lastmile_qr_scan", "android": "https://dc.lft.to/lastmile_qr_scan"}}, {"name": "b18264203b389e980ebced00b9a24ca3", "type": "electric_scooter", "lat": 38.887543, "is_reserved": 0, "lon": -76.979799, "fusion_lon": 0.0, "is_disabled": 0, "fusion_lat": 0.0, "bike_id": "b18264203b389e980ebced00b9a24ca3", "rental_uris": {"ios": "https://dc.lft.to/lastmile_qr_scan", "android": "https://dc.lft.to/lastmile_qr_scan"}}, {"name": "802ecc49d57f9cd77d0f3fd11a189b21", "type": "electric_scooter", "lat": 38.943634, "is_reserved": 0, "lon": -77.021765, "fusion_lon": 0.0, "is_disabled": 0, "fusion_lat": 0.0, "bike_id": "802ecc49d57f9cd77d0f3fd11a189b21", "rental_uris": {"ios": "https://dc.lft.to/lastmile_qr_scan", "android": "https://dc.lft.to/lastmile_qr_scan"}}, {"name": "3e2e6aa4750ae7faa9ac3e888221a1fc", "type": "electric_scooter", "lat": 38.93348566666667, "is_reserved": 0, "lon": -77.029521, "fusion_lon": 0.0, "is_disabled": 0, "fusion_lat": 0.0, "bike_id": "3e2e6aa4750ae7faa9ac3e888221a1fc", "rental_uris": {"ios": "https://dc.lft.to/lastmile_qr_scan", "android": "https://dc.lft.to/lastmile_qr_scan"}}, {"name": "9e73cca1076dbf57702d93e4e3108cd3", "type": "electric_scooter", "lat": 38.9227625, "is_reserved": 0, "lon": -77.03668616666667, "fusion_lon": 0.0, "is_disabled": 0, "fusion_lat": 0.0, "bike_id": "9e73cca1076dbf57702d93e4e3108cd3", "rental_uris": {"ios": "https://dc.lft.to/lastmile_qr_scan", "android": "https://dc.lft.to/lastmile_qr_scan"}}, {"name": "5c8b19462bb63db85ec902f95cd49338", "type": "electric_scooter", "lat": 38.914225333333334, "is_reserved": 0, "lon": -77.04647383333334, "fusion_lon": 0.0, "is_disabled": 0, "fusion_lat": 0.0, "bike_id": "5c8b19462bb63db85ec902f95cd49338", "rental_uris": {"ios": "https://dc.lft.to/lastmile_qr_scan", "android": "https://dc.lft.to/lastmile_qr_scan"}}, {"name": "8e6316bd3651c4878ca3f7de1ddabfb9", "type": "electric_scooter", "lat": 38.899418833333335, "is_reserved": 0, "lon": -76.98010066666667, "fusion_lon": 0.0, "is_disabled": 0, "fusion_lat": 0.0, "bike_id": "8e6316bd3651c4878ca3f7de1ddabfb9", "rental_uris": {"ios": "https://dc.lft.to/lastmile_qr_scan", "android": "https://dc.lft.to/lastmile_qr_scan"}}, {"name": "56ecfa2d040330df3087257bc3181877", "type": "electric_scooter", "lat": 38.900283333333334, "is_reserved": 0, "lon": -77.00208116666667, "fusion_lon": 0.0, "is_disabled": 0, "fusion_lat": 0.0, "bike_id": "56ecfa2d040330df3087257bc3181877", "rental_uris": {"ios": "https://dc.lft.to/lastmile_qr_scan", "android": "https://dc.lft.to/lastmile_qr_scan"}}, {"name": "1bf829f97241b88b66329e4f1220f4f5", "type": "electric_bike", "lat": 38.9507215, "is_reserved": 0, "lon": -77.01200266666666, "fusion_lon": 0.0, "is_disabled": 0, "fusion_lat": 0.0, "bike_id": "1bf829f97241b88b66329e4f1220f4f5", "rental_uris": {"ios": "https://dc.lft.to/lastmile_qr_scan", "android": "https://dc.lft.to/lastmile_qr_scan"}}, {"name": "2557f02beac8240c28f7eefdc46b78ec", "type": "electric_scooter", "lat": 38.937083, "is_reserved": 0, "lon": -77.029343, "fusion_lon": 0.0, "is_disabled": 0, "fusion_lat": 0.0, "bike_id": "2557f02beac8240c28f7eefdc46b78ec", "rental_uris": {"ios": "https://dc.lft.to/lastmile_qr_scan", "android": "https://dc.lft.to/lastmile_qr_scan"}}, {"name": "5bf80abd6473d8aa4bed349bdfb9fa72", "type": "electric_scooter", "lat": 38.885136833333334, "is_reserved": 0, "lon": -77.00572633333333, "fusion_lon": 0.0, "is_disabled": 0, "fusion_lat": 0.0, "bike_id": "5bf80abd6473d8aa4bed349bdfb9fa72", "rental_uris": {"ios": "https://dc.lft.to/lastmile_qr_scan", "android": "https://dc.lft.to/lastmile_qr_scan"}}, {"name": "39fe4c92916f36ec8faa2b5771d80286", "type": "electric_scooter", "lat": 38.90383416666667, "is_reserved": 0, "lon": -77.005876, "fusion_lon": 0.0, "is_disabled": 0, "fusion_lat": 0.0, "bike_id": "39fe4c92916f36ec8faa2b5771d80286", "rental_uris": {"ios": "https://dc.lft.to/lastmile_qr_scan", "android": "https://dc.lft.to/lastmile_qr_scan"}}, {"name": "d6a333075c362e3e8c8e243faa3ac36d", "type": "electric_scooter", "lat": 38.892243666666666, "is_reserved": 0, "lon": -77.03091783333333, "fusion_lon": 0.0, "is_disabled": 0, "fusion_lat": 0.0, "bike_id": "d6a333075c362e3e8c8e243faa3ac36d", "rental_uris": {"ios": "https://dc.lft.to/lastmile_qr_scan", "android": "https://dc.lft.to/lastmile_qr_scan"}}, {"name": "a4574967abb2a3c349fdcebe3da915fa", "type": "electric_scooter", "lat": 38.903719333333335, "is_reserved": 0, "lon": -77.009812, "fusion_lon": 0.0, "is_disabled": 0, "fusion_lat": 0.0, "bike_id": "a4574967abb2a3c349fdcebe3da915fa", "rental_uris": {"ios": "https://dc.lft.to/lastmile_qr_scan", "android": "https://dc.lft.to/lastmile_qr_scan"}}, {"name": "988b785180b16d0f7f6753111a2bc18a", "type": "electric_scooter", "lat": 38.93434216666667, "is_reserved": 0, "lon": -77.04003066666667, "fusion_lon": 0.0, "is_disabled": 0, "fusion_lat": 0.0, "bike_id": "988b785180b16d0f7f6753111a2bc18a", "rental_uris": {"ios": "https://dc.lft.to/lastmile_qr_scan", "android": "https://dc.lft.to/lastmile_qr_scan"}}, {"name": "9f3fc287c8861eb0e8d1238a7f7e12b3", "type": "electric_scooter", "lat": 38.907877666666664, "is_reserved": 0, "lon": -77.04877533333334, "fusion_lon": 0.0, "is_disabled": 0, "fusion_lat": 0.0, "bike_id": "9f3fc287c8861eb0e8d1238a7f7e12b3", "rental_uris": {"ios": "https://dc.lft.to/lastmile_qr_scan", "android": "https://dc.lft.to/lastmile_qr_scan"}}, {"name": "3ecbef5d336e19af71acd6c874b792ec", "type": "electric_bike", "lat": 38.83137283333333, "is_reserved": 0, "lon": -77.11317266666667, "fusion_lon": 0.0, "is_disabled": 0, "fusion_lat": 0.0, "bike_id": "3ecbef5d336e19af71acd6c874b792ec", "rental_uris": {"ios": "https://dc.lft.to/lastmile_qr_scan", "android": "https://dc.lft.to/lastmile_qr_scan"}}, {"name": "edc90576d7cf814ad990f00ce0887efd", "type": "electric_bike", "lat": 38.8840515, "is_reserved": 0, "lon": -76.96059333333334, "fusion_lon": 0.0, "is_disabled": 0, "fusion_lat": 0.0, "bike_id": "edc90576d7cf814ad990f00ce0887efd", "rental_uris": {"ios": "https://dc.lft.to/lastmile_qr_scan", "android": "https://dc.lft.to/lastmile_qr_scan"}}, {"name": "5d5a34886443a81b1d287fbcaed749f0", "type": "electric_scooter", "lat": 38.90488166666667, "is_reserved": 0, "lon": -77.02964483333334, "fusion_lon": 0.0, "is_disabled": 0, "fusion_lat": 0.0, "bike_id": "5d5a34886443a81b1d287fbcaed749f0", "rental_uris": {"ios": "https://dc.lft.to/lastmile_qr_scan", "android": "https://dc.lft.to/lastmile_qr_scan"}}, {"name": "ae8801c0b33d21e8a43d7fc4f688c64e", "type": "electric_scooter", "lat": 38.939651833333336, "is_reserved": 0, "lon": -77.03254566666666, "fusion_lon": 0.0, "is_disabled": 0, "fusion_lat": 0.0, "bike_id": "ae8801c0b33d21e8a43d7fc4f688c64e", "rental_uris": {"ios": "https://dc.lft.to/lastmile_qr_scan", "android": "https://dc.lft.to/lastmile_qr_scan"}}, {"name": "2d6c1be16e62d34d42a3235b4c893ddb", "type": "electric_scooter", "lat": 38.89479266666667, "is_reserved": 0, "lon": -76.94868283333334, "fusion_lon": 0.0, "is_disabled": 0, "fusion_lat": 0.0, "bike_id": "2d6c1be16e62d34d42a3235b4c893ddb", "rental_uris": {"ios": "https://dc.lft.to/lastmile_qr_scan", "android": "https://dc.lft.to/lastmile_qr_scan"}}, {"name": "bf5a4363def9d55fd076771fffb41e28", "type": "electric_scooter", "lat": 38.93727783333333, "is_reserved": 0, "lon": -77.023929, "fusion_lon": 0.0, "is_disabled": 0, "fusion_lat": 0.0, "bike_id": "bf5a4363def9d55fd076771fffb41e28", "rental_uris": {"ios": "https://dc.lft.to/lastmile_qr_scan", "android": "https://dc.lft.to/lastmile_qr_scan"}}, {"name": "d108c3784e5fbfb189fe91ee5a0e807a", "type": "electric_scooter", "lat": 38.923042833333334, "is_reserved": 0, "lon": -76.99396616666667, "fusion_lon": 0.0, "is_disabled": 0, "fusion_lat": 0.0, "bike_id": "d108c3784e5fbfb189fe91ee5a0e807a", "rental_uris": {"ios": "https://dc.lft.to/lastmile_qr_scan", "android": "https://dc.lft.to/lastmile_qr_scan"}}, {"name": "95fa494a70377810b3cea51496f597a7", "type": "electric_scooter", "lat": 38.9202195, "is_reserved": 0, "lon": -77.02617183333334, "fusion_lon": 0.0, "is_disabled": 0, "fusion_lat": 0.0, "bike_id": "95fa494a70377810b3cea51496f597a7", "rental_uris": {"ios": "https://dc.lft.to/lastmile_qr_scan", "android": "https://dc.lft.to/lastmile_qr_scan"}}, {"name": "7911d10b2e1b8fbec149c83d185558e9", "type": "electric_bike", "lat": 38.96539166666667, "is_reserved": 0, "lon": -77.035152, "fusion_lon": 0.0, "is_disabled": 0, "fusion_lat": 0.0, "bike_id": "7911d10b2e1b8fbec149c83d185558e9", "rental_uris": {"ios": "https://dc.lft.to/lastmile_qr_scan", "android": "https://dc.lft.to/lastmile_qr_scan"}}, {"name": "3c3aaa464e602b5dc0734c18c933450d", "type": "electric_scooter", "lat": 38.949705, "is_reserved": 0, "lon": -77.07932683333334, "fusion_lon": 0.0, "is_disabled": 0, "fusion_lat": 0.0, "bike_id": "3c3aaa464e602b5dc0734c18c933450d", "rental_uris": {"ios": "https://dc.lft.to/lastmile_qr_scan", "android": "https://dc.lft.to/lastmile_qr_scan"}}, {"name": "4b4733578fcd2c435a3f53f80743b655", "type": "electric_scooter", "lat": 38.96983433333333, "is_reserved": 0, "lon": -77.02715433333333, "fusion_lon": 0.0, "is_disabled": 0, "fusion_lat": 0.0, "bike_id": "4b4733578fcd2c435a3f53f80743b655", "rental_uris": {"ios": "https://dc.lft.to/lastmile_qr_scan", "android": "https://dc.lft.to/lastmile_qr_scan"}}, {"name": "f42acf35b5e2c436b21428cd38484742", "type": "electric_scooter", "lat": 38.876780333333336, "is_reserved": 0, "lon": -77.0007615, "fusion_lon": 0.0, "is_disabled": 0, "fusion_lat": 0.0, "bike_id": "f42acf35b5e2c436b21428cd38484742", "rental_uris": {"ios": "https://dc.lft.to/lastmile_qr_scan", "android": "https://dc.lft.to/lastmile_qr_scan"}}, {"name": "ab381d4f47d5d86b856dd6b190705f50", "type": "electric_scooter", "lat": 38.92007983333333, "is_reserved": 0, "lon": -77.038851, "fusion_lon": 0.0, "is_disabled": 0, "fusion_lat": 0.0, "bike_id": "ab381d4f47d5d86b856dd6b190705f50", "rental_uris": {"ios": "https://dc.lft.to/lastmile_qr_scan", "android": "https://dc.lft.to/lastmile_qr_scan"}}, {"name": "9ec72d47f35654b353c16cef6d662b30", "type": "electric_scooter", "lat": 38.84289233333333, "is_reserved": 0, "lon": -76.9994555, "fusion_lon": 0.0, "is_disabled": 0, "fusion_lat": 0.0, "bike_id": "9ec72d47f35654b353c16cef6d662b30", "rental_uris": {"ios": "https://dc.lft.to/lastmile_qr_scan", "android": "https://dc.lft.to/lastmile_qr_scan"}}, {"name": "c0c79f5d56c2b35dcece4e0b4aaff35a", "type": "electric_scooter", "lat": 38.86694833333333, "is_reserved": 0, "lon": -76.98706916666667, "fusion_lon": 0.0, "is_disabled": 0, "fusion_lat": 0.0, "bike_id": "c0c79f5d56c2b35dcece4e0b4aaff35a", "rental_uris": {"ios": "https://dc.lft.to/lastmile_qr_scan", "android": "https://dc.lft.to/lastmile_qr_scan"}}, {"name": "4f42cd93bd67dc77628d353080427965", "type": "electric_scooter", "lat": 38.906129166666666, "is_reserved": 0, "lon": -77.01285183333333, "fusion_lon": 0.0, "is_disabled": 0, "fusion_lat": 0.0, "bike_id": "4f42cd93bd67dc77628d353080427965", "rental_uris": {"ios": "https://dc.lft.to/lastmile_qr_scan", "android": "https://dc.lft.to/lastmile_qr_scan"}}, {"name": "96ad54b06ae46c6a17aa8210e9fcf8ab", "type": "electric_scooter", "lat": 38.90071616666667, "is_reserved": 0, "lon": -77.0507045, "fusion_lon": 0.0, "is_disabled": 0, "fusion_lat": 0.0, "bike_id": "96ad54b06ae46c6a17aa8210e9fcf8ab", "rental_uris": {"ios": "https://dc.lft.to/lastmile_qr_scan", "android": "https://dc.lft.to/lastmile_qr_scan"}}, {"name": "27d2e77f0c57dcc727655771feec15dd", "type": "electric_scooter", "lat": 38.8973885, "is_reserved": 0, "lon": -77.0131715, "fusion_lon": 0.0, "is_disabled": 0, "fusion_lat": 0.0, "bike_id": "27d2e77f0c57dcc727655771feec15dd", "rental_uris": {"ios": "https://dc.lft.to/lastmile_qr_scan", "android": "https://dc.lft.to/lastmile_qr_scan"}}, {"name": "117b1c49ec37b2c5eb16bae851e5eb64", "type": "electric_scooter", "lat": 38.914729666666666, "is_reserved": 0, "lon": -77.03212033333334, "fusion_lon": 0.0, "is_disabled": 0, "fusion_lat": 0.0, "bike_id": "117b1c49ec37b2c5eb16bae851e5eb64", "rental_uris": {"ios": "https://dc.lft.to/lastmile_qr_scan", "android": "https://dc.lft.to/lastmile_qr_scan"}}, {"name": "a11fe192b2811127445dfee9cbba697f", "type": "electric_scooter", "lat": 38.913364666666666, "is_reserved": 0, "lon": -77.031264, "fusion_lon": 0.0, "is_disabled": 0, "fusion_lat": 0.0, "bike_id": "a11fe192b2811127445dfee9cbba697f", "rental_uris": {"ios": "https://dc.lft.to/lastmile_qr_scan", "android": "https://dc.lft.to/lastmile_qr_scan"}}, {"name": "344a3b3c2e69daa167293aaf879e870d", "type": "electric_scooter", "lat": 38.9095245, "is_reserved": 0, "lon": -76.98534016666666, "fusion_lon": 0.0, "is_disabled": 0, "fusion_lat": 0.0, "bike_id": "344a3b3c2e69daa167293aaf879e870d", "rental_uris": {"ios": "https://dc.lft.to/lastmile_qr_scan", "android": "https://dc.lft.to/lastmile_qr_scan"}}, {"name": "760ecc98278faec04245c891df07ea20", "type": "electric_scooter", "lat": 38.8841795, "is_reserved": 0, "lon": -76.97598533333333, "fusion_lon": 0.0, "is_disabled": 0, "fusion_lat": 0.0, "bike_id": "760ecc98278faec04245c891df07ea20", "rental_uris": {"ios": "https://dc.lft.to/lastmile_qr_scan", "android": "https://dc.lft.to/lastmile_qr_scan"}}, {"name": "4a1e9f626b8e7a5aea775945aa3260e0", "type": "electric_scooter", "lat": 38.903196, "is_reserved": 0, "lon": -77.0383405, "fusion_lon": 0.0, "is_disabled": 0, "fusion_lat": 0.0, "bike_id": "4a1e9f626b8e7a5aea775945aa3260e0", "rental_uris": {"ios": "https://dc.lft.to/lastmile_qr_scan", "android": "https://dc.lft.to/lastmile_qr_scan"}}, {"name": "dea9863837fcc30f56b8ccac7060ae48", "type": "electric_scooter", "lat": 38.886841833333335, "is_reserved": 0, "lon": -76.95756966666667, "fusion_lon": 0.0, "is_disabled": 0, "fusion_lat": 0.0, "bike_id": "dea9863837fcc30f56b8ccac7060ae48", "rental_uris": {"ios": "https://dc.lft.to/lastmile_qr_scan", "android": "https://dc.lft.to/lastmile_qr_scan"}}, {"name": "86bb7801fba62d1365270c38b25ad0f0", "type": "electric_scooter", "lat": 38.894586, "is_reserved": 0, "lon": -77.01919216666667, "fusion_lon": 0.0, "is_disabled": 0, "fusion_lat": 0.0, "bike_id": "86bb7801fba62d1365270c38b25ad0f0", "rental_uris": {"ios": "https://dc.lft.to/lastmile_qr_scan", "android": "https://dc.lft.to/lastmile_qr_scan"}}, {"name": "cbf4605df228cff5089928e418396dd0", "type": "electric_scooter", "lat": 38.876299833333334, "is_reserved": 0, "lon": -76.96529383333333, "fusion_lon": 0.0, "is_disabled": 0, "fusion_lat": 0.0, "bike_id": "cbf4605df228cff5089928e418396dd0", "rental_uris": {"ios": "https://dc.lft.to/lastmile_qr_scan", "android": "https://dc.lft.to/lastmile_qr_scan"}}, {"name": "098ec6e402c38ccb9494208be66451e4", "type": "electric_bike", "lat": 38.8382425, "is_reserved": 0, "lon": -76.99681066666666, "fusion_lon": 0.0, "is_disabled": 0, "fusion_lat": 0.0, "bike_id": "098ec6e402c38ccb9494208be66451e4", "rental_uris": {"ios": "https://dc.lft.to/lastmile_qr_scan", "android": "https://dc.lft.to/lastmile_qr_scan"}}, {"name": "b088b4129073c8b680c7379f97e3cd4e", "type": "electric_scooter", "lat": 38.93087933333334, "is_reserved": 0, "lon": -77.02544983333334, "fusion_lon": 0.0, "is_disabled": 0, "fusion_lat": 0.0, "bike_id": "b088b4129073c8b680c7379f97e3cd4e", "rental_uris": {"ios": "https://dc.lft.to/lastmile_qr_scan", "android": "https://dc.lft.to/lastmile_qr_scan"}}, {"name": "a1edd092846297324ebd9d7b3ebdbb4f", "type": "electric_scooter", "lat": 38.923536666666664, "is_reserved": 0, "lon": -77.05319, "fusion_lon": 0.0, "is_disabled": 0, "fusion_lat": 0.0, "bike_id": "a1edd092846297324ebd9d7b3ebdbb4f", "rental_uris": {"ios": "https://dc.lft.to/lastmile_qr_scan", "android": "https://dc.lft.to/lastmile_qr_scan"}}, {"name": "329377a736d30542e13111038cbaceec", "type": "electric_scooter", "lat": 38.932811666666666, "is_reserved": 0, "lon": -77.0397905, "fusion_lon": 0.0, "is_disabled": 0, "fusion_lat": 0.0, "bike_id": "329377a736d30542e13111038cbaceec", "rental_uris": {"ios": "https://dc.lft.to/lastmile_qr_scan", "android": "https://dc.lft.to/lastmile_qr_scan"}}, {"name": "5193ac02a964f74cd8359a0633490f32", "type": "electric_scooter", "lat": 38.8923555, "is_reserved": 0, "lon": -77.01534483333333, "fusion_lon": 0.0, "is_disabled": 0, "fusion_lat": 0.0, "bike_id": "5193ac02a964f74cd8359a0633490f32", "rental_uris": {"ios": "https://dc.lft.to/lastmile_qr_scan", "android": "https://dc.lft.to/lastmile_qr_scan"}}, {"name": "92f53ec7be4af0740f846ff1d7e65a23", "type": "electric_scooter", "lat": 38.9084075, "is_reserved": 0, "lon": -77.02696316666666, "fusion_lon": 0.0, "is_disabled": 0, "fusion_lat": 0.0, "bike_id": "92f53ec7be4af0740f846ff1d7e65a23", "rental_uris": {"ios": "https://dc.lft.to/lastmile_qr_scan", "android": "https://dc.lft.to/lastmile_qr_scan"}}, {"name": "9785fd5fd76d318c933cec5eeb84a250", "type": "electric_scooter", "lat": 38.86521283333333, "is_reserved": 0, "lon": -76.99026733333334, "fusion_lon": 0.0, "is_disabled": 0, "fusion_lat": 0.0, "bike_id": "9785fd5fd76d318c933cec5eeb84a250", "rental_uris": {"ios": "https://dc.lft.to/lastmile_qr_scan", "android": "https://dc.lft.to/lastmile_qr_scan"}}, {"name": "2b2b90911b775fdaafc6910906b8b294", "type": "electric_scooter", "lat": 38.897407666666666, "is_reserved": 0, "lon": -76.93843616666666, "fusion_lon": 0.0, "is_disabled": 0, "fusion_lat": 0.0, "bike_id": "2b2b90911b775fdaafc6910906b8b294", "rental_uris": {"ios": "https://dc.lft.to/lastmile_qr_scan", "android": "https://dc.lft.to/lastmile_qr_scan"}}, {"name": "eced3d34a4e95472e06e70b01efe596f", "type": "electric_scooter", "lat": 38.90672033333333, "is_reserved": 0, "lon": -77.03830533333333, "fusion_lon": 0.0, "is_disabled": 0, "fusion_lat": 0.0, "bike_id": "eced3d34a4e95472e06e70b01efe596f", "rental_uris": {"ios": "https://dc.lft.to/lastmile_qr_scan", "android": "https://dc.lft.to/lastmile_qr_scan"}}, {"name": "6970345800e3858308ed84eb9eeee6bb", "type": "electric_scooter", "lat": 38.931705, "is_reserved": 0, "lon": -77.0285145, "fusion_lon": 0.0, "is_disabled": 0, "fusion_lat": 0.0, "bike_id": "6970345800e3858308ed84eb9eeee6bb", "rental_uris": {"ios": "https://dc.lft.to/lastmile_qr_scan", "android": "https://dc.lft.to/lastmile_qr_scan"}}, {"name": "0515b37f29bef0fc9e8cc01c9fd04222", "type": "electric_scooter", "lat": 38.905761, "is_reserved": 0, "lon": -77.03432016666666, "fusion_lon": 0.0, "is_disabled": 0, "fusion_lat": 0.0, "bike_id": "0515b37f29bef0fc9e8cc01c9fd04222", "rental_uris": {"ios": "https://dc.lft.to/lastmile_qr_scan", "android": "https://dc.lft.to/lastmile_qr_scan"}}, {"name": "6bfd80d77339a8b5fa4648134e267219", "type": "electric_scooter", "lat": 38.9401225, "is_reserved": 0, "lon": -77.07172166666666, "fusion_lon": 0.0, "is_disabled": 0, "fusion_lat": 0.0, "bike_id": "6bfd80d77339a8b5fa4648134e267219", "rental_uris": {"ios": "https://dc.lft.to/lastmile_qr_scan", "android": "https://dc.lft.to/lastmile_qr_scan"}}, {"name": "99bc864b1affb787c6d1742fe4eea635", "type": "electric_scooter", "lat": 38.91696066666667, "is_reserved": 0, "lon": -77.01226166666666, "fusion_lon": 0.0, "is_disabled": 0, "fusion_lat": 0.0, "bike_id": "99bc864b1affb787c6d1742fe4eea635", "rental_uris": {"ios": "https://dc.lft.to/lastmile_qr_scan", "android": "https://dc.lft.to/lastmile_qr_scan"}}, {"name": "69423dd9ab61666266e78eef441863f2", "type": "electric_scooter", "lat": 38.919184, "is_reserved": 0, "lon": -77.03422583333334, "fusion_lon": 0.0, "is_disabled": 0, "fusion_lat": 0.0, "bike_id": "69423dd9ab61666266e78eef441863f2", "rental_uris": {"ios": "https://dc.lft.to/lastmile_qr_scan", "android": "https://dc.lft.to/lastmile_qr_scan"}}, {"name": "a024fa6db09bd5ce9400f48d37eb0cd4", "type": "electric_scooter", "lat": 38.908901166666666, "is_reserved": 0, "lon": -77.03153433333334, "fusion_lon": 0.0, "is_disabled": 0, "fusion_lat": 0.0, "bike_id": "a024fa6db09bd5ce9400f48d37eb0cd4", "rental_uris": {"ios": "https://dc.lft.to/lastmile_qr_scan", "android": "https://dc.lft.to/lastmile_qr_scan"}}, {"name": "04398fa8a457299312501757621087e5", "type": "electric_scooter", "lat": 38.92010483333333, "is_reserved": 0, "lon": -77.03868533333333, "fusion_lon": 0.0, "is_disabled": 0, "fusion_lat": 0.0, "bike_id": "04398fa8a457299312501757621087e5", "rental_uris": {"ios": "https://dc.lft.to/lastmile_qr_scan", "android": "https://dc.lft.to/lastmile_qr_scan"}}, {"name": "0626349de1d90e6f5858cac0e1c30da8", "type": "electric_scooter", "lat": 38.904083, "is_reserved": 0, "lon": -76.9732875, "fusion_lon": 0.0, "is_disabled": 0, "fusion_lat": 0.0, "bike_id": "0626349de1d90e6f5858cac0e1c30da8", "rental_uris": {"ios": "https://dc.lft.to/lastmile_qr_scan", "android": "https://dc.lft.to/lastmile_qr_scan"}}, {"name": "a3ff79b6b35999d28b4ee3a167773570", "type": "electric_scooter", "lat": 38.9225445, "is_reserved": 0, "lon": -77.03084316666667, "fusion_lon": 0.0, "is_disabled": 0, "fusion_lat": 0.0, "bike_id": "a3ff79b6b35999d28b4ee3a167773570", "rental_uris": {"ios": "https://dc.lft.to/lastmile_qr_scan", "android": "https://dc.lft.to/lastmile_qr_scan"}}, {"name": "0477f646c30e7aa0a6c32d7f6b5f8599", "type": "electric_scooter", "lat": 38.885137, "is_reserved": 0, "lon": -77.0335795, "fusion_lon": 0.0, "is_disabled": 0, "fusion_lat": 0.0, "bike_id": "0477f646c30e7aa0a6c32d7f6b5f8599", "rental_uris": {"ios": "https://dc.lft.to/lastmile_qr_scan", "android": "https://dc.lft.to/lastmile_qr_scan"}}, {"name": "37e5653d9efd8afc7f15ec9c848e3905", "type": "electric_scooter", "lat": 38.885213, "is_reserved": 0, "lon": -76.9771115, "fusion_lon": 0.0, "is_disabled": 0, "fusion_lat": 0.0, "bike_id": "37e5653d9efd8afc7f15ec9c848e3905", "rental_uris": {"ios": "https://dc.lft.to/lastmile_qr_scan", "android": "https://dc.lft.to/lastmile_qr_scan"}}, {"name": "27aa98d2b871b00b30f1d54a62952283", "type": "electric_scooter", "lat": 38.90437166666667, "is_reserved": 0, "lon": -76.9849265, "fusion_lon": 0.0, "is_disabled": 0, "fusion_lat": 0.0, "bike_id": "27aa98d2b871b00b30f1d54a62952283", "rental_uris": {"ios": "https://dc.lft.to/lastmile_qr_scan", "android": "https://dc.lft.to/lastmile_qr_scan"}}, {"name": "303a5c34c276ecfa1f8332f8efa1a22f", "type": "electric_bike", "lat": 38.88267483333333, "is_reserved": 0, "lon": -76.99935833333333, "fusion_lon": 0.0, "is_disabled": 0, "fusion_lat": 0.0, "bike_id": "303a5c34c276ecfa1f8332f8efa1a22f", "rental_uris": {"ios": "https://dc.lft.to/lastmile_qr_scan", "android": "https://dc.lft.to/lastmile_qr_scan"}}, {"name": "29c3bb71fc6ce2e3b244b9d6ccb0f190", "type": "electric_scooter", "lat": 38.91009866666667, "is_reserved": 0, "lon": -77.02202066666666, "fusion_lon": 0.0, "is_disabled": 0, "fusion_lat": 0.0, "bike_id": "29c3bb71fc6ce2e3b244b9d6ccb0f190", "rental_uris": {"ios": "https://dc.lft.to/lastmile_qr_scan", "android": "https://dc.lft.to/lastmile_qr_scan"}}, {"name": "677a4c87f6ab78186a46d6923ce979de", "type": "electric_scooter", "lat": 38.91819133333333, "is_reserved": 0, "lon": -77.02787283333333, "fusion_lon": 0.0, "is_disabled": 0, "fusion_lat": 0.0, "bike_id": "677a4c87f6ab78186a46d6923ce979de", "rental_uris": {"ios": "https://dc.lft.to/lastmile_qr_scan", "android": "https://dc.lft.to/lastmile_qr_scan"}}, {"name": "7afcec6a70dd39e6b5afa35f713c4694", "type": "electric_scooter", "lat": 38.91711983333333, "is_reserved": 0, "lon": -77.03856283333333, "fusion_lon": 0.0, "is_disabled": 0, "fusion_lat": 0.0, "bike_id": "7afcec6a70dd39e6b5afa35f713c4694", "rental_uris": {"ios": "https://dc.lft.to/lastmile_qr_scan", "android": "https://dc.lft.to/lastmile_qr_scan"}}, {"name": "1d9753c25a13790951f5d8e4c52b5506", "type": "electric_scooter", "lat": 38.905369, "is_reserved": 0, "lon": -77.05932183333333, "fusion_lon": 0.0, "is_disabled": 0, "fusion_lat": 0.0, "bike_id": "1d9753c25a13790951f5d8e4c52b5506", "rental_uris": {"ios": "https://dc.lft.to/lastmile_qr_scan", "android": "https://dc.lft.to/lastmile_qr_scan"}}, {"name": "2f7ea6a3e47aecbdbd1fb66c34254281", "type": "electric_scooter", "lat": 38.91933816666667, "is_reserved": 0, "lon": -77.031348, "fusion_lon": 0.0, "is_disabled": 0, "fusion_lat": 0.0, "bike_id": "2f7ea6a3e47aecbdbd1fb66c34254281", "rental_uris": {"ios": "https://dc.lft.to/lastmile_qr_scan", "android": "https://dc.lft.to/lastmile_qr_scan"}}, {"name": "92c61c7f073dc4807532183592d136fe", "type": "electric_scooter", "lat": 38.87632883333333, "is_reserved": 0, "lon": -77.00916166666667, "fusion_lon": 0.0, "is_disabled": 0, "fusion_lat": 0.0, "bike_id": "92c61c7f073dc4807532183592d136fe", "rental_uris": {"ios": "https://dc.lft.to/lastmile_qr_scan", "android": "https://dc.lft.to/lastmile_qr_scan"}}, {"name": "192ce701c6fa393d33727f6421ee3bc3", "type": "electric_scooter", "lat": 38.88409983333333, "is_reserved": 0, "lon": -77.01523916666666, "fusion_lon": 0.0, "is_disabled": 0, "fusion_lat": 0.0, "bike_id": "192ce701c6fa393d33727f6421ee3bc3", "rental_uris": {"ios": "https://dc.lft.to/lastmile_qr_scan", "android": "https://dc.lft.to/lastmile_qr_scan"}}, {"name": "203540e69b0a7e238acc17d19dba2b56", "type": "electric_scooter", "lat": 38.924457833333335, "is_reserved": 0, "lon": -77.03351783333333, "fusion_lon": 0.0, "is_disabled": 0, "fusion_lat": 0.0, "bike_id": "203540e69b0a7e238acc17d19dba2b56", "rental_uris": {"ios": "https://dc.lft.to/lastmile_qr_scan", "android": "https://dc.lft.to/lastmile_qr_scan"}}, {"name": "4c881187bb5b3b34ded8b714e9f440bc", "type": "electric_scooter", "lat": 38.905666833333335, "is_reserved": 0, "lon": -77.048722, "fusion_lon": 0.0, "is_disabled": 0, "fusion_lat": 0.0, "bike_id": "4c881187bb5b3b34ded8b714e9f440bc", "rental_uris": {"ios": "https://dc.lft.to/lastmile_qr_scan", "android": "https://dc.lft.to/lastmile_qr_scan"}}, {"name": "51b1cdb2b608d079a4eff801621c07ad", "type": "electric_scooter", "lat": 38.900137666666666, "is_reserved": 0, "lon": -77.01110383333334, "fusion_lon": 0.0, "is_disabled": 0, "fusion_lat": 0.0, "bike_id": "51b1cdb2b608d079a4eff801621c07ad", "rental_uris": {"ios": "https://dc.lft.to/lastmile_qr_scan", "android": "https://dc.lft.to/lastmile_qr_scan"}}, {"name": "7abd114852feb2070aac1c58073dd285", "type": "electric_bike", "lat": 38.99089383333333, "is_reserved": 0, "lon": -76.87497233333333, "fusion_lon": 0.0, "is_disabled": 0, "fusion_lat": 0.0, "bike_id": "7abd114852feb2070aac1c58073dd285", "rental_uris": {"ios": "https://dc.lft.to/lastmile_qr_scan", "android": "https://dc.lft.to/lastmile_qr_scan"}}, {"name": "2b90e5a11e0bb8517cc7a5271222752a", "type": "electric_bike", "lat": 38.8287515, "is_reserved": 0, "lon": -77.11217266666667, "fusion_lon": 0.0, "is_disabled": 0, "fusion_lat": 0.0, "bike_id": "2b90e5a11e0bb8517cc7a5271222752a", "rental_uris": {"ios": "https://dc.lft.to/lastmile_qr_scan", "android": "https://dc.lft.to/lastmile_qr_scan"}}, {"name": "92b8d881c9080bef110622a8b13d40ce", "type": "electric_scooter", "lat": 38.892296, "is_reserved": 0, "lon": -77.02205766666667, "fusion_lon": 0.0, "is_disabled": 0, "fusion_lat": 0.0, "bike_id": "92b8d881c9080bef110622a8b13d40ce", "rental_uris": {"ios": "https://dc.lft.to/lastmile_qr_scan", "android": "https://dc.lft.to/lastmile_qr_scan"}}, {"name": "2a701fef8270d3ef9aa8c709d092b6d0", "type": "electric_scooter", "lat": 38.92003, "is_reserved": 0, "lon": -77.03878966666667, "fusion_lon": 0.0, "is_disabled": 0, "fusion_lat": 0.0, "bike_id": "2a701fef8270d3ef9aa8c709d092b6d0", "rental_uris": {"ios": "https://dc.lft.to/lastmile_qr_scan", "android": "https://dc.lft.to/lastmile_qr_scan"}}, {"name": "30fb394d2aa76c4efafadcfd19f0e125", "type": "electric_scooter", "lat": 38.906728666666666, "is_reserved": 0, "lon": -77.03829233333333, "fusion_lon": 0.0, "is_disabled": 0, "fusion_lat": 0.0, "bike_id": "30fb394d2aa76c4efafadcfd19f0e125", "rental_uris": {"ios": "https://dc.lft.to/lastmile_qr_scan", "android": "https://dc.lft.to/lastmile_qr_scan"}}, {"name": "cee7d83a55944c0cbae4872f27cf38a6", "type": "electric_scooter", "lat": 38.86662883333333, "is_reserved": 0, "lon": -76.98884216666667, "fusion_lon": 0.0, "is_disabled": 0, "fusion_lat": 0.0, "bike_id": "cee7d83a55944c0cbae4872f27cf38a6", "rental_uris": {"ios": "https://dc.lft.to/lastmile_qr_scan", "android": "https://dc.lft.to/lastmile_qr_scan"}}, {"name": "0c05b9b1c73d371e7ba23661af38074e", "type": "electric_scooter", "lat": 38.92678733333333, "is_reserved": 0, "lon": -77.02784766666667, "fusion_lon": 0.0, "is_disabled": 0, "fusion_lat": 0.0, "bike_id": "0c05b9b1c73d371e7ba23661af38074e", "rental_uris": {"ios": "https://dc.lft.to/lastmile_qr_scan", "android": "https://dc.lft.to/lastmile_qr_scan"}}, {"name": "ac0551aae954d13c45c36eff0613fad9", "type": "electric_scooter", "lat": 38.86522333333333, "is_reserved": 0, "lon": -76.9902975, "fusion_lon": 0.0, "is_disabled": 0, "fusion_lat": 0.0, "bike_id": "ac0551aae954d13c45c36eff0613fad9", "rental_uris": {"ios": "https://dc.lft.to/lastmile_qr_scan", "android": "https://dc.lft.to/lastmile_qr_scan"}}, {"name": "ad32ec2d9ce750cdf47a9cdce16a0fb3", "type": "electric_scooter", "lat": 38.893889333333334, "is_reserved": 0, "lon": -77.02969416666667, "fusion_lon": 0.0, "is_disabled": 0, "fusion_lat": 0.0, "bike_id": "ad32ec2d9ce750cdf47a9cdce16a0fb3", "rental_uris": {"ios": "https://dc.lft.to/lastmile_qr_scan", "android": "https://dc.lft.to/lastmile_qr_scan"}}, {"name": "6a8f56766da4ccc57eb15c7d8b356dcb", "type": "electric_bike", "lat": 38.952611, "is_reserved": 0, "lon": -77.06994516666667, "fusion_lon": 0.0, "is_disabled": 0, "fusion_lat": 0.0, "bike_id": "6a8f56766da4ccc57eb15c7d8b356dcb", "rental_uris": {"ios": "https://dc.lft.to/lastmile_qr_scan", "android": "https://dc.lft.to/lastmile_qr_scan"}}, {"name": "563e20bc8324b14fc4da9c8ade6f7108", "type": "electric_scooter", "lat": 38.924786, "is_reserved": 0, "lon": -77.03473933333333, "fusion_lon": 0.0, "is_disabled": 0, "fusion_lat": 0.0, "bike_id": "563e20bc8324b14fc4da9c8ade6f7108", "rental_uris": {"ios": "https://dc.lft.to/lastmile_qr_scan", "android": "https://dc.lft.to/lastmile_qr_scan"}}, {"name": "409757e985678b1082f27e2df13f3739", "type": "electric_scooter", "lat": 38.886066666666665, "is_reserved": 0, "lon": -76.99508016666667, "fusion_lon": 0.0, "is_disabled": 0, "fusion_lat": 0.0, "bike_id": "409757e985678b1082f27e2df13f3739", "rental_uris": {"ios": "https://dc.lft.to/lastmile_qr_scan", "android": "https://dc.lft.to/lastmile_qr_scan"}}, {"name": "90def76147ddee8604c002b5f7f44e33", "type": "electric_scooter", "lat": 38.927388, "is_reserved": 0, "lon": -77.03253316666667, "fusion_lon": 0.0, "is_disabled": 0, "fusion_lat": 0.0, "bike_id": "90def76147ddee8604c002b5f7f44e33", "rental_uris": {"ios": "https://dc.lft.to/lastmile_qr_scan", "android": "https://dc.lft.to/lastmile_qr_scan"}}, {"name": "52ffdb13b80429810c0ebaec25bd4ac3", "type": "electric_bike", "lat": 38.862764, "is_reserved": 0, "lon": -77.0635945, "fusion_lon": 0.0, "is_disabled": 0, "fusion_lat": 0.0, "bike_id": "52ffdb13b80429810c0ebaec25bd4ac3", "rental_uris": {"ios": "https://dc.lft.to/lastmile_qr_scan", "android": "https://dc.lft.to/lastmile_qr_scan"}}, {"name": "19118a21416b02ed18a4773a52ba7a79", "type": "electric_scooter", "lat": 38.92508683333333, "is_reserved": 0, "lon": -77.0193595, "fusion_lon": 0.0, "is_disabled": 0, "fusion_lat": 0.0, "bike_id": "19118a21416b02ed18a4773a52ba7a79", "rental_uris": {"ios": "https://dc.lft.to/lastmile_qr_scan", "android": "https://dc.lft.to/lastmile_qr_scan"}}, {"name": "4184582266cc911f9f7e377932818815", "type": "electric_scooter", "lat": 38.91106533333333, "is_reserved": 0, "lon": -77.03829616666667, "fusion_lon": 0.0, "is_disabled": 0, "fusion_lat": 0.0, "bike_id": "4184582266cc911f9f7e377932818815", "rental_uris": {"ios": "https://dc.lft.to/lastmile_qr_scan", "android": "https://dc.lft.to/lastmile_qr_scan"}}, {"name": "292b9b2471e3aaba9535c721636e232c", "type": "electric_scooter", "lat": 38.91107016666667, "is_reserved": 0, "lon": -77.01385216666667, "fusion_lon": 0.0, "is_disabled": 0, "fusion_lat": 0.0, "bike_id": "292b9b2471e3aaba9535c721636e232c", "rental_uris": {"ios": "https://dc.lft.to/lastmile_qr_scan", "android": "https://dc.lft.to/lastmile_qr_scan"}}, {"name": "c886f0fbc3778428489baa72a998fcb0", "type": "electric_scooter", "lat": 38.92152433333333, "is_reserved": 0, "lon": -77.03382683333334, "fusion_lon": 0.0, "is_disabled": 0, "fusion_lat": 0.0, "bike_id": "c886f0fbc3778428489baa72a998fcb0", "rental_uris": {"ios": "https://dc.lft.to/lastmile_qr_scan", "android": "https://dc.lft.to/lastmile_qr_scan"}}, {"name": "758cbab5207d0bba1892fa2d477fab3d", "type": "electric_scooter", "lat": 38.86374583333333, "is_reserved": 0, "lon": -76.99060483333334, "fusion_lon": 0.0, "is_disabled": 0, "fusion_lat": 0.0, "bike_id": "758cbab5207d0bba1892fa2d477fab3d", "rental_uris": {"ios": "https://dc.lft.to/lastmile_qr_scan", "android": "https://dc.lft.to/lastmile_qr_scan"}}, {"name": "89c621aa396281ddddeec28a52a11f58", "type": "electric_scooter", "lat": 38.94183483333333, "is_reserved": 0, "lon": -77.03089216666666, "fusion_lon": 0.0, "is_disabled": 0, "fusion_lat": 0.0, "bike_id": "89c621aa396281ddddeec28a52a11f58", "rental_uris": {"ios": "https://dc.lft.to/lastmile_qr_scan", "android": "https://dc.lft.to/lastmile_qr_scan"}}, {"name": "16deb4f83a82e2cfabcd2f4ac11b4dc3", "type": "electric_scooter", "lat": 38.90601383333333, "is_reserved": 0, "lon": -77.01324616666666, "fusion_lon": 0.0, "is_disabled": 0, "fusion_lat": 0.0, "bike_id": "16deb4f83a82e2cfabcd2f4ac11b4dc3", "rental_uris": {"ios": "https://dc.lft.to/lastmile_qr_scan", "android": "https://dc.lft.to/lastmile_qr_scan"}}, {"name": "678dcb25c178ca2b9d24dab4d48239cb", "type": "electric_bike", "lat": 38.854384833333334, "is_reserved": 0, "lon": -77.117058, "fusion_lon": 0.0, "is_disabled": 0, "fusion_lat": 0.0, "bike_id": "678dcb25c178ca2b9d24dab4d48239cb", "rental_uris": {"ios": "https://dc.lft.to/lastmile_qr_scan", "android": "https://dc.lft.to/lastmile_qr_scan"}}, {"name": "6760747b9723a629b3fc557064908b04", "type": "electric_scooter", "lat": 38.907179, "is_reserved": 0, "lon": -77.025038, "fusion_lon": 0.0, "is_disabled": 0, "fusion_lat": 0.0, "bike_id": "6760747b9723a629b3fc557064908b04", "rental_uris": {"ios": "https://dc.lft.to/lastmile_qr_scan", "android": "https://dc.lft.to/lastmile_qr_scan"}}, {"name": "2dde22ef9a0026dad7d08c8c51a32c3c", "type": "electric_scooter", "lat": 38.93528883333333, "is_reserved": 0, "lon": -77.0285435, "fusion_lon": 0.0, "is_disabled": 0, "fusion_lat": 0.0, "bike_id": "2dde22ef9a0026dad7d08c8c51a32c3c", "rental_uris": {"ios": "https://dc.lft.to/lastmile_qr_scan", "android": "https://dc.lft.to/lastmile_qr_scan"}}, {"name": "6bd7787fd0e70cf399317dddf69c32cd", "type": "electric_scooter", "lat": 38.87896416666667, "is_reserved": 0, "lon": -77.02202283333334, "fusion_lon": 0.0, "is_disabled": 0, "fusion_lat": 0.0, "bike_id": "6bd7787fd0e70cf399317dddf69c32cd", "rental_uris": {"ios": "https://dc.lft.to/lastmile_qr_scan", "android": "https://dc.lft.to/lastmile_qr_scan"}}, {"name": "75ee9c412fe880500c0ff31f89268057", "type": "electric_bike", "lat": 38.91180033333333, "is_reserved": 0, "lon": -77.0113605, "fusion_lon": 0.0, "is_disabled": 0, "fusion_lat": 0.0, "bike_id": "75ee9c412fe880500c0ff31f89268057", "rental_uris": {"ios": "https://dc.lft.to/lastmile_qr_scan", "android": "https://dc.lft.to/lastmile_qr_scan"}}, {"name": "3fc36866073020a7b50040a53d27a8dc", "type": "electric_scooter", "lat": 38.90798516666667, "is_reserved": 0, "lon": -76.99701816666666, "fusion_lon": 0.0, "is_disabled": 0, "fusion_lat": 0.0, "bike_id": "3fc36866073020a7b50040a53d27a8dc", "rental_uris": {"ios": "https://dc.lft.to/lastmile_qr_scan", "android": "https://dc.lft.to/lastmile_qr_scan"}}, {"name": "0b1301e9b06431defe4cc88d273b7051", "type": "electric_scooter", "lat": 38.926837166666665, "is_reserved": 0, "lon": -77.02157483333333, "fusion_lon": 0.0, "is_disabled": 0, "fusion_lat": 0.0, "bike_id": "0b1301e9b06431defe4cc88d273b7051", "rental_uris": {"ios": "https://dc.lft.to/lastmile_qr_scan", "android": "https://dc.lft.to/lastmile_qr_scan"}}, {"name": "62cabf41a0001c77415cdbf7672cfb05", "type": "electric_bike", "lat": 38.94887933333333, "is_reserved": 0, "lon": -77.01927033333334, "fusion_lon": 0.0, "is_disabled": 0, "fusion_lat": 0.0, "bike_id": "62cabf41a0001c77415cdbf7672cfb05", "rental_uris": {"ios": "https://dc.lft.to/lastmile_qr_scan", "android": "https://dc.lft.to/lastmile_qr_scan"}}, {"name": "005c5b519c7f7fd22d3f35fa8f66af2f", "type": "electric_scooter", "lat": 38.91064133333333, "is_reserved": 0, "lon": -77.03037633333334, "fusion_lon": 0.0, "is_disabled": 0, "fusion_lat": 0.0, "bike_id": "005c5b519c7f7fd22d3f35fa8f66af2f", "rental_uris": {"ios": "https://dc.lft.to/lastmile_qr_scan", "android": "https://dc.lft.to/lastmile_qr_scan"}}, {"name": "2a54d53c02672216361a6616d2c525f9", "type": "electric_scooter", "lat": 38.89522683333333, "is_reserved": 0, "lon": -77.01610333333333, "fusion_lon": 0.0, "is_disabled": 0, "fusion_lat": 0.0, "bike_id": "2a54d53c02672216361a6616d2c525f9", "rental_uris": {"ios": "https://dc.lft.to/lastmile_qr_scan", "android": "https://dc.lft.to/lastmile_qr_scan"}}, {"name": "5aec1b9d927609b580920b49be423dbe", "type": "electric_scooter", "lat": 38.93501366666667, "is_reserved": 0, "lon": -77.02849516666667, "fusion_lon": 0.0, "is_disabled": 0, "fusion_lat": 0.0, "bike_id": "5aec1b9d927609b580920b49be423dbe", "rental_uris": {"ios": "https://dc.lft.to/lastmile_qr_scan", "android": "https://dc.lft.to/lastmile_qr_scan"}}, {"name": "8e5479d341f9ae488279fc81660307c1", "type": "electric_scooter", "lat": 38.92072533333333, "is_reserved": 0, "lon": -77.03217583333333, "fusion_lon": 0.0, "is_disabled": 0, "fusion_lat": 0.0, "bike_id": "8e5479d341f9ae488279fc81660307c1", "rental_uris": {"ios": "https://dc.lft.to/lastmile_qr_scan", "android": "https://dc.lft.to/lastmile_qr_scan"}}, {"name": "97322fa8b38ee3c7bacf30d5dfab3796", "type": "electric_scooter", "lat": 38.897473833333336, "is_reserved": 0, "lon": -77.02958133333334, "fusion_lon": 0.0, "is_disabled": 0, "fusion_lat": 0.0, "bike_id": "97322fa8b38ee3c7bacf30d5dfab3796", "rental_uris": {"ios": "https://dc.lft.to/lastmile_qr_scan", "android": "https://dc.lft.to/lastmile_qr_scan"}}, {"name": "b5a6fd18f982abaf3998ad516af91247", "type": "electric_scooter", "lat": 38.9288345, "is_reserved": 0, "lon": -77.05451633333334, "fusion_lon": 0.0, "is_disabled": 0, "fusion_lat": 0.0, "bike_id": "b5a6fd18f982abaf3998ad516af91247", "rental_uris": {"ios": "https://dc.lft.to/lastmile_qr_scan", "android": "https://dc.lft.to/lastmile_qr_scan"}}, {"name": "73f5fb281aa70979251c897ee0a3dcc7", "type": "electric_scooter", "lat": 38.899735166666666, "is_reserved": 0, "lon": -76.93773066666667, "fusion_lon": 0.0, "is_disabled": 0, "fusion_lat": 0.0, "bike_id": "73f5fb281aa70979251c897ee0a3dcc7", "rental_uris": {"ios": "https://dc.lft.to/lastmile_qr_scan", "android": "https://dc.lft.to/lastmile_qr_scan"}}, {"name": "b0086f00604ce935c3c93dc6235bbf6d", "type": "electric_scooter", "lat": 38.91872583333333, "is_reserved": 0, "lon": -77.04196516666667, "fusion_lon": 0.0, "is_disabled": 0, "fusion_lat": 0.0, "bike_id": "b0086f00604ce935c3c93dc6235bbf6d", "rental_uris": {"ios": "https://dc.lft.to/lastmile_qr_scan", "android": "https://dc.lft.to/lastmile_qr_scan"}}, {"name": "52179ab1f7946b5bee0559ffc6ab96b0", "type": "electric_scooter", "lat": 38.918791166666665, "is_reserved": 0, "lon": -77.03500866666667, "fusion_lon": 0.0, "is_disabled": 0, "fusion_lat": 0.0, "bike_id": "52179ab1f7946b5bee0559ffc6ab96b0", "rental_uris": {"ios": "https://dc.lft.to/lastmile_qr_scan", "android": "https://dc.lft.to/lastmile_qr_scan"}}, {"name": "0e39a755475ddf1ba38f2853a13337d0", "type": "electric_scooter", "lat": 38.87683616666666, "is_reserved": 0, "lon": -77.000643, "fusion_lon": 0.0, "is_disabled": 0, "fusion_lat": 0.0, "bike_id": "0e39a755475ddf1ba38f2853a13337d0", "rental_uris": {"ios": "https://dc.lft.to/lastmile_qr_scan", "android": "https://dc.lft.to/lastmile_qr_scan"}}, {"name": "0d9f99328de0a1b2f3083d1cf02baf2b", "type": "electric_scooter", "lat": 38.91439116666667, "is_reserved": 0, "lon": -77.00344816666667, "fusion_lon": 0.0, "is_disabled": 0, "fusion_lat": 0.0, "bike_id": "0d9f99328de0a1b2f3083d1cf02baf2b", "rental_uris": {"ios": "https://dc.lft.to/lastmile_qr_scan", "android": "https://dc.lft.to/lastmile_qr_scan"}}, {"name": "f0dac226cf8f2ad4b2a1d18997503d98", "type": "electric_scooter", "lat": 38.900236166666666, "is_reserved": 0, "lon": -76.99847033333333, "fusion_lon": 0.0, "is_disabled": 0, "fusion_lat": 0.0, "bike_id": "f0dac226cf8f2ad4b2a1d18997503d98", "rental_uris": {"ios": "https://dc.lft.to/lastmile_qr_scan", "android": "https://dc.lft.to/lastmile_qr_scan"}}, {"name": "3fd6a286b0c7a6f4533782662d286aec", "type": "electric_scooter", "lat": 38.94276833333333, "is_reserved": 0, "lon": -77.02505883333333, "fusion_lon": 0.0, "is_disabled": 0, "fusion_lat": 0.0, "bike_id": "3fd6a286b0c7a6f4533782662d286aec", "rental_uris": {"ios": "https://dc.lft.to/lastmile_qr_scan", "android": "https://dc.lft.to/lastmile_qr_scan"}}, {"name": "02637104c9598ffeb58268e94be87d38", "type": "electric_scooter", "lat": 38.90670383333333, "is_reserved": 0, "lon": -77.02709166666666, "fusion_lon": 0.0, "is_disabled": 0, "fusion_lat": 0.0, "bike_id": "02637104c9598ffeb58268e94be87d38", "rental_uris": {"ios": "https://dc.lft.to/lastmile_qr_scan", "android": "https://dc.lft.to/lastmile_qr_scan"}}, {"name": "5ed8d0d638906b2d4e33f46eee2b9046", "type": "electric_scooter", "lat": 38.90849333333333, "is_reserved": 0, "lon": -77.08525366666667, "fusion_lon": 0.0, "is_disabled": 0, "fusion_lat": 0.0, "bike_id": "5ed8d0d638906b2d4e33f46eee2b9046", "rental_uris": {"ios": "https://dc.lft.to/lastmile_qr_scan", "android": "https://dc.lft.to/lastmile_qr_scan"}}, {"name": "14be15f41752882cd30641c666e0270d", "type": "electric_scooter", "lat": 38.905658833333334, "is_reserved": 0, "lon": -76.98141033333333, "fusion_lon": 0.0, "is_disabled": 0, "fusion_lat": 0.0, "bike_id": "14be15f41752882cd30641c666e0270d", "rental_uris": {"ios": "https://dc.lft.to/lastmile_qr_scan", "android": "https://dc.lft.to/lastmile_qr_scan"}}, {"name": "a510e7579f03b3d51d7e3fd40f7e7d74", "type": "electric_scooter", "lat": 38.909872166666666, "is_reserved": 0, "lon": -77.00896483333334, "fusion_lon": 0.0, "is_disabled": 0, "fusion_lat": 0.0, "bike_id": "a510e7579f03b3d51d7e3fd40f7e7d74", "rental_uris": {"ios": "https://dc.lft.to/lastmile_qr_scan", "android": "https://dc.lft.to/lastmile_qr_scan"}}, {"name": "9082cd621a7e61243aa77878f3d4c5c8", "type": "electric_scooter", "lat": 38.91463016666667, "is_reserved": 0, "lon": -77.03848583333334, "fusion_lon": 0.0, "is_disabled": 0, "fusion_lat": 0.0, "bike_id": "9082cd621a7e61243aa77878f3d4c5c8", "rental_uris": {"ios": "https://dc.lft.to/lastmile_qr_scan", "android": "https://dc.lft.to/lastmile_qr_scan"}}, {"name": "80692c4cd97d30c8a8a84d8b208a1ea8", "type": "electric_scooter", "lat": 38.90024066666667, "is_reserved": 0, "lon": -77.01163133333333, "fusion_lon": 0.0, "is_disabled": 0, "fusion_lat": 0.0, "bike_id": "80692c4cd97d30c8a8a84d8b208a1ea8", "rental_uris": {"ios": "https://dc.lft.to/lastmile_qr_scan", "android": "https://dc.lft.to/lastmile_qr_scan"}}, {"name": "136e563ed63e45ff6e63ffdb126c7933", "type": "electric_bike", "lat": 38.880449166666665, "is_reserved": 0, "lon": -77.013189, "fusion_lon": 0.0, "is_disabled": 0, "fusion_lat": 0.0, "bike_id": "136e563ed63e45ff6e63ffdb126c7933", "rental_uris": {"ios": "https://dc.lft.to/lastmile_qr_scan", "android": "https://dc.lft.to/lastmile_qr_scan"}}, {"name": "7fcbdfeda9c71228288ab1f81b21c20c", "type": "electric_scooter", "lat": 38.8980245, "is_reserved": 0, "lon": -77.032942, "fusion_lon": 0.0, "is_disabled": 0, "fusion_lat": 0.0, "bike_id": "7fcbdfeda9c71228288ab1f81b21c20c", "rental_uris": {"ios": "https://dc.lft.to/lastmile_qr_scan", "android": "https://dc.lft.to/lastmile_qr_scan"}}, {"name": "252ea39b9982eb605e3fa95c76476877", "type": "electric_bike", "lat": 38.83930616666667, "is_reserved": 0, "lon": -77.07901266666667, "fusion_lon": 0.0, "is_disabled": 0, "fusion_lat": 0.0, "bike_id": "252ea39b9982eb605e3fa95c76476877", "rental_uris": {"ios": "https://dc.lft.to/lastmile_qr_scan", "android": "https://dc.lft.to/lastmile_qr_scan"}}, {"name": "0aaca4f2777480202cae8b4693f9dc05", "type": "electric_scooter", "lat": 38.91107266666667, "is_reserved": 0, "lon": -77.03478933333334, "fusion_lon": 0.0, "is_disabled": 0, "fusion_lat": 0.0, "bike_id": "0aaca4f2777480202cae8b4693f9dc05", "rental_uris": {"ios": "https://dc.lft.to/lastmile_qr_scan", "android": "https://dc.lft.to/lastmile_qr_scan"}}, {"name": "efc80d0e31410d3a3c5645700578e1cc", "type": "electric_scooter", "lat": 38.903301666666664, "is_reserved": 0, "lon": -77.03346566666667, "fusion_lon": 0.0, "is_disabled": 0, "fusion_lat": 0.0, "bike_id": "efc80d0e31410d3a3c5645700578e1cc", "rental_uris": {"ios": "https://dc.lft.to/lastmile_qr_scan", "android": "https://dc.lft.to/lastmile_qr_scan"}}, {"name": "f17aea0bb4aa89dfa7a19f6121e5ed68", "type": "electric_scooter", "lat": 38.93982033333333, "is_reserved": 0, "lon": -77.02593783333333, "fusion_lon": 0.0, "is_disabled": 0, "fusion_lat": 0.0, "bike_id": "f17aea0bb4aa89dfa7a19f6121e5ed68", "rental_uris": {"ios": "https://dc.lft.to/lastmile_qr_scan", "android": "https://dc.lft.to/lastmile_qr_scan"}}, {"name": "ec3898f3927dac6f017c129ab4e233c1", "type": "electric_bike", "lat": 38.84272933333333, "is_reserved": 0, "lon": -76.98842866666666, "fusion_lon": 0.0, "is_disabled": 0, "fusion_lat": 0.0, "bike_id": "ec3898f3927dac6f017c129ab4e233c1", "rental_uris": {"ios": "https://dc.lft.to/lastmile_qr_scan", "android": "https://dc.lft.to/lastmile_qr_scan"}}, {"name": "3e3d2b8b3c12841e0f2cd1b1754a164c", "type": "electric_scooter", "lat": 38.9157325, "is_reserved": 0, "lon": -77.02180183333333, "fusion_lon": 0.0, "is_disabled": 0, "fusion_lat": 0.0, "bike_id": "3e3d2b8b3c12841e0f2cd1b1754a164c", "rental_uris": {"ios": "https://dc.lft.to/lastmile_qr_scan", "android": "https://dc.lft.to/lastmile_qr_scan"}}, {"name": "9252cb23af8cc605f91d966e6b121e5f", "type": "electric_scooter", "lat": 38.914927166666665, "is_reserved": 0, "lon": -77.03910683333334, "fusion_lon": 0.0, "is_disabled": 0, "fusion_lat": 0.0, "bike_id": "9252cb23af8cc605f91d966e6b121e5f", "rental_uris": {"ios": "https://dc.lft.to/lastmile_qr_scan", "android": "https://dc.lft.to/lastmile_qr_scan"}}, {"name": "c74ad3968e42830f05a3d567c791e541", "type": "electric_scooter", "lat": 38.90590783333333, "is_reserved": 0, "lon": -77.01613866666666, "fusion_lon": 0.0, "is_disabled": 0, "fusion_lat": 0.0, "bike_id": "c74ad3968e42830f05a3d567c791e541", "rental_uris": {"ios": "https://dc.lft.to/lastmile_qr_scan", "android": "https://dc.lft.to/lastmile_qr_scan"}}, {"name": "0ad8ba96a4368a57668b4f6f4d4abae9", "type": "electric_scooter", "lat": 38.911077, "is_reserved": 0, "lon": -77.04231016666667, "fusion_lon": 0.0, "is_disabled": 0, "fusion_lat": 0.0, "bike_id": "0ad8ba96a4368a57668b4f6f4d4abae9", "rental_uris": {"ios": "https://dc.lft.to/lastmile_qr_scan", "android": "https://dc.lft.to/lastmile_qr_scan"}}, {"name": "278f8135cda0195920f7814dbd13681c", "type": "electric_scooter", "lat": 38.90622966666667, "is_reserved": 0, "lon": -76.98314316666666, "fusion_lon": 0.0, "is_disabled": 0, "fusion_lat": 0.0, "bike_id": "278f8135cda0195920f7814dbd13681c", "rental_uris": {"ios": "https://dc.lft.to/lastmile_qr_scan", "android": "https://dc.lft.to/lastmile_qr_scan"}}, {"name": "86aa5a557d6da722d941dbec13950173", "type": "electric_scooter", "lat": 38.86093916666667, "is_reserved": 0, "lon": -76.98375266666666, "fusion_lon": 0.0, "is_disabled": 0, "fusion_lat": 0.0, "bike_id": "86aa5a557d6da722d941dbec13950173", "rental_uris": {"ios": "https://dc.lft.to/lastmile_qr_scan", "android": "https://dc.lft.to/lastmile_qr_scan"}}, {"name": "268d06c4d58febc1f9aba31acf4e39b6", "type": "electric_bike", "lat": 38.936882833333335, "is_reserved": 0, "lon": -77.05647583333334, "fusion_lon": 0.0, "is_disabled": 0, "fusion_lat": 0.0, "bike_id": "268d06c4d58febc1f9aba31acf4e39b6", "rental_uris": {"ios": "https://dc.lft.to/lastmile_qr_scan", "android": "https://dc.lft.to/lastmile_qr_scan"}}, {"name": "03bfb82700854055437a4c1163c8ead4", "type": "electric_scooter", "lat": 38.902402, "is_reserved": 0, "lon": -77.00198166666667, "fusion_lon": 0.0, "is_disabled": 0, "fusion_lat": 0.0, "bike_id": "03bfb82700854055437a4c1163c8ead4", "rental_uris": {"ios": "https://dc.lft.to/lastmile_qr_scan", "android": "https://dc.lft.to/lastmile_qr_scan"}}, {"name": "79213e71e4529b0986bb4f5d715d33ec", "type": "electric_scooter", "lat": 38.891067, "is_reserved": 0, "lon": -76.98701433333333, "fusion_lon": 0.0, "is_disabled": 0, "fusion_lat": 0.0, "bike_id": "79213e71e4529b0986bb4f5d715d33ec", "rental_uris": {"ios": "https://dc.lft.to/lastmile_qr_scan", "android": "https://dc.lft.to/lastmile_qr_scan"}}, {"name": "1f4e5010fb6868f3d1184ecfcb9232bd", "type": "electric_bike", "lat": 38.93702, "is_reserved": 0, "lon": -77.0298025, "fusion_lon": 0.0, "is_disabled": 0, "fusion_lat": 0.0, "bike_id": "1f4e5010fb6868f3d1184ecfcb9232bd", "rental_uris": {"ios": "https://dc.lft.to/lastmile_qr_scan", "android": "https://dc.lft.to/lastmile_qr_scan"}}, {"name": "124d2585593173c03a9111f6d8761330", "type": "electric_scooter", "lat": 38.92351883333333, "is_reserved": 0, "lon": -77.0503585, "fusion_lon": 0.0, "is_disabled": 0, "fusion_lat": 0.0, "bike_id": "124d2585593173c03a9111f6d8761330", "rental_uris": {"ios": "https://dc.lft.to/lastmile_qr_scan", "android": "https://dc.lft.to/lastmile_qr_scan"}}, {"name": "19ecbb77cb9d26cab7e607a102fb6ef2", "type": "electric_scooter", "lat": 38.899868833333336, "is_reserved": 0, "lon": -77.05088933333333, "fusion_lon": 0.0, "is_disabled": 0, "fusion_lat": 0.0, "bike_id": "19ecbb77cb9d26cab7e607a102fb6ef2", "rental_uris": {"ios": "https://dc.lft.to/lastmile_qr_scan", "android": "https://dc.lft.to/lastmile_qr_scan"}}, {"name": "33e160f1956c9a1d5cf7f20e5d8e5072", "type": "electric_scooter", "lat": 38.907953166666665, "is_reserved": 0, "lon": -77.04817216666666, "fusion_lon": 0.0, "is_disabled": 0, "fusion_lat": 0.0, "bike_id": "33e160f1956c9a1d5cf7f20e5d8e5072", "rental_uris": {"ios": "https://dc.lft.to/lastmile_qr_scan", "android": "https://dc.lft.to/lastmile_qr_scan"}}, {"name": "420b080e5f61752506fab552def2c28b", "type": "electric_scooter", "lat": 38.8983875, "is_reserved": 0, "lon": -77.04364516666666, "fusion_lon": 0.0, "is_disabled": 0, "fusion_lat": 0.0, "bike_id": "420b080e5f61752506fab552def2c28b", "rental_uris": {"ios": "https://dc.lft.to/lastmile_qr_scan", "android": "https://dc.lft.to/lastmile_qr_scan"}}, {"name": "6c9b0fe05266f01b1f87065af107218f", "type": "electric_scooter", "lat": 38.950902166666665, "is_reserved": 0, "lon": -77.0286825, "fusion_lon": 0.0, "is_disabled": 0, "fusion_lat": 0.0, "bike_id": "6c9b0fe05266f01b1f87065af107218f", "rental_uris": {"ios": "https://dc.lft.to/lastmile_qr_scan", "android": "https://dc.lft.to/lastmile_qr_scan"}}, {"name": "d7e9e50409e7d9286783ff69a6e582b7", "type": "electric_scooter", "lat": 38.9096675, "is_reserved": 0, "lon": -77.03671116666666, "fusion_lon": 0.0, "is_disabled": 0, "fusion_lat": 0.0, "bike_id": "d7e9e50409e7d9286783ff69a6e582b7", "rental_uris": {"ios": "https://dc.lft.to/lastmile_qr_scan", "android": "https://dc.lft.to/lastmile_qr_scan"}}, {"name": "a2fe553efd2de885a474e438b611d60d", "type": "electric_scooter", "lat": 38.902389, "is_reserved": 0, "lon": -77.036326, "fusion_lon": 0.0, "is_disabled": 0, "fusion_lat": 0.0, "bike_id": "a2fe553efd2de885a474e438b611d60d", "rental_uris": {"ios": "https://dc.lft.to/lastmile_qr_scan", "android": "https://dc.lft.to/lastmile_qr_scan"}}, {"name": "b4e45e401189af6ba26dee0591c2cfcf", "type": "electric_scooter", "lat": 38.927487166666666, "is_reserved": 0, "lon": -77.02483433333333, "fusion_lon": 0.0, "is_disabled": 0, "fusion_lat": 0.0, "bike_id": "b4e45e401189af6ba26dee0591c2cfcf", "rental_uris": {"ios": "https://dc.lft.to/lastmile_qr_scan", "android": "https://dc.lft.to/lastmile_qr_scan"}}, {"name": "01a17249232409e72edca42990e4c068", "type": "electric_scooter", "lat": 38.90264883333333, "is_reserved": 0, "lon": -77.05312333333333, "fusion_lon": 0.0, "is_disabled": 0, "fusion_lat": 0.0, "bike_id": "01a17249232409e72edca42990e4c068", "rental_uris": {"ios": "https://dc.lft.to/lastmile_qr_scan", "android": "https://dc.lft.to/lastmile_qr_scan"}}, {"name": "51c55933e7daf6bec43bd636cbd9cae9", "type": "electric_bike", "lat": 38.895618166666665, "is_reserved": 0, "lon": -77.12732366666667, "fusion_lon": 0.0, "is_disabled": 0, "fusion_lat": 0.0, "bike_id": "51c55933e7daf6bec43bd636cbd9cae9", "rental_uris": {"ios": "https://dc.lft.to/lastmile_qr_scan", "android": "https://dc.lft.to/lastmile_qr_scan"}}, {"name": "397152ec9dd1e2c05505c2777a114cc7", "type": "electric_scooter", "lat": 38.9315655, "is_reserved": 0, "lon": -77.03888866666667, "fusion_lon": 0.0, "is_disabled": 0, "fusion_lat": 0.0, "bike_id": "397152ec9dd1e2c05505c2777a114cc7", "rental_uris": {"ios": "https://dc.lft.to/lastmile_qr_scan", "android": "https://dc.lft.to/lastmile_qr_scan"}}, {"name": "86f4153e87bcda64b0b020ec9fab278a", "type": "electric_scooter", "lat": 38.9067135, "is_reserved": 0, "lon": -77.07565483333333, "fusion_lon": 0.0, "is_disabled": 0, "fusion_lat": 0.0, "bike_id": "86f4153e87bcda64b0b020ec9fab278a", "rental_uris": {"ios": "https://dc.lft.to/lastmile_qr_scan", "android": "https://dc.lft.to/lastmile_qr_scan"}}, {"name": "323d902e5a81305db246ea8c06ab3033", "type": "electric_bike", "lat": 38.89070566666667, "is_reserved": 0, "lon": -77.07909516666666, "fusion_lon": 0.0, "is_disabled": 0, "fusion_lat": 0.0, "bike_id": "323d902e5a81305db246ea8c06ab3033", "rental_uris": {"ios": "https://dc.lft.to/lastmile_qr_scan", "android": "https://dc.lft.to/lastmile_qr_scan"}}, {"name": "d99fcf7040624b4e444c3bec2456f9ff", "type": "electric_scooter", "lat": 38.8922185, "is_reserved": 0, "lon": -77.04330833333333, "fusion_lon": 0.0, "is_disabled": 0, "fusion_lat": 0.0, "bike_id": "d99fcf7040624b4e444c3bec2456f9ff", "rental_uris": {"ios": "https://dc.lft.to/lastmile_qr_scan", "android": "https://dc.lft.to/lastmile_qr_scan"}}, {"name": "db57ef89f524ebf5061a16b55bdede40", "type": "electric_scooter", "lat": 38.898318333333336, "is_reserved": 0, "lon": -76.94632933333334, "fusion_lon": 0.0, "is_disabled": 0, "fusion_lat": 0.0, "bike_id": "db57ef89f524ebf5061a16b55bdede40", "rental_uris": {"ios": "https://dc.lft.to/lastmile_qr_scan", "android": "https://dc.lft.to/lastmile_qr_scan"}}, {"name": "75bb9d5f12ddf9344b4ca6bdd46e1df2", "type": "electric_scooter", "lat": 38.892287833333334, "is_reserved": 0, "lon": -77.049973, "fusion_lon": 0.0, "is_disabled": 0, "fusion_lat": 0.0, "bike_id": "75bb9d5f12ddf9344b4ca6bdd46e1df2", "rental_uris": {"ios": "https://dc.lft.to/lastmile_qr_scan", "android": "https://dc.lft.to/lastmile_qr_scan"}}, {"name": "7efdc0d98b37fa8d15d478e64bb0c45b", "type": "electric_scooter", "lat": 38.892358, "is_reserved": 0, "lon": -77.02799366666666, "fusion_lon": 0.0, "is_disabled": 0, "fusion_lat": 0.0, "bike_id": "7efdc0d98b37fa8d15d478e64bb0c45b", "rental_uris": {"ios": "https://dc.lft.to/lastmile_qr_scan", "android": "https://dc.lft.to/lastmile_qr_scan"}}, {"name": "68a4d21b8db985f6066e45acbaa191a8", "type": "electric_scooter", "lat": 38.91253433333333, "is_reserved": 0, "lon": -77.009541, "fusion_lon": 0.0, "is_disabled": 0, "fusion_lat": 0.0, "bike_id": "68a4d21b8db985f6066e45acbaa191a8", "rental_uris": {"ios": "https://dc.lft.to/lastmile_qr_scan", "android": "https://dc.lft.to/lastmile_qr_scan"}}, {"name": "e5d227283f81bc31c9b587f79caa67c5", "type": "electric_scooter", "lat": 38.9353015, "is_reserved": 0, "lon": -77.02852516666667, "fusion_lon": 0.0, "is_disabled": 0, "fusion_lat": 0.0, "bike_id": "e5d227283f81bc31c9b587f79caa67c5", "rental_uris": {"ios": "https://dc.lft.to/lastmile_qr_scan", "android": "https://dc.lft.to/lastmile_qr_scan"}}, {"name": "1aa7560d1bba1bb0d78b2e99c79c4d17", "type": "electric_scooter", "lat": 38.92591816666667, "is_reserved": 0, "lon": -77.00479166666666, "fusion_lon": 0.0, "is_disabled": 0, "fusion_lat": 0.0, "bike_id": "1aa7560d1bba1bb0d78b2e99c79c4d17", "rental_uris": {"ios": "https://dc.lft.to/lastmile_qr_scan", "android": "https://dc.lft.to/lastmile_qr_scan"}}, {"name": "1fb400cfac2491272023f77d64a6f42e", "type": "electric_scooter", "lat": 38.883605333333335, "is_reserved": 0, "lon": -77.031764, "fusion_lon": 0.0, "is_disabled": 0, "fusion_lat": 0.0, "bike_id": "1fb400cfac2491272023f77d64a6f42e", "rental_uris": {"ios": "https://dc.lft.to/lastmile_qr_scan", "android": "https://dc.lft.to/lastmile_qr_scan"}}, {"name": "9d62891977468053e7ed29db717b81f9", "type": "electric_scooter", "lat": 38.90755933333333, "is_reserved": 0, "lon": -77.000791, "fusion_lon": 0.0, "is_disabled": 0, "fusion_lat": 0.0, "bike_id": "9d62891977468053e7ed29db717b81f9", "rental_uris": {"ios": "https://dc.lft.to/lastmile_qr_scan", "android": "https://dc.lft.to/lastmile_qr_scan"}}, {"name": "d2000a42eb50c5590d017bab814e1395", "type": "electric_scooter", "lat": 38.937681, "is_reserved": 0, "lon": -77.024929, "fusion_lon": 0.0, "is_disabled": 0, "fusion_lat": 0.0, "bike_id": "d2000a42eb50c5590d017bab814e1395", "rental_uris": {"ios": "https://dc.lft.to/lastmile_qr_scan", "android": "https://dc.lft.to/lastmile_qr_scan"}}, {"name": "f34095640194aab7a75e8391684d0c77", "type": "electric_scooter", "lat": 38.910445333333335, "is_reserved": 0, "lon": -77.02814633333334, "fusion_lon": 0.0, "is_disabled": 0, "fusion_lat": 0.0, "bike_id": "f34095640194aab7a75e8391684d0c77", "rental_uris": {"ios": "https://dc.lft.to/lastmile_qr_scan", "android": "https://dc.lft.to/lastmile_qr_scan"}}, {"name": "52d634c6a894ebaa9ce60c76ed3f82fe", "type": "electric_scooter", "lat": 38.95634966666667, "is_reserved": 0, "lon": -77.02544183333333, "fusion_lon": 0.0, "is_disabled": 0, "fusion_lat": 0.0, "bike_id": "52d634c6a894ebaa9ce60c76ed3f82fe", "rental_uris": {"ios": "https://dc.lft.to/lastmile_qr_scan", "android": "https://dc.lft.to/lastmile_qr_scan"}}, {"name": "16a1c5b620f174b84b4712da1cd0b02d", "type": "electric_scooter", "lat": 38.908363333333334, "is_reserved": 0, "lon": -76.99959433333333, "fusion_lon": 0.0, "is_disabled": 0, "fusion_lat": 0.0, "bike_id": "16a1c5b620f174b84b4712da1cd0b02d", "rental_uris": {"ios": "https://dc.lft.to/lastmile_qr_scan", "android": "https://dc.lft.to/lastmile_qr_scan"}}, {"name": "70f7896e7806d1170801a6167531035f", "type": "electric_scooter", "lat": 38.8831735, "is_reserved": 0, "lon": -77.0176935, "fusion_lon": 0.0, "is_disabled": 0, "fusion_lat": 0.0, "bike_id": "70f7896e7806d1170801a6167531035f", "rental_uris": {"ios": "https://dc.lft.to/lastmile_qr_scan", "android": "https://dc.lft.to/lastmile_qr_scan"}}, {"name": "cf47050be699207f86cfca3177d0702c", "type": "electric_bike", "lat": 38.896862166666665, "is_reserved": 0, "lon": -76.94064116666667, "fusion_lon": 0.0, "is_disabled": 0, "fusion_lat": 0.0, "bike_id": "cf47050be699207f86cfca3177d0702c", "rental_uris": {"ios": "https://dc.lft.to/lastmile_qr_scan", "android": "https://dc.lft.to/lastmile_qr_scan"}}, {"name": "f8c510d0f24554bcef73362e2c6f7f2e", "type": "electric_bike", "lat": 38.88641583333333, "is_reserved": 0, "lon": -76.95480316666666, "fusion_lon": 0.0, "is_disabled": 0, "fusion_lat": 0.0, "bike_id": "f8c510d0f24554bcef73362e2c6f7f2e", "rental_uris": {"ios": "https://dc.lft.to/lastmile_qr_scan", "android": "https://dc.lft.to/lastmile_qr_scan"}}, {"name": "0fdf2bb9cde6c823921953f3a54c9dc3", "type": "electric_scooter", "lat": 38.86422733333333, "is_reserved": 0, "lon": -76.98575716666667, "fusion_lon": 0.0, "is_disabled": 0, "fusion_lat": 0.0, "bike_id": "0fdf2bb9cde6c823921953f3a54c9dc3", "rental_uris": {"ios": "https://dc.lft.to/lastmile_qr_scan", "android": "https://dc.lft.to/lastmile_qr_scan"}}, {"name": "67757025b96e0ae17dd5037996d649ff", "type": "electric_scooter", "lat": 38.93364616666667, "is_reserved": 0, "lon": -77.034259, "fusion_lon": 0.0, "is_disabled": 0, "fusion_lat": 0.0, "bike_id": "67757025b96e0ae17dd5037996d649ff", "rental_uris": {"ios": "https://dc.lft.to/lastmile_qr_scan", "android": "https://dc.lft.to/lastmile_qr_scan"}}, {"name": "20274882df4bd3c6e6ba29b9d299ecd3", "type": "electric_scooter", "lat": 38.89229266666667, "is_reserved": 0, "lon": -77.05002233333333, "fusion_lon": 0.0, "is_disabled": 0, "fusion_lat": 0.0, "bike_id": "20274882df4bd3c6e6ba29b9d299ecd3", "rental_uris": {"ios": "https://dc.lft.to/lastmile_qr_scan", "android": "https://dc.lft.to/lastmile_qr_scan"}}, {"name": "b115420ab5fc7ff55c6996bccc0ff67a", "type": "electric_scooter", "lat": 38.93363016666667, "is_reserved": 0, "lon": -77.05727133333333, "fusion_lon": 0.0, "is_disabled": 0, "fusion_lat": 0.0, "bike_id": "b115420ab5fc7ff55c6996bccc0ff67a", "rental_uris": {"ios": "https://dc.lft.to/lastmile_qr_scan", "android": "https://dc.lft.to/lastmile_qr_scan"}}, {"name": "c44052c7c80364fa8cbdc58827ed92e6", "type": "electric_scooter", "lat": 38.90724983333333, "is_reserved": 0, "lon": -77.025004, "fusion_lon": 0.0, "is_disabled": 0, "fusion_lat": 0.0, "bike_id": "c44052c7c80364fa8cbdc58827ed92e6", "rental_uris": {"ios": "https://dc.lft.to/lastmile_qr_scan", "android": "https://dc.lft.to/lastmile_qr_scan"}}, {"name": "a334945a6fe8077a943e41183159a0f2", "type": "electric_scooter", "lat": 38.92597216666667, "is_reserved": 0, "lon": -77.02118316666666, "fusion_lon": 0.0, "is_disabled": 0, "fusion_lat": 0.0, "bike_id": "a334945a6fe8077a943e41183159a0f2", "rental_uris": {"ios": "https://dc.lft.to/lastmile_qr_scan", "android": "https://dc.lft.to/lastmile_qr_scan"}}, {"name": "fea92f564f6b4575616c5c8bd0398b83", "type": "electric_scooter", "lat": 38.905458333333335, "is_reserved": 0, "lon": -77.04638933333334, "fusion_lon": 0.0, "is_disabled": 0, "fusion_lat": 0.0, "bike_id": "fea92f564f6b4575616c5c8bd0398b83", "rental_uris": {"ios": "https://dc.lft.to/lastmile_qr_scan", "android": "https://dc.lft.to/lastmile_qr_scan"}}, {"name": "bec0af6dbb925e040bc6c1382df5b594", "type": "electric_scooter", "lat": 38.917634, "is_reserved": 0, "lon": -77.02708383333334, "fusion_lon": 0.0, "is_disabled": 0, "fusion_lat": 0.0, "bike_id": "bec0af6dbb925e040bc6c1382df5b594", "rental_uris": {"ios": "https://dc.lft.to/lastmile_qr_scan", "android": "https://dc.lft.to/lastmile_qr_scan"}}, {"name": "11bfbaadefa1235b360dac7bf68a24d7", "type": "electric_bike", "lat": 38.894553, "is_reserved": 0, "lon": -76.97037116666667, "fusion_lon": 0.0, "is_disabled": 0, "fusion_lat": 0.0, "bike_id": "11bfbaadefa1235b360dac7bf68a24d7", "rental_uris": {"ios": "https://dc.lft.to/lastmile_qr_scan", "android": "https://dc.lft.to/lastmile_qr_scan"}}, {"name": "57ea3248a4c03bc3c147990a60cebc4a", "type": "electric_scooter", "lat": 38.93255033333333, "is_reserved": 0, "lon": -77.03288133333334, "fusion_lon": 0.0, "is_disabled": 0, "fusion_lat": 0.0, "bike_id": "57ea3248a4c03bc3c147990a60cebc4a", "rental_uris": {"ios": "https://dc.lft.to/lastmile_qr_scan", "android": "https://dc.lft.to/lastmile_qr_scan"}}, {"name": "50f68fe4d333bd71e78258fc9fdb221a", "type": "electric_scooter", "lat": 38.91107516666667, "is_reserved": 0, "lon": -77.042258, "fusion_lon": 0.0, "is_disabled": 0, "fusion_lat": 0.0, "bike_id": "50f68fe4d333bd71e78258fc9fdb221a", "rental_uris": {"ios": "https://dc.lft.to/lastmile_qr_scan", "android": "https://dc.lft.to/lastmile_qr_scan"}}, {"name": "d31385067242b21405ca30f7c25db12f", "type": "electric_scooter", "lat": 38.9349785, "is_reserved": 0, "lon": -77.0272605, "fusion_lon": 0.0, "is_disabled": 0, "fusion_lat": 0.0, "bike_id": "d31385067242b21405ca30f7c25db12f", "rental_uris": {"ios": "https://dc.lft.to/lastmile_qr_scan", "android": "https://dc.lft.to/lastmile_qr_scan"}}, {"name": "3393eb21e2a1d2d46ef45fc2fb167763", "type": "electric_scooter", "lat": 38.90371716666667, "is_reserved": 0, "lon": -77.02509616666667, "fusion_lon": 0.0, "is_disabled": 0, "fusion_lat": 0.0, "bike_id": "3393eb21e2a1d2d46ef45fc2fb167763", "rental_uris": {"ios": "https://dc.lft.to/lastmile_qr_scan", "android": "https://dc.lft.to/lastmile_qr_scan"}}, {"name": "82a2ce3c7662c0e7ba12f93b12727b23", "type": "electric_scooter", "lat": 38.92898316666667, "is_reserved": 0, "lon": -77.024996, "fusion_lon": 0.0, "is_disabled": 0, "fusion_lat": 0.0, "bike_id": "82a2ce3c7662c0e7ba12f93b12727b23", "rental_uris": {"ios": "https://dc.lft.to/lastmile_qr_scan", "android": "https://dc.lft.to/lastmile_qr_scan"}}, {"name": "b1a8e8e6869fde36ee3bc233c01cdb6c", "type": "electric_scooter", "lat": 38.920460166666665, "is_reserved": 0, "lon": -77.03383, "fusion_lon": 0.0, "is_disabled": 0, "fusion_lat": 0.0, "bike_id": "b1a8e8e6869fde36ee3bc233c01cdb6c", "rental_uris": {"ios": "https://dc.lft.to/lastmile_qr_scan", "android": "https://dc.lft.to/lastmile_qr_scan"}}, {"name": "1ea230553ed48c102e0ecc120a17b145", "type": "electric_bike", "lat": 38.9228205, "is_reserved": 0, "lon": -77.03665583333333, "fusion_lon": 0.0, "is_disabled": 0, "fusion_lat": 0.0, "bike_id": "1ea230553ed48c102e0ecc120a17b145", "rental_uris": {"ios": "https://dc.lft.to/lastmile_qr_scan", "android": "https://dc.lft.to/lastmile_qr_scan"}}, {"name": "38f048471507265c7ddea692a8f0f6cf", "type": "electric_scooter", "lat": 38.936356333333336, "is_reserved": 0, "lon": -77.03693983333334, "fusion_lon": 0.0, "is_disabled": 0, "fusion_lat": 0.0, "bike_id": "38f048471507265c7ddea692a8f0f6cf", "rental_uris": {"ios": "https://dc.lft.to/lastmile_qr_scan", "android": "https://dc.lft.to/lastmile_qr_scan"}}, {"name": "5e5cf168a5f46480f012eb9d7c47a32f", "type": "electric_scooter", "lat": 38.9002665, "is_reserved": 0, "lon": -77.01163083333333, "fusion_lon": 0.0, "is_disabled": 0, "fusion_lat": 0.0, "bike_id": "5e5cf168a5f46480f012eb9d7c47a32f", "rental_uris": {"ios": "https://dc.lft.to/lastmile_qr_scan", "android": "https://dc.lft.to/lastmile_qr_scan"}}, {"name": "5e91bba1db2deb60a02de9b799a25ac7", "type": "electric_scooter", "lat": 38.87732883333334, "is_reserved": 0, "lon": -76.9728075, "fusion_lon": 0.0, "is_disabled": 0, "fusion_lat": 0.0, "bike_id": "5e91bba1db2deb60a02de9b799a25ac7", "rental_uris": {"ios": "https://dc.lft.to/lastmile_qr_scan", "android": "https://dc.lft.to/lastmile_qr_scan"}}, {"name": "4da8a066f8f6498571820fcf69bb2532", "type": "electric_scooter", "lat": 38.948371333333334, "is_reserved": 0, "lon": -77.0255075, "fusion_lon": 0.0, "is_disabled": 0, "fusion_lat": 0.0, "bike_id": "4da8a066f8f6498571820fcf69bb2532", "rental_uris": {"ios": "https://dc.lft.to/lastmile_qr_scan", "android": "https://dc.lft.to/lastmile_qr_scan"}}, {"name": "fc7b8b4d9027aa6a3e6c00c64f559c6f", "type": "electric_scooter", "lat": 38.862028333333335, "is_reserved": 0, "lon": -76.99461633333334, "fusion_lon": 0.0, "is_disabled": 0, "fusion_lat": 0.0, "bike_id": "fc7b8b4d9027aa6a3e6c00c64f559c6f", "rental_uris": {"ios": "https://dc.lft.to/lastmile_qr_scan", "android": "https://dc.lft.to/lastmile_qr_scan"}}, {"name": "08e2efe28a8e7a7d70f45a909184983e", "type": "electric_scooter", "lat": 38.94308983333333, "is_reserved": 0, "lon": -77.05930016666667, "fusion_lon": 0.0, "is_disabled": 0, "fusion_lat": 0.0, "bike_id": "08e2efe28a8e7a7d70f45a909184983e", "rental_uris": {"ios": "https://dc.lft.to/lastmile_qr_scan", "android": "https://dc.lft.to/lastmile_qr_scan"}}, {"name": "72886b2174865105c2136ac3c2699ad6", "type": "electric_scooter", "lat": 38.91814, "is_reserved": 0, "lon": -77.03443966666667, "fusion_lon": 0.0, "is_disabled": 0, "fusion_lat": 0.0, "bike_id": "72886b2174865105c2136ac3c2699ad6", "rental_uris": {"ios": "https://dc.lft.to/lastmile_qr_scan", "android": "https://dc.lft.to/lastmile_qr_scan"}}, {"name": "d8e5c09cf8451d9b88fcef0994e288a0", "type": "electric_scooter", "lat": 38.90102983333333, "is_reserved": 0, "lon": -77.04146166666666, "fusion_lon": 0.0, "is_disabled": 0, "fusion_lat": 0.0, "bike_id": "d8e5c09cf8451d9b88fcef0994e288a0", "rental_uris": {"ios": "https://dc.lft.to/lastmile_qr_scan", "android": "https://dc.lft.to/lastmile_qr_scan"}}, {"name": "869c7c824968a217f2bbd84a8b8d227a", "type": "electric_scooter", "lat": 38.921642166666665, "is_reserved": 0, "lon": -77.03246533333333, "fusion_lon": 0.0, "is_disabled": 0, "fusion_lat": 0.0, "bike_id": "869c7c824968a217f2bbd84a8b8d227a", "rental_uris": {"ios": "https://dc.lft.to/lastmile_qr_scan", "android": "https://dc.lft.to/lastmile_qr_scan"}}, {"name": "56ef38c947ab2eb991066c2c86af4e13", "type": "electric_bike", "lat": 39.038861, "is_reserved": 0, "lon": -76.99040233333334, "fusion_lon": 0.0, "is_disabled": 0, "fusion_lat": 0.0, "bike_id": "56ef38c947ab2eb991066c2c86af4e13", "rental_uris": {"ios": "https://dc.lft.to/lastmile_qr_scan", "android": "https://dc.lft.to/lastmile_qr_scan"}}, {"name": "1203026522e798c6d403d6a70504ceb9", "type": "electric_scooter", "lat": 38.916315833333336, "is_reserved": 0, "lon": -77.013342, "fusion_lon": 0.0, "is_disabled": 0, "fusion_lat": 0.0, "bike_id": "1203026522e798c6d403d6a70504ceb9", "rental_uris": {"ios": "https://dc.lft.to/lastmile_qr_scan", "android": "https://dc.lft.to/lastmile_qr_scan"}}, {"name": "b579e012506e0f1678476084d3c9604e", "type": "electric_scooter", "lat": 38.906127166666664, "is_reserved": 0, "lon": -77.07487083333334, "fusion_lon": 0.0, "is_disabled": 0, "fusion_lat": 0.0, "bike_id": "b579e012506e0f1678476084d3c9604e", "rental_uris": {"ios": "https://dc.lft.to/lastmile_qr_scan", "android": "https://dc.lft.to/lastmile_qr_scan"}}, {"name": "04998f38b1e6774c423378c21f0b049e", "type": "electric_scooter", "lat": 38.915711333333334, "is_reserved": 0, "lon": -77.0449885, "fusion_lon": 0.0, "is_disabled": 0, "fusion_lat": 0.0, "bike_id": "04998f38b1e6774c423378c21f0b049e", "rental_uris": {"ios": "https://dc.lft.to/lastmile_qr_scan", "android": "https://dc.lft.to/lastmile_qr_scan"}}, {"name": "7f3c4aabafeb0c50ad8b75cbc19e48c8", "type": "electric_scooter", "lat": 38.90007666666666, "is_reserved": 0, "lon": -76.99117416666667, "fusion_lon": 0.0, "is_disabled": 0, "fusion_lat": 0.0, "bike_id": "7f3c4aabafeb0c50ad8b75cbc19e48c8", "rental_uris": {"ios": "https://dc.lft.to/lastmile_qr_scan", "android": "https://dc.lft.to/lastmile_qr_scan"}}, {"name": "9b0a6ee715bd309d5d66b81af2f4254b", "type": "electric_scooter", "lat": 38.88314366666667, "is_reserved": 0, "lon": -77.017738, "fusion_lon": 0.0, "is_disabled": 0, "fusion_lat": 0.0, "bike_id": "9b0a6ee715bd309d5d66b81af2f4254b", "rental_uris": {"ios": "https://dc.lft.to/lastmile_qr_scan", "android": "https://dc.lft.to/lastmile_qr_scan"}}, {"name": "f109bc47e235a0f280ef8f80c5a20707", "type": "electric_scooter", "lat": 38.900661166666666, "is_reserved": 0, "lon": -77.050058, "fusion_lon": 0.0, "is_disabled": 0, "fusion_lat": 0.0, "bike_id": "f109bc47e235a0f280ef8f80c5a20707", "rental_uris": {"ios": "https://dc.lft.to/lastmile_qr_scan", "android": "https://dc.lft.to/lastmile_qr_scan"}}, {"name": "358651ad4a8b4eea487ec9648dc59b0e", "type": "electric_scooter", "lat": 38.9052, "is_reserved": 0, "lon": -77.04356766666666, "fusion_lon": 0.0, "is_disabled": 0, "fusion_lat": 0.0, "bike_id": "358651ad4a8b4eea487ec9648dc59b0e", "rental_uris": {"ios": "https://dc.lft.to/lastmile_qr_scan", "android": "https://dc.lft.to/lastmile_qr_scan"}}, {"name": "d254c266c64c7695fb850d9f817b17e7", "type": "electric_scooter", "lat": 38.902773833333335, "is_reserved": 0, "lon": -77.038378, "fusion_lon": 0.0, "is_disabled": 0, "fusion_lat": 0.0, "bike_id": "d254c266c64c7695fb850d9f817b17e7", "rental_uris": {"ios": "https://dc.lft.to/lastmile_qr_scan", "android": "https://dc.lft.to/lastmile_qr_scan"}}, {"name": "3b8814061dab793a30acb2e1d4b1c2ba", "type": "electric_scooter", "lat": 38.89966366666667, "is_reserved": 0, "lon": -76.92619683333334, "fusion_lon": 0.0, "is_disabled": 0, "fusion_lat": 0.0, "bike_id": "3b8814061dab793a30acb2e1d4b1c2ba", "rental_uris": {"ios": "https://dc.lft.to/lastmile_qr_scan", "android": "https://dc.lft.to/lastmile_qr_scan"}}, {"name": "0f486525b7a3b6079c34b0bd01298de1", "type": "electric_scooter", "lat": 38.91989016666667, "is_reserved": 0, "lon": -77.03478066666666, "fusion_lon": 0.0, "is_disabled": 0, "fusion_lat": 0.0, "bike_id": "0f486525b7a3b6079c34b0bd01298de1", "rental_uris": {"ios": "https://dc.lft.to/lastmile_qr_scan", "android": "https://dc.lft.to/lastmile_qr_scan"}}, {"name": "fa0d8c37c1c490952701a6b0f5af30f8", "type": "electric_scooter", "lat": 38.9119935, "is_reserved": 0, "lon": -77.04540033333333, "fusion_lon": 0.0, "is_disabled": 0, "fusion_lat": 0.0, "bike_id": "fa0d8c37c1c490952701a6b0f5af30f8", "rental_uris": {"ios": "https://dc.lft.to/lastmile_qr_scan", "android": "https://dc.lft.to/lastmile_qr_scan"}}, {"name": "b0f405583204774785e3ba8184c6bdee", "type": "electric_scooter", "lat": 38.89196233333333, "is_reserved": 0, "lon": -77.002341, "fusion_lon": 0.0, "is_disabled": 0, "fusion_lat": 0.0, "bike_id": "b0f405583204774785e3ba8184c6bdee", "rental_uris": {"ios": "https://dc.lft.to/lastmile_qr_scan", "android": "https://dc.lft.to/lastmile_qr_scan"}}, {"name": "a798c620e36c46ef55a83023261776fe", "type": "electric_scooter", "lat": 38.9335505, "is_reserved": 0, "lon": -77.06936666666667, "fusion_lon": 0.0, "is_disabled": 0, "fusion_lat": 0.0, "bike_id": "a798c620e36c46ef55a83023261776fe", "rental_uris": {"ios": "https://dc.lft.to/lastmile_qr_scan", "android": "https://dc.lft.to/lastmile_qr_scan"}}, {"name": "22992b3191a8e208925f47afcc2366a9", "type": "electric_bike", "lat": 38.81328233333333, "is_reserved": 0, "lon": -77.05115683333334, "fusion_lon": 0.0, "is_disabled": 0, "fusion_lat": 0.0, "bike_id": "22992b3191a8e208925f47afcc2366a9", "rental_uris": {"ios": "https://dc.lft.to/lastmile_qr_scan", "android": "https://dc.lft.to/lastmile_qr_scan"}}, {"name": "b8008a00cae7bbecc20b7ed432f8a8b7", "type": "electric_scooter", "lat": 38.86567066666667, "is_reserved": 0, "lon": -76.98549816666667, "fusion_lon": 0.0, "is_disabled": 0, "fusion_lat": 0.0, "bike_id": "b8008a00cae7bbecc20b7ed432f8a8b7", "rental_uris": {"ios": "https://dc.lft.to/lastmile_qr_scan", "android": "https://dc.lft.to/lastmile_qr_scan"}}, {"name": "efca3ec57d6132a5f046d7027e7c17f0", "type": "electric_scooter", "lat": 38.930667666666665, "is_reserved": 0, "lon": -77.03400466666666, "fusion_lon": 0.0, "is_disabled": 0, "fusion_lat": 0.0, "bike_id": "efca3ec57d6132a5f046d7027e7c17f0", "rental_uris": {"ios": "https://dc.lft.to/lastmile_qr_scan", "android": "https://dc.lft.to/lastmile_qr_scan"}}, {"name": "409f3566f7c3c3d71b7467808130d03e", "type": "electric_scooter", "lat": 38.944326333333336, "is_reserved": 0, "lon": -77.06353616666667, "fusion_lon": 0.0, "is_disabled": 0, "fusion_lat": 0.0, "bike_id": "409f3566f7c3c3d71b7467808130d03e", "rental_uris": {"ios": "https://dc.lft.to/lastmile_qr_scan", "android": "https://dc.lft.to/lastmile_qr_scan"}}, {"name": "909aff2224438c23113c8d4fcc12dc4e", "type": "electric_bike", "lat": 38.869937166666666, "is_reserved": 0, "lon": -76.95983483333333, "fusion_lon": 0.0, "is_disabled": 0, "fusion_lat": 0.0, "bike_id": "909aff2224438c23113c8d4fcc12dc4e", "rental_uris": {"ios": "https://dc.lft.to/lastmile_qr_scan", "android": "https://dc.lft.to/lastmile_qr_scan"}}, {"name": "58246ef11b1ee64bfde78454a69b7131", "type": "electric_scooter", "lat": 38.90064433333333, "is_reserved": 0, "lon": -76.98714083333333, "fusion_lon": 0.0, "is_disabled": 0, "fusion_lat": 0.0, "bike_id": "58246ef11b1ee64bfde78454a69b7131", "rental_uris": {"ios": "https://dc.lft.to/lastmile_qr_scan", "android": "https://dc.lft.to/lastmile_qr_scan"}}, {"name": "2f088c64e5cb38151e05dcf36f9d0eb7", "type": "electric_bike", "lat": 38.985042166666666, "is_reserved": 0, "lon": -76.982167, "fusion_lon": 0.0, "is_disabled": 0, "fusion_lat": 0.0, "bike_id": "2f088c64e5cb38151e05dcf36f9d0eb7", "rental_uris": {"ios": "https://dc.lft.to/lastmile_qr_scan", "android": "https://dc.lft.to/lastmile_qr_scan"}}, {"name": "d3987b491cd14e170124896fe910c791", "type": "electric_scooter", "lat": 38.8734065, "is_reserved": 0, "lon": -77.01858116666666, "fusion_lon": 0.0, "is_disabled": 0, "fusion_lat": 0.0, "bike_id": "d3987b491cd14e170124896fe910c791", "rental_uris": {"ios": "https://dc.lft.to/lastmile_qr_scan", "android": "https://dc.lft.to/lastmile_qr_scan"}}, {"name": "1abf602614e5947d4eef257c5530ffea", "type": "electric_scooter", "lat": 38.8624055, "is_reserved": 0, "lon": -76.99493716666667, "fusion_lon": 0.0, "is_disabled": 0, "fusion_lat": 0.0, "bike_id": "1abf602614e5947d4eef257c5530ffea", "rental_uris": {"ios": "https://dc.lft.to/lastmile_qr_scan", "android": "https://dc.lft.to/lastmile_qr_scan"}},