{"data": {"bikes": [{"type": "electric_scooter", "rental_uris": {"ios": "https://dc.lft.to/lastmile_qr_scan", "android": "https://dc.lft.to/lastmile_qr_scan"}, "lon": -76.99783116666667, "fusion_lon": 0.0, "is_disabled": 0, "lat": 38.844302, "bike_id": "35c8cf47fb2f20ed6d9feac9bc734400", "name": "35c8cf47fb2f20ed6d9feac9bc734400", "is_reserved": 0, "fusion_lat": 0.0}, {"type": "electric_scooter", "rental_uris": {"ios": "https://dc.lft.to/lastmile_qr_scan", "android": "https://dc.lft.to/lastmile_qr_scan"}, "lon": -77.03437533333333, "fusion_lon": 0.0, "is_disabled": 0, "lat": 38.90795133333334, "bike_id": "7dbb572931d84c7c25051f063d719c64", "name": "7dbb572931d84c7c25051f063d719c64", "is_reserved": 0, "fusion_lat": 0.0}, {"type": "electric_bike", "rental_uris": {"ios": "https://dc.lft.to/lastmile_qr_scan", "android": "https://dc.lft.to/lastmile_qr_scan"}, "lon": -77.04330316666666, "fusion_lon": 0.0, "is_disabled": 0, "lat": 38.90773733333333, "bike_id": "6adf50028cd01406c75c77c38f6648b4", "name": "6adf50028cd01406c75c77c38f6648b4", "is_reserved": 0, "fusion_lat": 0.0}, {"type": "electric_scooter", "rental_uris": {"ios": "https://dc.lft.to/lastmile_qr_scan", "android": "https://dc.lft.to/lastmile_qr_scan"}, "lon": -77.051214, "fusion_lon": 0.0, "is_disabled": 0, "lat": 38.9033135, "bike_id": "5e6d2ceb0340d9c044ef79bc80f45fb0", "name": "5e6d2ceb0340d9c044ef79bc80f45fb0", "is_reserved": 0, "fusion_lat": 0.0}, {"type": "electric_scooter", "rental_uris": {"ios": "https://dc.lft.to/lastmile_qr_scan", "android": "https://dc.lft.to/lastmile_qr_scan"}, "lon": -77.00961366666667, "fusion_lon": 0.0, "is_disabled": 0, "lat": 38.907910666666666, "bike_id": "d8debf7be3d06c88045f88397f411caf", "name": "d8debf7be3d06c88045f88397f411caf", "is_reserved": 0, "fusion_lat": 0.0}, {"type": "electric_scooter", "rental_uris": {"ios": "https://dc.lft.to/lastmile_qr_scan", "android": "https://dc.lft.to/lastmile_qr_scan"}, "lon": -77.01655016666666, "fusion_lon": 0.0, "is_disabled": 0, "lat": 38.881212833333336, "bike_id": "18f4e9ffd03c6419841bee727be2ccc4", "name": "18f4e9ffd03c6419841bee727be2ccc4", "is_reserved": 0, "fusion_lat": 0.0}, {"type": "electric_scooter", "rental_uris": {"ios": "https://dc.lft.to/lastmile_qr_scan", "android": "https://dc.lft.to/lastmile_qr_scan"}, "lon": -76.96862466666667, "fusion_lon": 0.0, "is_disabled": 0, "lat": 38.870809, "bike_id": "5104cd12dd9e34f46be178f35ae60204", "name": "5104cd12dd9e34f46be178f35ae60204", "is_reserved": 0, "fusion_lat": 0.0}, {"type": "electric_scooter", "rental_uris": {"ios": "https://dc.lft.to/lastmile_qr_scan", "android": "https://dc.lft.to/lastmile_qr_scan"}, "lon": -76.99854983333333, "fusion_lon": 0.0, "is_disabled": 0, "lat": 38.8810945, "bike_id": "f310882aafcefeed5fb4386051d1066b", "name": "f310882aafcefeed5fb4386051d1066b", "is_reserved": 0, "fusion_lat": 0.0}, {"type": "electric_scooter", "rental_uris": {"ios": "https://dc.lft.to/lastmile_qr_scan", "android": "https://dc.lft.to/lastmile_qr_scan"}, "lon": -77.012276, "fusion_lon": 0.0, "is_disabled": 0, "lat": 38.91499233333333, "bike_id": "d025e3d8f39b5f5ed38fecabb380a306", "name": "d025e3d8f39b5f5ed38fecabb380a306", "is_reserved": 0, "fusion_lat": 0.0}, {"type": "electric_scooter", "rental_uris": {"ios": "https://dc.lft.to/lastmile_qr_scan", "android": "https://dc.lft.to/lastmile_qr_scan"}, "lon": -77.03283683333333, "fusion_lon": 0.0, "is_disabled": 0, "lat": 38.9274235, "bike_id": "94a4229bfac9960326d83aaf8096f7e0", "name": "94a4229bfac9960326d83aaf8096f7e0", "is_reserved": 0, "fusion_lat": 0.0}, {"type": "electric_scooter", "rental_uris": {"ios": "https://dc.lft.to/lastmile_qr_scan", "android": "https://dc.lft.to/lastmile_qr_scan"}, "lon": -76.97721316666667, "fusion_lon": 0.0, "is_disabled": 0, "lat": 38.872432, "bike_id": "e9c0b3900ddb65d08074924b0e443316", "name": "e9c0b3900ddb65d08074924b0e443316", "is_reserved": 0, "fusion_lat": 0.0}, {"type": "electric_scooter", "rental_uris": {"ios": "https://dc.lft.to/lastmile_qr_scan", "android": "https://dc.lft.to/lastmile_qr_scan"}, "lon": -77.00475466666667, "fusion_lon": 0.0, "is_disabled": 0, "lat": 38.91144166666667, "bike_id": "80cd9dbb342843db422a4f13cce50856", "name": "80cd9dbb342843db422a4f13cce50856", "is_reserved": 0, "fusion_lat": 0.0}, {"type": "electric_scooter", "rental_uris": {"ios": "https://dc.lft.to/lastmile_qr_scan", "android": "https://dc.lft.to/lastmile_qr_scan"}, "lon": -77.0060575, "fusion_lon": 0.0, "is_disabled": 0, "lat": 38.9063, "bike_id": "954734038bd5ed968544f9531b26a485", "name": "954734038bd5ed968544f9531b26a485", "is_reserved": 0, "fusion_lat": 0.0}, {"type": "electric_bike", "rental_uris": {"ios": "https://dc.lft.to/lastmile_qr_scan", "android": "https://dc.lft.to/lastmile_qr_scan"}, "lon": -77.03348066666666, "fusion_lon": 0.0, "is_disabled": 0, "lat": 38.969402, "bike_id": "cdc60f84d0a4c1a910632e7082a6682d", "name": "cdc60f84d0a4c1a910632e7082a6682d", "is_reserved": 0, "fusion_lat": 0.0}, {"type": "electric_scooter", "rental_uris": {"ios": "https://dc.lft.to/lastmile_qr_scan", "android": "https://dc.lft.to/lastmile_qr_scan"}, "lon": -77.023183, "fusion_lon": 0.0, "is_disabled": 0, "lat": 38.90203783333333, "bike_id": "263529ca0fbfb16e76bc704b9b356c0e", "name": "263529ca0fbfb16e76bc704b9b356c0e", "is_reserved": 0, "fusion_lat": 0.0}, {"type": "electric_scooter", "rental_uris": {"ios": "https://dc.lft.to/lastmile_qr_scan", "android": "https://dc.lft.to/lastmile_qr_scan"}, "lon": -77.021814, "fusion_lon": 0.0, "is_disabled": 0, "lat": 38.94290766666667, "bike_id": "fc3afb6fa361b559047f9ffbfa7208ca", "name": "fc3afb6fa361b559047f9ffbfa7208ca", "is_reserved": 0, "fusion_lat": 0.0}, {"type": "electric_scooter", "rental_uris": {"ios": "https://dc.lft.to/lastmile_qr_scan", "android": "https://dc.lft.to/lastmile_qr_scan"}, "lon": -77.005758, "fusion_lon": 0.0, "is_disabled": 0, "lat": 38.90882533333333, "bike_id": "642a652f81efdf1db3f87913fbd33288", "name": "642a652f81efdf1db3f87913fbd33288", "is_reserved": 0, "fusion_lat": 0.0}, {"type": "electric_scooter", "rental_uris": {"ios": "https://dc.lft.to/lastmile_qr_scan", "android": "https://dc.lft.to/lastmile_qr_scan"}, "lon": -76.99939483333333, "fusion_lon": 0.0, "is_disabled": 0, "lat": 38.889741666666666, "bike_id": "69bf9c19ede8cef322a8b6094b27952c", "name": "69bf9c19ede8cef322a8b6094b27952c", "is_reserved": 0, "fusion_lat": 0.0}, {"type": "electric_scooter", "rental_uris": {"ios": "https://dc.lft.to/lastmile_qr_scan", "android": "https://dc.lft.to/lastmile_qr_scan"}, "lon": -77.03420366666667, "fusion_lon": 0.0, "is_disabled": 0, "lat": 38.93537083333333, "bike_id": "147e01326f00d72d800ba5af21f03da5", "name": "147e01326f00d72d800ba5af21f03da5", "is_reserved": 0, "fusion_lat": 0.0}, {"type": "electric_scooter", "rental_uris": {"ios": "https://dc.lft.to/lastmile_qr_scan", "android": "https://dc.lft.to/lastmile_qr_scan"}, "lon": -76.9858035, "fusion_lon": 0.0, "is_disabled": 0, "lat": 38.854483333333334, "bike_id": "ca66a57ac4811f58e492a40e21f7b03e", "name": "ca66a57ac4811f58e492a40e21f7b03e", "is_reserved": 0, "fusion_lat": 0.0}, {"type": "electric_bike", "rental_uris": {"ios": "https://dc.lft.to/lastmile_qr_scan", "android": "https://dc.lft.to/lastmile_qr_scan"}, "lon": -77.02631983333333, "fusion_lon": 0.0, "is_disabled": 0, "lat": 38.9622485, "bike_id": "c8a265ea73ea0657ca55c3d693b292a5", "name": "c8a265ea73ea0657ca55c3d693b292a5", "is_reserved": 0, "fusion_lat": 0.0}, {"type": "electric_scooter", "rental_uris": {"ios": "https://dc.lft.to/lastmile_qr_scan", "android": "https://dc.lft.to/lastmile_qr_scan"}, "lon": -77.05759283333333, "fusion_lon": 0.0, "is_disabled": 0, "lat": 38.923845666666665, "bike_id": "6f8feaec10c92e240e7562bf0a480972", "name": "6f8feaec10c92e240e7562bf0a480972", "is_reserved": 0, "fusion_lat": 0.0}, {"type": "electric_scooter", "rental_uris": {"ios": "https://dc.lft.to/lastmile_qr_scan", "android": "https://dc.lft.to/lastmile_qr_scan"}, "lon": -77.036656, "fusion_lon": 0.0, "is_disabled": 0, "lat": 38.922508, "bike_id": "4c58022e07b6a5b15895c72e71be3704", "name": "4c58022e07b6a5b15895c72e71be3704", "is_reserved": 0, "fusion_lat": 0.0}, {"type": "electric_scooter", "rental_uris": {"ios": "https://dc.lft.to/lastmile_qr_scan", "android": "https://dc.lft.to/lastmile_qr_scan"}, "lon": -77.020109, "fusion_lon": 0.0, "is_disabled": 0, "lat": 38.924201833333335, "bike_id": "886d5f546d75dd72702e922c0639a5dc", "name": "886d5f546d75dd72702e922c0639a5dc", "is_reserved": 0, "fusion_lat": 0.0}, {"type": "electric_scooter", "rental_uris": {"ios": "https://dc.lft.to/lastmile_qr_scan", "android": "https://dc.lft.to/lastmile_qr_scan"}, "lon": -77.01376583333334, "fusion_lon": 0.0, "is_disabled": 0, "lat": 38.886627, "bike_id": "4f216d568798c07f0b941d90c4ddd993", "name": "4f216d568798c07f0b941d90c4ddd993", "is_reserved": 0, "fusion_lat": 0.0}, {"type": "electric_scooter", "rental_uris": {"ios": "https://dc.lft.to/lastmile_qr_scan", "android": "https://dc.lft.to/lastmile_qr_scan"}, "lon": -77.02247033333333, "fusion_lon": 0.0, "is_disabled": 0, "lat": 38.87861766666666, "bike_id": "6922678b78296ec1ff51cc36e954eef8", "name": "6922678b78296ec1ff51cc36e954eef8", "is_reserved": 0, "fusion_lat": 0.0}, {"type": "electric_scooter", "rental_uris": {"ios": "https://dc.lft.to/lastmile_qr_scan", "android": "https://dc.lft.to/lastmile_qr_scan"}, "lon": -77.03850833333334, "fusion_lon": 0.0, "is_disabled": 0, "lat": 38.91016183333333, "bike_id": "62eb295fd0040fc47fc4151cb44a53c1", "name": "62eb295fd0040fc47fc4151cb44a53c1", "is_reserved": 0, "fusion_lat": 0.0}, {"type": "electric_bike", "rental_uris": {"ios": "https://dc.lft.to/lastmile_qr_scan", "android": "https://dc.lft.to/lastmile_qr_scan"}, "lon": -77.10779033333333, "fusion_lon": 0.0, "is_disabled": 0, "lat": 38.89219383333333, "bike_id": "185229a4a479080a069bccbdb873711a", "name": "185229a4a479080a069bccbdb873711a", "is_reserved": 0, "fusion_lat": 0.0}, {"type": "electric_scooter", "rental_uris": {"ios": "https://dc.lft.to/lastmile_qr_scan", "android": "https://dc.lft.to/lastmile_qr_scan"}, "lon": -76.9652985, "fusion_lon": 0.0, "is_disabled": 0, "lat": 38.8762725, "bike_id": "6c7c0690a25496b5ecd7b911ba169e58", "name": "6c7c0690a25496b5ecd7b911ba169e58", "is_reserved": 0, "fusion_lat": 0.0}, {"type": "electric_scooter", "rental_uris": {"ios": "https://dc.lft.to/lastmile_qr_scan", "android": "https://dc.lft.to/lastmile_qr_scan"}, "lon": -76.93142516666667, "fusion_lon": 0.0, "is_disabled": 0, "lat": 38.8933895, "bike_id": "b9f4d95566a63e323e1647658d89c558", "name": "b9f4d95566a63e323e1647658d89c558", "is_reserved": 0, "fusion_lat": 0.0}, {"type": "electric_scooter", "rental_uris": {"ios": "https://dc.lft.to/lastmile_qr_scan", "android": "https://dc.lft.to/lastmile_qr_scan"}, "lon": -77.044389, "fusion_lon": 0.0, "is_disabled": 0, "lat": 38.921206833333336, "bike_id": "a4d0e7ee844fafafc3e55246b0024a28", "name": "a4d0e7ee844fafafc3e55246b0024a28", "is_reserved": 0, "fusion_lat": 0.0}, {"type": "electric_scooter", "rental_uris": {"ios": "https://dc.lft.to/lastmile_qr_scan", "android": "https://dc.lft.to/lastmile_qr_scan"}, "lon": -77.04352783333333, "fusion_lon": 0.0, "is_disabled": 0, "lat": 38.91345716666667, "bike_id": "2af353810dec9c58fd9c196607e9f50e", "name": "2af353810dec9c58fd9c196607e9f50e", "is_reserved": 0, "fusion_lat": 0.0}, {"type": "electric_scooter", "rental_uris": {"ios": "https://dc.lft.to/lastmile_qr_scan", "android": "https://dc.lft.to/lastmile_qr_scan"}, "lon": -76.99830933333334, "fusion_lon": 0.0, "is_disabled": 0, "lat": 38.900376666666666, "bike_id": "4ec685dc776ebd04536ae6a8d4ca20fe", "name": "4ec685dc776ebd04536ae6a8d4ca20fe", "is_reserved": 0, "fusion_lat": 0.0}, {"type": "electric_scooter", "rental_uris": {"ios": "https://dc.lft.to/lastmile_qr_scan", "android": "https://dc.lft.to/lastmile_qr_scan"}, "lon": -77.03869466666667, "fusion_lon": 0.0, "is_disabled": 0, "lat": 38.90973733333333, "bike_id": "009b6316e64d45575a5521ff4343184d", "name": "009b6316e64d45575a5521ff4343184d", "is_reserved": 0, "fusion_lat": 0.0}, {"type": "electric_scooter", "rental_uris": {"ios": "https://dc.lft.to/lastmile_qr_scan", "android": "https://dc.lft.to/lastmile_qr_scan"}, "lon": -77.03886316666667, "fusion_lon": 0.0, "is_disabled": 0, "lat": 38.9026355, "bike_id": "d277e8139192e8c34938a9447748c211", "name": "d277e8139192e8c34938a9447748c211", "is_reserved": 0, "fusion_lat": 0.0}, {"type": "electric_scooter", "rental_uris": {"ios": "https://dc.lft.to/lastmile_qr_scan", "android": "https://dc.lft.to/lastmile_qr_scan"}, "lon": -77.0350725, "fusion_lon": 0.0, "is_disabled": 0, "lat": 38.92151233333333, "bike_id": "69efa0971687da17d6f4e877a985aa38", "name": "69efa0971687da17d6f4e877a985aa38", "is_reserved": 0, "fusion_lat": 0.0}, {"type": "electric_scooter", "rental_uris": {"ios": "https://dc.lft.to/lastmile_qr_scan", "android": "https://dc.lft.to/lastmile_qr_scan"}, "lon": -77.07709283333334, "fusion_lon": 0.0, "is_disabled": 0, "lat": 38.943842333333336, "bike_id": "3ace99f01f8b3829cdc3c7aeae843d1e", "name": "3ace99f01f8b3829cdc3c7aeae843d1e", "is_reserved": 0, "fusion_lat": 0.0}, {"type": "electric_bike", "rental_uris": {"ios": "https://dc.lft.to/lastmile_qr_scan", "android": "https://dc.lft.to/lastmile_qr_scan"}, "lon": -77.03901033333334, "fusion_lon": 0.0, "is_disabled": 0, "lat": 38.922208833333336, "bike_id": "db47898055c9786ad7c88eecfe42ed4b", "name": "db47898055c9786ad7c88eecfe42ed4b", "is_reserved": 0, "fusion_lat": 0.0}, {"type": "electric_bike", "rental_uris": {"ios": "https://dc.lft.to/lastmile_qr_scan", "android": "https://dc.lft.to/lastmile_qr_scan"}, "lon": -77.04930416666667, "fusion_lon": 0.0, "is_disabled": 0, "lat": 39.02934166666667, "bike_id": "a4d55e7c9f7c92fc0d6fcd862118c61d", "name": "a4d55e7c9f7c92fc0d6fcd862118c61d", "is_reserved": 0, "fusion_lat": 0.0}, {"type": "electric_scooter", "rental_uris": {"ios": "https://dc.lft.to/lastmile_qr_scan", "android": "https://dc.lft.to/lastmile_qr_scan"}, "lon": -77.02689983333333, "fusion_lon": 0.0, "is_disabled": 0, "lat": 38.90600033333333, "bike_id": "127d2544008999491e541873d1e944e1", "name": "127d2544008999491e541873d1e944e1", "is_reserved": 0, "fusion_lat": 0.0}, {"type": "electric_bike", "rental_uris": {"ios": "https://dc.lft.to/lastmile_qr_scan", "android": "https://dc.lft.to/lastmile_qr_scan"}, "lon": -77.02777883333333, "fusion_lon": 0.0, "is_disabled": 0, "lat": 38.92910933333334, "bike_id": "0a31a1bde26afa74d2ce4b41aef86086", "name": "0a31a1bde26afa74d2ce4b41aef86086", "is_reserved": 0, "fusion_lat": 0.0}, {"type": "electric_bike", "rental_uris": {"ios": "https://dc.lft.to/lastmile_qr_scan", "android": "https://dc.lft.to/lastmile_qr_scan"}, "lon": -77.06862633333333, "fusion_lon": 0.0, "is_disabled": 0, "lat": 38.80574883333333, "bike_id": "e325c03ba4b24f9c84e9130ba40758c8", "name": "e325c03ba4b24f9c84e9130ba40758c8", "is_reserved": 0, "fusion_lat": 0.0}, {"type": "electric_bike", "rental_uris": {"ios": "https://dc.lft.to/lastmile_qr_scan", "android": "https://dc.lft.to/lastmile_qr_scan"}, "lon": -77.01769866666666, "fusion_lon": 0.0, "is_disabled": 0, "lat": 38.982722333333335, "bike_id": "fa5b8f3873a9fb6511e0ee1029dc052b", "name": "fa5b8f3873a9fb6511e0ee1029dc052b", "is_reserved": 0, "fusion_lat": 0.0}, {"type": "electric_scooter", "rental_uris": {"ios": "https://dc.lft.to/lastmile_qr_scan", "android": "https://dc.lft.to/lastmile_qr_scan"}, "lon": -77.031244, "fusion_lon": 0.0, "is_disabled": 0, "lat": 38.959349833333334, "bike_id": "e717fdeb76e180015871ca2f972bb5fe", "name": "e717fdeb76e180015871ca2f972bb5fe", "is_reserved": 0, "fusion_lat": 0.0}, {"type": "electric_scooter", "rental_uris": {"ios": "https://dc.lft.to/lastmile_qr_scan", "android": "https://dc.lft.to/lastmile_qr_scan"}, "lon": -77.022854, "fusion_lon": 0.0, "is_disabled": 0, "lat": 38.916569, "bike_id": "5952bbacc27bc54cb8cb287ca29291ba", "name": "5952bbacc27bc54cb8cb287ca29291ba", "is_reserved": 0, "fusion_lat": 0.0}, {"type": "electric_scooter", "rental_uris": {"ios": "https://dc.lft.to/lastmile_qr_scan", "android": "https://dc.lft.to/lastmile_qr_scan"}, "lon": -77.05002283333333, "fusion_lon": 0.0, "is_disabled": 0, "lat": 38.89231133333333, "bike_id": "90fba62b9eb6f342b671ccc826645c99", "name": "90fba62b9eb6f342b671ccc826645c99", "is_reserved": 0, "fusion_lat": 0.0}, {"type": "electric_bike", "rental_uris": {"ios": "https://dc.lft.to/lastmile_qr_scan", "android": "https://dc.lft.to/lastmile_qr_scan"}, "lon": -77.01035266666666, "fusion_lon": 0.0, "is_disabled": 0, "lat": 38.95879166666667, "bike_id": "cc343e0a0b8aafbfff1a6d6ad205d841", "name": "cc343e0a0b8aafbfff1a6d6ad205d841", "is_reserved": 0, "fusion_lat": 0.0}, {"type": "electric_scooter", "rental_uris": {"ios": "https://dc.lft.to/lastmile_qr_scan", "android": "https://dc.lft.to/lastmile_qr_scan"}, "lon": -77.02513083333334, "fusion_lon": 0.0, "is_disabled": 0, "lat": 38.919755, "bike_id": "4e3ffda1a1751e3cc72da92fe1976415", "name": "4e3ffda1a1751e3cc72da92fe1976415", "is_reserved": 0, "fusion_lat": 0.0}, {"type": "electric_bike", "rental_uris": {"ios": "https://dc.lft.to/lastmile_qr_scan", "android": "https://dc.lft.to/lastmile_qr_scan"}, "lon": -77.03352733333334, "fusion_lon": 0.0, "is_disabled": 0, "lat": 38.96320016666667, "bike_id": "4c9ab40993a34defb630e4f406959e89", "name": "4c9ab40993a34defb630e4f406959e89", "is_reserved": 0, "fusion_lat": 0.0}, {"type": "electric_scooter", "rental_uris": {"ios": "https://dc.lft.to/lastmile_qr_scan", "android": "https://dc.lft.to/lastmile_qr_scan"}, "lon": -77.03263433333333, "fusion_lon": 0.0, "is_disabled": 0, "lat": 38.9192395, "bike_id": "1d603055699b8c900838d2dcdb70efc7", "name": "1d603055699b8c900838d2dcdb70efc7", "is_reserved": 0, "fusion_lat": 0.0}, {"type": "electric_scooter", "rental_uris": {"ios": "https://dc.lft.to/lastmile_qr_scan", "android": "https://dc.lft.to/lastmile_qr_scan"}, "lon": -77.02466983333333, "fusion_lon": 0.0, "is_disabled": 0, "lat": 38.93799833333333, "bike_id": "51817b78ad95bf0441b42e9645cbeb76", "name": "51817b78ad95bf0441b42e9645cbeb76", "is_reserved": 0, "fusion_lat": 0.0}, {"type": "electric_scooter", "rental_uris": {"ios": "https://dc.lft.to/lastmile_qr_scan", "android": "https://dc.lft.to/lastmile_qr_scan"}, "lon": -77.027515, "fusion_lon": 0.0, "is_disabled": 0, "lat": 38.92774816666667, "bike_id": "0f08c702d3fd0d691837b49ff58d233e", "name": "0f08c702d3fd0d691837b49ff58d233e", "is_reserved": 0, "fusion_lat": 0.0}, {"type": "electric_scooter", "rental_uris": {"ios": "https://dc.lft.to/lastmile_qr_scan", "android": "https://dc.lft.to/lastmile_qr_scan"}, "lon": -77.032178, "fusion_lon": 0.0, "is_disabled": 0, "lat": 38.90972683333333, "bike_id": "9743d047b1ac9276bf0afe12be10281e", "name": "9743d047b1ac9276bf0afe12be10281e", "is_reserved": 0, "fusion_lat": 0.0}, {"type": "electric_scooter", "rental_uris": {"ios": "https://dc.lft.to/lastmile_qr_scan", "android": "https://dc.lft.to/lastmile_qr_scan"}, "lon": -77.03213333333333, "fusion_lon": 0.0, "is_disabled": 0, "lat": 38.917162833333336, "bike_id": "c3683dbbd270a9023f78b6eaaaf10d02", "name": "c3683dbbd270a9023f78b6eaaaf10d02", "is_reserved": 0, "fusion_lat": 0.0}, {"type": "electric_scooter", "rental_uris": {"ios": "https://dc.lft.to/lastmile_qr_scan", "android": "https://dc.lft.to/lastmile_qr_scan"}, "lon": -77.02179383333333, "fusion_lon": 0.0, "is_disabled": 0, "lat": 38.893004166666664, "bike_id": "9b755fc0af5f75469cb18377ddf28297", "name": "9b755fc0af5f75469cb18377ddf28297", "is_reserved": 0, "fusion_lat": 0.0}, {"type": "electric_scooter", "rental_uris": {"ios": "https://dc.lft.to/lastmile_qr_scan", "android": "https://dc.lft.to/lastmile_qr_scan"}, "lon": -76.97810466666667, "fusion_lon": 0.0, "is_disabled": 0, "lat": 38.89453233333333, "bike_id": "0b2068d76e884df2b9395c6fa518e0ca", "name": "0b2068d76e884df2b9395c6fa518e0ca", "is_reserved": 0, "fusion_lat": 0.0}, {"type": "electric_scooter", "rental_uris": {"ios": "https://dc.lft.to/lastmile_qr_scan", "android": "https://dc.lft.to/lastmile_qr_scan"}, "lon": -77.02106116666667, "fusion_lon": 0.0, "is_disabled": 0, "lat": 38.945754666666666, "bike_id": "c4bca32b0485038771e8e616dd22ad02", "name": "c4bca32b0485038771e8e616dd22ad02", "is_reserved": 0, "fusion_lat": 0.0}, {"type": "electric_scooter", "rental_uris": {"ios": "https://dc.lft.to/lastmile_qr_scan", "android": "https://dc.lft.to/lastmile_qr_scan"}, "lon": -77.03191816666667, "fusion_lon": 0.0, "is_disabled": 0, "lat": 38.9162265, "bike_id": "15e61ff09f6aa91836b5e06fc080b7b6", "name": "15e61ff09f6aa91836b5e06fc080b7b6", "is_reserved": 0, "fusion_lat": 0.0}, {"type": "electric_bike", "rental_uris": {"ios": "https://dc.lft.to/lastmile_qr_scan", "android": "https://dc.lft.to/lastmile_qr_scan"}, "lon": -77.07902283333334, "fusion_lon": 0.0, "is_disabled": 0, "lat": 38.83934083333333, "bike_id": "ad26b5bc41cc432511b3041e816935d0", "name": "ad26b5bc41cc432511b3041e816935d0", "is_reserved": 0, "fusion_lat": 0.0}, {"type": "electric_bike", "rental_uris": {"ios": "https://dc.lft.to/lastmile_qr_scan", "android": "https://dc.lft.to/lastmile_qr_scan"}, "lon": -76.98210433333334, "fusion_lon": 0.0, "is_disabled": 0, "lat": 38.9850485, "bike_id": "41259e3a494ce1d914b517fbb2cba5e8", "name": "41259e3a494ce1d914b517fbb2cba5e8", "is_reserved": 0, "fusion_lat": 0.0}, {"type": "electric_scooter", "rental_uris": {"ios": "https://dc.lft.to/lastmile_qr_scan", "android": "https://dc.lft.to/lastmile_qr_scan"}, "lon": -77.04896866666667, "fusion_lon": 0.0, "is_disabled": 0, "lat": 38.892238666666664, "bike_id": "c83aff2139e989052b2f9e9e63f969a1", "name": "c83aff2139e989052b2f9e9e63f969a1", "is_reserved": 0, "fusion_lat": 0.0}, {"type": "electric_bike", "rental_uris": {"ios": "https://dc.lft.to/lastmile_qr_scan", "android": "https://dc.lft.to/lastmile_qr_scan"}, "lon": -77.01281383333334, "fusion_lon": 0.0, "is_disabled": 0, "lat": 38.956688666666665, "bike_id": "8ea7a6b86b84796493e97217d38dede5", "name": "8ea7a6b86b84796493e97217d38dede5", "is_reserved": 0, "fusion_lat": 0.0}, {"type": "electric_scooter", "rental_uris": {"ios": "https://dc.lft.to/lastmile_qr_scan", "android": "https://dc.lft.to/lastmile_qr_scan"}, "lon": -77.050598, "fusion_lon": 0.0, "is_disabled": 0, "lat": 38.90411133333333, "bike_id": "d1a9352de9b82326fb4aa1ed83f9ea0e", "name": "d1a9352de9b82326fb4aa1ed83f9ea0e", "is_reserved": 0, "fusion_lat": 0.0}, {"type": "electric_scooter", "rental_uris": {"ios": "https://dc.lft.to/lastmile_qr_scan", "android": "https://dc.lft.to/lastmile_qr_scan"}, "lon": -76.97956616666667, "fusion_lon": 0.0, "is_disabled": 0, "lat": 38.91693016666667, "bike_id": "3166539ce68341a00429291d3fbb79f2", "name": "3166539ce68341a00429291d3fbb79f2", "is_reserved": 0, "fusion_lat": 0.0}, {"type": "electric_scooter", "rental_uris": {"ios": "https://dc.lft.to/lastmile_qr_scan", "android": "https://dc.lft.to/lastmile_qr_scan"}, "lon": -77.0345605, "fusion_lon": 0.0, "is_disabled": 0, "lat": 38.907247, "bike_id": "4c65e99bd166df56802600044d64a833", "name": "4c65e99bd166df56802600044d64a833", "is_reserved": 0, "fusion_lat": 0.0}, {"type": "electric_scooter", "rental_uris": {"ios": "https://dc.lft.to/lastmile_qr_scan", "android": "https://dc.lft.to/lastmile_qr_scan"}, "lon": -77.03221733333334, "fusion_lon": 0.0, "is_disabled": 0, "lat": 38.909688, "bike_id": "cfa58184109bf0eb83bdb1752ceabaa0", "name": "cfa58184109bf0eb83bdb1752ceabaa0", "is_reserved": 0, "fusion_lat": 0.0}, {"type": "electric_scooter", "rental_uris": {"ios": "https://dc.lft.to/lastmile_qr_scan", "android": "https://dc.lft.to/lastmile_qr_scan"}, "lon": -77.03169633333333, "fusion_lon": 0.0, "is_disabled": 0, "lat": 38.917920333333335, "bike_id": "441e45e5ea3b62c1accda60154109761", "name": "441e45e5ea3b62c1accda60154109761", "is_reserved": 0, "fusion_lat": 0.0}, {"type": "electric_bike", "rental_uris": {"ios": "https://dc.lft.to/lastmile_qr_scan", "android": "https://dc.lft.to/lastmile_qr_scan"}, "lon": -77.1106555, "fusion_lon": 0.0, "is_disabled": 0, "lat": 38.870694, "bike_id": "32869211b5e7f11bdeff3fb7651a0fdb", "name": "32869211b5e7f11bdeff3fb7651a0fdb", "is_reserved": 0, "fusion_lat": 0.0}, {"type": "electric_scooter", "rental_uris": {"ios": "https://dc.lft.to/lastmile_qr_scan", "android": "https://dc.lft.to/lastmile_qr_scan"}, "lon": -77.02609616666666, "fusion_lon": 0.0, "is_disabled": 0, "lat": 38.90130716666667, "bike_id": "9676a6ba049d00576a573c35e5f873c3", "name": "9676a6ba049d00576a573c35e5f873c3", "is_reserved": 0, "fusion_lat": 0.0}, {"type": "electric_scooter", "rental_uris": {"ios": "https://dc.lft.to/lastmile_qr_scan", "android": "https://dc.lft.to/lastmile_qr_scan"}, "lon": -77.03184316666666, "fusion_lon": 0.0, "is_disabled": 0, "lat": 38.91908266666667, "bike_id": "31bc68bf7b7b5e12d2f7b4594239d208", "name": "31bc68bf7b7b5e12d2f7b4594239d208", "is_reserved": 0, "fusion_lat": 0.0}, {"type": "electric_scooter", "rental_uris": {"ios": "https://dc.lft.to/lastmile_qr_scan", "android": "https://dc.lft.to/lastmile_qr_scan"}, "lon": -76.99907733333333, "fusion_lon": 0.0, "is_disabled": 0, "lat": 38.948158166666666, "bike_id": "75299924239127bc9060950d4552771a", "name": "75299924239127bc9060950d4552771a", "is_reserved": 0, "fusion_lat": 0.0}, {"type": "electric_scooter", "rental_uris": {"ios": "https://dc.lft.to/lastmile_qr_scan", "android": "https://dc.lft.to/lastmile_qr_scan"}, "lon": -77.01621533333334, "fusion_lon": 0.0, "is_disabled": 0, "lat": 38.91593066666667, "bike_id": "c0a4b6ce6c2922cab79516eb15a4a994", "name": "c0a4b6ce6c2922cab79516eb15a4a994", "is_reserved": 0, "fusion_lat": 0.0}, {"type": "electric_scooter", "rental_uris": {"ios": "https://dc.lft.to/lastmile_qr_scan", "android": "https://dc.lft.to/lastmile_qr_scan"}, "lon": -77.010322, "fusion_lon": 0.0, "is_disabled": 0, "lat": 38.866613, "bike_id": "00cc6458057fd481d4717866ba429d0c", "name": "00cc6458057fd481d4717866ba429d0c", "is_reserved": 0, "fusion_lat": 0.0}, {"type": "electric_scooter", "rental_uris": {"ios": "https://dc.lft.to/lastmile_qr_scan", "android": "https://dc.lft.to/lastmile_qr_scan"}, "lon": -77.040237, "fusion_lon": 0.0, "is_disabled": 0, "lat": 38.93059233333334, "bike_id": "f8022ef3ca525c520de9a3689ccf0f51", "name": "f8022ef3ca525c520de9a3689ccf0f51", "is_reserved": 0, "fusion_lat": 0.0}, {"type": "electric_scooter", "rental_uris": {"ios": "https://dc.lft.to/lastmile_qr_scan", "android": "https://dc.lft.to/lastmile_qr_scan"}, "lon": -77.0245525, "fusion_lon": 0.0, "is_disabled": 0, "lat": 38.918625666666664, "bike_id": "5df95476ec784584b5e1bc63826882a6", "name": "5df95476ec784584b5e1bc63826882a6", "is_reserved": 0, "fusion_lat": 0.0}, {"type": "electric_scooter", "rental_uris": {"ios": "https://dc.lft.to/lastmile_qr_scan", "android": "https://dc.lft.to/lastmile_qr_scan"}, "lon": -77.02982716666666, "fusion_lon": 0.0, "is_disabled": 0, "lat": 38.905065666666665, "bike_id": "5ecc9efd2e14336a4200cc0d9825457a", "name": "5ecc9efd2e14336a4200cc0d9825457a", "is_reserved": 0, "fusion_lat": 0.0}, {"type": "electric_scooter", "rental_uris": {"ios": "https://dc.lft.to/lastmile_qr_scan", "android": "https://dc.lft.to/lastmile_qr_scan"}, "lon": -77.0230455, "fusion_lon": 0.0, "is_disabled": 0, "lat": 38.91609183333333, "bike_id": "072f149e4335457c97fcfbdba85608a8", "name": "072f149e4335457c97fcfbdba85608a8", "is_reserved": 0, "fusion_lat": 0.0}, {"type": "electric_scooter", "rental_uris": {"ios": "https://dc.lft.to/lastmile_qr_scan", "android": "https://dc.lft.to/lastmile_qr_scan"}, "lon": -77.02294933333333, "fusion_lon": 0.0, "is_disabled": 0, "lat": 38.916086166666666, "bike_id": "2eeb9af32fe0d041db30c8c823a72648", "name": "2eeb9af32fe0d041db30c8c823a72648", "is_reserved": 0, "fusion_lat": 0.0}, {"type": "electric_scooter", "rental_uris": {"ios": "https://dc.lft.to/lastmile_qr_scan", "android": "https://dc.lft.to/lastmile_qr_scan"}, "lon": -77.04269666666667, "fusion_lon": 0.0, "is_disabled": 0, "lat": 38.922999833333336, "bike_id": "1efd392d23aa52d0ba717384aff94c06", "name": "1efd392d23aa52d0ba717384aff94c06", "is_reserved": 0, "fusion_lat": 0.0}, {"type": "electric_scooter", "rental_uris": {"ios": "https://dc.lft.to/lastmile_qr_scan", "android": "https://dc.lft.to/lastmile_qr_scan"}, "lon": -77.0335935, "fusion_lon": 0.0, "is_disabled": 0, "lat": 38.8990515, "bike_id": "13f0c3fd15d4664ba79b9e94d3420b91", "name": "13f0c3fd15d4664ba79b9e94d3420b91", "is_reserved": 0, "fusion_lat": 0.0}, {"type": "electric_scooter", "rental_uris": {"ios": "https://dc.lft.to/lastmile_qr_scan", "android": "https://dc.lft.to/lastmile_qr_scan"}, "lon": -76.987002, "fusion_lon": 0.0, "is_disabled": 0, "lat": 38.867169833333335, "bike_id": "21165eda9d81dec265729b2bef38edc8", "name": "21165eda9d81dec265729b2bef38edc8", "is_reserved": 0, "fusion_lat": 0.0}, {"type": "electric_scooter", "rental_uris": {"ios": "https://dc.lft.to/lastmile_qr_scan", "android": "https://dc.lft.to/lastmile_qr_scan"}, "lon": -77.03202866666666, "fusion_lon": 0.0, "is_disabled": 0, "lat": 38.909666333333334, "bike_id": "d90ca8773b1c395acd5d8e82d24a9911", "name": "d90ca8773b1c395acd5d8e82d24a9911", "is_reserved": 0, "fusion_lat": 0.0}, {"type": "electric_scooter", "rental_uris": {"ios": "https://dc.lft.to/lastmile_qr_scan", "android": "https://dc.lft.to/lastmile_qr_scan"}, "lon": -77.036779, "fusion_lon": 0.0, "is_disabled": 0, "lat": 38.9187125, "bike_id": "7e11b5bc9e060410e6ea15b84eb492a8", "name": "7e11b5bc9e060410e6ea15b84eb492a8", "is_reserved": 0, "fusion_lat": 0.0}, {"type": "electric_scooter", "rental_uris": {"ios": "https://dc.lft.to/lastmile_qr_scan", "android": "https://dc.lft.to/lastmile_qr_scan"}, "lon": -77.03600866666666, "fusion_lon": 0.0, "is_disabled": 0, "lat": 38.90763333333334, "bike_id": "91b79de93cccc3dbfdce46f7ca441297", "name": "91b79de93cccc3dbfdce46f7ca441297", "is_reserved": 0, "fusion_lat": 0.0}, {"type": "electric_scooter", "rental_uris": {"ios": "https://dc.lft.to/lastmile_qr_scan", "android": "https://dc.lft.to/lastmile_qr_scan"}, "lon": -77.04124116666667, "fusion_lon": 0.0, "is_disabled": 0, "lat": 38.91707983333333, "bike_id": "86009ea8ee3c7797d3f069a01d77dc37", "name": "86009ea8ee3c7797d3f069a01d77dc37", "is_reserved": 0, "fusion_lat": 0.0}, {"type": "electric_scooter", "rental_uris": {"ios": "https://dc.lft.to/lastmile_qr_scan", "android": "https://dc.lft.to/lastmile_qr_scan"}, "lon": -77.02799566666667, "fusion_lon": 0.0, "is_disabled": 0, "lat": 38.9073385, "bike_id": "f738005307814f049af08b343a9e5ac4", "name": "f738005307814f049af08b343a9e5ac4", "is_reserved": 0, "fusion_lat": 0.0}, {"type": "electric_scooter", "rental_uris": {"ios": "https://dc.lft.to/lastmile_qr_scan", "android": "https://dc.lft.to/lastmile_qr_scan"}, "lon": -76.99516816666667, "fusion_lon": 0.0, "is_disabled": 0, "lat": 38.862564, "bike_id": "3bbaa0797d443b65db2e23d4bc3fb3aa", "name": "3bbaa0797d443b65db2e23d4bc3fb3aa", "is_reserved": 0, "fusion_lat": 0.0}, {"type": "electric_scooter", "rental_uris": {"ios": "https://dc.lft.to/lastmile_qr_scan", "android": "https://dc.lft.to/lastmile_qr_scan"}, "lon": -77.0343855, "fusion_lon": 0.0, "is_disabled": 0, "lat": 38.9082265, "bike_id": "a9373831f5425b57cb64d9fd30756cba", "name": "a9373831f5425b57cb64d9fd30756cba", "is_reserved": 0, "fusion_lat": 0.0}, {"type": "electric_scooter", "rental_uris": {"ios": "https://dc.lft.to/lastmile_qr_scan", "android": "https://dc.lft.to/lastmile_qr_scan"}, "lon": -77.031824, "fusion_lon": 0.0, "is_disabled": 0, "lat": 38.8923175, "bike_id": "0479e191b112331d61e1df68a67588fd", "name": "0479e191b112331d61e1df68a67588fd", "is_reserved": 0, "fusion_lat": 0.0}, {"type": "electric_scooter", "rental_uris": {"ios": "https://dc.lft.to/lastmile_qr_scan", "android": "https://dc.lft.to/lastmile_qr_scan"}, "lon": -77.03857066666667, "fusion_lon": 0.0, "is_disabled": 0, "lat": 38.915479166666664, "bike_id": "cb92378041f46343ec57c629aee55334", "name": "cb92378041f46343ec57c629aee55334", "is_reserved": 0, "fusion_lat": 0.0}, {"type": "electric_scooter", "rental_uris": {"ios": "https://dc.lft.to/lastmile_qr_scan", "android": "https://dc.lft.to/lastmile_qr_scan"}, "lon": -77.03160233333334, "fusion_lon": 0.0, "is_disabled": 0, "lat": 38.8922545, "bike_id": "6723a5a1a0699cebf5737258950ab943", "name": "6723a5a1a0699cebf5737258950ab943", "is_reserved": 0, "fusion_lat": 0.0}, {"type": "electric_scooter", "rental_uris": {"ios": "https://dc.lft.to/lastmile_qr_scan", "android": "https://dc.lft.to/lastmile_qr_scan"}, "lon": -77.02809333333333, "fusion_lon": 0.0, "is_disabled": 0, "lat": 38.898567666666665, "bike_id": "527c922938e13634a6ff4fcdf9af9553", "name": "527c922938e13634a6ff4fcdf9af9553", "is_reserved": 0, "fusion_lat": 0.0}, {"type": "electric_scooter", "rental_uris": {"ios": "https://dc.lft.to/lastmile_qr_scan", "android": "https://dc.lft.to/lastmile_qr_scan"}, "lon": -77.05134033333333, "fusion_lon": 0.0, "is_disabled": 0, "lat": 38.92362116666666, "bike_id": "72e58172616a01ff90faa174bd3448f3", "name": "72e58172616a01ff90faa174bd3448f3", "is_reserved": 0, "fusion_lat": 0.0}, {"type": "electric_scooter", "rental_uris": {"ios": "https://dc.lft.to/lastmile_qr_scan", "android": "https://dc.lft.to/lastmile_qr_scan"}, "lon": -76.99497333333333, "fusion_lon": 0.0, "is_disabled": 0, "lat": 38.862424833333336, "bike_id": "b1145392498fd5f485ce78b801d80447", "name": "b1145392498fd5f485ce78b801d80447", "is_reserved": 0, "fusion_lat": 0.0}, {"type": "electric_scooter", "rental_uris": {"ios": "https://dc.lft.to/lastmile_qr_scan", "android": "https://dc.lft.to/lastmile_qr_scan"}, "lon": -77.018568, "fusion_lon": 0.0, "is_disabled": 0, "lat": 38.97370383333333, "bike_id": "d28a179a7f55cedf36b56a38a5986bff", "name": "d28a179a7f55cedf36b56a38a5986bff", "is_reserved": 0, "fusion_lat": 0.0}, {"type": "electric_scooter", "rental_uris": {"ios": "https://dc.lft.to/lastmile_qr_scan", "android": "https://dc.lft.to/lastmile_qr_scan"}, "lon": -77.02506116666666, "fusion_lon": 0.0, "is_disabled": 0, "lat": 38.937544833333334, "bike_id": "be2a47126c8c6a088921f2c8528bf683", "name": "be2a47126c8c6a088921f2c8528bf683", "is_reserved": 0, "fusion_lat": 0.0}, {"type": "electric_scooter", "rental_uris": {"ios": "https://dc.lft.to/lastmile_qr_scan", "android": "https://dc.lft.to/lastmile_qr_scan"}, "lon": -77.03839083333334, "fusion_lon": 0.0, "is_disabled": 0, "lat": 38.911162166666664, "bike_id": "2f3ea7c0d7856246b67ed25ff16e1081", "name": "2f3ea7c0d7856246b67ed25ff16e1081", "is_reserved": 0, "fusion_lat": 0.0}, {"type": "electric_scooter", "rental_uris": {"ios": "https://dc.lft.to/lastmile_qr_scan", "android": "https://dc.lft.to/lastmile_qr_scan"}, "lon": -77.031802, "fusion_lon": 0.0, "is_disabled": 0, "lat": 38.9132605, "bike_id": "ec5e30dd485e715421f09ce4da257c29", "name": "ec5e30dd485e715421f09ce4da257c29", "is_reserved": 0, "fusion_lat": 0.0}, {"type": "electric_scooter", "rental_uris": {"ios": "https://dc.lft.to/lastmile_qr_scan", "android": "https://dc.lft.to/lastmile_qr_scan"}, "lon": -77.0283345, "fusion_lon": 0.0, "is_disabled": 0, "lat": 38.931908166666666, "bike_id": "9678324c6550e0b1d3b1bf29e9f4d84e", "name": "9678324c6550e0b1d3b1bf29e9f4d84e", "is_reserved": 0, "fusion_lat": 0.0}, {"type": "electric_bike", "rental_uris": {"ios": "https://dc.lft.to/lastmile_qr_scan", "android": "https://dc.lft.to/lastmile_qr_scan"}, "lon": -77.11804583333333, "fusion_lon": 0.0, "is_disabled": 0, "lat": 38.87371783333333, "bike_id": "145247e5020a54a4a320923d4abe05b8", "name": "145247e5020a54a4a320923d4abe05b8", "is_reserved": 0, "fusion_lat": 0.0}, {"type": "electric_scooter", "rental_uris": {"ios": "https://dc.lft.to/lastmile_qr_scan", "android": "https://dc.lft.to/lastmile_qr_scan"}, "lon": -77.033132, "fusion_lon": 0.0, "is_disabled": 0, "lat": 38.899042, "bike_id": "2a37499625d200f8db491921d7e525b9", "name": "2a37499625d200f8db491921d7e525b9", "is_reserved": 0, "fusion_lat": 0.0}, {"type": "electric_scooter", "rental_uris": {"ios": "https://dc.lft.to/lastmile_qr_scan", "android": "https://dc.lft.to/lastmile_qr_scan"}, "lon": -77.03209583333333, "fusion_lon": 0.0, "is_disabled": 0, "lat": 38.917758166666665, "bike_id": "229f1b0c95e6fd0ece55a1bdfee4978f", "name": "229f1b0c95e6fd0ece55a1bdfee4978f", "is_reserved": 0, "fusion_lat": 0.0}, {"type": "electric_bike", "rental_uris": {"ios": "https://dc.lft.to/lastmile_qr_scan", "android": "https://dc.lft.to/lastmile_qr_scan"}, "lon": -77.0401685, "fusion_lon": 0.0, "is_disabled": 0, "lat": 38.793217166666665, "bike_id": "be732a1b9df7a71f242e56cd03c2cd00", "name": "be732a1b9df7a71f242e56cd03c2cd00", "is_reserved": 0, "fusion_lat": 0.0}, {"type": "electric_scooter", "rental_uris": {"ios": "https://dc.lft.to/lastmile_qr_scan", "android": "https://dc.lft.to/lastmile_qr_scan"}, "lon": -77.03476033333334, "fusion_lon": 0.0, "is_disabled": 0, "lat": 38.929158, "bike_id": "0d5bffd3c51ca5d5b2c3050ce3f689d1", "name": "0d5bffd3c51ca5d5b2c3050ce3f689d1", "is_reserved": 0, "fusion_lat": 0.0}, {"type": "electric_scooter", "rental_uris": {"ios": "https://dc.lft.to/lastmile_qr_scan", "android": "https://dc.lft.to/lastmile_qr_scan"}, "lon": -77.00937416666666, "fusion_lon": 0.0, "is_disabled": 0, "lat": 38.88335416666666, "bike_id": "5d9ac5e5b72a73e6f322278964ee6f51", "name": "5d9ac5e5b72a73e6f322278964ee6f51", "is_reserved": 0, "fusion_lat": 0.0}, {"type": "electric_scooter", "rental_uris": {"ios": "https://dc.lft.to/lastmile_qr_scan", "android": "https://dc.lft.to/lastmile_qr_scan"}, "lon": -77.02695616666666, "fusion_lon": 0.0, "is_disabled": 0, "lat": 38.9068575, "bike_id": "c0d99f7d35d360ffb010644b6e71d397", "name": "c0d99f7d35d360ffb010644b6e71d397", "is_reserved": 0, "fusion_lat": 0.0}, {"type": "electric_scooter", "rental_uris": {"ios": "https://dc.lft.to/lastmile_qr_scan", "android": "https://dc.lft.to/lastmile_qr_scan"}, "lon": -77.031922, "fusion_lon": 0.0, "is_disabled": 0, "lat": 38.914163333333335, "bike_id": "4ece17c38ad90f8b318193a606df12b4", "name": "4ece17c38ad90f8b318193a606df12b4", "is_reserved": 0, "fusion_lat": 0.0}, {"type": "electric_scooter", "rental_uris": {"ios": "https://dc.lft.to/lastmile_qr_scan", "android": "https://dc.lft.to/lastmile_qr_scan"}, "lon": -77.0262245, "fusion_lon": 0.0, "is_disabled": 0, "lat": 38.8922005, "bike_id": "2d1121704705701c61df75b0d882cec0", "name": "2d1121704705701c61df75b0d882cec0", "is_reserved": 0, "fusion_lat": 0.0}, {"type": "electric_scooter", "rental_uris": {"ios": "https://dc.lft.to/lastmile_qr_scan", "android": "https://dc.lft.to/lastmile_qr_scan"}, "lon": -77.0210265, "fusion_lon": 0.0, "is_disabled": 0, "lat": 38.940967, "bike_id": "d612768c513c3361250f0492f4fab2e1", "name": "d612768c513c3361250f0492f4fab2e1", "is_reserved": 0, "fusion_lat": 0.0}, {"type": "electric_bike", "rental_uris": {"ios": "https://dc.lft.to/lastmile_qr_scan", "android": "https://dc.lft.to/lastmile_qr_scan"}, "lon": -77.03690166666667, "fusion_lon": 0.0, "is_disabled": 0, "lat": 38.93021133333333, "bike_id": "976b2f4b2e9312f88fb55a9a27f98e3e", "name": "976b2f4b2e9312f88fb55a9a27f98e3e", "is_reserved": 0, "fusion_lat": 0.0}, {"type": "electric_scooter", "rental_uris": {"ios": "https://dc.lft.to/lastmile_qr_scan", "android": "https://dc.lft.to/lastmile_qr_scan"}, "lon": -76.99516, "fusion_lon": 0.0, "is_disabled": 0, "lat": 38.897283333333334, "bike_id": "81d1261e94549327b4d5983256c41dd1", "name": "81d1261e94549327b4d5983256c41dd1", "is_reserved": 0, "fusion_lat": 0.0}, {"type": "electric_bike", "rental_uris": {"ios": "https://dc.lft.to/lastmile_qr_scan", "android": "https://dc.lft.to/lastmile_qr_scan"}, "lon": -76.97240316666667, "fusion_lon": 0.0, "is_disabled": 0, "lat": 38.94901933333333, "bike_id": "e7c884e17e4b838991ac61c09feb4402", "name": "e7c884e17e4b838991ac61c09feb4402", "is_reserved": 0, "fusion_lat": 0.0}, {"type": "electric_scooter", "rental_uris": {"ios": "https://dc.lft.to/lastmile_qr_scan", "android": "https://dc.lft.to/lastmile_qr_scan"}, "lon": -77.0007275, "fusion_lon": 0.0, "is_disabled": 0, "lat": 38.92549833333333, "bike_id": "4bda179972fdf25afa9d18dd6ec24e1e", "name": "4bda179972fdf25afa9d18dd6ec24e1e", "is_reserved": 0, "fusion_lat": 0.0}, {"type": "electric_scooter", "rental_uris": {"ios": "https://dc.lft.to/lastmile_qr_scan", "android": "https://dc.lft.to/lastmile_qr_scan"}, "lon": -77.026213, "fusion_lon": 0.0, "is_disabled": 0, "lat": 38.94820983333334, "bike_id": "76a446094817fdab910a3de6b320df74", "name": "76a446094817fdab910a3de6b320df74", "is_reserved": 0, "fusion_lat": 0.0}, {"type": "electric_bike", "rental_uris": {"ios": "https://dc.lft.to/lastmile_qr_scan", "android": "https://dc.lft.to/lastmile_qr_scan"}, "lon": -76.97270666666667, "fusion_lon": 0.0, "is_disabled": 0, "lat": 38.9196245, "bike_id": "a83b18cbc1ceae48592e5020a470456d", "name": "a83b18cbc1ceae48592e5020a470456d", "is_reserved": 0, "fusion_lat": 0.0}, {"type": "electric_scooter", "rental_uris": {"ios": "https://dc.lft.to/lastmile_qr_scan", "android": "https://dc.lft.to/lastmile_qr_scan"}, "lon": -77.0298465, "fusion_lon": 0.0, "is_disabled": 0, "lat": 38.90727483333333, "bike_id": "93075907c5006b89a650350a951fdb78", "name": "93075907c5006b89a650350a951fdb78", "is_reserved": 0, "fusion_lat": 0.0}, {"type": "electric_scooter", "rental_uris": {"ios": "https://dc.lft.to/lastmile_qr_scan", "android": "https://dc.lft.to/lastmile_qr_scan"}, "lon": -77.00979833333334, "fusion_lon": 0.0, "is_disabled": 0, "lat": 38.8729595, "bike_id": "46155ae6b707191e98ec46913316f1bd", "name": "46155ae6b707191e98ec46913316f1bd", "is_reserved": 0, "fusion_lat": 0.0}, {"type": "electric_scooter", "rental_uris": {"ios": "https://dc.lft.to/lastmile_qr_scan", "android": "https://dc.lft.to/lastmile_qr_scan"}, "lon": -77.03260283333333, "fusion_lon": 0.0, "is_disabled": 0, "lat": 38.92984783333333, "bike_id": "a3ea9c78540754d64e1fb34b81777faf", "name": "a3ea9c78540754d64e1fb34b81777faf", "is_reserved": 0, "fusion_lat": 0.0}, {"type": "electric_bike", "rental_uris": {"ios": "https://dc.lft.to/lastmile_qr_scan", "android": "https://dc.lft.to/lastmile_qr_scan"}, "lon": -77.03154766666667, "fusion_lon": 0.0, "is_disabled": 0, "lat": 38.9943085, "bike_id": "de370438c12d8f451a4f56beb1c89da3", "name": "de370438c12d8f451a4f56beb1c89da3", "is_reserved": 0, "fusion_lat": 0.0}, {"type": "electric_bike", "rental_uris": {"ios": "https://dc.lft.to/lastmile_qr_scan", "android": "https://dc.lft.to/lastmile_qr_scan"}, "lon": -77.21652316666666, "fusion_lon": 0.0, "is_disabled": 0, "lat": 38.930155, "bike_id": "1e7a30fa599ccc103f50f75def7ef0b0", "name": "1e7a30fa599ccc103f50f75def7ef0b0", "is_reserved": 0, "fusion_lat": 0.0}, {"type": "electric_scooter", "rental_uris": {"ios": "https://dc.lft.to/lastmile_qr_scan", "android": "https://dc.lft.to/lastmile_qr_scan"}, "lon": -77.01946033333333, "fusion_lon": 0.0, "is_disabled": 0, "lat": 38.94851516666667, "bike_id": "ca51f82aae5f76bd413342d80c8532d9", "name": "ca51f82aae5f76bd413342d80c8532d9", "is_reserved": 0, "fusion_lat": 0.0}, {"type": "electric_scooter", "rental_uris": {"ios": "https://dc.lft.to/lastmile_qr_scan", "android": "https://dc.lft.to/lastmile_qr_scan"}, "lon": -77.03973583333334, "fusion_lon": 0.0, "is_disabled": 0, "lat": 38.89896016666667, "bike_id": "53e2ee2446c6b7d35c52757769dca52c", "name": "53e2ee2446c6b7d35c52757769dca52c", "is_reserved": 0, "fusion_lat": 0.0}, {"type": "electric_scooter", "rental_uris": {"ios": "https://dc.lft.to/lastmile_qr_scan", "android": "https://dc.lft.to/lastmile_qr_scan"}, "lon": -77.0243915, "fusion_lon": 0.0, "is_disabled": 0, "lat": 38.9185005, "bike_id": "2810ad6af3dcb4118c02ba814b416b2f", "name": "2810ad6af3dcb4118c02ba814b416b2f", "is_reserved": 0, "fusion_lat": 0.0}, {"type": "electric_scooter", "rental_uris": {"ios": "https://dc.lft.to/lastmile_qr_scan", "android": "https://dc.lft.to/lastmile_qr_scan"}, "lon": -77.02197966666667, "fusion_lon": 0.0, "is_disabled": 0, "lat": 38.89500316666667, "bike_id": "151267ef567d5c72749d8d4fdc34e7ca", "name": "151267ef567d5c72749d8d4fdc34e7ca", "is_reserved": 0, "fusion_lat": 0.0}, {"type": "electric_scooter", "rental_uris": {"ios": "https://dc.lft.to/lastmile_qr_scan", "android": "https://dc.lft.to/lastmile_qr_scan"}, "lon": -77.02159066666667, "fusion_lon": 0.0, "is_disabled": 0, "lat": 38.92495566666667, "bike_id": "dd159fab03dbab73cda5d922ce7cb83e", "name": "dd159fab03dbab73cda5d922ce7cb83e", "is_reserved": 0, "fusion_lat": 0.0}, {"type": "electric_bike", "rental_uris": {"ios": "https://dc.lft.to/lastmile_qr_scan", "android": "https://dc.lft.to/lastmile_qr_scan"}, "lon": -76.960594, "fusion_lon": 0.0, "is_disabled": 0, "lat": 38.88406116666667, "bike_id": "77a4fa0d96a49bf8fd602365aeff3854", "name": "77a4fa0d96a49bf8fd602365aeff3854", "is_reserved": 0, "fusion_lat": 0.0}, {"type": "electric_bike", "rental_uris": {"ios": "https://dc.lft.to/lastmile_qr_scan", "android": "https://dc.lft.to/lastmile_qr_scan"}, "lon": -77.05881533333333, "fusion_lon": 0.0, "is_disabled": 0, "lat": 38.95893616666667, "bike_id": "3bdf186c5a57a2256ce4b51ff32b77e5", "name": "3bdf186c5a57a2256ce4b51ff32b77e5", "is_reserved": 0, "fusion_lat": 0.0}, {"type": "electric_scooter", "rental_uris": {"ios": "https://dc.lft.to/lastmile_qr_scan", "android": "https://dc.lft.to/lastmile_qr_scan"}, "lon": -77.0365735, "fusion_lon": 0.0, "is_disabled": 0, "lat": 38.9032145, "bike_id": "7d9d70b9b59592ad7473485e2461eb8d", "name": "7d9d70b9b59592ad7473485e2461eb8d", "is_reserved": 0, "fusion_lat": 0.0}, {"type": "electric_bike", "rental_uris": {"ios": "https://dc.lft.to/lastmile_qr_scan", "android": "https://dc.lft.to/lastmile_qr_scan"}, "lon": -76.95198116666667, "fusion_lon": 0.0, "is_disabled": 0, "lat": 38.93675783333333, "bike_id": "62af74cb6a8a3bd9ba50c0fc6d485536", "name": "62af74cb6a8a3bd9ba50c0fc6d485536", "is_reserved": 0, "fusion_lat": 0.0}, {"type": "electric_scooter", "rental_uris": {"ios": "https://dc.lft.to/lastmile_qr_scan", "android": "https://dc.lft.to/lastmile_qr_scan"}, "lon": -77.04137116666666, "fusion_lon": 0.0, "is_disabled": 0, "lat": 38.8992505, "bike_id": "a744b4a6f6de62d2095854633ae4e61d", "name": "a744b4a6f6de62d2095854633ae4e61d", "is_reserved": 0, "fusion_lat": 0.0}, {"type": "electric_scooter", "rental_uris": {"ios": "https://dc.lft.to/lastmile_qr_scan", "android": "https://dc.lft.to/lastmile_qr_scan"}, "lon": -77.04082033333333, "fusion_lon": 0.0, "is_disabled": 0, "lat": 38.917074166666666, "bike_id": "f030adfbe59d2179c37e64699e7b939c", "name": "f030adfbe59d2179c37e64699e7b939c", "is_reserved": 0, "fusion_lat": 0.0}, {"type": "electric_scooter", "rental_uris": {"ios": "https://dc.lft.to/lastmile_qr_scan", "android": "https://dc.lft.to/lastmile_qr_scan"}, "lon": -76.98881216666666, "fusion_lon": 0.0, "is_disabled": 0, "lat": 38.8665175, "bike_id": "d881d8b917736abdace2694c338837e1", "name": "d881d8b917736abdace2694c338837e1", "is_reserved": 0, "fusion_lat": 0.0}, {"type": "electric_scooter", "rental_uris": {"ios": "https://dc.lft.to/lastmile_qr_scan", "android": "https://dc.lft.to/lastmile_qr_scan"}, "lon": -76.99613216666667, "fusion_lon": 0.0, "is_disabled": 0, "lat": 38.899982333333334, "bike_id": "587cca8e00297d8da5dfbc4fc6afd527", "name": "587cca8e00297d8da5dfbc4fc6afd527", "is_reserved": 0, "fusion_lat": 0.0}, {"type": "electric_scooter", "rental_uris": {"ios": "https://dc.lft.to/lastmile_qr_scan", "android": "https://dc.lft.to/lastmile_qr_scan"}, "lon": -77.02056533333334, "fusion_lon": 0.0, "is_disabled": 0, "lat": 38.908523, "bike_id": "afc36699581ab13ec3f00cbb61bc65ce", "name": "afc36699581ab13ec3f00cbb61bc65ce", "is_reserved": 0, "fusion_lat": 0.0}, {"type": "electric_scooter", "rental_uris": {"ios": "https://dc.lft.to/lastmile_qr_scan", "android": "https://dc.lft.to/lastmile_qr_scan"}, "lon": -76.94875433333333, "fusion_lon": 0.0, "is_disabled": 0, "lat": 38.89499133333333, "bike_id": "37d35497d472fe645d1ae4961f01322e", "name": "37d35497d472fe645d1ae4961f01322e", "is_reserved": 0, "fusion_lat": 0.0}, {"type": "electric_scooter", "rental_uris": {"ios": "https://dc.lft.to/lastmile_qr_scan", "android": "https://dc.lft.to/lastmile_qr_scan"}, "lon": -77.02499133333333, "fusion_lon": 0.0, "is_disabled": 0, "lat": 38.91951066666667, "bike_id": "2074b1657c0da101ddfe8e294c221be6", "name": "2074b1657c0da101ddfe8e294c221be6", "is_reserved": 0, "fusion_lat": 0.0}, {"type": "electric_scooter", "rental_uris": {"ios": "https://dc.lft.to/lastmile_qr_scan", "android": "https://dc.lft.to/lastmile_qr_scan"}, "lon": -76.99908416666666, "fusion_lon": 0.0, "is_disabled": 0, "lat": 38.8988775, "bike_id": "d68aebe3197bd704de5de27b22aa976e", "name": "d68aebe3197bd704de5de27b22aa976e", "is_reserved": 0, "fusion_lat": 0.0}, {"type": "electric_bike", "rental_uris": {"ios": "https://dc.lft.to/lastmile_qr_scan", "android": "https://dc.lft.to/lastmile_qr_scan"}, "lon": -77.07113633333333, "fusion_lon": 0.0, "is_disabled": 0, "lat": 38.800652666666664, "bike_id": "0b4e3c9d7f36e350dbe6fcb943adb6f6", "name": "0b4e3c9d7f36e350dbe6fcb943adb6f6", "is_reserved": 0, "fusion_lat": 0.0}, {"type": "electric_scooter", "rental_uris": {"ios": "https://dc.lft.to/lastmile_qr_scan", "android": "https://dc.lft.to/lastmile_qr_scan"}, "lon": -77.04919966666667, "fusion_lon": 0.0, "is_disabled": 0, "lat": 38.900854833333334, "bike_id": "4b175f50d4bfbc6637a5de99b92ea57e", "name": "4b175f50d4bfbc6637a5de99b92ea57e", "is_reserved": 0, "fusion_lat": 0.0}, {"type": "electric_scooter", "rental_uris": {"ios": "https://dc.lft.to/lastmile_qr_scan", "android": "https://dc.lft.to/lastmile_qr_scan"}, "lon": -77.01620566666666, "fusion_lon": 0.0, "is_disabled": 0, "lat": 38.91887116666667, "bike_id": "f7817701106443618bd7aceea95b48aa", "name": "f7817701106443618bd7aceea95b48aa", "is_reserved": 0, "fusion_lat": 0.0}, {"type": "electric_scooter", "rental_uris": {"ios": "https://dc.lft.to/lastmile_qr_scan", "android": "https://dc.lft.to/lastmile_qr_scan"}, "lon": -77.032094, "fusion_lon": 0.0, "is_disabled": 0, "lat": 38.918434166666664, "bike_id": "4f17b6ab9622bb2cb4fc3d76c5dcf505", "name": "4f17b6ab9622bb2cb4fc3d76c5dcf505", "is_reserved": 0, "fusion_lat": 0.0}, {"type": "electric_bike", "rental_uris": {"ios": "https://dc.lft.to/lastmile_qr_scan", "android": "https://dc.lft.to/lastmile_qr_scan"}, "lon": -77.02470283333334, "fusion_lon": 0.0, "is_disabled": 0, "lat": 38.952952, "bike_id": "4a05ebb68c130a187389a955391b76d5", "name": "4a05ebb68c130a187389a955391b76d5", "is_reserved": 0, "fusion_lat": 0.0}, {"type": "electric_bike", "rental_uris": {"ios": "https://dc.lft.to/lastmile_qr_scan", "android": "https://dc.lft.to/lastmile_qr_scan"}, "lon": -77.06329233333334, "fusion_lon": 0.0, "is_disabled": 0, "lat": 38.92110016666667, "bike_id": "1fa2ca53c208145545974b6ef9ad69fe", "name": "1fa2ca53c208145545974b6ef9ad69fe", "is_reserved": 0, "fusion_lat": 0.0}, {"type": "electric_scooter", "rental_uris": {"ios": "https://dc.lft.to/lastmile_qr_scan", "android": "https://dc.lft.to/lastmile_qr_scan"}, "lon": -77.0445565, "fusion_lon": 0.0, "is_disabled": 0, "lat": 38.92418083333333, "bike_id": "9c135d1a1e06a27f90af1edc775e3579", "name": "9c135d1a1e06a27f90af1edc775e3579", "is_reserved": 0, "fusion_lat": 0.0}, {"type": "electric_scooter", "rental_uris": {"ios": "https://dc.lft.to/lastmile_qr_scan", "android": "https://dc.lft.to/lastmile_qr_scan"}, "lon": -77.02161683333334, "fusion_lon": 0.0, "is_disabled": 0, "lat": 38.93070516666667, "bike_id": "4b0cc68ef994f4e94459512115452dc0", "name": "4b0cc68ef994f4e94459512115452dc0", "is_reserved": 0, "fusion_lat": 0.0}, {"type": "electric_scooter", "rental_uris": {"ios": "https://dc.lft.to/lastmile_qr_scan", "android": "https://dc.lft.to/lastmile_qr_scan"}, "lon": -77.07525, "fusion_lon": 0.0, "is_disabled": 0, "lat": 38.93942233333333, "bike_id": "9506a5937ffb1be4ca9c74607db8e97f", "name": "9506a5937ffb1be4ca9c74607db8e97f", "is_reserved": 0, "fusion_lat": 0.0}, {"type": "electric_scooter", "rental_uris": {"ios": "https://dc.lft.to/lastmile_qr_scan", "android": "https://dc.lft.to/lastmile_qr_scan"}, "lon": -77.00920866666667, "fusion_lon": 0.0, "is_disabled": 0, "lat": 38.895492833333336, "bike_id": "2905d8652d3ac3961c5049b30d20fd13", "name": "2905d8652d3ac3961c5049b30d20fd13", "is_reserved": 0, "fusion_lat": 0.0}, {"type": "electric_scooter", "rental_uris": {"ios": "https://dc.lft.to/lastmile_qr_scan", "android": "https://dc.lft.to/lastmile_qr_scan"}, "lon": -77.02702133333334, "fusion_lon": 0.0, "is_disabled": 0, "lat": 38.925833, "bike_id": "e362a3e8fa21f8aad5937a9d83259e83", "name": "e362a3e8fa21f8aad5937a9d83259e83", "is_reserved": 0, "fusion_lat": 0.0}, {"type": "electric_scooter", "rental_uris": {"ios": "https://dc.lft.to/lastmile_qr_scan", "android": "https://dc.lft.to/lastmile_qr_scan"}, "lon": -77.042118, "fusion_lon": 0.0, "is_disabled": 0, "lat": 38.91122416666666, "bike_id": "94e87509f47c1314e07a625c7e228f9c", "name": "94e87509f47c1314e07a625c7e228f9c", "is_reserved": 0, "fusion_lat": 0.0}, {"type": "electric_bike", "rental_uris": {"ios": "https://dc.lft.to/lastmile_qr_scan", "android": "https://dc.lft.to/lastmile_qr_scan"}, "lon": -77.09963, "fusion_lon": 0.0, "is_disabled": 0, "lat": 38.857855666666666, "bike_id": "403c6f2f0b6a954e6f57f003e909306d", "name": "403c6f2f0b6a954e6f57f003e909306d", "is_reserved": 0, "fusion_lat": 0.0}, {"type": "electric_scooter", "rental_uris": {"ios": "https://dc.lft.to/lastmile_qr_scan", "android": "https://dc.lft.to/lastmile_qr_scan"}, "lon": -77.0328945, "fusion_lon": 0.0, "is_disabled": 0, "lat": 38.9564775, "bike_id": "b2195a9a8f0fbd240a3cfae2c86e3452", "name": "b2195a9a8f0fbd240a3cfae2c86e3452", "is_reserved": 0, "fusion_lat": 0.0}, {"type": "electric_scooter", "rental_uris": {"ios": "https://dc.lft.to/lastmile_qr_scan", "android": "https://dc.lft.to/lastmile_qr_scan"}, "lon": -77.07058766666667, "fusion_lon": 0.0, "is_disabled": 0, "lat": 38.919039, "bike_id": "df12cfd68a97495309cbaabdb788b464", "name": "df12cfd68a97495309cbaabdb788b464", "is_reserved": 0, "fusion_lat": 0.0}, {"type": "electric_scooter", "rental_uris": {"ios": "https://dc.lft.to/lastmile_qr_scan", "android": "https://dc.lft.to/lastmile_qr_scan"}, "lon": -77.03467016666667, "fusion_lon": 0.0, "is_disabled": 0, "lat": 38.922522666666666, "bike_id": "757f4a0ddfb0ccf1ec48c80860032e91", "name": "757f4a0ddfb0ccf1ec48c80860032e91", "is_reserved": 0, "fusion_lat": 0.0}, {"type": "electric_scooter", "rental_uris": {"ios": "https://dc.lft.to/lastmile_qr_scan", "android": "https://dc.lft.to/lastmile_qr_scan"}, "lon": -77.05023383333334, "fusion_lon": 0.0, "is_disabled": 0, "lat": 38.92354916666667, "bike_id": "bb9581052d2b90001aca08445b4e24ef", "name": "bb9581052d2b90001aca08445b4e24ef", "is_reserved": 0, "fusion_lat": 0.0}, {"type": "electric_scooter", "rental_uris": {"ios": "https://dc.lft.to/lastmile_qr_scan", "android": "https://dc.lft.to/lastmile_qr_scan"}, "lon": -77.04143666666667, "fusion_lon": 0.0, "is_disabled": 0, "lat": 38.902866, "bike_id": "030464f414628738f98664858ee19ae3", "name": "030464f414628738f98664858ee19ae3", "is_reserved": 0, "fusion_lat": 0.0}, {"type": "electric_scooter", "rental_uris": {"ios": "https://dc.lft.to/lastmile_qr_scan", "android": "https://dc.lft.to/lastmile_qr_scan"}, "lon": -77.03274016666667, "fusion_lon": 0.0, "is_disabled": 0, "lat": 38.928581666666666, "bike_id": "1ab0ad1e675d665291c9bb149aad8ce9", "name": "1ab0ad1e675d665291c9bb149aad8ce9", "is_reserved": 0, "fusion_lat": 0.0}, {"type": "electric_scooter", "rental_uris": {"ios": "https://dc.lft.to/lastmile_qr_scan", "android": "https://dc.lft.to/lastmile_qr_scan"}, "lon": -77.05550633333333, "fusion_lon": 0.0, "is_disabled": 0, "lat": 38.934211833333336, "bike_id": "78b4568bf9517ad6e981713d3b28eacd", "name": "78b4568bf9517ad6e981713d3b28eacd", "is_reserved": 0, "fusion_lat": 0.0}, {"type": "electric_bike", "rental_uris": {"ios": "https://dc.lft.to/lastmile_qr_scan", "android": "https://dc.lft.to/lastmile_qr_scan"}, "lon": -77.04932416666666, "fusion_lon": 0.0, "is_disabled": 0, "lat": 38.813539, "bike_id": "475ba51c7f463277d43a90de3642da21", "name": "475ba51c7f463277d43a90de3642da21", "is_reserved": 0, "fusion_lat": 0.0}, {"type": "electric_scooter", "rental_uris": {"ios": "https://dc.lft.to/lastmile_qr_scan", "android": "https://dc.lft.to/lastmile_qr_scan"}, "lon": -77.05236466666666, "fusion_lon": 0.0, "is_disabled": 0, "lat": 38.92465083333333, "bike_id": "442c1f93686af22adcd005ecf77d86ef", "name": "442c1f93686af22adcd005ecf77d86ef", "is_reserved": 0, "fusion_lat": 0.0}, {"type": "electric_bike", "rental_uris": {"ios": "https://dc.lft.to/lastmile_qr_scan", "android": "https://dc.lft.to/lastmile_qr_scan"}, "lon": -76.98754083333333, "fusion_lon": 0.0, "is_disabled": 0, "lat": 38.85798283333333, "bike_id": "66045441dbf5ee2c59fa09a86552267f", "name": "66045441dbf5ee2c59fa09a86552267f", "is_reserved": 0, "fusion_lat": 0.0}, {"type": "electric_scooter", "rental_uris": {"ios": "https://dc.lft.to/lastmile_qr_scan", "android": "https://dc.lft.to/lastmile_qr_scan"}, "lon": -77.03168116666667, "fusion_lon": 0.0, "is_disabled": 0, "lat": 38.91570866666667, "bike_id": "105653415202fd5acfb7b58ab4dc3e76", "name": "105653415202fd5acfb7b58ab4dc3e76", "is_reserved": 0, "fusion_lat": 0.0}, {"type": "electric_scooter", "rental_uris": {"ios": "https://dc.lft.to/lastmile_qr_scan", "android": "https://dc.lft.to/lastmile_qr_scan"}, "lon": -77.03487766666667, "fusion_lon": 0.0, "is_disabled": 0, "lat": 38.919264, "bike_id": "4ff24abf4bc7218513a67d8da88f0a14", "name": "4ff24abf4bc7218513a67d8da88f0a14", "is_reserved": 0, "fusion_lat": 0.0}, {"type": "electric_scooter", "rental_uris": {"ios": "https://dc.lft.to/lastmile_qr_scan", "android": "https://dc.lft.to/lastmile_qr_scan"}, "lon": -77.057423, "fusion_lon": 0.0, "is_disabled": 0, "lat": 38.93350983333333, "bike_id": "a0c7921f849504ab0b396aaa16c38652", "name": "a0c7921f849504ab0b396aaa16c38652", "is_reserved": 0, "fusion_lat": 0.0}, {"type": "electric_scooter", "rental_uris": {"ios": "https://dc.lft.to/lastmile_qr_scan", "android": "https://dc.lft.to/lastmile_qr_scan"}, "lon": -77.03672283333333, "fusion_lon": 0.0, "is_disabled": 0, "lat": 38.91805083333333, "bike_id": "671253c1fb79712bc33516068271c0f7", "name": "671253c1fb79712bc33516068271c0f7", "is_reserved": 0, "fusion_lat": 0.0}, {"type": "electric_scooter", "rental_uris": {"ios": "https://dc.lft.to/lastmile_qr_scan", "android": "https://dc.lft.to/lastmile_qr_scan"}, "lon": -77.02695916666667, "fusion_lon": 0.0, "is_disabled": 0, "lat": 38.91126966666667, "bike_id": "9c6447174b00842edbbe41c9190ac07a", "name": "9c6447174b00842edbbe41c9190ac07a", "is_reserved": 0, "fusion_lat": 0.0}, {"type": "electric_scooter", "rental_uris": {"ios": "https://dc.lft.to/lastmile_qr_scan", "android": "https://dc.lft.to/lastmile_qr_scan"}, "lon": -77.00215733333333, "fusion_lon": 0.0, "is_disabled": 0, "lat": 38.9001915, "bike_id": "45524b385176d951da0aeaaba41f280b", "name": "45524b385176d951da0aeaaba41f280b", "is_reserved": 0, "fusion_lat": 0.0}, {"type": "electric_scooter", "rental_uris": {"ios": "https://dc.lft.to/lastmile_qr_scan", "android": "https://dc.lft.to/lastmile_qr_scan"}, "lon": -77.0630915, "fusion_lon": 0.0, "is_disabled": 0, "lat": 38.903322, "bike_id": "53e03b25760c1ca9348f86977612f18c", "name": "53e03b25760c1ca9348f86977612f18c", "is_reserved": 0, "fusion_lat": 0.0}, {"type": "electric_scooter", "rental_uris": {"ios": "https://dc.lft.to/lastmile_qr_scan", "android": "https://dc.lft.to/lastmile_qr_scan"}, "lon": -77.02764983333333, "fusion_lon": 0.0, "is_disabled": 0, "lat": 38.90730816666667, "bike_id": "280ec40bb7c1e118e115ac2a491b18d3", "name": "280ec40bb7c1e118e115ac2a491b18d3", "is_reserved": 0, "fusion_lat": 0.0}, {"type": "electric_scooter", "rental_uris": {"ios": "https://dc.lft.to/lastmile_qr_scan", "android": "https://dc.lft.to/lastmile_qr_scan"}, "lon": -77.032019, "fusion_lon": 0.0, "is_disabled": 0, "lat": 38.9168465, "bike_id": "79f203379f82b4961b2aa49e8a3418c9", "name": "79f203379f82b4961b2aa49e8a3418c9", "is_reserved": 0, "fusion_lat": 0.0}, {"type": "electric_scooter", "rental_uris": {"ios": "https://dc.lft.to/lastmile_qr_scan", "android": "https://dc.lft.to/lastmile_qr_scan"}, "lon": -77.0045905, "fusion_lon": 0.0, "is_disabled": 0, "lat": 38.911472, "bike_id": "c3a87941c6cfcea147e22cc90bf2c5d9", "name": "c3a87941c6cfcea147e22cc90bf2c5d9", "is_reserved": 0, "fusion_lat": 0.0}, {"type": "electric_scooter", "rental_uris": {"ios": "https://dc.lft.to/lastmile_qr_scan", "android": "https://dc.lft.to/lastmile_qr_scan"}, "lon": -77.036641, "fusion_lon": 0.0, "is_disabled": 0, "lat": 38.922942166666665, "bike_id": "37979918570980a691a1970af6e0d722", "name": "37979918570980a691a1970af6e0d722", "is_reserved": 0, "fusion_lat": 0.0}, {"type": "electric_scooter", "rental_uris": {"ios": "https://dc.lft.to/lastmile_qr_scan", "android": "https://dc.lft.to/lastmile_qr_scan"}, "lon": -77.05587366666667, "fusion_lon": 0.0, "is_disabled": 0, "lat": 38.91044316666667, "bike_id": "f22c25bbdc71e1e3efc6da892a7a85c8", "name": "f22c25bbdc71e1e3efc6da892a7a85c8", "is_reserved": 0, "fusion_lat": 0.0}, {"type": "electric_scooter", "rental_uris": {"ios": "https://dc.lft.to/lastmile_qr_scan", "android": "https://dc.lft.to/lastmile_qr_scan"}, "lon": -77.02542466666667, "fusion_lon": 0.0, "is_disabled": 0, "lat": 38.92406583333333, "bike_id": "2dde77a034e777c943d75b109fe08dfb", "name": "2dde77a034e777c943d75b109fe08dfb", "is_reserved": 0, "fusion_lat": 0.0}, {"type": "electric_scooter", "rental_uris": {"ios": "https://dc.lft.to/lastmile_qr_scan", "android": "https://dc.lft.to/lastmile_qr_scan"}, "lon": -77.02202383333334, "fusion_lon": 0.0, "is_disabled": 0, "lat": 38.9125565, "bike_id": "8df39c99b75832e5c15b5f9768304a18", "name": "8df39c99b75832e5c15b5f9768304a18", "is_reserved": 0, "fusion_lat": 0.0}, {"type": "electric_scooter", "rental_uris": {"ios": "https://dc.lft.to/lastmile_qr_scan", "android": "https://dc.lft.to/lastmile_qr_scan"}, "lon": -77.045883, "fusion_lon": 0.0, "is_disabled": 0, "lat": 38.908617, "bike_id": "16b3771c5ac43b1947c7b263656f09af", "name": "16b3771c5ac43b1947c7b263656f09af", "is_reserved": 0, "fusion_lat": 0.0}, {"type": "electric_scooter", "rental_uris": {"ios": "https://dc.lft.to/lastmile_qr_scan", "android": "https://dc.lft.to/lastmile_qr_scan"}, "lon": -77.0335855, "fusion_lon": 0.0, "is_disabled": 0, "lat": 38.9314035, "bike_id": "ef66fbad97cba474b7da03fca9161f11", "name": "ef66fbad97cba474b7da03fca9161f11", "is_reserved": 0, "fusion_lat": 0.0}, {"type": "electric_scooter", "rental_uris": {"ios": "https://dc.lft.to/lastmile_qr_scan", "android": "https://dc.lft.to/lastmile_qr_scan"}, "lon": -76.9983065, "fusion_lon": 0.0, "is_disabled": 0, "lat": 38.900393333333334, "bike_id": "78eb66bc5c96a71924bd16ca8b234fc2", "name": "78eb66bc5c96a71924bd16ca8b234fc2", "is_reserved": 0, "fusion_lat": 0.0}, {"type": "electric_scooter", "rental_uris": {"ios": "https://dc.lft.to/lastmile_qr_scan", "android": "https://dc.lft.to/lastmile_qr_scan"}, "lon": -76.97594716666667, "fusion_lon": 0.0, "is_disabled": 0, "lat": 38.90330216666667, "bike_id": "d7fe00ebb17183ff0977955f7854b3e4", "name": "d7fe00ebb17183ff0977955f7854b3e4", "is_reserved": 0, "fusion_lat": 0.0}, {"type": "electric_scooter", "rental_uris": {"ios": "https://dc.lft.to/lastmile_qr_scan", "android": "https://dc.lft.to/lastmile_qr_scan"}, "lon": -77.03862233333334, "fusion_lon": 0.0, "is_disabled": 0, "lat": 38.909689666666665, "bike_id": "596edede5f807bb3de02f1648d9382df", "name": "596edede5f807bb3de02f1648d9382df", "is_reserved": 0, "fusion_lat": 0.0}, {"type": "electric_scooter", "rental_uris": {"ios": "https://dc.lft.to/lastmile_qr_scan", "android": "https://dc.lft.to/lastmile_qr_scan"}, "lon": -77.0513715, "fusion_lon": 0.0, "is_disabled": 0, "lat": 38.923651, "bike_id": "896d3ba8b172cc180a0c63a316f7f103", "name": "896d3ba8b172cc180a0c63a316f7f103", "is_reserved": 0, "fusion_lat": 0.0}, {"type": "electric_scooter", "rental_uris": {"ios": "https://dc.lft.to/lastmile_qr_scan", "android": "https://dc.lft.to/lastmile_qr_scan"}, "lon": -77.03446233333334, "fusion_lon": 0.0, "is_disabled": 0, "lat": 38.918464666666665, "bike_id": "527de6f99c36cbbfafbcb046a1ce5d19", "name": "527de6f99c36cbbfafbcb046a1ce5d19", "is_reserved": 0, "fusion_lat": 0.0}, {"type": "electric_scooter", "rental_uris": {"ios": "https://dc.lft.to/lastmile_qr_scan", "android": "https://dc.lft.to/lastmile_qr_scan"}, "lon": -77.027197, "fusion_lon": 0.0, "is_disabled": 0, "lat": 38.90677916666667, "bike_id": "583a149ef1dbe4844c517ca7c470b862", "name": "583a149ef1dbe4844c517ca7c470b862", "is_reserved": 0, "fusion_lat": 0.0}, {"type": "electric_bike", "rental_uris": {"ios": "https://dc.lft.to/lastmile_qr_scan", "android": "https://dc.lft.to/lastmile_qr_scan"}, "lon": -77.03055383333333, "fusion_lon": 0.0, "is_disabled": 0, "lat": 38.959581, "bike_id": "a39490e89c7b3c7116e98a01cd494140", "name": "a39490e89c7b3c7116e98a01cd494140", "is_reserved": 0, "fusion_lat": 0.0}, {"type": "electric_bike", "rental_uris": {"ios": "https://dc.lft.to/lastmile_qr_scan", "android": "https://dc.lft.to/lastmile_qr_scan"}, "lon": -77.0815755, "fusion_lon": 0.0, "is_disabled": 0, "lat": 38.88871533333333, "bike_id": "c4666849f967908b6ddfe6042f9663bc", "name": "c4666849f967908b6ddfe6042f9663bc", "is_reserved": 0, "fusion_lat": 0.0}, {"type": "electric_scooter", "rental_uris": {"ios": "https://dc.lft.to/lastmile_qr_scan", "android": "https://dc.lft.to/lastmile_qr_scan"}, "lon": -77.0297405, "fusion_lon": 0.0, "is_disabled": 0, "lat": 38.922784666666665, "bike_id": "94d3e542b087496cd1c7105a2ebcebc1", "name": "94d3e542b087496cd1c7105a2ebcebc1", "is_reserved": 0, "fusion_lat": 0.0}, {"type": "electric_scooter", "rental_uris": {"ios": "https://dc.lft.to/lastmile_qr_scan", "android": "https://dc.lft.to/lastmile_qr_scan"}, "lon": -77.03138366666667, "fusion_lon": 0.0, "is_disabled": 0, "lat": 38.88756383333333, "bike_id": "2a1ed1290b72b51d6f8732966f09fef2", "name": "2a1ed1290b72b51d6f8732966f09fef2", "is_reserved": 0, "fusion_lat": 0.0}, {"type": "electric_scooter", "rental_uris": {"ios": "https://dc.lft.to/lastmile_qr_scan", "android": "https://dc.lft.to/lastmile_qr_scan"}, "lon": -77.01779483333334, "fusion_lon": 0.0, "is_disabled": 0, "lat": 38.88717666666667, "bike_id": "34a321b205b7c810f1182911a7a07c4a", "name": "34a321b205b7c810f1182911a7a07c4a", "is_reserved": 0, "fusion_lat": 0.0}, {"type": "electric_scooter", "rental_uris": {"ios": "https://dc.lft.to/lastmile_qr_scan", "android": "https://dc.lft.to/lastmile_qr_scan"}, "lon": -77.034428, "fusion_lon": 0.0, "is_disabled": 0, "lat": 38.9184805, "bike_id": "33dea1d9e8400b776cc4dc6d1df7782f", "name": "33dea1d9e8400b776cc4dc6d1df7782f", "is_reserved": 0, "fusion_lat": 0.0}, {"type": "electric_bike", "rental_uris": {"ios": "https://dc.lft.to/lastmile_qr_scan", "android": "https://dc.lft.to/lastmile_qr_scan"}, "lon": -76.93545933333333, "fusion_lon": 0.0, "is_disabled": 0, "lat": 38.955572333333336, "bike_id": "a19efc6506e234629bdf9084441409c1", "name": "a19efc6506e234629bdf9084441409c1", "is_reserved": 0, "fusion_lat": 0.0}, {"type": "electric_bike", "rental_uris": {"ios": "https://dc.lft.to/lastmile_qr_scan", "android": "https://dc.lft.to/lastmile_qr_scan"}, "lon": -76.96256816666667, "fusion_lon": 0.0, "is_disabled": 0, "lat": 38.88245116666667, "bike_id": "6de8f5c9de0ff432432ef9ec761f7f57", "name": "6de8f5c9de0ff432432ef9ec761f7f57", "is_reserved": 0, "fusion_lat": 0.0}, {"type": "electric_scooter", "rental_uris": {"ios": "https://dc.lft.to/lastmile_qr_scan", "android": "https://dc.lft.to/lastmile_qr_scan"}, "lon": -77.02965283333333, "fusion_lon": 0.0, "is_disabled": 0, "lat": 38.9258795, "bike_id": "724a6483ce3ce35c8513651601d491c9", "name": "724a6483ce3ce35c8513651601d491c9", "is_reserved": 0, "fusion_lat": 0.0}, {"type": "electric_scooter", "rental_uris": {"ios": "https://dc.lft.to/lastmile_qr_scan", "android": "https://dc.lft.to/lastmile_qr_scan"}, "lon": -77.04441433333334, "fusion_lon": 0.0, "is_disabled": 0, "lat": 38.9125, "bike_id": "9c4d61fd8cce628163b8496a89673c28", "name": "9c4d61fd8cce628163b8496a89673c28", "is_reserved": 0, "fusion_lat": 0.0}, {"type": "electric_scooter", "rental_uris": {"ios": "https://dc.lft.to/lastmile_qr_scan", "android": "https://dc.lft.to/lastmile_qr_scan"}, "lon": -76.9541665, "fusion_lon": 0.0, "is_disabled": 0, "lat": 38.890665, "bike_id": "6c7e997fd86a967bdc0f768965efb273", "name": "6c7e997fd86a967bdc0f768965efb273", "is_reserved": 0, "fusion_lat": 0.0}, {"type": "electric_scooter", "rental_uris": {"ios": "https://dc.lft.to/lastmile_qr_scan", "android": "https://dc.lft.to/lastmile_qr_scan"}, "lon": -77.0061, "fusion_lon": 0.0, "is_disabled": 0, "lat": 38.871793333333336, "bike_id": "1fa8d244f0e05eb16da0c7da39ce8030", "name": "1fa8d244f0e05eb16da0c7da39ce8030", "is_reserved": 0, "fusion_lat": 0.0}, {"type": "electric_scooter", "rental_uris": {"ios": "https://dc.lft.to/lastmile_qr_scan", "android": "https://dc.lft.to/lastmile_qr_scan"}, "lon": -77.03858833333334, "fusion_lon": 0.0, "is_disabled": 0, "lat": 38.867512833333336, "bike_id": "689b0af1690eb92778f7a7562927eb9a", "name": "689b0af1690eb92778f7a7562927eb9a", "is_reserved": 0, "fusion_lat": 0.0}, {"type": "electric_scooter", "rental_uris": {"ios": "https://dc.lft.to/lastmile_qr_scan", "android": "https://dc.lft.to/lastmile_qr_scan"}, "lon": -77.02601283333334, "fusion_lon": 0.0, "is_disabled": 0, "lat": 38.9169205, "bike_id": "6890b72fd89ab46a9462f7a40764558a", "name": "6890b72fd89ab46a9462f7a40764558a", "is_reserved": 0, "fusion_lat": 0.0}, {"type": "electric_scooter", "rental_uris": {"ios": "https://dc.lft.to/lastmile_qr_scan", "android": "https://dc.lft.to/lastmile_qr_scan"}, "lon": -77.02227633333334, "fusion_lon": 0.0, "is_disabled": 0, "lat": 38.912468, "bike_id": "c42c511eb64b5e6f5c27db3dc96bb448", "name": "c42c511eb64b5e6f5c27db3dc96bb448", "is_reserved": 0, "fusion_lat": 0.0}, {"type": "electric_bike", "rental_uris": {"ios": "https://dc.lft.to/lastmile_qr_scan", "android": "https://dc.lft.to/lastmile_qr_scan"}, "lon": -76.97832633333333, "fusion_lon": 0.0, "is_disabled": 0, "lat": 38.870766333333336, "bike_id": "ecda9dca10b38e6a698258869b3f204a", "name": "ecda9dca10b38e6a698258869b3f204a", "is_reserved": 0, "fusion_lat": 0.0}, {"type": "electric_scooter", "rental_uris": {"ios": "https://dc.lft.to/lastmile_qr_scan", "android": "https://dc.lft.to/lastmile_qr_scan"}, "lon": -77.03440016666667, "fusion_lon": 0.0, "is_disabled": 0, "lat": 38.90716466666667, "bike_id": "c17a02349117a3747ba6fbfe117745bb", "name": "c17a02349117a3747ba6fbfe117745bb", "is_reserved": 0, "fusion_lat": 0.0}, {"type": "electric_scooter", "rental_uris": {"ios": "https://dc.lft.to/lastmile_qr_scan", "android": "https://dc.lft.to/lastmile_qr_scan"}, "lon": -76.9834425, "fusion_lon": 0.0, "is_disabled": 0, "lat": 38.90737766666667, "bike_id": "33282adfa5b686d9de9b4bcc2f578d37", "name": "33282adfa5b686d9de9b4bcc2f578d37", "is_reserved": 0, "fusion_lat": 0.0}, {"type": "electric_bike", "rental_uris": {"ios": "https://dc.lft.to/lastmile_qr_scan", "android": "https://dc.lft.to/lastmile_qr_scan"}, "lon": -76.94808283333333, "fusion_lon": 0.0, "is_disabled": 0, "lat": 38.893928, "bike_id": "83abcdc553439d6bc4f5141b19a46bb3", "name": "83abcdc553439d6bc4f5141b19a46bb3", "is_reserved": 0, "fusion_lat": 0.0}, {"type": "electric_scooter", "rental_uris": {"ios": "https://dc.lft.to/lastmile_qr_scan", "android": "https://dc.lft.to/lastmile_qr_scan"}, "lon": -77.043975, "fusion_lon": 0.0, "is_disabled": 0, "lat": 38.910646666666665, "bike_id": "c3e62bc0d5268be3717519c633183806", "name": "c3e62bc0d5268be3717519c633183806", "is_reserved": 0, "fusion_lat": 0.0}, {"type": "electric_bike", "rental_uris": {"ios": "https://dc.lft.to/lastmile_qr_scan", "android": "https://dc.lft.to/lastmile_qr_scan"}, "lon": -76.99016166666667, "fusion_lon": 0.0, "is_disabled": 0, "lat": 38.954751, "bike_id": "691a5a848f2556fb9ee608be3135e6b9", "name": "691a5a848f2556fb9ee608be3135e6b9", "is_reserved": 0, "fusion_lat": 0.0}, {"type": "electric_bike", "rental_uris": {"ios": "https://dc.lft.to/lastmile_qr_scan", "android": "https://dc.lft.to/lastmile_qr_scan"}, "lon": -77.0066415, "fusion_lon": 0.0, "is_disabled": 0, "lat": 38.9450445, "bike_id": "c48572c8c5b051d33545b93f07bc6449", "name": "c48572c8c5b051d33545b93f07bc6449", "is_reserved": 0, "fusion_lat": 0.0}, {"type": "electric_scooter", "rental_uris": {"ios": "https://dc.lft.to/lastmile_qr_scan", "android": "https://dc.lft.to/lastmile_qr_scan"}, "lon": -77.0373425, "fusion_lon": 0.0, "is_disabled": 0, "lat": 38.92847716666667, "bike_id": "86d93c002dadb8dcb4c7fddb61f83625", "name": "86d93c002dadb8dcb4c7fddb61f83625", "is_reserved": 0, "fusion_lat": 0.0}, {"type": "electric_scooter", "rental_uris": {"ios": "https://dc.lft.to/lastmile_qr_scan", "android": "https://dc.lft.to/lastmile_qr_scan"}, "lon": -77.0314985, "fusion_lon": 0.0, "is_disabled": 0, "lat": 38.91562016666666, "bike_id": "a8d612f12e78bfc75894c4959cd693ff", "name": "a8d612f12e78bfc75894c4959cd693ff", "is_reserved": 0, "fusion_lat": 0.0}, {"type": "electric_scooter", "rental_uris": {"ios": "https://dc.lft.to/lastmile_qr_scan", "android": "https://dc.lft.to/lastmile_qr_scan"}, "lon": -77.0316195, "fusion_lon": 0.0, "is_disabled": 0, "lat": 38.896302, "bike_id": "91c5b122641d909171069f5ecf807a5d", "name": "91c5b122641d909171069f5ecf807a5d", "is_reserved": 0, "fusion_lat": 0.0}, {"type": "electric_scooter", "rental_uris": {"ios": "https://dc.lft.to/lastmile_qr_scan", "android": "https://dc.lft.to/lastmile_qr_scan"}, "lon": -77.00608666666666, "fusion_lon": 0.0, "is_disabled": 0, "lat": 38.906467166666665, "bike_id": "15a6dfb65b663ba2118c23b0123c2b43", "name": "15a6dfb65b663ba2118c23b0123c2b43", "is_reserved": 0, "fusion_lat": 0.0}, {"type": "electric_scooter", "rental_uris": {"ios": "https://dc.lft.to/lastmile_qr_scan", "android": "https://dc.lft.to/lastmile_qr_scan"}, "lon": -77.03271116666667, "fusion_lon": 0.0, "is_disabled": 0, "lat": 38.929389, "bike_id": "69f0e76de491c9323edcc8aff83fcfe3", "name": "69f0e76de491c9323edcc8aff83fcfe3", "is_reserved": 0, "fusion_lat": 0.0}, {"type": "electric_scooter", "rental_uris": {"ios": "https://dc.lft.to/lastmile_qr_scan", "android": "https://dc.lft.to/lastmile_qr_scan"}, "lon": -77.01369083333333, "fusion_lon": 0.0, "is_disabled": 0, "lat": 38.8923235, "bike_id": "c4abf1472b55a0534adaa96bf6c0f7f5", "name": "c4abf1472b55a0534adaa96bf6c0f7f5", "is_reserved": 0, "fusion_lat": 0.0}, {"type": "electric_scooter", "rental_uris": {"ios": "https://dc.lft.to/lastmile_qr_scan", "android": "https://dc.lft.to/lastmile_qr_scan"}, "lon": -77.01174133333333, "fusion_lon": 0.0, "is_disabled": 0, "lat": 38.903168666666666, "bike_id": "7ba8e6334e7e65259d72666e336b9fbc", "name": "7ba8e6334e7e65259d72666e336b9fbc", "is_reserved": 0, "fusion_lat": 0.0}, {"type": "electric_scooter", "rental_uris": {"ios": "https://dc.lft.to/lastmile_qr_scan", "android": "https://dc.lft.to/lastmile_qr_scan"}, "lon": -77.00562366666666, "fusion_lon": 0.0, "is_disabled": 0, "lat": 38.90567766666667, "bike_id": "b3c56ac4842d6782b37353ed8bf23bbe", "name": "b3c56ac4842d6782b37353ed8bf23bbe", "is_reserved": 0, "fusion_lat": 0.0}, {"type": "electric_scooter", "rental_uris": {"ios": "https://dc.lft.to/lastmile_qr_scan", "android": "https://dc.lft.to/lastmile_qr_scan"}, "lon": -77.01797183333333, "fusion_lon": 0.0, "is_disabled": 0, "lat": 38.92050666666667, "bike_id": "044fef9f29da9bff9f630765b1d5b661", "name": "044fef9f29da9bff9f630765b1d5b661", "is_reserved": 0, "fusion_lat": 0.0}, {"type": "electric_scooter", "rental_uris": {"ios": "https://dc.lft.to/lastmile_qr_scan", "android": "https://dc.lft.to/lastmile_qr_scan"}, "lon": -77.03857866666667, "fusion_lon": 0.0, "is_disabled": 0, "lat": 38.905047333333336, "bike_id": "b2b463643c2464af5bf733b99f309315", "name": "b2b463643c2464af5bf733b99f309315", "is_reserved": 0, "fusion_lat": 0.0}, {"type": "electric_bike", "rental_uris": {"ios": "https://dc.lft.to/lastmile_qr_scan", "android": "https://dc.lft.to/lastmile_qr_scan"}, "lon": -77.049808, "fusion_lon": 0.0, "is_disabled": 0, "lat": 39.062943833333335, "bike_id": "cf8fd4cf5940495572d69edcff21f30b", "name": "cf8fd4cf5940495572d69edcff21f30b", "is_reserved": 0, "fusion_lat": 0.0}, {"type": "electric_scooter", "rental_uris": {"ios": "https://dc.lft.to/lastmile_qr_scan", "android": "https://dc.lft.to/lastmile_qr_scan"}, "lon": -77.03952833333334, "fusion_lon": 0.0, "is_disabled": 0, "lat": 38.91716516666666, "bike_id": "edc6a1ca672715f8d33ad82d2ac9a39b", "name": "edc6a1ca672715f8d33ad82d2ac9a39b", "is_reserved": 0, "fusion_lat": 0.0}, {"type": "electric_scooter", "rental_uris": {"ios": "https://dc.lft.to/lastmile_qr_scan", "android": "https://dc.lft.to/lastmile_qr_scan"}, "lon": -77.01484083333334, "fusion_lon": 0.0, "is_disabled": 0, "lat": 38.87639583333333, "bike_id": "7b268c291460a37878780d56b80c07f9", "name": "7b268c291460a37878780d56b80c07f9", "is_reserved": 0, "fusion_lat": 0.0}, {"type": "electric_scooter", "rental_uris": {"ios": "https://dc.lft.to/lastmile_qr_scan", "android": "https://dc.lft.to/lastmile_qr_scan"}, "lon": -76.99026233333333, "fusion_lon": 0.0, "is_disabled": 0, "lat": 38.8653205, "bike_id": "88338adf3c95caee4c237f213e7260d0", "name": "88338adf3c95caee4c237f213e7260d0", "is_reserved": 0, "fusion_lat": 0.0}, {"type": "electric_scooter", "rental_uris": {"ios": "https://dc.lft.to/lastmile_qr_scan", "android": "https://dc.lft.to/lastmile_qr_scan"}, "lon": -77.040215, "fusion_lon": 0.0, "is_disabled": 0, "lat": 38.924468833333336, "bike_id": "d1ae513751085a81b13596822059d718", "name": "d1ae513751085a81b13596822059d718", "is_reserved": 0, "fusion_lat": 0.0}, {"type": "electric_scooter", "rental_uris": {"ios": "https://dc.lft.to/lastmile_qr_scan", "android": "https://dc.lft.to/lastmile_qr_scan"}, "lon": -77.0433145, "fusion_lon": 0.0, "is_disabled": 0, "lat": 38.904325666666665, "bike_id": "ed091d29a92f07fa6e80d6b455910f19", "name": "ed091d29a92f07fa6e80d6b455910f19", "is_reserved": 0, "fusion_lat": 0.0}, {"type": "electric_scooter", "rental_uris": {"ios": "https://dc.lft.to/lastmile_qr_scan", "android": "https://dc.lft.to/lastmile_qr_scan"}, "lon": -77.04622266666667, "fusion_lon": 0.0, "is_disabled": 0, "lat": 38.915434166666664, "bike_id": "d32150d40b9b8f4dda2c39d9dedcaf99", "name": "d32150d40b9b8f4dda2c39d9dedcaf99", "is_reserved": 0, "fusion_lat": 0.0}, {"type": "electric_scooter", "rental_uris": {"ios": "https://dc.lft.to/lastmile_qr_scan", "android": "https://dc.lft.to/lastmile_qr_scan"}, "lon": -77.03673933333333, "fusion_lon": 0.0, "is_disabled": 0, "lat": 38.917084333333335, "bike_id": "915d2654d8196386a35dfefbee5297a2", "name": "915d2654d8196386a35dfefbee5297a2", "is_reserved": 0, "fusion_lat": 0.0}, {"type": "electric_scooter", "rental_uris": {"ios": "https://dc.lft.to/lastmile_qr_scan", "android": "https://dc.lft.to/lastmile_qr_scan"}, "lon": -77.04006883333334, "fusion_lon": 0.0, "is_disabled": 0, "lat": 38.909993666666665, "bike_id": "e7319992c873264adfedd4baadeb8d17", "name": "e7319992c873264adfedd4baadeb8d17", "is_reserved": 0, "fusion_lat": 0.0}, {"type": "electric_bike", "rental_uris": {"ios": "https://dc.lft.to/lastmile_qr_scan", "android": "https://dc.lft.to/lastmile_qr_scan"}, "lon": -77.12953466666667, "fusion_lon": 0.0, "is_disabled": 0, "lat": 38.852198666666666, "bike_id": "46e3d7bfb911226ebec201795e604d7b", "name": "46e3d7bfb911226ebec201795e604d7b", "is_reserved": 0, "fusion_lat": 0.0}, {"type": "electric_scooter", "rental_uris": {"ios": "https://dc.lft.to/lastmile_qr_scan", "android": "https://dc.lft.to/lastmile_qr_scan"}, "lon": -77.04387333333334, "fusion_lon": 0.0, "is_disabled": 0, "lat": 38.93329883333333, "bike_id": "c252f059db8940728da95b30589d5f2f", "name": "c252f059db8940728da95b30589d5f2f", "is_reserved": 0, "fusion_lat": 0.0}, {"type": "electric_scooter", "rental_uris": {"ios": "https://dc.lft.to/lastmile_qr_scan", "android": "https://dc.lft.to/lastmile_qr_scan"}, "lon": -77.03203883333333, "fusion_lon": 0.0, "is_disabled": 0, "lat": 38.90964683333333, "bike_id": "285c9861820e8fba9bbe4ab1c825d11d", "name": "285c9861820e8fba9bbe4ab1c825d11d", "is_reserved": 0, "fusion_lat": 0.0}, {"type": "electric_bike", "rental_uris": {"ios": "https://dc.lft.to/lastmile_qr_scan", "android": "https://dc.lft.to/lastmile_qr_scan"}, "lon": -76.98107683333333, "fusion_lon": 0.0, "is_disabled": 0, "lat": 38.953560833333334, "bike_id": "2d6459edebca26ff7834dde205f8c701", "name": "2d6459edebca26ff7834dde205f8c701", "is_reserved": 0, "fusion_lat": 0.0}, {"type": "electric_scooter", "rental_uris": {"ios": "https://dc.lft.to/lastmile_qr_scan", "android": "https://dc.lft.to/lastmile_qr_scan"}, "lon": -77.01761983333333, "fusion_lon": 0.0, "is_disabled": 0, "lat": 38.876765666666664, "bike_id": "dbdaa5285a5f22fd06369542b851eb57", "name": "dbdaa5285a5f22fd06369542b851eb57", "is_reserved": 0, "fusion_lat": 0.0}, {"type": "electric_scooter", "rental_uris": {"ios": "https://dc.lft.to/lastmile_qr_scan", "android": "https://dc.lft.to/lastmile_qr_scan"}, "lon": -77.02419916666666, "fusion_lon": 0.0, "is_disabled": 0, "lat": 38.8984275, "bike_id": "22df9557ae25dd83e1b4434cbd204c58", "name": "22df9557ae25dd83e1b4434cbd204c58", "is_reserved": 0, "fusion_lat": 0.0}, {"type": "electric_scooter", "rental_uris": {"ios": "https://dc.lft.to/lastmile_qr_scan", "android": "https://dc.lft.to/lastmile_qr_scan"}, "lon": -77.02629966666667, "fusion_lon": 0.0, "is_disabled": 0, "lat": 38.89219, "bike_id": "1236a8098b10ca1215731a2f749955bc", "name": "1236a8098b10ca1215731a2f749955bc", "is_reserved": 0, "fusion_lat": 0.0}, {"type": "electric_bike", "rental_uris": {"ios": "https://dc.lft.to/lastmile_qr_scan", "android": "https://dc.lft.to/lastmile_qr_scan"}, "lon": -77.09481916666667, "fusion_lon": 0.0, "is_disabled": 0, "lat": 38.80754566666667, "bike_id": "f5bd13664dd1b5378fd9baee74a259db", "name": "f5bd13664dd1b5378fd9baee74a259db", "is_reserved": 0, "fusion_lat": 0.0}, {"type": "electric_bike", "rental_uris": {"ios": "https://dc.lft.to/lastmile_qr_scan", "android": "https://dc.lft.to/lastmile_qr_scan"}, "lon": -76.93240183333333, "fusion_lon": 0.0, "is_disabled": 0, "lat": 38.8659475, "bike_id": "045f18265c9956c61f538968aa66bdf0", "name": "045f18265c9956c61f538968aa66bdf0", "is_reserved": 0, "fusion_lat": 0.0}, {"type": "electric_scooter", "rental_uris": {"ios": "https://dc.lft.to/lastmile_qr_scan", "android": "https://dc.lft.to/lastmile_qr_scan"}, "lon": -77.0271845, "fusion_lon": 0.0, "is_disabled": 0, "lat": 38.9068365, "bike_id": "27475f6c3a3429b6a231ccf77ccaec39", "name": "27475f6c3a3429b6a231ccf77ccaec39", "is_reserved": 0, "fusion_lat": 0.0}, {"type": "electric_scooter", "rental_uris": {"ios": "https://dc.lft.to/lastmile_qr_scan", "android": "https://dc.lft.to/lastmile_qr_scan"}, "lon": -77.0312025, "fusion_lon": 0.0, "is_disabled": 0, "lat": 38.937646666666666, "bike_id": "d2fa0c61381c393baf99bc594684041b", "name": "d2fa0c61381c393baf99bc594684041b", "is_reserved": 0, "fusion_lat": 0.0}, {"type": "electric_scooter", "rental_uris": {"ios": "https://dc.lft.to/lastmile_qr_scan", "android": "https://dc.lft.to/lastmile_qr_scan"}, "lon": -77.025938, "fusion_lon": 0.0, "is_disabled": 0, "lat": 38.91408033333333, "bike_id": "5509d65ec4ca567a00a66f1a817ba98b", "name": "5509d65ec4ca567a00a66f1a817ba98b", "is_reserved": 0, "fusion_lat": 0.0}, {"type": "electric_bike", "rental_uris": {"ios": "https://dc.lft.to/lastmile_qr_scan", "android": "https://dc.lft.to/lastmile_qr_scan"}, "lon": -76.99354333333333, "fusion_lon": 0.0, "is_disabled": 0, "lat": 38.845052833333334, "bike_id": "da8253baca80a71018ab36b3d66915db", "name": "da8253baca80a71018ab36b3d66915db", "is_reserved": 0, "fusion_lat": 0.0}, {"type": "electric_scooter", "rental_uris": {"ios": "https://dc.lft.to/lastmile_qr_scan", "android": "https://dc.lft.to/lastmile_qr_scan"}, "lon": -76.9982705, "fusion_lon": 0.0, "is_disabled": 0, "lat": 38.8853385, "bike_id": "722b4637e73e47d44055e07a5f599446", "name": "722b4637e73e47d44055e07a5f599446", "is_reserved": 0, "fusion_lat": 0.0}, {"type": "electric_scooter", "rental_uris": {"ios": "https://dc.lft.to/lastmile_qr_scan", "android": "https://dc.lft.to/lastmile_qr_scan"}, "lon": -77.0526785, "fusion_lon": 0.0, "is_disabled": 0, "lat": 38.925482333333335, "bike_id": "a05248307ffc6d7a8a9681b538ec8744", "name": "a05248307ffc6d7a8a9681b538ec8744", "is_reserved": 0, "fusion_lat": 0.0}, {"type": "electric_bike", "rental_uris": {"ios": "https://dc.lft.to/lastmile_qr_scan", "android": "https://dc.lft.to/lastmile_qr_scan"}, "lon": -77.0365125, "fusion_lon": 0.0, "is_disabled": 0, "lat": 38.95635883333333, "bike_id": "08f3c54106eb460727d65b0fd6101470", "name": "08f3c54106eb460727d65b0fd6101470", "is_reserved": 0, "fusion_lat": 0.0}, {"type": "electric_scooter", "rental_uris": {"ios": "https://dc.lft.to/lastmile_qr_scan", "android": "https://dc.lft.to/lastmile_qr_scan"}, "lon": -77.02960783333333, "fusion_lon": 0.0, "is_disabled": 0, "lat": 38.932426, "bike_id": "53a986131e9765c80d719e672f442b80", "name": "53a986131e9765c80d719e672f442b80", "is_reserved": 0, "fusion_lat": 0.0}, {"type": "electric_scooter", "rental_uris": {"ios": "https://dc.lft.to/lastmile_qr_scan", "android": "https://dc.lft.to/lastmile_qr_scan"}, "lon": -77.021803, "fusion_lon": 0.0, "is_disabled": 0, "lat": 38.90620166666667, "bike_id": "faa50cec4cec0dd14c177892f8dcd123", "name": "faa50cec4cec0dd14c177892f8dcd123", "is_reserved": 0, "fusion_lat": 0.0}, {"type": "electric_scooter", "rental_uris": {"ios": "https://dc.lft.to/lastmile_qr_scan", "android": "https://dc.lft.to/lastmile_qr_scan"}, "lon": -77.0502495, "fusion_lon": 0.0, "is_disabled": 0, "lat": 38.923541166666666, "bike_id": "08efc6ff61eefc2cfbdbf75356b33e00", "name": "08efc6ff61eefc2cfbdbf75356b33e00", "is_reserved": 0, "fusion_lat": 0.0}, {"type": "electric_scooter", "rental_uris": {"ios": "https://dc.lft.to/lastmile_qr_scan", "android": "https://dc.lft.to/lastmile_qr_scan"}, "lon": -77.0253595, "fusion_lon": 0.0, "is_disabled": 0, "lat": 38.914837, "bike_id": "5b0b83e1cfa93789ade401749a3b42ef", "name": "5b0b83e1cfa93789ade401749a3b42ef", "is_reserved": 0, "fusion_lat": 0.0}, {"type": "electric_scooter", "rental_uris": {"ios": "https://dc.lft.to/lastmile_qr_scan", "android": "https://dc.lft.to/lastmile_qr_scan"}, "lon": -77.03762966666666, "fusion_lon": 0.0, "is_disabled": 0, "lat": 38.9357765, "bike_id": "24c37e3c1f3f4f50cc21ecc9977224c9", "name": "24c37e3c1f3f4f50cc21ecc9977224c9", "is_reserved": 0, "fusion_lat": 0.0}, {"type": "electric_scooter", "rental_uris": {"ios": "https://dc.lft.to/lastmile_qr_scan", "android": "https://dc.lft.to/lastmile_qr_scan"}, "lon": -77.03185216666667, "fusion_lon": 0.0, "is_disabled": 0, "lat": 38.89230466666667, "bike_id": "6d7a06cecfedcee3af72a49f0f1ae86d", "name": "6d7a06cecfedcee3af72a49f0f1ae86d", "is_reserved": 0, "fusion_lat": 0.0}, {"type": "electric_bike", "rental_uris": {"ios": "https://dc.lft.to/lastmile_qr_scan", "android": "https://dc.lft.to/lastmile_qr_scan"}, "lon": -77.01198583333333, "fusion_lon": 0.0, "is_disabled": 0, "lat": 38.950774333333335, "bike_id": "166c7388a613cdbf37b4b86c43de003a", "name": "166c7388a613cdbf37b4b86c43de003a", "is_reserved": 0, "fusion_lat": 0.0}, {"type": "electric_scooter", "rental_uris": {"ios": "https://dc.lft.to/lastmile_qr_scan", "android": "https://dc.lft.to/lastmile_qr_scan"}, "lon": -77.03829766666667, "fusion_lon": 0.0, "is_disabled": 0, "lat": 38.91100333333333, "bike_id": "f2988893d7f588cd619a6b768336ed16", "name": "f2988893d7f588cd619a6b768336ed16", "is_reserved": 0, "fusion_lat": 0.0}, {"type": "electric_scooter", "rental_uris": {"ios": "https://dc.lft.to/lastmile_qr_scan", "android": "https://dc.lft.to/lastmile_qr_scan"}, "lon": -77.04154333333334, "fusion_lon": 0.0, "is_disabled": 0, "lat": 38.902828666666665, "bike_id": "c3413e29f3f70b63f447fca7c189e68a", "name": "c3413e29f3f70b63f447fca7c189e68a", "is_reserved": 0, "fusion_lat": 0.0}, {"type": "electric_scooter", "rental_uris": {"ios": "https://dc.lft.to/lastmile_qr_scan", "android": "https://dc.lft.to/lastmile_qr_scan"}, "lon": -77.04367933333333, "fusion_lon": 0.0, "is_disabled": 0, "lat": 38.92145433333334, "bike_id": "c43de843da3a10f2d64939276d71b217", "name": "c43de843da3a10f2d64939276d71b217", "is_reserved": 0, "fusion_lat": 0.0}, {"type": "electric_scooter", "rental_uris": {"ios": "https://dc.lft.to/lastmile_qr_scan", "android": "https://dc.lft.to/lastmile_qr_scan"}, "lon": -77.017594, "fusion_lon": 0.0, "is_disabled": 0, "lat": 38.902590833333335, "bike_id": "ec3f2da2c2e3211c32b57a83003b2025", "name": "ec3f2da2c2e3211c32b57a83003b2025", "is_reserved": 0, "fusion_lat": 0.0}, {"type": "electric_scooter", "rental_uris": {"ios": "https://dc.lft.to/lastmile_qr_scan", "android": "https://dc.lft.to/lastmile_qr_scan"}, "lon": -77.06037716666667, "fusion_lon": 0.0, "is_disabled": 0, "lat": 38.902309, "bike_id": "2ba307f7f431e53f8d43acdecebbd309", "name": "2ba307f7f431e53f8d43acdecebbd309", "is_reserved": 0, "fusion_lat": 0.0}, {"type": "electric_scooter", "rental_uris": {"ios": "https://dc.lft.to/lastmile_qr_scan", "android": "https://dc.lft.to/lastmile_qr_scan"}, "lon": -77.02795933333333, "fusion_lon": 0.0, "is_disabled": 0, "lat": 38.9308805, "bike_id": "a51d47a16ed7841401d1cca06fa6d298", "name": "a51d47a16ed7841401d1cca06fa6d298", "is_reserved": 0, "fusion_lat": 0.0}, {"type": "electric_scooter", "rental_uris": {"ios": "https://dc.lft.to/lastmile_qr_scan", "android": "https://dc.lft.to/lastmile_qr_scan"}, "lon": -77.05235216666667, "fusion_lon": 0.0, "is_disabled": 0, "lat": 38.925278166666665, "bike_id": "17c745c2c29d22b370312ba039603ed3", "name": "17c745c2c29d22b370312ba039603ed3", "is_reserved": 0, "fusion_lat": 0.0}, {"type": "electric_scooter", "rental_uris": {"ios": "https://dc.lft.to/lastmile_qr_scan", "android": "https://dc.lft.to/lastmile_qr_scan"}, "lon": -77.0362925, "fusion_lon": 0.0, "is_disabled": 0, "lat": 38.932753166666664, "bike_id": "d1fc2a958be95a4c139d684bf56fa351", "name": "d1fc2a958be95a4c139d684bf56fa351", "is_reserved": 0, "fusion_lat": 0.0}, {"type": "electric_scooter", "rental_uris": {"ios": "https://dc.lft.to/lastmile_qr_scan", "android": "https://dc.lft.to/lastmile_qr_scan"}, "lon": -77.0342735, "fusion_lon": 0.0, "is_disabled": 0, "lat": 38.909772833333335, "bike_id": "54a991d1018c5bcd9527e4ebffcbc3f5", "name": "54a991d1018c5bcd9527e4ebffcbc3f5", "is_reserved": 0, "fusion_lat": 0.0}, {"type": "electric_scooter", "rental_uris": {"ios": "https://dc.lft.to/lastmile_qr_scan", "android": "https://dc.lft.to/lastmile_qr_scan"}, "lon": -77.03295283333334, "fusion_lon": 0.0, "is_disabled": 0, "lat": 38.92060016666667, "bike_id": "a7a32ebf07a929a315d19831e962188f", "name": "a7a32ebf07a929a315d19831e962188f", "is_reserved": 0, "fusion_lat": 0.0}, {"type": "electric_bike", "rental_uris": {"ios": "https://dc.lft.to/lastmile_qr_scan", "android": "https://dc.lft.to/lastmile_qr_scan"}, "lon": -77.01210416666666, "fusion_lon": 0.0, "is_disabled": 0, "lat": 38.87081716666667, "bike_id": "a647e48d0361c09e66bacc64d4bf52d9", "name": "a647e48d0361c09e66bacc64d4bf52d9", "is_reserved": 0, "fusion_lat": 0.0}, {"type": "electric_bike", "rental_uris": {"ios": "https://dc.lft.to/lastmile_qr_scan", "android": "https://dc.lft.to/lastmile_qr_scan"}, "lon": -76.93243233333334, "fusion_lon": 0.0, "is_disabled": 0, "lat": 38.8827585, "bike_id": "ebdc280f2985285688ae24dfb8483d3e", "name": "ebdc280f2985285688ae24dfb8483d3e", "is_reserved": 0, "fusion_lat": 0.0}, {"type": "electric_scooter", "rental_uris": {"ios": "https://dc.lft.to/lastmile_qr_scan", "android": "https://dc.lft.to/lastmile_qr_scan"}, "lon": -77.07310433333333, "fusion_lon": 0.0, "is_disabled": 0, "lat": 38.92865883333333, "bike_id": "0df8b25750e1cde4cac65b28a7234768", "name": "0df8b25750e1cde4cac65b28a7234768", "is_reserved": 0, "fusion_lat": 0.0}, {"type": "electric_scooter", "rental_uris": {"ios": "https://dc.lft.to/lastmile_qr_scan", "android": "https://dc.lft.to/lastmile_qr_scan"}, "lon": -77.0285365, "fusion_lon": 0.0, "is_disabled": 0, "lat": 38.9170425, "bike_id": "fecd572f081a30322d6871b15299b7aa", "name": "fecd572f081a30322d6871b15299b7aa", "is_reserved": 0, "fusion_lat": 0.0}, {"type": "electric_scooter", "rental_uris": {"ios": "https://dc.lft.to/lastmile_qr_scan", "android": "https://dc.lft.to/lastmile_qr_scan"}, "lon": -77.02347266666666, "fusion_lon": 0.0, "is_disabled": 0, "lat": 38.917792166666665, "bike_id": "99cf2befa7769d582d85f6c72cc22560", "name": "99cf2befa7769d582d85f6c72cc22560", "is_reserved": 0, "fusion_lat": 0.0}, {"type": "electric_scooter", "rental_uris": {"ios": "https://dc.lft.to/lastmile_qr_scan", "android": "https://dc.lft.to/lastmile_qr_scan"}, "lon": -77.0374775, "fusion_lon": 0.0, "is_disabled": 0, "lat": 38.91249833333333, "bike_id": "937bb099b0178d26ccb2932f158a91c9", "name": "937bb099b0178d26ccb2932f158a91c9", "is_reserved": 0, "fusion_lat": 0.0}, {"type": "electric_scooter", "rental_uris": {"ios": "https://dc.lft.to/lastmile_qr_scan", "android": "https://dc.lft.to/lastmile_qr_scan"}, "lon": -77.031853, "fusion_lon": 0.0, "is_disabled": 0, "lat": 38.91743866666667, "bike_id": "9f04c2c4382fbbb337e697c6ac4f1695", "name": "9f04c2c4382fbbb337e697c6ac4f1695", "is_reserved": 0, "fusion_lat": 0.0}, {"type": "electric_scooter", "rental_uris": {"ios": "https://dc.lft.to/lastmile_qr_scan", "android": "https://dc.lft.to/lastmile_qr_scan"}, "lon": -76.988823, "fusion_lon": 0.0, "is_disabled": 0, "lat": 38.866445, "bike_id": "fa3e27270412a645904ce5e7e2304f2e", "name": "fa3e27270412a645904ce5e7e2304f2e", "is_reserved": 0, "fusion_lat": 0.0}, {"type": "electric_bike", "rental_uris": {"ios": "https://dc.lft.to/lastmile_qr_scan", "android": "https://dc.lft.to/lastmile_qr_scan"}, "lon": -77.02299833333333, "fusion_lon": 0.0, "is_disabled": 0, "lat": 38.90155133333333, "bike_id": "9fb7dd8b9a6b71a9fffbdfc10229d061", "name": "9fb7dd8b9a6b71a9fffbdfc10229d061", "is_reserved": 0, "fusion_lat": 0.0}, {"type": "electric_scooter", "rental_uris": {"ios": "https://dc.lft.to/lastmile_qr_scan", "android": "https://dc.lft.to/lastmile_qr_scan"}, "lon": -77.04357583333334, "fusion_lon": 0.0, "is_disabled": 0, "lat": 38.9129915, "bike_id": "8855df871511f427346e4d25756ee565", "name": "8855df871511f427346e4d25756ee565", "is_reserved": 0, "fusion_lat": 0.0}, {"type": "electric_scooter", "rental_uris": {"ios": "https://dc.lft.to/lastmile_qr_scan", "android": "https://dc.lft.to/lastmile_qr_scan"}, "lon": -76.93358483333333, "fusion_lon": 0.0, "is_disabled": 0, "lat": 38.8990025, "bike_id": "3cbe585d76032c51bcf8fa8826f28fca", "name": "3cbe585d76032c51bcf8fa8826f28fca", "is_reserved": 0, "fusion_lat": 0.0}, {"type": "electric_scooter", "rental_uris": {"ios": "https://dc.lft.to/lastmile_qr_scan", "android": "https://dc.lft.to/lastmile_qr_scan"}, "lon": -77.02495316666666, "fusion_lon": 0.0, "is_disabled": 0, "lat": 38.918065, "bike_id": "deb5adb72167a28f3e97953e64eef326", "name": "deb5adb72167a28f3e97953e64eef326", "is_reserved": 0, "fusion_lat": 0.0}, {"type": "electric_scooter", "rental_uris": {"ios": "https://dc.lft.to/lastmile_qr_scan", "android": "https://dc.lft.to/lastmile_qr_scan"}, "lon": -77.03231533333333, "fusion_lon": 0.0, "is_disabled": 0, "lat": 38.92358433333333, "bike_id": "04ead4f0440c24a8bbe81eb0c3099122", "name": "04ead4f0440c24a8bbe81eb0c3099122", "is_reserved": 0, "fusion_lat": 0.0}, {"type": "electric_scooter", "rental_uris": {"ios": "https://dc.lft.to/lastmile_qr_scan", "android": "https://dc.lft.to/lastmile_qr_scan"}, "lon": -77.02433866666667, "fusion_lon": 0.0, "is_disabled": 0, "lat": 38.956337833333336, "bike_id": "17ba9bb040e03ac1e66fef70d790600b", "name": "17ba9bb040e03ac1e66fef70d790600b", "is_reserved": 0, "fusion_lat": 0.0}, {"type": "electric_bike", "rental_uris": {"ios": "https://dc.lft.to/lastmile_qr_scan", "android": "https://dc.lft.to/lastmile_qr_scan"}, "lon": -77.05639533333333, "fusion_lon": 0.0, "is_disabled": 0, "lat": 38.986513, "bike_id": "8dda8d5686c571cc698e5d06223145db", "name": "8dda8d5686c571cc698e5d06223145db", "is_reserved": 0, "fusion_lat": 0.0}, {"type": "electric_scooter", "rental_uris": {"ios": "https://dc.lft.to/lastmile_qr_scan", "android": "https://dc.lft.to/lastmile_qr_scan"}, "lon": -77.02513333333333, "fusion_lon": 0.0, "is_disabled": 0, "lat": 38.94621216666667, "bike_id": "855c9aaad1c27d12c30ddab15b82080a", "name": "855c9aaad1c27d12c30ddab15b82080a", "is_reserved": 0, "fusion_lat": 0.0}, {"type": "electric_scooter", "rental_uris": {"ios": "https://dc.lft.to/lastmile_qr_scan", "android": "https://dc.lft.to/lastmile_qr_scan"}, "lon": -77.033433, "fusion_lon": 0.0, "is_disabled": 0, "lat": 38.917061, "bike_id": "bac3154e78b5b4a1f98e44ec9190ebf3", "name": "bac3154e78b5b4a1f98e44ec9190ebf3", "is_reserved": 0, "fusion_lat": 0.0}, {"type": "electric_scooter", "rental_uris": {"ios": "https://dc.lft.to/lastmile_qr_scan", "android": "https://dc.lft.to/lastmile_qr_scan"}, "lon": -77.03544483333333, "fusion_lon": 0.0, "is_disabled": 0, "lat": 38.923914833333335, "bike_id": "30007b72cf43115fba5954f473fd08d8", "name": "30007b72cf43115fba5954f473fd08d8", "is_reserved": 0, "fusion_lat": 0.0}, {"type": "electric_scooter", "rental_uris": {"ios": "https://dc.lft.to/lastmile_qr_scan", "android": "https://dc.lft.to/lastmile_qr_scan"}, "lon": -77.04020816666667, "fusion_lon": 0.0, "is_disabled": 0, "lat": 38.917976833333334, "bike_id": "c58e2ee2420ebec8075f9b074eff3f0b", "name": "c58e2ee2420ebec8075f9b074eff3f0b", "is_reserved": 0, "fusion_lat": 0.0}, {"type": "electric_scooter", "rental_uris": {"ios": "https://dc.lft.to/lastmile_qr_scan", "android": "https://dc.lft.to/lastmile_qr_scan"}, "lon": -77.04153016666666, "fusion_lon": 0.0, "is_disabled": 0, "lat": 38.919167333333334, "bike_id": "72641aa3d4337be92da473e97d097d1d", "name": "72641aa3d4337be92da473e97d097d1d", "is_reserved": 0, "fusion_lat": 0.0}, {"type": "electric_scooter", "rental_uris": {"ios": "https://dc.lft.to/lastmile_qr_scan", "android": "https://dc.lft.to/lastmile_qr_scan"}, "lon": -77.032019, "fusion_lon": 0.0, "is_disabled": 0, "lat": 38.9094815, "bike_id": "0f7d5b43b269ee0eaf55fc3750e4eb9f", "name": "0f7d5b43b269ee0eaf55fc3750e4eb9f", "is_reserved": 0, "fusion_lat": 0.0}, {"type": "electric_scooter", "rental_uris": {"ios": "https://dc.lft.to/lastmile_qr_scan", "android": "https://dc.lft.to/lastmile_qr_scan"}, "lon": -77.02706183333333, "fusion_lon": 0.0, "is_disabled": 0, "lat": 38.918235833333334, "bike_id": "c80dc71667b269f8b4038fb14dea08a6", "name": "c80dc71667b269f8b4038fb14dea08a6", "is_reserved": 0, "fusion_lat": 0.0}, {"type": "electric_scooter", "rental_uris": {"ios": "https://dc.lft.to/lastmile_qr_scan", "android": "https://dc.lft.to/lastmile_qr_scan"}, "lon": -77.02663283333334, "fusion_lon": 0.0, "is_disabled": 0, "lat": 38.917070333333335, "bike_id": "4b267ae2c4b3f74009eb344674ab1dcd", "name": "4b267ae2c4b3f74009eb344674ab1dcd", "is_reserved": 0, "fusion_lat": 0.0}, {"type": "electric_scooter", "rental_uris": {"ios": "https://dc.lft.to/lastmile_qr_scan", "android": "https://dc.lft.to/lastmile_qr_scan"}, "lon": -77.0339965, "fusion_lon": 0.0, "is_disabled": 0, "lat": 38.907106, "bike_id": "75da6461e3b4946c6aafbe4a1f8c5b30", "name": "75da6461e3b4946c6aafbe4a1f8c5b30", "is_reserved": 0, "fusion_lat": 0.0}, {"type": "electric_scooter", "rental_uris": {"ios": "https://dc.lft.to/lastmile_qr_scan", "android": "https://dc.lft.to/lastmile_qr_scan"}, "lon": -77.041498, "fusion_lon": 0.0, "is_disabled": 0, "lat": 38.89220433333333, "bike_id": "2d8d5f224bb3493cdd1ff6d7867bed17", "name": "2d8d5f224bb3493cdd1ff6d7867bed17", "is_reserved": 0, "fusion_lat": 0.0}, {"type": "electric_scooter", "rental_uris": {"ios": "https://dc.lft.to/lastmile_qr_scan", "android": "https://dc.lft.to/lastmile_qr_scan"}, "lon": -76.9654025, "fusion_lon": 0.0, "is_disabled": 0, "lat": 38.91849166666667, "bike_id": "7e477a03de060b00b483b7324e97b335", "name": "7e477a03de060b00b483b7324e97b335", "is_reserved": 0, "fusion_lat": 0.0}, {"type": "electric_bike", "rental_uris": {"ios": "https://dc.lft.to/lastmile_qr_scan", "android": "https://dc.lft.to/lastmile_qr_scan"},