{"data": {"bikes": [{"is_reserved": 0, "type": "electric_scooter", "bike_id": "95ee284b7665aa1d92144939daab4378", "lat": 38.90367883333333, "lon": -77.031229, "rental_uris": {"android": "https://dc.lft.to/lastmile_qr_scan", "ios": "https://dc.lft.to/lastmile_qr_scan"}, "is_disabled": 0, "fusion_lat": 0.0, "name": "95ee284b7665aa1d92144939daab4378", "fusion_lon": 0.0}, {"is_reserved": 0, "type": "electric_scooter", "bike_id": "0435df4f00aed8edbd149b1cc5a3da43", "lat": 38.916436166666664, "lon": -77.04805, "rental_uris": {"android": "https://dc.lft.to/lastmile_qr_scan", "ios": "https://dc.lft.to/lastmile_qr_scan"}, "is_disabled": 0, "fusion_lat": 0.0, "name": "0435df4f00aed8edbd149b1cc5a3da43", "fusion_lon": 0.0}, {"is_reserved": 0, "type": "electric_scooter", "bike_id": "ae5ab4e93ae7a087a752fc1e429059b5", "lat": 38.897296833333336, "lon": -77.02430766666667, "rental_uris": {"android": "https://dc.lft.to/lastmile_qr_scan", "ios": "https://dc.lft.to/lastmile_qr_scan"}, "is_disabled": 0, "fusion_lat": 0.0, "name": "ae5ab4e93ae7a087a752fc1e429059b5", "fusion_lon": 0.0}, {"is_reserved": 0, "type": "electric_scooter", "bike_id": "e30fb4bea4681fb10c0cf230e92ab9f7", "lat": 38.907728, "lon": -77.00024266666667, "rental_uris": {"android": "https://dc.lft.to/lastmile_qr_scan", "ios": "https://dc.lft.to/lastmile_qr_scan"}, "is_disabled": 0, "fusion_lat": 0.0, "name": "e30fb4bea4681fb10c0cf230e92ab9f7", "fusion_lon": 0.0}, {"is_reserved": 0, "type": "electric_scooter", "bike_id": "4d8d536f0b7a6419206b2bfecfa0b6b0", "lat": 38.88737183333333, "lon": -77.01349516666667, "rental_uris": {"android": "https://dc.lft.to/lastmile_qr_scan", "ios": "https://dc.lft.to/lastmile_qr_scan"}, "is_disabled": 0, "fusion_lat": 0.0, "name": "4d8d536f0b7a6419206b2bfecfa0b6b0", "fusion_lon": 0.0}, {"is_reserved": 0, "type": "electric_scooter", "bike_id": "32ae4e07389f187849035f4a4ad84471", "lat": 38.925476333333336, "lon": -76.99956033333333, "rental_uris": {"android": "https://dc.lft.to/lastmile_qr_scan", "ios": "https://dc.lft.to/lastmile_qr_scan"}, "is_disabled": 0, "fusion_lat": 0.0, "name": "32ae4e07389f187849035f4a4ad84471", "fusion_lon": 0.0}, {"is_reserved": 0, "type": "electric_scooter", "bike_id": "c9985de9283fd468e2d2535786bc3d26", "lat": 38.90844883333333, "lon": -77.0295075, "rental_uris": {"android": "https://dc.lft.to/lastmile_qr_scan", "ios": "https://dc.lft.to/lastmile_qr_scan"}, "is_disabled": 0, "fusion_lat": 0.0, "name": "c9985de9283fd468e2d2535786bc3d26", "fusion_lon": 0.0}, {"is_reserved": 0, "type": "electric_bike", "bike_id": "d8747b12602e6202a3b52ad4d329c187", "lat": 38.974427666666664, "lon": -77.09594516666667, "rental_uris": {"android": "https://dc.lft.to/lastmile_qr_scan", "ios": "https://dc.lft.to/lastmile_qr_scan"}, "is_disabled": 0, "fusion_lat": 0.0, "name": "d8747b12602e6202a3b52ad4d329c187", "fusion_lon": 0.0}, {"is_reserved": 0, "type": "electric_scooter", "bike_id": "d7d6b1d4c83b360f8bc423de27c13f15", "lat": 38.92479816666667, "lon": -77.02722983333334, "rental_uris": {"android": "https://dc.lft.to/lastmile_qr_scan", "ios": "https://dc.lft.to/lastmile_qr_scan"}, "is_disabled": 0, "fusion_lat": 0.0, "name": "d7d6b1d4c83b360f8bc423de27c13f15", "fusion_lon": 0.0}, {"is_reserved": 0, "type": "electric_scooter", "bike_id": "64a1135599dc76b6502d04ed16b476d8", "lat": 38.9085415, "lon": -77.0205535, "rental_uris": {"android": "https://dc.lft.to/lastmile_qr_scan", "ios": "https://dc.lft.to/lastmile_qr_scan"}, "is_disabled": 0, "fusion_lat": 0.0, "name": "64a1135599dc76b6502d04ed16b476d8", "fusion_lon": 0.0}, {"is_reserved": 0, "type": "electric_scooter", "bike_id": "9d6ac90929c2a098aeb789970ce419b6", "lat": 38.931095166666665, "lon": -77.02393966666666, "rental_uris": {"android": "https://dc.lft.to/lastmile_qr_scan", "ios": "https://dc.lft.to/lastmile_qr_scan"}, "is_disabled": 0, "fusion_lat": 0.0, "name": "9d6ac90929c2a098aeb789970ce419b6", "fusion_lon": 0.0}, {"is_reserved": 0, "type": "electric_scooter", "bike_id": "847d9cbf1c395f2f7bfe8113ff9d0da8", "lat": 38.9293525, "lon": -77.03747383333334, "rental_uris": {"android": "https://dc.lft.to/lastmile_qr_scan", "ios": "https://dc.lft.to/lastmile_qr_scan"}, "is_disabled": 0, "fusion_lat": 0.0, "name": "847d9cbf1c395f2f7bfe8113ff9d0da8", "fusion_lon": 0.0}, {"is_reserved": 0, "type": "electric_scooter", "bike_id": "2c59a5ac6cc78663e369569f40a445ce", "lat": 38.887806499999996, "lon": -77.00342633333334, "rental_uris": {"android": "https://dc.lft.to/lastmile_qr_scan", "ios": "https://dc.lft.to/lastmile_qr_scan"}, "is_disabled": 0, "fusion_lat": 0.0, "name": "2c59a5ac6cc78663e369569f40a445ce", "fusion_lon": 0.0}, {"is_reserved": 0, "type": "electric_scooter", "bike_id": "f4580c870c0c1e9383902bf8903dec07", "lat": 38.916300166666666, "lon": -77.03208733333334, "rental_uris": {"android": "https://dc.lft.to/lastmile_qr_scan", "ios": "https://dc.lft.to/lastmile_qr_scan"}, "is_disabled": 0, "fusion_lat": 0.0, "name": "f4580c870c0c1e9383902bf8903dec07", "fusion_lon": 0.0}, {"is_reserved": 0, "type": "electric_scooter", "bike_id": "96e1dbf7c72c47fe0dcbbe1e352b851d", "lat": 38.899877333333336, "lon": -77.02709716666666, "rental_uris": {"android": "https://dc.lft.to/lastmile_qr_scan", "ios": "https://dc.lft.to/lastmile_qr_scan"}, "is_disabled": 0, "fusion_lat": 0.0, "name": "96e1dbf7c72c47fe0dcbbe1e352b851d", "fusion_lon": 0.0}, {"is_reserved": 0, "type": "electric_bike", "bike_id": "abf8c288c322bb23d92d3041f72b36b4", "lat": 38.90304533333333, "lon": -76.98439666666667, "rental_uris": {"android": "https://dc.lft.to/lastmile_qr_scan", "ios": "https://dc.lft.to/lastmile_qr_scan"}, "is_disabled": 0, "fusion_lat": 0.0, "name": "abf8c288c322bb23d92d3041f72b36b4", "fusion_lon": 0.0}, {"is_reserved": 0, "type": "electric_scooter", "bike_id": "4007c6e6e90c945803252ae661754c98", "lat": 38.9044465, "lon": -77.0628895, "rental_uris": {"android": "https://dc.lft.to/lastmile_qr_scan", "ios": "https://dc.lft.to/lastmile_qr_scan"}, "is_disabled": 0, "fusion_lat": 0.0, "name": "4007c6e6e90c945803252ae661754c98", "fusion_lon": 0.0}, {"is_reserved": 0, "type": "electric_scooter", "bike_id": "d4a415d5095b62e36a90bb376f811cfa", "lat": 38.905202833333334, "lon": -77.00193716666666, "rental_uris": {"android": "https://dc.lft.to/lastmile_qr_scan", "ios": "https://dc.lft.to/lastmile_qr_scan"}, "is_disabled": 0, "fusion_lat": 0.0, "name": "d4a415d5095b62e36a90bb376f811cfa", "fusion_lon": 0.0}, {"is_reserved": 0, "type": "electric_scooter", "bike_id": "356a8e9df1b822a97a54d4619b904213", "lat": 38.924819, "lon": -77.02141633333333, "rental_uris": {"android": "https://dc.lft.to/lastmile_qr_scan", "ios": "https://dc.lft.to/lastmile_qr_scan"}, "is_disabled": 0, "fusion_lat": 0.0, "name": "356a8e9df1b822a97a54d4619b904213", "fusion_lon": 0.0}, {"is_reserved": 0, "type": "electric_scooter", "bike_id": "b33a80e15122349dfeb306bb702c5b69", "lat": 38.923384666666664, "lon": -77.019038, "rental_uris": {"android": "https://dc.lft.to/lastmile_qr_scan", "ios": "https://dc.lft.to/lastmile_qr_scan"}, "is_disabled": 0, "fusion_lat": 0.0, "name": "b33a80e15122349dfeb306bb702c5b69", "fusion_lon": 0.0}, {"is_reserved": 0, "type": "electric_scooter", "bike_id": "1d3af19bf402e1f44954c969b3c615d5", "lat": 38.89277933333334, "lon": -76.92925766666667, "rental_uris": {"android": "https://dc.lft.to/lastmile_qr_scan", "ios": "https://dc.lft.to/lastmile_qr_scan"}, "is_disabled": 0, "fusion_lat": 0.0, "name": "1d3af19bf402e1f44954c969b3c615d5", "fusion_lon": 0.0}, {"is_reserved": 0, "type": "electric_scooter", "bike_id": "d1a879217c50fa396f279eac657de567", "lat": 38.893593333333335, "lon": -77.02822216666667, "rental_uris": {"android": "https://dc.lft.to/lastmile_qr_scan", "ios": "https://dc.lft.to/lastmile_qr_scan"}, "is_disabled": 0, "fusion_lat": 0.0, "name": "d1a879217c50fa396f279eac657de567", "fusion_lon": 0.0}, {"is_reserved": 0, "type": "electric_scooter", "bike_id": "ad7d42763d8726bfe93bc03803cdb098", "lat": 38.872981833333334, "lon": -77.01558683333333, "rental_uris": {"android": "https://dc.lft.to/lastmile_qr_scan", "ios": "https://dc.lft.to/lastmile_qr_scan"}, "is_disabled": 0, "fusion_lat": 0.0, "name": "ad7d42763d8726bfe93bc03803cdb098", "fusion_lon": 0.0}, {"is_reserved": 0, "type": "electric_scooter", "bike_id": "c8b2f58e98e06ae2658bc95553903152", "lat": 38.91793883333333, "lon": -77.04024283333334, "rental_uris": {"android": "https://dc.lft.to/lastmile_qr_scan", "ios": "https://dc.lft.to/lastmile_qr_scan"}, "is_disabled": 0, "fusion_lat": 0.0, "name": "c8b2f58e98e06ae2658bc95553903152", "fusion_lon": 0.0}, {"is_reserved": 0, "type": "electric_scooter", "bike_id": "05002f20f44c9f0d577bb60c0ac7738e", "lat": 38.924242, "lon": -77.04462683333334, "rental_uris": {"android": "https://dc.lft.to/lastmile_qr_scan", "ios": "https://dc.lft.to/lastmile_qr_scan"}, "is_disabled": 0, "fusion_lat": 0.0, "name": "05002f20f44c9f0d577bb60c0ac7738e", "fusion_lon": 0.0}, {"is_reserved": 0, "type": "electric_scooter", "bike_id": "ae1e059adefef536b60c34f7eb09a8e1", "lat": 38.92271933333333, "lon": -77.0296925, "rental_uris": {"android": "https://dc.lft.to/lastmile_qr_scan", "ios": "https://dc.lft.to/lastmile_qr_scan"}, "is_disabled": 0, "fusion_lat": 0.0, "name": "ae1e059adefef536b60c34f7eb09a8e1", "fusion_lon": 0.0}, {"is_reserved": 0, "type": "electric_scooter", "bike_id": "3226eaa81a3889ce874c2688d8b9c43b", "lat": 38.92096633333333, "lon": -77.03274266666666, "rental_uris": {"android": "https://dc.lft.to/lastmile_qr_scan", "ios": "https://dc.lft.to/lastmile_qr_scan"}, "is_disabled": 0, "fusion_lat": 0.0, "name": "3226eaa81a3889ce874c2688d8b9c43b", "fusion_lon": 0.0}, {"is_reserved": 0, "type": "electric_scooter", "bike_id": "2dcfe8be0fdab7784f3ebc2694044eeb", "lat": 38.917102666666665, "lon": -77.03344683333333, "rental_uris": {"android": "https://dc.lft.to/lastmile_qr_scan", "ios": "https://dc.lft.to/lastmile_qr_scan"}, "is_disabled": 0, "fusion_lat": 0.0, "name": "2dcfe8be0fdab7784f3ebc2694044eeb", "fusion_lon": 0.0}, {"is_reserved": 0, "type": "electric_scooter", "bike_id": "a29e76e2f66b8ff18f2bc2df6f37867c", "lat": 38.91837266666667, "lon": -77.04170283333333, "rental_uris": {"android": "https://dc.lft.to/lastmile_qr_scan", "ios": "https://dc.lft.to/lastmile_qr_scan"}, "is_disabled": 0, "fusion_lat": 0.0, "name": "a29e76e2f66b8ff18f2bc2df6f37867c", "fusion_lon": 0.0}, {"is_reserved": 0, "type": "electric_scooter", "bike_id": "281f53ca4172be570a7a996f49120c08", "lat": 38.910297166666666, "lon": -77.034449, "rental_uris": {"android": "https://dc.lft.to/lastmile_qr_scan", "ios": "https://dc.lft.to/lastmile_qr_scan"}, "is_disabled": 0, "fusion_lat": 0.0, "name": "281f53ca4172be570a7a996f49120c08", "fusion_lon": 0.0}, {"is_reserved": 0, "type": "electric_scooter", "bike_id": "4166d1140359439e34aa387c46d41ae7", "lat": 38.92448433333333, "lon": -77.02026416666666, "rental_uris": {"android": "https://dc.lft.to/lastmile_qr_scan", "ios": "https://dc.lft.to/lastmile_qr_scan"}, "is_disabled": 0, "fusion_lat": 0.0, "name": "4166d1140359439e34aa387c46d41ae7", "fusion_lon": 0.0}, {"is_reserved": 0, "type": "electric_scooter", "bike_id": "aaf8e0149f2ce2d717c02de1ff72aa9f", "lat": 38.8980615, "lon": -76.99504016666667, "rental_uris": {"android": "https://dc.lft.to/lastmile_qr_scan", "ios": "https://dc.lft.to/lastmile_qr_scan"}, "is_disabled": 0, "fusion_lat": 0.0, "name": "aaf8e0149f2ce2d717c02de1ff72aa9f", "fusion_lon": 0.0}, {"is_reserved": 0, "type": "electric_bike", "bike_id": "49703ad37024afe3d0e1bfd9d707748a", "lat": 38.958378333333336, "lon": -76.98608516666667, "rental_uris": {"android": "https://dc.lft.to/lastmile_qr_scan", "ios": "https://dc.lft.to/lastmile_qr_scan"}, "is_disabled": 0, "fusion_lat": 0.0, "name": "49703ad37024afe3d0e1bfd9d707748a", "fusion_lon": 0.0}, {"is_reserved": 0, "type": "electric_scooter", "bike_id": "d506706de8b2eaa1e7d55948aa362877", "lat": 38.9035875, "lon": -77.03492283333334, "rental_uris": {"android": "https://dc.lft.to/lastmile_qr_scan", "ios": "https://dc.lft.to/lastmile_qr_scan"}, "is_disabled": 0, "fusion_lat": 0.0, "name": "d506706de8b2eaa1e7d55948aa362877", "fusion_lon": 0.0}, {"is_reserved": 0, "type": "electric_bike", "bike_id": "a76262f2274f7a4d1291c83d4bfc9b30", "lat": 38.918596666666666, "lon": -76.960857, "rental_uris": {"android": "https://dc.lft.to/lastmile_qr_scan", "ios": "https://dc.lft.to/lastmile_qr_scan"}, "is_disabled": 0, "fusion_lat": 0.0, "name": "a76262f2274f7a4d1291c83d4bfc9b30", "fusion_lon": 0.0}, {"is_reserved": 0, "type": "electric_scooter", "bike_id": "256745d46b6c17cbf4e11fcb0f179e37", "lat": 38.8960125, "lon": -76.92984683333333, "rental_uris": {"android": "https://dc.lft.to/lastmile_qr_scan", "ios": "https://dc.lft.to/lastmile_qr_scan"}, "is_disabled": 0, "fusion_lat": 0.0, "name": "256745d46b6c17cbf4e11fcb0f179e37", "fusion_lon": 0.0}, {"is_reserved": 0, "type": "electric_scooter", "bike_id": "903c1caa82b43ac0c9d459e08162660d", "lat": 38.90604066666667, "lon": -77.05703716666666, "rental_uris": {"android": "https://dc.lft.to/lastmile_qr_scan", "ios": "https://dc.lft.to/lastmile_qr_scan"}, "is_disabled": 0, "fusion_lat": 0.0, "name": "903c1caa82b43ac0c9d459e08162660d", "fusion_lon": 0.0}, {"is_reserved": 0, "type": "electric_scooter", "bike_id": "bd8054de28a2bdd60cb853a2fb8ea55d", "lat": 38.90250616666667, "lon": -77.02068816666667, "rental_uris": {"android": "https://dc.lft.to/lastmile_qr_scan", "ios": "https://dc.lft.to/lastmile_qr_scan"}, "is_disabled": 0, "fusion_lat": 0.0, "name": "bd8054de28a2bdd60cb853a2fb8ea55d", "fusion_lon": 0.0}, {"is_reserved": 0, "type": "electric_scooter", "bike_id": "549a6401e91500118940624bfff076b2", "lat": 38.915093166666665, "lon": -77.00338366666666, "rental_uris": {"android": "https://dc.lft.to/lastmile_qr_scan", "ios": "https://dc.lft.to/lastmile_qr_scan"}, "is_disabled": 0, "fusion_lat": 0.0, "name": "549a6401e91500118940624bfff076b2", "fusion_lon": 0.0}, {"is_reserved": 0, "type": "electric_scooter", "bike_id": "d34023f8bc1c38bd1bde7c11f73fa246", "lat": 38.92701666666667, "lon": -77.0228135, "rental_uris": {"android": "https://dc.lft.to/lastmile_qr_scan", "ios": "https://dc.lft.to/lastmile_qr_scan"}, "is_disabled": 0, "fusion_lat": 0.0, "name": "d34023f8bc1c38bd1bde7c11f73fa246", "fusion_lon": 0.0}, {"is_reserved": 0, "type": "electric_scooter", "bike_id": "ee8814279524b340d78f41bb2fa5af29", "lat": 38.920727, "lon": -77.02219133333334, "rental_uris": {"android": "https://dc.lft.to/lastmile_qr_scan", "ios": "https://dc.lft.to/lastmile_qr_scan"}, "is_disabled": 0, "fusion_lat": 0.0, "name": "ee8814279524b340d78f41bb2fa5af29", "fusion_lon": 0.0}, {"is_reserved": 0, "type": "electric_scooter", "bike_id": "d13d0b72ff9741a7f2ea6b037dc24d6c", "lat": 38.899608666666666, "lon": -77.02620966666667, "rental_uris": {"android": "https://dc.lft.to/lastmile_qr_scan", "ios": "https://dc.lft.to/lastmile_qr_scan"}, "is_disabled": 0, "fusion_lat": 0.0, "name": "d13d0b72ff9741a7f2ea6b037dc24d6c", "fusion_lon": 0.0}, {"is_reserved": 0, "type": "electric_scooter", "bike_id": "10d44544e838af9730d69e1014b13258", "lat": 38.9180685, "lon": -77.0249355, "rental_uris": {"android": "https://dc.lft.to/lastmile_qr_scan", "ios": "https://dc.lft.to/lastmile_qr_scan"}, "is_disabled": 0, "fusion_lat": 0.0, "name": "10d44544e838af9730d69e1014b13258", "fusion_lon": 0.0}, {"is_reserved": 0, "type": "electric_scooter", "bike_id": "3f2ea72cafd48f909eb0c57ecdcece7e", "lat": 38.899059333333334, "lon": -76.93369283333334, "rental_uris": {"android": "https://dc.lft.to/lastmile_qr_scan", "ios": "https://dc.lft.to/lastmile_qr_scan"}, "is_disabled": 0, "fusion_lat": 0.0, "name": "3f2ea72cafd48f909eb0c57ecdcece7e", "fusion_lon": 0.0}, {"is_reserved": 0, "type": "electric_scooter", "bike_id": "ae7b35b86a5e9bddfe7549cc44dfe420", "lat": 38.903012, "lon": -77.00205533333333, "rental_uris": {"android": "https://dc.lft.to/lastmile_qr_scan", "ios": "https://dc.lft.to/lastmile_qr_scan"}, "is_disabled": 0, "fusion_lat": 0.0, "name": "ae7b35b86a5e9bddfe7549cc44dfe420", "fusion_lon": 0.0}, {"is_reserved": 0, "type": "electric_scooter", "bike_id": "7e8855849bae3cccbcc30e6cde7e7c2d", "lat": 38.90043816666667, "lon": -76.991561, "rental_uris": {"android": "https://dc.lft.to/lastmile_qr_scan", "ios": "https://dc.lft.to/lastmile_qr_scan"}, "is_disabled": 0, "fusion_lat": 0.0, "name": "7e8855849bae3cccbcc30e6cde7e7c2d", "fusion_lon": 0.0}, {"is_reserved": 0, "type": "electric_scooter", "bike_id": "c1aad2661c9d247126f340524b795cbb", "lat": 38.9276175, "lon": -77.06887016666667, "rental_uris": {"android": "https://dc.lft.to/lastmile_qr_scan", "ios": "https://dc.lft.to/lastmile_qr_scan"}, "is_disabled": 0, "fusion_lat": 0.0, "name": "c1aad2661c9d247126f340524b795cbb", "fusion_lon": 0.0}, {"is_reserved": 0, "type": "electric_scooter", "bike_id": "c122e32ac52581a6140400246b36e35b", "lat": 38.9465865, "lon": -77.03282383333334, "rental_uris": {"android": "https://dc.lft.to/lastmile_qr_scan", "ios": "https://dc.lft.to/lastmile_qr_scan"}, "is_disabled": 0, "fusion_lat": 0.0, "name": "c122e32ac52581a6140400246b36e35b", "fusion_lon": 0.0}, {"is_reserved": 0, "type": "electric_scooter", "bike_id": "f638bcd29552b2c5fdf5bc4e9af669d4", "lat": 38.91725483333333, "lon": -77.03192066666666, "rental_uris": {"android": "https://dc.lft.to/lastmile_qr_scan", "ios": "https://dc.lft.to/lastmile_qr_scan"}, "is_disabled": 0, "fusion_lat": 0.0, "name": "f638bcd29552b2c5fdf5bc4e9af669d4", "fusion_lon": 0.0}, {"is_reserved": 0, "type": "electric_scooter", "bike_id": "874be4a63281f98247a15428d606d0c3", "lat": 38.93903433333333, "lon": -77.033277, "rental_uris": {"android": "https://dc.lft.to/lastmile_qr_scan", "ios": "https://dc.lft.to/lastmile_qr_scan"}, "is_disabled": 0, "fusion_lat": 0.0, "name": "874be4a63281f98247a15428d606d0c3", "fusion_lon": 0.0}, {"is_reserved": 0, "type": "electric_scooter", "bike_id": "d426daee7295d8de3eaa459a8c45ec4d", "lat": 38.89954933333333, "lon": -77.02692033333334, "rental_uris": {"android": "https://dc.lft.to/lastmile_qr_scan", "ios": "https://dc.lft.to/lastmile_qr_scan"}, "is_disabled": 0, "fusion_lat": 0.0, "name": "d426daee7295d8de3eaa459a8c45ec4d", "fusion_lon": 0.0}, {"is_reserved": 0, "type": "electric_bike", "bike_id": "c6f8af9991ead9e86312345ef2f0dfb0", "lat": 38.839348, "lon": -77.07902116666666, "rental_uris": {"android": "https://dc.lft.to/lastmile_qr_scan", "ios": "https://dc.lft.to/lastmile_qr_scan"}, "is_disabled": 0, "fusion_lat": 0.0, "name": "c6f8af9991ead9e86312345ef2f0dfb0", "fusion_lon": 0.0}, {"is_reserved": 0, "type": "electric_scooter", "bike_id": "6ac11b9822b1d6e40f51a32889d0ec41", "lat": 38.9155605, "lon": -77.031036, "rental_uris": {"android": "https://dc.lft.to/lastmile_qr_scan", "ios": "https://dc.lft.to/lastmile_qr_scan"}, "is_disabled": 0, "fusion_lat": 0.0, "name": "6ac11b9822b1d6e40f51a32889d0ec41", "fusion_lon": 0.0}, {"is_reserved": 0, "type": "electric_scooter", "bike_id": "d209f3e4ef06d925ebc0e971befaffa2", "lat": 38.9340385, "lon": -77.0398805, "rental_uris": {"android": "https://dc.lft.to/lastmile_qr_scan", "ios": "https://dc.lft.to/lastmile_qr_scan"}, "is_disabled": 0, "fusion_lat": 0.0, "name": "d209f3e4ef06d925ebc0e971befaffa2", "fusion_lon": 0.0}, {"is_reserved": 0, "type": "electric_scooter", "bike_id": "b7ec31dd1eb55129de8c671bd5d12dda", "lat": 38.91694616666667, "lon": -77.028844, "rental_uris": {"android": "https://dc.lft.to/lastmile_qr_scan", "ios": "https://dc.lft.to/lastmile_qr_scan"}, "is_disabled": 0, "fusion_lat": 0.0, "name": "b7ec31dd1eb55129de8c671bd5d12dda", "fusion_lon": 0.0}, {"is_reserved": 0, "type": "electric_scooter", "bike_id": "82337b1dc5c2f824536d61f07dda1c63", "lat": 38.89229183333333, "lon": -77.04652883333333, "rental_uris": {"android": "https://dc.lft.to/lastmile_qr_scan", "ios": "https://dc.lft.to/lastmile_qr_scan"}, "is_disabled": 0, "fusion_lat": 0.0, "name": "82337b1dc5c2f824536d61f07dda1c63", "fusion_lon": 0.0}, {"is_reserved": 0, "type": "electric_scooter", "bike_id": "0d3746c9f93024c4ffbfb10784e147c6", "lat": 38.920611, "lon": -77.0319535, "rental_uris": {"android": "https://dc.lft.to/lastmile_qr_scan", "ios": "https://dc.lft.to/lastmile_qr_scan"}, "is_disabled": 0, "fusion_lat": 0.0, "name": "0d3746c9f93024c4ffbfb10784e147c6", "fusion_lon": 0.0}, {"is_reserved": 0, "type": "electric_scooter", "bike_id": "f05d4348b4159f106920392544422ad3", "lat": 38.8872625, "lon": -76.983799, "rental_uris": {"android": "https://dc.lft.to/lastmile_qr_scan", "ios": "https://dc.lft.to/lastmile_qr_scan"}, "is_disabled": 0, "fusion_lat": 0.0, "name": "f05d4348b4159f106920392544422ad3", "fusion_lon": 0.0}, {"is_reserved": 0, "type": "electric_scooter", "bike_id": "ebaddff18dfdeb940da0c5a4d5b7c74f", "lat": 38.913296, "lon": -77.0455025, "rental_uris": {"android": "https://dc.lft.to/lastmile_qr_scan", "ios": "https://dc.lft.to/lastmile_qr_scan"}, "is_disabled": 0, "fusion_lat": 0.0, "name": "ebaddff18dfdeb940da0c5a4d5b7c74f", "fusion_lon": 0.0}, {"is_reserved": 0, "type": "electric_scooter", "bike_id": "e22637435ef66986872bcfebb79340ce", "lat": 38.9021125, "lon": -77.02204516666667, "rental_uris": {"android": "https://dc.lft.to/lastmile_qr_scan", "ios": "https://dc.lft.to/lastmile_qr_scan"}, "is_disabled": 0, "fusion_lat": 0.0, "name": "e22637435ef66986872bcfebb79340ce", "fusion_lon": 0.0}, {"is_reserved": 0, "type": "electric_scooter", "bike_id": "65a5d9d172a65e6050995f8ddc17f2d7", "lat": 38.9172975, "lon": -77.00206516666667, "rental_uris": {"android": "https://dc.lft.to/lastmile_qr_scan", "ios": "https://dc.lft.to/lastmile_qr_scan"}, "is_disabled": 0, "fusion_lat": 0.0, "name": "65a5d9d172a65e6050995f8ddc17f2d7", "fusion_lon": 0.0}, {"is_reserved": 0, "type": "electric_bike", "bike_id": "6d8cb4a49a1e83327924bd2be8cddc62", "lat": 38.99521983333333, "lon": -77.07475383333333, "rental_uris": {"android": "https://dc.lft.to/lastmile_qr_scan", "ios": "https://dc.lft.to/lastmile_qr_scan"}, "is_disabled": 0, "fusion_lat": 0.0, "name": "6d8cb4a49a1e83327924bd2be8cddc62", "fusion_lon": 0.0}, {"is_reserved": 0, "type": "electric_scooter", "bike_id": "d50d9e869dcbf25b6aefc349316d654a", "lat": 38.92398683333333, "lon": -77.05058633333333, "rental_uris": {"android": "https://dc.lft.to/lastmile_qr_scan", "ios": "https://dc.lft.to/lastmile_qr_scan"}, "is_disabled": 0, "fusion_lat": 0.0, "name": "d50d9e869dcbf25b6aefc349316d654a", "fusion_lon": 0.0}, {"is_reserved": 0, "type": "electric_scooter", "bike_id": "f00a4e3b9cb43112e23f78694e8e09e7", "lat": 38.926163, "lon": -77.03951816666667, "rental_uris": {"android": "https://dc.lft.to/lastmile_qr_scan", "ios": "https://dc.lft.to/lastmile_qr_scan"}, "is_disabled": 0, "fusion_lat": 0.0, "name": "f00a4e3b9cb43112e23f78694e8e09e7", "fusion_lon": 0.0}, {"is_reserved": 0, "type": "electric_scooter", "bike_id": "3e77f5c3d047d2386d94a191d08d4c88", "lat": 38.9118795, "lon": -77.00444583333334, "rental_uris": {"android": "https://dc.lft.to/lastmile_qr_scan", "ios": "https://dc.lft.to/lastmile_qr_scan"}, "is_disabled": 0, "fusion_lat": 0.0, "name": "3e77f5c3d047d2386d94a191d08d4c88", "fusion_lon": 0.0}, {"is_reserved": 0, "type": "electric_scooter", "bike_id": "ba7aefedc8099989581481dad2adf48b", "lat": 38.9526675, "lon": -77.02395916666667, "rental_uris": {"android": "https://dc.lft.to/lastmile_qr_scan", "ios": "https://dc.lft.to/lastmile_qr_scan"}, "is_disabled": 0, "fusion_lat": 0.0, "name": "ba7aefedc8099989581481dad2adf48b", "fusion_lon": 0.0}, {"is_reserved": 0, "type": "electric_scooter", "bike_id": "2172fff166f0012d956119d284cf4717", "lat": 38.9065405, "lon": -77.008999, "rental_uris": {"android": "https://dc.lft.to/lastmile_qr_scan", "ios": "https://dc.lft.to/lastmile_qr_scan"}, "is_disabled": 0, "fusion_lat": 0.0, "name": "2172fff166f0012d956119d284cf4717", "fusion_lon": 0.0}, {"is_reserved": 0, "type": "electric_scooter", "bike_id": "adb3a7711dcb6d4f4b41312d59cc2d08", "lat": 38.90267816666667, "lon": -77.0599285, "rental_uris": {"android": "https://dc.lft.to/lastmile_qr_scan", "ios": "https://dc.lft.to/lastmile_qr_scan"}, "is_disabled": 0, "fusion_lat": 0.0, "name": "adb3a7711dcb6d4f4b41312d59cc2d08", "fusion_lon": 0.0}, {"is_reserved": 0, "type": "electric_scooter", "bike_id": "ed1a319783052ca073f4a1e6e89c5532", "lat": 38.95189383333334, "lon": -77.02612133333334, "rental_uris": {"android": "https://dc.lft.to/lastmile_qr_scan", "ios": "https://dc.lft.to/lastmile_qr_scan"}, "is_disabled": 0, "fusion_lat": 0.0, "name": "ed1a319783052ca073f4a1e6e89c5532", "fusion_lon": 0.0}, {"is_reserved": 0, "type": "electric_scooter", "bike_id": "175779e5374070095f6d81ff5330ed0f", "lat": 38.9201385, "lon": -77.02949183333334, "rental_uris": {"android": "https://dc.lft.to/lastmile_qr_scan", "ios": "https://dc.lft.to/lastmile_qr_scan"}, "is_disabled": 0, "fusion_lat": 0.0, "name": "175779e5374070095f6d81ff5330ed0f", "fusion_lon": 0.0}, {"is_reserved": 0, "type": "electric_scooter", "bike_id": "32e79094f2d26670b6eada5895f564dd", "lat": 38.890104, "lon": -77.033203, "rental_uris": {"android": "https://dc.lft.to/lastmile_qr_scan", "ios": "https://dc.lft.to/lastmile_qr_scan"}, "is_disabled": 0, "fusion_lat": 0.0, "name": "32e79094f2d26670b6eada5895f564dd", "fusion_lon": 0.0}, {"is_reserved": 0, "type": "electric_scooter", "bike_id": "c9bf95470725f25e1f97352748f1b2fe", "lat": 38.89604383333333, "lon": -77.04700783333334, "rental_uris": {"android": "https://dc.lft.to/lastmile_qr_scan", "ios": "https://dc.lft.to/lastmile_qr_scan"}, "is_disabled": 0, "fusion_lat": 0.0, "name": "c9bf95470725f25e1f97352748f1b2fe", "fusion_lon": 0.0}, {"is_reserved": 0, "type": "electric_scooter", "bike_id": "4cee3a28d8d70dcd431c663c3202b3b7", "lat": 38.92016983333333, "lon": -77.03111516666667, "rental_uris": {"android": "https://dc.lft.to/lastmile_qr_scan", "ios": "https://dc.lft.to/lastmile_qr_scan"}, "is_disabled": 0, "fusion_lat": 0.0, "name": "4cee3a28d8d70dcd431c663c3202b3b7", "fusion_lon": 0.0}, {"is_reserved": 0, "type": "electric_scooter", "bike_id": "3974e49be9cbaf6ca81d263a37a98b78", "lat": 38.89903266666666, "lon": -77.02174883333333, "rental_uris": {"android": "https://dc.lft.to/lastmile_qr_scan", "ios": "https://dc.lft.to/lastmile_qr_scan"}, "is_disabled": 0, "fusion_lat": 0.0, "name": "3974e49be9cbaf6ca81d263a37a98b78", "fusion_lon": 0.0}, {"is_reserved": 0, "type": "electric_scooter", "bike_id": "8227a5b16b789077889c03a32b8ead3e", "lat": 38.92111466666667, "lon": -77.04188333333333, "rental_uris": {"android": "https://dc.lft.to/lastmile_qr_scan", "ios": "https://dc.lft.to/lastmile_qr_scan"}, "is_disabled": 0, "fusion_lat": 0.0, "name": "8227a5b16b789077889c03a32b8ead3e", "fusion_lon": 0.0}, {"is_reserved": 0, "type": "electric_scooter", "bike_id": "5f7df8a303f66afc989c0e731fc25774", "lat": 38.89868716666667, "lon": -76.94666433333333, "rental_uris": {"android": "https://dc.lft.to/lastmile_qr_scan", "ios": "https://dc.lft.to/lastmile_qr_scan"}, "is_disabled": 0, "fusion_lat": 0.0, "name": "5f7df8a303f66afc989c0e731fc25774", "fusion_lon": 0.0}, {"is_reserved": 0, "type": "electric_scooter", "bike_id": "f3c2da4741e17157ae8c5cce6b9efb10", "lat": 38.901616, "lon": -77.025893, "rental_uris": {"android": "https://dc.lft.to/lastmile_qr_scan", "ios": "https://dc.lft.to/lastmile_qr_scan"}, "is_disabled": 0, "fusion_lat": 0.0, "name": "f3c2da4741e17157ae8c5cce6b9efb10", "fusion_lon": 0.0}, {"is_reserved": 0, "type": "electric_scooter", "bike_id": "33a88cc0e8da93a5eb386a8320bf5a65", "lat": 38.91777116666667, "lon": -77.0322065, "rental_uris": {"android": "https://dc.lft.to/lastmile_qr_scan", "ios": "https://dc.lft.to/lastmile_qr_scan"}, "is_disabled": 0, "fusion_lat": 0.0, "name": "33a88cc0e8da93a5eb386a8320bf5a65", "fusion_lon": 0.0}, {"is_reserved": 0, "type": "electric_scooter", "bike_id": "c758c94edecc26049ae38d8a81af4359", "lat": 38.9134525, "lon": -77.04233933333333, "rental_uris": {"android": "https://dc.lft.to/lastmile_qr_scan", "ios": "https://dc.lft.to/lastmile_qr_scan"}, "is_disabled": 0, "fusion_lat": 0.0, "name": "c758c94edecc26049ae38d8a81af4359", "fusion_lon": 0.0}, {"is_reserved": 0, "type": "electric_scooter", "bike_id": "f1f302983203de8d25e4085ee3786d06", "lat": 38.92098883333333, "lon": -77.01772483333333, "rental_uris": {"android": "https://dc.lft.to/lastmile_qr_scan", "ios": "https://dc.lft.to/lastmile_qr_scan"}, "is_disabled": 0, "fusion_lat": 0.0, "name": "f1f302983203de8d25e4085ee3786d06", "fusion_lon": 0.0}, {"is_reserved": 0, "type": "electric_scooter", "bike_id": "705237cbe7fd4d6be22656764d13b561", "lat": 38.897294, "lon": -76.995133, "rental_uris": {"android": "https://dc.lft.to/lastmile_qr_scan", "ios": "https://dc.lft.to/lastmile_qr_scan"}, "is_disabled": 0, "fusion_lat": 0.0, "name": "705237cbe7fd4d6be22656764d13b561", "fusion_lon": 0.0}, {"is_reserved": 0, "type": "electric_bike", "bike_id": "a9be24b5360f3591ee898a852914d2d8", "lat": 38.82430333333333, "lon": -77.12040483333334, "rental_uris": {"android": "https://dc.lft.to/lastmile_qr_scan", "ios": "https://dc.lft.to/lastmile_qr_scan"}, "is_disabled": 0, "fusion_lat": 0.0, "name": "a9be24b5360f3591ee898a852914d2d8", "fusion_lon": 0.0}, {"is_reserved": 0, "type": "electric_scooter", "bike_id": "b5d64e00d5d791560d27563a53fb6d75", "lat": 38.87487616666667, "lon": -77.00935116666666, "rental_uris": {"android": "https://dc.lft.to/lastmile_qr_scan", "ios": "https://dc.lft.to/lastmile_qr_scan"}, "is_disabled": 0, "fusion_lat": 0.0, "name": "b5d64e00d5d791560d27563a53fb6d75", "fusion_lon": 0.0}, {"is_reserved": 0, "type": "electric_scooter", "bike_id": "4d1a97def996bb4b6aa2386709f57b3e", "lat": 38.916943333333336, "lon": -77.03774983333334, "rental_uris": {"android": "https://dc.lft.to/lastmile_qr_scan", "ios": "https://dc.lft.to/lastmile_qr_scan"}, "is_disabled": 0, "fusion_lat": 0.0, "name": "4d1a97def996bb4b6aa2386709f57b3e", "fusion_lon": 0.0}, {"is_reserved": 0, "type": "electric_bike", "bike_id": "abde0a9eae216d10ed62a10df11aa9de", "lat": 38.84779866666667, "lon": -77.00521683333334, "rental_uris": {"android": "https://dc.lft.to/lastmile_qr_scan", "ios": "https://dc.lft.to/lastmile_qr_scan"}, "is_disabled": 0, "fusion_lat": 0.0, "name": "abde0a9eae216d10ed62a10df11aa9de", "fusion_lon": 0.0}, {"is_reserved": 0, "type": "electric_scooter", "bike_id": "7ec0d6682a488764ef7143e175154398", "lat": 38.89851383333333, "lon": -77.02851533333333, "rental_uris": {"android": "https://dc.lft.to/lastmile_qr_scan", "ios": "https://dc.lft.to/lastmile_qr_scan"}, "is_disabled": 0, "fusion_lat": 0.0, "name": "7ec0d6682a488764ef7143e175154398", "fusion_lon": 0.0}, {"is_reserved": 0, "type": "electric_bike", "bike_id": "aea8d77562ed63d119157e6acaf6dcc8", "lat": 38.9463865, "lon": -77.01606283333334, "rental_uris": {"android": "https://dc.lft.to/lastmile_qr_scan", "ios": "https://dc.lft.to/lastmile_qr_scan"}, "is_disabled": 0, "fusion_lat": 0.0, "name": "aea8d77562ed63d119157e6acaf6dcc8", "fusion_lon": 0.0}, {"is_reserved": 0, "type": "electric_scooter", "bike_id": "859d73bf655d74b537ae6bea1df2018f", "lat": 38.931884, "lon": -77.02560883333334, "rental_uris": {"android": "https://dc.lft.to/lastmile_qr_scan", "ios": "https://dc.lft.to/lastmile_qr_scan"}, "is_disabled": 0, "fusion_lat": 0.0, "name": "859d73bf655d74b537ae6bea1df2018f", "fusion_lon": 0.0}, {"is_reserved": 0, "type": "electric_bike", "bike_id": "dd030fd8b4a4835ea862a719b2c3481d", "lat": 38.8946445, "lon": -77.10365466666667, "rental_uris": {"android": "https://dc.lft.to/lastmile_qr_scan", "ios": "https://dc.lft.to/lastmile_qr_scan"}, "is_disabled": 0, "fusion_lat": 0.0, "name": "dd030fd8b4a4835ea862a719b2c3481d", "fusion_lon": 0.0}, {"is_reserved": 0, "type": "electric_scooter", "bike_id": "1ae1ce1f27078e015cdba703e031cbf6", "lat": 38.904504833333334, "lon": -76.99616166666667, "rental_uris": {"android": "https://dc.lft.to/lastmile_qr_scan", "ios": "https://dc.lft.to/lastmile_qr_scan"}, "is_disabled": 0, "fusion_lat": 0.0, "name": "1ae1ce1f27078e015cdba703e031cbf6", "fusion_lon": 0.0}, {"is_reserved": 0, "type": "electric_scooter", "bike_id": "3020159cfdc5d2c3bbfab7d4b9503f33", "lat": 38.85648916666667, "lon": -76.99679383333333, "rental_uris": {"android": "https://dc.lft.to/lastmile_qr_scan", "ios": "https://dc.lft.to/lastmile_qr_scan"}, "is_disabled": 0, "fusion_lat": 0.0, "name": "3020159cfdc5d2c3bbfab7d4b9503f33", "fusion_lon": 0.0}, {"is_reserved": 0, "type": "electric_scooter", "bike_id": "003cca29b7db544c52d2066b6cb8f608", "lat": 38.9010815, "lon": -76.98086383333333, "rental_uris": {"android": "https://dc.lft.to/lastmile_qr_scan", "ios": "https://dc.lft.to/lastmile_qr_scan"}, "is_disabled": 0, "fusion_lat": 0.0, "name": "003cca29b7db544c52d2066b6cb8f608", "fusion_lon": 0.0}, {"is_reserved": 0, "type": "electric_scooter", "bike_id": "f7dfc020bb4668ac6f8514818d569f87", "lat": 38.91286733333333, "lon": -77.07275416666667, "rental_uris": {"android": "https://dc.lft.to/lastmile_qr_scan", "ios": "https://dc.lft.to/lastmile_qr_scan"}, "is_disabled": 0, "fusion_lat": 0.0, "name": "f7dfc020bb4668ac6f8514818d569f87", "fusion_lon": 0.0}, {"is_reserved": 0, "type": "electric_scooter", "bike_id": "67379ddcf91fb87cbd87d04fa6b72563", "lat": 38.90029633333333, "lon": -76.99604783333334, "rental_uris": {"android": "https://dc.lft.to/lastmile_qr_scan", "ios": "https://dc.lft.to/lastmile_qr_scan"}, "is_disabled": 0, "fusion_lat": 0.0, "name": "67379ddcf91fb87cbd87d04fa6b72563", "fusion_lon": 0.0}, {"is_reserved": 0, "type": "electric_scooter", "bike_id": "1e0c49e0a31342401269424c7da589af", "lat": 38.907296333333335, "lon": -77.0702595, "rental_uris": {"android": "https://dc.lft.to/lastmile_qr_scan", "ios": "https://dc.lft.to/lastmile_qr_scan"}, "is_disabled": 0, "fusion_lat": 0.0, "name": "1e0c49e0a31342401269424c7da589af", "fusion_lon": 0.0}, {"is_reserved": 0, "type": "electric_scooter", "bike_id": "4e930f308caa65c1854b3e59220aa5f1", "lat": 38.88988116666667, "lon": -77.00313616666666, "rental_uris": {"android": "https://dc.lft.to/lastmile_qr_scan", "ios": "https://dc.lft.to/lastmile_qr_scan"}, "is_disabled": 0, "fusion_lat": 0.0, "name": "4e930f308caa65c1854b3e59220aa5f1", "fusion_lon": 0.0}, {"is_reserved": 0, "type": "electric_scooter", "bike_id": "68f99d559df2c8840c094bc68b2e35e1", "lat": 38.900887166666664, "lon": -77.01621316666666, "rental_uris": {"android": "https://dc.lft.to/lastmile_qr_scan", "ios": "https://dc.lft.to/lastmile_qr_scan"}, "is_disabled": 0, "fusion_lat": 0.0, "name": "68f99d559df2c8840c094bc68b2e35e1", "fusion_lon": 0.0}, {"is_reserved": 0, "type": "electric_scooter", "bike_id": "675b507c8ba54dc2f9135af61ac09af4", "lat": 38.93525, "lon": -77.01954133333334, "rental_uris": {"android": "https://dc.lft.to/lastmile_qr_scan", "ios": "https://dc.lft.to/lastmile_qr_scan"}, "is_disabled": 0, "fusion_lat": 0.0, "name": "675b507c8ba54dc2f9135af61ac09af4", "fusion_lon": 0.0}, {"is_reserved": 0, "type": "electric_scooter", "bike_id": "350145a7c1f4db839229205136b8a990", "lat": 38.89307633333333, "lon": -77.02204916666666, "rental_uris": {"android": "https://dc.lft.to/lastmile_qr_scan", "ios": "https://dc.lft.to/lastmile_qr_scan"}, "is_disabled": 0, "fusion_lat": 0.0, "name": "350145a7c1f4db839229205136b8a990", "fusion_lon": 0.0}, {"is_reserved": 0, "type": "electric_scooter", "bike_id": "a54f47f8fc37f5ac9e013fe2d56241bf", "lat": 38.92575316666667, "lon": -77.03098166666666, "rental_uris": {"android": "https://dc.lft.to/lastmile_qr_scan", "ios": "https://dc.lft.to/lastmile_qr_scan"}, "is_disabled": 0, "fusion_lat": 0.0, "name": "a54f47f8fc37f5ac9e013fe2d56241bf", "fusion_lon": 0.0}, {"is_reserved": 0, "type": "electric_scooter", "bike_id": "d52e5aa2284eadc61f59455cb59c0190", "lat": 38.90958066666666, "lon": -77.0363115, "rental_uris": {"android": "https://dc.lft.to/lastmile_qr_scan", "ios": "https://dc.lft.to/lastmile_qr_scan"}, "is_disabled": 0, "fusion_lat": 0.0, "name": "d52e5aa2284eadc61f59455cb59c0190", "fusion_lon": 0.0}, {"is_reserved": 0, "type": "electric_scooter", "bike_id": "cc49e37a787ac022ac9907bdc59eacab", "lat": 38.91975433333333, "lon": -77.00935866666667, "rental_uris": {"android": "https://dc.lft.to/lastmile_qr_scan", "ios": "https://dc.lft.to/lastmile_qr_scan"}, "is_disabled": 0, "fusion_lat": 0.0, "name": "cc49e37a787ac022ac9907bdc59eacab", "fusion_lon": 0.0}, {"is_reserved": 0, "type": "electric_scooter", "bike_id": "4dcfcaf97eb140d58eb4f8e1f3111609", "lat": 38.906855, "lon": -77.0626015, "rental_uris": {"android": "https://dc.lft.to/lastmile_qr_scan", "ios": "https://dc.lft.to/lastmile_qr_scan"}, "is_disabled": 0, "fusion_lat": 0.0, "name": "4dcfcaf97eb140d58eb4f8e1f3111609", "fusion_lon": 0.0}, {"is_reserved": 0, "type": "electric_scooter", "bike_id": "196e032bda23362fb33db2a1bfef0428", "lat": 38.87279266666667, "lon": -77.01645833333333, "rental_uris": {"android": "https://dc.lft.to/lastmile_qr_scan", "ios": "https://dc.lft.to/lastmile_qr_scan"}, "is_disabled": 0, "fusion_lat": 0.0, "name": "196e032bda23362fb33db2a1bfef0428", "fusion_lon": 0.0}, {"is_reserved": 0, "type": "electric_scooter", "bike_id": "825d45a22b6e9d5422491fa5d832e171", "lat": 38.91175633333334, "lon": -77.03864433333334, "rental_uris": {"android": "https://dc.lft.to/lastmile_qr_scan", "ios": "https://dc.lft.to/lastmile_qr_scan"}, "is_disabled": 0, "fusion_lat": 0.0, "name": "825d45a22b6e9d5422491fa5d832e171", "fusion_lon": 0.0}, {"is_reserved": 0, "type": "electric_scooter", "bike_id": "35ee1513dc1cbb42e1af21d142de05f6", "lat": 38.9160565, "lon": -77.01211083333334, "rental_uris": {"android": "https://dc.lft.to/lastmile_qr_scan", "ios": "https://dc.lft.to/lastmile_qr_scan"}, "is_disabled": 0, "fusion_lat": 0.0, "name": "35ee1513dc1cbb42e1af21d142de05f6", "fusion_lon": 0.0}, {"is_reserved": 0, "type": "electric_scooter", "bike_id": "084ce3525e025c63f8d181c4af20df5a", "lat": 38.90745283333333, "lon": -77.041557, "rental_uris": {"android": "https://dc.lft.to/lastmile_qr_scan", "ios": "https://dc.lft.to/lastmile_qr_scan"}, "is_disabled": 0, "fusion_lat": 0.0, "name": "084ce3525e025c63f8d181c4af20df5a", "fusion_lon": 0.0}, {"is_reserved": 0, "type": "electric_bike", "bike_id": "ca083c84d9eecd25d0d11bf4bceac15a", "lat": 38.8086645, "lon": -77.11256983333334, "rental_uris": {"android": "https://dc.lft.to/lastmile_qr_scan", "ios": "https://dc.lft.to/lastmile_qr_scan"}, "is_disabled": 0, "fusion_lat": 0.0, "name": "ca083c84d9eecd25d0d11bf4bceac15a", "fusion_lon": 0.0}, {"is_reserved": 0, "type": "electric_scooter", "bike_id": "773bb4b198550f7f8b519a8358073a00", "lat": 38.9008245, "lon": -77.03646916666666, "rental_uris": {"android": "https://dc.lft.to/lastmile_qr_scan", "ios": "https://dc.lft.to/lastmile_qr_scan"}, "is_disabled": 0, "fusion_lat": 0.0, "name": "773bb4b198550f7f8b519a8358073a00", "fusion_lon": 0.0}, {"is_reserved": 0, "type": "electric_bike", "bike_id": "db184d4990db5b9a7e4c8daa6ee859fc", "lat": 38.952072666666666, "lon": -76.96580383333334, "rental_uris": {"android": "https://dc.lft.to/lastmile_qr_scan", "ios": "https://dc.lft.to/lastmile_qr_scan"}, "is_disabled": 0, "fusion_lat": 0.0, "name": "db184d4990db5b9a7e4c8daa6ee859fc", "fusion_lon": 0.0}, {"is_reserved": 0, "type": "electric_scooter", "bike_id": "55b21f1808a0f29903ea11c1259d6cdd", "lat": 38.917646833333336, "lon": -77.03190066666667, "rental_uris": {"android": "https://dc.lft.to/lastmile_qr_scan", "ios": "https://dc.lft.to/lastmile_qr_scan"}, "is_disabled": 0, "fusion_lat": 0.0, "name": "55b21f1808a0f29903ea11c1259d6cdd", "fusion_lon": 0.0}, {"is_reserved": 0, "type": "electric_scooter", "bike_id": "37cd73d108058751c3a64b9c2153b542", "lat": 38.92442, "lon": -77.02021133333334, "rental_uris": {"android": "https://dc.lft.to/lastmile_qr_scan", "ios": "https://dc.lft.to/lastmile_qr_scan"}, "is_disabled": 0, "fusion_lat": 0.0, "name": "37cd73d108058751c3a64b9c2153b542", "fusion_lon": 0.0}, {"is_reserved": 0, "type": "electric_scooter", "bike_id": "6f24ad93dd0b1c3b5247a0b3abf8db92", "lat": 38.9305095, "lon": -77.02334116666667, "rental_uris": {"android": "https://dc.lft.to/lastmile_qr_scan", "ios": "https://dc.lft.to/lastmile_qr_scan"}, "is_disabled": 0, "fusion_lat": 0.0, "name": "6f24ad93dd0b1c3b5247a0b3abf8db92", "fusion_lon": 0.0}, {"is_reserved": 0, "type": "electric_scooter", "bike_id": "5f3b04cb147b9e6727a71bda5bc739a3", "lat": 38.890854166666664, "lon": -77.01505733333333, "rental_uris": {"android": "https://dc.lft.to/lastmile_qr_scan", "ios": "https://dc.lft.to/lastmile_qr_scan"}, "is_disabled": 0, "fusion_lat": 0.0, "name": "5f3b04cb147b9e6727a71bda5bc739a3", "fusion_lon": 0.0}, {"is_reserved": 0, "type": "electric_scooter", "bike_id": "5bae5c7ab78680bb432cf3ebc2658931", "lat": 38.904117, "lon": -77.06892516666667, "rental_uris": {"android": "https://dc.lft.to/lastmile_qr_scan", "ios": "https://dc.lft.to/lastmile_qr_scan"}, "is_disabled": 0, "fusion_lat": 0.0, "name": "5bae5c7ab78680bb432cf3ebc2658931", "fusion_lon": 0.0}, {"is_reserved": 0, "type": "electric_scooter", "bike_id": "ccffd1837e7545b9f78077834e61706c", "lat": 38.9094485, "lon": -77.03203083333334, "rental_uris": {"android": "https://dc.lft.to/lastmile_qr_scan", "ios": "https://dc.lft.to/lastmile_qr_scan"}, "is_disabled": 0, "fusion_lat": 0.0, "name": "ccffd1837e7545b9f78077834e61706c", "fusion_lon": 0.0}, {"is_reserved": 0, "type": "electric_scooter", "bike_id": "e98d8726bd71516ce333069f2269cc02", "lat": 38.91805166666666, "lon": -77.0249485, "rental_uris": {"android": "https://dc.lft.to/lastmile_qr_scan", "ios": "https://dc.lft.to/lastmile_qr_scan"}, "is_disabled": 0, "fusion_lat": 0.0, "name": "e98d8726bd71516ce333069f2269cc02", "fusion_lon": 0.0}, {"is_reserved": 0, "type": "electric_scooter", "bike_id": "1a45adde1a37cb3ff015d3e4490e2da7", "lat": 38.89490683333333, "lon": -77.04994716666667, "rental_uris": {"android": "https://dc.lft.to/lastmile_qr_scan", "ios": "https://dc.lft.to/lastmile_qr_scan"}, "is_disabled": 0, "fusion_lat": 0.0, "name": "1a45adde1a37cb3ff015d3e4490e2da7", "fusion_lon": 0.0}, {"is_reserved": 0, "type": "electric_bike", "bike_id": "ba1ce6439825d1f60fa8b55bed73b23d", "lat": 38.8367885, "lon": -77.04994916666666, "rental_uris": {"android": "https://dc.lft.to/lastmile_qr_scan", "ios": "https://dc.lft.to/lastmile_qr_scan"}, "is_disabled": 0, "fusion_lat": 0.0, "name": "ba1ce6439825d1f60fa8b55bed73b23d", "fusion_lon": 0.0}, {"is_reserved": 0, "type": "electric_scooter", "bike_id": "db60e46e05539340d069e54de9489469", "lat": 38.885261166666666, "lon": -77.0219525, "rental_uris": {"android": "https://dc.lft.to/lastmile_qr_scan", "ios": "https://dc.lft.to/lastmile_qr_scan"}, "is_disabled": 0, "fusion_lat": 0.0, "name": "db60e46e05539340d069e54de9489469", "fusion_lon": 0.0}, {"is_reserved": 0, "type": "electric_scooter", "bike_id": "7c585847f4ba2b445929ccf2eb5bebbd", "lat": 38.925826, "lon": -77.02942583333333, "rental_uris": {"android": "https://dc.lft.to/lastmile_qr_scan", "ios": "https://dc.lft.to/lastmile_qr_scan"}, "is_disabled": 0, "fusion_lat": 0.0, "name": "7c585847f4ba2b445929ccf2eb5bebbd", "fusion_lon": 0.0}, {"is_reserved": 0, "type": "electric_scooter", "bike_id": "f7501ecbbe9ea0d6b01dbea1186579f2", "lat": 38.89390216666666, "lon": -77.02250716666667, "rental_uris": {"android": "https://dc.lft.to/lastmile_qr_scan", "ios": "https://dc.lft.to/lastmile_qr_scan"}, "is_disabled": 0, "fusion_lat": 0.0, "name": "f7501ecbbe9ea0d6b01dbea1186579f2", "fusion_lon": 0.0}, {"is_reserved": 0, "type": "electric_scooter", "bike_id": "cd13e113219dc51a916532e9fe0228b5", "lat": 38.91629416666667, "lon": -77.00761683333333, "rental_uris": {"android": "https://dc.lft.to/lastmile_qr_scan", "ios": "https://dc.lft.to/lastmile_qr_scan"}, "is_disabled": 0, "fusion_lat": 0.0, "name": "cd13e113219dc51a916532e9fe0228b5", "fusion_lon": 0.0}, {"is_reserved": 0, "type": "electric_scooter", "bike_id": "4ba606697401f180d1d4cbc41a18f441", "lat": 38.916622, "lon": -77.038476, "rental_uris": {"android": "https://dc.lft.to/lastmile_qr_scan", "ios": "https://dc.lft.to/lastmile_qr_scan"}, "is_disabled": 0, "fusion_lat": 0.0, "name": "4ba606697401f180d1d4cbc41a18f441", "fusion_lon": 0.0}, {"is_reserved": 0, "type": "electric_scooter", "bike_id": "f03f7c3758da9eeed89b1d9c4ca6bf4a", "lat": 38.92273766666667, "lon": -77.03672533333334, "rental_uris": {"android": "https://dc.lft.to/lastmile_qr_scan", "ios": "https://dc.lft.to/lastmile_qr_scan"}, "is_disabled": 0, "fusion_lat": 0.0, "name": "f03f7c3758da9eeed89b1d9c4ca6bf4a", "fusion_lon": 0.0}, {"is_reserved": 0, "type": "electric_scooter", "bike_id": "30016dcc192c5b34b9fbe84a590345a7", "lat": 38.900325, "lon": -76.98855933333333, "rental_uris": {"android": "https://dc.lft.to/lastmile_qr_scan", "ios": "https://dc.lft.to/lastmile_qr_scan"}, "is_disabled": 0, "fusion_lat": 0.0, "name": "30016dcc192c5b34b9fbe84a590345a7", "fusion_lon": 0.0}, {"is_reserved": 0, "type": "electric_scooter", "bike_id": "ee99e77e40aad1b982f0342c5b07983c", "lat": 38.93394466666667, "lon": -77.02841, "rental_uris": {"android": "https://dc.lft.to/lastmile_qr_scan", "ios": "https://dc.lft.to/lastmile_qr_scan"}, "is_disabled": 0, "fusion_lat": 0.0, "name": "ee99e77e40aad1b982f0342c5b07983c", "fusion_lon": 0.0}, {"is_reserved": 0, "type": "electric_scooter", "bike_id": "871be5a190439dbf8ac42313f1447aef", "lat": 38.88734783333334, "lon": -77.02395583333333, "rental_uris": {"android": "https://dc.lft.to/lastmile_qr_scan", "ios": "https://dc.lft.to/lastmile_qr_scan"}, "is_disabled": 0, "fusion_lat": 0.0, "name": "871be5a190439dbf8ac42313f1447aef", "fusion_lon": 0.0}, {"is_reserved": 0, "type": "electric_scooter", "bike_id": "a5852112728f0e456e677d9498e4209e", "lat": 38.9241765, "lon": -77.02015316666666, "rental_uris": {"android": "https://dc.lft.to/lastmile_qr_scan", "ios": "https://dc.lft.to/lastmile_qr_scan"}, "is_disabled": 0, "fusion_lat": 0.0, "name": "a5852112728f0e456e677d9498e4209e", "fusion_lon": 0.0}, {"is_reserved": 0, "type": "electric_scooter", "bike_id": "89c388d6ae72c72859c95b0f31172530", "lat": 38.8988895, "lon": -76.99358766666667, "rental_uris": {"android": "https://dc.lft.to/lastmile_qr_scan", "ios": "https://dc.lft.to/lastmile_qr_scan"}, "is_disabled": 0, "fusion_lat": 0.0, "name": "89c388d6ae72c72859c95b0f31172530", "fusion_lon": 0.0}, {"is_reserved": 0, "type": "electric_bike", "bike_id": "3f5546f4f359c40cca6e3e73db2d2a41", "lat": 38.8773185, "lon": -77.11849983333333, "rental_uris": {"android": "https://dc.lft.to/lastmile_qr_scan", "ios": "https://dc.lft.to/lastmile_qr_scan"}, "is_disabled": 0, "fusion_lat": 0.0, "name": "3f5546f4f359c40cca6e3e73db2d2a41", "fusion_lon": 0.0}, {"is_reserved": 0, "type": "electric_scooter", "bike_id": "6e5bf079c032ab7c3aef288026e633a1", "lat": 38.910126, "lon": -77.0436575, "rental_uris": {"android": "https://dc.lft.to/lastmile_qr_scan", "ios": "https://dc.lft.to/lastmile_qr_scan"}, "is_disabled": 0, "fusion_lat": 0.0, "name": "6e5bf079c032ab7c3aef288026e633a1", "fusion_lon": 0.0}, {"is_reserved": 0, "type": "electric_scooter", "bike_id": "98b7a15711d2c17b0ac65202704232db", "lat": 38.91622066666667, "lon": -77.02083333333333, "rental_uris": {"android": "https://dc.lft.to/lastmile_qr_scan", "ios": "https://dc.lft.to/lastmile_qr_scan"}, "is_disabled": 0, "fusion_lat": 0.0, "name": "98b7a15711d2c17b0ac65202704232db", "fusion_lon": 0.0}, {"is_reserved": 0, "type": "electric_scooter", "bike_id": "7624d5399229e7313c69e4d658b58f11", "lat": 38.908515, "lon": -77.03990483333334, "rental_uris": {"android": "https://dc.lft.to/lastmile_qr_scan", "ios": "https://dc.lft.to/lastmile_qr_scan"}, "is_disabled": 0, "fusion_lat": 0.0, "name": "7624d5399229e7313c69e4d658b58f11", "fusion_lon": 0.0}, {"is_reserved": 0, "type": "electric_scooter", "bike_id": "c783bd038f459bc4a8c05022d2fb88c4", "lat": 38.91908816666667, "lon": -77.036832, "rental_uris": {"android": "https://dc.lft.to/lastmile_qr_scan", "ios": "https://dc.lft.to/lastmile_qr_scan"}, "is_disabled": 0, "fusion_lat": 0.0, "name": "c783bd038f459bc4a8c05022d2fb88c4", "fusion_lon": 0.0}, {"is_reserved": 0, "type": "electric_scooter", "bike_id": "5045590bd070aac76f4fc052a8c9ead4", "lat": 38.911071666666665, "lon": -77.03852833333333, "rental_uris": {"android": "https://dc.lft.to/lastmile_qr_scan", "ios": "https://dc.lft.to/lastmile_qr_scan"}, "is_disabled": 0, "fusion_lat": 0.0, "name": "5045590bd070aac76f4fc052a8c9ead4", "fusion_lon": 0.0}, {"is_reserved": 0, "type": "electric_scooter", "bike_id": "cfe1afeb94597855ad278a6c27b94134", "lat": 38.921461, "lon": -77.03511, "rental_uris": {"android": "https://dc.lft.to/lastmile_qr_scan", "ios": "https://dc.lft.to/lastmile_qr_scan"}, "is_disabled": 0, "fusion_lat": 0.0, "name": "cfe1afeb94597855ad278a6c27b94134", "fusion_lon": 0.0}, {"is_reserved": 0, "type": "electric_scooter", "bike_id": "962da74ad169b3a064f42a9b644aa292", "lat": 38.900483, "lon": -77.01771966666666, "rental_uris": {"android": "https://dc.lft.to/lastmile_qr_scan", "ios": "https://dc.lft.to/lastmile_qr_scan"}, "is_disabled": 0, "fusion_lat": 0.0, "name": "962da74ad169b3a064f42a9b644aa292", "fusion_lon": 0.0}, {"is_reserved": 0, "type": "electric_scooter", "bike_id": "6abf93afa6c842906d9f5b6af6fa34c8", "lat": 38.94323216666667, "lon": -77.07576883333333, "rental_uris": {"android": "https://dc.lft.to/lastmile_qr_scan", "ios": "https://dc.lft.to/lastmile_qr_scan"}, "is_disabled": 0, "fusion_lat": 0.0, "name": "6abf93afa6c842906d9f5b6af6fa34c8", "fusion_lon": 0.0}, {"is_reserved": 0, "type": "electric_scooter", "bike_id": "e52ae09e3878a4cbf23a45d3e92639da", "lat": 38.907818666666664, "lon": -77.00948933333333, "rental_uris": {"android": "https://dc.lft.to/lastmile_qr_scan", "ios": "https://dc.lft.to/lastmile_qr_scan"}, "is_disabled": 0, "fusion_lat": 0.0, "name": "e52ae09e3878a4cbf23a45d3e92639da", "fusion_lon": 0.0}, {"is_reserved": 0, "type": "electric_scooter", "bike_id": "542d5d896f2c637e192d6880eb14150e", "lat": 38.89286216666667, "lon": -77.01982516666666, "rental_uris": {"android": "https://dc.lft.to/lastmile_qr_scan", "ios": "https://dc.lft.to/lastmile_qr_scan"}, "is_disabled": 0, "fusion_lat": 0.0, "name": "542d5d896f2c637e192d6880eb14150e", "fusion_lon": 0.0}, {"is_reserved": 0, "type": "electric_scooter", "bike_id": "089cc3bd943f4575d812342d7fd5b832", "lat": 38.913418166666666, "lon": -77.04966383333333, "rental_uris": {"android": "https://dc.lft.to/lastmile_qr_scan", "ios": "https://dc.lft.to/lastmile_qr_scan"}, "is_disabled": 0, "fusion_lat": 0.0, "name": "089cc3bd943f4575d812342d7fd5b832", "fusion_lon": 0.0}, {"is_reserved": 0, "type": "electric_scooter", "bike_id": "5f283e8e78d223585566db5f7a9741a4", "lat": 38.951524166666665, "lon": -77.018693, "rental_uris": {"android": "https://dc.lft.to/lastmile_qr_scan", "ios": "https://dc.lft.to/lastmile_qr_scan"}, "is_disabled": 0, "fusion_lat": 0.0, "name": "5f283e8e78d223585566db5f7a9741a4", "fusion_lon": 0.0}, {"is_reserved": 0, "type": "electric_scooter", "bike_id": "9847e1cfeb0933a8d0269de5915d731c", "lat": 38.892229666666665, "lon": -77.0465995, "rental_uris": {"android": "https://dc.lft.to/lastmile_qr_scan", "ios": "https://dc.lft.to/lastmile_qr_scan"}, "is_disabled": 0, "fusion_lat": 0.0, "name": "9847e1cfeb0933a8d0269de5915d731c", "fusion_lon": 0.0}, {"is_reserved": 0, "type": "electric_scooter", "bike_id": "78226acbfb0a369a22449fc770bc5c00", "lat": 38.91696066666667, "lon": -77.052967, "rental_uris": {"android": "https://dc.lft.to/lastmile_qr_scan", "ios": "https://dc.lft.to/lastmile_qr_scan"}, "is_disabled": 0, "fusion_lat": 0.0, "name": "78226acbfb0a369a22449fc770bc5c00", "fusion_lon": 0.0}, {"is_reserved": 0, "type": "electric_scooter", "bike_id": "b2952a2a0ae9f74b636f0551464d6b3a", "lat": 38.91825866666667, "lon": -77.02596366666667, "rental_uris": {"android": "https://dc.lft.to/lastmile_qr_scan", "ios": "https://dc.lft.to/lastmile_qr_scan"}, "is_disabled": 0, "fusion_lat": 0.0, "name": "b2952a2a0ae9f74b636f0551464d6b3a", "fusion_lon": 0.0}, {"is_reserved": 0, "type": "electric_scooter", "bike_id": "ff3e1e9a706357c6c76004b373da6282", "lat": 38.88398816666667, "lon": -77.0304505, "rental_uris": {"android": "https://dc.lft.to/lastmile_qr_scan", "ios": "https://dc.lft.to/lastmile_qr_scan"}, "is_disabled": 0, "fusion_lat": 0.0, "name": "ff3e1e9a706357c6c76004b373da6282", "fusion_lon": 0.0}, {"is_reserved": 0, "type": "electric_scooter", "bike_id": "4bd8b6aae72782e18395cbc71052228f", "lat": 38.903787666666666, "lon": -77.03121433333334, "rental_uris": {"android": "https://dc.lft.to/lastmile_qr_scan", "ios": "https://dc.lft.to/lastmile_qr_scan"}, "is_disabled": 0, "fusion_lat": 0.0, "name": "4bd8b6aae72782e18395cbc71052228f", "fusion_lon": 0.0}, {"is_reserved": 0, "type": "electric_scooter", "bike_id": "522bd18a9036b64b1a5e5f9ad808f47d", "lat": 38.93368516666666, "lon": -77.024029, "rental_uris": {"android": "https://dc.lft.to/lastmile_qr_scan", "ios": "https://dc.lft.to/lastmile_qr_scan"}, "is_disabled": 0, "fusion_lat": 0.0, "name": "522bd18a9036b64b1a5e5f9ad808f47d", "fusion_lon": 0.0}, {"is_reserved": 0, "type": "electric_scooter", "bike_id": "4b2664460b23d5ac123d8c318035190e", "lat": 38.915753333333335, "lon": -77.0199835, "rental_uris": {"android": "https://dc.lft.to/lastmile_qr_scan", "ios": "https://dc.lft.to/lastmile_qr_scan"}, "is_disabled": 0, "fusion_lat": 0.0, "name": "4b2664460b23d5ac123d8c318035190e", "fusion_lon": 0.0}, {"is_reserved": 0, "type": "electric_scooter", "bike_id": "205de267c8cbe98b974830165bee8104", "lat": 38.9201025, "lon": -77.07125733333334, "rental_uris": {"android": "https://dc.lft.to/lastmile_qr_scan", "ios": "https://dc.lft.to/lastmile_qr_scan"}, "is_disabled": 0, "fusion_lat": 0.0, "name": "205de267c8cbe98b974830165bee8104", "fusion_lon": 0.0}, {"is_reserved": 0, "type": "electric_scooter", "bike_id": "feda8c28167dd4e1bb818d4eb342e501", "lat": 38.908896666666664, "lon": -77.04336366666666, "rental_uris": {"android": "https://dc.lft.to/lastmile_qr_scan", "ios": "https://dc.lft.to/lastmile_qr_scan"}, "is_disabled": 0, "fusion_lat": 0.0, "name": "feda8c28167dd4e1bb818d4eb342e501", "fusion_lon": 0.0}, {"is_reserved": 0, "type": "electric_scooter", "bike_id": "e057dd8eaf2e23a67d3117c0ad5de139", "lat": 38.91698, "lon": -77.0359735, "rental_uris": {"android": "https://dc.lft.to/lastmile_qr_scan", "ios": "https://dc.lft.to/lastmile_qr_scan"}, "is_disabled": 0, "fusion_lat": 0.0, "name": "e057dd8eaf2e23a67d3117c0ad5de139", "fusion_lon": 0.0}, {"is_reserved": 0, "type": "electric_scooter", "bike_id": "15330f6062b2177f8f5e7b40f3f3ff8d", "lat": 38.90106266666667, "lon": -77.0500315, "rental_uris": {"android": "https://dc.lft.to/lastmile_qr_scan", "ios": "https://dc.lft.to/lastmile_qr_scan"}, "is_disabled": 0, "fusion_lat": 0.0, "name": "15330f6062b2177f8f5e7b40f3f3ff8d", "fusion_lon": 0.0}, {"is_reserved": 0, "type": "electric_scooter", "bike_id": "bcc00d6e9896c8a8278a87ef8b71a205", "lat": 38.909765166666666, "lon": -77.0449905, "rental_uris": {"android": "https://dc.lft.to/lastmile_qr_scan", "ios": "https://dc.lft.to/lastmile_qr_scan"}, "is_disabled": 0, "fusion_lat": 0.0, "name": "bcc00d6e9896c8a8278a87ef8b71a205", "fusion_lon": 0.0}, {"is_reserved": 0, "type": "electric_bike", "bike_id": "7b372e137866d292d75d780841518479", "lat": 38.895658833333336, "lon": -77.12735333333333, "rental_uris": {"android": "https://dc.lft.to/lastmile_qr_scan", "ios": "https://dc.lft.to/lastmile_qr_scan"}, "is_disabled": 0, "fusion_lat": 0.0, "name": "7b372e137866d292d75d780841518479", "fusion_lon": 0.0}, {"is_reserved": 0, "type": "electric_scooter", "bike_id": "24900b81dde212337b66ef96ef5e49f1", "lat": 38.89761016666667, "lon": -77.025554, "rental_uris": {"android": "https://dc.lft.to/lastmile_qr_scan", "ios": "https://dc.lft.to/lastmile_qr_scan"}, "is_disabled": 0, "fusion_lat": 0.0, "name": "24900b81dde212337b66ef96ef5e49f1", "fusion_lon": 0.0}, {"is_reserved": 0, "type": "electric_scooter", "bike_id": "f9b3dd2a00c9bd1552b8568b52b8b662", "lat": 38.917041833333336, "lon": -77.03147016666667, "rental_uris": {"android": "https://dc.lft.to/lastmile_qr_scan", "ios": "https://dc.lft.to/lastmile_qr_scan"}, "is_disabled": 0, "fusion_lat": 0.0, "name": "f9b3dd2a00c9bd1552b8568b52b8b662", "fusion_lon": 0.0}, {"is_reserved": 0, "type": "electric_scooter", "bike_id": "49fb858fe6bbb05f780d3fa7ad6eac15", "lat": 38.9208725, "lon": -77.0179365, "rental_uris": {"android": "https://dc.lft.to/lastmile_qr_scan", "ios": "https://dc.lft.to/lastmile_qr_scan"}, "is_disabled": 0, "fusion_lat": 0.0, "name": "49fb858fe6bbb05f780d3fa7ad6eac15", "fusion_lon": 0.0}, {"is_reserved": 0, "type": "electric_scooter", "bike_id": "c38d9ca0bad47efebbcadc521b1d134c", "lat": 38.90644183333333, "lon": -77.0513545, "rental_uris": {"android": "https://dc.lft.to/lastmile_qr_scan", "ios": "https://dc.lft.to/lastmile_qr_scan"}, "is_disabled": 0, "fusion_lat": 0.0, "name": "c38d9ca0bad47efebbcadc521b1d134c", "fusion_lon": 0.0}, {"is_reserved": 0, "type": "electric_scooter", "bike_id": "6bd0f997daf320088c7e26d6034cae0e", "lat": 38.896975833333336, "lon": -77.004973, "rental_uris": {"android": "https://dc.lft.to/lastmile_qr_scan", "ios": "https://dc.lft.to/lastmile_qr_scan"}, "is_disabled": 0, "fusion_lat": 0.0, "name": "6bd0f997daf320088c7e26d6034cae0e", "fusion_lon": 0.0}, {"is_reserved": 0, "type": "electric_scooter", "bike_id": "699945b2059564de0371b396d8f1cf5e", "lat": 38.90351316666667, "lon": -77.010836, "rental_uris": {"android": "https://dc.lft.to/lastmile_qr_scan", "ios": "https://dc.lft.to/lastmile_qr_scan"}, "is_disabled": 0, "fusion_lat": 0.0, "name": "699945b2059564de0371b396d8f1cf5e", "fusion_lon": 0.0}, {"is_reserved": 0, "type": "electric_scooter", "bike_id": "5497c74426a667dcdc364ee2fd6c6c40", "lat": 38.94030083333333, "lon": -77.02645116666666, "rental_uris": {"android": "https://dc.lft.to/lastmile_qr_scan", "ios": "https://dc.lft.to/lastmile_qr_scan"}, "is_disabled": 0, "fusion_lat": 0.0, "name": "5497c74426a667dcdc364ee2fd6c6c40", "fusion_lon": 0.0}, {"is_reserved": 0, "type": "electric_scooter", "bike_id": "3526d09278935851301c81bf794c4783", "lat": 38.93244466666667, "lon": -76.99499166666666, "rental_uris": {"android": "https://dc.lft.to/lastmile_qr_scan", "ios": "https://dc.lft.to/lastmile_qr_scan"}, "is_disabled": 0, "fusion_lat": 0.0, "name": "3526d09278935851301c81bf794c4783", "fusion_lon": 0.0}, {"is_reserved": 0, "type": "electric_scooter", "bike_id": "17ed063d3542040131b85de41f8a6688", "lat": 38.90374416666667, "lon": -77.04247516666666, "rental_uris": {"android": "https://dc.lft.to/lastmile_qr_scan", "ios": "https://dc.lft.to/lastmile_qr_scan"}, "is_disabled": 0, "fusion_lat": 0.0, "name": "17ed063d3542040131b85de41f8a6688", "fusion_lon": 0.0}, {"is_reserved": 0, "type": "electric_scooter", "bike_id": "f840783f7a0f5499bbe332cf4765b82a", "lat": 38.92438383333333, "lon": -77.02018433333333, "rental_uris": {"android": "https://dc.lft.to/lastmile_qr_scan", "ios": "https://dc.lft.to/lastmile_qr_scan"}, "is_disabled": 0, "fusion_lat": 0.0, "name": "f840783f7a0f5499bbe332cf4765b82a", "fusion_lon": 0.0}, {"is_reserved": 0, "type": "electric_scooter", "bike_id": "9e0cbbc347376d646fe0e231bee450b8", "lat": 38.92388583333333, "lon": -77.04305416666666, "rental_uris": {"android": "https://dc.lft.to/lastmile_qr_scan", "ios": "https://dc.lft.to/lastmile_qr_scan"}, "is_disabled": 0, "fusion_lat": 0.0, "name": "9e0cbbc347376d646fe0e231bee450b8", "fusion_lon": 0.0}, {"is_reserved": 0, "type": "electric_scooter", "bike_id": "a9c02b02a1ba5eed48210a3fc0b9b3e9", "lat": 38.90907083333333, "lon": -77.00315483333334, "rental_uris": {"android": "https://dc.lft.to/lastmile_qr_scan", "ios": "https://dc.lft.to/lastmile_qr_scan"}, "is_disabled": 0, "fusion_lat": 0.0, "name": "a9c02b02a1ba5eed48210a3fc0b9b3e9", "fusion_lon": 0.0}, {"is_reserved": 0, "type": "electric_scooter", "bike_id": "c156c8c75192d412d6c1a4314defd0a4", "lat": 38.91714, "lon": -77.072846, "rental_uris": {"android": "https://dc.lft.to/lastmile_qr_scan", "ios": "https://dc.lft.to/lastmile_qr_scan"}, "is_disabled": 0, "fusion_lat": 0.0, "name": "c156c8c75192d412d6c1a4314defd0a4", "fusion_lon": 0.0}, {"is_reserved": 0, "type": "electric_scooter", "bike_id": "14e1a45c5c7ddbf7991008615c16aa46", "lat": 38.9303525, "lon": -77.032958, "rental_uris": {"android": "https://dc.lft.to/lastmile_qr_scan", "ios": "https://dc.lft.to/lastmile_qr_scan"}, "is_disabled": 0, "fusion_lat": 0.0, "name": "14e1a45c5c7ddbf7991008615c16aa46", "fusion_lon": 0.0}, {"is_reserved": 0, "type": "electric_scooter", "bike_id": "f8255ba41b8770bfc7f07007bbef8301", "lat": 38.9679355, "lon": -77.02429433333333, "rental_uris": {"android": "https://dc.lft.to/lastmile_qr_scan", "ios": "https://dc.lft.to/lastmile_qr_scan"}, "is_disabled": 0, "fusion_lat": 0.0, "name": "f8255ba41b8770bfc7f07007bbef8301", "fusion_lon": 0.0}, {"is_reserved": 0, "type": "electric_scooter", "bike_id": "6d1c6dda1f1eba960020206f86613708", "lat": 38.92734983333333, "lon": -77.05251533333333, "rental_uris": {"android": "https://dc.lft.to/lastmile_qr_scan", "ios": "https://dc.lft.to/lastmile_qr_scan"}, "is_disabled": 0, "fusion_lat": 0.0, "name": "6d1c6dda1f1eba960020206f86613708", "fusion_lon": 0.0}, {"is_reserved": 0, "type": "electric_scooter", "bike_id": "110fa8b0980fcc90823364e959d186c3", "lat": 38.91912266666667, "lon": -77.033822, "rental_uris": {"android": "https://dc.lft.to/lastmile_qr_scan", "ios": "https://dc.lft.to/lastmile_qr_scan"}, "is_disabled": 0, "fusion_lat": 0.0, "name": "110fa8b0980fcc90823364e959d186c3", "fusion_lon": 0.0}, {"is_reserved": 0, "type": "electric_scooter", "bike_id": "a8aeb019f83b206cd934cbc5427b64f0", "lat": 38.88386466666667, "lon": -77.02631733333334, "rental_uris": {"android": "https://dc.lft.to/lastmile_qr_scan", "ios": "https://dc.lft.to/lastmile_qr_scan"}, "is_disabled": 0, "fusion_lat": 0.0, "name": "a8aeb019f83b206cd934cbc5427b64f0", "fusion_lon": 0.0}, {"is_reserved": 0, "type": "electric_scooter", "bike_id": "1d8773559dd35145e7f3b313ac7b38aa", "lat": 38.927805666666664, "lon": -77.05256783333333, "rental_uris": {"android": "https://dc.lft.to/lastmile_qr_scan", "ios": "https://dc.lft.to/lastmile_qr_scan"}, "is_disabled": 0, "fusion_lat": 0.0, "name": "1d8773559dd35145e7f3b313ac7b38aa", "fusion_lon": 0.0}, {"is_reserved": 0, "type": "electric_scooter", "bike_id": "bfd468b3b5791fec624eff98fa1300c7", "lat": 38.90783033333334, "lon": -77.00010266666666, "rental_uris": {"android": "https://dc.lft.to/lastmile_qr_scan", "ios": "https://dc.lft.to/lastmile_qr_scan"}, "is_disabled": 0, "fusion_lat": 0.0, "name": "bfd468b3b5791fec624eff98fa1300c7", "fusion_lon": 0.0}, {"is_reserved": 0, "type": "electric_scooter", "bike_id": "5dfa632845f4239b1f3ff3ae32115013", "lat": 38.932441, "lon": -76.9950095, "rental_uris": {"android": "https://dc.lft.to/lastmile_qr_scan", "ios": "https://dc.lft.to/lastmile_qr_scan"}, "is_disabled": 0, "fusion_lat": 0.0, "name": "5dfa632845f4239b1f3ff3ae32115013", "fusion_lon": 0.0}, {"is_reserved": 0, "type": "electric_scooter", "bike_id": "aa692a110226a2f6e71c829079554d36", "lat": 38.94979283333333, "lon": -77.02016833333333, "rental_uris": {"android": "https://dc.lft.to/lastmile_qr_scan", "ios": "https://dc.lft.to/lastmile_qr_scan"}, "is_disabled": 0, "fusion_lat": 0.0, "name": "aa692a110226a2f6e71c829079554d36", "fusion_lon": 0.0}, {"is_reserved": 0, "type": "electric_bike", "bike_id": "42bb14dd8475790fcfdb6866f26fd31f", "lat": 38.93102066666667, "lon": -77.03832833333334, "rental_uris": {"android": "https://dc.lft.to/lastmile_qr_scan", "ios": "https://dc.lft.to/lastmile_qr_scan"}, "is_disabled": 0, "fusion_lat": 0.0, "name": "42bb14dd8475790fcfdb6866f26fd31f", "fusion_lon": 0.0}, {"is_reserved": 0, "type": "electric_scooter", "bike_id": "51a1395a42536bf8ee95997e4aa9322b", "lat": 38.923368833333335, "lon": -77.02963666666666, "rental_uris": {"android": "https://dc.lft.to/lastmile_qr_scan", "ios": "https://dc.lft.to/lastmile_qr_scan"}, "is_disabled": 0, "fusion_lat": 0.0, "name": "51a1395a42536bf8ee95997e4aa9322b", "fusion_lon": 0.0}, {"is_reserved": 0, "type": "electric_scooter", "bike_id": "c924505f5acbc5b238576137fcaf8f88", "lat": 38.90984233333333, "lon": -77.06462116666667, "rental_uris": {"android": "https://dc.lft.to/lastmile_qr_scan", "ios": "https://dc.lft.to/lastmile_qr_scan"}, "is_disabled": 0, "fusion_lat": 0.0, "name": "c924505f5acbc5b238576137fcaf8f88", "fusion_lon": 0.0}, {"is_reserved": 0, "type": "electric_bike", "bike_id": "40d0a0d6c0e767b02d7b57fec0a91bce", "lat": 38.90472416666667, "lon": -77.03240083333333, "rental_uris": {"android": "https://dc.lft.to/lastmile_qr_scan", "ios": "https://dc.lft.to/lastmile_qr_scan"}, "is_disabled": 0, "fusion_lat": 0.0, "name": "40d0a0d6c0e767b02d7b57fec0a91bce", "fusion_lon": 0.0}, {"is_reserved": 0, "type": "electric_scooter", "bike_id": "c92434292f26e6d84a065aac7f2525bc", "lat": 38.881588666666666, "lon": -77.02770533333333, "rental_uris": {"android": "https://dc.lft.to/lastmile_qr_scan", "ios": "https://dc.lft.to/lastmile_qr_scan"}, "is_disabled": 0, "fusion_lat": 0.0, "name": "c92434292f26e6d84a065aac7f2525bc", "fusion_lon": 0.0}, {"is_reserved": 0, "type": "electric_scooter", "bike_id": "a29ef646f5553e53a03b9d72726445ea", "lat": 38.92304016666667, "lon": -77.04133366666667, "rental_uris": {"android": "https://dc.lft.to/lastmile_qr_scan", "ios": "https://dc.lft.to/lastmile_qr_scan"}, "is_disabled": 0, "fusion_lat": 0.0, "name": "a29ef646f5553e53a03b9d72726445ea", "fusion_lon": 0.0}, {"is_reserved": 0, "type": "electric_scooter", "bike_id": "2bb12fc1c6f7b537cbfb4cbc4dc7d12e", "lat": 38.93127883333333, "lon": -77.02308266666667, "rental_uris": {"android": "https://dc.lft.to/lastmile_qr_scan", "ios": "https://dc.lft.to/lastmile_qr_scan"}, "is_disabled": 0, "fusion_lat": 0.0, "name": "2bb12fc1c6f7b537cbfb4cbc4dc7d12e", "fusion_lon": 0.0}, {"is_reserved": 0, "type": "electric_scooter", "bike_id": "42f9b58ca43eca561693bcd6a1a8ee2b", "lat": 38.92310616666666, "lon": -77.04220933333333, "rental_uris": {"android": "https://dc.lft.to/lastmile_qr_scan", "ios": "https://dc.lft.to/lastmile_qr_scan"}, "is_disabled": 0, "fusion_lat": 0.0, "name": "42f9b58ca43eca561693bcd6a1a8ee2b", "fusion_lon": 0.0}, {"is_reserved": 0, "type": "electric_scooter", "bike_id": "f3aadaf587ff92c585c5970f2e08fc7e", "lat": 38.9603505, "lon": -77.0715145, "rental_uris": {"android": "https://dc.lft.to/lastmile_qr_scan", "ios": "https://dc.lft.to/lastmile_qr_scan"}, "is_disabled": 0, "fusion_lat": 0.0, "name": "f3aadaf587ff92c585c5970f2e08fc7e", "fusion_lon": 0.0}, {"is_reserved": 0, "type": "electric_scooter", "bike_id": "58e1e9474d8cb5cee17e51163a5bc9d5", "lat": 38.93358, "lon": -77.03420383333334, "rental_uris": {"android": "https://dc.lft.to/lastmile_qr_scan", "ios": "https://dc.lft.to/lastmile_qr_scan"}, "is_disabled": 0, "fusion_lat": 0.0, "name": "58e1e9474d8cb5cee17e51163a5bc9d5", "fusion_lon": 0.0}, {"is_reserved": 0, "type": "electric_scooter", "bike_id": "cdeb46579db052fd609a081424070b1f", "lat": 38.92221983333334, "lon": -77.04245566666667, "rental_uris": {"android": "https://dc.lft.to/lastmile_qr_scan", "ios": "https://dc.lft.to/lastmile_qr_scan"}, "is_disabled": 0, "fusion_lat": 0.0, "name": "cdeb46579db052fd609a081424070b1f", "fusion_lon": 0.0}, {"is_reserved": 0, "type": "electric_scooter", "bike_id": "d77e0467d075da42920fb7e88dc7a736", "lat": 38.91919583333333, "lon": -77.04814433333334, "rental_uris": {"android": "https://dc.lft.to/lastmile_qr_scan", "ios": "https://dc.lft.to/lastmile_qr_scan"}, "is_disabled": 0, "fusion_lat": 0.0, "name": "d77e0467d075da42920fb7e88dc7a736", "fusion_lon": 0.0}, {"is_reserved": 0, "type": "electric_bike", "bike_id": "f1f1dc5ae85e5ad81873b2cfa22ba017", "lat": 38.836330333333336, "lon": -77.0028135, "rental_uris": {"android": "https://dc.lft.to/lastmile_qr_scan", "ios": "https://dc.lft.to/lastmile_qr_scan"}, "is_disabled": 0, "fusion_lat": 0.0, "name": "f1f1dc5ae85e5ad81873b2cfa22ba017", "fusion_lon": 0.0}, {"is_reserved": 0, "type": "electric_scooter", "bike_id": "a1b358e866aafbbebfe94c62f7d9ee2b", "lat": 38.93185483333333, "lon": -77.02626783333334, "rental_uris": {"android": "https://dc.lft.to/lastmile_qr_scan", "ios": "https://dc.lft.to/lastmile_qr_scan"}, "is_disabled": 0, "fusion_lat": 0.0, "name": "a1b358e866aafbbebfe94c62f7d9ee2b", "fusion_lon": 0.0}, {"is_reserved": 0, "type": "electric_scooter", "bike_id": "1485a65b54624797b13a0b49c03f7b86", "lat": 38.91702433333333, "lon": -77.03234, "rental_uris": {"android": "https://dc.lft.to/lastmile_qr_scan", "ios": "https://dc.lft.to/lastmile_qr_scan"}, "is_disabled": 0, "fusion_lat": 0.0, "name": "1485a65b54624797b13a0b49c03f7b86", "fusion_lon": 0.0}, {"is_reserved": 0, "type": "electric_scooter", "bike_id": "58540d40b7994b748af9fea32477ab0f", "lat": 38.90371966666667, "lon": -77.016309, "rental_uris": {"android": "https://dc.lft.to/lastmile_qr_scan", "ios": "https://dc.lft.to/lastmile_qr_scan"}, "is_disabled": 0, "fusion_lat": 0.0, "name": "58540d40b7994b748af9fea32477ab0f", "fusion_lon": 0.0}, {"is_reserved": 0, "type": "electric_scooter", "bike_id": "d979095db666f2434e0ae7f9a4da0865", "lat": 38.93051416666667, "lon": -77.0233025, "rental_uris": {"android": "https://dc.lft.to/lastmile_qr_scan", "ios": "https://dc.lft.to/lastmile_qr_scan"}, "is_disabled": 0, "fusion_lat": 0.0, "name": "d979095db666f2434e0ae7f9a4da0865", "fusion_lon": 0.0}, {"is_reserved": 0, "type": "electric_scooter", "bike_id": "e7866b0b4e1b0fce88f09d70f2708b48", "lat": 38.917071166666666, "lon": -77.03402183333333, "rental_uris": {"android": "https://dc.lft.to/lastmile_qr_scan", "ios": "https://dc.lft.to/lastmile_qr_scan"}, "is_disabled": 0, "fusion_lat": 0.0, "name": "e7866b0b4e1b0fce88f09d70f2708b48", "fusion_lon": 0.0}, {"is_reserved": 0, "type": "electric_scooter", "bike_id": "a9f2add65635f02042c98a90b5aeb8c0", "lat": 38.886884333333334, "lon": -76.9901525, "rental_uris": {"android": "https://dc.lft.to/lastmile_qr_scan", "ios": "https://dc.lft.to/lastmile_qr_scan"}, "is_disabled": 0, "fusion_lat": 0.0, "name": "a9f2add65635f02042c98a90b5aeb8c0", "fusion_lon": 0.0}, {"is_reserved": 0, "type": "electric_scooter", "bike_id": "2a214362bb17232c0ecf23749a773c7a", "lat": 38.92140583333333, "lon": -77.01219, "rental_uris": {"android": "https://dc.lft.to/lastmile_qr_scan", "ios": "https://dc.lft.to/lastmile_qr_scan"}, "is_disabled": 0, "fusion_lat": 0.0, "name": "2a214362bb17232c0ecf23749a773c7a", "fusion_lon": 0.0}, {"is_reserved": 0, "type": "electric_scooter", "bike_id": "5b36348ceabe3a3b87b659e1d86292a5", "lat": 38.93063433333333, "lon": -77.03689833333334, "rental_uris": {"android": "https://dc.lft.to/lastmile_qr_scan", "ios": "https://dc.lft.to/lastmile_qr_scan"}, "is_disabled": 0, "fusion_lat": 0.0, "name": "5b36348ceabe3a3b87b659e1d86292a5", "fusion_lon": 0.0}, {"is_reserved": 0, "type": "electric_scooter", "bike_id": "869dd3b0efb48270a8a5d338e0682cd9", "lat": 38.907345166666666, "lon": -77.04467133333333, "rental_uris": {"android": "https://dc.lft.to/lastmile_qr_scan", "ios": "https://dc.lft.to/lastmile_qr_scan"}, "is_disabled": 0, "fusion_lat": 0.0, "name": "869dd3b0efb48270a8a5d338e0682cd9", "fusion_lon": 0.0}, {"is_reserved": 0, "type": "electric_scooter", "bike_id": "325f8f4127ea4f03251008cd34408724", "lat": 38.887739, "lon": -76.93263216666666, "rental_uris": {"android": "https://dc.lft.to/lastmile_qr_scan", "ios": "https://dc.lft.to/lastmile_qr_scan"}, "is_disabled": 0, "fusion_lat": 0.0, "name": "325f8f4127ea4f03251008cd34408724", "fusion_lon": 0.0}, {"is_reserved": 0, "type": "electric_scooter", "bike_id": "261e9674b052bb7189917012df5f7721", "lat": 38.90083933333333, "lon": -76.98008133333333, "rental_uris": {"android": "https://dc.lft.to/lastmile_qr_scan", "ios": "https://dc.lft.to/lastmile_qr_scan"}, "is_disabled": 0, "fusion_lat": 0.0, "name": "261e9674b052bb7189917012df5f7721", "fusion_lon": 0.0}, {"is_reserved": 0, "type": "electric_bike", "bike_id": "12e958c10da3373ceda6a9aa1aa5b794", "lat": 39.04232366666667, "lon": -76.99735816666667, "rental_uris": {"android": "https://dc.lft.to/lastmile_qr_scan", "ios": "https://dc.lft.to/lastmile_qr_scan"}, "is_disabled": 0, "fusion_lat": 0.0, "name": "12e958c10da3373ceda6a9aa1aa5b794", "fusion_lon": 0.0}, {"is_reserved": 0, "type": "electric_scooter", "bike_id": "12c0995b017c7100999d0b4d14025301", "lat": 38.8738025, "lon": -77.00094966666667, "rental_uris": {"android": "https://dc.lft.to/lastmile_qr_scan", "ios": "https://dc.lft.to/lastmile_qr_scan"}, "is_disabled": 0, "fusion_lat": 0.0, "name": "12c0995b017c7100999d0b4d14025301", "fusion_lon": 0.0}, {"is_reserved": 0, "type": "electric_scooter", "bike_id": "b4b2a7a6a6d41b9ad12f869750013b0a", "lat": 38.89092, "lon": -77.01513033333333, "rental_uris": {"android": "https://dc.lft.to/lastmile_qr_scan", "ios": "https://dc.lft.to/lastmile_qr_scan"}, "is_disabled": 0, "fusion_lat": 0.0, "name": "b4b2a7a6a6d41b9ad12f869750013b0a", "fusion_lon": 0.0}, {"is_reserved": 0, "type": "electric_scooter", "bike_id": "2741e0a2448a49ff046a147c5d0b04ec", "lat": 38.9113435, "lon": -76.9846495, "rental_uris": {"android": "https://dc.lft.to/lastmile_qr_scan", "ios": "https://dc.lft.to/lastmile_qr_scan"}, "is_disabled": 0, "fusion_lat": 0.0, "name": "2741e0a2448a49ff046a147c5d0b04ec", "fusion_lon": 0.0}, {"is_reserved": 0, "type": "electric_scooter", "bike_id": "7adf93cd335f3cf89bba899770ef2f30", "lat": 38.8950555, "lon": -76.9347565, "rental_uris": {"android": "https://dc.lft.to/lastmile_qr_scan", "ios": "https://dc.lft.to/lastmile_qr_scan"}, "is_disabled": 0, "fusion_lat": 0.0, "name": "7adf93cd335f3cf89bba899770ef2f30", "fusion_lon": 0.0}, {"is_reserved": 0, "type": "electric_bike", "bike_id": "12d7cf854981de46f82a26a1e48face7", "lat": 38.973379333333334, "lon": -76.99593283333333, "rental_uris": {"android": "https://dc.lft.to/lastmile_qr_scan", "ios": "https://dc.lft.to/lastmile_qr_scan"}, "is_disabled": 0, "fusion_lat": 0.0, "name": "12d7cf854981de46f82a26a1e48face7", "fusion_lon": 0.0}, {"is_reserved": 0, "type": "electric_scooter", "bike_id": "3cdba42647151315c58dddc24574a447", "lat": 38.932385, "lon": -77.03849366666667, "rental_uris": {"android": "https://dc.lft.to/lastmile_qr_scan", "ios": "https://dc.lft.to/lastmile_qr_scan"}, "is_disabled": 0, "fusion_lat": 0.0, "name": "3cdba42647151315c58dddc24574a447", "fusion_lon": 0.0}, {"is_reserved": 0, "type": "electric_scooter", "bike_id": "0f8542f649079d9a069597a857456301", "lat": 38.897378833333335, "lon": -77.02586316666667, "rental_uris": {"android": "https://dc.lft.to/lastmile_qr_scan", "ios": "https://dc.lft.to/lastmile_qr_scan"}, "is_disabled": 0, "fusion_lat": 0.0, "name": "0f8542f649079d9a069597a857456301", "fusion_lon": 0.0}, {"is_reserved": 0, "type": "electric_scooter", "bike_id": "39ff7dab1d14e7a2f16cbed075950752", "lat": 38.883878, "lon": -76.93048233333333, "rental_uris": {"android": "https://dc.lft.to/lastmile_qr_scan", "ios": "https://dc.lft.to/lastmile_qr_scan"}, "is_disabled": 0, "fusion_lat": 0.0, "name": "39ff7dab1d14e7a2f16cbed075950752", "fusion_lon": 0.0}, {"is_reserved": 0, "type": "electric_scooter", "bike_id": "2ed8549682ea12ffb75621303191875f", "lat": 38.896682, "lon": -76.93208416666667, "rental_uris": {"android": "https://dc.lft.to/lastmile_qr_scan", "ios": "https://dc.lft.to/lastmile_qr_scan"}, "is_disabled": 0, "fusion_lat": 0.0, "name": "2ed8549682ea12ffb75621303191875f", "fusion_lon": 0.0}, {"is_reserved": 0, "type": "electric_scooter", "bike_id": "cc5703fc8fcda2845beb0da9e6206001", "lat": 38.920178166666666, "lon": -77.0320885, "rental_uris": {"android": "https://dc.lft.to/lastmile_qr_scan", "ios": "https://dc.lft.to/lastmile_qr_scan"}, "is_disabled": 0, "fusion_lat": 0.0, "name": "cc5703fc8fcda2845beb0da9e6206001", "fusion_lon": 0.0}, {"is_reserved": 0, "type": "electric_scooter", "bike_id": "539674cb1fc6cd04d1eda458164f0f67", "lat": 38.903411166666665, "lon": -77.02576933333333, "rental_uris": {"android": "https://dc.lft.to/lastmile_qr_scan", "ios": "https://dc.lft.to/lastmile_qr_scan"}, "is_disabled": 0, "fusion_lat": 0.0, "name": "539674cb1fc6cd04d1eda458164f0f67", "fusion_lon": 0.0}, {"is_reserved": 0, "type": "electric_scooter", "bike_id": "f13929b585a25431eefbb07060c2cc00", "lat": 38.88746166666667, "lon": -77.01541816666666, "rental_uris": {"android": "https://dc.lft.to/lastmile_qr_scan", "ios": "https://dc.lft.to/lastmile_qr_scan"}, "is_disabled": 0, "fusion_lat": 0.0, "name": "f13929b585a25431eefbb07060c2cc00", "fusion_lon": 0.0}, {"is_reserved": 0, "type": "electric_scooter", "bike_id": "3ee7cb8d5ada9e4d44251d6f1858c319", "lat": 38.892663, "lon": -76.930012, "rental_uris": {"android": "https://dc.lft.to/lastmile_qr_scan", "ios": "https://dc.lft.to/lastmile_qr_scan"}, "is_disabled": 0, "fusion_lat": 0.0, "name": "3ee7cb8d5ada9e4d44251d6f1858c319", "fusion_lon": 0.0}, {"is_reserved": 0, "type": "electric_scooter", "bike_id": "04afbdf0903f7b33a093872b47ba6a30", "lat": 38.91491416666667, "lon": -77.00235333333333, "rental_uris": {"android": "https://dc.lft.to/lastmile_qr_scan", "ios": "https://dc.lft.to/lastmile_qr_scan"}, "is_disabled": 0, "fusion_lat": 0.0, "name": "04afbdf0903f7b33a093872b47ba6a30", "fusion_lon": 0.0}, {"is_reserved": 0, "type": "electric_scooter", "bike_id": "41a70a2e62120e5fe386f7a70c1daf60", "lat": 38.9001805, "lon": -77.00199266666667, "rental_uris": {"android": "https://dc.lft.to/lastmile_qr_scan", "ios": "https://dc.lft.to/lastmile_qr_scan"}, "is_disabled": 0, "fusion_lat": 0.0, "name": "41a70a2e62120e5fe386f7a70c1daf60", "fusion_lon": 0.0}, {"is_reserved": 0, "type": "electric_scooter", "bike_id": "2dcd7157679f64f3539c60e18e45a10c", "lat": 38.8961385, "lon": -76.97683166666667, "rental_uris": {"android": "https://dc.lft.to/lastmile_qr_scan", "ios": "https://dc.lft.to/lastmile_qr_scan"}, "is_disabled": 0, "fusion_lat": 0.0, "name": "2dcd7157679f64f3539c60e18e45a10c", "fusion_lon": 0.0}, {"is_reserved": 0, "type": "electric_scooter", "bike_id": "e7c400ecdd7a2bcc8985356f191dd06c", "lat": 38.896962, "lon": -77.04349716666667, "rental_uris": {"android": "https://dc.lft.to/lastmile_qr_scan", "ios": "https://dc.lft.to/lastmile_qr_scan"}, "is_disabled": 0, "fusion_lat": 0.0, "name": "e7c400ecdd7a2bcc8985356f191dd06c", "fusion_lon": 0.0}, {"is_reserved": 0, "type": "electric_bike", "bike_id": "11111295401e50e209038bf9261ffc3f", "lat": 38.92034616666667, "lon": -76.97959416666667, "rental_uris": {"android": "https://dc.lft.to/lastmile_qr_scan", "ios": "https://dc.lft.to/lastmile_qr_scan"}, "is_disabled": 0, "fusion_lat": 0.0, "name": "11111295401e50e209038bf9261ffc3f", "fusion_lon": 0.0}, {"is_reserved": 0, "type": "electric_scooter", "bike_id": "4d482338a158cf8c9a5599b275aed9ed", "lat": 38.9175815, "lon": -77.0045665, "rental_uris": {"android": "https://dc.lft.to/lastmile_qr_scan", "ios": "https://dc.lft.to/lastmile_qr_scan"}, "is_disabled": 0, "fusion_lat": 0.0, "name": "4d482338a158cf8c9a5599b275aed9ed", "fusion_lon": 0.0}, {"is_reserved": 0, "type": "electric_scooter", "bike_id": "46d6fc6b123dd5b1630699196fe74bf1", "lat": 38.90322883333333, "lon": -77.01082483333333, "rental_uris": {"android": "https://dc.lft.to/lastmile_qr_scan", "ios": "https://dc.lft.to/lastmile_qr_scan"}, "is_disabled": 0, "fusion_lat": 0.0, "name": "46d6fc6b123dd5b1630699196fe74bf1", "fusion_lon": 0.0}, {"is_reserved": 0, "type": "electric_scooter", "bike_id": "99da15dbd76a3cd9fe5fff63cc5c23b0", "lat": 38.91398483333333, "lon": -77.043373, "rental_uris": {"android": "https://dc.lft.to/lastmile_qr_scan", "ios": "https://dc.lft.to/lastmile_qr_scan"}, "is_disabled": 0, "fusion_lat": 0.0, "name": "99da15dbd76a3cd9fe5fff63cc5c23b0", "fusion_lon": 0.0}, {"is_reserved": 0, "type": "electric_scooter", "bike_id": "12a456304dabf1358a25c4573374b346", "lat": 38.912514, "lon": -77.04534916666667, "rental_uris": {"android": "https://dc.lft.to/lastmile_qr_scan", "ios": "https://dc.lft.to/lastmile_qr_scan"}, "is_disabled": 0, "fusion_lat": 0.0, "name": "12a456304dabf1358a25c4573374b346", "fusion_lon": 0.0}, {"is_reserved": 0, "type": "electric_bike", "bike_id": "8aefb8576fd310aeff193e54d870ecb7", "lat": 38.91702933333333, "lon": -77.05720933333333, "rental_uris": {"android": "https://dc.lft.to/lastmile_qr_scan", "ios": "https://dc.lft.to/lastmile_qr_scan"}, "is_disabled": 0, "fusion_lat": 0.0, "name": "8aefb8576fd310aeff193e54d870ecb7", "fusion_lon": 0.0}, {"is_reserved": 0, "type": "electric_bike", "bike_id": "584c2e7da593531919d130a13a1b3746", "lat": 38.920747, "lon": -76.995799, "rental_uris": {"android": "https://dc.lft.to/lastmile_qr_scan", "ios": "https://dc.lft.to/lastmile_qr_scan"}, "is_disabled": 0, "fusion_lat": 0.0, "name": "584c2e7da593531919d130a13a1b3746", "fusion_lon": 0.0}, {"is_reserved": 0, "type": "electric_scooter", "bike_id": "f62bfda8056613987bd7b6b0e59b3bef", "lat": 38.8830125, "lon": -77.02391383333334, "rental_uris": {"android": "https://dc.lft.to/lastmile_qr_scan", "ios": "https://dc.lft.to/lastmile_qr_scan"}, "is_disabled": 0, "fusion_lat": 0.0, "name": "f62bfda8056613987bd7b6b0e59b3bef", "fusion_lon": 0.0}, {"is_reserved": 0, "type": "electric_scooter", "bike_id": "8dca6237729ccfaf783083695f58b9f1", "lat": 38.91981916666667, "lon": -77.02511933333334, "rental_uris": {"android": "https://dc.lft.to/lastmile_qr_scan", "ios": "https://dc.lft.to/lastmile_qr_scan"}, "is_disabled": 0, "fusion_lat": 0.0, "name": "8dca6237729ccfaf783083695f58b9f1", "fusion_lon": 0.0}, {"is_reserved": 0, "type": "electric_scooter", "bike_id": "28f6cacb13e5495bd7cc9b8634cdfd94", "lat": 38.92082766666667, "lon": -77.0769655, "rental_uris": {"android": "https://dc.lft.to/lastmile_qr_scan", "ios": "https://dc.lft.to/lastmile_qr_scan"}, "is_disabled": 0, "fusion_lat": 0.0, "name": "28f6cacb13e5495bd7cc9b8634cdfd94", "fusion_lon": 0.0}, {"is_reserved": 0, "type": "electric_scooter", "bike_id": "76faced1998e4a4cb0157354d05726c7", "lat": 38.92425566666667, "lon": -77.05183216666667, "rental_uris": {"android": "https://dc.lft.to/lastmile_qr_scan", "ios": "https://dc.lft.to/lastmile_qr_scan"}, "is_disabled": 0, "fusion_lat": 0.0, "name": "76faced1998e4a4cb0157354d05726c7", "fusion_lon": 0.0}, {"is_reserved": 0, "type": "electric_scooter", "bike_id": "1bce742b61da75c8eae2788e34c55adb", "lat": 38.92180583333333, "lon": -76.99420333333333, "rental_uris": {"android": "https://dc.lft.to/lastmile_qr_scan", "ios": "https://dc.lft.to/lastmile_qr_scan"}, "is_disabled": 0, "fusion_lat": 0.0, "name": "1bce742b61da75c8eae2788e34c55adb", "fusion_lon": 0.0}, {"is_reserved": 0, "type": "electric_scooter", "bike_id": "3c5c51ef1cb6f983c465951fceb3e17a", "lat": 38.9227295, "lon": -77.0367115, "rental_uris": {"android": "https://dc.lft.to/lastmile_qr_scan", "ios": "https://dc.lft.to/lastmile_qr_scan"}, "is_disabled": 0, "fusion_lat": 0.0, "name": "3c5c51ef1cb6f983c465951fceb3e17a", "fusion_lon": 0.0}, {"is_reserved": 0, "type": "electric_bike", "bike_id": "0fd45db9f4fa1d0db0c34a2fa1b9f93a", "lat": 38.9467955, "lon": -76.99332833333334, "rental_uris": {"android": "https://dc.lft.to/lastmile_qr_scan", "ios": "https://dc.lft.to/lastmile_qr_scan"}, "is_disabled": 0, "fusion_lat": 0.0, "name": "0fd45db9f4fa1d0db0c34a2fa1b9f93a", "fusion_lon": 0.0}, {"is_reserved": 0, "type": "electric_scooter", "bike_id": "db4c0b0a34634963a90ce3caf23c1d4c", "lat": 38.89382916666667, "lon": -76.9782195, "rental_uris": {"android": "https://dc.lft.to/lastmile_qr_scan", "ios": "https://dc.lft.to/lastmile_qr_scan"}, "is_disabled": 0, "fusion_lat": 0.0, "name": "db4c0b0a34634963a90ce3caf23c1d4c", "fusion_lon": 0.0}, {"is_reserved": 0, "type": "electric_scooter", "bike_id": "cf2e070d81a24315b66cf7a283c5f554", "lat": 38.934092, "lon": -77.04220683333334, "rental_uris": {"android": "https://dc.lft.to/lastmile_qr_scan", "ios": "https://dc.lft.to/lastmile_qr_scan"}, "is_disabled": 0, "fusion_lat": 0.0, "name": "cf2e070d81a24315b66cf7a283c5f554", "fusion_lon": 0.0}, {"is_reserved": 0, "type": "electric_scooter", "bike_id": "242aefe999cd5030afbc803d90c0b240", "lat": 38.897246333333335, "lon": -77.00322983333334, "rental_uris": {"android": "https://dc.lft.to/lastmile_qr_scan", "ios": "https://dc.lft.to/lastmile_qr_scan"}, "is_disabled": 0, "fusion_lat": 0.0, "name": "242aefe999cd5030afbc803d90c0b240", "fusion_lon": 0.0}, {"is_reserved": 0, "type": "electric_scooter", "bike_id": "4fa230b3b8d17ce41145faa4d52d380f", "lat": 38.90647583333333, "lon": -77.04230883333334, "rental_uris": {"android": "https://dc.lft.to/lastmile_qr_scan", "ios": "https://dc.lft.to/lastmile_qr_scan"}, "is_disabled": 0, "fusion_lat": 0.0, "name": "4fa230b3b8d17ce41145faa4d52d380f", "fusion_lon": 0.0}, {"is_reserved": 0, "type": "electric_scooter", "bike_id": "4ffd266d1be001daecdf8404a1d8ee2b", "lat": 38.93245816666666, "lon": -76.9949985, "rental_uris": {"android": "https://dc.lft.to/lastmile_qr_scan", "ios": "https://dc.lft.to/lastmile_qr_scan"}, "is_disabled": 0, "fusion_lat": 0.0, "name": "4ffd266d1be001daecdf8404a1d8ee2b", "fusion_lon": 0.0}, {"is_reserved": 0, "type": "electric_scooter", "bike_id": "0c177aa67a822fd69e4d28421d446822", "lat": 38.92153583333333, "lon": -77.0340585, "rental_uris": {"android": "https://dc.lft.to/lastmile_qr_scan", "ios": "https://dc.lft.to/lastmile_qr_scan"}, "is_disabled": 0, "fusion_lat": 0.0, "name": "0c177aa67a822fd69e4d28421d446822", "fusion_lon": 0.0}, {"is_reserved": 0, "type": "electric_scooter", "bike_id": "46a3675ffde227739f2dafcb75afaee4", "lat": 38.91415333333333, "lon": -77.03170216666666, "rental_uris": {"android": "https://dc.lft.to/lastmile_qr_scan", "ios": "https://dc.lft.to/lastmile_qr_scan"}, "is_disabled": 0, "fusion_lat": 0.0, "name": "46a3675ffde227739f2dafcb75afaee4", "fusion_lon": 0.0}, {"is_reserved": 0, "type": "electric_bike", "bike_id": "ef6a3992ecd8f76b23e61033a05e6259", "lat": 39.00030016666667, "lon": -77.04742783333333, "rental_uris": {"android": "https://dc.lft.to/lastmile_qr_scan", "ios": "https://dc.lft.to/lastmile_qr_scan"}, "is_disabled": 0, "fusion_lat": 0.0, "name": "ef6a3992ecd8f76b23e61033a05e6259", "fusion_lon": 0.0}, {"is_reserved": 0, "type": "electric_scooter", "bike_id": "c117194907fcbf57d16a3c246e6f2b8f", "lat": 38.921603166666664, "lon": -77.03514416666667, "rental_uris": {"android": "https://dc.lft.to/lastmile_qr_scan", "ios": "https://dc.lft.to/lastmile_qr_scan"}, "is_disabled": 0, "fusion_lat": 0.0, "name": "c117194907fcbf57d16a3c246e6f2b8f", "fusion_lon": 0.0}, {"is_reserved": 0, "type": "electric_scooter", "bike_id": "07b6060bcdae38c4453708e1d56a851c", "lat": 38.9078395, "lon": -77.03549733333334, "rental_uris": {"android": "https://dc.lft.to/lastmile_qr_scan", "ios": "https://dc.lft.to/lastmile_qr_scan"}, "is_disabled": 0, "fusion_lat": 0.0, "name": "07b6060bcdae38c4453708e1d56a851c", "fusion_lon": 0.0}, {"is_reserved": 0, "type": "electric_scooter", "bike_id": "c9f256e19d263d99e4d08a4e7f7f06d4", "lat": 38.90854516666667, "lon": -77.010186, "rental_uris": {"android": "https://dc.lft.to/lastmile_qr_scan", "ios": "https://dc.lft.to/lastmile_qr_scan"}, "is_disabled": 0, "fusion_lat": 0.0, "name": "c9f256e19d263d99e4d08a4e7f7f06d4", "fusion_lon": 0.0}, {"is_reserved": 0, "type": "electric_scooter", "bike_id": "af88a3bb79905ef8b03174b2b5987b27", "lat": 38.8825635, "lon": -77.00625716666667, "rental_uris": {"android": "https://dc.lft.to/lastmile_qr_scan", "ios": "https://dc.lft.to/lastmile_qr_scan"}, "is_disabled": 0, "fusion_lat": 0.0, "name": "af88a3bb79905ef8b03174b2b5987b27", "fusion_lon": 0.0}, {"is_reserved": 0, "type": "electric_scooter", "bike_id": "d313302b752c9ea77557abe26d73a48d", "lat": 38.9041765, "lon": -77.03073833333333, "rental_uris": {"android": "https://dc.lft.to/lastmile_qr_scan", "ios": "https://dc.lft.to/lastmile_qr_scan"}, "is_disabled": 0, "fusion_lat": 0.0, "name": "d313302b752c9ea77557abe26d73a48d", "fusion_lon": 0.0}, {"is_reserved": 0, "type": "electric_scooter", "bike_id": "29b2f29863c2cc70adaf379987da77f2", "lat": 38.924871833333334, "lon": -77.02143066666666, "rental_uris": {"android": "https://dc.lft.to/lastmile_qr_scan", "ios": "https://dc.lft.to/lastmile_qr_scan"}, "is_disabled": 0, "fusion_lat": 0.0, "name": "29b2f29863c2cc70adaf379987da77f2", "fusion_lon": 0.0}, {"is_reserved": 0, "type": "electric_scooter", "bike_id": "94d20116c0bfad5cd41be6e185e6f153", "lat": 38.90500133333333, "lon": -77.03474366666667, "rental_uris": {"android": "https://dc.lft.to/lastmile_qr_scan", "ios": "https://dc.lft.to/lastmile_qr_scan"}, "is_disabled": 0, "fusion_lat": 0.0, "name": "94d20116c0bfad5cd41be6e185e6f153", "fusion_lon": 0.0}, {"is_reserved": 0, "type": "electric_scooter", "bike_id": "beb15c1e0e124590109020a4db57f3c4", "lat": 38.89737616666667, "lon": -77.02019033333333, "rental_uris": {"android": "https://dc.lft.to/lastmile_qr_scan", "ios": "https://dc.lft.to/lastmile_qr_scan"}, "is_disabled": 0, "fusion_lat": 0.0, "name": "beb15c1e0e124590109020a4db57f3c4", "fusion_lon": 0.0}, {"is_reserved": 0, "type": "electric_scooter", "bike_id": "e722d899d01ba4777a24ff34ab9d2d2e", "lat": 38.89878316666667, "lon": -76.931841, "rental_uris": {"android": "https://dc.lft.to/lastmile_qr_scan", "ios": "https://dc.lft.to/lastmile_qr_scan"}, "is_disabled": 0, "fusion_lat": 0.0, "name": "e722d899d01ba4777a24ff34ab9d2d2e", "fusion_lon": 0.0}, {"is_reserved": 0, "type": "electric_bike", "bike_id": "655fdc5c7327109428858cdd5b00bb6a", "lat": 38.90522983333334, "lon": -77.041867, "rental_uris": {"android": "https://dc.lft.to/lastmile_qr_scan", "ios": "https://dc.lft.to/lastmile_qr_scan"}, "is_disabled": 0, "fusion_lat": 0.0, "name": "655fdc5c7327109428858cdd5b00bb6a", "fusion_lon": 0.0}, {"is_reserved": 0, "type": "electric_scooter", "bike_id": "cceca5f63a56eccd4b1522bd979c8d29", "lat": 38.92111083333333, "lon": -77.02213666666667, "rental_uris": {"android": "https://dc.lft.to/lastmile_qr_scan", "ios": "https://dc.lft.to/lastmile_qr_scan"}, "is_disabled": 0, "fusion_lat": 0.0, "name": "cceca5f63a56eccd4b1522bd979c8d29", "fusion_lon": 0.0}, {"is_reserved": 0, "type": "electric_scooter", "bike_id": "3773534e08436a6d57d0cacb964b3d3c", "lat": 38.93612183333333, "lon": -77.032051, "rental_uris": {"android": "https://dc.lft.to/lastmile_qr_scan", "ios": "https://dc.lft.to/lastmile_qr_scan"}, "is_disabled": 0, "fusion_lat": 0.0, "name": "3773534e08436a6d57d0cacb964b3d3c", "fusion_lon": 0.0}, {"is_reserved": 0, "type": "electric_scooter", "bike_id": "77b9036a5c22217cf89c1cdff5a25fb1", "lat": 38.906132, "lon": -77.0091305, "rental_uris": {"android": "https://dc.lft.to/lastmile_qr_scan", "ios": "https://dc.lft.to/lastmile_qr_scan"}, "is_disabled": 0, "fusion_lat": 0.0, "name": "77b9036a5c22217cf89c1cdff5a25fb1", "fusion_lon": 0.0}, {"is_reserved": 0, "type": "electric_bike", "bike_id": "5f66dc59f25879d65611ee5c9e6c158e", "lat": 38.95111133333333, "lon": -77.0200715, "rental_uris": {"android": "https://dc.lft.to/lastmile_qr_scan", "ios": "https://dc.lft.to/lastmile_qr_scan"}, "is_disabled": 0, "fusion_lat": 0.0, "name": "5f66dc59f25879d65611ee5c9e6c158e", "fusion_lon": 0.0}, {"is_reserved": 0, "type": "electric_scooter", "bike_id": "877b879bb75938cfa8dd754f4ac37273", "lat": 38.88739733333333, "lon": -77.01351166666667, "rental_uris": {"android": "https://dc.lft.to/lastmile_qr_scan", "ios": "https://dc.lft.to/lastmile_qr_scan"}, "is_disabled": 0, "fusion_lat": 0.0, "name": "877b879bb75938cfa8dd754f4ac37273", "fusion_lon": 0.0}, {"is_reserved": 0, "type": "electric_scooter", "bike_id": "74f4ef00a053c4cb51beb08ad87784c7", "lat": 38.904467, "lon": -77.05248033333334, "rental_uris": {"android": "https://dc.lft.to/lastmile_qr_scan", "ios": "https://dc.lft.to/lastmile_qr_scan"}, "is_disabled": 0, "fusion_lat": 0.0, "name": "74f4ef00a053c4cb51beb08ad87784c7", "fusion_lon": 0.0}, {"is_reserved": 0, "type": "electric_scooter", "bike_id": "c48b8303ee41130450f2d4dd6bdb113f", "lat": 38.8936385, "lon": -76.98679733333333, "rental_uris": {"android": "https://dc.lft.to/lastmile_qr_scan", "ios": "https://dc.lft.to/lastmile_qr_scan"}, "is_disabled": 0, "fusion_lat": 0.0, "name": "c48b8303ee41130450f2d4dd6bdb113f", "fusion_lon": 0.0}, {"is_reserved": 0, "type": "electric_scooter", "bike_id": "528c55a1723e22deb3166998ce868040", "lat": 38.894669, "lon": -76.927455, "rental_uris": {"android": "https://dc.lft.to/lastmile_qr_scan", "ios": "https://dc.lft.to/lastmile_qr_scan"}, "is_disabled": 0, "fusion_lat": 0.0, "name": "528c55a1723e22deb3166998ce868040", "fusion_lon": 0.0}, {"is_reserved": 0, "type": "electric_scooter", "bike_id": "27b0e199289c9118aa9c2857f6cf7e6d", "lat": 38.908836, "lon": -76.998202, "rental_uris": {"android": "https://dc.lft.to/lastmile_qr_scan", "ios": "https://dc.lft.to/lastmile_qr_scan"}, "is_disabled": 0, "fusion_lat": 0.0, "name": "27b0e199289c9118aa9c2857f6cf7e6d", "fusion_lon": 0.0}, {"is_reserved": 0, "type": "electric_scooter", "bike_id": "6d134eb64fd889a3e0af5a075c0ad4bd", "lat": 38.989903166666664, "lon": -77.0336005, "rental_uris": {"android": "https://dc.lft.to/lastmile_qr_scan", "ios": "https://dc.lft.to/lastmile_qr_scan"}, "is_disabled": 0, "fusion_lat": 0.0, "name": "6d134eb64fd889a3e0af5a075c0ad4bd", "fusion_lon": 0.0}, {"is_reserved": 0, "type": "electric_scooter", "bike_id": "20c75b55231bb2bc4ec0cb3950087098", "lat": 38.9244465, "lon": -77.02025116666667, "rental_uris": {"android": "https://dc.lft.to/lastmile_qr_scan", "ios": "https://dc.lft.to/lastmile_qr_scan"}, "is_disabled": 0, "fusion_lat": 0.0, "name": "20c75b55231bb2bc4ec0cb3950087098", "fusion_lon": 0.0}, {"is_reserved": 0, "type": "electric_bike", "bike_id": "5e19de0ba86f8e8e8d016cf87c90ae3a", "lat": 38.80258833333333, "lon": -77.12171366666666, "rental_uris": {"android": "https://dc.lft.to/lastmile_qr_scan", "ios": "https://dc.lft.to/lastmile_qr_scan"}, "is_disabled": 0, "fusion_lat": 0.0, "name": "5e19de0ba86f8e8e8d016cf87c90ae3a", "fusion_lon": 0.0}, {"is_reserved": 0, "type": "electric_scooter", "bike_id": "f48454a6f109446850a481250258f12b", "lat": 38.910438, "lon": -77.01515733333333, "rental_uris": {"android": "https://dc.lft.to/lastmile_qr_scan", "ios": "https://dc.lft.to/lastmile_qr_scan"}, "is_disabled": 0, "fusion_lat": 0.0, "name": "f48454a6f109446850a481250258f12b", "fusion_lon": 0.0}, {"is_reserved": 0, "type": "electric_bike", "bike_id": "fd2d833763183c8250ec5f942dc160fb", "lat": 38.95154733333333, "lon": -76.93332066666666, "rental_uris": {"android": "https://dc.lft.to/lastmile_qr_scan", "ios": "https://dc.lft.to/lastmile_qr_scan"}, "is_disabled": 0, "fusion_lat": 0.0, "name": "fd2d833763183c8250ec5f942dc160fb", "fusion_lon": 0.0}, {"is_reserved": 0, "type": "electric_scooter", "bike_id": "62034d80ee8ab19521d815d84b56e6aa", "lat": 38.95627, "lon": -77.0356405, "rental_uris": {"android": "https://dc.lft.to/lastmile_qr_scan", "ios": "https://dc.lft.to/lastmile_qr_scan"}, "is_disabled": 0, "fusion_lat": 0.0, "name": "62034d80ee8ab19521d815d84b56e6aa", "fusion_lon": 0.0}, {"is_reserved": 0, "type": "electric_scooter", "bike_id": "0cadcefaa182f7633438cca10c8c052c", "lat": 38.91982133333333, "lon": -77.04172216666667, "rental_uris": {"android": "https://dc.lft.to/lastmile_qr_scan", "ios": "https://dc.lft.to/lastmile_qr_scan"}, "is_disabled": 0, "fusion_lat": 0.0, "name": "0cadcefaa182f7633438cca10c8c052c", "fusion_lon": 0.0}, {"is_reserved": 0, "type": "electric_scooter", "bike_id": "2e57013c40d44b1c449d463ba8d20db0", "lat": 38.92454166666667, "lon": -77.02128016666667, "rental_uris": {"android": "https://dc.lft.to/lastmile_qr_scan", "ios": "https://dc.lft.to/lastmile_qr_scan"}, "is_disabled": 0, "fusion_lat": 0.0, "name": "2e57013c40d44b1c449d463ba8d20db0", "fusion_lon": 0.0}, {"is_reserved": 0, "type": "electric_scooter", "bike_id": "808c5aaabdfb87b96ee4a93bf1c853e4", "lat": 38.91104683333333, "lon": -77.0383355, "rental_uris": {"android": "https://dc.lft.to/lastmile_qr_scan", "ios": "https://dc.lft.to/lastmile_qr_scan"}, "is_disabled": 0, "fusion_lat": 0.0, "name": "808c5aaabdfb87b96ee4a93bf1c853e4", "fusion_lon": 0.0}, {"is_reserved": 0, "type": "electric_scooter", "bike_id": "6c2732cb792a494df926576988c3b0ca", "lat": 38.91598416666667, "lon": -77.02195783333333, "rental_uris": {"android": "https://dc.lft.to/lastmile_qr_scan", "ios": "https://dc.lft.to/lastmile_qr_scan"}, "is_disabled": 0, "fusion_lat": 0.0, "name": "6c2732cb792a494df926576988c3b0ca", "fusion_lon": 0.0}, {"is_reserved": 0, "type": "electric_scooter", "bike_id": "c7acae9022c8b94c85996023e43a8e5e", "lat": 38.924407, "lon": -77.02026983333333, "rental_uris": {"android": "https://dc.lft.to/lastmile_qr_scan", "ios": "https://dc.lft.to/lastmile_qr_scan"}, "is_disabled": 0, "fusion_lat": 0.0, "name": "c7acae9022c8b94c85996023e43a8e5e", "fusion_lon": 0.0}, {"is_reserved": 0, "type": "electric_scooter", "bike_id": "fdbba8b669ffc7a7c0de06177d09a032", "lat": 38.922400833333334, "lon": -77.03515816666666, "rental_uris": {"android": "https://dc.lft.to/lastmile_qr_scan", "ios": "https://dc.lft.to/lastmile_qr_scan"}, "is_disabled": 0, "fusion_lat": 0.0, "name": "fdbba8b669ffc7a7c0de06177d09a032", "fusion_lon": 0.0}, {"is_reserved": 0, "type": "electric_scooter", "bike_id": "9471bed19cd998032e3543321372488b", "lat": 38.8992155, "lon": -77.03200866666667, "rental_uris": {"android": "https://dc.lft.to/lastmile_qr_scan", "ios": "https://dc.lft.to/lastmile_qr_scan"}, "is_disabled": 0, "fusion_lat": 0.0, "name": "9471bed19cd998032e3543321372488b", "fusion_lon": 0.0}, {"is_reserved": 0, "type": "electric_scooter", "bike_id": "2d5e4242a8c06153058837f3a0e8aef4", "lat": 38.90041466666667, "lon": -76.99153583333333, "rental_uris": {"android": "https://dc.lft.to/lastmile_qr_scan", "ios": "https://dc.lft.to/lastmile_qr_scan"}, "is_disabled": 0, "fusion_lat": 0.0, "name": "2d5e4242a8c06153058837f3a0e8aef4", "fusion_lon": 0.0}, {"is_reserved": 0, "type": "electric_scooter", "bike_id": "7f030e322a2c288ff5ac9260918a3684", "lat": 38.922787666666665, "lon": -76.99770566666666, "rental_uris": {"android": "https://dc.lft.to/lastmile_qr_scan", "ios": "https://dc.lft.to/lastmile_qr_scan"}, "is_disabled": 0, "fusion_lat": 0.0, "name": "7f030e322a2c288ff5ac9260918a3684", "fusion_lon": 0.0}, {"is_reserved": 0, "type": "electric_scooter", "bike_id": "86c57005bd3d21fe56a48c0b9703105d", "lat": 38.89365683333333, "lon": -76.9410425, "rental_uris": {"android": "https://dc.lft.to/lastmile_qr_scan", "ios": "https://dc.lft.to/lastmile_qr_scan"}, "is_disabled": 0, "fusion_lat": 0.0, "name": "86c57005bd3d21fe56a48c0b9703105d", "fusion_lon": 0.0}, {"is_reserved": 0, "type": "electric_scooter", "bike_id": "0c7cb41d1c8e0d86b49cb85dd271e462", "lat": 38.927215333333336, "lon": -77.05349283333334, "rental_uris": {"android": "https://dc.lft.to/lastmile_qr_scan", "ios": "https://dc.lft.to/lastmile_qr_scan"}, "is_disabled": 0, "fusion_lat": 0.0, "name": "0c7cb41d1c8e0d86b49cb85dd271e462", "fusion_lon": 0.0}, {"is_reserved": 0, "type": "electric_scooter", "bike_id": "465d3dd25a992f988f01b5e094a9829f", "lat": 38.92565883333333, "lon": -76.97004983333333, "rental_uris": {"android": "https://dc.lft.to/lastmile_qr_scan", "ios": "https://dc.lft.to/lastmile_qr_scan"}, "is_disabled": 0, "fusion_lat": 0.0, "name": "465d3dd25a992f988f01b5e094a9829f", "fusion_lon": 0.0}, {"is_reserved": 0, "type": "electric_scooter", "bike_id": "cddc7ffe76e72aa8d2fdb820c8b5676c", "lat": 38.917824833333334, "lon": -77.03179316666667, "rental_uris": {"android": "https://dc.lft.to/lastmile_qr_scan", "ios": "https://dc.lft.to/lastmile_qr_scan"}, "is_disabled": 0, "fusion_lat": 0.0, "name": "cddc7ffe76e72aa8d2fdb820c8b5676c", "fusion_lon": 0.0}, {"is_reserved": 0, "type": "electric_scooter", "bike_id": "09053191978a326ff847f80292c0b75a", "lat": 38.940853, "lon": -77.02315883333333, "rental_uris": {"android": "https://dc.lft.to/lastmile_qr_scan", "ios": "https://dc.lft.to/lastmile_qr_scan"}, "is_disabled": 0, "fusion_lat": 0.0, "name": "09053191978a326ff847f80292c0b75a", "fusion_lon": 0.0}, {"is_reserved": 0, "type": "electric_scooter", "bike_id": "a276f790f4f4157b631ef188239914bf", "lat": 38.893496999999996, "lon": -77.01165883333333, "rental_uris": {"android": "https://dc.lft.to/lastmile_qr_scan", "ios": "https://dc.lft.to/lastmile_qr_scan"}, "is_disabled": 0, "fusion_lat": 0.0, "name": "a276f790f4f4157b631ef188239914bf", "fusion_lon": 0.0},