{"data": {"bikes": [{"is_reserved": 0, "bike_id": "8b3d883ab95b785ccdbcc79f1bc2b14e", "type": "electric_scooter", "name": "8b3d883ab95b785ccdbcc79f1bc2b14e", "is_disabled": 0, "fusion_lon": 0.0, "rental_uris": {"android": "https://dc.lft.to/lastmile_qr_scan", "ios": "https://dc.lft.to/lastmile_qr_scan"}, "lat": 38.90481416666667, "lon": -77.035574, "fusion_lat": 0.0}, {"is_reserved": 0, "bike_id": "dd461ce7054715e289f77cea5e169671", "type": "electric_scooter", "name": "dd461ce7054715e289f77cea5e169671", "is_disabled": 0, "fusion_lon": 0.0, "rental_uris": {"android": "https://dc.lft.to/lastmile_qr_scan", "ios": "https://dc.lft.to/lastmile_qr_scan"}, "lat": 38.9070575, "lon": -77.00756183333333, "fusion_lat": 0.0}, {"is_reserved": 0, "bike_id": "2718eea9bc2240085253683508965a96", "type": "electric_scooter", "name": "2718eea9bc2240085253683508965a96", "is_disabled": 0, "fusion_lon": 0.0, "rental_uris": {"android": "https://dc.lft.to/lastmile_qr_scan", "ios": "https://dc.lft.to/lastmile_qr_scan"}, "lat": 38.898886833333336, "lon": -77.04569033333334, "fusion_lat": 0.0}, {"is_reserved": 0, "bike_id": "ec2542b1334c1d618b66c77fe2fc7f57", "type": "electric_scooter", "name": "ec2542b1334c1d618b66c77fe2fc7f57", "is_disabled": 0, "fusion_lon": 0.0, "rental_uris": {"android": "https://dc.lft.to/lastmile_qr_scan", "ios": "https://dc.lft.to/lastmile_qr_scan"}, "lat": 38.89790633333333, "lon": -77.02689016666666, "fusion_lat": 0.0}, {"is_reserved": 0, "bike_id": "381b1156402ede0fac9c36a93ce286ca", "type": "electric_scooter", "name": "381b1156402ede0fac9c36a93ce286ca", "is_disabled": 0, "fusion_lon": 0.0, "rental_uris": {"android": "https://dc.lft.to/lastmile_qr_scan", "ios": "https://dc.lft.to/lastmile_qr_scan"}, "lat": 38.89993316666666, "lon": -76.99009816666667, "fusion_lat": 0.0}, {"is_reserved": 0, "bike_id": "472c8b1de0f9c5ea58603057abbeb5b2", "type": "electric_scooter", "name": "472c8b1de0f9c5ea58603057abbeb5b2", "is_disabled": 0, "fusion_lon": 0.0, "rental_uris": {"android": "https://dc.lft.to/lastmile_qr_scan", "ios": "https://dc.lft.to/lastmile_qr_scan"}, "lat": 38.89220816666667, "lon": -77.0241725, "fusion_lat": 0.0}, {"is_reserved": 0, "bike_id": "f77133b096b8515cd0efe829f2da8a19", "type": "electric_scooter", "name": "f77133b096b8515cd0efe829f2da8a19", "is_disabled": 0, "fusion_lon": 0.0, "rental_uris": {"android": "https://dc.lft.to/lastmile_qr_scan", "ios": "https://dc.lft.to/lastmile_qr_scan"}, "lat": 38.92249533333333, "lon": -77.03065533333333, "fusion_lat": 0.0}, {"is_reserved": 0, "bike_id": "62d7d164fb4a6903a05240b40a233738", "type": "electric_scooter", "name": "62d7d164fb4a6903a05240b40a233738", "is_disabled": 0, "fusion_lon": 0.0, "rental_uris": {"android": "https://dc.lft.to/lastmile_qr_scan", "ios": "https://dc.lft.to/lastmile_qr_scan"}, "lat": 38.92587183333333, "lon": -77.04409033333333, "fusion_lat": 0.0}, {"is_reserved": 0, "bike_id": "75456ff66c6c8629101c2697812bad56", "type": "electric_scooter", "name": "75456ff66c6c8629101c2697812bad56", "is_disabled": 0, "fusion_lon": 0.0, "rental_uris": {"android": "https://dc.lft.to/lastmile_qr_scan", "ios": "https://dc.lft.to/lastmile_qr_scan"}, "lat": 38.88322933333333, "lon": -77.029973, "fusion_lat": 0.0}, {"is_reserved": 0, "bike_id": "2462004e571a87ddfa5ebdc0ec58d59e", "type": "electric_scooter", "name": "2462004e571a87ddfa5ebdc0ec58d59e", "is_disabled": 0, "fusion_lon": 0.0, "rental_uris": {"android": "https://dc.lft.to/lastmile_qr_scan", "ios": "https://dc.lft.to/lastmile_qr_scan"}, "lat": 38.90562083333333, "lon": -77.05136283333333, "fusion_lat": 0.0}, {"is_reserved": 0, "bike_id": "f9874509d694e3a6720455edb7f5d2cd", "type": "electric_scooter", "name": "f9874509d694e3a6720455edb7f5d2cd", "is_disabled": 0, "fusion_lon": 0.0, "rental_uris": {"android": "https://dc.lft.to/lastmile_qr_scan", "ios": "https://dc.lft.to/lastmile_qr_scan"}, "lat": 38.919117, "lon": -77.03249416666667, "fusion_lat": 0.0}, {"is_reserved": 0, "bike_id": "598448ba23868426c7e198cfd1c5742e", "type": "electric_scooter", "name": "598448ba23868426c7e198cfd1c5742e", "is_disabled": 0, "fusion_lon": 0.0, "rental_uris": {"android": "https://dc.lft.to/lastmile_qr_scan", "ios": "https://dc.lft.to/lastmile_qr_scan"}, "lat": 38.91356716666667, "lon": -77.02051566666667, "fusion_lat": 0.0}, {"is_reserved": 0, "bike_id": "a7b82153652fcf01feb9d36902a7f08d", "type": "electric_bike", "name": "a7b82153652fcf01feb9d36902a7f08d", "is_disabled": 0, "fusion_lon": 0.0, "rental_uris": {"android": "https://dc.lft.to/lastmile_qr_scan", "ios": "https://dc.lft.to/lastmile_qr_scan"}, "lat": 38.904559, "lon": -77.0317725, "fusion_lat": 0.0}, {"is_reserved": 0, "bike_id": "0dad9dd89f37dc6622b5c3e3dce5246a", "type": "electric_scooter", "name": "0dad9dd89f37dc6622b5c3e3dce5246a", "is_disabled": 0, "fusion_lon": 0.0, "rental_uris": {"android": "https://dc.lft.to/lastmile_qr_scan", "ios": "https://dc.lft.to/lastmile_qr_scan"}, "lat": 38.9034915, "lon": -77.011021, "fusion_lat": 0.0}, {"is_reserved": 0, "bike_id": "60d4863af902617097ab163cd7487070", "type": "electric_scooter", "name": "60d4863af902617097ab163cd7487070", "is_disabled": 0, "fusion_lon": 0.0, "rental_uris": {"android": "https://dc.lft.to/lastmile_qr_scan", "ios": "https://dc.lft.to/lastmile_qr_scan"}, "lat": 38.89618433333333, "lon": -76.985607, "fusion_lat": 0.0}, {"is_reserved": 0, "bike_id": "4ceba1734d9f03cb70ae50d04731d683", "type": "electric_bike", "name": "4ceba1734d9f03cb70ae50d04731d683", "is_disabled": 0, "fusion_lon": 0.0, "rental_uris": {"android": "https://dc.lft.to/lastmile_qr_scan", "ios": "https://dc.lft.to/lastmile_qr_scan"}, "lat": 38.852827166666664, "lon": -77.04970283333333, "fusion_lat": 0.0}, {"is_reserved": 0, "bike_id": "5da3b624de6b63bbdb1b265bb0a21b07", "type": "electric_scooter", "name": "5da3b624de6b63bbdb1b265bb0a21b07", "is_disabled": 0, "fusion_lon": 0.0, "rental_uris": {"android": "https://dc.lft.to/lastmile_qr_scan", "ios": "https://dc.lft.to/lastmile_qr_scan"}, "lat": 38.914103, "lon": -77.01013733333333, "fusion_lat": 0.0}, {"is_reserved": 0, "bike_id": "59d57eb08a28f3e65a61fe20818cbf4f", "type": "electric_scooter", "name": "59d57eb08a28f3e65a61fe20818cbf4f", "is_disabled": 0, "fusion_lon": 0.0, "rental_uris": {"android": "https://dc.lft.to/lastmile_qr_scan", "ios": "https://dc.lft.to/lastmile_qr_scan"}, "lat": 38.92329183333333, "lon": -77.05679016666667, "fusion_lat": 0.0}, {"is_reserved": 0, "bike_id": "069a1c8160af13934ca3f5c3dbb2feb5", "type": "electric_scooter", "name": "069a1c8160af13934ca3f5c3dbb2feb5", "is_disabled": 0, "fusion_lon": 0.0, "rental_uris": {"android": "https://dc.lft.to/lastmile_qr_scan", "ios": "https://dc.lft.to/lastmile_qr_scan"}, "lat": 38.95420216666667, "lon": -77.02763, "fusion_lat": 0.0}, {"is_reserved": 0, "bike_id": "6c4b706e83e6f35c6c8e3036fccda44b", "type": "electric_scooter", "name": "6c4b706e83e6f35c6c8e3036fccda44b", "is_disabled": 0, "fusion_lon": 0.0, "rental_uris": {"android": "https://dc.lft.to/lastmile_qr_scan", "ios": "https://dc.lft.to/lastmile_qr_scan"}, "lat": 38.92263833333333, "lon": -77.029679, "fusion_lat": 0.0}, {"is_reserved": 0, "bike_id": "ad48717e12129e603f6f1d4844d91027", "type": "electric_scooter", "name": "ad48717e12129e603f6f1d4844d91027", "is_disabled": 0, "fusion_lon": 0.0, "rental_uris": {"android": "https://dc.lft.to/lastmile_qr_scan", "ios": "https://dc.lft.to/lastmile_qr_scan"}, "lat": 38.90646316666667, "lon": -77.053393, "fusion_lat": 0.0}, {"is_reserved": 0, "bike_id": "e8dcdbb863085e13abbffd30b1fffafb", "type": "electric_scooter", "name": "e8dcdbb863085e13abbffd30b1fffafb", "is_disabled": 0, "fusion_lon": 0.0, "rental_uris": {"android": "https://dc.lft.to/lastmile_qr_scan", "ios": "https://dc.lft.to/lastmile_qr_scan"}, "lat": 38.93177516666667, "lon": -77.03703666666667, "fusion_lat": 0.0}, {"is_reserved": 0, "bike_id": "85c5c70b1c21b12c168b1d6c06ff5a7a", "type": "electric_scooter", "name": "85c5c70b1c21b12c168b1d6c06ff5a7a", "is_disabled": 0, "fusion_lon": 0.0, "rental_uris": {"android": "https://dc.lft.to/lastmile_qr_scan", "ios": "https://dc.lft.to/lastmile_qr_scan"}, "lat": 38.912658666666665, "lon": -77.02213483333334, "fusion_lat": 0.0}, {"is_reserved": 0, "bike_id": "84455c6380432c7111297e3b1f5ffc68", "type": "electric_scooter", "name": "84455c6380432c7111297e3b1f5ffc68", "is_disabled": 0, "fusion_lon": 0.0, "rental_uris": {"android": "https://dc.lft.to/lastmile_qr_scan", "ios": "https://dc.lft.to/lastmile_qr_scan"}, "lat": 38.901266666666665, "lon": -77.049956, "fusion_lat": 0.0}, {"is_reserved": 0, "bike_id": "89d859b7be99f2319d826ea519bfd051", "type": "electric_scooter", "name": "89d859b7be99f2319d826ea519bfd051", "is_disabled": 0, "fusion_lon": 0.0, "rental_uris": {"android": "https://dc.lft.to/lastmile_qr_scan", "ios": "https://dc.lft.to/lastmile_qr_scan"}, "lat": 38.884263833333335, "lon": -77.03047083333334, "fusion_lat": 0.0}, {"is_reserved": 0, "bike_id": "22d8e9c7a8d748509585a46ed8720910", "type": "electric_scooter", "name": "22d8e9c7a8d748509585a46ed8720910", "is_disabled": 0, "fusion_lon": 0.0, "rental_uris": {"android": "https://dc.lft.to/lastmile_qr_scan", "ios": "https://dc.lft.to/lastmile_qr_scan"}, "lat": 38.902709333333334, "lon": -77.0175955, "fusion_lat": 0.0}, {"is_reserved": 0, "bike_id": "b0e8c07c34991f64df14e5d58ec173f8", "type": "electric_scooter", "name": "b0e8c07c34991f64df14e5d58ec173f8", "is_disabled": 0, "fusion_lon": 0.0, "rental_uris": {"android": "https://dc.lft.to/lastmile_qr_scan", "ios": "https://dc.lft.to/lastmile_qr_scan"}, "lat": 38.899339166666664, "lon": -77.03220516666667, "fusion_lat": 0.0}, {"is_reserved": 0, "bike_id": "95646b69be8ea7a437f3a8faff6c6823", "type": "electric_scooter", "name": "95646b69be8ea7a437f3a8faff6c6823", "is_disabled": 0, "fusion_lon": 0.0, "rental_uris": {"android": "https://dc.lft.to/lastmile_qr_scan", "ios": "https://dc.lft.to/lastmile_qr_scan"}, "lat": 38.896853, "lon": -77.04345666666667, "fusion_lat": 0.0}, {"is_reserved": 0, "bike_id": "1df0d83647a414c12f09394c4026f3a1", "type": "electric_scooter", "name": "1df0d83647a414c12f09394c4026f3a1", "is_disabled": 0, "fusion_lon": 0.0, "rental_uris": {"android": "https://dc.lft.to/lastmile_qr_scan", "ios": "https://dc.lft.to/lastmile_qr_scan"}, "lat": 38.9206125, "lon": -77.043823, "fusion_lat": 0.0}, {"is_reserved": 0, "bike_id": "520a738b1e869cd54778a3c1220c19bb", "type": "electric_scooter", "name": "520a738b1e869cd54778a3c1220c19bb", "is_disabled": 0, "fusion_lon": 0.0, "rental_uris": {"android": "https://dc.lft.to/lastmile_qr_scan", "ios": "https://dc.lft.to/lastmile_qr_scan"}, "lat": 38.9209645, "lon": -77.02512383333334, "fusion_lat": 0.0}, {"is_reserved": 0, "bike_id": "75bc674d7e1b87f94cd9a800395809cb", "type": "electric_scooter", "name": "75bc674d7e1b87f94cd9a800395809cb", "is_disabled": 0, "fusion_lon": 0.0, "rental_uris": {"android": "https://dc.lft.to/lastmile_qr_scan", "ios": "https://dc.lft.to/lastmile_qr_scan"}, "lat": 38.907810166666664, "lon": -77.07243866666667, "fusion_lat": 0.0}, {"is_reserved": 0, "bike_id": "ac463ac9294b2411327f605470550442", "type": "electric_bike", "name": "ac463ac9294b2411327f605470550442", "is_disabled": 0, "fusion_lon": 0.0, "rental_uris": {"android": "https://dc.lft.to/lastmile_qr_scan", "ios": "https://dc.lft.to/lastmile_qr_scan"}, "lat": 38.9715225, "lon": -76.97951833333333, "fusion_lat": 0.0}, {"is_reserved": 0, "bike_id": "b3773c48f65b914decb57071e8eeb892", "type": "electric_scooter", "name": "b3773c48f65b914decb57071e8eeb892", "is_disabled": 0, "fusion_lon": 0.0, "rental_uris": {"android": "https://dc.lft.to/lastmile_qr_scan", "ios": "https://dc.lft.to/lastmile_qr_scan"}, "lat": 38.91860583333333, "lon": -76.96092966666667, "fusion_lat": 0.0}, {"is_reserved": 0, "bike_id": "5410c04f70baaaea885a3f456f69e5e5", "type": "electric_scooter", "name": "5410c04f70baaaea885a3f456f69e5e5", "is_disabled": 0, "fusion_lon": 0.0, "rental_uris": {"android": "https://dc.lft.to/lastmile_qr_scan", "ios": "https://dc.lft.to/lastmile_qr_scan"}, "lat": 38.90977, "lon": -77.0089055, "fusion_lat": 0.0}, {"is_reserved": 0, "bike_id": "63bb87d2d1efe31b8a3796a107694b52", "type": "electric_scooter", "name": "63bb87d2d1efe31b8a3796a107694b52", "is_disabled": 0, "fusion_lon": 0.0, "rental_uris": {"android": "https://dc.lft.to/lastmile_qr_scan", "ios": "https://dc.lft.to/lastmile_qr_scan"}, "lat": 38.88080633333333, "lon": -77.02596066666666, "fusion_lat": 0.0}, {"is_reserved": 0, "bike_id": "a24fb61aea52ec2b2aa9bb49f70591a0", "type": "electric_bike", "name": "a24fb61aea52ec2b2aa9bb49f70591a0", "is_disabled": 0, "fusion_lon": 0.0, "rental_uris": {"android": "https://dc.lft.to/lastmile_qr_scan", "ios": "https://dc.lft.to/lastmile_qr_scan"}, "lat": 38.895595166666666, "lon": -77.1273455, "fusion_lat": 0.0}, {"is_reserved": 0, "bike_id": "7ea246a59a82fb8abc48de35e5414e3f", "type": "electric_scooter", "name": "7ea246a59a82fb8abc48de35e5414e3f", "is_disabled": 0, "fusion_lon": 0.0, "rental_uris": {"android": "https://dc.lft.to/lastmile_qr_scan", "ios": "https://dc.lft.to/lastmile_qr_scan"}, "lat": 38.9291325, "lon": -77.01869133333334, "fusion_lat": 0.0}, {"is_reserved": 0, "bike_id": "d016b003080131c641deb65977171dbc", "type": "electric_scooter", "name": "d016b003080131c641deb65977171dbc", "is_disabled": 0, "fusion_lon": 0.0, "rental_uris": {"android": "https://dc.lft.to/lastmile_qr_scan", "ios": "https://dc.lft.to/lastmile_qr_scan"}, "lat": 38.924186166666665, "lon": -77.019471, "fusion_lat": 0.0}, {"is_reserved": 0, "bike_id": "c1a575585a808d6e5a63d077e7820c70", "type": "electric_scooter", "name": "c1a575585a808d6e5a63d077e7820c70", "is_disabled": 0, "fusion_lon": 0.0, "rental_uris": {"android": "https://dc.lft.to/lastmile_qr_scan", "ios": "https://dc.lft.to/lastmile_qr_scan"}, "lat": 38.94306683333333, "lon": -77.029511, "fusion_lat": 0.0}, {"is_reserved": 0, "bike_id": "09219ad5b4ef18b8539e82cfcf27fc63", "type": "electric_scooter", "name": "09219ad5b4ef18b8539e82cfcf27fc63", "is_disabled": 0, "fusion_lon": 0.0, "rental_uris": {"android": "https://dc.lft.to/lastmile_qr_scan", "ios": "https://dc.lft.to/lastmile_qr_scan"}, "lat": 38.924403166666664, "lon": -77.02980266666667, "fusion_lat": 0.0}, {"is_reserved": 0, "bike_id": "7f322052b35004f79fa716666a4d90b3", "type": "electric_scooter", "name": "7f322052b35004f79fa716666a4d90b3", "is_disabled": 0, "fusion_lon": 0.0, "rental_uris": {"android": "https://dc.lft.to/lastmile_qr_scan", "ios": "https://dc.lft.to/lastmile_qr_scan"}, "lat": 38.903922, "lon": -76.99042716666666, "fusion_lat": 0.0}, {"is_reserved": 0, "bike_id": "dd796fb5e34f2c428737c77862a5e196", "type": "electric_scooter", "name": "dd796fb5e34f2c428737c77862a5e196", "is_disabled": 0, "fusion_lon": 0.0, "rental_uris": {"android": "https://dc.lft.to/lastmile_qr_scan", "ios": "https://dc.lft.to/lastmile_qr_scan"}, "lat": 38.90780433333333, "lon": -77.06303366666667, "fusion_lat": 0.0}, {"is_reserved": 0, "bike_id": "89d16568ba5d20fdc62185b6954df082", "type": "electric_scooter", "name": "89d16568ba5d20fdc62185b6954df082", "is_disabled": 0, "fusion_lon": 0.0, "rental_uris": {"android": "https://dc.lft.to/lastmile_qr_scan", "ios": "https://dc.lft.to/lastmile_qr_scan"}, "lat": 38.92251733333333, "lon": -77.047106, "fusion_lat": 0.0}, {"is_reserved": 0, "bike_id": "f06ca3791eb5e29e1dd705ac6faeddbc", "type": "electric_scooter", "name": "f06ca3791eb5e29e1dd705ac6faeddbc", "is_disabled": 0, "fusion_lon": 0.0, "rental_uris": {"android": "https://dc.lft.to/lastmile_qr_scan", "ios": "https://dc.lft.to/lastmile_qr_scan"}, "lat": 38.919101833333336, "lon": -77.04465, "fusion_lat": 0.0}, {"is_reserved": 0, "bike_id": "8d6703339ec4f3921190407eb43da133", "type": "electric_scooter", "name": "8d6703339ec4f3921190407eb43da133", "is_disabled": 0, "fusion_lon": 0.0, "rental_uris": {"android": "https://dc.lft.to/lastmile_qr_scan", "ios": "https://dc.lft.to/lastmile_qr_scan"}, "lat": 38.944199166666664, "lon": -77.01780816666667, "fusion_lat": 0.0}, {"is_reserved": 0, "bike_id": "ce39040ca67903eee54fb58feaf3d977", "type": "electric_scooter", "name": "ce39040ca67903eee54fb58feaf3d977", "is_disabled": 0, "fusion_lon": 0.0, "rental_uris": {"android": "https://dc.lft.to/lastmile_qr_scan", "ios": "https://dc.lft.to/lastmile_qr_scan"}, "lat": 38.91863416666666, "lon": -77.031802, "fusion_lat": 0.0}, {"is_reserved": 0, "bike_id": "cd4afdd0961e6d54bc9740c06a70e232", "type": "electric_bike", "name": "cd4afdd0961e6d54bc9740c06a70e232", "is_disabled": 0, "fusion_lon": 0.0, "rental_uris": {"android": "https://dc.lft.to/lastmile_qr_scan", "ios": "https://dc.lft.to/lastmile_qr_scan"}, "lat": 38.90355266666667, "lon": -76.98100616666666, "fusion_lat": 0.0}, {"is_reserved": 0, "bike_id": "f330abff6fff14b224cb602e3e368126", "type": "electric_scooter", "name": "f330abff6fff14b224cb602e3e368126", "is_disabled": 0, "fusion_lon": 0.0, "rental_uris": {"android": "https://dc.lft.to/lastmile_qr_scan", "ios": "https://dc.lft.to/lastmile_qr_scan"}, "lat": 38.9015575, "lon": -77.00894733333334, "fusion_lat": 0.0}, {"is_reserved": 0, "bike_id": "dab6cfcc494a374b78e5d4834cc6c916", "type": "electric_scooter", "name": "dab6cfcc494a374b78e5d4834cc6c916", "is_disabled": 0, "fusion_lon": 0.0, "rental_uris": {"android": "https://dc.lft.to/lastmile_qr_scan", "ios": "https://dc.lft.to/lastmile_qr_scan"}, "lat": 38.9078365, "lon": -77.0108135, "fusion_lat": 0.0}, {"is_reserved": 0, "bike_id": "73a50392ad86537833eb319c5fce33aa", "type": "electric_scooter", "name": "73a50392ad86537833eb319c5fce33aa", "is_disabled": 0, "fusion_lon": 0.0, "rental_uris": {"android": "https://dc.lft.to/lastmile_qr_scan", "ios": "https://dc.lft.to/lastmile_qr_scan"}, "lat": 38.892331666666664, "lon": -77.04360616666666, "fusion_lat": 0.0}, {"is_reserved": 0, "bike_id": "54908beaefb65cb86d27b2cd95956f36", "type": "electric_scooter", "name": "54908beaefb65cb86d27b2cd95956f36", "is_disabled": 0, "fusion_lon": 0.0, "rental_uris": {"android": "https://dc.lft.to/lastmile_qr_scan", "ios": "https://dc.lft.to/lastmile_qr_scan"}, "lat": 38.92210433333333, "lon": -77.02035416666666, "fusion_lat": 0.0}, {"is_reserved": 0, "bike_id": "7ff619a065ff103df1a5f5b0a0a16f21", "type": "electric_scooter", "name": "7ff619a065ff103df1a5f5b0a0a16f21", "is_disabled": 0, "fusion_lon": 0.0, "rental_uris": {"android": "https://dc.lft.to/lastmile_qr_scan", "ios": "https://dc.lft.to/lastmile_qr_scan"}, "lat": 38.905745, "lon": -77.00613066666666, "fusion_lat": 0.0}, {"is_reserved": 0, "bike_id": "638c2691ec27b4457ed3df784b4d8b1f", "type": "electric_scooter", "name": "638c2691ec27b4457ed3df784b4d8b1f", "is_disabled": 0, "fusion_lon": 0.0, "rental_uris": {"android": "https://dc.lft.to/lastmile_qr_scan", "ios": "https://dc.lft.to/lastmile_qr_scan"}, "lat": 38.9359345, "lon": -77.03516783333333, "fusion_lat": 0.0}, {"is_reserved": 0, "bike_id": "29e0b845e858be5762ff8d79ef955133", "type": "electric_scooter", "name": "29e0b845e858be5762ff8d79ef955133", "is_disabled": 0, "fusion_lon": 0.0, "rental_uris": {"android": "https://dc.lft.to/lastmile_qr_scan", "ios": "https://dc.lft.to/lastmile_qr_scan"}, "lat": 38.8994985, "lon": -77.0478595, "fusion_lat": 0.0}, {"is_reserved": 0, "bike_id": "7e12da127c8a133337146f341f165856", "type": "electric_scooter", "name": "7e12da127c8a133337146f341f165856", "is_disabled": 0, "fusion_lon": 0.0, "rental_uris": {"android": "https://dc.lft.to/lastmile_qr_scan", "ios": "https://dc.lft.to/lastmile_qr_scan"}, "lat": 38.92065316666667, "lon": -77.02319116666666, "fusion_lat": 0.0}, {"is_reserved": 0, "bike_id": "dadb95f65ee8f206a76d04143b2820a2", "type": "electric_scooter", "name": "dadb95f65ee8f206a76d04143b2820a2", "is_disabled": 0, "fusion_lon": 0.0, "rental_uris": {"android": "https://dc.lft.to/lastmile_qr_scan", "ios": "https://dc.lft.to/lastmile_qr_scan"}, "lat": 38.9268495, "lon": -77.0157455, "fusion_lat": 0.0}, {"is_reserved": 0, "bike_id": "28d0cdbce699197ec2a1b7c5b7671cd7", "type": "electric_scooter", "name": "28d0cdbce699197ec2a1b7c5b7671cd7", "is_disabled": 0, "fusion_lon": 0.0, "rental_uris": {"android": "https://dc.lft.to/lastmile_qr_scan", "ios": "https://dc.lft.to/lastmile_qr_scan"}, "lat": 38.92431366666667, "lon": -77.04247883333333, "fusion_lat": 0.0}, {"is_reserved": 0, "bike_id": "9eadb404ecace61de8c248a335975da7", "type": "electric_bike", "name": "9eadb404ecace61de8c248a335975da7", "is_disabled": 0, "fusion_lon": 0.0, "rental_uris": {"android": "https://dc.lft.to/lastmile_qr_scan", "ios": "https://dc.lft.to/lastmile_qr_scan"}, "lat": 38.855898333333336, "lon": -76.97431866666666, "fusion_lat": 0.0}, {"is_reserved": 0, "bike_id": "5ce6804c2c71a32a97cd0d3c7b02ff4a", "type": "electric_scooter", "name": "5ce6804c2c71a32a97cd0d3c7b02ff4a", "is_disabled": 0, "fusion_lon": 0.0, "rental_uris": {"android": "https://dc.lft.to/lastmile_qr_scan", "ios": "https://dc.lft.to/lastmile_qr_scan"}, "lat": 38.92329183333333, "lon": -77.0089245, "fusion_lat": 0.0}, {"is_reserved": 0, "bike_id": "31e3ab870f33389ee0fb5cf6ef4e7b84", "type": "electric_scooter", "name": "31e3ab870f33389ee0fb5cf6ef4e7b84", "is_disabled": 0, "fusion_lon": 0.0, "rental_uris": {"android": "https://dc.lft.to/lastmile_qr_scan", "ios": "https://dc.lft.to/lastmile_qr_scan"}, "lat": 38.90042966666667, "lon": -77.03374, "fusion_lat": 0.0}, {"is_reserved": 0, "bike_id": "a5064bfa15546f3e53c1761df708d0f1", "type": "electric_scooter", "name": "a5064bfa15546f3e53c1761df708d0f1", "is_disabled": 0, "fusion_lon": 0.0, "rental_uris": {"android": "https://dc.lft.to/lastmile_qr_scan", "ios": "https://dc.lft.to/lastmile_qr_scan"}, "lat": 38.906498, "lon": -77.025313, "fusion_lat": 0.0}, {"is_reserved": 0, "bike_id": "42308a95152ed2d0c0e78119001cd966", "type": "electric_scooter", "name": "42308a95152ed2d0c0e78119001cd966", "is_disabled": 0, "fusion_lon": 0.0, "rental_uris": {"android": "https://dc.lft.to/lastmile_qr_scan", "ios": "https://dc.lft.to/lastmile_qr_scan"}, "lat": 38.9064575, "lon": -77.00602783333333, "fusion_lat": 0.0}, {"is_reserved": 0, "bike_id": "c8139489cbe0b0fc65454e1b8b82e6cd", "type": "electric_scooter", "name": "c8139489cbe0b0fc65454e1b8b82e6cd", "is_disabled": 0, "fusion_lon": 0.0, "rental_uris": {"android": "https://dc.lft.to/lastmile_qr_scan", "ios": "https://dc.lft.to/lastmile_qr_scan"}, "lat": 38.9210485, "lon": -77.0393355, "fusion_lat": 0.0}, {"is_reserved": 0, "bike_id": "871b57ec8cbba0ac3b39f19f11082e36", "type": "electric_bike", "name": "871b57ec8cbba0ac3b39f19f11082e36", "is_disabled": 0, "fusion_lon": 0.0, "rental_uris": {"android": "https://dc.lft.to/lastmile_qr_scan", "ios": "https://dc.lft.to/lastmile_qr_scan"}, "lat": 38.98558116666667, "lon": -77.00397783333334, "fusion_lat": 0.0}, {"is_reserved": 0, "bike_id": "fca61e207bc304e7001cf22b77b7418b", "type": "electric_bike", "name": "fca61e207bc304e7001cf22b77b7418b", "is_disabled": 0, "fusion_lon": 0.0, "rental_uris": {"android": "https://dc.lft.to/lastmile_qr_scan", "ios": "https://dc.lft.to/lastmile_qr_scan"}, "lat": 38.87173716666667, "lon": -77.23394116666667, "fusion_lat": 0.0}, {"is_reserved": 0, "bike_id": "abeaac595d07f978687cff79e9dab45e", "type": "electric_scooter", "name": "abeaac595d07f978687cff79e9dab45e", "is_disabled": 0, "fusion_lon": 0.0, "rental_uris": {"android": "https://dc.lft.to/lastmile_qr_scan", "ios": "https://dc.lft.to/lastmile_qr_scan"}, "lat": 38.921225166666666, "lon": -77.02127866666666, "fusion_lat": 0.0}, {"is_reserved": 0, "bike_id": "7e7d7b820a8edadd1658d837ffa9c5a7", "type": "electric_scooter", "name": "7e7d7b820a8edadd1658d837ffa9c5a7", "is_disabled": 0, "fusion_lon": 0.0, "rental_uris": {"android": "https://dc.lft.to/lastmile_qr_scan", "ios": "https://dc.lft.to/lastmile_qr_scan"}, "lat": 38.898021666666665, "lon": -77.04616266666666, "fusion_lat": 0.0}, {"is_reserved": 0, "bike_id": "ab7a7a60237c6b13d98e7398827f190b", "type": "electric_scooter", "name": "ab7a7a60237c6b13d98e7398827f190b", "is_disabled": 0, "fusion_lon": 0.0, "rental_uris": {"android": "https://dc.lft.to/lastmile_qr_scan", "ios": "https://dc.lft.to/lastmile_qr_scan"}, "lat": 38.920583666666666, "lon": -77.04239033333333, "fusion_lat": 0.0}, {"is_reserved": 0, "bike_id": "c2e5c49ef6471cd192eebefe88ea74ea", "type": "electric_scooter", "name": "c2e5c49ef6471cd192eebefe88ea74ea", "is_disabled": 0, "fusion_lon": 0.0, "rental_uris": {"android": "https://dc.lft.to/lastmile_qr_scan", "ios": "https://dc.lft.to/lastmile_qr_scan"}, "lat": 38.944119666666666, "lon": -77.01906516666666, "fusion_lat": 0.0}, {"is_reserved": 0, "bike_id": "b2ccfbef3160653ef9997677beb168de", "type": "electric_scooter", "name": "b2ccfbef3160653ef9997677beb168de", "is_disabled": 0, "fusion_lon": 0.0, "rental_uris": {"android": "https://dc.lft.to/lastmile_qr_scan", "ios": "https://dc.lft.to/lastmile_qr_scan"}, "lat": 38.875395833333336, "lon": -77.00597566666667, "fusion_lat": 0.0}, {"is_reserved": 0, "bike_id": "acc63fd76e2d3f84307d1bac087df1b5", "type": "electric_scooter", "name": "acc63fd76e2d3f84307d1bac087df1b5", "is_disabled": 0, "fusion_lon": 0.0, "rental_uris": {"android": "https://dc.lft.to/lastmile_qr_scan", "ios": "https://dc.lft.to/lastmile_qr_scan"}, "lat": 38.89505966666667, "lon": -76.948847, "fusion_lat": 0.0}, {"is_reserved": 0, "bike_id": "4086a2a9f0532b6b06357504ee37280c", "type": "electric_scooter", "name": "4086a2a9f0532b6b06357504ee37280c", "is_disabled": 0, "fusion_lon": 0.0, "rental_uris": {"android": "https://dc.lft.to/lastmile_qr_scan", "ios": "https://dc.lft.to/lastmile_qr_scan"}, "lat": 38.94450616666666, "lon": -77.06352716666666, "fusion_lat": 0.0}, {"is_reserved": 0, "bike_id": "3adc81088c46c3b920ced8493c02fd2d", "type": "electric_scooter", "name": "3adc81088c46c3b920ced8493c02fd2d", "is_disabled": 0, "fusion_lon": 0.0, "rental_uris": {"android": "https://dc.lft.to/lastmile_qr_scan", "ios": "https://dc.lft.to/lastmile_qr_scan"}, "lat": 38.925351166666665, "lon": -77.0340205, "fusion_lat": 0.0}, {"is_reserved": 0, "bike_id": "13f3de8f0b21d0182f62f441edfbd08f", "type": "electric_scooter", "name": "13f3de8f0b21d0182f62f441edfbd08f", "is_disabled": 0, "fusion_lon": 0.0, "rental_uris": {"android": "https://dc.lft.to/lastmile_qr_scan", "ios": "https://dc.lft.to/lastmile_qr_scan"}, "lat": 38.90264416666667, "lon": -77.038547, "fusion_lat": 0.0}, {"is_reserved": 0, "bike_id": "7a752315113816d7d3ea639038c5844e", "type": "electric_scooter", "name": "7a752315113816d7d3ea639038c5844e", "is_disabled": 0, "fusion_lon": 0.0, "rental_uris": {"android": "https://dc.lft.to/lastmile_qr_scan", "ios": "https://dc.lft.to/lastmile_qr_scan"}, "lat": 38.93071966666667, "lon": -77.0233585, "fusion_lat": 0.0}, {"is_reserved": 0, "bike_id": "c4e4a2b1d864853c2ef99d9721d1a9b9", "type": "electric_bike", "name": "c4e4a2b1d864853c2ef99d9721d1a9b9", "is_disabled": 0, "fusion_lon": 0.0, "rental_uris": {"android": "https://dc.lft.to/lastmile_qr_scan", "ios": "https://dc.lft.to/lastmile_qr_scan"}, "lat": 38.8073765, "lon": -77.09686516666666, "fusion_lat": 0.0}, {"is_reserved": 0, "bike_id": "3b48d5d85577e521db7cd1eb86ba817b", "type": "electric_scooter", "name": "3b48d5d85577e521db7cd1eb86ba817b", "is_disabled": 0, "fusion_lon": 0.0, "rental_uris": {"android": "https://dc.lft.to/lastmile_qr_scan", "ios": "https://dc.lft.to/lastmile_qr_scan"}, "lat": 38.93137016666667, "lon": -77.03253983333333, "fusion_lat": 0.0}, {"is_reserved": 0, "bike_id": "19c61ad9cacdb7a9f66788b7488ac324", "type": "electric_scooter", "name": "19c61ad9cacdb7a9f66788b7488ac324", "is_disabled": 0, "fusion_lon": 0.0, "rental_uris": {"android": "https://dc.lft.to/lastmile_qr_scan", "ios": "https://dc.lft.to/lastmile_qr_scan"}, "lat": 38.9243685, "lon": -77.01948416666667, "fusion_lat": 0.0}, {"is_reserved": 0, "bike_id": "27ab1bfd52b2deebfa2740096effe910", "type": "electric_scooter", "name": "27ab1bfd52b2deebfa2740096effe910", "is_disabled": 0, "fusion_lon": 0.0, "rental_uris": {"android": "https://dc.lft.to/lastmile_qr_scan", "ios": "https://dc.lft.to/lastmile_qr_scan"}, "lat": 38.9062645, "lon": -77.01530416666667, "fusion_lat": 0.0}, {"is_reserved": 0, "bike_id": "1ab17e6ed242e5e52990706ccc0ad928", "type": "electric_scooter", "name": "1ab17e6ed242e5e52990706ccc0ad928", "is_disabled": 0, "fusion_lon": 0.0, "rental_uris": {"android": "https://dc.lft.to/lastmile_qr_scan", "ios": "https://dc.lft.to/lastmile_qr_scan"}, "lat": 38.9031595, "lon": -76.99260433333333, "fusion_lat": 0.0}, {"is_reserved": 0, "bike_id": "9939f465adca8660c72c5640c8dbcb18", "type": "electric_scooter", "name": "9939f465adca8660c72c5640c8dbcb18", "is_disabled": 0, "fusion_lon": 0.0, "rental_uris": {"android": "https://dc.lft.to/lastmile_qr_scan", "ios": "https://dc.lft.to/lastmile_qr_scan"}, "lat": 38.91712166666667, "lon": -77.03868916666667, "fusion_lat": 0.0}, {"is_reserved": 0, "bike_id": "50c4fff66b86aa749e5d778c0ebce5e7", "type": "electric_scooter", "name": "50c4fff66b86aa749e5d778c0ebce5e7", "is_disabled": 0, "fusion_lon": 0.0, "rental_uris": {"android": "https://dc.lft.to/lastmile_qr_scan", "ios": "https://dc.lft.to/lastmile_qr_scan"}, "lat": 38.872755166666664, "lon": -77.01511033333334, "fusion_lat": 0.0}, {"is_reserved": 0, "bike_id": "2e8ea1641ae35ecbc6e1b1a24b5ac3dd", "type": "electric_scooter", "name": "2e8ea1641ae35ecbc6e1b1a24b5ac3dd", "is_disabled": 0, "fusion_lon": 0.0, "rental_uris": {"android": "https://dc.lft.to/lastmile_qr_scan", "ios": "https://dc.lft.to/lastmile_qr_scan"}, "lat": 38.9235675, "lon": -77.03404783333333, "fusion_lat": 0.0}, {"is_reserved": 0, "bike_id": "d7add05a8928de50d5c1a3f6abea8144", "type": "electric_scooter", "name": "d7add05a8928de50d5c1a3f6abea8144", "is_disabled": 0, "fusion_lon": 0.0, "rental_uris": {"android": "https://dc.lft.to/lastmile_qr_scan", "ios": "https://dc.lft.to/lastmile_qr_scan"}, "lat": 38.90209083333333, "lon": -76.99234066666666, "fusion_lat": 0.0}, {"is_reserved": 0, "bike_id": "27ee7825804f9531146c17651f4a011e", "type": "electric_scooter", "name": "27ee7825804f9531146c17651f4a011e", "is_disabled": 0, "fusion_lon": 0.0, "rental_uris": {"android": "https://dc.lft.to/lastmile_qr_scan", "ios": "https://dc.lft.to/lastmile_qr_scan"}, "lat": 38.918165, "lon": -77.04165866666666, "fusion_lat": 0.0}, {"is_reserved": 0, "bike_id": "7f3406da27e821e9afbf6d58e05a7bec", "type": "electric_bike", "name": "7f3406da27e821e9afbf6d58e05a7bec", "is_disabled": 0, "fusion_lon": 0.0, "rental_uris": {"android": "https://dc.lft.to/lastmile_qr_scan", "ios": "https://dc.lft.to/lastmile_qr_scan"}, "lat": 38.92893983333333, "lon": -77.23178283333333, "fusion_lat": 0.0}, {"is_reserved": 0, "bike_id": "a6fb5391078d3e3c288fccfffaff180f", "type": "electric_scooter", "name": "a6fb5391078d3e3c288fccfffaff180f", "is_disabled": 0, "fusion_lon": 0.0, "rental_uris": {"android": "https://dc.lft.to/lastmile_qr_scan", "ios": "https://dc.lft.to/lastmile_qr_scan"}, "lat": 38.922447166666664, "lon": -77.03074516666666, "fusion_lat": 0.0}, {"is_reserved": 0, "bike_id": "d82337b3116e1aad458fb627dc60164b", "type": "electric_scooter", "name": "d82337b3116e1aad458fb627dc60164b", "is_disabled": 0, "fusion_lon": 0.0, "rental_uris": {"android": "https://dc.lft.to/lastmile_qr_scan", "ios": "https://dc.lft.to/lastmile_qr_scan"}, "lat": 38.8989145, "lon": -77.03935816666667, "fusion_lat": 0.0}, {"is_reserved": 0, "bike_id": "bef9611539c6ac24812304eb2b67e753", "type": "electric_scooter", "name": "bef9611539c6ac24812304eb2b67e753", "is_disabled": 0, "fusion_lon": 0.0, "rental_uris": {"android": "https://dc.lft.to/lastmile_qr_scan", "ios": "https://dc.lft.to/lastmile_qr_scan"}, "lat": 38.935112333333336, "lon": -77.03296233333333, "fusion_lat": 0.0}, {"is_reserved": 0, "bike_id": "d2d6296eea7e4a47a4d947ff22062f2a", "type": "electric_scooter", "name": "d2d6296eea7e4a47a4d947ff22062f2a", "is_disabled": 0, "fusion_lon": 0.0, "rental_uris": {"android": "https://dc.lft.to/lastmile_qr_scan", "ios": "https://dc.lft.to/lastmile_qr_scan"}, "lat": 38.958136, "lon": -77.0145435, "fusion_lat": 0.0}, {"is_reserved": 0, "bike_id": "a1ffbc8f6436bbc6fa3e2d49e03fde46", "type": "electric_scooter", "name": "a1ffbc8f6436bbc6fa3e2d49e03fde46", "is_disabled": 0, "fusion_lon": 0.0, "rental_uris": {"android": "https://dc.lft.to/lastmile_qr_scan", "ios": "https://dc.lft.to/lastmile_qr_scan"}, "lat": 38.921511, "lon": -77.03382283333333, "fusion_lat": 0.0}, {"is_reserved": 0, "bike_id": "202ecc24ff28439d687df06398c5768d", "type": "electric_scooter", "name": "202ecc24ff28439d687df06398c5768d", "is_disabled": 0, "fusion_lon": 0.0, "rental_uris": {"android": "https://dc.lft.to/lastmile_qr_scan", "ios": "https://dc.lft.to/lastmile_qr_scan"}, "lat": 38.88637516666667, "lon": -77.00098333333334, "fusion_lat": 0.0}, {"is_reserved": 0, "bike_id": "2e95a94f249c5bc68402742ca5b05169", "type": "electric_scooter", "name": "2e95a94f249c5bc68402742ca5b05169", "is_disabled": 0, "fusion_lon": 0.0, "rental_uris": {"android": "https://dc.lft.to/lastmile_qr_scan", "ios": "https://dc.lft.to/lastmile_qr_scan"}, "lat": 38.921962, "lon": -77.03518433333333, "fusion_lat": 0.0}, {"is_reserved": 0, "bike_id": "bfabe8a30f44fac6fb08eba2e1a67b04", "type": "electric_scooter", "name": "bfabe8a30f44fac6fb08eba2e1a67b04", "is_disabled": 0, "fusion_lon": 0.0, "rental_uris": {"android": "https://dc.lft.to/lastmile_qr_scan", "ios": "https://dc.lft.to/lastmile_qr_scan"}, "lat": 38.901157166666664, "lon": -77.0433625, "fusion_lat": 0.0}, {"is_reserved": 0, "bike_id": "7ef5f9cac3196b038a1d4d87be5896bb", "type": "electric_bike", "name": "7ef5f9cac3196b038a1d4d87be5896bb", "is_disabled": 0, "fusion_lon": 0.0, "rental_uris": {"android": "https://dc.lft.to/lastmile_qr_scan", "ios": "https://dc.lft.to/lastmile_qr_scan"}, "lat": 38.831297, "lon": -77.11327216666666, "fusion_lat": 0.0}, {"is_reserved": 0, "bike_id": "33083d3c0e41a83c05aa5424ca464d10", "type": "electric_scooter", "name": "33083d3c0e41a83c05aa5424ca464d10", "is_disabled": 0, "fusion_lon": 0.0, "rental_uris": {"android": "https://dc.lft.to/lastmile_qr_scan", "ios": "https://dc.lft.to/lastmile_qr_scan"}, "lat": 38.92076933333333, "lon": -77.02246483333333, "fusion_lat": 0.0}, {"is_reserved": 0, "bike_id": "80772ee10d368fc018690e0b80384144", "type": "electric_scooter", "name": "80772ee10d368fc018690e0b80384144", "is_disabled": 0, "fusion_lon": 0.0, "rental_uris": {"android": "https://dc.lft.to/lastmile_qr_scan", "ios": "https://dc.lft.to/lastmile_qr_scan"}, "lat": 38.90026133333333, "lon": -77.02294116666667, "fusion_lat": 0.0}, {"is_reserved": 0, "bike_id": "57be3fa28d3ebba3712c0514f88884fb", "type": "electric_scooter", "name": "57be3fa28d3ebba3712c0514f88884fb", "is_disabled": 0, "fusion_lon": 0.0, "rental_uris": {"android": "https://dc.lft.to/lastmile_qr_scan", "ios": "https://dc.lft.to/lastmile_qr_scan"}, "lat": 38.935344666666666, "lon": -77.02343533333334, "fusion_lat": 0.0}, {"is_reserved": 0, "bike_id": "a82a5668466bd3d5db2f2c8032d9f85a", "type": "electric_scooter", "name": "a82a5668466bd3d5db2f2c8032d9f85a", "is_disabled": 0, "fusion_lon": 0.0, "rental_uris": {"android": "https://dc.lft.to/lastmile_qr_scan", "ios": "https://dc.lft.to/lastmile_qr_scan"}, "lat": 38.909841666666665, "lon": -77.0091, "fusion_lat": 0.0}, {"is_reserved": 0, "bike_id": "c6e4dd6e1d4e49c924914b278aadb349", "type": "electric_scooter", "name": "c6e4dd6e1d4e49c924914b278aadb349", "is_disabled": 0, "fusion_lon": 0.0, "rental_uris": {"android": "https://dc.lft.to/lastmile_qr_scan", "ios": "https://dc.lft.to/lastmile_qr_scan"}, "lat": 38.92648916666667, "lon": -77.03713783333333, "fusion_lat": 0.0}, {"is_reserved": 0, "bike_id": "9ef550bdec0a07a10d4ec3d6a4d11c47", "type": "electric_bike", "name": "9ef550bdec0a07a10d4ec3d6a4d11c47", "is_disabled": 0, "fusion_lon": 0.0, "rental_uris": {"android": "https://dc.lft.to/lastmile_qr_scan", "ios": "https://dc.lft.to/lastmile_qr_scan"}, "lat": 38.83830233333333, "lon": -77.07919733333334, "fusion_lat": 0.0}, {"is_reserved": 0, "bike_id": "cd5dfa29e7ea7858af36db4c18b608d4", "type": "electric_scooter", "name": "cd5dfa29e7ea7858af36db4c18b608d4", "is_disabled": 0, "fusion_lon": 0.0, "rental_uris": {"android": "https://dc.lft.to/lastmile_qr_scan", "ios": "https://dc.lft.to/lastmile_qr_scan"}, "lat": 38.902342833333336, "lon": -77.002, "fusion_lat": 0.0}, {"is_reserved": 0, "bike_id": "f64d25b85957641a3816a4103d7b2fea", "type": "electric_scooter", "name": "f64d25b85957641a3816a4103d7b2fea", "is_disabled": 0, "fusion_lon": 0.0, "rental_uris": {"android": "https://dc.lft.to/lastmile_qr_scan", "ios": "https://dc.lft.to/lastmile_qr_scan"}, "lat": 38.91775633333334, "lon": -77.04417533333333, "fusion_lat": 0.0}, {"is_reserved": 0, "bike_id": "8922fa4023d387b71030753e02742615", "type": "electric_scooter", "name": "8922fa4023d387b71030753e02742615", "is_disabled": 0, "fusion_lon": 0.0, "rental_uris": {"android": "https://dc.lft.to/lastmile_qr_scan", "ios": "https://dc.lft.to/lastmile_qr_scan"}, "lat": 38.9418445, "lon": -77.02406866666666, "fusion_lat": 0.0}, {"is_reserved": 0, "bike_id": "0e5583408b313fe958a4d0a33ea3b8ea", "type": "electric_scooter", "name": "0e5583408b313fe958a4d0a33ea3b8ea", "is_disabled": 0, "fusion_lon": 0.0, "rental_uris": {"android": "https://dc.lft.to/lastmile_qr_scan", "ios": "https://dc.lft.to/lastmile_qr_scan"}, "lat": 38.89510716666667, "lon": -76.94886133333333, "fusion_lat": 0.0}, {"is_reserved": 0, "bike_id": "6be4f0ded2e35928b8d29283f6e6c7ef", "type": "electric_scooter", "name": "6be4f0ded2e35928b8d29283f6e6c7ef", "is_disabled": 0, "fusion_lon": 0.0, "rental_uris": {"android": "https://dc.lft.to/lastmile_qr_scan", "ios": "https://dc.lft.to/lastmile_qr_scan"}, "lat": 38.91391983333333, "lon": -77.07541933333333, "fusion_lat": 0.0}, {"is_reserved": 0, "bike_id": "32c5ede1d8712e1307a4a3cb05101964", "type": "electric_scooter", "name": "32c5ede1d8712e1307a4a3cb05101964", "is_disabled": 0, "fusion_lon": 0.0, "rental_uris": {"android": "https://dc.lft.to/lastmile_qr_scan", "ios": "https://dc.lft.to/lastmile_qr_scan"}, "lat": 38.959126499999996, "lon": -77.0230115, "fusion_lat": 0.0}, {"is_reserved": 0, "bike_id": "06f45f612cb9ff768b30cbc77f4b932f", "type": "electric_bike", "name": "06f45f612cb9ff768b30cbc77f4b932f", "is_disabled": 0, "fusion_lon": 0.0, "rental_uris": {"android": "https://dc.lft.to/lastmile_qr_scan", "ios": "https://dc.lft.to/lastmile_qr_scan"}, "lat": 38.87737833333333, "lon": -77.148736, "fusion_lat": 0.0}, {"is_reserved": 0, "bike_id": "11d26b6ad9b8f8c81d4e6de1a1d8fc1d", "type": "electric_bike", "name": "11d26b6ad9b8f8c81d4e6de1a1d8fc1d", "is_disabled": 0, "fusion_lon": 0.0, "rental_uris": {"android": "https://dc.lft.to/lastmile_qr_scan", "ios": "https://dc.lft.to/lastmile_qr_scan"}, "lat": 38.8650135, "lon": -76.97309316666667, "fusion_lat": 0.0}, {"is_reserved": 0, "bike_id": "918aa9fdd11256cda55a8caf54e18a33", "type": "electric_scooter", "name": "918aa9fdd11256cda55a8caf54e18a33", "is_disabled": 0, "fusion_lon": 0.0, "rental_uris": {"android": "https://dc.lft.to/lastmile_qr_scan", "ios": "https://dc.lft.to/lastmile_qr_scan"}, "lat": 38.915637833333335, "lon": -77.0365805, "fusion_lat": 0.0}, {"is_reserved": 0, "bike_id": "f15b576fd006ed962eddf1fb83179c09", "type": "electric_scooter", "name": "f15b576fd006ed962eddf1fb83179c09", "is_disabled": 0, "fusion_lon": 0.0, "rental_uris": {"android": "https://dc.lft.to/lastmile_qr_scan", "ios": "https://dc.lft.to/lastmile_qr_scan"}, "lat": 38.9075025, "lon": -77.01700733333334, "fusion_lat": 0.0}, {"is_reserved": 0, "bike_id": "1bcbdd30ebbd5bb77eb77f9d5ceab9ff", "type": "electric_scooter", "name": "1bcbdd30ebbd5bb77eb77f9d5ceab9ff", "is_disabled": 0, "fusion_lon": 0.0, "rental_uris": {"android": "https://dc.lft.to/lastmile_qr_scan", "ios": "https://dc.lft.to/lastmile_qr_scan"}, "lat": 38.922913333333334, "lon": -77.02246, "fusion_lat": 0.0}, {"is_reserved": 0, "bike_id": "1d21ef4c2c9afffe91c8be90efa3a4f1", "type": "electric_scooter", "name": "1d21ef4c2c9afffe91c8be90efa3a4f1", "is_disabled": 0, "fusion_lon": 0.0, "rental_uris": {"android": "https://dc.lft.to/lastmile_qr_scan", "ios": "https://dc.lft.to/lastmile_qr_scan"}, "lat": 38.908895666666666, "lon": -76.9823825, "fusion_lat": 0.0}, {"is_reserved": 0, "bike_id": "ffa99942d8b081220628ee0f5f4b8387", "type": "electric_scooter", "name": "ffa99942d8b081220628ee0f5f4b8387", "is_disabled": 0, "fusion_lon": 0.0, "rental_uris": {"android": "https://dc.lft.to/lastmile_qr_scan", "ios": "https://dc.lft.to/lastmile_qr_scan"}, "lat": 38.880661833333335, "lon": -76.932217, "fusion_lat": 0.0}, {"is_reserved": 0, "bike_id": "e03fcfe6559fac3c9f6f0f9905e72ff6", "type": "electric_scooter", "name": "e03fcfe6559fac3c9f6f0f9905e72ff6", "is_disabled": 0, "fusion_lon": 0.0, "rental_uris": {"android": "https://dc.lft.to/lastmile_qr_scan", "ios": "https://dc.lft.to/lastmile_qr_scan"}, "lat": 38.91803433333333, "lon": -77.027201, "fusion_lat": 0.0}, {"is_reserved": 0, "bike_id": "21ce15a37e41b292214d956482d7e08b", "type": "electric_scooter", "name": "21ce15a37e41b292214d956482d7e08b", "is_disabled": 0, "fusion_lon": 0.0, "rental_uris": {"android": "https://dc.lft.to/lastmile_qr_scan", "ios": "https://dc.lft.to/lastmile_qr_scan"}, "lat": 38.925506, "lon": -77.05297133333333, "fusion_lat": 0.0}, {"is_reserved": 0, "bike_id": "5b7a1e75738cf1c1ff7ee9cc3d9c48db", "type": "electric_scooter", "name": "5b7a1e75738cf1c1ff7ee9cc3d9c48db", "is_disabled": 0, "fusion_lon": 0.0, "rental_uris": {"android": "https://dc.lft.to/lastmile_qr_scan", "ios": "https://dc.lft.to/lastmile_qr_scan"}, "lat": 38.892027666666664, "lon": -76.99014316666667, "fusion_lat": 0.0}, {"is_reserved": 0, "bike_id": "2712d6322c9fde10a95e65d211e56ddd", "type": "electric_scooter", "name": "2712d6322c9fde10a95e65d211e56ddd", "is_disabled": 0, "fusion_lon": 0.0, "rental_uris": {"android": "https://dc.lft.to/lastmile_qr_scan", "ios": "https://dc.lft.to/lastmile_qr_scan"}, "lat": 38.9043835, "lon": -77.04356616666666, "fusion_lat": 0.0}, {"is_reserved": 0, "bike_id": "9235e9b0e27d2120e567df70a6fe3296", "type": "electric_bike", "name": "9235e9b0e27d2120e567df70a6fe3296", "is_disabled": 0, "fusion_lon": 0.0, "rental_uris": {"android": "https://dc.lft.to/lastmile_qr_scan", "ios": "https://dc.lft.to/lastmile_qr_scan"}, "lat": 38.9667645, "lon": -77.02294233333333, "fusion_lat": 0.0}, {"is_reserved": 0, "bike_id": "812fcd489fcf48d1b0166b4fa5b77223", "type": "electric_scooter", "name": "812fcd489fcf48d1b0166b4fa5b77223", "is_disabled": 0, "fusion_lon": 0.0, "rental_uris": {"android": "https://dc.lft.to/lastmile_qr_scan", "ios": "https://dc.lft.to/lastmile_qr_scan"}, "lat": 38.911985333333334, "lon": -77.032106, "fusion_lat": 0.0}, {"is_reserved": 0, "bike_id": "d69f5a096b915cecbba87a33ec47685e", "type": "electric_scooter", "name": "d69f5a096b915cecbba87a33ec47685e", "is_disabled": 0, "fusion_lon": 0.0, "rental_uris": {"android": "https://dc.lft.to/lastmile_qr_scan", "ios": "https://dc.lft.to/lastmile_qr_scan"}, "lat": 38.927006666666664, "lon": -77.02081566666666, "fusion_lat": 0.0}, {"is_reserved": 0, "bike_id": "b7c0156a111cd939fa71b987d1ba358d", "type": "electric_scooter", "name": "b7c0156a111cd939fa71b987d1ba358d", "is_disabled": 0, "fusion_lon": 0.0, "rental_uris": {"android": "https://dc.lft.to/lastmile_qr_scan", "ios": "https://dc.lft.to/lastmile_qr_scan"}, "lat": 38.92072133333333, "lon": -77.023176, "fusion_lat": 0.0}, {"is_reserved": 0, "bike_id": "b1d2b96f12c601741365835982e7c366", "type": "electric_scooter", "name": "b1d2b96f12c601741365835982e7c366", "is_disabled": 0, "fusion_lon": 0.0, "rental_uris": {"android": "https://dc.lft.to/lastmile_qr_scan", "ios": "https://dc.lft.to/lastmile_qr_scan"}, "lat": 38.91817783333333, "lon": -77.04172033333333, "fusion_lat": 0.0}, {"is_reserved": 0, "bike_id": "f223ddc5388221b66c2d73b2f0cf5e5f", "type": "electric_bike", "name": "f223ddc5388221b66c2d73b2f0cf5e5f", "is_disabled": 0, "fusion_lon": 0.0, "rental_uris": {"android": "https://dc.lft.to/lastmile_qr_scan", "ios": "https://dc.lft.to/lastmile_qr_scan"}, "lat": 38.84266133333333, "lon": -76.9881725, "fusion_lat": 0.0}, {"is_reserved": 0, "bike_id": "b07b77596b3054a4686e4393e2f1d9d7", "type": "electric_scooter", "name": "b07b77596b3054a4686e4393e2f1d9d7", "is_disabled": 0, "fusion_lon": 0.0, "rental_uris": {"android": "https://dc.lft.to/lastmile_qr_scan", "ios": "https://dc.lft.to/lastmile_qr_scan"}, "lat": 38.91563933333333, "lon": -77.03661933333333, "fusion_lat": 0.0}, {"is_reserved": 0, "bike_id": "2e88f2ee77f822cbb993d22835f9f692", "type": "electric_scooter", "name": "2e88f2ee77f822cbb993d22835f9f692", "is_disabled": 0, "fusion_lon": 0.0, "rental_uris": {"android": "https://dc.lft.to/lastmile_qr_scan", "ios": "https://dc.lft.to/lastmile_qr_scan"}, "lat": 38.909764833333334, "lon": -77.042991, "fusion_lat": 0.0}, {"is_reserved": 0, "bike_id": "83ecd5876b88a46b54facb89a1799dbb", "type": "electric_scooter", "name": "83ecd5876b88a46b54facb89a1799dbb", "is_disabled": 0, "fusion_lon": 0.0, "rental_uris": {"android": "https://dc.lft.to/lastmile_qr_scan", "ios": "https://dc.lft.to/lastmile_qr_scan"}, "lat": 38.94414883333334, "lon": -77.06338933333333, "fusion_lat": 0.0}, {"is_reserved": 0, "bike_id": "b3531e05dc5ab172e432983686b435da", "type": "electric_scooter", "name": "b3531e05dc5ab172e432983686b435da", "is_disabled": 0, "fusion_lon": 0.0, "rental_uris": {"android": "https://dc.lft.to/lastmile_qr_scan", "ios": "https://dc.lft.to/lastmile_qr_scan"}, "lat": 38.914297166666664, "lon": -77.02815, "fusion_lat": 0.0}, {"is_reserved": 0, "bike_id": "3703d550d45c7a5876f0067f36f5fd44", "type": "electric_scooter", "name": "3703d550d45c7a5876f0067f36f5fd44", "is_disabled": 0, "fusion_lon": 0.0, "rental_uris": {"android": "https://dc.lft.to/lastmile_qr_scan", "ios": "https://dc.lft.to/lastmile_qr_scan"}, "lat": 38.921284166666666, "lon": -77.01803516666666, "fusion_lat": 0.0}, {"is_reserved": 0, "bike_id": "378aec54a0834808ce0f7786931ca505", "type": "electric_scooter", "name": "378aec54a0834808ce0f7786931ca505", "is_disabled": 0, "fusion_lon": 0.0, "rental_uris": {"android": "https://dc.lft.to/lastmile_qr_scan", "ios": "https://dc.lft.to/lastmile_qr_scan"}, "lat": 38.92338816666667, "lon": -77.00920116666667, "fusion_lat": 0.0}, {"is_reserved": 0, "bike_id": "fe6e02bbd2ace5458ff322f6582c5e94", "type": "electric_scooter", "name": "fe6e02bbd2ace5458ff322f6582c5e94", "is_disabled": 0, "fusion_lon": 0.0, "rental_uris": {"android": "https://dc.lft.to/lastmile_qr_scan", "ios": "https://dc.lft.to/lastmile_qr_scan"}, "lat": 38.900158166666664, "lon": -77.0487135, "fusion_lat": 0.0}, {"is_reserved": 0, "bike_id": "77f7d77e213e7a65d42313f78bb55dd0", "type": "electric_scooter", "name": "77f7d77e213e7a65d42313f78bb55dd0", "is_disabled": 0, "fusion_lon": 0.0, "rental_uris": {"android": "https://dc.lft.to/lastmile_qr_scan", "ios": "https://dc.lft.to/lastmile_qr_scan"}, "lat": 38.90842116666666, "lon": -77.02330866666667, "fusion_lat": 0.0}, {"is_reserved": 0, "bike_id": "e4eec69e494bb7ba6acb19f0a32fd58b", "type": "electric_scooter", "name": "e4eec69e494bb7ba6acb19f0a32fd58b", "is_disabled": 0, "fusion_lon": 0.0, "rental_uris": {"android": "https://dc.lft.to/lastmile_qr_scan", "ios": "https://dc.lft.to/lastmile_qr_scan"}, "lat": 38.914152, "lon": -77.013331, "fusion_lat": 0.0}, {"is_reserved": 0, "bike_id": "eb672c758c5a390cbdc1f586432df53a", "type": "electric_scooter", "name": "eb672c758c5a390cbdc1f586432df53a", "is_disabled": 0, "fusion_lon": 0.0, "rental_uris": {"android": "https://dc.lft.to/lastmile_qr_scan", "ios": "https://dc.lft.to/lastmile_qr_scan"}, "lat": 38.915267666666665, "lon": -77.0445415, "fusion_lat": 0.0}, {"is_reserved": 0, "bike_id": "19b5265c429b0cafcafdf49f6bbeeadb", "type": "electric_scooter", "name": "19b5265c429b0cafcafdf49f6bbeeadb", "is_disabled": 0, "fusion_lon": 0.0, "rental_uris": {"android": "https://dc.lft.to/lastmile_qr_scan", "ios": "https://dc.lft.to/lastmile_qr_scan"}, "lat": 38.8992075, "lon": -76.94579, "fusion_lat": 0.0}, {"is_reserved": 0, "bike_id": "d3ed1d804e4700499570b3d0637dbe1a", "type": "electric_bike", "name": "d3ed1d804e4700499570b3d0637dbe1a", "is_disabled": 0, "fusion_lon": 0.0, "rental_uris": {"android": "https://dc.lft.to/lastmile_qr_scan", "ios": "https://dc.lft.to/lastmile_qr_scan"}, "lat": 38.920609666666664, "lon": -76.97077016666667, "fusion_lat": 0.0}, {"is_reserved": 0, "bike_id": "7a68178025b565ede450df2086c6e812", "type": "electric_bike", "name": "7a68178025b565ede450df2086c6e812", "is_disabled": 0, "fusion_lon": 0.0, "rental_uris": {"android": "https://dc.lft.to/lastmile_qr_scan", "ios": "https://dc.lft.to/lastmile_qr_scan"}, "lat": 38.89562433333333, "lon": -77.127393, "fusion_lat": 0.0}, {"is_reserved": 0, "bike_id": "4a3e5ce80f03f9e648d1d2873e774f24", "type": "electric_scooter", "name": "4a3e5ce80f03f9e648d1d2873e774f24", "is_disabled": 0, "fusion_lon": 0.0, "rental_uris": {"android": "https://dc.lft.to/lastmile_qr_scan", "ios": "https://dc.lft.to/lastmile_qr_scan"}, "lat": 38.891963833333335, "lon": -77.0238305, "fusion_lat": 0.0}, {"is_reserved": 0, "bike_id": "b21c0e8e5a7c9fa81dc9cbc8a5c00f07", "type": "electric_scooter", "name": "b21c0e8e5a7c9fa81dc9cbc8a5c00f07", "is_disabled": 0, "fusion_lon": 0.0, "rental_uris": {"android": "https://dc.lft.to/lastmile_qr_scan", "ios": "https://dc.lft.to/lastmile_qr_scan"}, "lat": 38.90135466666667, "lon": -77.04548333333334, "fusion_lat": 0.0}, {"is_reserved": 0, "bike_id": "f9e7666667cb068f936c64bf3db6d518", "type": "electric_scooter", "name": "f9e7666667cb068f936c64bf3db6d518", "is_disabled": 0, "fusion_lon": 0.0, "rental_uris": {"android": "https://dc.lft.to/lastmile_qr_scan", "ios": "https://dc.lft.to/lastmile_qr_scan"}, "lat": 38.919506, "lon": -77.032118, "fusion_lat": 0.0}, {"is_reserved": 0, "bike_id": "3e7f15efdfd371ad41d131790b0b39a6", "type": "electric_bike", "name": "3e7f15efdfd371ad41d131790b0b39a6", "is_disabled": 0, "fusion_lon": 0.0, "rental_uris": {"android": "https://dc.lft.to/lastmile_qr_scan", "ios": "https://dc.lft.to/lastmile_qr_scan"}, "lat": 38.95525083333333, "lon": -76.95676166666667, "fusion_lat": 0.0}, {"is_reserved": 0, "bike_id": "36272edc3030ecc5f7b8841b25360af7", "type": "electric_scooter", "name": "36272edc3030ecc5f7b8841b25360af7", "is_disabled": 0, "fusion_lon": 0.0, "rental_uris": {"android": "https://dc.lft.to/lastmile_qr_scan", "ios": "https://dc.lft.to/lastmile_qr_scan"}, "lat": 38.902161, "lon": -77.04830816666667, "fusion_lat": 0.0}, {"is_reserved": 0, "bike_id": "7fb1fce2a0d045e7e8c3ae13da7300f2", "type": "electric_bike", "name": "7fb1fce2a0d045e7e8c3ae13da7300f2", "is_disabled": 0, "fusion_lon": 0.0, "rental_uris": {"android": "https://dc.lft.to/lastmile_qr_scan", "ios": "https://dc.lft.to/lastmile_qr_scan"}, "lat": 39.0262215, "lon": -77.03879833333333, "fusion_lat": 0.0}, {"is_reserved": 0, "bike_id": "536879bead05b5c95087a9255c3d5a12", "type": "electric_scooter", "name": "536879bead05b5c95087a9255c3d5a12", "is_disabled": 0, "fusion_lon": 0.0, "rental_uris": {"android": "https://dc.lft.to/lastmile_qr_scan", "ios": "https://dc.lft.to/lastmile_qr_scan"}, "lat": 38.903755333333336, "lon": -77.00882883333334, "fusion_lat": 0.0}, {"is_reserved": 0, "bike_id": "f305bf10252573b445bc0df566405070", "type": "electric_scooter", "name": "f305bf10252573b445bc0df566405070", "is_disabled": 0, "fusion_lon": 0.0, "rental_uris": {"android": "https://dc.lft.to/lastmile_qr_scan", "ios": "https://dc.lft.to/lastmile_qr_scan"}, "lat": 38.9062425, "lon": -77.029737, "fusion_lat": 0.0}, {"is_reserved": 0, "bike_id": "15f6d9f65e01dd553d03fa24443fcb9b", "type": "electric_scooter", "name": "15f6d9f65e01dd553d03fa24443fcb9b", "is_disabled": 0, "fusion_lon": 0.0, "rental_uris": {"android": "https://dc.lft.to/lastmile_qr_scan", "ios": "https://dc.lft.to/lastmile_qr_scan"}, "lat": 38.873898833333335, "lon": -77.00129733333333, "fusion_lat": 0.0}, {"is_reserved": 0, "bike_id": "b5094737d0dc71e5a989805f5fe8e1ce", "type": "electric_scooter", "name": "b5094737d0dc71e5a989805f5fe8e1ce", "is_disabled": 0, "fusion_lon": 0.0, "rental_uris": {"android": "https://dc.lft.to/lastmile_qr_scan", "ios": "https://dc.lft.to/lastmile_qr_scan"}, "lat": 38.902296, "lon": -77.028406, "fusion_lat": 0.0}, {"is_reserved": 0, "bike_id": "e5c40d92efa545a0bacd97a8fcc27eb4", "type": "electric_scooter", "name": "e5c40d92efa545a0bacd97a8fcc27eb4", "is_disabled": 0, "fusion_lon": 0.0, "rental_uris": {"android": "https://dc.lft.to/lastmile_qr_scan", "ios": "https://dc.lft.to/lastmile_qr_scan"}, "lat": 38.904900833333336, "lon": -77.0514535, "fusion_lat": 0.0}, {"is_reserved": 0, "bike_id": "7eade5519c122bdbcb4e90497eea9192", "type": "electric_scooter", "name": "7eade5519c122bdbcb4e90497eea9192", "is_disabled": 0, "fusion_lon": 0.0, "rental_uris": {"android": "https://dc.lft.to/lastmile_qr_scan", "ios": "https://dc.lft.to/lastmile_qr_scan"}, "lat": 38.92915266666667, "lon": -77.01857083333333, "fusion_lat": 0.0}, {"is_reserved": 0, "bike_id": "abeb83cec87fdad19905d4662d1c05ed", "type": "electric_bike", "name": "abeb83cec87fdad19905d4662d1c05ed", "is_disabled": 0, "fusion_lon": 0.0, "rental_uris": {"android": "https://dc.lft.to/lastmile_qr_scan", "ios": "https://dc.lft.to/lastmile_qr_scan"}, "lat": 39.034262, "lon": -77.04301833333334, "fusion_lat": 0.0}, {"is_reserved": 0, "bike_id": "cf1b82f2a1664d8a8a4d205939e50a7f", "type": "electric_scooter", "name": "cf1b82f2a1664d8a8a4d205939e50a7f", "is_disabled": 0, "fusion_lon": 0.0, "rental_uris": {"android": "https://dc.lft.to/lastmile_qr_scan", "ios": "https://dc.lft.to/lastmile_qr_scan"}, "lat": 38.914825, "lon": -77.02179133333334, "fusion_lat": 0.0}, {"is_reserved": 0, "bike_id": "de71fa1c926a1559bd9d59376aa39550", "type": "electric_bike", "name": "de71fa1c926a1559bd9d59376aa39550", "is_disabled": 0, "fusion_lon": 0.0, "rental_uris": {"android": "https://dc.lft.to/lastmile_qr_scan", "ios": "https://dc.lft.to/lastmile_qr_scan"}, "lat": 38.92252, "lon": -76.98319016666667, "fusion_lat": 0.0}, {"is_reserved": 0, "bike_id": "bd0fc4e95fbdc1f52336cdc769b02b52", "type": "electric_scooter", "name": "bd0fc4e95fbdc1f52336cdc769b02b52", "is_disabled": 0, "fusion_lon": 0.0, "rental_uris": {"android": "https://dc.lft.to/lastmile_qr_scan", "ios": "https://dc.lft.to/lastmile_qr_scan"}, "lat": 38.899648166666665, "lon": -77.01618616666667, "fusion_lat": 0.0}, {"is_reserved": 0, "bike_id": "86fce97d95d19b1999b17ff9e8dbd7de", "type": "electric_scooter", "name": "86fce97d95d19b1999b17ff9e8dbd7de", "is_disabled": 0, "fusion_lon": 0.0, "rental_uris": {"android": "https://dc.lft.to/lastmile_qr_scan", "ios": "https://dc.lft.to/lastmile_qr_scan"}, "lat": 38.90030466666666, "lon": -77.00006983333333, "fusion_lat": 0.0}, {"is_reserved": 0, "bike_id": "bcc00e5058e7d622c0638abefcc6a94f", "type": "electric_scooter", "name": "bcc00e5058e7d622c0638abefcc6a94f", "is_disabled": 0, "fusion_lon": 0.0, "rental_uris": {"android": "https://dc.lft.to/lastmile_qr_scan", "ios": "https://dc.lft.to/lastmile_qr_scan"}, "lat": 38.91185516666667, "lon": -77.03183566666667, "fusion_lat": 0.0}, {"is_reserved": 0, "bike_id": "8917d361adbe14cc5ec035f80ee5efbf", "type": "electric_scooter", "name": "8917d361adbe14cc5ec035f80ee5efbf", "is_disabled": 0, "fusion_lon": 0.0, "rental_uris": {"android": "https://dc.lft.to/lastmile_qr_scan", "ios": "https://dc.lft.to/lastmile_qr_scan"}, "lat": 38.91542233333333, "lon": -77.02204516666667, "fusion_lat": 0.0}, {"is_reserved": 0, "bike_id": "d4440fe531d15d7024e69114595a6c69", "type": "electric_scooter", "name": "d4440fe531d15d7024e69114595a6c69", "is_disabled": 0, "fusion_lon": 0.0, "rental_uris": {"android": "https://dc.lft.to/lastmile_qr_scan", "ios": "https://dc.lft.to/lastmile_qr_scan"}, "lat": 38.89474166666667, "lon": -76.95833916666666, "fusion_lat": 0.0}, {"is_reserved": 0, "bike_id": "1d1d6af74ec041949e38eb89140f952c", "type": "electric_scooter", "name": "1d1d6af74ec041949e38eb89140f952c", "is_disabled": 0, "fusion_lon": 0.0, "rental_uris": {"android": "https://dc.lft.to/lastmile_qr_scan", "ios": "https://dc.lft.to/lastmile_qr_scan"}, "lat": 38.891933, "lon": -77.00297133333333, "fusion_lat": 0.0}, {"is_reserved": 0, "bike_id": "a651ef8279748d87f24e64ff2499e8d2", "type": "electric_scooter", "name": "a651ef8279748d87f24e64ff2499e8d2", "is_disabled": 0, "fusion_lon": 0.0, "rental_uris": {"android": "https://dc.lft.to/lastmile_qr_scan", "ios": "https://dc.lft.to/lastmile_qr_scan"}, "lat": 38.92840533333333, "lon": -77.02010516666667, "fusion_lat": 0.0}, {"is_reserved": 0, "bike_id": "7b66be9d25c068c2dd2428adb61e0458", "type": "electric_scooter", "name": "7b66be9d25c068c2dd2428adb61e0458", "is_disabled": 0, "fusion_lon": 0.0, "rental_uris": {"android": "https://dc.lft.to/lastmile_qr_scan", "ios": "https://dc.lft.to/lastmile_qr_scan"}, "lat": 38.916080666666666, "lon": -77.0319245, "fusion_lat": 0.0}, {"is_reserved": 0, "bike_id": "771f74fa96e24491bceb77bf75013fa5", "type": "electric_scooter", "name": "771f74fa96e24491bceb77bf75013fa5", "is_disabled": 0, "fusion_lon": 0.0, "rental_uris": {"android": "https://dc.lft.to/lastmile_qr_scan", "ios": "https://dc.lft.to/lastmile_qr_scan"}, "lat": 38.8971355, "lon": -77.026613, "fusion_lat": 0.0}, {"is_reserved": 0, "bike_id": "08651d8b3f865b751230d6ac11efc541", "type": "electric_scooter", "name": "08651d8b3f865b751230d6ac11efc541", "is_disabled": 0, "fusion_lon": 0.0, "rental_uris": {"android": "https://dc.lft.to/lastmile_qr_scan", "ios": "https://dc.lft.to/lastmile_qr_scan"}, "lat": 38.90028383333333, "lon": -77.0021865, "fusion_lat": 0.0}, {"is_reserved": 0, "bike_id": "acfce61360674014ef04d37431c7a7c2", "type": "electric_scooter", "name": "acfce61360674014ef04d37431c7a7c2", "is_disabled": 0, "fusion_lon": 0.0, "rental_uris": {"android": "https://dc.lft.to/lastmile_qr_scan", "ios": "https://dc.lft.to/lastmile_qr_scan"}, "lat": 38.9033685, "lon": -77.043011, "fusion_lat": 0.0}, {"is_reserved": 0, "bike_id": "25a2624b6b0e1dc6100697b36a801d50", "type": "electric_scooter", "name": "25a2624b6b0e1dc6100697b36a801d50", "is_disabled": 0, "fusion_lon": 0.0, "rental_uris": {"android": "https://dc.lft.to/lastmile_qr_scan", "ios": "https://dc.lft.to/lastmile_qr_scan"}, "lat": 38.911152666666666, "lon": -77.0383355, "fusion_lat": 0.0}, {"is_reserved": 0, "bike_id": "266207c66f9b57ac483cb2baac81bc7e", "type": "electric_scooter", "name": "266207c66f9b57ac483cb2baac81bc7e", "is_disabled": 0, "fusion_lon": 0.0, "rental_uris": {"android": "https://dc.lft.to/lastmile_qr_scan", "ios": "https://dc.lft.to/lastmile_qr_scan"}, "lat": 38.913632166666666, "lon": -77.03964383333333, "fusion_lat": 0.0}, {"is_reserved": 0, "bike_id": "9d08400e72b301cf0fb91239320d326c", "type": "electric_scooter", "name": "9d08400e72b301cf0fb91239320d326c", "is_disabled": 0, "fusion_lon": 0.0, "rental_uris": {"android": "https://dc.lft.to/lastmile_qr_scan", "ios": "https://dc.lft.to/lastmile_qr_scan"}, "lat": 38.906597, "lon": -77.073248, "fusion_lat": 0.0}, {"is_reserved": 0, "bike_id": "b2a965fbe0a4421a9f5eb1195a06e920", "type": "electric_scooter", "name": "b2a965fbe0a4421a9f5eb1195a06e920", "is_disabled": 0, "fusion_lon": 0.0, "rental_uris": {"android": "https://dc.lft.to/lastmile_qr_scan", "ios": "https://dc.lft.to/lastmile_qr_scan"}, "lat": 38.91982733333333, "lon": -77.0379675, "fusion_lat": 0.0}, {"is_reserved": 0, "bike_id": "cdab91b816acb346c7504c31e275a659", "type": "electric_scooter", "name": "cdab91b816acb346c7504c31e275a659", "is_disabled": 0, "fusion_lon": 0.0, "rental_uris": {"android": "https://dc.lft.to/lastmile_qr_scan", "ios": "https://dc.lft.to/lastmile_qr_scan"}, "lat": 38.9238845, "lon": -77.040663, "fusion_lat": 0.0}, {"is_reserved": 0, "bike_id": "9740405a87b15f4e71e4a18d5fc25e64", "type": "electric_scooter", "name": "9740405a87b15f4e71e4a18d5fc25e64", "is_disabled": 0, "fusion_lon": 0.0, "rental_uris": {"android": "https://dc.lft.to/lastmile_qr_scan", "ios": "https://dc.lft.to/lastmile_qr_scan"}, "lat": 38.89227183333333, "lon": -77.04502133333334, "fusion_lat": 0.0}, {"is_reserved": 0, "bike_id": "1638729ba22214fba93afeec3dfbc025", "type": "electric_scooter", "name": "1638729ba22214fba93afeec3dfbc025", "is_disabled": 0, "fusion_lon": 0.0, "rental_uris": {"android": "https://dc.lft.to/lastmile_qr_scan", "ios": "https://dc.lft.to/lastmile_qr_scan"}, "lat": 38.921198, "lon": -77.03185383333333, "fusion_lat": 0.0}, {"is_reserved": 0, "bike_id": "f0bfd4d70b2b7841b353ed69b436a098", "type": "electric_scooter", "name": "f0bfd4d70b2b7841b353ed69b436a098", "is_disabled": 0, "fusion_lon": 0.0, "rental_uris": {"android": "https://dc.lft.to/lastmile_qr_scan", "ios": "https://dc.lft.to/lastmile_qr_scan"}, "lat": 38.91417716666667, "lon": -77.03170266666666, "fusion_lat": 0.0}, {"is_reserved": 0, "bike_id": "77fa76a1b9f908e72d031315991a8f6c", "type": "electric_scooter", "name": "77fa76a1b9f908e72d031315991a8f6c", "is_disabled": 0, "fusion_lon": 0.0, "rental_uris": {"android": "https://dc.lft.to/lastmile_qr_scan", "ios": "https://dc.lft.to/lastmile_qr_scan"}, "lat": 38.92331866666667, "lon": -77.02289716666667, "fusion_lat": 0.0}, {"is_reserved": 0, "bike_id": "1b36bb0957ae5e8399da1dfc43810cec", "type": "electric_scooter", "name": "1b36bb0957ae5e8399da1dfc43810cec", "is_disabled": 0, "fusion_lon": 0.0, "rental_uris": {"android": "https://dc.lft.to/lastmile_qr_scan", "ios": "https://dc.lft.to/lastmile_qr_scan"}, "lat": 38.923685666666664, "lon": -77.05032266666667, "fusion_lat": 0.0}, {"is_reserved": 0, "bike_id": "ffdcd72cb0e7f9966e666e95187116f8", "type": "electric_scooter", "name": "ffdcd72cb0e7f9966e666e95187116f8", "is_disabled": 0, "fusion_lon": 0.0, "rental_uris": {"android": "https://dc.lft.to/lastmile_qr_scan", "ios": "https://dc.lft.to/lastmile_qr_scan"}, "lat": 38.8937695, "lon": -77.04779733333334, "fusion_lat": 0.0}, {"is_reserved": 0, "bike_id": "7e7cf2a08361da434077b550f107afa6", "type": "electric_scooter", "name": "7e7cf2a08361da434077b550f107afa6", "is_disabled": 0, "fusion_lon": 0.0, "rental_uris": {"android": "https://dc.lft.to/lastmile_qr_scan", "ios": "https://dc.lft.to/lastmile_qr_scan"}, "lat": 38.89567066666667, "lon": -77.0272615, "fusion_lat": 0.0}, {"is_reserved": 0, "bike_id": "6e542dd5ab7b33a0edec316de8915080", "type": "electric_scooter", "name": "6e542dd5ab7b33a0edec316de8915080", "is_disabled": 0, "fusion_lon": 0.0, "rental_uris": {"android": "https://dc.lft.to/lastmile_qr_scan", "ios": "https://dc.lft.to/lastmile_qr_scan"}, "lat": 38.9056015, "lon": -77.0501725, "fusion_lat": 0.0}, {"is_reserved": 0, "bike_id": "bb34f7a4b3e571ff156af65c72595d64", "type": "electric_scooter", "name": "bb34f7a4b3e571ff156af65c72595d64", "is_disabled": 0, "fusion_lon": 0.0, "rental_uris": {"android": "https://dc.lft.to/lastmile_qr_scan", "ios": "https://dc.lft.to/lastmile_qr_scan"}, "lat": 38.908981, "lon": -77.03176983333333, "fusion_lat": 0.0}, {"is_reserved": 0, "bike_id": "ddaa27da0425877746c243822aa04b01", "type": "electric_scooter", "name": "ddaa27da0425877746c243822aa04b01", "is_disabled": 0, "fusion_lon": 0.0, "rental_uris": {"android": "https://dc.lft.to/lastmile_qr_scan", "ios": "https://dc.lft.to/lastmile_qr_scan"}, "lat": 38.95273916666667, "lon": -77.0237945, "fusion_lat": 0.0}, {"is_reserved": 0, "bike_id": "0097c3b0ea9bc5bb3ffd8632241808b4", "type": "electric_scooter", "name": "0097c3b0ea9bc5bb3ffd8632241808b4", "is_disabled": 0, "fusion_lon": 0.0, "rental_uris": {"android": "https://dc.lft.to/lastmile_qr_scan", "ios": "https://dc.lft.to/lastmile_qr_scan"}, "lat": 38.92416166666667, "lon": -77.02007566666667, "fusion_lat": 0.0}, {"is_reserved": 0, "bike_id": "3239120692be8759ca4397a750f0d653", "type": "electric_scooter", "name": "3239120692be8759ca4397a750f0d653", "is_disabled": 0, "fusion_lon": 0.0, "rental_uris": {"android": "https://dc.lft.to/lastmile_qr_scan", "ios": "https://dc.lft.to/lastmile_qr_scan"}, "lat": 38.89566516666667, "lon": -77.0150845, "fusion_lat": 0.0}, {"is_reserved": 0, "bike_id": "4cb0967ba80aa93ae5891556ab711470", "type": "electric_scooter", "name": "4cb0967ba80aa93ae5891556ab711470", "is_disabled": 0, "fusion_lon": 0.0, "rental_uris": {"android": "https://dc.lft.to/lastmile_qr_scan", "ios": "https://dc.lft.to/lastmile_qr_scan"}, "lat": 38.92384833333333, "lon": -77.02960483333334, "fusion_lat": 0.0}, {"is_reserved": 0, "bike_id": "75a7cdbd94d17740b10491db21da6677", "type": "electric_scooter", "name": "75a7cdbd94d17740b10491db21da6677", "is_disabled": 0, "fusion_lon": 0.0, "rental_uris": {"android": "https://dc.lft.to/lastmile_qr_scan", "ios": "https://dc.lft.to/lastmile_qr_scan"}, "lat": 38.907274, "lon": -77.04012133333333, "fusion_lat": 0.0}, {"is_reserved": 0, "bike_id": "2a5bc8bfff4a6c257553bc2e7942049d", "type": "electric_scooter", "name": "2a5bc8bfff4a6c257553bc2e7942049d", "is_disabled": 0, "fusion_lon": 0.0, "rental_uris": {"android": "https://dc.lft.to/lastmile_qr_scan", "ios": "https://dc.lft.to/lastmile_qr_scan"}, "lat": 38.93100783333333, "lon": -77.024748, "fusion_lat": 0.0}, {"is_reserved": 0, "bike_id": "69067b9d2314cf067394f309e1d76164", "type": "electric_scooter", "name": "69067b9d2314cf067394f309e1d76164", "is_disabled": 0, "fusion_lon": 0.0, "rental_uris": {"android": "https://dc.lft.to/lastmile_qr_scan", "ios": "https://dc.lft.to/lastmile_qr_scan"}, "lat": 38.91414733333333, "lon": -77.02174516666666, "fusion_lat": 0.0}, {"is_reserved": 0, "bike_id": "5b3bd0936a33f8edc49de729bb2d50e6", "type": "electric_scooter", "name": "5b3bd0936a33f8edc49de729bb2d50e6", "is_disabled": 0, "fusion_lon": 0.0, "rental_uris": {"android": "https://dc.lft.to/lastmile_qr_scan", "ios": "https://dc.lft.to/lastmile_qr_scan"}, "lat": 38.9012505, "lon": -77.0032175, "fusion_lat": 0.0}, {"is_reserved": 0, "bike_id": "b874d782700f9b764a8c116317ec8cb9", "type": "electric_scooter", "name": "b874d782700f9b764a8c116317ec8cb9", "is_disabled": 0, "fusion_lon": 0.0, "rental_uris": {"android": "https://dc.lft.to/lastmile_qr_scan", "ios": "https://dc.lft.to/lastmile_qr_scan"}, "lat": 38.930710833333336, "lon": -77.023373, "fusion_lat": 0.0}, {"is_reserved": 0, "bike_id": "d6c9504d6f2adcc3bb26d07ac082379c", "type": "electric_scooter", "name": "d6c9504d6f2adcc3bb26d07ac082379c", "is_disabled": 0, "fusion_lon": 0.0, "rental_uris": {"android": "https://dc.lft.to/lastmile_qr_scan", "ios": "https://dc.lft.to/lastmile_qr_scan"}, "lat": 38.94362566666667, "lon": -77.06112466666667, "fusion_lat": 0.0}, {"is_reserved": 0, "bike_id": "090ce8b13cc8d6bdf32eed535b431ca0", "type": "electric_scooter", "name": "090ce8b13cc8d6bdf32eed535b431ca0", "is_disabled": 0, "fusion_lon": 0.0, "rental_uris": {"android": "https://dc.lft.to/lastmile_qr_scan", "ios": "https://dc.lft.to/lastmile_qr_scan"}, "lat": 38.898752, "lon": -77.04878916666667, "fusion_lat": 0.0}, {"is_reserved": 0, "bike_id": "9c6a4772ac2bbfbfcdd0162b6345b2f4", "type": "electric_scooter", "name": "9c6a4772ac2bbfbfcdd0162b6345b2f4", "is_disabled": 0, "fusion_lon": 0.0, "rental_uris": {"android": "https://dc.lft.to/lastmile_qr_scan", "ios": "https://dc.lft.to/lastmile_qr_scan"}, "lat": 38.91860783333333, "lon": -77.03174383333334, "fusion_lat": 0.0}, {"is_reserved": 0, "bike_id": "00ed30c9983480f8108b2a7b3e96700d", "type": "electric_scooter", "name": "00ed30c9983480f8108b2a7b3e96700d", "is_disabled": 0, "fusion_lon": 0.0, "rental_uris": {"android": "https://dc.lft.to/lastmile_qr_scan", "ios": "https://dc.lft.to/lastmile_qr_scan"}, "lat": 38.8989615, "lon": -77.00896483333334, "fusion_lat": 0.0}, {"is_reserved": 0, "bike_id": "a0ad6d177a0e5a40922959ec21097e91", "type": "electric_scooter", "name": "a0ad6d177a0e5a40922959ec21097e91", "is_disabled": 0, "fusion_lon": 0.0, "rental_uris": {"android": "https://dc.lft.to/lastmile_qr_scan", "ios": "https://dc.lft.to/lastmile_qr_scan"}, "lat": 38.91862283333333, "lon": -77.03183583333333, "fusion_lat": 0.0}, {"is_reserved": 0, "bike_id": "41abd1e19058cab3d97edc480148bd6e", "type": "electric_scooter", "name": "41abd1e19058cab3d97edc480148bd6e", "is_disabled": 0, "fusion_lon": 0.0, "rental_uris": {"android": "https://dc.lft.to/lastmile_qr_scan", "ios": "https://dc.lft.to/lastmile_qr_scan"}, "lat": 38.904613833333336, "lon": -77.02950083333333, "fusion_lat": 0.0}, {"is_reserved": 0, "bike_id": "517bb5da096a3423846d98c217cee0c8", "type": "electric_scooter", "name": "517bb5da096a3423846d98c217cee0c8", "is_disabled": 0, "fusion_lon": 0.0, "rental_uris": {"android": "https://dc.lft.to/lastmile_qr_scan", "ios": "https://dc.lft.to/lastmile_qr_scan"}, "lat": 38.914125, "lon": -77.01799316666667, "fusion_lat": 0.0}, {"is_reserved": 0, "bike_id": "b04f0b884b274c1cacefdf4f4b7a4f5a", "type": "electric_scooter", "name": "b04f0b884b274c1cacefdf4f4b7a4f5a", "is_disabled": 0, "fusion_lon": 0.0, "rental_uris": {"android": "https://dc.lft.to/lastmile_qr_scan", "ios": "https://dc.lft.to/lastmile_qr_scan"}, "lat": 38.87563083333333, "lon": -77.00597066666667, "fusion_lat": 0.0}, {"is_reserved": 0, "bike_id": "f27bf3717ae5391b91ee802bfc7b1714", "type": "electric_scooter", "name": "f27bf3717ae5391b91ee802bfc7b1714", "is_disabled": 0, "fusion_lon": 0.0, "rental_uris": {"android": "https://dc.lft.to/lastmile_qr_scan", "ios": "https://dc.lft.to/lastmile_qr_scan"}, "lat": 38.9386105, "lon": -77.0246625, "fusion_lat": 0.0}, {"is_reserved": 0, "bike_id": "23d0cc9fb292dc3f81a1eaf78eea1b73", "type": "electric_scooter", "name": "23d0cc9fb292dc3f81a1eaf78eea1b73", "is_disabled": 0, "fusion_lon": 0.0, "rental_uris": {"android": "https://dc.lft.to/lastmile_qr_scan", "ios": "https://dc.lft.to/lastmile_qr_scan"}, "lat": 38.940917666666664, "lon": -77.02319533333333, "fusion_lat": 0.0}, {"is_reserved": 0, "bike_id": "62549ab370b0fe6fc5a33efc2581b936", "type": "electric_scooter", "name": "62549ab370b0fe6fc5a33efc2581b936", "is_disabled": 0, "fusion_lon": 0.0, "rental_uris": {"android": "https://dc.lft.to/lastmile_qr_scan", "ios": "https://dc.lft.to/lastmile_qr_scan"}, "lat": 38.8918705, "lon": -76.99853716666667, "fusion_lat": 0.0}, {"is_reserved": 0, "bike_id": "9a8914f4dece3c51bd45e9eb86597f22", "type": "electric_scooter", "name": "9a8914f4dece3c51bd45e9eb86597f22", "is_disabled": 0, "fusion_lon": 0.0, "rental_uris": {"android": "https://dc.lft.to/lastmile_qr_scan", "ios": "https://dc.lft.to/lastmile_qr_scan"}, "lat": 38.872861, "lon": -77.01706016666667, "fusion_lat": 0.0}, {"is_reserved": 0, "bike_id": "c3a8d327f3cc2646ff1f57b525b57000", "type": "electric_scooter", "name": "c3a8d327f3cc2646ff1f57b525b57000", "is_disabled": 0, "fusion_lon": 0.0, "rental_uris": {"android": "https://dc.lft.to/lastmile_qr_scan", "ios": "https://dc.lft.to/lastmile_qr_scan"}, "lat": 38.87681216666667, "lon": -77.0004985, "fusion_lat": 0.0}, {"is_reserved": 0, "bike_id": "1629c346f93c5522ad5519174b456a84", "type": "electric_scooter", "name": "1629c346f93c5522ad5519174b456a84", "is_disabled": 0, "fusion_lon": 0.0, "rental_uris": {"android": "https://dc.lft.to/lastmile_qr_scan", "ios": "https://dc.lft.to/lastmile_qr_scan"}, "lat": 38.95611133333333, "lon": -77.02761933333333, "fusion_lat": 0.0}, {"is_reserved": 0, "bike_id": "c025a756fd225e6bce817912fd8f3452", "type": "electric_scooter", "name": "c025a756fd225e6bce817912fd8f3452", "is_disabled": 0, "fusion_lon": 0.0, "rental_uris": {"android": "https://dc.lft.to/lastmile_qr_scan", "ios": "https://dc.lft.to/lastmile_qr_scan"}, "lat": 38.9241855, "lon": -77.03544216666667, "fusion_lat": 0.0}, {"is_reserved": 0, "bike_id": "c438581650b08334ec915d73706519a3", "type": "electric_scooter", "name": "c438581650b08334ec915d73706519a3", "is_disabled": 0, "fusion_lon": 0.0, "rental_uris": {"android": "https://dc.lft.to/lastmile_qr_scan", "ios": "https://dc.lft.to/lastmile_qr_scan"}, "lat": 38.91599766666667, "lon": -77.03665883333333, "fusion_lat": 0.0}, {"is_reserved": 0, "bike_id": "415b176c543076e32e4be04b751164e0", "type": "electric_scooter", "name": "415b176c543076e32e4be04b751164e0", "is_disabled": 0, "fusion_lon": 0.0, "rental_uris": {"android": "https://dc.lft.to/lastmile_qr_scan", "ios": "https://dc.lft.to/lastmile_qr_scan"}, "lat": 38.88078483333334, "lon": -76.99499433333334, "fusion_lat": 0.0}, {"is_reserved": 0, "bike_id": "b1184a40961a738b359ef8cbc7378cdf", "type": "electric_scooter", "name": "b1184a40961a738b359ef8cbc7378cdf", "is_disabled": 0, "fusion_lon": 0.0, "rental_uris": {"android": "https://dc.lft.to/lastmile_qr_scan", "ios": "https://dc.lft.to/lastmile_qr_scan"}, "lat": 38.886014333333335, "lon": -76.925053, "fusion_lat": 0.0}, {"is_reserved": 0, "bike_id": "501968701d67f02e553e6259dc165ee5", "type": "electric_scooter", "name": "501968701d67f02e553e6259dc165ee5", "is_disabled": 0, "fusion_lon": 0.0, "rental_uris": {"android": "https://dc.lft.to/lastmile_qr_scan", "ios": "https://dc.lft.to/lastmile_qr_scan"}, "lat": 38.90896816666667, "lon": -77.002955, "fusion_lat": 0.0}, {"is_reserved": 0, "bike_id": "b1ad7e6ded6cea76849e2a210e48dcda", "type": "electric_scooter", "name": "b1ad7e6ded6cea76849e2a210e48dcda", "is_disabled": 0, "fusion_lon": 0.0, "rental_uris": {"android": "https://dc.lft.to/lastmile_qr_scan", "ios": "https://dc.lft.to/lastmile_qr_scan"}, "lat": 38.9166575, "lon": -77.0385985, "fusion_lat": 0.0}, {"is_reserved": 0, "bike_id": "9b37656458ca2251476f6cf1f2016eb1", "type": "electric_scooter", "name": "9b37656458ca2251476f6cf1f2016eb1", "is_disabled": 0, "fusion_lon": 0.0, "rental_uris": {"android": "https://dc.lft.to/lastmile_qr_scan", "ios": "https://dc.lft.to/lastmile_qr_scan"}, "lat": 38.9417735, "lon": -77.0365455, "fusion_lat": 0.0}, {"is_reserved": 0, "bike_id": "67bcbd88f899904ec8011303f7d4e6ad", "type": "electric_scooter", "name": "67bcbd88f899904ec8011303f7d4e6ad", "is_disabled": 0, "fusion_lon": 0.0, "rental_uris": {"android": "https://dc.lft.to/lastmile_qr_scan", "ios": "https://dc.lft.to/lastmile_qr_scan"}, "lat": 38.9156415, "lon": -77.067986, "fusion_lat": 0.0}, {"is_reserved": 0, "bike_id": "21c9b58cea6e83f63dd1076dd9b72748", "type": "electric_scooter", "name": "21c9b58cea6e83f63dd1076dd9b72748", "is_disabled": 0, "fusion_lon": 0.0, "rental_uris": {"android": "https://dc.lft.to/lastmile_qr_scan", "ios": "https://dc.lft.to/lastmile_qr_scan"}, "lat": 38.934331666666665, "lon": -77.03454366666666, "fusion_lat": 0.0}, {"is_reserved": 0, "bike_id": "d55e43b561845ac631a9a0ed615bc5b9", "type": "electric_scooter", "name": "d55e43b561845ac631a9a0ed615bc5b9", "is_disabled": 0, "fusion_lon": 0.0, "rental_uris": {"android": "https://dc.lft.to/lastmile_qr_scan", "ios": "https://dc.lft.to/lastmile_qr_scan"}, "lat": 38.93572566666667, "lon": -77.03349533333333, "fusion_lat": 0.0}, {"is_reserved": 0, "bike_id": "2dea776d633e354ca8225ae7dcd597e4", "type": "electric_scooter", "name": "2dea776d633e354ca8225ae7dcd597e4", "is_disabled": 0, "fusion_lon": 0.0, "rental_uris": {"android": "https://dc.lft.to/lastmile_qr_scan", "ios": "https://dc.lft.to/lastmile_qr_scan"}, "lat": 38.9271165, "lon": -77.0210275, "fusion_lat": 0.0}, {"is_reserved": 0, "bike_id": "f7ff799687abb54a90f814f64e94fe73", "type": "electric_scooter", "name": "f7ff799687abb54a90f814f64e94fe73", "is_disabled": 0, "fusion_lon": 0.0, "rental_uris": {"android": "https://dc.lft.to/lastmile_qr_scan", "ios": "https://dc.lft.to/lastmile_qr_scan"}, "lat": 38.913286666666664, "lon": -77.04541133333333, "fusion_lat": 0.0}, {"is_reserved": 0, "bike_id": "077dc0eed8d48caeaede1002afc4ac23", "type": "electric_scooter", "name": "077dc0eed8d48caeaede1002afc4ac23", "is_disabled": 0, "fusion_lon": 0.0, "rental_uris": {"android": "https://dc.lft.to/lastmile_qr_scan", "ios": "https://dc.lft.to/lastmile_qr_scan"}, "lat": 38.911785, "lon": -77.06085, "fusion_lat": 0.0}, {"is_reserved": 0, "bike_id": "c3f4f83794b83afcbf55548c363e5087", "type": "electric_scooter", "name": "c3f4f83794b83afcbf55548c363e5087", "is_disabled": 0, "fusion_lon": 0.0, "rental_uris": {"android": "https://dc.lft.to/lastmile_qr_scan", "ios": "https://dc.lft.to/lastmile_qr_scan"}, "lat": 38.91568783333334, "lon": -77.04607983333334, "fusion_lat": 0.0}, {"is_reserved": 0, "bike_id": "2e5ad7c47204a62946b418fa430ad921", "type": "electric_scooter", "name": "2e5ad7c47204a62946b418fa430ad921", "is_disabled": 0, "fusion_lon": 0.0, "rental_uris": {"android": "https://dc.lft.to/lastmile_qr_scan", "ios": "https://dc.lft.to/lastmile_qr_scan"}, "lat": 38.905047, "lon": -77.06035216666666, "fusion_lat": 0.0}, {"is_reserved": 0, "bike_id": "1179df3f74314eadf9a4aa8ac004bb9c", "type": "electric_scooter", "name": "1179df3f74314eadf9a4aa8ac004bb9c", "is_disabled": 0, "fusion_lon": 0.0, "rental_uris": {"android": "https://dc.lft.to/lastmile_qr_scan", "ios": "https://dc.lft.to/lastmile_qr_scan"}, "lat": 38.9237385, "lon": -77.0205735, "fusion_lat": 0.0}, {"is_reserved": 0, "bike_id": "10a15bfe387e36f937b03f159f6ff37d", "type": "electric_scooter", "name": "10a15bfe387e36f937b03f159f6ff37d", "is_disabled": 0, "fusion_lon": 0.0, "rental_uris": {"android": "https://dc.lft.to/lastmile_qr_scan", "ios": "https://dc.lft.to/lastmile_qr_scan"}, "lat": 38.921505, "lon": -77.03461116666666, "fusion_lat": 0.0}, {"is_reserved": 0, "bike_id": "4ffc7b06ef489581da7bb63cac340a51", "type": "electric_scooter", "name": "4ffc7b06ef489581da7bb63cac340a51", "is_disabled": 0, "fusion_lon": 0.0, "rental_uris": {"android": "https://dc.lft.to/lastmile_qr_scan", "ios": "https://dc.lft.to/lastmile_qr_scan"}, "lat": 38.955435, "lon": -77.0278145, "fusion_lat": 0.0}, {"is_reserved": 0, "bike_id": "ae5748be562dc83b94d5f287676722ee", "type": "electric_scooter", "name": "ae5748be562dc83b94d5f287676722ee", "is_disabled": 0, "fusion_lon": 0.0, "rental_uris": {"android": "https://dc.lft.to/lastmile_qr_scan", "ios": "https://dc.lft.to/lastmile_qr_scan"}, "lat": 38.913265833333334, "lon": -77.01985, "fusion_lat": 0.0}, {"is_reserved": 0, "bike_id": "a7c015c886d76d17be09c06f23ceeb06", "type": "electric_scooter", "name": "a7c015c886d76d17be09c06f23ceeb06", "is_disabled": 0, "fusion_lon": 0.0, "rental_uris": {"android": "https://dc.lft.to/lastmile_qr_scan", "ios": "https://dc.lft.to/lastmile_qr_scan"}, "lat": 38.89838733333333, "lon": -77.0498465, "fusion_lat": 0.0}, {"is_reserved": 0, "bike_id": "efe9965d23162134734de84c712ac4e5", "type": "electric_scooter", "name": "efe9965d23162134734de84c712ac4e5", "is_disabled": 0, "fusion_lon": 0.0, "rental_uris": {"android": "https://dc.lft.to/lastmile_qr_scan", "ios": "https://dc.lft.to/lastmile_qr_scan"}, "lat": 38.940617833333334, "lon": -77.03282283333333, "fusion_lat": 0.0}, {"is_reserved": 0, "bike_id": "7173bb5f1cb8e248354fa425689852aa", "type": "electric_scooter", "name": "7173bb5f1cb8e248354fa425689852aa", "is_disabled": 0, "fusion_lon": 0.0, "rental_uris": {"android": "https://dc.lft.to/lastmile_qr_scan", "ios": "https://dc.lft.to/lastmile_qr_scan"}, "lat": 38.91537816666667, "lon": -77.01225433333333, "fusion_lat": 0.0}, {"is_reserved": 0, "bike_id": "7b06a3ec0263487549cea30b0aa50c14", "type": "electric_scooter", "name": "7b06a3ec0263487549cea30b0aa50c14", "is_disabled": 0, "fusion_lon": 0.0, "rental_uris": {"android": "https://dc.lft.to/lastmile_qr_scan", "ios": "https://dc.lft.to/lastmile_qr_scan"}, "lat": 38.9184085, "lon": -77.03445566666667, "fusion_lat": 0.0}, {"is_reserved": 0, "bike_id": "00ada9aa6925d81bd8f5e7739f55a5a5", "type": "electric_scooter", "name": "00ada9aa6925d81bd8f5e7739f55a5a5", "is_disabled": 0, "fusion_lon": 0.0, "rental_uris": {"android": "https://dc.lft.to/lastmile_qr_scan", "ios": "https://dc.lft.to/lastmile_qr_scan"}, "lat": 38.906521, "lon": -76.98600716666667, "fusion_lat": 0.0}, {"is_reserved": 0, "bike_id": "4eeb821f25392b47147d8d57d533fe3b", "type": "electric_scooter", "name": "4eeb821f25392b47147d8d57d533fe3b", "is_disabled": 0, "fusion_lon": 0.0, "rental_uris": {"android": "https://dc.lft.to/lastmile_qr_scan", "ios": "https://dc.lft.to/lastmile_qr_scan"}, "lat": 38.92495266666667, "lon": -77.02181083333333, "fusion_lat": 0.0}, {"is_reserved": 0, "bike_id": "880a18a896a27197598c099573e0174a", "type": "electric_scooter", "name": "880a18a896a27197598c099573e0174a", "is_disabled": 0, "fusion_lon": 0.0, "rental_uris": {"android": "https://dc.lft.to/lastmile_qr_scan", "ios": "https://dc.lft.to/lastmile_qr_scan"}, "lat": 38.898786, "lon": -77.03279083333334, "fusion_lat": 0.0}, {"is_reserved": 0, "bike_id": "e47e20a42c4fa5d82130aec2e1f942c8", "type": "electric_scooter", "name": "e47e20a42c4fa5d82130aec2e1f942c8", "is_disabled": 0, "fusion_lon": 0.0, "rental_uris": {"android": "https://dc.lft.to/lastmile_qr_scan", "ios": "https://dc.lft.to/lastmile_qr_scan"}, "lat": 38.9260945, "lon": -77.02961616666667, "fusion_lat": 0.0}, {"is_reserved": 0, "bike_id": "90cddbe718f006032d927392d4fce06c", "type": "electric_bike", "name": "90cddbe718f006032d927392d4fce06c", "is_disabled": 0, "fusion_lon": 0.0, "rental_uris": {"android": "https://dc.lft.to/lastmile_qr_scan", "ios": "https://dc.lft.to/lastmile_qr_scan"}, "lat": 38.9983525, "lon": -76.99766533333333, "fusion_lat": 0.0}, {"is_reserved": 0, "bike_id": "040580813b5ac6370672a1907487e32c", "type": "electric_scooter", "name": "040580813b5ac6370672a1907487e32c", "is_disabled": 0, "fusion_lon": 0.0, "rental_uris": {"android": "https://dc.lft.to/lastmile_qr_scan", "ios": "https://dc.lft.to/lastmile_qr_scan"}, "lat": 38.90651716666667, "lon": -76.98377366666666, "fusion_lat": 0.0}, {"is_reserved": 0, "bike_id": "d32877c55f567f91c708f7892c44dec2", "type": "electric_scooter", "name": "d32877c55f567f91c708f7892c44dec2", "is_disabled": 0, "fusion_lon": 0.0, "rental_uris": {"android": "https://dc.lft.to/lastmile_qr_scan", "ios": "https://dc.lft.to/lastmile_qr_scan"}, "lat": 38.906105333333336, "lon": -77.02387683333333, "fusion_lat": 0.0}, {"is_reserved": 0, "bike_id": "351377a5285595a86bb18e973d0fa725", "type": "electric_scooter", "name": "351377a5285595a86bb18e973d0fa725", "is_disabled": 0, "fusion_lon": 0.0, "rental_uris": {"android": "https://dc.lft.to/lastmile_qr_scan", "ios": "https://dc.lft.to/lastmile_qr_scan"}, "lat": 38.916940833333335, "lon": -77.008116, "fusion_lat": 0.0}, {"is_reserved": 0, "bike_id": "bd6a9369aea0eaf3b8eceb9585a0b0cd", "type": "electric_scooter", "name": "bd6a9369aea0eaf3b8eceb9585a0b0cd", "is_disabled": 0, "fusion_lon": 0.0, "rental_uris": {"android": "https://dc.lft.to/lastmile_qr_scan", "ios": "https://dc.lft.to/lastmile_qr_scan"}, "lat": 38.920351, "lon": -77.04185233333334, "fusion_lat": 0.0}, {"is_reserved": 0, "bike_id": "67c2298cf87e32db8a0643b03ceb5582", "type": "electric_scooter", "name": "67c2298cf87e32db8a0643b03ceb5582", "is_disabled": 0, "fusion_lon": 0.0, "rental_uris": {"android": "https://dc.lft.to/lastmile_qr_scan", "ios": "https://dc.lft.to/lastmile_qr_scan"}, "lat": 38.88108883333334, "lon": -77.026553, "fusion_lat": 0.0}, {"is_reserved": 0, "bike_id": "cb7620a94435caeda9bb9a789a4f4161", "type": "electric_scooter", "name": "cb7620a94435caeda9bb9a789a4f4161", "is_disabled": 0, "fusion_lon": 0.0, "rental_uris": {"android": "https://dc.lft.to/lastmile_qr_scan", "ios": "https://dc.lft.to/lastmile_qr_scan"}, "lat": 38.92175066666667, "lon": -77.02678433333334, "fusion_lat": 0.0}, {"is_reserved": 0, "bike_id": "88039b908b50716c47376a6789ff823e", "type": "electric_scooter", "name": "88039b908b50716c47376a6789ff823e", "is_disabled": 0, "fusion_lon": 0.0, "rental_uris": {"android": "https://dc.lft.to/lastmile_qr_scan", "ios": "https://dc.lft.to/lastmile_qr_scan"}, "lat": 38.895975, "lon": -77.02256983333334, "fusion_lat": 0.0}, {"is_reserved": 0, "bike_id": "80435be75bd944c19239da8695b5a93c", "type": "electric_scooter", "name": "80435be75bd944c19239da8695b5a93c", "is_disabled": 0, "fusion_lon": 0.0, "rental_uris": {"android": "https://dc.lft.to/lastmile_qr_scan", "ios": "https://dc.lft.to/lastmile_qr_scan"}, "lat": 38.934631833333334, "lon": -76.98873733333333, "fusion_lat": 0.0}, {"is_reserved": 0, "bike_id": "80a43f4274dcab7dbec091e9fada4030", "type": "electric_scooter", "name": "80a43f4274dcab7dbec091e9fada4030", "is_disabled": 0, "fusion_lon": 0.0, "rental_uris": {"android": "https://dc.lft.to/lastmile_qr_scan", "ios": "https://dc.lft.to/lastmile_qr_scan"}, "lat": 38.898927666666665, "lon": -77.03929816666667, "fusion_lat": 0.0}, {"is_reserved": 0, "bike_id": "f8ebfd84c2d618a3ed2cd24af4b8190e", "type": "electric_scooter", "name": "f8ebfd84c2d618a3ed2cd24af4b8190e", "is_disabled": 0, "fusion_lon": 0.0, "rental_uris": {"android": "https://dc.lft.to/lastmile_qr_scan", "ios": "https://dc.lft.to/lastmile_qr_scan"}, "lat": 38.907312, "lon": -77.0344725, "fusion_lat": 0.0}, {"is_reserved": 0, "bike_id": "0c5a5e1b843156622de048224dbead2c", "type": "electric_scooter", "name": "0c5a5e1b843156622de048224dbead2c", "is_disabled": 0, "fusion_lon": 0.0, "rental_uris": {"android": "https://dc.lft.to/lastmile_qr_scan", "ios": "https://dc.lft.to/lastmile_qr_scan"}, "lat": 38.89247366666667, "lon": -77.039597, "fusion_lat": 0.0}, {"is_reserved": 0, "bike_id": "84ce78c42d002dcf26a63f1ff4757c23", "type": "electric_scooter", "name": "84ce78c42d002dcf26a63f1ff4757c23", "is_disabled": 0, "fusion_lon": 0.0, "rental_uris": {"android": "https://dc.lft.to/lastmile_qr_scan", "ios": "https://dc.lft.to/lastmile_qr_scan"}, "lat": 38.914236833333334, "lon": -77.028146, "fusion_lat": 0.0}, {"is_reserved": 0, "bike_id": "2ab6f9d9fdac420a4d5015d6366c2ffe", "type": "electric_scooter", "name": "2ab6f9d9fdac420a4d5015d6366c2ffe", "is_disabled": 0, "fusion_lon": 0.0, "rental_uris": {"android": "https://dc.lft.to/lastmile_qr_scan", "ios": "https://dc.lft.to/lastmile_qr_scan"}, "lat": 38.89356333333333, "lon": -77.00332333333333, "fusion_lat": 0.0}, {"is_reserved": 0, "bike_id": "59dba564d7adce18b5353cf29d25bfb1", "type": "electric_scooter", "name": "59dba564d7adce18b5353cf29d25bfb1", "is_disabled": 0, "fusion_lon": 0.0, "rental_uris": {"android": "https://dc.lft.to/lastmile_qr_scan", "ios": "https://dc.lft.to/lastmile_qr_scan"}, "lat": 38.900440333333336, "lon": -77.04830016666666, "fusion_lat": 0.0}, {"is_reserved": 0, "bike_id": "394543650c370e9123fe96def9b1e2e5", "type": "electric_scooter", "name": "394543650c370e9123fe96def9b1e2e5", "is_disabled": 0, "fusion_lon": 0.0, "rental_uris": {"android": "https://dc.lft.to/lastmile_qr_scan", "ios": "https://dc.lft.to/lastmile_qr_scan"}, "lat": 38.91255666666667, "lon": -77.047395, "fusion_lat": 0.0}, {"is_reserved": 0, "bike_id": "de3f31c9e3c8e51792f0de819c2c7430", "type": "electric_scooter", "name": "de3f31c9e3c8e51792f0de819c2c7430", "is_disabled": 0, "fusion_lon": 0.0, "rental_uris": {"android": "https://dc.lft.to/lastmile_qr_scan", "ios": "https://dc.lft.to/lastmile_qr_scan"}, "lat": 38.91683316666666, "lon": -77.0461355, "fusion_lat": 0.0}, {"is_reserved": 0, "bike_id": "7198f2cead7c433adca4669365924955", "type": "electric_scooter", "name": "7198f2cead7c433adca4669365924955", "is_disabled": 0, "fusion_lon": 0.0, "rental_uris": {"android": "https://dc.lft.to/lastmile_qr_scan", "ios": "https://dc.lft.to/lastmile_qr_scan"}, "lat": 38.957348, "lon": -77.02339783333333, "fusion_lat": 0.0}, {"is_reserved": 0, "bike_id": "bd8e6fe6b48c0c74dd5c2c7732507f0d", "type": "electric_scooter", "name": "bd8e6fe6b48c0c74dd5c2c7732507f0d", "is_disabled": 0, "fusion_lon": 0.0, "rental_uris": {"android": "https://dc.lft.to/lastmile_qr_scan", "ios": "https://dc.lft.to/lastmile_qr_scan"}, "lat": 38.90972033333333, "lon": -77.0473665, "fusion_lat": 0.0}, {"is_reserved": 0, "bike_id": "19617a8d2d8267cdc3d31b8ef57f7d69", "type": "electric_scooter", "name": "19617a8d2d8267cdc3d31b8ef57f7d69", "is_disabled": 0, "fusion_lon": 0.0, "rental_uris": {"android": "https://dc.lft.to/lastmile_qr_scan", "ios": "https://dc.lft.to/lastmile_qr_scan"}, "lat": 38.91817066666667, "lon": -77.02772433333334, "fusion_lat": 0.0}, {"is_reserved": 0, "bike_id": "97ee8edd8896e57b512fc58762ef971f", "type": "electric_scooter", "name": "97ee8edd8896e57b512fc58762ef971f", "is_disabled": 0, "fusion_lon": 0.0, "rental_uris": {"android": "https://dc.lft.to/lastmile_qr_scan", "ios": "https://dc.lft.to/lastmile_qr_scan"}, "lat": 38.901615166666666, "lon": -77.04353183333333, "fusion_lat": 0.0}, {"is_reserved": 0, "bike_id": "143734d26329918431433c8d7fa0dc1d", "type": "electric_scooter", "name": "143734d26329918431433c8d7fa0dc1d", "is_disabled": 0, "fusion_lon": 0.0, "rental_uris": {"android": "https://dc.lft.to/lastmile_qr_scan", "ios": "https://dc.lft.to/lastmile_qr_scan"}, "lat": 38.9187065, "lon": -77.04312033333333, "fusion_lat": 0.0}, {"is_reserved": 0, "bike_id": "ff190c71aa70d45ddebbf037bf958f86", "type": "electric_scooter", "name": "ff190c71aa70d45ddebbf037bf958f86", "is_disabled": 0, "fusion_lon": 0.0, "rental_uris": {"android": "https://dc.lft.to/lastmile_qr_scan", "ios": "https://dc.lft.to/lastmile_qr_scan"}, "lat": 38.87702516666667, "lon": -77.00417916666666, "fusion_lat": 0.0}, {"is_reserved": 0, "bike_id": "7850ad5265f155ecb66d5102ee26e22b", "type": "electric_scooter", "name": "7850ad5265f155ecb66d5102ee26e22b", "is_disabled": 0, "fusion_lon": 0.0, "rental_uris": {"android": "https://dc.lft.to/lastmile_qr_scan", "ios": "https://dc.lft.to/lastmile_qr_scan"}, "lat": 38.924764333333336, "lon": -77.02232533333333, "fusion_lat": 0.0}, {"is_reserved": 0, "bike_id": "17669752850b752a6b4ec3b65e65fc7c", "type": "electric_scooter", "name": "17669752850b752a6b4ec3b65e65fc7c", "is_disabled": 0, "fusion_lon": 0.0, "rental_uris": {"android": "https://dc.lft.to/lastmile_qr_scan", "ios": "https://dc.lft.to/lastmile_qr_scan"}, "lat": 38.8951405, "lon": -77.02285583333334, "fusion_lat": 0.0}, {"is_reserved": 0, "bike_id": "e8e034be1be5cc67addf97c74f6165e4", "type": "electric_scooter", "name": "e8e034be1be5cc67addf97c74f6165e4", "is_disabled": 0, "fusion_lon": 0.0, "rental_uris": {"android": "https://dc.lft.to/lastmile_qr_scan", "ios": "https://dc.lft.to/lastmile_qr_scan"}, "lat": 38.9026155, "lon": -76.99850416666666, "fusion_lat": 0.0}, {"is_reserved": 0, "bike_id": "076cf028097ae8006d346d7bba8a3c5d", "type": "electric_scooter", "name": "076cf028097ae8006d346d7bba8a3c5d", "is_disabled": 0, "fusion_lon": 0.0, "rental_uris": {"android": "https://dc.lft.to/lastmile_qr_scan", "ios": "https://dc.lft.to/lastmile_qr_scan"}, "lat": 38.9117385, "lon": -77.04257566666666, "fusion_lat": 0.0}, {"is_reserved": 0, "bike_id": "9a2da159b5416745ecc7e42c9b20aece", "type": "electric_scooter", "name": "9a2da159b5416745ecc7e42c9b20aece", "is_disabled": 0, "fusion_lon": 0.0, "rental_uris": {"android": "https://dc.lft.to/lastmile_qr_scan", "ios": "https://dc.lft.to/lastmile_qr_scan"}, "lat": 38.90984483333333, "lon": -77.008979, "fusion_lat": 0.0}, {"is_reserved": 0, "bike_id": "9bd94bd19d8a2a3135bb96787e397643", "type": "electric_scooter", "name": "9bd94bd19d8a2a3135bb96787e397643", "is_disabled": 0, "fusion_lon": 0.0, "rental_uris": {"android": "https://dc.lft.to/lastmile_qr_scan", "ios": "https://dc.lft.to/lastmile_qr_scan"}, "lat": 38.918556833333334, "lon": -77.031905, "fusion_lat": 0.0}, {"is_reserved": 0, "bike_id": "8ad3d0c1ec1a5dac503908bc740abfe6", "type": "electric_scooter", "name": "8ad3d0c1ec1a5dac503908bc740abfe6", "is_disabled": 0, "fusion_lon": 0.0, "rental_uris": {"android": "https://dc.lft.to/lastmile_qr_scan", "ios": "https://dc.lft.to/lastmile_qr_scan"}, "lat": 38.89854866666667, "lon": -77.02852566666667, "fusion_lat": 0.0}, {"is_reserved": 0, "bike_id": "650e37f0d709d83f2ae83b7e2bd5a6f1", "type": "electric_scooter", "name": "650e37f0d709d83f2ae83b7e2bd5a6f1", "is_disabled": 0, "fusion_lon": 0.0, "rental_uris": {"android": "https://dc.lft.to/lastmile_qr_scan", "ios": "https://dc.lft.to/lastmile_qr_scan"}, "lat": 38.9241555, "lon": -77.01943133333333, "fusion_lat": 0.0}, {"is_reserved": 0, "bike_id": "3bc6f5639d9ac009efd35d970f57965d", "type": "electric_bike", "name": "3bc6f5639d9ac009efd35d970f57965d", "is_disabled": 0, "fusion_lon": 0.0, "rental_uris": {"android": "https://dc.lft.to/lastmile_qr_scan", "ios": "https://dc.lft.to/lastmile_qr_scan"}, "lat": 38.9521735, "lon": -77.096593, "fusion_lat": 0.0}, {"is_reserved": 0, "bike_id": "eb5f5297d8908ef74c09325fdb04cd37", "type": "electric_scooter", "name": "eb5f5297d8908ef74c09325fdb04cd37", "is_disabled": 0, "fusion_lon": 0.0, "rental_uris": {"android": "https://dc.lft.to/lastmile_qr_scan", "ios": "https://dc.lft.to/lastmile_qr_scan"}, "lat": 38.9129495, "lon": -77.01741566666666, "fusion_lat": 0.0}, {"is_reserved": 0, "bike_id": "f576855828f2e5b330a5531ae55ee555", "type": "electric_scooter", "name": "f576855828f2e5b330a5531ae55ee555", "is_disabled": 0, "fusion_lon": 0.0, "rental_uris": {"android": "https://dc.lft.to/lastmile_qr_scan", "ios": "https://dc.lft.to/lastmile_qr_scan"}, "lat": 38.885931, "lon": -77.01796783333333, "fusion_lat": 0.0}, {"is_reserved": 0, "bike_id": "fa9e3ccfae580799045a9523fcbacb28", "type": "electric_scooter", "name": "fa9e3ccfae580799045a9523fcbacb28", "is_disabled": 0, "fusion_lon": 0.0, "rental_uris": {"android": "https://dc.lft.to/lastmile_qr_scan", "ios": "https://dc.lft.to/lastmile_qr_scan"}, "lat": 38.90245, "lon": -76.9896585, "fusion_lat": 0.0}, {"is_reserved": 0, "bike_id": "e1cffe88fc1cafbe444d8b1093067975", "type": "electric_scooter", "name": "e1cffe88fc1cafbe444d8b1093067975", "is_disabled": 0, "fusion_lon": 0.0, "rental_uris": {"android": "https://dc.lft.to/lastmile_qr_scan", "ios": "https://dc.lft.to/lastmile_qr_scan"}, "lat": 38.95643716666667, "lon": -77.01320516666667, "fusion_lat": 0.0}, {"is_reserved": 0, "bike_id": "5354d8bdf902bf2d01cf32c9648d5ead", "type": "electric_scooter", "name": "5354d8bdf902bf2d01cf32c9648d5ead", "is_disabled": 0, "fusion_lon": 0.0, "rental_uris": {"android": "https://dc.lft.to/lastmile_qr_scan", "ios": "https://dc.lft.to/lastmile_qr_scan"}, "lat": 38.9242365, "lon": -77.042488, "fusion_lat": 0.0}, {"is_reserved": 0, "bike_id": "e60ce33ab662980cf1f2f314b9d52322", "type": "electric_scooter", "name": "e60ce33ab662980cf1f2f314b9d52322", "is_disabled": 0, "fusion_lon": 0.0, "rental_uris": {"android": "https://dc.lft.to/lastmile_qr_scan", "ios": "https://dc.lft.to/lastmile_qr_scan"}, "lat": 38.944613333333336, "lon": -77.00659, "fusion_lat": 0.0}, {"is_reserved": 0, "bike_id": "dd548e24d2e74525b4e1618478686f64", "type": "electric_scooter", "name": "dd548e24d2e74525b4e1618478686f64", "is_disabled": 0, "fusion_lon": 0.0, "rental_uris": {"android": "https://dc.lft.to/lastmile_qr_scan", "ios": "https://dc.lft.to/lastmile_qr_scan"}, "lat": 38.904752, "lon": -77.04865166666667, "fusion_lat": 0.0}, {"is_reserved": 0, "bike_id": "42871b17f73907fe0fe3264d1746c46c", "type": "electric_bike", "name": "42871b17f73907fe0fe3264d1746c46c", "is_disabled": 0, "fusion_lon": 0.0, "rental_uris": {"android": "https://dc.lft.to/lastmile_qr_scan", "ios": "https://dc.lft.to/lastmile_qr_scan"}, "lat": 38.8648375, "lon": -76.97743633333333, "fusion_lat": 0.0}, {"is_reserved": 0, "bike_id": "c7898826ef02417b7c4c21f0fc2e2e52", "type": "electric_scooter", "name": "c7898826ef02417b7c4c21f0fc2e2e52", "is_disabled": 0, "fusion_lon": 0.0, "rental_uris": {"android": "https://dc.lft.to/lastmile_qr_scan", "ios": "https://dc.lft.to/lastmile_qr_scan"}, "lat": 38.91703016666666, "lon": -77.0239505, "fusion_lat": 0.0}, {"is_reserved": 0, "bike_id": "a3506eeb3b17d202be5d6213897259be", "type": "electric_scooter", "name": "a3506eeb3b17d202be5d6213897259be", "is_disabled": 0, "fusion_lon": 0.0, "rental_uris": {"android": "https://dc.lft.to/lastmile_qr_scan", "ios": "https://dc.lft.to/lastmile_qr_scan"}, "lat": 38.90796366666667, "lon": -77.0839965, "fusion_lat": 0.0}, {"is_reserved": 0, "bike_id": "b50325925d734b6d6dabb261eb6e1104", "type": "electric_scooter", "name": "b50325925d734b6d6dabb261eb6e1104", "is_disabled": 0, "fusion_lon": 0.0, "rental_uris": {"android": "https://dc.lft.to/lastmile_qr_scan", "ios": "https://dc.lft.to/lastmile_qr_scan"}, "lat": 38.92054783333333, "lon": -77.0258555, "fusion_lat": 0.0}, {"is_reserved": 0, "bike_id": "0cc6d3f878432932a243d286cba8b5e2", "type": "electric_scooter", "name": "0cc6d3f878432932a243d286cba8b5e2", "is_disabled": 0, "fusion_lon": 0.0, "rental_uris": {"android": "https://dc.lft.to/lastmile_qr_scan", "ios": "https://dc.lft.to/lastmile_qr_scan"}, "lat": 38.94929583333333, "lon": -77.01850616666667, "fusion_lat": 0.0}, {"is_reserved": 0, "bike_id": "04631cfdce01638ad5970d3b33c0f515", "type": "electric_scooter", "name": "04631cfdce01638ad5970d3b33c0f515", "is_disabled": 0, "fusion_lon": 0.0, "rental_uris": {"android": "https://dc.lft.to/lastmile_qr_scan", "ios": "https://dc.lft.to/lastmile_qr_scan"}, "lat": 38.90025216666667, "lon": -76.99519666666667, "fusion_lat": 0.0}, {"is_reserved": 0, "bike_id": "2fc2c71b0000e9e9ff00c68bc3dd4319", "type": "electric_scooter", "name": "2fc2c71b0000e9e9ff00c68bc3dd4319", "is_disabled": 0, "fusion_lon": 0.0, "rental_uris": {"android": "https://dc.lft.to/lastmile_qr_scan", "ios": "https://dc.lft.to/lastmile_qr_scan"}, "lat": 38.92127416666666, "lon": -77.0179875, "fusion_lat": 0.0}, {"is_reserved": 0, "bike_id": "371ff1e7822f494807bac51851b9549c", "type": "electric_scooter", "name": "371ff1e7822f494807bac51851b9549c", "is_disabled": 0, "fusion_lon": 0.0, "rental_uris": {"android": "https://dc.lft.to/lastmile_qr_scan", "ios": "https://dc.lft.to/lastmile_qr_scan"}, "lat": 38.928991, "lon": -77.05459316666666, "fusion_lat": 0.0}, {"is_reserved": 0, "bike_id": "a0426ab6d524b48606a7e95996fa17f6", "type": "electric_scooter", "name": "a0426ab6d524b48606a7e95996fa17f6", "is_disabled": 0, "fusion_lon": 0.0, "rental_uris": {"android": "https://dc.lft.to/lastmile_qr_scan", "ios": "https://dc.lft.to/lastmile_qr_scan"}, "lat": 38.921269, "lon": -77.025464, "fusion_lat": 0.0}, {"is_reserved": 0, "bike_id": "318a0ed7e539b593dbefca55dd2c5581", "type": "electric_scooter", "name": "318a0ed7e539b593dbefca55dd2c5581", "is_disabled": 0, "fusion_lon": 0.0, "rental_uris": {"android": "https://dc.lft.to/lastmile_qr_scan", "ios": "https://dc.lft.to/lastmile_qr_scan"}, "lat": 38.91404566666667, "lon": -77.022103, "fusion_lat": 0.0}, {"is_reserved": 0, "bike_id": "4b27d72a84a74d674378062da4e34dc2", "type": "electric_scooter", "name": "4b27d72a84a74d674378062da4e34dc2", "is_disabled": 0, "fusion_lon": 0.0, "rental_uris": {"android": "https://dc.lft.to/lastmile_qr_scan", "ios": "https://dc.lft.to/lastmile_qr_scan"}, "lat": 38.923125, "lon": -77.04219466666666, "fusion_lat": 0.0}, {"is_reserved": 0, "bike_id": "8d16319a62319078a8e505e18802000d", "type": "electric_scooter", "name": "8d16319a62319078a8e505e18802000d", "is_disabled": 0, "fusion_lon": 0.0, "rental_uris": {"android": "https://dc.lft.to/lastmile_qr_scan", "ios": "https://dc.lft.to/lastmile_qr_scan"}, "lat": 38.8850315, "lon": -77.00568166666666, "fusion_lat": 0.0}, {"is_reserved": 0, "bike_id": "b3a577c44e2732caa7b7ae7798c339b3", "type": "electric_scooter", "name": "b3a577c44e2732caa7b7ae7798c339b3", "is_disabled": 0, "fusion_lon": 0.0, "rental_uris": {"android": "https://dc.lft.to/lastmile_qr_scan", "ios": "https://dc.lft.to/lastmile_qr_scan"}, "lat": 38.86216483333333, "lon": -76.9948845, "fusion_lat": 0.0}, {"is_reserved": 0, "bike_id": "6b3ce9454c2470414c0dd5d518a21d0d", "type": "electric_scooter", "name": "6b3ce9454c2470414c0dd5d518a21d0d", "is_disabled": 0, "fusion_lon": 0.0, "rental_uris": {"android": "https://dc.lft.to/lastmile_qr_scan", "ios": "https://dc.lft.to/lastmile_qr_scan"}, "lat": 38.9162655, "lon": -77.03281066666666, "fusion_lat": 0.0}, {"is_reserved": 0, "bike_id": "b699f429a7d051103bc8c08e1825da5e", "type": "electric_scooter", "name": "b699f429a7d051103bc8c08e1825da5e", "is_disabled": 0, "fusion_lon": 0.0, "rental_uris": {"android": "https://dc.lft.to/lastmile_qr_scan", "ios": "https://dc.lft.to/lastmile_qr_scan"}, "lat": 38.915453666666664, "lon": -77.03799533333333, "fusion_lat": 0.0}, {"is_reserved": 0, "bike_id": "0bb8fc0916cba0941ba8fced8bdc6c8b", "type": "electric_scooter", "name": "0bb8fc0916cba0941ba8fced8bdc6c8b", "is_disabled": 0, "fusion_lon": 0.0, "rental_uris": {"android": "https://dc.lft.to/lastmile_qr_scan", "ios": "https://dc.lft.to/lastmile_qr_scan"}, "lat": 38.91812816666667, "lon": -77.02477616666667, "fusion_lat": 0.0}, {"is_reserved": 0, "bike_id": "93603b345c9b65c3e03cb5aefbcaaef0", "type": "electric_scooter", "name": "93603b345c9b65c3e03cb5aefbcaaef0", "is_disabled": 0, "fusion_lon": 0.0, "rental_uris": {"android": "https://dc.lft.to/lastmile_qr_scan", "ios": "https://dc.lft.to/lastmile_qr_scan"},