{"data": {"bikes": [{"rental_uris": {"android": "https://dc.lft.to/lastmile_qr_scan", "ios": "https://dc.lft.to/lastmile_qr_scan"}, "name": "e2add36e74b820dda0efddbc761938eb", "fusion_lat": 0.0, "lon": -77.03661816666667, "is_disabled": 0, "is_reserved": 0, "fusion_lon": 0.0, "lat": 38.912831833333335, "type": "electric_scooter", "bike_id": "e2add36e74b820dda0efddbc761938eb"}, {"rental_uris": {"android": "https://dc.lft.to/lastmile_qr_scan", "ios": "https://dc.lft.to/lastmile_qr_scan"}, "name": "94627785b644f5d5208029725f84b44d", "fusion_lat": 0.0, "lon": -77.00745733333333, "is_disabled": 0, "is_reserved": 0, "fusion_lon": 0.0, "lat": 38.898321, "type": "electric_scooter", "bike_id": "94627785b644f5d5208029725f84b44d"}, {"rental_uris": {"android": "https://dc.lft.to/lastmile_qr_scan", "ios": "https://dc.lft.to/lastmile_qr_scan"}, "name": "ebb2767aed062bc5b0b67c305f0cbf5c", "fusion_lat": 0.0, "lon": -76.94986083333333, "is_disabled": 0, "is_reserved": 0, "fusion_lon": 0.0, "lat": 38.8943485, "type": "electric_scooter", "bike_id": "ebb2767aed062bc5b0b67c305f0cbf5c"}, {"rental_uris": {"android": "https://dc.lft.to/lastmile_qr_scan", "ios": "https://dc.lft.to/lastmile_qr_scan"}, "name": "f516f3ff5161c0c34386c5cf81b59199", "fusion_lat": 0.0, "lon": -76.98098833333333, "is_disabled": 0, "is_reserved": 0, "fusion_lon": 0.0, "lat": 38.8571565, "type": "electric_scooter", "bike_id": "f516f3ff5161c0c34386c5cf81b59199"}, {"rental_uris": {"android": "https://dc.lft.to/lastmile_qr_scan", "ios": "https://dc.lft.to/lastmile_qr_scan"}, "name": "b93e0fc58f17482e113293f89239badb", "fusion_lat": 0.0, "lon": -77.0281605, "is_disabled": 0, "is_reserved": 0, "fusion_lon": 0.0, "lat": 38.91416683333333, "type": "electric_scooter", "bike_id": "b93e0fc58f17482e113293f89239badb"}, {"rental_uris": {"android": "https://dc.lft.to/lastmile_qr_scan", "ios": "https://dc.lft.to/lastmile_qr_scan"}, "name": "deb05ccce7cfb902c7a0afe2e09c0903", "fusion_lat": 0.0, "lon": -77.02999833333334, "is_disabled": 0, "is_reserved": 0, "fusion_lon": 0.0, "lat": 38.902620166666665, "type": "electric_scooter", "bike_id": "deb05ccce7cfb902c7a0afe2e09c0903"}, {"rental_uris": {"android": "https://dc.lft.to/lastmile_qr_scan", "ios": "https://dc.lft.to/lastmile_qr_scan"}, "name": "f39edc1d5d82eece47d40c24fbab49ba", "fusion_lat": 0.0, "lon": -77.02484316666667, "is_disabled": 0, "is_reserved": 0, "fusion_lon": 0.0, "lat": 38.93280383333333, "type": "electric_scooter", "bike_id": "f39edc1d5d82eece47d40c24fbab49ba"}, {"rental_uris": {"android": "https://dc.lft.to/lastmile_qr_scan", "ios": "https://dc.lft.to/lastmile_qr_scan"}, "name": "81567101cc97872359031d622d54e3b9", "fusion_lat": 0.0, "lon": -77.04169016666667, "is_disabled": 0, "is_reserved": 0, "fusion_lon": 0.0, "lat": 38.90924583333333, "type": "electric_scooter", "bike_id": "81567101cc97872359031d622d54e3b9"}, {"rental_uris": {"android": "https://dc.lft.to/lastmile_qr_scan", "ios": "https://dc.lft.to/lastmile_qr_scan"}, "name": "f3f774073271a29cb4ae67bfbd7e4371", "fusion_lat": 0.0, "lon": -77.02981366666667, "is_disabled": 0, "is_reserved": 0, "fusion_lon": 0.0, "lat": 38.9254085, "type": "electric_scooter", "bike_id": "f3f774073271a29cb4ae67bfbd7e4371"}, {"rental_uris": {"android": "https://dc.lft.to/lastmile_qr_scan", "ios": "https://dc.lft.to/lastmile_qr_scan"}, "name": "71369e822985ee3e00df83844cd0ca51", "fusion_lat": 0.0, "lon": -76.990863, "is_disabled": 0, "is_reserved": 0, "fusion_lon": 0.0, "lat": 38.862359166666664, "type": "electric_scooter", "bike_id": "71369e822985ee3e00df83844cd0ca51"}, {"rental_uris": {"android": "https://dc.lft.to/lastmile_qr_scan", "ios": "https://dc.lft.to/lastmile_qr_scan"}, "name": "d43d442e2f0ef43a32981fc539890b58", "fusion_lat": 0.0, "lon": -76.98727716666667, "is_disabled": 0, "is_reserved": 0, "fusion_lon": 0.0, "lat": 38.86711283333333, "type": "electric_scooter", "bike_id": "d43d442e2f0ef43a32981fc539890b58"}, {"rental_uris": {"android": "https://dc.lft.to/lastmile_qr_scan", "ios": "https://dc.lft.to/lastmile_qr_scan"}, "name": "9b46deab5cf93424c7541f408a74c897", "fusion_lat": 0.0, "lon": -76.9832795, "is_disabled": 0, "is_reserved": 0, "fusion_lon": 0.0, "lat": 38.96607816666667, "type": "electric_bike", "bike_id": "9b46deab5cf93424c7541f408a74c897"}, {"rental_uris": {"android": "https://dc.lft.to/lastmile_qr_scan", "ios": "https://dc.lft.to/lastmile_qr_scan"}, "name": "fb992a9376782e58170d1b197b183d57", "fusion_lat": 0.0, "lon": -77.00345783333333, "is_disabled": 0, "is_reserved": 0, "fusion_lon": 0.0, "lat": 38.893529666666666, "type": "electric_scooter", "bike_id": "fb992a9376782e58170d1b197b183d57"}, {"rental_uris": {"android": "https://dc.lft.to/lastmile_qr_scan", "ios": "https://dc.lft.to/lastmile_qr_scan"}, "name": "d6139df78f2707956b8b951134678ce0", "fusion_lat": 0.0, "lon": -77.02227, "is_disabled": 0, "is_reserved": 0, "fusion_lon": 0.0, "lat": 38.91273983333333, "type": "electric_scooter", "bike_id": "d6139df78f2707956b8b951134678ce0"}, {"rental_uris": {"android": "https://dc.lft.to/lastmile_qr_scan", "ios": "https://dc.lft.to/lastmile_qr_scan"}, "name": "80bc7f876a2e90cacaf2351737ef2b8b", "fusion_lat": 0.0, "lon": -77.03497716666666, "is_disabled": 0, "is_reserved": 0, "fusion_lon": 0.0, "lat": 38.93276383333333, "type": "electric_scooter", "bike_id": "80bc7f876a2e90cacaf2351737ef2b8b"}, {"rental_uris": {"android": "https://dc.lft.to/lastmile_qr_scan", "ios": "https://dc.lft.to/lastmile_qr_scan"}, "name": "4176b2fc9bd87feafebb9c029efd679b", "fusion_lat": 0.0, "lon": -76.98268183333333, "is_disabled": 0, "is_reserved": 0, "fusion_lon": 0.0, "lat": 38.915626, "type": "electric_scooter", "bike_id": "4176b2fc9bd87feafebb9c029efd679b"}, {"rental_uris": {"android": "https://dc.lft.to/lastmile_qr_scan", "ios": "https://dc.lft.to/lastmile_qr_scan"}, "name": "6cdf29debcbe67c65fb8becd7e79cebf", "fusion_lat": 0.0, "lon": -77.02590216666667, "is_disabled": 0, "is_reserved": 0, "fusion_lon": 0.0, "lat": 38.912781833333334, "type": "electric_scooter", "bike_id": "6cdf29debcbe67c65fb8becd7e79cebf"}, {"rental_uris": {"android": "https://dc.lft.to/lastmile_qr_scan", "ios": "https://dc.lft.to/lastmile_qr_scan"}, "name": "48430dea8dbe9c926a893419399755d0", "fusion_lat": 0.0, "lon": -77.10178766666667, "is_disabled": 0, "is_reserved": 0, "fusion_lon": 0.0, "lat": 38.91810066666667, "type": "electric_bike", "bike_id": "48430dea8dbe9c926a893419399755d0"}, {"rental_uris": {"android": "https://dc.lft.to/lastmile_qr_scan", "ios": "https://dc.lft.to/lastmile_qr_scan"}, "name": "446de45484c9ba66910512f2f1a7ad8f", "fusion_lat": 0.0, "lon": -77.021564, "is_disabled": 0, "is_reserved": 0, "fusion_lon": 0.0, "lat": 38.92601633333334, "type": "electric_scooter", "bike_id": "446de45484c9ba66910512f2f1a7ad8f"}, {"rental_uris": {"android": "https://dc.lft.to/lastmile_qr_scan", "ios": "https://dc.lft.to/lastmile_qr_scan"}, "name": "2d6749c5c7c99c8e5bd765921e6b4bea", "fusion_lat": 0.0, "lon": -76.9812145, "is_disabled": 0, "is_reserved": 0, "fusion_lon": 0.0, "lat": 38.896719, "type": "electric_bike", "bike_id": "2d6749c5c7c99c8e5bd765921e6b4bea"}, {"rental_uris": {"android": "https://dc.lft.to/lastmile_qr_scan", "ios": "https://dc.lft.to/lastmile_qr_scan"}, "name": "6a020ce4bdad23cf1ed3596c77a91aa1", "fusion_lat": 0.0, "lon": -77.06816733333334, "is_disabled": 0, "is_reserved": 0, "fusion_lon": 0.0, "lat": 38.944735333333334, "type": "electric_scooter", "bike_id": "6a020ce4bdad23cf1ed3596c77a91aa1"}, {"rental_uris": {"android": "https://dc.lft.to/lastmile_qr_scan", "ios": "https://dc.lft.to/lastmile_qr_scan"}, "name": "6ee924d2d1956127c0c59fada2ff169e", "fusion_lat": 0.0, "lon": -77.0522945, "is_disabled": 0, "is_reserved": 0, "fusion_lon": 0.0, "lat": 38.92468433333333, "type": "electric_scooter", "bike_id": "6ee924d2d1956127c0c59fada2ff169e"}, {"rental_uris": {"android": "https://dc.lft.to/lastmile_qr_scan", "ios": "https://dc.lft.to/lastmile_qr_scan"}, "name": "290c873f8f9c411302cf654594c87798", "fusion_lat": 0.0, "lon": -77.02796283333333, "is_disabled": 0, "is_reserved": 0, "fusion_lon": 0.0, "lat": 38.93082966666667, "type": "electric_scooter", "bike_id": "290c873f8f9c411302cf654594c87798"}, {"rental_uris": {"android": "https://dc.lft.to/lastmile_qr_scan", "ios": "https://dc.lft.to/lastmile_qr_scan"}, "name": "ead86d6f6f5263e40c628055b61e9cc0", "fusion_lat": 0.0, "lon": -77.0398655, "is_disabled": 0, "is_reserved": 0, "fusion_lon": 0.0, "lat": 38.90588916666667, "type": "electric_scooter", "bike_id": "ead86d6f6f5263e40c628055b61e9cc0"}, {"rental_uris": {"android": "https://dc.lft.to/lastmile_qr_scan", "ios": "https://dc.lft.to/lastmile_qr_scan"}, "name": "1c01dfb306b749909680d8d0e9db4f8a", "fusion_lat": 0.0, "lon": -76.93727533333333, "is_disabled": 0, "is_reserved": 0, "fusion_lon": 0.0, "lat": 38.891032333333335, "type": "electric_scooter", "bike_id": "1c01dfb306b749909680d8d0e9db4f8a"}, {"rental_uris": {"android": "https://dc.lft.to/lastmile_qr_scan", "ios": "https://dc.lft.to/lastmile_qr_scan"}, "name": "6f4dc04d3d3aefd09a1cbc8ff4619479", "fusion_lat": 0.0, "lon": -77.11226816666667, "is_disabled": 0, "is_reserved": 0, "fusion_lon": 0.0, "lat": 38.81221883333333, "type": "electric_bike", "bike_id": "6f4dc04d3d3aefd09a1cbc8ff4619479"}, {"rental_uris": {"android": "https://dc.lft.to/lastmile_qr_scan", "ios": "https://dc.lft.to/lastmile_qr_scan"}, "name": "adef280071c80966287bfd6da7f9b06d", "fusion_lat": 0.0, "lon": -76.99610583333333, "is_disabled": 0, "is_reserved": 0, "fusion_lon": 0.0, "lat": 38.886156, "type": "electric_scooter", "bike_id": "adef280071c80966287bfd6da7f9b06d"}, {"rental_uris": {"android": "https://dc.lft.to/lastmile_qr_scan", "ios": "https://dc.lft.to/lastmile_qr_scan"}, "name": "aab599a0d2c1748367db377e72862488", "fusion_lat": 0.0, "lon": -77.182953, "is_disabled": 0, "is_reserved": 0, "fusion_lon": 0.0, "lat": 38.883424833333336, "type": "electric_bike", "bike_id": "aab599a0d2c1748367db377e72862488"}, {"rental_uris": {"android": "https://dc.lft.to/lastmile_qr_scan", "ios": "https://dc.lft.to/lastmile_qr_scan"}, "name": "ee822a66c2babd1610469010f914fe88", "fusion_lat": 0.0, "lon": -77.03279683333334, "is_disabled": 0, "is_reserved": 0, "fusion_lon": 0.0, "lat": 38.932540333333336, "type": "electric_scooter", "bike_id": "ee822a66c2babd1610469010f914fe88"}, {"rental_uris": {"android": "https://dc.lft.to/lastmile_qr_scan", "ios": "https://dc.lft.to/lastmile_qr_scan"}, "name": "3cad7d874aec978f52f6b95104f24257", "fusion_lat": 0.0, "lon": -76.99478683333334, "is_disabled": 0, "is_reserved": 0, "fusion_lon": 0.0, "lat": 38.86234416666667, "type": "electric_scooter", "bike_id": "3cad7d874aec978f52f6b95104f24257"}, {"rental_uris": {"android": "https://dc.lft.to/lastmile_qr_scan", "ios": "https://dc.lft.to/lastmile_qr_scan"}, "name": "86fe790f1864597f9b866884e885c852", "fusion_lat": 0.0, "lon": -77.02466383333334, "is_disabled": 0, "is_reserved": 0, "fusion_lon": 0.0, "lat": 38.9390775, "type": "electric_scooter", "bike_id": "86fe790f1864597f9b866884e885c852"}, {"rental_uris": {"android": "https://dc.lft.to/lastmile_qr_scan", "ios": "https://dc.lft.to/lastmile_qr_scan"}, "name": "b3f9f64d014b2f94a46cc1e9872a14b0", "fusion_lat": 0.0, "lon": -76.99019816666667, "is_disabled": 0, "is_reserved": 0, "fusion_lon": 0.0, "lat": 38.858665, "type": "electric_scooter", "bike_id": "b3f9f64d014b2f94a46cc1e9872a14b0"}, {"rental_uris": {"android": "https://dc.lft.to/lastmile_qr_scan", "ios": "https://dc.lft.to/lastmile_qr_scan"}, "name": "716d0fa366f1d3c9ad96c42a26467caf", "fusion_lat": 0.0, "lon": -77.06160033333333, "is_disabled": 0, "is_reserved": 0, "fusion_lon": 0.0, "lat": 38.90528616666667, "type": "electric_scooter", "bike_id": "716d0fa366f1d3c9ad96c42a26467caf"}, {"rental_uris": {"android": "https://dc.lft.to/lastmile_qr_scan", "ios": "https://dc.lft.to/lastmile_qr_scan"}, "name": "94e80a154e2c4ff52a8fc776787d5954", "fusion_lat": 0.0, "lon": -77.03141866666667, "is_disabled": 0, "is_reserved": 0, "fusion_lon": 0.0, "lat": 38.89758783333333, "type": "electric_scooter", "bike_id": "94e80a154e2c4ff52a8fc776787d5954"}, {"rental_uris": {"android": "https://dc.lft.to/lastmile_qr_scan", "ios": "https://dc.lft.to/lastmile_qr_scan"}, "name": "c6d4f59c4a517082540a307ec06ca23c", "fusion_lat": 0.0, "lon": -77.04870783333334, "is_disabled": 0, "is_reserved": 0, "fusion_lon": 0.0, "lat": 38.892261500000004, "type": "electric_scooter", "bike_id": "c6d4f59c4a517082540a307ec06ca23c"}, {"rental_uris": {"android": "https://dc.lft.to/lastmile_qr_scan", "ios": "https://dc.lft.to/lastmile_qr_scan"}, "name": "266ef00e116aac307c8a81358961542a", "fusion_lat": 0.0, "lon": -77.0122625, "is_disabled": 0, "is_reserved": 0, "fusion_lon": 0.0, "lat": 38.893402, "type": "electric_scooter", "bike_id": "266ef00e116aac307c8a81358961542a"}, {"rental_uris": {"android": "https://dc.lft.to/lastmile_qr_scan", "ios": "https://dc.lft.to/lastmile_qr_scan"}, "name": "3928154c0ef6e28c6eaaa2acf12ae32b", "fusion_lat": 0.0, "lon": -77.0170465, "is_disabled": 0, "is_reserved": 0, "fusion_lon": 0.0, "lat": 38.907289166666665, "type": "electric_scooter", "bike_id": "3928154c0ef6e28c6eaaa2acf12ae32b"}, {"rental_uris": {"android": "https://dc.lft.to/lastmile_qr_scan", "ios": "https://dc.lft.to/lastmile_qr_scan"}, "name": "d025f9c9b88ac32c46602ae662e99bb2", "fusion_lat": 0.0, "lon": -77.02778833333333, "is_disabled": 0, "is_reserved": 0, "fusion_lon": 0.0, "lat": 38.89221783333333, "type": "electric_scooter", "bike_id": "d025f9c9b88ac32c46602ae662e99bb2"}, {"rental_uris": {"android": "https://dc.lft.to/lastmile_qr_scan", "ios": "https://dc.lft.to/lastmile_qr_scan"}, "name": "0780b3ed8f8e8a1bc5571274e0edb6c8", "fusion_lat": 0.0, "lon": -76.965542, "is_disabled": 0, "is_reserved": 0, "fusion_lon": 0.0, "lat": 38.918429, "type": "electric_scooter", "bike_id": "0780b3ed8f8e8a1bc5571274e0edb6c8"}, {"rental_uris": {"android": "https://dc.lft.to/lastmile_qr_scan", "ios": "https://dc.lft.to/lastmile_qr_scan"}, "name": "cf10c2c41deef38f8dba91d7f61e1c51", "fusion_lat": 0.0, "lon": -76.937456, "is_disabled": 0, "is_reserved": 0, "fusion_lon": 0.0, "lat": 38.890164, "type": "electric_scooter", "bike_id": "cf10c2c41deef38f8dba91d7f61e1c51"}, {"rental_uris": {"android": "https://dc.lft.to/lastmile_qr_scan", "ios": "https://dc.lft.to/lastmile_qr_scan"}, "name": "54d6f62cb7f71e1705f62a4a3bed62d3", "fusion_lat": 0.0, "lon": -77.03469716666666, "is_disabled": 0, "is_reserved": 0, "fusion_lon": 0.0, "lat": 38.93531683333333, "type": "electric_scooter", "bike_id": "54d6f62cb7f71e1705f62a4a3bed62d3"}, {"rental_uris": {"android": "https://dc.lft.to/lastmile_qr_scan", "ios": "https://dc.lft.to/lastmile_qr_scan"}, "name": "a64c3731ef0f43952c6ae0b13ca9ab14", "fusion_lat": 0.0, "lon": -77.06105016666666, "is_disabled": 0, "is_reserved": 0, "fusion_lon": 0.0, "lat": 38.94319266666667, "type": "electric_scooter", "bike_id": "a64c3731ef0f43952c6ae0b13ca9ab14"}, {"rental_uris": {"android": "https://dc.lft.to/lastmile_qr_scan", "ios": "https://dc.lft.to/lastmile_qr_scan"}, "name": "543de90cdcb33196c5c72b45a762e8ac", "fusion_lat": 0.0, "lon": -77.03403466666667, "is_disabled": 0, "is_reserved": 0, "fusion_lon": 0.0, "lat": 38.921564833333335, "type": "electric_scooter", "bike_id": "543de90cdcb33196c5c72b45a762e8ac"}, {"rental_uris": {"android": "https://dc.lft.to/lastmile_qr_scan", "ios": "https://dc.lft.to/lastmile_qr_scan"}, "name": "977c1bdca41e43a57c6204a5f737c008", "fusion_lat": 0.0, "lon": -77.01797883333333, "is_disabled": 0, "is_reserved": 0, "fusion_lon": 0.0, "lat": 38.989958, "type": "electric_bike", "bike_id": "977c1bdca41e43a57c6204a5f737c008"}, {"rental_uris": {"android": "https://dc.lft.to/lastmile_qr_scan", "ios": "https://dc.lft.to/lastmile_qr_scan"}, "name": "e4df54f59cbf349c75769768b7a06570", "fusion_lat": 0.0, "lon": -77.02008183333334, "is_disabled": 0, "is_reserved": 0, "fusion_lon": 0.0, "lat": 38.911274166666665, "type": "electric_scooter", "bike_id": "e4df54f59cbf349c75769768b7a06570"}, {"rental_uris": {"android": "https://dc.lft.to/lastmile_qr_scan", "ios": "https://dc.lft.to/lastmile_qr_scan"}, "name": "00957ea81a3dfdd3cc7ad5868c416f86", "fusion_lat": 0.0, "lon": -76.99736783333333, "is_disabled": 0, "is_reserved": 0, "fusion_lon": 0.0, "lat": 38.92043233333333, "type": "electric_scooter", "bike_id": "00957ea81a3dfdd3cc7ad5868c416f86"}, {"rental_uris": {"android": "https://dc.lft.to/lastmile_qr_scan", "ios": "https://dc.lft.to/lastmile_qr_scan"}, "name": "ac4ef2744812ceaca81d24fc0679f359", "fusion_lat": 0.0, "lon": -76.99491133333333, "is_disabled": 0, "is_reserved": 0, "fusion_lon": 0.0, "lat": 38.89987416666666, "type": "electric_scooter", "bike_id": "ac4ef2744812ceaca81d24fc0679f359"}, {"rental_uris": {"android": "https://dc.lft.to/lastmile_qr_scan", "ios": "https://dc.lft.to/lastmile_qr_scan"}, "name": "5160520c7f1ad29051d278aacea80b73", "fusion_lat": 0.0, "lon": -77.02696833333333, "is_disabled": 0, "is_reserved": 0, "fusion_lon": 0.0, "lat": 38.908496666666665, "type": "electric_scooter", "bike_id": "5160520c7f1ad29051d278aacea80b73"}, {"rental_uris": {"android": "https://dc.lft.to/lastmile_qr_scan", "ios": "https://dc.lft.to/lastmile_qr_scan"}, "name": "2c294a06528adabbdaf0e71fb8abad8c", "fusion_lat": 0.0, "lon": -77.040608, "is_disabled": 0, "is_reserved": 0, "fusion_lon": 0.0, "lat": 38.901644166666664, "type": "electric_scooter", "bike_id": "2c294a06528adabbdaf0e71fb8abad8c"}, {"rental_uris": {"android": "https://dc.lft.to/lastmile_qr_scan", "ios": "https://dc.lft.to/lastmile_qr_scan"}, "name": "caa170c425775256c4c1197c92d95522", "fusion_lat": 0.0, "lon": -77.05301783333333, "is_disabled": 0, "is_reserved": 0, "fusion_lon": 0.0, "lat": 38.916979166666664, "type": "electric_scooter", "bike_id": "caa170c425775256c4c1197c92d95522"}, {"rental_uris": {"android": "https://dc.lft.to/lastmile_qr_scan", "ios": "https://dc.lft.to/lastmile_qr_scan"}, "name": "a3f5a7e43f0e53c16b138f0f57541de9", "fusion_lat": 0.0, "lon": -77.03635383333334, "is_disabled": 0, "is_reserved": 0, "fusion_lon": 0.0, "lat": 38.93169616666667, "type": "electric_scooter", "bike_id": "a3f5a7e43f0e53c16b138f0f57541de9"}, {"rental_uris": {"android": "https://dc.lft.to/lastmile_qr_scan", "ios": "https://dc.lft.to/lastmile_qr_scan"}, "name": "c73ffb154be091fa79fe4ef60f89509e", "fusion_lat": 0.0, "lon": -77.02506933333333, "is_disabled": 0, "is_reserved": 0, "fusion_lon": 0.0, "lat": 38.9341235, "type": "electric_bike", "bike_id": "c73ffb154be091fa79fe4ef60f89509e"}, {"rental_uris": {"android": "https://dc.lft.to/lastmile_qr_scan", "ios": "https://dc.lft.to/lastmile_qr_scan"}, "name": "970a369c7f052ea415342daa43b114d1", "fusion_lat": 0.0, "lon": -77.02492883333333, "is_disabled": 0, "is_reserved": 0, "fusion_lon": 0.0, "lat": 38.898371, "type": "electric_bike", "bike_id": "970a369c7f052ea415342daa43b114d1"}, {"rental_uris": {"android": "https://dc.lft.to/lastmile_qr_scan", "ios": "https://dc.lft.to/lastmile_qr_scan"}, "name": "2b6ff18e0ad2003e58fa37b5e0989f6b", "fusion_lat": 0.0, "lon": -77.05986116666666, "is_disabled": 0, "is_reserved": 0, "fusion_lon": 0.0, "lat": 38.9119415, "type": "electric_scooter", "bike_id": "2b6ff18e0ad2003e58fa37b5e0989f6b"}, {"rental_uris": {"android": "https://dc.lft.to/lastmile_qr_scan", "ios": "https://dc.lft.to/lastmile_qr_scan"}, "name": "b11aea1c6a0bd6df6bf8edf26eb18099", "fusion_lat": 0.0, "lon": -76.94778516666666, "is_disabled": 0, "is_reserved": 0, "fusion_lon": 0.0, "lat": 38.89678416666667, "type": "electric_scooter", "bike_id": "b11aea1c6a0bd6df6bf8edf26eb18099"}, {"rental_uris": {"android": "https://dc.lft.to/lastmile_qr_scan", "ios": "https://dc.lft.to/lastmile_qr_scan"}, "name": "4eebec0b3493f7d88a57e1e4b05bdeae", "fusion_lat": 0.0, "lon": -77.00301016666667, "is_disabled": 0, "is_reserved": 0, "fusion_lon": 0.0, "lat": 38.892300166666665, "type": "electric_scooter", "bike_id": "4eebec0b3493f7d88a57e1e4b05bdeae"}, {"rental_uris": {"android": "https://dc.lft.to/lastmile_qr_scan", "ios": "https://dc.lft.to/lastmile_qr_scan"}, "name": "9d83b577e9c7ca08716b9ed42a28cb65", "fusion_lat": 0.0, "lon": -77.0364555, "is_disabled": 0, "is_reserved": 0, "fusion_lon": 0.0, "lat": 38.91617566666667, "type": "electric_scooter", "bike_id": "9d83b577e9c7ca08716b9ed42a28cb65"}, {"rental_uris": {"android": "https://dc.lft.to/lastmile_qr_scan", "ios": "https://dc.lft.to/lastmile_qr_scan"}, "name": "e472e2abc2e75e80641b0ddaf5f1fd18", "fusion_lat": 0.0, "lon": -77.00210816666667, "is_disabled": 0, "is_reserved": 0, "fusion_lon": 0.0, "lat": 38.894944, "type": "electric_scooter", "bike_id": "e472e2abc2e75e80641b0ddaf5f1fd18"}, {"rental_uris": {"android": "https://dc.lft.to/lastmile_qr_scan", "ios": "https://dc.lft.to/lastmile_qr_scan"}, "name": "a382e0ec6a652ba7bd751c1e0f89b592", "fusion_lat": 0.0, "lon": -77.03190283333333, "is_disabled": 0, "is_reserved": 0, "fusion_lon": 0.0, "lat": 38.90778866666667, "type": "electric_scooter", "bike_id": "a382e0ec6a652ba7bd751c1e0f89b592"}, {"rental_uris": {"android": "https://dc.lft.to/lastmile_qr_scan", "ios": "https://dc.lft.to/lastmile_qr_scan"}, "name": "03f7539d85c7fd0fe26906d7620dfbdf", "fusion_lat": 0.0, "lon": -76.9982205, "is_disabled": 0, "is_reserved": 0, "fusion_lon": 0.0, "lat": 38.908662, "type": "electric_scooter", "bike_id": "03f7539d85c7fd0fe26906d7620dfbdf"}, {"rental_uris": {"android": "https://dc.lft.to/lastmile_qr_scan", "ios": "https://dc.lft.to/lastmile_qr_scan"}, "name": "b59b3e82c52ecc0f1944c120655461c9", "fusion_lat": 0.0, "lon": -77.0121015, "is_disabled": 0, "is_reserved": 0, "fusion_lon": 0.0, "lat": 38.900251, "type": "electric_scooter", "bike_id": "b59b3e82c52ecc0f1944c120655461c9"}, {"rental_uris": {"android": "https://dc.lft.to/lastmile_qr_scan", "ios": "https://dc.lft.to/lastmile_qr_scan"}, "name": "08e0dc29bae77f293da9465e3ba6c657", "fusion_lat": 0.0, "lon": -77.03827166666666, "is_disabled": 0, "is_reserved": 0, "fusion_lon": 0.0, "lat": 38.920707, "type": "electric_scooter", "bike_id": "08e0dc29bae77f293da9465e3ba6c657"}, {"rental_uris": {"android": "https://dc.lft.to/lastmile_qr_scan", "ios": "https://dc.lft.to/lastmile_qr_scan"}, "name": "e08472dec5543179068f609e126e1135", "fusion_lat": 0.0, "lon": -77.03638416666666, "is_disabled": 0, "is_reserved": 0, "fusion_lon": 0.0, "lat": 38.91615083333333, "type": "electric_scooter", "bike_id": "e08472dec5543179068f609e126e1135"}, {"rental_uris": {"android": "https://dc.lft.to/lastmile_qr_scan", "ios": "https://dc.lft.to/lastmile_qr_scan"}, "name": "1825eb9eb5fb7dfcff90af618235ae60", "fusion_lat": 0.0, "lon": -77.00875916666666, "is_disabled": 0, "is_reserved": 0, "fusion_lon": 0.0, "lat": 38.87334633333333, "type": "electric_scooter", "bike_id": "1825eb9eb5fb7dfcff90af618235ae60"}, {"rental_uris": {"android": "https://dc.lft.to/lastmile_qr_scan", "ios": "https://dc.lft.to/lastmile_qr_scan"}, "name": "2aea6097658de4372cc98908182f726e", "fusion_lat": 0.0, "lon": -77.03431883333333, "is_disabled": 0, "is_reserved": 0, "fusion_lon": 0.0, "lat": 38.904333, "type": "electric_scooter", "bike_id": "2aea6097658de4372cc98908182f726e"}, {"rental_uris": {"android": "https://dc.lft.to/lastmile_qr_scan", "ios": "https://dc.lft.to/lastmile_qr_scan"}, "name": "76230f6c531c4c5376e32a471d89600f", "fusion_lat": 0.0, "lon": -77.01393783333333, "is_disabled": 0, "is_reserved": 0, "fusion_lon": 0.0, "lat": 38.880287333333335, "type": "electric_scooter", "bike_id": "76230f6c531c4c5376e32a471d89600f"}, {"rental_uris": {"android": "https://dc.lft.to/lastmile_qr_scan", "ios": "https://dc.lft.to/lastmile_qr_scan"}, "name": "0b666a9f3e5540d5585c0adb68442155", "fusion_lat": 0.0, "lon": -76.97909133333333, "is_disabled": 0, "is_reserved": 0, "fusion_lon": 0.0, "lat": 38.8943635, "type": "electric_scooter", "bike_id": "0b666a9f3e5540d5585c0adb68442155"}, {"rental_uris": {"android": "https://dc.lft.to/lastmile_qr_scan", "ios": "https://dc.lft.to/lastmile_qr_scan"}, "name": "78c29d5358f4e3db77943122e5a1a18c", "fusion_lat": 0.0, "lon": -77.0060955, "is_disabled": 0, "is_reserved": 0, "fusion_lon": 0.0, "lat": 38.871802833333334, "type": "electric_scooter", "bike_id": "78c29d5358f4e3db77943122e5a1a18c"}, {"rental_uris": {"android": "https://dc.lft.to/lastmile_qr_scan", "ios": "https://dc.lft.to/lastmile_qr_scan"}, "name": "99c1c8205e4979e39d76762d17465446", "fusion_lat": 0.0, "lon": -77.03830666666667, "is_disabled": 0, "is_reserved": 0, "fusion_lon": 0.0, "lat": 38.90388, "type": "electric_scooter", "bike_id": "99c1c8205e4979e39d76762d17465446"}, {"rental_uris": {"android": "https://dc.lft.to/lastmile_qr_scan", "ios": "https://dc.lft.to/lastmile_qr_scan"}, "name": "c658855f2e5eed4613739355b1f1c863", "fusion_lat": 0.0, "lon": -77.005353, "is_disabled": 0, "is_reserved": 0, "fusion_lon": 0.0, "lat": 38.879348666666665, "type": "electric_scooter", "bike_id": "c658855f2e5eed4613739355b1f1c863"}, {"rental_uris": {"android": "https://dc.lft.to/lastmile_qr_scan", "ios": "https://dc.lft.to/lastmile_qr_scan"}, "name": "5bf14d79a5f818d99ec4049fde64cd54", "fusion_lat": 0.0, "lon": -77.10683533333334, "is_disabled": 0, "is_reserved": 0, "fusion_lon": 0.0, "lat": 38.9358005, "type": "electric_bike", "bike_id": "5bf14d79a5f818d99ec4049fde64cd54"}, {"rental_uris": {"android": "https://dc.lft.to/lastmile_qr_scan", "ios": "https://dc.lft.to/lastmile_qr_scan"}, "name": "a0f4c917c2711f38bb94cba331f0db44", "fusion_lat": 0.0, "lon": -77.03987066666667, "is_disabled": 0, "is_reserved": 0, "fusion_lon": 0.0, "lat": 38.892222, "type": "electric_scooter", "bike_id": "a0f4c917c2711f38bb94cba331f0db44"}, {"rental_uris": {"android": "https://dc.lft.to/lastmile_qr_scan", "ios": "https://dc.lft.to/lastmile_qr_scan"}, "name": "364883bd411a1a9c098448cf5063e7ee", "fusion_lat": 0.0, "lon": -77.036115, "is_disabled": 0, "is_reserved": 0, "fusion_lon": 0.0, "lat": 38.92336183333333, "type": "electric_scooter", "bike_id": "364883bd411a1a9c098448cf5063e7ee"}, {"rental_uris": {"android": "https://dc.lft.to/lastmile_qr_scan", "ios": "https://dc.lft.to/lastmile_qr_scan"}, "name": "68e694c5cc295ef8617f46784f47f612", "fusion_lat": 0.0, "lon": -77.0096845, "is_disabled": 0, "is_reserved": 0, "fusion_lon": 0.0, "lat": 38.907850833333335, "type": "electric_scooter", "bike_id": "68e694c5cc295ef8617f46784f47f612"}, {"rental_uris": {"android": "https://dc.lft.to/lastmile_qr_scan", "ios": "https://dc.lft.to/lastmile_qr_scan"}, "name": "f1755c684204e84d4b2aa31a03e30ec0", "fusion_lat": 0.0, "lon": -76.99756366666666, "is_disabled": 0, "is_reserved": 0, "fusion_lon": 0.0, "lat": 38.9005045, "type": "electric_scooter", "bike_id": "f1755c684204e84d4b2aa31a03e30ec0"}, {"rental_uris": {"android": "https://dc.lft.to/lastmile_qr_scan", "ios": "https://dc.lft.to/lastmile_qr_scan"}, "name": "2918c9b592921f5dda979a23b3392758", "fusion_lat": 0.0, "lon": -76.99916, "is_disabled": 0, "is_reserved": 0, "fusion_lon": 0.0, "lat": 38.90742916666667, "type": "electric_scooter", "bike_id": "2918c9b592921f5dda979a23b3392758"}, {"rental_uris": {"android": "https://dc.lft.to/lastmile_qr_scan", "ios": "https://dc.lft.to/lastmile_qr_scan"}, "name": "c6162671574cf2e7f6689c12f38e3a47", "fusion_lat": 0.0, "lon": -77.022227, "is_disabled": 0, "is_reserved": 0, "fusion_lon": 0.0, "lat": 38.892208833333335, "type": "electric_scooter", "bike_id": "c6162671574cf2e7f6689c12f38e3a47"}, {"rental_uris": {"android": "https://dc.lft.to/lastmile_qr_scan", "ios": "https://dc.lft.to/lastmile_qr_scan"}, "name": "4ce63438412b01384b1f02306059354a", "fusion_lat": 0.0, "lon": -77.03101816666667, "is_disabled": 0, "is_reserved": 0, "fusion_lon": 0.0, "lat": 38.925729, "type": "electric_scooter", "bike_id": "4ce63438412b01384b1f02306059354a"}, {"rental_uris": {"android": "https://dc.lft.to/lastmile_qr_scan", "ios": "https://dc.lft.to/lastmile_qr_scan"}, "name": "ce5fa9032374ecd73040a9965c482569", "fusion_lat": 0.0, "lon": -76.98769533333333, "is_disabled": 0, "is_reserved": 0, "fusion_lon": 0.0, "lat": 38.883218, "type": "electric_scooter", "bike_id": "ce5fa9032374ecd73040a9965c482569"}, {"rental_uris": {"android": "https://dc.lft.to/lastmile_qr_scan", "ios": "https://dc.lft.to/lastmile_qr_scan"}, "name": "2fe0f3cd5e5679fb6efb849ae9630e15", "fusion_lat": 0.0, "lon": -77.02573066666666, "is_disabled": 0, "is_reserved": 0, "fusion_lon": 0.0, "lat": 38.92510633333333, "type": "electric_scooter", "bike_id": "2fe0f3cd5e5679fb6efb849ae9630e15"}, {"rental_uris": {"android": "https://dc.lft.to/lastmile_qr_scan", "ios": "https://dc.lft.to/lastmile_qr_scan"}, "name": "e745a9e91ebcd5d7ae9c23514f75d008", "fusion_lat": 0.0, "lon": -76.94618833333334, "is_disabled": 0, "is_reserved": 0, "fusion_lon": 0.0, "lat": 38.832355, "type": "electric_bike", "bike_id": "e745a9e91ebcd5d7ae9c23514f75d008"}, {"rental_uris": {"android": "https://dc.lft.to/lastmile_qr_scan", "ios": "https://dc.lft.to/lastmile_qr_scan"}, "name": "77791c32860a4cc46ea13c3a4c2106e0", "fusion_lat": 0.0, "lon": -77.0726405, "is_disabled": 0, "is_reserved": 0, "fusion_lon": 0.0, "lat": 38.91297933333333, "type": "electric_scooter", "bike_id": "77791c32860a4cc46ea13c3a4c2106e0"}, {"rental_uris": {"android": "https://dc.lft.to/lastmile_qr_scan", "ios": "https://dc.lft.to/lastmile_qr_scan"}, "name": "232afcca9ce5421704af4bac6290dad4", "fusion_lat": 0.0, "lon": -77.06521666666667, "is_disabled": 0, "is_reserved": 0, "fusion_lon": 0.0, "lat": 38.90529433333333, "type": "electric_scooter", "bike_id": "232afcca9ce5421704af4bac6290dad4"}, {"rental_uris": {"android": "https://dc.lft.to/lastmile_qr_scan", "ios": "https://dc.lft.to/lastmile_qr_scan"}, "name": "85a82b63eb59cc381f1f625d5bf6c430", "fusion_lat": 0.0, "lon": -77.04678033333333, "is_disabled": 0, "is_reserved": 0, "fusion_lon": 0.0, "lat": 38.907243, "type": "electric_scooter", "bike_id": "85a82b63eb59cc381f1f625d5bf6c430"}, {"rental_uris": {"android": "https://dc.lft.to/lastmile_qr_scan", "ios": "https://dc.lft.to/lastmile_qr_scan"}, "name": "3f029c9044de5b684abaddaea7bf26f6", "fusion_lat": 0.0, "lon": -77.0321965, "is_disabled": 0, "is_reserved": 0, "fusion_lon": 0.0, "lat": 38.919272, "type": "electric_scooter", "bike_id": "3f029c9044de5b684abaddaea7bf26f6"}, {"rental_uris": {"android": "https://dc.lft.to/lastmile_qr_scan", "ios": "https://dc.lft.to/lastmile_qr_scan"}, "name": "8e97fc465fa6b5c434184dafc2c836fd", "fusion_lat": 0.0, "lon": -77.024863, "is_disabled": 0, "is_reserved": 0, "fusion_lon": 0.0, "lat": 38.91956166666667, "type": "electric_scooter", "bike_id": "8e97fc465fa6b5c434184dafc2c836fd"}, {"rental_uris": {"android": "https://dc.lft.to/lastmile_qr_scan", "ios": "https://dc.lft.to/lastmile_qr_scan"}, "name": "0afb99953a78998e0d90e9481e555636", "fusion_lat": 0.0, "lon": -77.03789166666667, "is_disabled": 0, "is_reserved": 0, "fusion_lon": 0.0, "lat": 38.93322083333334, "type": "electric_scooter", "bike_id": "0afb99953a78998e0d90e9481e555636"}, {"rental_uris": {"android": "https://dc.lft.to/lastmile_qr_scan", "ios": "https://dc.lft.to/lastmile_qr_scan"}, "name": "9e0ebe82dab233f55dbb6b5563934905", "fusion_lat": 0.0, "lon": -77.00029716666667, "is_disabled": 0, "is_reserved": 0, "fusion_lon": 0.0, "lat": 38.874018166666666, "type": "electric_scooter", "bike_id": "9e0ebe82dab233f55dbb6b5563934905"}, {"rental_uris": {"android": "https://dc.lft.to/lastmile_qr_scan", "ios": "https://dc.lft.to/lastmile_qr_scan"}, "name": "edf82a88640b3ca96d9d3498645004fa", "fusion_lat": 0.0, "lon": -76.99029766666666, "is_disabled": 0, "is_reserved": 0, "fusion_lon": 0.0, "lat": 38.928691666666666, "type": "electric_scooter", "bike_id": "edf82a88640b3ca96d9d3498645004fa"}, {"rental_uris": {"android": "https://dc.lft.to/lastmile_qr_scan", "ios": "https://dc.lft.to/lastmile_qr_scan"}, "name": "6fa2d89815db8cad899c7bf6a10ec55f", "fusion_lat": 0.0, "lon": -77.04331566666667, "is_disabled": 0, "is_reserved": 0, "fusion_lon": 0.0, "lat": 38.90840683333333, "type": "electric_scooter", "bike_id": "6fa2d89815db8cad899c7bf6a10ec55f"}, {"rental_uris": {"android": "https://dc.lft.to/lastmile_qr_scan", "ios": "https://dc.lft.to/lastmile_qr_scan"}, "name": "b55a9e296f32e77b16d656b8ebaade09", "fusion_lat": 0.0, "lon": -76.98741, "is_disabled": 0, "is_reserved": 0, "fusion_lon": 0.0, "lat": 38.85791, "type": "electric_bike", "bike_id": "b55a9e296f32e77b16d656b8ebaade09"}, {"rental_uris": {"android": "https://dc.lft.to/lastmile_qr_scan", "ios": "https://dc.lft.to/lastmile_qr_scan"}, "name": "497d5d9ff8e0fa78862d7c830cb0751e", "fusion_lat": 0.0, "lon": -77.039571, "is_disabled": 0, "is_reserved": 0, "fusion_lon": 0.0, "lat": 38.892411333333335, "type": "electric_scooter", "bike_id": "497d5d9ff8e0fa78862d7c830cb0751e"}, {"rental_uris": {"android": "https://dc.lft.to/lastmile_qr_scan", "ios": "https://dc.lft.to/lastmile_qr_scan"}, "name": "860994eb7b8da48f353d36b3e24a2682", "fusion_lat": 0.0, "lon": -77.05048133333334, "is_disabled": 0, "is_reserved": 0, "fusion_lon": 0.0, "lat": 38.923616, "type": "electric_scooter", "bike_id": "860994eb7b8da48f353d36b3e24a2682"}, {"rental_uris": {"android": "https://dc.lft.to/lastmile_qr_scan", "ios": "https://dc.lft.to/lastmile_qr_scan"}, "name": "acf4f957a05b4a0be5793eb294999e7b", "fusion_lat": 0.0, "lon": -77.00760316666667, "is_disabled": 0, "is_reserved": 0, "fusion_lon": 0.0, "lat": 38.915542, "type": "electric_scooter", "bike_id": "acf4f957a05b4a0be5793eb294999e7b"}, {"rental_uris": {"android": "https://dc.lft.to/lastmile_qr_scan", "ios": "https://dc.lft.to/lastmile_qr_scan"}, "name": "5f86e3366bb7a36d070dc0a9087635cf", "fusion_lat": 0.0, "lon": -77.032172, "is_disabled": 0, "is_reserved": 0, "fusion_lon": 0.0, "lat": 38.9164275, "type": "electric_scooter", "bike_id": "5f86e3366bb7a36d070dc0a9087635cf"}, {"rental_uris": {"android": "https://dc.lft.to/lastmile_qr_scan", "ios": "https://dc.lft.to/lastmile_qr_scan"}, "name": "2986a67e6b4b81f5c28ecd9f1aa80364", "fusion_lat": 0.0, "lon": -77.02375366666666, "is_disabled": 0, "is_reserved": 0, "fusion_lon": 0.0, "lat": 38.90729983333333, "type": "electric_scooter", "bike_id": "2986a67e6b4b81f5c28ecd9f1aa80364"}, {"rental_uris": {"android": "https://dc.lft.to/lastmile_qr_scan", "ios": "https://dc.lft.to/lastmile_qr_scan"}, "name": "1d3f5085aa7d2f12c5f4712852114418", "fusion_lat": 0.0, "lon": -77.04170516666667, "is_disabled": 0, "is_reserved": 0, "fusion_lon": 0.0, "lat": 38.909281166666666, "type": "electric_scooter", "bike_id": "1d3f5085aa7d2f12c5f4712852114418"}, {"rental_uris": {"android": "https://dc.lft.to/lastmile_qr_scan", "ios": "https://dc.lft.to/lastmile_qr_scan"}, "name": "b6d16292ebf31e44a003469e32511001", "fusion_lat": 0.0, "lon": -77.08570416666667, "is_disabled": 0, "is_reserved": 0, "fusion_lon": 0.0, "lat": 38.874163333333335, "type": "electric_bike", "bike_id": "b6d16292ebf31e44a003469e32511001"}, {"rental_uris": {"android": "https://dc.lft.to/lastmile_qr_scan", "ios": "https://dc.lft.to/lastmile_qr_scan"}, "name": "0630f43ac688f69f29c393a3a3709145", "fusion_lat": 0.0, "lon": -77.029604, "is_disabled": 0, "is_reserved": 0, "fusion_lon": 0.0, "lat": 38.89231983333333, "type": "electric_scooter", "bike_id": "0630f43ac688f69f29c393a3a3709145"}, {"rental_uris": {"android": "https://dc.lft.to/lastmile_qr_scan", "ios": "https://dc.lft.to/lastmile_qr_scan"}, "name": "ee04e0ab99e51d394a28e5a355ff2c88", "fusion_lat": 0.0, "lon": -77.03351933333333, "is_disabled": 0, "is_reserved": 0, "fusion_lon": 0.0, "lat": 38.92238616666667, "type": "electric_scooter", "bike_id": "ee04e0ab99e51d394a28e5a355ff2c88"}, {"rental_uris": {"android": "https://dc.lft.to/lastmile_qr_scan", "ios": "https://dc.lft.to/lastmile_qr_scan"}, "name": "ff7f1889a84c162197b056b4971b7e8f", "fusion_lat": 0.0, "lon": -77.00054366666667, "is_disabled": 0, "is_reserved": 0, "fusion_lon": 0.0, "lat": 38.88996866666667, "type": "electric_scooter", "bike_id": "ff7f1889a84c162197b056b4971b7e8f"}, {"rental_uris": {"android": "https://dc.lft.to/lastmile_qr_scan", "ios": "https://dc.lft.to/lastmile_qr_scan"}, "name": "73b7f477bf49dae35a3c93a8997ea3fb", "fusion_lat": 0.0, "lon": -77.0474785, "is_disabled": 0, "is_reserved": 0, "fusion_lon": 0.0, "lat": 38.91289066666667, "type": "electric_scooter", "bike_id": "73b7f477bf49dae35a3c93a8997ea3fb"}, {"rental_uris": {"android": "https://dc.lft.to/lastmile_qr_scan", "ios": "https://dc.lft.to/lastmile_qr_scan"}, "name": "5d77db53a025c42bb8a2e353deb68497", "fusion_lat": 0.0, "lon": -77.0268875, "is_disabled": 0, "is_reserved": 0, "fusion_lon": 0.0, "lat": 38.90248866666667, "type": "electric_scooter", "bike_id": "5d77db53a025c42bb8a2e353deb68497"}, {"rental_uris": {"android": "https://dc.lft.to/lastmile_qr_scan", "ios": "https://dc.lft.to/lastmile_qr_scan"}, "name": "53e990658643a2225d8710da53163622", "fusion_lat": 0.0, "lon": -77.12627333333333, "is_disabled": 0, "is_reserved": 0, "fusion_lon": 0.0, "lat": 39.0581315, "type": "electric_bike", "bike_id": "53e990658643a2225d8710da53163622"}, {"rental_uris": {"android": "https://dc.lft.to/lastmile_qr_scan", "ios": "https://dc.lft.to/lastmile_qr_scan"}, "name": "3f96d6fbce228c9b1091da3a9a33e171", "fusion_lat": 0.0, "lon": -76.99815983333333, "is_disabled": 0, "is_reserved": 0, "fusion_lon": 0.0, "lat": 38.8443515, "type": "electric_scooter", "bike_id": "3f96d6fbce228c9b1091da3a9a33e171"}, {"rental_uris": {"android": "https://dc.lft.to/lastmile_qr_scan", "ios": "https://dc.lft.to/lastmile_qr_scan"}, "name": "c583dcf172b2022468cdf8ee0013c123", "fusion_lat": 0.0, "lon": -76.97953433333333, "is_disabled": 0, "is_reserved": 0, "fusion_lon": 0.0, "lat": 38.9524055, "type": "electric_bike", "bike_id": "c583dcf172b2022468cdf8ee0013c123"}, {"rental_uris": {"android": "https://dc.lft.to/lastmile_qr_scan", "ios": "https://dc.lft.to/lastmile_qr_scan"}, "name": "e2c62c20dfe419154c1a1430553369fd", "fusion_lat": 0.0, "lon": -77.048324, "is_disabled": 0, "is_reserved": 0, "fusion_lon": 0.0, "lat": 38.91331616666667, "type": "electric_scooter", "bike_id": "e2c62c20dfe419154c1a1430553369fd"}, {"rental_uris": {"android": "https://dc.lft.to/lastmile_qr_scan", "ios": "https://dc.lft.to/lastmile_qr_scan"}, "name": "403d8ef5c089305d266039368fb24040", "fusion_lat": 0.0, "lon": -77.03702, "is_disabled": 0, "is_reserved": 0, "fusion_lon": 0.0, "lat": 38.926465666666665, "type": "electric_scooter", "bike_id": "403d8ef5c089305d266039368fb24040"}, {"rental_uris": {"android": "https://dc.lft.to/lastmile_qr_scan", "ios": "https://dc.lft.to/lastmile_qr_scan"}, "name": "a10f7a6eb560685e3cfa7e1bfce5cb30", "fusion_lat": 0.0, "lon": -77.01204583333333, "is_disabled": 0, "is_reserved": 0, "fusion_lon": 0.0, "lat": 38.918267, "type": "electric_scooter", "bike_id": "a10f7a6eb560685e3cfa7e1bfce5cb30"}, {"rental_uris": {"android": "https://dc.lft.to/lastmile_qr_scan", "ios": "https://dc.lft.to/lastmile_qr_scan"}, "name": "1e0591d81ffdf52ffd69d6a98e09d2c3", "fusion_lat": 0.0, "lon": -77.08528866666667, "is_disabled": 0, "is_reserved": 0, "fusion_lon": 0.0, "lat": 38.85650833333333, "type": "electric_bike", "bike_id": "1e0591d81ffdf52ffd69d6a98e09d2c3"}, {"rental_uris": {"android": "https://dc.lft.to/lastmile_qr_scan", "ios": "https://dc.lft.to/lastmile_qr_scan"}, "name": "2f05c15bdb47ce5aa6bdad9985a199dd", "fusion_lat": 0.0, "lon": -77.00336916666667, "is_disabled": 0, "is_reserved": 0, "fusion_lon": 0.0, "lat": 38.89356566666667, "type": "electric_scooter", "bike_id": "2f05c15bdb47ce5aa6bdad9985a199dd"}, {"rental_uris": {"android": "https://dc.lft.to/lastmile_qr_scan", "ios": "https://dc.lft.to/lastmile_qr_scan"}, "name": "372239f7a285526da9ba5a02c217c2c6", "fusion_lat": 0.0, "lon": -77.01146983333334, "is_disabled": 0, "is_reserved": 0, "fusion_lon": 0.0, "lat": 38.903569166666664, "type": "electric_scooter", "bike_id": "372239f7a285526da9ba5a02c217c2c6"}, {"rental_uris": {"android": "https://dc.lft.to/lastmile_qr_scan", "ios": "https://dc.lft.to/lastmile_qr_scan"}, "name": "f299a45b7c1eccb3e284e53f9b9ffb77", "fusion_lat": 0.0, "lon": -77.00599316666667, "is_disabled": 0, "is_reserved": 0, "fusion_lon": 0.0, "lat": 38.87714866666666, "type": "electric_scooter", "bike_id": "f299a45b7c1eccb3e284e53f9b9ffb77"}, {"rental_uris": {"android": "https://dc.lft.to/lastmile_qr_scan", "ios": "https://dc.lft.to/lastmile_qr_scan"}, "name": "e105b33da8e058c5eeff68936370af8c", "fusion_lat": 0.0, "lon": -76.94842516666667, "is_disabled": 0, "is_reserved": 0, "fusion_lon": 0.0, "lat": 38.894861166666665, "type": "electric_scooter", "bike_id": "e105b33da8e058c5eeff68936370af8c"}, {"rental_uris": {"android": "https://dc.lft.to/lastmile_qr_scan", "ios": "https://dc.lft.to/lastmile_qr_scan"}, "name": "c237d458893d5d5d1cab09c8de8285aa", "fusion_lat": 0.0, "lon": -76.874969, "is_disabled": 0, "is_reserved": 0, "fusion_lon": 0.0, "lat": 38.99093083333333, "type": "electric_bike", "bike_id": "c237d458893d5d5d1cab09c8de8285aa"}, {"rental_uris": {"android": "https://dc.lft.to/lastmile_qr_scan", "ios": "https://dc.lft.to/lastmile_qr_scan"}, "name": "335b6e26ef332dc70df3ce44a760bac9", "fusion_lat": 0.0, "lon": -77.03847016666667, "is_disabled": 0, "is_reserved": 0, "fusion_lon": 0.0, "lat": 38.9120755, "type": "electric_scooter", "bike_id": "335b6e26ef332dc70df3ce44a760bac9"}, {"rental_uris": {"android": "https://dc.lft.to/lastmile_qr_scan", "ios": "https://dc.lft.to/lastmile_qr_scan"}, "name": "05a94b128c67f9d99c004112445ccbd0", "fusion_lat": 0.0, "lon": -77.0033645, "is_disabled": 0, "is_reserved": 0, "fusion_lon": 0.0, "lat": 38.895067833333336, "type": "electric_scooter", "bike_id": "05a94b128c67f9d99c004112445ccbd0"}, {"rental_uris": {"android": "https://dc.lft.to/lastmile_qr_scan", "ios": "https://dc.lft.to/lastmile_qr_scan"}, "name": "1373cfe0dea55dbf53765e52f5264ceb", "fusion_lat": 0.0, "lon": -77.1121975, "is_disabled": 0, "is_reserved": 0, "fusion_lon": 0.0, "lat": 38.828745833333336, "type": "electric_bike", "bike_id": "1373cfe0dea55dbf53765e52f5264ceb"}, {"rental_uris": {"android": "https://dc.lft.to/lastmile_qr_scan", "ios": "https://dc.lft.to/lastmile_qr_scan"}, "name": "bd774627a686959d2b39e10098ce2ed7", "fusion_lat": 0.0, "lon": -76.999503, "is_disabled": 0, "is_reserved": 0, "fusion_lon": 0.0, "lat": 38.90864466666667, "type": "electric_scooter", "bike_id": "bd774627a686959d2b39e10098ce2ed7"}, {"rental_uris": {"android": "https://dc.lft.to/lastmile_qr_scan", "ios": "https://dc.lft.to/lastmile_qr_scan"}, "name": "9deb3a40c4523d06d733d2cf3326e48e", "fusion_lat": 0.0, "lon": -77.03188733333333, "is_disabled": 0, "is_reserved": 0, "fusion_lon": 0.0, "lat": 38.9210255, "type": "electric_scooter", "bike_id": "9deb3a40c4523d06d733d2cf3326e48e"}, {"rental_uris": {"android": "https://dc.lft.to/lastmile_qr_scan", "ios": "https://dc.lft.to/lastmile_qr_scan"}, "name": "b37f52c86a00aabd4abb2bf1ecb6f0bc", "fusion_lat": 0.0, "lon": -77.000708, "is_disabled": 0, "is_reserved": 0, "fusion_lon": 0.0, "lat": 38.900272666666666, "type": "electric_scooter", "bike_id": "b37f52c86a00aabd4abb2bf1ecb6f0bc"}, {"rental_uris": {"android": "https://dc.lft.to/lastmile_qr_scan", "ios": "https://dc.lft.to/lastmile_qr_scan"}, "name": "513a11ae705dc5cfc82627a383b242aa", "fusion_lat": 0.0, "lon": -77.01504133333333, "is_disabled": 0, "is_reserved": 0, "fusion_lon": 0.0, "lat": 38.8993865, "type": "electric_scooter", "bike_id": "513a11ae705dc5cfc82627a383b242aa"}, {"rental_uris": {"android": "https://dc.lft.to/lastmile_qr_scan", "ios": "https://dc.lft.to/lastmile_qr_scan"}, "name": "c296a6383234b1b0b2843ed76bfa9515", "fusion_lat": 0.0, "lon": -77.02730816666667, "is_disabled": 0, "is_reserved": 0, "fusion_lon": 0.0, "lat": 38.90136366666667, "type": "electric_scooter", "bike_id": "c296a6383234b1b0b2843ed76bfa9515"}, {"rental_uris": {"android": "https://dc.lft.to/lastmile_qr_scan", "ios": "https://dc.lft.to/lastmile_qr_scan"}, "name": "a67a68a1b1047ee7ed74f852f164869a", "fusion_lat": 0.0, "lon": -76.93160283333333, "is_disabled": 0, "is_reserved": 0, "fusion_lon": 0.0, "lat": 38.89878983333333, "type": "electric_scooter", "bike_id": "a67a68a1b1047ee7ed74f852f164869a"}, {"rental_uris": {"android": "https://dc.lft.to/lastmile_qr_scan", "ios": "https://dc.lft.to/lastmile_qr_scan"}, "name": "4f6d22b08bc9472ebf24bdd03aca20f3", "fusion_lat": 0.0, "lon": -77.02529133333333, "is_disabled": 0, "is_reserved": 0, "fusion_lon": 0.0, "lat": 38.90571283333333, "type": "electric_scooter", "bike_id": "4f6d22b08bc9472ebf24bdd03aca20f3"}, {"rental_uris": {"android": "https://dc.lft.to/lastmile_qr_scan", "ios": "https://dc.lft.to/lastmile_qr_scan"}, "name": "0d634a7d2c3fcceefd618d4276011e73", "fusion_lat": 0.0, "lon": -76.98340316666666, "is_disabled": 0, "is_reserved": 0, "fusion_lon": 0.0, "lat": 38.862544666666665, "type": "electric_scooter", "bike_id": "0d634a7d2c3fcceefd618d4276011e73"}, {"rental_uris": {"android": "https://dc.lft.to/lastmile_qr_scan", "ios": "https://dc.lft.to/lastmile_qr_scan"}, "name": "a40fe13c64f3299f975de8b2958fd7a6", "fusion_lat": 0.0, "lon": -77.028717, "is_disabled": 0, "is_reserved": 0, "fusion_lon": 0.0, "lat": 38.9328, "type": "electric_scooter", "bike_id": "a40fe13c64f3299f975de8b2958fd7a6"}, {"rental_uris": {"android": "https://dc.lft.to/lastmile_qr_scan", "ios": "https://dc.lft.to/lastmile_qr_scan"}, "name": "02463248d7dd984d539473e2c2a030de", "fusion_lat": 0.0, "lon": -77.00265783333333, "is_disabled": 0, "is_reserved": 0, "fusion_lon": 0.0, "lat": 38.905901666666665, "type": "electric_scooter", "bike_id": "02463248d7dd984d539473e2c2a030de"}, {"rental_uris": {"android": "https://dc.lft.to/lastmile_qr_scan", "ios": "https://dc.lft.to/lastmile_qr_scan"}, "name": "fcd9b786a2c570982d8a8b7dd7863f87", "fusion_lat": 0.0, "lon": -77.03448866666666, "is_disabled": 0, "is_reserved": 0, "fusion_lon": 0.0, "lat": 38.917160833333334, "type": "electric_scooter", "bike_id": "fcd9b786a2c570982d8a8b7dd7863f87"}, {"rental_uris": {"android": "https://dc.lft.to/lastmile_qr_scan", "ios": "https://dc.lft.to/lastmile_qr_scan"}, "name": "fbeefeb0575d145382a9a75e0fc5e401", "fusion_lat": 0.0, "lon": -76.942863, "is_disabled": 0, "is_reserved": 0, "fusion_lon": 0.0, "lat": 38.88304133333333, "type": "electric_scooter", "bike_id": "fbeefeb0575d145382a9a75e0fc5e401"}, {"rental_uris": {"android": "https://dc.lft.to/lastmile_qr_scan", "ios": "https://dc.lft.to/lastmile_qr_scan"}, "name": "3d0cfcfbef9ccbab42876a3a6892b4ed", "fusion_lat": 0.0, "lon": -77.032943, "is_disabled": 0, "is_reserved": 0, "fusion_lon": 0.0, "lat": 38.930478, "type": "electric_scooter", "bike_id": "3d0cfcfbef9ccbab42876a3a6892b4ed"}, {"rental_uris": {"android": "https://dc.lft.to/lastmile_qr_scan", "ios": "https://dc.lft.to/lastmile_qr_scan"}, "name": "5480e399ac6aea0de9ac5de053a669d8", "fusion_lat": 0.0, "lon": -77.0779475, "is_disabled": 0, "is_reserved": 0, "fusion_lon": 0.0, "lat": 38.845181, "type": "electric_bike", "bike_id": "5480e399ac6aea0de9ac5de053a669d8"}, {"rental_uris": {"android": "https://dc.lft.to/lastmile_qr_scan", "ios": "https://dc.lft.to/lastmile_qr_scan"}, "name": "4b251e37d13f40198f2fdb8aaf488ae6", "fusion_lat": 0.0, "lon": -77.02710466666667, "is_disabled": 0, "is_reserved": 0, "fusion_lon": 0.0, "lat": 38.906709166666666, "type": "electric_scooter", "bike_id": "4b251e37d13f40198f2fdb8aaf488ae6"}, {"rental_uris": {"android": "https://dc.lft.to/lastmile_qr_scan", "ios": "https://dc.lft.to/lastmile_qr_scan"}, "name": "ea673172d1a64b220c8cd4f4d9937e22", "fusion_lat": 0.0, "lon": -76.99134066666667, "is_disabled": 0, "is_reserved": 0, "fusion_lon": 0.0, "lat": 38.93358966666667, "type": "electric_scooter", "bike_id": "ea673172d1a64b220c8cd4f4d9937e22"}, {"rental_uris": {"android": "https://dc.lft.to/lastmile_qr_scan", "ios": "https://dc.lft.to/lastmile_qr_scan"}, "name": "414e74c30cd953c89d834034af09c5eb", "fusion_lat": 0.0, "lon": -76.99810016666666, "is_disabled": 0, "is_reserved": 0, "fusion_lon": 0.0, "lat": 38.8766695, "type": "electric_scooter", "bike_id": "414e74c30cd953c89d834034af09c5eb"}, {"rental_uris": {"android": "https://dc.lft.to/lastmile_qr_scan", "ios": "https://dc.lft.to/lastmile_qr_scan"}, "name": "e02a6c6ebf4df5a0e8d759b7a51e6b88", "fusion_lat": 0.0, "lon": -76.92914833333333, "is_disabled": 0, "is_reserved": 0, "fusion_lon": 0.0, "lat": 38.98029066666667, "type": "electric_bike", "bike_id": "e02a6c6ebf4df5a0e8d759b7a51e6b88"}, {"rental_uris": {"android": "https://dc.lft.to/lastmile_qr_scan", "ios": "https://dc.lft.to/lastmile_qr_scan"}, "name": "55bbb12787466ebc0fabfa1592326f3f", "fusion_lat": 0.0, "lon": -77.02640533333333, "is_disabled": 0, "is_reserved": 0, "fusion_lon": 0.0, "lat": 38.88112383333333, "type": "electric_scooter", "bike_id": "55bbb12787466ebc0fabfa1592326f3f"}, {"rental_uris": {"android": "https://dc.lft.to/lastmile_qr_scan", "ios": "https://dc.lft.to/lastmile_qr_scan"}, "name": "1b8960d95f65389032406d8d9a7ef98f", "fusion_lat": 0.0, "lon": -77.00303866666667, "is_disabled": 0, "is_reserved": 0, "fusion_lon": 0.0, "lat": 38.909118166666666, "type": "electric_scooter", "bike_id": "1b8960d95f65389032406d8d9a7ef98f"}, {"rental_uris": {"android": "https://dc.lft.to/lastmile_qr_scan", "ios": "https://dc.lft.to/lastmile_qr_scan"}, "name": "53afb7fc16a23a6a9b82a59dd693f263", "fusion_lat": 0.0, "lon": -77.05038116666667, "is_disabled": 0, "is_reserved": 0, "fusion_lon": 0.0, "lat": 38.900834333333336, "type": "electric_scooter", "bike_id": "53afb7fc16a23a6a9b82a59dd693f263"}, {"rental_uris": {"android": "https://dc.lft.to/lastmile_qr_scan", "ios": "https://dc.lft.to/lastmile_qr_scan"}, "name": "d3a0b1ccdca81805ba80c37bb7e77029", "fusion_lat": 0.0, "lon": -77.05792066666666, "is_disabled": 0, "is_reserved": 0, "fusion_lon": 0.0, "lat": 38.934793, "type": "electric_scooter", "bike_id": "d3a0b1ccdca81805ba80c37bb7e77029"}, {"rental_uris": {"android": "https://dc.lft.to/lastmile_qr_scan", "ios": "https://dc.lft.to/lastmile_qr_scan"}, "name": "08bd40a43f0b93d9a7916d7e0c965ccf", "fusion_lat": 0.0, "lon": -77.04560983333333, "is_disabled": 0, "is_reserved": 0, "fusion_lon": 0.0, "lat": 38.907416833333336, "type": "electric_scooter", "bike_id": "08bd40a43f0b93d9a7916d7e0c965ccf"}, {"rental_uris": {"android": "https://dc.lft.to/lastmile_qr_scan", "ios": "https://dc.lft.to/lastmile_qr_scan"}, "name": "33f5d2cd1f32bef569758042b2ad3038", "fusion_lat": 0.0, "lon": -77.04679283333333, "is_disabled": 0, "is_reserved": 0, "fusion_lon": 0.0, "lat": 38.903808, "type": "electric_scooter", "bike_id": "33f5d2cd1f32bef569758042b2ad3038"}, {"rental_uris": {"android": "https://dc.lft.to/lastmile_qr_scan", "ios": "https://dc.lft.to/lastmile_qr_scan"}, "name": "ac0a3042af5077b21d240b07bc3a42f9", "fusion_lat": 0.0, "lon": -77.02294733333333, "is_disabled": 0, "is_reserved": 0, "fusion_lon": 0.0, "lat": 38.90165533333333, "type": "electric_scooter", "bike_id": "ac0a3042af5077b21d240b07bc3a42f9"}, {"rental_uris": {"android": "https://dc.lft.to/lastmile_qr_scan", "ios": "https://dc.lft.to/lastmile_qr_scan"}, "name": "0825dd090aca147a93e038886b2ef073", "fusion_lat": 0.0, "lon": -77.031764, "is_disabled": 0, "is_reserved": 0, "fusion_lon": 0.0, "lat": 38.91600783333333, "type": "electric_scooter", "bike_id": "0825dd090aca147a93e038886b2ef073"}, {"rental_uris": {"android": "https://dc.lft.to/lastmile_qr_scan", "ios": "https://dc.lft.to/lastmile_qr_scan"}, "name": "fb5f1645b1fd54392dbe1e73a31640d0", "fusion_lat": 0.0, "lon": -76.99444516666667, "is_disabled": 0, "is_reserved": 0, "fusion_lon": 0.0, "lat": 38.905072833333335, "type": "electric_scooter", "bike_id": "fb5f1645b1fd54392dbe1e73a31640d0"}, {"rental_uris": {"android": "https://dc.lft.to/lastmile_qr_scan", "ios": "https://dc.lft.to/lastmile_qr_scan"}, "name": "d20d868716d7473b8f789e2c495f28d5", "fusion_lat": 0.0, "lon": -77.02602833333333, "is_disabled": 0, "is_reserved": 0, "fusion_lon": 0.0, "lat": 38.91426366666666, "type": "electric_scooter", "bike_id": "d20d868716d7473b8f789e2c495f28d5"}, {"rental_uris": {"android": "https://dc.lft.to/lastmile_qr_scan", "ios": "https://dc.lft.to/lastmile_qr_scan"}, "name": "4643b1e6fe26c2d6dc656ee4eb72907a", "fusion_lat": 0.0, "lon": -76.9463805, "is_disabled": 0, "is_reserved": 0, "fusion_lon": 0.0, "lat": 38.898469666666664, "type": "electric_scooter", "bike_id": "4643b1e6fe26c2d6dc656ee4eb72907a"}, {"rental_uris": {"android": "https://dc.lft.to/lastmile_qr_scan", "ios": "https://dc.lft.to/lastmile_qr_scan"}, "name": "620b2cfa00673b8d0e754ecc9b1666cb", "fusion_lat": 0.0, "lon": -76.955194, "is_disabled": 0, "is_reserved": 0, "fusion_lon": 0.0, "lat": 38.890568, "type": "electric_scooter", "bike_id": "620b2cfa00673b8d0e754ecc9b1666cb"}, {"rental_uris": {"android": "https://dc.lft.to/lastmile_qr_scan", "ios": "https://dc.lft.to/lastmile_qr_scan"}, "name": "507ea55d9ad98b195018753c5829315c", "fusion_lat": 0.0, "lon": -77.041391, "is_disabled": 0, "is_reserved": 0, "fusion_lon": 0.0, "lat": 38.916835166666665, "type": "electric_scooter", "bike_id": "507ea55d9ad98b195018753c5829315c"}, {"rental_uris": {"android": "https://dc.lft.to/lastmile_qr_scan", "ios": "https://dc.lft.to/lastmile_qr_scan"}, "name": "788acce022ceb8204a6f8ac4a93c45ea", "fusion_lat": 0.0, "lon": -77.02954833333334, "is_disabled": 0, "is_reserved": 0, "fusion_lon": 0.0, "lat": 38.922393, "type": "electric_scooter", "bike_id": "788acce022ceb8204a6f8ac4a93c45ea"}, {"rental_uris": {"android": "https://dc.lft.to/lastmile_qr_scan", "ios": "https://dc.lft.to/lastmile_qr_scan"}, "name": "a1083644032dc1456323241e52167f55", "fusion_lat": 0.0, "lon": -76.927759, "is_disabled": 0, "is_reserved": 0, "fusion_lon": 0.0, "lat": 38.9027295, "type": "electric_scooter", "bike_id": "a1083644032dc1456323241e52167f55"}, {"rental_uris": {"android": "https://dc.lft.to/lastmile_qr_scan", "ios": "https://dc.lft.to/lastmile_qr_scan"}, "name": "b0cbb6916514f541b386329bc0b5ba49", "fusion_lat": 0.0, "lon": -77.02494166666666, "is_disabled": 0, "is_reserved": 0, "fusion_lon": 0.0, "lat": 38.941879166666666, "type": "electric_scooter", "bike_id": "b0cbb6916514f541b386329bc0b5ba49"}, {"rental_uris": {"android": "https://dc.lft.to/lastmile_qr_scan", "ios": "https://dc.lft.to/lastmile_qr_scan"}, "name": "0503f0da62352ec2181a0fb7bb2cb571", "fusion_lat": 0.0, "lon": -77.04764683333333, "is_disabled": 0, "is_reserved": 0, "fusion_lon": 0.0, "lat": 38.90135316666667, "type": "electric_scooter", "bike_id": "0503f0da62352ec2181a0fb7bb2cb571"}, {"rental_uris": {"android": "https://dc.lft.to/lastmile_qr_scan", "ios": "https://dc.lft.to/lastmile_qr_scan"}, "name": "739195135a5b426ea9420d7243d8cd07", "fusion_lat": 0.0, "lon": -77.0194825, "is_disabled": 0, "is_reserved": 0, "fusion_lon": 0.0, "lat": 38.92250283333333, "type": "electric_scooter", "bike_id": "739195135a5b426ea9420d7243d8cd07"}, {"rental_uris": {"android": "https://dc.lft.to/lastmile_qr_scan", "ios": "https://dc.lft.to/lastmile_qr_scan"}, "name": "64494b0110ab564d193b90439b76ff60", "fusion_lat": 0.0, "lon": -77.01203233333334, "is_disabled": 0, "is_reserved": 0, "fusion_lon": 0.0, "lat": 38.8715325, "type": "electric_scooter", "bike_id": "64494b0110ab564d193b90439b76ff60"}, {"rental_uris": {"android": "https://dc.lft.to/lastmile_qr_scan", "ios": "https://dc.lft.to/lastmile_qr_scan"}, "name": "a41db326a11674758cb235b21638a2d5", "fusion_lat": 0.0, "lon": -77.01212583333333, "is_disabled": 0, "is_reserved": 0, "fusion_lon": 0.0, "lat": 38.8933065, "type": "electric_scooter", "bike_id": "a41db326a11674758cb235b21638a2d5"}, {"rental_uris": {"android": "https://dc.lft.to/lastmile_qr_scan", "ios": "https://dc.lft.to/lastmile_qr_scan"}, "name": "d5a0b003f0f8624d4a8520e4ff820b70", "fusion_lat": 0.0, "lon": -76.99167833333334, "is_disabled": 0, "is_reserved": 0, "fusion_lon": 0.0, "lat": 38.87905716666667, "type": "electric_scooter", "bike_id": "d5a0b003f0f8624d4a8520e4ff820b70"}, {"rental_uris": {"android": "https://dc.lft.to/lastmile_qr_scan", "ios": "https://dc.lft.to/lastmile_qr_scan"}, "name": "a3dcaff40afb24e17ed68d9bcfea8e94", "fusion_lat": 0.0, "lon": -77.03417766666666, "is_disabled": 0, "is_reserved": 0, "fusion_lon": 0.0, "lat": 38.92946, "type": "electric_scooter", "bike_id": "a3dcaff40afb24e17ed68d9bcfea8e94"}, {"rental_uris": {"android": "https://dc.lft.to/lastmile_qr_scan", "ios": "https://dc.lft.to/lastmile_qr_scan"}, "name": "fb5a729106d3cf919b63a914d4dd2528", "fusion_lat": 0.0, "lon": -77.037615, "is_disabled": 0, "is_reserved": 0, "fusion_lon": 0.0, "lat": 38.92472333333333, "type": "electric_scooter", "bike_id": "fb5a729106d3cf919b63a914d4dd2528"}, {"rental_uris": {"android": "https://dc.lft.to/lastmile_qr_scan", "ios": "https://dc.lft.to/lastmile_qr_scan"}, "name": "90f1422f530aa5edb7c7cc06a9019f62", "fusion_lat": 0.0, "lon": -77.03659316666666, "is_disabled": 0, "is_reserved": 0, "fusion_lon": 0.0, "lat": 38.9128555, "type": "electric_scooter", "bike_id": "90f1422f530aa5edb7c7cc06a9019f62"}, {"rental_uris": {"android": "https://dc.lft.to/lastmile_qr_scan", "ios": "https://dc.lft.to/lastmile_qr_scan"}, "name": "cd11f64321879f1c52c26922ddc2cc46", "fusion_lat": 0.0, "lon": -77.02808416666667, "is_disabled": 0, "is_reserved": 0, "fusion_lon": 0.0, "lat": 38.906272666666666, "type": "electric_scooter", "bike_id": "cd11f64321879f1c52c26922ddc2cc46"}, {"rental_uris": {"android": "https://dc.lft.to/lastmile_qr_scan", "ios": "https://dc.lft.to/lastmile_qr_scan"}, "name": "075a4a25d2188def402ad91ae8d8c6e4", "fusion_lat": 0.0, "lon": -77.03881716666666, "is_disabled": 0, "is_reserved": 0, "fusion_lon": 0.0, "lat": 38.919814333333335, "type": "electric_scooter", "bike_id": "075a4a25d2188def402ad91ae8d8c6e4"}, {"rental_uris": {"android": "https://dc.lft.to/lastmile_qr_scan", "ios": "https://dc.lft.to/lastmile_qr_scan"}, "name": "c2fc432f232c61b894f067f862f94861", "fusion_lat": 0.0, "lon": -77.030676, "is_disabled": 0, "is_reserved": 0, "fusion_lon": 0.0, "lat": 38.8804615, "type": "electric_scooter", "bike_id": "c2fc432f232c61b894f067f862f94861"}, {"rental_uris": {"android": "https://dc.lft.to/lastmile_qr_scan", "ios": "https://dc.lft.to/lastmile_qr_scan"}, "name": "47721c2b305b1a5e838c1665e6e92b7e", "fusion_lat": 0.0, "lon": -76.99758233333333, "is_disabled": 0, "is_reserved": 0, "fusion_lon": 0.0, "lat": 39.005951833333334, "type": "electric_bike", "bike_id": "47721c2b305b1a5e838c1665e6e92b7e"}, {"rental_uris": {"android": "https://dc.lft.to/lastmile_qr_scan", "ios": "https://dc.lft.to/lastmile_qr_scan"}, "name": "9d9eb5f4f82d0ca8e98c0bef0f8f1394", "fusion_lat": 0.0, "lon": -77.03679883333334, "is_disabled": 0, "is_reserved": 0, "fusion_lon": 0.0, "lat": 38.90269416666667, "type": "electric_scooter", "bike_id": "9d9eb5f4f82d0ca8e98c0bef0f8f1394"}, {"rental_uris": {"android": "https://dc.lft.to/lastmile_qr_scan", "ios": "https://dc.lft.to/lastmile_qr_scan"}, "name": "203db349795858488d591aaf8d17351f", "fusion_lat": 0.0, "lon": -77.0293905, "is_disabled": 0, "is_reserved": 0, "fusion_lon": 0.0, "lat": 38.904165, "type": "electric_scooter", "bike_id": "203db349795858488d591aaf8d17351f"}, {"rental_uris": {"android": "https://dc.lft.to/lastmile_qr_scan", "ios": "https://dc.lft.to/lastmile_qr_scan"}, "name": "9152a4bd63d8ee236ff9c2f95b874632", "fusion_lat": 0.0, "lon": -77.03865983333333, "is_disabled": 0, "is_reserved": 0, "fusion_lon": 0.0, "lat": 38.9026065, "type": "electric_scooter", "bike_id": "9152a4bd63d8ee236ff9c2f95b874632"}, {"rental_uris": {"android": "https://dc.lft.to/lastmile_qr_scan", "ios": "https://dc.lft.to/lastmile_qr_scan"}, "name": "fc610726916cabc624d5d93028f344a2", "fusion_lat": 0.0, "lon": -77.02667266666667, "is_disabled": 0, "is_reserved": 0, "fusion_lon": 0.0, "lat": 38.98822716666667, "type": "electric_bike", "bike_id": "fc610726916cabc624d5d93028f344a2"}, {"rental_uris": {"android": "https://dc.lft.to/lastmile_qr_scan", "ios": "https://dc.lft.to/lastmile_qr_scan"}, "name": "d2fc51a2df1e8846ce80fe8b0a270ca4", "fusion_lat": 0.0, "lon": -76.92953933333334, "is_disabled": 0, "is_reserved": 0, "fusion_lon": 0.0, "lat": 38.898776833333336, "type": "electric_scooter", "bike_id": "d2fc51a2df1e8846ce80fe8b0a270ca4"}, {"rental_uris": {"android": "https://dc.lft.to/lastmile_qr_scan", "ios": "https://dc.lft.to/lastmile_qr_scan"}, "name": "e2672eea4cbf4276a5fe78db0a431c3f", "fusion_lat": 0.0, "lon": -77.02782316666666, "is_disabled": 0, "is_reserved": 0, "fusion_lon": 0.0, "lat": 38.88159133333333, "type": "electric_scooter", "bike_id": "e2672eea4cbf4276a5fe78db0a431c3f"}, {"rental_uris": {"android": "https://dc.lft.to/lastmile_qr_scan", "ios": "https://dc.lft.to/lastmile_qr_scan"}, "name": "f28f28473ff1c142b724653248788121", "fusion_lat": 0.0, "lon": -77.04660433333333, "is_disabled": 0, "is_reserved": 0, "fusion_lon": 0.0, "lat": 38.903361333333336, "type": "electric_scooter", "bike_id": "f28f28473ff1c142b724653248788121"}, {"rental_uris": {"android": "https://dc.lft.to/lastmile_qr_scan", "ios": "https://dc.lft.to/lastmile_qr_scan"}, "name": "3f3e7359192ef9c133ccd8ba0ce58fac", "fusion_lat": 0.0, "lon": -77.02378033333333, "is_disabled": 0, "is_reserved": 0, "fusion_lon": 0.0, "lat": 38.907340166666664, "type": "electric_scooter", "bike_id": "3f3e7359192ef9c133ccd8ba0ce58fac"}, {"rental_uris": {"android": "https://dc.lft.to/lastmile_qr_scan", "ios": "https://dc.lft.to/lastmile_qr_scan"}, "name": "167a6d8d8b4f7c560f0f629ab16a960e", "fusion_lat": 0.0, "lon": -77.13173733333333, "is_disabled": 0, "is_reserved": 0, "fusion_lon": 0.0, "lat": 38.86905, "type": "electric_bike", "bike_id": "167a6d8d8b4f7c560f0f629ab16a960e"}, {"rental_uris": {"android": "https://dc.lft.to/lastmile_qr_scan", "ios": "https://dc.lft.to/lastmile_qr_scan"}, "name": "7080308928318239582cfb586ee231e9", "fusion_lat": 0.0, "lon": -77.05117183333333, "is_disabled": 0, "is_reserved": 0, "fusion_lon": 0.0, "lat": 38.91212816666667, "type": "electric_scooter", "bike_id": "7080308928318239582cfb586ee231e9"}, {"rental_uris": {"android": "https://dc.lft.to/lastmile_qr_scan", "ios": "https://dc.lft.to/lastmile_qr_scan"}, "name": "79b5be3e9026672bc4213b23e1b481c5", "fusion_lat": 0.0, "lon": -76.9495015, "is_disabled": 0, "is_reserved": 0, "fusion_lon": 0.0, "lat": 38.935057666666665, "type": "electric_bike", "bike_id": "79b5be3e9026672bc4213b23e1b481c5"}, {"rental_uris": {"android": "https://dc.lft.to/lastmile_qr_scan", "ios": "https://dc.lft.to/lastmile_qr_scan"}, "name": "0567dc2b62e2ee5e8a93c360d8749785", "fusion_lat": 0.0, "lon": -77.00747133333333, "is_disabled": 0, "is_reserved": 0, "fusion_lon": 0.0, "lat": 38.87654116666667, "type": "electric_scooter", "bike_id": "0567dc2b62e2ee5e8a93c360d8749785"}, {"rental_uris": {"android": "https://dc.lft.to/lastmile_qr_scan", "ios": "https://dc.lft.to/lastmile_qr_scan"}, "name": "b7dee4dd870eede5f6c83a0928b07963", "fusion_lat": 0.0, "lon": -77.01115016666667, "is_disabled": 0, "is_reserved": 0, "fusion_lon": 0.0, "lat": 38.90360283333333, "type": "electric_scooter", "bike_id": "b7dee4dd870eede5f6c83a0928b07963"}, {"rental_uris": {"android": "https://dc.lft.to/lastmile_qr_scan", "ios": "https://dc.lft.to/lastmile_qr_scan"}, "name": "1aa576aba68762dfae3446f538bff889", "fusion_lat": 0.0, "lon": -77.0019875, "is_disabled": 0, "is_reserved": 0, "fusion_lon": 0.0, "lat": 38.8935225, "type": "electric_scooter", "bike_id": "1aa576aba68762dfae3446f538bff889"}, {"rental_uris": {"android": "https://dc.lft.to/lastmile_qr_scan", "ios": "https://dc.lft.to/lastmile_qr_scan"}, "name": "b1bf232d917a004402c55f2db050c6cd", "fusion_lat": 0.0, "lon": -77.02294183333333, "is_disabled": 0, "is_reserved": 0, "fusion_lon": 0.0, "lat": 38.91620916666667, "type": "electric_scooter", "bike_id": "b1bf232d917a004402c55f2db050c6cd"}, {"rental_uris": {"android": "https://dc.lft.to/lastmile_qr_scan", "ios": "https://dc.lft.to/lastmile_qr_scan"}, "name": "f5eaa0709e767ce5b34e55bf34f53e65", "fusion_lat": 0.0, "lon": -77.027138, "is_disabled": 0, "is_reserved": 0, "fusion_lon": 0.0, "lat": 38.917633, "type": "electric_scooter", "bike_id": "f5eaa0709e767ce5b34e55bf34f53e65"}, {"rental_uris": {"android": "https://dc.lft.to/lastmile_qr_scan", "ios": "https://dc.lft.to/lastmile_qr_scan"}, "name": "af286116f66c7bb0d59efa36e7a04426", "fusion_lat": 0.0, "lon": -77.03662983333334, "is_disabled": 0, "is_reserved": 0, "fusion_lon": 0.0, "lat": 38.912891333333334, "type": "electric_scooter", "bike_id": "af286116f66c7bb0d59efa36e7a04426"}, {"rental_uris": {"android": "https://dc.lft.to/lastmile_qr_scan", "ios": "https://dc.lft.to/lastmile_qr_scan"}, "name": "e076f7d9c10bf05cb3477f24c5c9ea42", "fusion_lat": 0.0, "lon": -77.06039633333333, "is_disabled": 0, "is_reserved": 0, "fusion_lon": 0.0, "lat": 38.939274, "type": "electric_scooter", "bike_id": "e076f7d9c10bf05cb3477f24c5c9ea42"}, {"rental_uris": {"android": "https://dc.lft.to/lastmile_qr_scan", "ios": "https://dc.lft.to/lastmile_qr_scan"}, "name": "47e9e1ba927544cdf43fa96f0e779621", "fusion_lat": 0.0, "lon": -76.94122566666667, "is_disabled": 0, "is_reserved": 0, "fusion_lon": 0.0, "lat": 38.907942166666665, "type": "electric_scooter", "bike_id": "47e9e1ba927544cdf43fa96f0e779621"}, {"rental_uris": {"android": "https://dc.lft.to/lastmile_qr_scan", "ios": "https://dc.lft.to/lastmile_qr_scan"}, "name": "b81e445f5c8ed579392e2fd27710f815", "fusion_lat": 0.0, "lon": -77.0275795, "is_disabled": 0, "is_reserved": 0, "fusion_lon": 0.0, "lat": 38.95415033333333, "type": "electric_scooter", "bike_id": "b81e445f5c8ed579392e2fd27710f815"}, {"rental_uris": {"android": "https://dc.lft.to/lastmile_qr_scan", "ios": "https://dc.lft.to/lastmile_qr_scan"}, "name": "377f379f09b5eeff2e1d93a42a3720b4", "fusion_lat": 0.0, "lon": -77.05139533333333, "is_disabled": 0, "is_reserved": 0, "fusion_lon": 0.0, "lat": 38.90454783333333, "type": "electric_scooter", "bike_id": "377f379f09b5eeff2e1d93a42a3720b4"}, {"rental_uris": {"android": "https://dc.lft.to/lastmile_qr_scan", "ios": "https://dc.lft.to/lastmile_qr_scan"}, "name": "e72c392ac957dcc410b9bcbbec2a201c", "fusion_lat": 0.0, "lon": -77.03274266666666, "is_disabled": 0, "is_reserved": 0, "fusion_lon": 0.0, "lat": 38.898856333333335, "type": "electric_scooter", "bike_id": "e72c392ac957dcc410b9bcbbec2a201c"}, {"rental_uris": {"android": "https://dc.lft.to/lastmile_qr_scan", "ios": "https://dc.lft.to/lastmile_qr_scan"}, "name": "82365fa9014e833a57788878a193a73f", "fusion_lat": 0.0, "lon": -77.00694033333333, "is_disabled": 0, "is_reserved": 0, "fusion_lon": 0.0, "lat": 38.895967666666664, "type": "electric_scooter", "bike_id": "82365fa9014e833a57788878a193a73f"}, {"rental_uris": {"android": "https://dc.lft.to/lastmile_qr_scan", "ios": "https://dc.lft.to/lastmile_qr_scan"}, "name": "1ec3a24d30eb6f823a597e655e93f136", "fusion_lat": 0.0, "lon": -77.0425295, "is_disabled": 0, "is_reserved": 0, "fusion_lon": 0.0, "lat": 38.9455185, "type": "electric_scooter", "bike_id": "1ec3a24d30eb6f823a597e655e93f136"}, {"rental_uris": {"android": "https://dc.lft.to/lastmile_qr_scan", "ios": "https://dc.lft.to/lastmile_qr_scan"}, "name": "1e41c4c0709e280c7528584cbba94b1c", "fusion_lat": 0.0, "lon": -77.06390066666667, "is_disabled": 0, "is_reserved": 0, "fusion_lon": 0.0, "lat": 38.9291065, "type": "electric_scooter", "bike_id": "1e41c4c0709e280c7528584cbba94b1c"}, {"rental_uris": {"android": "https://dc.lft.to/lastmile_qr_scan", "ios": "https://dc.lft.to/lastmile_qr_scan"}, "name": "a4fac1dff91cc67f84d77f10c04adc96", "fusion_lat": 0.0, "lon": -77.12506483333334, "is_disabled": 0, "is_reserved": 0, "fusion_lon": 0.0, "lat": 39.02425516666667, "type": "electric_bike", "bike_id": "a4fac1dff91cc67f84d77f10c04adc96"}, {"rental_uris": {"android": "https://dc.lft.to/lastmile_qr_scan", "ios": "https://dc.lft.to/lastmile_qr_scan"}, "name": "7d2d0976f705d17064fc72252114c382", "fusion_lat": 0.0, "lon": -77.0635315, "is_disabled": 0, "is_reserved": 0, "fusion_lon": 0.0, "lat": 38.94452733333333, "type": "electric_scooter", "bike_id": "7d2d0976f705d17064fc72252114c382"}, {"rental_uris": {"android": "https://dc.lft.to/lastmile_qr_scan", "ios": "https://dc.lft.to/lastmile_qr_scan"}, "name": "2cf70c874d670d7064ebccbb75ed08f4", "fusion_lat": 0.0, "lon": -77.0353765, "is_disabled": 0, "is_reserved": 0, "fusion_lon": 0.0, "lat": 38.92474, "type": "electric_scooter", "bike_id": "2cf70c874d670d7064ebccbb75ed08f4"}, {"rental_uris": {"android": "https://dc.lft.to/lastmile_qr_scan", "ios": "https://dc.lft.to/lastmile_qr_scan"}, "name": "05c06087d96e9af053e313740267cf03", "fusion_lat": 0.0, "lon": -77.00877916666667, "is_disabled": 0, "is_reserved": 0, "fusion_lon": 0.0, "lat": 38.87328266666667, "type": "electric_scooter", "bike_id": "05c06087d96e9af053e313740267cf03"}, {"rental_uris": {"android": "https://dc.lft.to/lastmile_qr_scan", "ios": "https://dc.lft.to/lastmile_qr_scan"}, "name": "d84dfabc2ccdd93fbb2cad1e5359b74b", "fusion_lat": 0.0, "lon": -76.99567, "is_disabled": 0, "is_reserved": 0, "fusion_lon": 0.0, "lat": 39.007863666666665, "type": "electric_bike", "bike_id": "d84dfabc2ccdd93fbb2cad1e5359b74b"}, {"rental_uris": {"android": "https://dc.lft.to/lastmile_qr_scan", "ios": "https://dc.lft.to/lastmile_qr_scan"}, "name": "cc4c66da28a7aaff9bd5196f511c13ec", "fusion_lat": 0.0, "lon": -77.0467215, "is_disabled": 0, "is_reserved": 0, "fusion_lon": 0.0, "lat": 38.8950725, "type": "electric_scooter", "bike_id": "cc4c66da28a7aaff9bd5196f511c13ec"}, {"rental_uris": {"android": "https://dc.lft.to/lastmile_qr_scan", "ios": "https://dc.lft.to/lastmile_qr_scan"}, "name": "0061ad0aa8a625c1025fc841ada23ad9", "fusion_lat": 0.0, "lon": -77.0294955, "is_disabled": 0, "is_reserved": 0, "fusion_lon": 0.0, "lat": 38.89864683333333, "type": "electric_scooter", "bike_id": "0061ad0aa8a625c1025fc841ada23ad9"}, {"rental_uris": {"android": "https://dc.lft.to/lastmile_qr_scan", "ios": "https://dc.lft.to/lastmile_qr_scan"}, "name": "fb0e79f9ebe445ed7a5490e2ae681d3b", "fusion_lat": 0.0, "lon": -76.98709933333333, "is_disabled": 0, "is_reserved": 0, "fusion_lon": 0.0, "lat": 38.8670255, "type": "electric_scooter", "bike_id": "fb0e79f9ebe445ed7a5490e2ae681d3b"}, {"rental_uris": {"android": "https://dc.lft.to/lastmile_qr_scan", "ios": "https://dc.lft.to/lastmile_qr_scan"}, "name": "2e101fed1c5854b5903716e3a6467559", "fusion_lat": 0.0, "lon": -77.0956485, "is_disabled": 0, "is_reserved": 0, "fusion_lon": 0.0, "lat": 38.917093666666666, "type": "electric_bike", "bike_id": "2e101fed1c5854b5903716e3a6467559"}, {"rental_uris": {"android": "https://dc.lft.to/lastmile_qr_scan", "ios": "https://dc.lft.to/lastmile_qr_scan"}, "name": "11477ecd45eb347e9b985eb83a03acf0", "fusion_lat": 0.0, "lon": -77.01811983333333, "is_disabled": 0, "is_reserved": 0, "fusion_lon": 0.0, "lat": 38.92163733333334, "type": "electric_scooter", "bike_id": "11477ecd45eb347e9b985eb83a03acf0"}, {"rental_uris": {"android": "https://dc.lft.to/lastmile_qr_scan", "ios": "https://dc.lft.to/lastmile_qr_scan"}, "name": "5feb9455f45951fdb84810720ffc2eba", "fusion_lat": 0.0, "lon": -77.02981783333334, "is_disabled": 0, "is_reserved": 0, "fusion_lon": 0.0, "lat": 38.942671, "type": "electric_bike", "bike_id": "5feb9455f45951fdb84810720ffc2eba"}, {"rental_uris": {"android": "https://dc.lft.to/lastmile_qr_scan", "ios": "https://dc.lft.to/lastmile_qr_scan"}, "name": "f9207df54959c7ada6b36a384a0d83c2", "fusion_lat": 0.0, "lon": -77.0152285, "is_disabled": 0, "is_reserved": 0, "fusion_lon": 0.0, "lat": 38.88501766666667, "type": "electric_scooter", "bike_id": "f9207df54959c7ada6b36a384a0d83c2"}, {"rental_uris": {"android": "https://dc.lft.to/lastmile_qr_scan", "ios": "https://dc.lft.to/lastmile_qr_scan"}, "name": "14a8e700719b5cc8c9f695d34d3836cd", "fusion_lat": 0.0, "lon": -77.04185116666666, "is_disabled": 0, "is_reserved": 0, "fusion_lon": 0.0, "lat": 38.912667166666665, "type": "electric_scooter", "bike_id": "14a8e700719b5cc8c9f695d34d3836cd"}, {"rental_uris": {"android": "https://dc.lft.to/lastmile_qr_scan", "ios": "https://dc.lft.to/lastmile_qr_scan"}, "name": "2d794c4076b6d0058babe14a0ae2c5b5", "fusion_lat": 0.0, "lon": -76.96838883333334, "is_disabled": 0, "is_reserved": 0, "fusion_lon": 0.0, "lat": 38.92445883333333, "type": "electric_bike", "bike_id": "2d794c4076b6d0058babe14a0ae2c5b5"}, {"rental_uris": {"android": "https://dc.lft.to/lastmile_qr_scan", "ios": "https://dc.lft.to/lastmile_qr_scan"}, "name": "c92a69a0826e06e3ed00506a1d664272", "fusion_lat": 0.0, "lon": -77.04716483333333, "is_disabled": 0, "is_reserved": 0, "fusion_lon": 0.0, "lat": 38.89966783333333, "type": "electric_scooter", "bike_id": "c92a69a0826e06e3ed00506a1d664272"}, {"rental_uris": {"android": "https://dc.lft.to/lastmile_qr_scan", "ios": "https://dc.lft.to/lastmile_qr_scan"}, "name": "6a628771bf3aa41dcc89f96ef7f30d95", "fusion_lat": 0.0, "lon": -77.03635733333333, "is_disabled": 0, "is_reserved": 0, "fusion_lon": 0.0, "lat": 38.93169133333333, "type": "electric_scooter", "bike_id": "6a628771bf3aa41dcc89f96ef7f30d95"}, {"rental_uris": {"android": "https://dc.lft.to/lastmile_qr_scan", "ios": "https://dc.lft.to/lastmile_qr_scan"}, "name": "537a60f5dc55d947c31e2224b5a751fe", "fusion_lat": 0.0, "lon": -76.96551866666667, "is_disabled": 0, "is_reserved": 0, "fusion_lon": 0.0, "lat": 38.918455, "type": "electric_scooter", "bike_id": "537a60f5dc55d947c31e2224b5a751fe"}, {"rental_uris": {"android": "https://dc.lft.to/lastmile_qr_scan", "ios": "https://dc.lft.to/lastmile_qr_scan"}, "name": "78affc753ef10251f3883c664fc5ab38", "fusion_lat": 0.0, "lon": -76.98328366666667, "is_disabled": 0, "is_reserved": 0, "fusion_lon": 0.0, "lat": 38.86174966666667, "type": "electric_scooter", "bike_id": "78affc753ef10251f3883c664fc5ab38"}, {"rental_uris": {"android": "https://dc.lft.to/lastmile_qr_scan", "ios": "https://dc.lft.to/lastmile_qr_scan"}, "name": "bbf75c3c24f1c8f004e16850bb85cebd", "fusion_lat": 0.0, "lon": -76.96505866666666, "is_disabled": 0, "is_reserved": 0, "fusion_lon": 0.0, "lat": 38.8764735, "type": "electric_scooter", "bike_id": "bbf75c3c24f1c8f004e16850bb85cebd"}, {"rental_uris": {"android": "https://dc.lft.to/lastmile_qr_scan", "ios": "https://dc.lft.to/lastmile_qr_scan"}, "name": "b0f97c672afebf08676e72959d48d67a", "fusion_lat": 0.0, "lon": -77.15269183333334, "is_disabled": 0, "is_reserved": 0, "fusion_lon": 0.0, "lat": 39.105669, "type": "electric_bike", "bike_id": "b0f97c672afebf08676e72959d48d67a"}, {"rental_uris": {"android": "https://dc.lft.to/lastmile_qr_scan", "ios": "https://dc.lft.to/lastmile_qr_scan"}, "name": "b3d0d062e701b5905e881a36b27a2117", "fusion_lat": 0.0, "lon": -77.052008, "is_disabled": 0, "is_reserved": 0, "fusion_lon": 0.0, "lat": 38.92435166666667, "type": "electric_scooter", "bike_id": "b3d0d062e701b5905e881a36b27a2117"}, {"rental_uris": {"android": "https://dc.lft.to/lastmile_qr_scan", "ios": "https://dc.lft.to/lastmile_qr_scan"}, "name": "50558a09e7a69d02035b3462bf82c846", "fusion_lat": 0.0, "lon": -77.006272, "is_disabled": 0, "is_reserved": 0, "fusion_lon": 0.0, "lat": 38.875528333333335, "type": "electric_scooter", "bike_id": "50558a09e7a69d02035b3462bf82c846"}, {"rental_uris": {"android": "https://dc.lft.to/lastmile_qr_scan", "ios": "https://dc.lft.to/lastmile_qr_scan"}, "name": "e5dcaf7bd33cf845cce649f4f794b024", "fusion_lat": 0.0, "lon": -77.03320866666667, "is_disabled": 0, "is_reserved": 0, "fusion_lon": 0.0, "lat": 38.96012733333333, "type": "electric_scooter", "bike_id": "e5dcaf7bd33cf845cce649f4f794b024"}, {"rental_uris": {"android": "https://dc.lft.to/lastmile_qr_scan", "ios": "https://dc.lft.to/lastmile_qr_scan"}, "name": "b1f67e8d51c8a7cdca4de30a47698f94", "fusion_lat": 0.0, "lon": -77.0071095, "is_disabled": 0, "is_reserved": 0, "fusion_lon": 0.0, "lat": 38.8848955, "type": "electric_scooter", "bike_id": "b1f67e8d51c8a7cdca4de30a47698f94"}, {"rental_uris": {"android": "https://dc.lft.to/lastmile_qr_scan", "ios": "https://dc.lft.to/lastmile_qr_scan"}, "name": "649f69a302df8baf54bd03b2bc0b8ff8", "fusion_lat": 0.0, "lon": -77.070817, "is_disabled": 0, "is_reserved": 0, "fusion_lon": 0.0, "lat": 38.939117833333334, "type": "electric_scooter", "bike_id": "649f69a302df8baf54bd03b2bc0b8ff8"}, {"rental_uris": {"android": "https://dc.lft.to/lastmile_qr_scan", "ios": "https://dc.lft.to/lastmile_qr_scan"}, "name": "29944700265fa115efb44d337bb995a3", "fusion_lat": 0.0, "lon": -77.04518016666667, "is_disabled": 0, "is_reserved": 0, "fusion_lon": 0.0, "lat": 38.9039425, "type": "electric_scooter", "bike_id": "29944700265fa115efb44d337bb995a3"}, {"rental_uris": {"android": "https://dc.lft.to/lastmile_qr_scan", "ios": "https://dc.lft.to/lastmile_qr_scan"}, "name": "99db67964fce17e3f5d50a13dac7cd51", "fusion_lat": 0.0, "lon": -77.03838583333334, "is_disabled": 0, "is_reserved": 0, "fusion_lon": 0.0, "lat": 38.9034505, "type": "electric_scooter", "bike_id": "99db67964fce17e3f5d50a13dac7cd51"}, {"rental_uris": {"android": "https://dc.lft.to/lastmile_qr_scan", "ios": "https://dc.lft.to/lastmile_qr_scan"}, "name": "a8893789912eedb1c46ecfbdb299c789", "fusion_lat": 0.0, "lon": -77.0083295, "is_disabled": 0, "is_reserved": 0, "fusion_lon": 0.0, "lat": 38.876286, "type": "electric_scooter", "bike_id": "a8893789912eedb1c46ecfbdb299c789"}, {"rental_uris": {"android": "https://dc.lft.to/lastmile_qr_scan", "ios": "https://dc.lft.to/lastmile_qr_scan"}, "name": "b1cfbbb4ef80366f7b42ef0974ae1020", "fusion_lat": 0.0, "lon": -77.02712866666667, "is_disabled": 0, "is_reserved": 0, "fusion_lon": 0.0, "lat": 38.91763983333333, "type": "electric_scooter", "bike_id": "b1cfbbb4ef80366f7b42ef0974ae1020"}, {"rental_uris": {"android": "https://dc.lft.to/lastmile_qr_scan", "ios": "https://dc.lft.to/lastmile_qr_scan"}, "name": "691bf17a4d5944ba9ac0b3206d99956b", "fusion_lat": 0.0, "lon": -76.996068, "is_disabled": 0, "is_reserved": 0, "fusion_lon": 0.0, "lat": 38.86464816666667, "type": "electric_scooter", "bike_id": "691bf17a4d5944ba9ac0b3206d99956b"}, {"rental_uris": {"android": "https://dc.lft.to/lastmile_qr_scan", "ios": "https://dc.lft.to/lastmile_qr_scan"}, "name": "e82d63d64d23a1905c60e9117474c866", "fusion_lat": 0.0, "lon": -77.01395683333334, "is_disabled": 0, "is_reserved": 0, "fusion_lon": 0.0, "lat": 38.880317166666664, "type": "electric_scooter", "bike_id": "e82d63d64d23a1905c60e9117474c866"}, {"rental_uris": {"android": "https://dc.lft.to/lastmile_qr_scan", "ios": "https://dc.lft.to/lastmile_qr_scan"}, "name": "0834ffc292b6cc63dd5dd5c18dc9e93f", "fusion_lat": 0.0, "lon": -77.04000116666667, "is_disabled": 0, "is_reserved": 0, "fusion_lon": 0.0, "lat": 38.90386933333333, "type": "electric_bike", "bike_id": "0834ffc292b6cc63dd5dd5c18dc9e93f"}, {"rental_uris": {"android": "https://dc.lft.to/lastmile_qr_scan", "ios": "https://dc.lft.to/lastmile_qr_scan"}, "name": "b4520ac1fc0147eb92b296547b0871d9", "fusion_lat": 0.0, "lon": -77.069545, "is_disabled": 0, "is_reserved": 0, "fusion_lon": 0.0, "lat": 38.990428, "type": "electric_bike", "bike_id": "b4520ac1fc0147eb92b296547b0871d9"}, {"rental_uris": {"android": "https://dc.lft.to/lastmile_qr_scan", "ios": "https://dc.lft.to/lastmile_qr_scan"}, "name": "cc4ec32e55dadc2b5a8f5c70e2498b57", "fusion_lat": 0.0, "lon": -77.02701983333333, "is_disabled": 0, "is_reserved": 0, "fusion_lon": 0.0, "lat": 38.90330566666667, "type": "electric_scooter", "bike_id": "cc4ec32e55dadc2b5a8f5c70e2498b57"}, {"rental_uris": {"android": "https://dc.lft.to/lastmile_qr_scan", "ios": "https://dc.lft.to/lastmile_qr_scan"}, "name": "cbbf5c5b5c3704b98b2ccf53c5679c3d", "fusion_lat": 0.0, "lon": -76.99026516666666, "is_disabled": 0, "is_reserved": 0, "fusion_lon": 0.0, "lat": 38.864065, "type": "electric_scooter", "bike_id": "cbbf5c5b5c3704b98b2ccf53c5679c3d"}, {"rental_uris": {"android": "https://dc.lft.to/lastmile_qr_scan", "ios": "https://dc.lft.to/lastmile_qr_scan"}, "name": "06cc2135f9616ce388a478b6b19f7514", "fusion_lat": 0.0, "lon": -77.00335016666666, "is_disabled": 0, "is_reserved": 0, "fusion_lon": 0.0, "lat": 38.8921445, "type": "electric_scooter", "bike_id": "06cc2135f9616ce388a478b6b19f7514"}, {"rental_uris": {"android": "https://dc.lft.to/lastmile_qr_scan", "ios": "https://dc.lft.to/lastmile_qr_scan"}, "name": "96e0bfc5f3c09e83e277b41114810774", "fusion_lat": 0.0, "lon": -77.04151283333333, "is_disabled": 0, "is_reserved": 0, "fusion_lon": 0.0, "lat": 38.8987715, "type": "electric_scooter", "bike_id": "96e0bfc5f3c09e83e277b41114810774"}, {"rental_uris": {"android": "https://dc.lft.to/lastmile_qr_scan", "ios": "https://dc.lft.to/lastmile_qr_scan"}, "name": "48e12f8df6d9488ca59ad687ac25a25c", "fusion_lat": 0.0, "lon": -77.01696666666666, "is_disabled": 0, "is_reserved": 0, "fusion_lon": 0.0, "lat": 38.88333333333333, "type": "electric_scooter", "bike_id": "48e12f8df6d9488ca59ad687ac25a25c"}, {"rental_uris": {"android": "https://dc.lft.to/lastmile_qr_scan", "ios": "https://dc.lft.to/lastmile_qr_scan"}, "name": "e2f818e505a8ad1f6e99b6c4c84a71d8", "fusion_lat": 0.0, "lon": -76.99507483333333, "is_disabled": 0, "is_reserved": 0, "fusion_lon": 0.0, "lat": 38.885841666666664, "type": "electric_scooter", "bike_id": "e2f818e505a8ad1f6e99b6c4c84a71d8"}, {"rental_uris": {"android": "https://dc.lft.to/lastmile_qr_scan", "ios": "https://dc.lft.to/lastmile_qr_scan"}, "name": "5793f7f09091f180f919518a6814992a", "fusion_lat": 0.0, "lon": -77.01322016666667, "is_disabled": 0, "is_reserved": 0, "fusion_lon": 0.0, "lat": 38.8923035, "type": "electric_scooter", "bike_id": "5793f7f09091f180f919518a6814992a"}, {"rental_uris": {"android": "https://dc.lft.to/lastmile_qr_scan", "ios": "https://dc.lft.to/lastmile_qr_scan"}, "name": "3f2eb30b784ac2f64e2e4bfd97f6b1ef", "fusion_lat": 0.0, "lon": -77.0199745, "is_disabled": 0, "is_reserved": 0, "fusion_lon": 0.0, "lat": 38.966383, "type": "electric_scooter", "bike_id": "3f2eb30b784ac2f64e2e4bfd97f6b1ef"}, {"rental_uris": {"android": "https://dc.lft.to/lastmile_qr_scan", "ios": "https://dc.lft.to/lastmile_qr_scan"}, "name": "40ddf42eba4502b7e9f1822fe69769c1", "fusion_lat": 0.0, "lon": -77.01204916666667, "is_disabled": 0, "is_reserved": 0, "fusion_lon": 0.0, "lat": 38.9258655, "type": "electric_scooter", "bike_id": "40ddf42eba4502b7e9f1822fe69769c1"}, {"rental_uris": {"android": "https://dc.lft.to/lastmile_qr_scan", "ios": "https://dc.lft.to/lastmile_qr_scan"}, "name": "158c67e79ba76ced0786c104338d25bf", "fusion_lat": 0.0, "lon": -77.0464815, "is_disabled": 0, "is_reserved": 0, "fusion_lon": 0.0, "lat": 38.90014016666667, "type": "electric_scooter", "bike_id": "158c67e79ba76ced0786c104338d25bf"}, {"rental_uris": {"android": "https://dc.lft.to/lastmile_qr_scan", "ios": "https://dc.lft.to/lastmile_qr_scan"}, "name": "0bebc34de187fb04907d690d26ebe0d7", "fusion_lat": 0.0, "lon": -76.99365983333334, "is_disabled": 0, "is_reserved": 0, "fusion_lon": 0.0, "lat": 38.92841283333333, "type": "electric_scooter", "bike_id": "0bebc34de187fb04907d690d26ebe0d7"}, {"rental_uris": {"android": "https://dc.lft.to/lastmile_qr_scan", "ios": "https://dc.lft.to/lastmile_qr_scan"}, "name": "feb31bb70e9976eb446eecd3658afa97", "fusion_lat": 0.0, "lon": -77.06252033333334, "is_disabled": 0, "is_reserved": 0, "fusion_lon": 0.0, "lat": 38.913244, "type": "electric_scooter", "bike_id": "feb31bb70e9976eb446eecd3658afa97"}, {"rental_uris": {"android": "https://dc.lft.to/lastmile_qr_scan", "ios": "https://dc.lft.to/lastmile_qr_scan"}, "name": "c921c77be17d6a3e0424e28a7952a640", "fusion_lat": 0.0, "lon": -77.02302933333333, "is_disabled": 0, "is_reserved": 0, "fusion_lon": 0.0, "lat": 38.917193, "type": "electric_scooter", "bike_id": "c921c77be17d6a3e0424e28a7952a640"}, {"rental_uris": {"android": "https://dc.lft.to/lastmile_qr_scan", "ios": "https://dc.lft.to/lastmile_qr_scan"}, "name": "4c85ef8de25e1771d74700cf968bd7b7", "fusion_lat": 0.0, "lon": -76.99005833333334, "is_disabled": 0, "is_reserved": 0, "fusion_lon": 0.0, "lat": 38.86509866666667, "type": "electric_scooter", "bike_id": "4c85ef8de25e1771d74700cf968bd7b7"}, {"rental_uris": {"android": "https://dc.lft.to/lastmile_qr_scan", "ios": "https://dc.lft.to/lastmile_qr_scan"}, "name": "e2d3aa20797d8a2d9861009c99cbfc80", "fusion_lat": 0.0, "lon": -76.9908145, "is_disabled": 0, "is_reserved": 0, "fusion_lon": 0.0, "lat": 38.8605425, "type": "electric_scooter", "bike_id": "e2d3aa20797d8a2d9861009c99cbfc80"}, {"rental_uris": {"android": "https://dc.lft.to/lastmile_qr_scan", "ios": "https://dc.lft.to/lastmile_qr_scan"}, "name": "7379a8510d51d4386e8ed5375bbbb3e8", "fusion_lat": 0.0, "lon": -76.99940483333333, "is_disabled": 0, "is_reserved": 0, "fusion_lon": 0.0, "lat": 38.843229, "type": "electric_scooter", "bike_id": "7379a8510d51d4386e8ed5375bbbb3e8"}, {"rental_uris": {"android": "https://dc.lft.to/lastmile_qr_scan", "ios": "https://dc.lft.to/lastmile_qr_scan"}, "name": "b92a5cf03ca54d4e3b38b4f208c01ff8", "fusion_lat": 0.0, "lon": -76.98842883333333, "is_disabled": 0, "is_reserved": 0, "fusion_lon": 0.0, "lat": 38.90194266666666, "type": "electric_scooter", "bike_id": "b92a5cf03ca54d4e3b38b4f208c01ff8"}, {"rental_uris": {"android": "https://dc.lft.to/lastmile_qr_scan", "ios": "https://dc.lft.to/lastmile_qr_scan"}, "name": "94b9be057da6169110d7357b728b5816", "fusion_lat": 0.0, "lon": -77.04780866666667, "is_disabled": 0, "is_reserved": 0, "fusion_lon": 0.0, "lat": 38.912232833333334, "type": "electric_scooter", "bike_id": "94b9be057da6169110d7357b728b5816"}, {"rental_uris": {"android": "https://dc.lft.to/lastmile_qr_scan", "ios": "https://dc.lft.to/lastmile_qr_scan"}, "name": "7002915077b982486d9d3861e6ea9341", "fusion_lat": 0.0, "lon": -77.00514566666666, "is_disabled": 0, "is_reserved": 0, "fusion_lon": 0.0, "lat": 38.87472016666667, "type": "electric_scooter", "bike_id": "7002915077b982486d9d3861e6ea9341"}, {"rental_uris": {"android": "https://dc.lft.to/lastmile_qr_scan", "ios": "https://dc.lft.to/lastmile_qr_scan"}, "name": "7c4b511d4094f167bb9c29f3bcd16ba6", "fusion_lat": 0.0, "lon": -76.93743233333333, "is_disabled": 0, "is_reserved": 0, "fusion_lon": 0.0, "lat": 38.8901615, "type": "electric_scooter", "bike_id": "7c4b511d4094f167bb9c29f3bcd16ba6"}, {"rental_uris": {"android": "https://dc.lft.to/lastmile_qr_scan", "ios": "https://dc.lft.to/lastmile_qr_scan"}, "name": "1a52adb2ce055d2993b5a2d91e16e595", "fusion_lat": 0.0, "lon": -77.04704816666667, "is_disabled": 0, "is_reserved": 0, "fusion_lon": 0.0, "lat": 38.91267533333333, "type": "electric_scooter", "bike_id": "1a52adb2ce055d2993b5a2d91e16e595"}, {"rental_uris": {"android": "https://dc.lft.to/lastmile_qr_scan", "ios": "https://dc.lft.to/lastmile_qr_scan"}, "name": "4d44e10e49afb82104b570167f3f4f8a", "fusion_lat": 0.0, "lon": -77.04244933333334, "is_disabled": 0, "is_reserved": 0, "fusion_lon": 0.0, "lat": 38.917868, "type": "electric_scooter", "bike_id": "4d44e10e49afb82104b570167f3f4f8a"}, {"rental_uris": {"android": "https://dc.lft.to/lastmile_qr_scan", "ios": "https://dc.lft.to/lastmile_qr_scan"}, "name": "1b691ad97390fb2807737b02d257813f", "fusion_lat": 0.0, "lon": -76.9488675, "is_disabled": 0, "is_reserved": 0, "fusion_lon": 0.0, "lat": 38.89512883333333, "type": "electric_scooter", "bike_id": "1b691ad97390fb2807737b02d257813f"}, {"rental_uris": {"android": "https://dc.lft.to/lastmile_qr_scan", "ios": "https://dc.lft.to/lastmile_qr_scan"}, "name": "4877424150b2bef3bd5086f600694942", "fusion_lat": 0.0, "lon": -77.04182133333333, "is_disabled": 0, "is_reserved": 0, "fusion_lon": 0.0, "lat": 38.914136666666664, "type": "electric_scooter", "bike_id": "4877424150b2bef3bd5086f600694942"}, {"rental_uris": {"android": "https://dc.lft.to/lastmile_qr_scan", "ios": "https://dc.lft.to/lastmile_qr_scan"}, "name": "511637fc94b0a0c5c20c0b3cade72fd3", "fusion_lat": 0.0, "lon": -77.04240016666667, "is_disabled": 0, "is_reserved": 0, "fusion_lon": 0.0, "lat": 38.921703, "type": "electric_scooter", "bike_id": "511637fc94b0a0c5c20c0b3cade72fd3"}, {"rental_uris": {"android": "https://dc.lft.to/lastmile_qr_scan", "ios": "https://dc.lft.to/lastmile_qr_scan"}, "name": "141fec9de79cde355ff39d4fab7e8325", "fusion_lat": 0.0, "lon": -77.00335916666667, "is_disabled": 0, "is_reserved": 0, "fusion_lon": 0.0, "lat": 38.893574666666666, "type": "electric_scooter", "bike_id": "141fec9de79cde355ff39d4fab7e8325"}, {"rental_uris": {"android": "https://dc.lft.to/lastmile_qr_scan", "ios": "https://dc.lft.to/lastmile_qr_scan"}, "name": "25991b9ef91c786714686363e311baa8", "fusion_lat": 0.0, "lon": -76.995129, "is_disabled": 0, "is_reserved": 0, "fusion_lon": 0.0, "lat": 38.89551866666667, "type": "electric_scooter", "bike_id": "25991b9ef91c786714686363e311baa8"}, {"rental_uris": {"android": "https://dc.lft.to/lastmile_qr_scan", "ios": "https://dc.lft.to/lastmile_qr_scan"}, "name": "f262191a63ea1b51cf229341a873de2c", "fusion_lat": 0.0, "lon": -77.032242, "is_disabled": 0, "is_reserved": 0, "fusion_lon": 0.0, "lat": 38.91214933333333, "type": "electric_scooter", "bike_id": "f262191a63ea1b51cf229341a873de2c"}, {"rental_uris": {"android": "https://dc.lft.to/lastmile_qr_scan", "ios": "https://dc.lft.to/lastmile_qr_scan"}, "name": "29f8fa695891385428cff59605df135d", "fusion_lat": 0.0, "lon": -77.01730383333333, "is_disabled": 0, "is_reserved": 0, "fusion_lon": 0.0, "lat": 38.87702183333333, "type": "electric_scooter", "bike_id": "29f8fa695891385428cff59605df135d"}, {"rental_uris": {"android": "https://dc.lft.to/lastmile_qr_scan", "ios": "https://dc.lft.to/lastmile_qr_scan"}, "name": "05751f674d53c8c1e6b7ed7187416c30", "fusion_lat": 0.0, "lon": -77.00280983333333, "is_disabled": 0, "is_reserved": 0, "fusion_lon": 0.0, "lat": 38.939204833333335, "type": "electric_scooter", "bike_id": "05751f674d53c8c1e6b7ed7187416c30"}, {"rental_uris": {"android": "https://dc.lft.to/lastmile_qr_scan", "ios": "https://dc.lft.to/lastmile_qr_scan"}, "name": "d1993a182d563f9bc66c3cd64b35515c", "fusion_lat": 0.0, "lon": -77.028192, "is_disabled": 0, "is_reserved": 0, "fusion_lon": 0.0, "lat": 38.9027735, "type": "electric_scooter", "bike_id": "d1993a182d563f9bc66c3cd64b35515c"}, {"rental_uris": {"android": "https://dc.lft.to/lastmile_qr_scan", "ios": "https://dc.lft.to/lastmile_qr_scan"}, "name": "0a9613b2b1bf771d4937ccb41c33736b", "fusion_lat": 0.0, "lon": -77.02696233333333, "is_disabled": 0, "is_reserved": 0, "fusion_lon": 0.0, "lat": 38.90847266666667, "type": "electric_scooter", "bike_id": "0a9613b2b1bf771d4937ccb41c33736b"}, {"rental_uris": {"android": "https://dc.lft.to/lastmile_qr_scan", "ios": "https://dc.lft.to/lastmile_qr_scan"}, "name": "b637693b8daacf86e6352ce32f8595d4", "fusion_lat": 0.0, "lon": -77.01559716666667, "is_disabled": 0, "is_reserved": 0, "fusion_lon": 0.0, "lat": 38.913684333333336, "type": "electric_scooter", "bike_id": "b637693b8daacf86e6352ce32f8595d4"}, {"rental_uris": {"android": "https://dc.lft.to/lastmile_qr_scan", "ios": "https://dc.lft.to/lastmile_qr_scan"}, "name": "039ff42b63738fd80777581250bc326e", "fusion_lat": 0.0, "lon": -77.03660066666667, "is_disabled": 0, "is_reserved": 0, "fusion_lon": 0.0, "lat": 38.91731083333333, "type": "electric_scooter", "bike_id": "039ff42b63738fd80777581250bc326e"}, {"rental_uris": {"android": "https://dc.lft.to/lastmile_qr_scan", "ios": "https://dc.lft.to/lastmile_qr_scan"}, "name": "afb9d8a77258eca098356a82aaadd59e", "fusion_lat": 0.0, "lon": -77.04170383333333, "is_disabled": 0, "is_reserved": 0, "fusion_lon": 0.0, "lat": 38.907248833333334, "type": "electric_scooter", "bike_id": "afb9d8a77258eca098356a82aaadd59e"}, {"rental_uris": {"android": "https://dc.lft.to/lastmile_qr_scan", "ios": "https://dc.lft.to/lastmile_qr_scan"}, "name": "50833b40ba5c0729a17c73a71ac43f47", "fusion_lat": 0.0, "lon": -77.00756083333333, "is_disabled": 0, "is_reserved": 0, "fusion_lon": 0.0, "lat": 38.900733833333334, "type": "electric_scooter", "bike_id": "50833b40ba5c0729a17c73a71ac43f47"}, {"rental_uris": {"android": "https://dc.lft.to/lastmile_qr_scan", "ios": "https://dc.lft.to/lastmile_qr_scan"}, "name": "fd77316b383b34c27efa5eeb76b5acd4", "fusion_lat": 0.0, "lon": -77.0215615, "is_disabled": 0, "is_reserved": 0, "fusion_lon": 0.0, "lat": 38.92603966666667, "type": "electric_scooter", "bike_id": "fd77316b383b34c27efa5eeb76b5acd4"}, {"rental_uris": {"android": "https://dc.lft.to/lastmile_qr_scan", "ios": "https://dc.lft.to/lastmile_qr_scan"}, "name": "3cf1cc3d8066323fd7f9b5d6a2e889d0", "fusion_lat": 0.0, "lon": -77.02664916666667, "is_disabled": 0, "is_reserved": 0, "fusion_lon": 0.0, "lat": 38.95483683333333, "type": "electric_bike", "bike_id": "3cf1cc3d8066323fd7f9b5d6a2e889d0"}, {"rental_uris": {"android": "https://dc.lft.to/lastmile_qr_scan", "ios": "https://dc.lft.to/lastmile_qr_scan"}, "name": "1bd7929bba1d066320f168b53abf3e85", "fusion_lat": 0.0, "lon": -76.99227033333334, "is_disabled": 0, "is_reserved": 0, "fusion_lon": 0.0, "lat": 38.895126833333336, "type": "electric_scooter", "bike_id": "1bd7929bba1d066320f168b53abf3e85"}, {"rental_uris": {"android": "https://dc.lft.to/lastmile_qr_scan", "ios": "https://dc.lft.to/lastmile_qr_scan"}, "name": "ab81e233500ddf9e6da54438c79d4e22", "fusion_lat": 0.0, "lon": -77.03193166666667, "is_disabled": 0, "is_reserved": 0, "fusion_lon": 0.0, "lat": 38.88658733333333, "type": "electric_scooter", "bike_id": "ab81e233500ddf9e6da54438c79d4e22"}, {"rental_uris": {"android": "https://dc.lft.to/lastmile_qr_scan", "ios": "https://dc.lft.to/lastmile_qr_scan"}, "name": "f33d5b491bd5f4fc78d7eacd50b8b820", "fusion_lat": 0.0, "lon": -77.01045033333334, "is_disabled": 0, "is_reserved": 0, "fusion_lon": 0.0, "lat": 38.90670716666666, "type": "electric_scooter", "bike_id": "f33d5b491bd5f4fc78d7eacd50b8b820"}, {"rental_uris": {"android": "https://dc.lft.to/lastmile_qr_scan", "ios": "https://dc.lft.to/lastmile_qr_scan"}, "name": "229c609a8825b962061892d44fbe0c87", "fusion_lat": 0.0, "lon": -76.98351083333333, "is_disabled": 0, "is_reserved": 0, "fusion_lon": 0.0, "lat": 38.89518266666666, "type": "electric_bike", "bike_id": "229c609a8825b962061892d44fbe0c87"}, {"rental_uris": {"android": "https://dc.lft.to/lastmile_qr_scan", "ios": "https://dc.lft.to/lastmile_qr_scan"}, "name": "71765b3274f5bad9f6caddd190dbbe2f", "fusion_lat": 0.0, "lon": -77.04191, "is_disabled": 0, "is_reserved": 0, "fusion_lon": 0.0, "lat": 38.899816, "type": "electric_scooter", "bike_id": "71765b3274f5bad9f6caddd190dbbe2f"}, {"rental_uris": {"android": "https://dc.lft.to/lastmile_qr_scan", "ios": "https://dc.lft.to/lastmile_qr_scan"}, "name": "bf4fe973c96133c211ff5abbec9688bd", "fusion_lat": 0.0, "lon": -77.033496, "is_disabled": 0, "is_reserved": 0, "fusion_lon": 0.0, "lat": 38.892361333333334, "type": "electric_scooter", "bike_id": "bf4fe973c96133c211ff5abbec9688bd"}, {"rental_uris": {"android": "https://dc.lft.to/lastmile_qr_scan", "ios": "https://dc.lft.to/lastmile_qr_scan"}, "name": "e9ca7975cc58bd6214921c10dc673c1e", "fusion_lat": 0.0, "lon": -77.04183083333334, "is_disabled": 0, "is_reserved": 0, "fusion_lon": 0.0, "lat": 38.91411466666667, "type": "electric_scooter", "bike_id": "e9ca7975cc58bd6214921c10dc673c1e"}, {"rental_uris": {"android": "https://dc.lft.to/lastmile_qr_scan", "ios": "https://dc.lft.to/lastmile_qr_scan"}, "name": "f8f503bc7d1f266c2e849e1df70a8999", "fusion_lat": 0.0, "lon": -77.02938916666666, "is_disabled": 0, "is_reserved": 0, "fusion_lon": 0.0, "lat": 38.902515, "type": "electric_scooter", "bike_id": "f8f503bc7d1f266c2e849e1df70a8999"}, {"rental_uris": {"android": "https://dc.lft.to/lastmile_qr_scan", "ios": "https://dc.lft.to/lastmile_qr_scan"}, "name": "b20971d533ef485165de87206bbcf39c", "fusion_lat": 0.0, "lon": -77.013888, "is_disabled": 0, "is_reserved": 0, "fusion_lon": 0.0, "lat": 38.92860183333333, "type": "electric_scooter", "bike_id": "b20971d533ef485165de87206bbcf39c"}, {"rental_uris": {"android": "https://dc.lft.to/lastmile_qr_scan", "ios": "https://dc.lft.to/lastmile_qr_scan"}, "name": "b40fbeed6601f8f2e17bd01414c67f02", "fusion_lat": 0.0, "lon": -76.98333283333334, "is_disabled": 0, "is_reserved": 0, "fusion_lon": 0.0, "lat": 38.90751133333333, "type": "electric_scooter", "bike_id": "b40fbeed6601f8f2e17bd01414c67f02"}, {"rental_uris": {"android": "https://dc.lft.to/lastmile_qr_scan", "ios": "https://dc.lft.to/lastmile_qr_scan"}, "name": "aed5559463b8c26ab02793ed43ff7f58", "fusion_lat": 0.0, "lon": -77.00931033333333, "is_disabled": 0, "is_reserved": 0, "fusion_lon": 0.0, "lat": 38.91291483333333, "type": "electric_scooter", "bike_id": "aed5559463b8c26ab02793ed43ff7f58"}, {"rental_uris": {"android": "https://dc.lft.to/lastmile_qr_scan", "ios": "https://dc.lft.to/lastmile_qr_scan"}, "name": "97e805b8a865c12daaeee904bca28214", "fusion_lat": 0.0, "lon": -77.0320345, "is_disabled": 0, "is_reserved": 0, "fusion_lon": 0.0, "lat": 38.93044183333333, "type": "electric_scooter", "bike_id": "97e805b8a865c12daaeee904bca28214"}, {"rental_uris": {"android": "https://dc.lft.to/lastmile_qr_scan", "ios": "https://dc.lft.to/lastmile_qr_scan"}, "name": "9fd3a9721aea0fff3d015e2273d668e1", "fusion_lat": 0.0, "lon": -77.03842366666667, "is_disabled": 0, "is_reserved": 0, "fusion_lon": 0.0, "lat": 38.917336166666665, "type": "electric_scooter", "bike_id": "9fd3a9721aea0fff3d015e2273d668e1"}, {"rental_uris": {"android": "https://dc.lft.to/lastmile_qr_scan", "ios": "https://dc.lft.to/lastmile_qr_scan"}, "name": "689cfb53fde1c9d214189db358ba2315", "fusion_lat": 0.0, "lon": -77.01970233333333, "is_disabled": 0, "is_reserved": 0, "fusion_lon": 0.0, "lat": 38.9006525, "type": "electric_scooter", "bike_id": "689cfb53fde1c9d214189db358ba2315"}, {"rental_uris": {"android": "https://dc.lft.to/lastmile_qr_scan", "ios": "https://dc.lft.to/lastmile_qr_scan"}, "name": "fe90fa1443faaf8df9d7a2bafb400efc", "fusion_lat": 0.0, "lon": -77.07189183333334, "is_disabled": 0, "is_reserved": 0, "fusion_lon": 0.0, "lat": 38.9210655, "type": "electric_scooter", "bike_id": "fe90fa1443faaf8df9d7a2bafb400efc"}, {"rental_uris": {"android": "https://dc.lft.to/lastmile_qr_scan", "ios": "https://dc.lft.to/lastmile_qr_scan"}, "name": "435eb0e78528011e142617a9c1fa2a7f", "fusion_lat": 0.0, "lon": -76.9522375, "is_disabled": 0, "is_reserved": 0, "fusion_lon": 0.0, "lat": 38.892368166666664, "type": "electric_bike", "bike_id": "435eb0e78528011e142617a9c1fa2a7f"}, {"rental_uris": {"android": "https://dc.lft.to/lastmile_qr_scan", "ios": "https://dc.lft.to/lastmile_qr_scan"}, "name": "10099402d3357407b0362d39cc0f9dcc", "fusion_lat": 0.0, "lon": -77.02312933333333, "is_disabled": 0, "is_reserved": 0, "fusion_lon": 0.0, "lat": 38.92790083333333, "type": "electric_scooter", "bike_id": "10099402d3357407b0362d39cc0f9dcc"}, {"rental_uris": {"android": "https://dc.lft.to/lastmile_qr_scan", "ios": "https://dc.lft.to/lastmile_qr_scan"}, "name": "eeeecfc84e2896fc2c93b944ef9d1264", "fusion_lat": 0.0, "lon": -77.04281616666667, "is_disabled": 0, "is_reserved": 0, "fusion_lon": 0.0, "lat": 38.914205333333335, "type": "electric_scooter", "bike_id": "eeeecfc84e2896fc2c93b944ef9d1264"}, {"rental_uris": {"android": "https://dc.lft.to/lastmile_qr_scan", "ios": "https://dc.lft.to/lastmile_qr_scan"}, "name": "5699c42906cfc5db59dc260d8570a999", "fusion_lat": 0.0, "lon": -77.03839533333333, "is_disabled": 0, "is_reserved": 0, "fusion_lon": 0.0, "lat": 38.9099045, "type": "electric_scooter", "bike_id": "5699c42906cfc5db59dc260d8570a999"}, {"rental_uris": {"android": "https://dc.lft.to/lastmile_qr_scan", "ios": "https://dc.lft.to/lastmile_qr_scan"}, "name": "9cb2f81d09496b74e2411e4af24b48f6", "fusion_lat": 0.0, "lon": -77.00829366666666, "is_disabled": 0, "is_reserved": 0, "fusion_lon": 0.0, "lat": 38.91260366666667, "type": "electric_scooter", "bike_id": "9cb2f81d09496b74e2411e4af24b48f6"}, {"rental_uris": {"android": "https://dc.lft.to/lastmile_qr_scan", "ios": "https://dc.lft.to/lastmile_qr_scan"}, "name": "6f457065feb3dbc21e4b1d400dc0db5a", "fusion_lat": 0.0, "lon": -77.02975483333333, "is_disabled": 0, "is_reserved": 0, "fusion_lon": 0.0, "lat": 38.9274795, "type": "electric_scooter", "bike_id": "6f457065feb3dbc21e4b1d400dc0db5a"}, {"rental_uris": {"android": "https://dc.lft.to/lastmile_qr_scan", "ios": "https://dc.lft.to/lastmile_qr_scan"}, "name": "c6999c443bb1b97caeeed54b8136a1d4", "fusion_lat": 0.0, "lon": -76.889066, "is_disabled": 0, "is_reserved": 0, "fusion_lon": 0.0, "lat": 38.9259425, "type": "electric_bike", "bike_id": "c6999c443bb1b97caeeed54b8136a1d4"}, {"rental_uris": {"android": "https://dc.lft.to/lastmile_qr_scan", "ios": "https://dc.lft.to/lastmile_qr_scan"},