{"data": {"bikes": [{"lat": 38.9559825, "fusion_lat": 0.0, "type": "electric_bike", "bike_id": "2dff98217375e12cc50485349f8447b2", "rental_uris": {"ios": "https://dc.lft.to/lastmile_qr_scan", "android": "https://dc.lft.to/lastmile_qr_scan"}, "fusion_lon": 0.0, "lon": -77.0100655, "name": "2dff98217375e12cc50485349f8447b2", "is_reserved": 0, "is_disabled": 0}, {"lat": 38.91629566666667, "fusion_lat": 0.0, "type": "electric_scooter", "bike_id": "c2903e366ebbe3718c50685b5f68eff3", "rental_uris": {"ios": "https://dc.lft.to/lastmile_qr_scan", "android": "https://dc.lft.to/lastmile_qr_scan"}, "fusion_lon": 0.0, "lon": -77.0226225, "name": "c2903e366ebbe3718c50685b5f68eff3", "is_reserved": 0, "is_disabled": 0}, {"lat": 38.903681, "fusion_lat": 0.0, "type": "electric_scooter", "bike_id": "ce71dd5ae255b9884dae72e580dc716f", "rental_uris": {"ios": "https://dc.lft.to/lastmile_qr_scan", "android": "https://dc.lft.to/lastmile_qr_scan"}, "fusion_lon": 0.0, "lon": -77.0075155, "name": "ce71dd5ae255b9884dae72e580dc716f", "is_reserved": 0, "is_disabled": 0}, {"lat": 38.887709666666666, "fusion_lat": 0.0, "type": "electric_scooter", "bike_id": "52be7699aae53202b52565eb9cfce30f", "rental_uris": {"ios": "https://dc.lft.to/lastmile_qr_scan", "android": "https://dc.lft.to/lastmile_qr_scan"}, "fusion_lon": 0.0, "lon": -77.001911, "name": "52be7699aae53202b52565eb9cfce30f", "is_reserved": 0, "is_disabled": 0}, {"lat": 38.92310333333333, "fusion_lat": 0.0, "type": "electric_scooter", "bike_id": "78d8a9e157d0b24385c0e2cbf2949d4c", "rental_uris": {"ios": "https://dc.lft.to/lastmile_qr_scan", "android": "https://dc.lft.to/lastmile_qr_scan"}, "fusion_lon": 0.0, "lon": -77.03050533333334, "name": "78d8a9e157d0b24385c0e2cbf2949d4c", "is_reserved": 0, "is_disabled": 0}, {"lat": 38.89196583333333, "fusion_lat": 0.0, "type": "electric_scooter", "bike_id": "632ef0f78cf92a974b151841c5184b77", "rental_uris": {"ios": "https://dc.lft.to/lastmile_qr_scan", "android": "https://dc.lft.to/lastmile_qr_scan"}, "fusion_lon": 0.0, "lon": -77.002917, "name": "632ef0f78cf92a974b151841c5184b77", "is_reserved": 0, "is_disabled": 0}, {"lat": 38.924685333333336, "fusion_lat": 0.0, "type": "electric_scooter", "bike_id": "5ee8c9cc834c9fcb352afe26ace96c92", "rental_uris": {"ios": "https://dc.lft.to/lastmile_qr_scan", "android": "https://dc.lft.to/lastmile_qr_scan"}, "fusion_lon": 0.0, "lon": -77.02250316666667, "name": "5ee8c9cc834c9fcb352afe26ace96c92", "is_reserved": 0, "is_disabled": 0}, {"lat": 38.89826433333333, "fusion_lat": 0.0, "type": "electric_scooter", "bike_id": "3a710165d9daa82b832a5d2c6f7a218c", "rental_uris": {"ios": "https://dc.lft.to/lastmile_qr_scan", "android": "https://dc.lft.to/lastmile_qr_scan"}, "fusion_lon": 0.0, "lon": -77.03161, "name": "3a710165d9daa82b832a5d2c6f7a218c", "is_reserved": 0, "is_disabled": 0}, {"lat": 38.924529166666666, "fusion_lat": 0.0, "type": "electric_scooter", "bike_id": "4bec963f2496a489d713298c72527a9f", "rental_uris": {"ios": "https://dc.lft.to/lastmile_qr_scan", "android": "https://dc.lft.to/lastmile_qr_scan"}, "fusion_lon": 0.0, "lon": -77.04038083333333, "name": "4bec963f2496a489d713298c72527a9f", "is_reserved": 0, "is_disabled": 0}, {"lat": 38.89542316666667, "fusion_lat": 0.0, "type": "electric_scooter", "bike_id": "7faa767153c0b1dc2fc7bbd0edeb606a", "rental_uris": {"ios": "https://dc.lft.to/lastmile_qr_scan", "android": "https://dc.lft.to/lastmile_qr_scan"}, "fusion_lon": 0.0, "lon": -76.98335616666667, "name": "7faa767153c0b1dc2fc7bbd0edeb606a", "is_reserved": 0, "is_disabled": 0}, {"lat": 38.9182245, "fusion_lat": 0.0, "type": "electric_scooter", "bike_id": "885f6daeaa4fc8a179d1bc6a73701ec9", "rental_uris": {"ios": "https://dc.lft.to/lastmile_qr_scan", "android": "https://dc.lft.to/lastmile_qr_scan"}, "fusion_lon": 0.0, "lon": -77.02420033333334, "name": "885f6daeaa4fc8a179d1bc6a73701ec9", "is_reserved": 0, "is_disabled": 0}, {"lat": 38.888198833333334, "fusion_lat": 0.0, "type": "electric_scooter", "bike_id": "e63e3aa84fd39b92471abd5fb592b4dc", "rental_uris": {"ios": "https://dc.lft.to/lastmile_qr_scan", "android": "https://dc.lft.to/lastmile_qr_scan"}, "fusion_lon": 0.0, "lon": -76.977175, "name": "e63e3aa84fd39b92471abd5fb592b4dc", "is_reserved": 0, "is_disabled": 0}, {"lat": 38.912014666666664, "fusion_lat": 0.0, "type": "electric_scooter", "bike_id": "d83e3ae5c162b4f0ffe021c57d58b277", "rental_uris": {"ios": "https://dc.lft.to/lastmile_qr_scan", "android": "https://dc.lft.to/lastmile_qr_scan"}, "fusion_lon": 0.0, "lon": -77.00463066666667, "name": "d83e3ae5c162b4f0ffe021c57d58b277", "is_reserved": 0, "is_disabled": 0}, {"lat": 38.9170835, "fusion_lat": 0.0, "type": "electric_scooter", "bike_id": "e8f76450162d1b01f3053cc282206034", "rental_uris": {"ios": "https://dc.lft.to/lastmile_qr_scan", "android": "https://dc.lft.to/lastmile_qr_scan"}, "fusion_lon": 0.0, "lon": -77.0116105, "name": "e8f76450162d1b01f3053cc282206034", "is_reserved": 0, "is_disabled": 0}, {"lat": 38.92495866666667, "fusion_lat": 0.0, "type": "electric_scooter", "bike_id": "2609292e7dfe887104243e415d6c6c4d", "rental_uris": {"ios": "https://dc.lft.to/lastmile_qr_scan", "android": "https://dc.lft.to/lastmile_qr_scan"}, "fusion_lon": 0.0, "lon": -77.02268766666667, "name": "2609292e7dfe887104243e415d6c6c4d", "is_reserved": 0, "is_disabled": 0}, {"lat": 38.900269, "fusion_lat": 0.0, "type": "electric_scooter", "bike_id": "cc018151586c9ef0b679ebce57de1023", "rental_uris": {"ios": "https://dc.lft.to/lastmile_qr_scan", "android": "https://dc.lft.to/lastmile_qr_scan"}, "fusion_lon": 0.0, "lon": -76.9986405, "name": "cc018151586c9ef0b679ebce57de1023", "is_reserved": 0, "is_disabled": 0}, {"lat": 38.904637, "fusion_lat": 0.0, "type": "electric_scooter", "bike_id": "0277f8efc9cebee30a8acd60f02bf9c9", "rental_uris": {"ios": "https://dc.lft.to/lastmile_qr_scan", "android": "https://dc.lft.to/lastmile_qr_scan"}, "fusion_lon": 0.0, "lon": -77.0356255, "name": "0277f8efc9cebee30a8acd60f02bf9c9", "is_reserved": 0, "is_disabled": 0}, {"lat": 38.8944305, "fusion_lat": 0.0, "type": "electric_scooter", "bike_id": "d4208a01d9c9deaa50904d8a6c16ab2e", "rental_uris": {"ios": "https://dc.lft.to/lastmile_qr_scan", "android": "https://dc.lft.to/lastmile_qr_scan"}, "fusion_lon": 0.0, "lon": -76.978164, "name": "d4208a01d9c9deaa50904d8a6c16ab2e", "is_reserved": 0, "is_disabled": 0}, {"lat": 38.92036316666667, "fusion_lat": 0.0, "type": "electric_scooter", "bike_id": "886c52025bce01b1cc6ddc833f53fd92", "rental_uris": {"ios": "https://dc.lft.to/lastmile_qr_scan", "android": "https://dc.lft.to/lastmile_qr_scan"}, "fusion_lon": 0.0, "lon": -77.01675, "name": "886c52025bce01b1cc6ddc833f53fd92", "is_reserved": 0, "is_disabled": 0}, {"lat": 38.923433833333334, "fusion_lat": 0.0, "type": "electric_scooter", "bike_id": "0bdf51d9a9faeef320e9d419ce28f737", "rental_uris": {"ios": "https://dc.lft.to/lastmile_qr_scan", "android": "https://dc.lft.to/lastmile_qr_scan"}, "fusion_lon": 0.0, "lon": -77.05173133333334, "name": "0bdf51d9a9faeef320e9d419ce28f737", "is_reserved": 0, "is_disabled": 0}, {"lat": 38.9043655, "fusion_lat": 0.0, "type": "electric_scooter", "bike_id": "1b6c74810891c8dc052bab1076282501", "rental_uris": {"ios": "https://dc.lft.to/lastmile_qr_scan", "android": "https://dc.lft.to/lastmile_qr_scan"}, "fusion_lon": 0.0, "lon": -76.99826033333333, "name": "1b6c74810891c8dc052bab1076282501", "is_reserved": 0, "is_disabled": 0}, {"lat": 39.052552166666665, "fusion_lat": 0.0, "type": "electric_bike", "bike_id": "7d5156dd88604994b49b1337565a9963", "rental_uris": {"ios": "https://dc.lft.to/lastmile_qr_scan", "android": "https://dc.lft.to/lastmile_qr_scan"}, "fusion_lon": 0.0, "lon": -77.08063066666666, "name": "7d5156dd88604994b49b1337565a9963", "is_reserved": 0, "is_disabled": 0}, {"lat": 38.902659666666665, "fusion_lat": 0.0, "type": "electric_scooter", "bike_id": "a006c080bf898f863d7c69e6d6b71dec", "rental_uris": {"ios": "https://dc.lft.to/lastmile_qr_scan", "android": "https://dc.lft.to/lastmile_qr_scan"}, "fusion_lon": 0.0, "lon": -77.03753783333333, "name": "a006c080bf898f863d7c69e6d6b71dec", "is_reserved": 0, "is_disabled": 0}, {"lat": 38.8689395, "fusion_lat": 0.0, "type": "electric_bike", "bike_id": "cc4690b1fd2c19cdc3971076d4066b26", "rental_uris": {"ios": "https://dc.lft.to/lastmile_qr_scan", "android": "https://dc.lft.to/lastmile_qr_scan"}, "fusion_lon": 0.0, "lon": -76.98518266666666, "name": "cc4690b1fd2c19cdc3971076d4066b26", "is_reserved": 0, "is_disabled": 0}, {"lat": 38.892402833333335, "fusion_lat": 0.0, "type": "electric_scooter", "bike_id": "f43a926e1a3345cf33a9c5b5ffc57337", "rental_uris": {"ios": "https://dc.lft.to/lastmile_qr_scan", "android": "https://dc.lft.to/lastmile_qr_scan"}, "fusion_lon": 0.0, "lon": -77.0465075, "name": "f43a926e1a3345cf33a9c5b5ffc57337", "is_reserved": 0, "is_disabled": 0}, {"lat": 38.8938035, "fusion_lat": 0.0, "type": "electric_scooter", "bike_id": "8b2eabd1ddd68959f9c9b2bcc6b3bb80", "rental_uris": {"ios": "https://dc.lft.to/lastmile_qr_scan", "android": "https://dc.lft.to/lastmile_qr_scan"}, "fusion_lon": 0.0, "lon": -76.92304233333333, "name": "8b2eabd1ddd68959f9c9b2bcc6b3bb80", "is_reserved": 0, "is_disabled": 0}, {"lat": 38.89620166666667, "fusion_lat": 0.0, "type": "electric_scooter", "bike_id": "d610db6b1d628fc23e0faa7eca3a21c2", "rental_uris": {"ios": "https://dc.lft.to/lastmile_qr_scan", "android": "https://dc.lft.to/lastmile_qr_scan"}, "fusion_lon": 0.0, "lon": -77.02397033333334, "name": "d610db6b1d628fc23e0faa7eca3a21c2", "is_reserved": 0, "is_disabled": 0}, {"lat": 38.95005, "fusion_lat": 0.0, "type": "electric_scooter", "bike_id": "bb472e59c1004fb8bdd4b4f956a92133", "rental_uris": {"ios": "https://dc.lft.to/lastmile_qr_scan", "android": "https://dc.lft.to/lastmile_qr_scan"}, "fusion_lon": 0.0, "lon": -77.0803815, "name": "bb472e59c1004fb8bdd4b4f956a92133", "is_reserved": 0, "is_disabled": 0}, {"lat": 38.905113666666665, "fusion_lat": 0.0, "type": "electric_scooter", "bike_id": "9d0bb48ab73fb4ee5dac51b766faaaca", "rental_uris": {"ios": "https://dc.lft.to/lastmile_qr_scan", "android": "https://dc.lft.to/lastmile_qr_scan"}, "fusion_lon": 0.0, "lon": -77.04825766666667, "name": "9d0bb48ab73fb4ee5dac51b766faaaca", "is_reserved": 0, "is_disabled": 0}, {"lat": 38.847577333333334, "fusion_lat": 0.0, "type": "electric_scooter", "bike_id": "83cf2fb2e729a0a37730dd0e261cd204", "rental_uris": {"ios": "https://dc.lft.to/lastmile_qr_scan", "android": "https://dc.lft.to/lastmile_qr_scan"}, "fusion_lon": 0.0, "lon": -76.99498716666666, "name": "83cf2fb2e729a0a37730dd0e261cd204", "is_reserved": 0, "is_disabled": 0}, {"lat": 38.9943655, "fusion_lat": 0.0, "type": "electric_bike", "bike_id": "6e5b6a1b937dfde9f8e095d6d4b4b17a", "rental_uris": {"ios": "https://dc.lft.to/lastmile_qr_scan", "android": "https://dc.lft.to/lastmile_qr_scan"}, "fusion_lon": 0.0, "lon": -77.02654633333333, "name": "6e5b6a1b937dfde9f8e095d6d4b4b17a", "is_reserved": 0, "is_disabled": 0}, {"lat": 38.90776066666667, "fusion_lat": 0.0, "type": "electric_scooter", "bike_id": "9b3b7254943422848fe1d47d0b50e311", "rental_uris": {"ios": "https://dc.lft.to/lastmile_qr_scan", "android": "https://dc.lft.to/lastmile_qr_scan"}, "fusion_lon": 0.0, "lon": -77.07165933333333, "name": "9b3b7254943422848fe1d47d0b50e311", "is_reserved": 0, "is_disabled": 0}, {"lat": 38.87888016666667, "fusion_lat": 0.0, "type": "electric_scooter", "bike_id": "8a82f37c98aa0d8e87a2d7407ef4400b", "rental_uris": {"ios": "https://dc.lft.to/lastmile_qr_scan", "android": "https://dc.lft.to/lastmile_qr_scan"}, "fusion_lon": 0.0, "lon": -77.023, "name": "8a82f37c98aa0d8e87a2d7407ef4400b", "is_reserved": 0, "is_disabled": 0}, {"lat": 38.9156895, "fusion_lat": 0.0, "type": "electric_scooter", "bike_id": "5b347978c21107c19e34a799732f4432", "rental_uris": {"ios": "https://dc.lft.to/lastmile_qr_scan", "android": "https://dc.lft.to/lastmile_qr_scan"}, "fusion_lon": 0.0, "lon": -77.019076, "name": "5b347978c21107c19e34a799732f4432", "is_reserved": 0, "is_disabled": 0}, {"lat": 38.89982116666667, "fusion_lat": 0.0, "type": "electric_scooter", "bike_id": "ca277c42842d989a911c06f26500bbee", "rental_uris": {"ios": "https://dc.lft.to/lastmile_qr_scan", "android": "https://dc.lft.to/lastmile_qr_scan"}, "fusion_lon": 0.0, "lon": -76.98545483333334, "name": "ca277c42842d989a911c06f26500bbee", "is_reserved": 0, "is_disabled": 0}, {"lat": 38.9222445, "fusion_lat": 0.0, "type": "electric_scooter", "bike_id": "8720d83da74af53b6d79447e66e8b252", "rental_uris": {"ios": "https://dc.lft.to/lastmile_qr_scan", "android": "https://dc.lft.to/lastmile_qr_scan"}, "fusion_lon": 0.0, "lon": -77.0211585, "name": "8720d83da74af53b6d79447e66e8b252", "is_reserved": 0, "is_disabled": 0}, {"lat": 38.90799166666667, "fusion_lat": 0.0, "type": "electric_scooter", "bike_id": "a20bb4bd884b89b878b35d1d79f26d8a", "rental_uris": {"ios": "https://dc.lft.to/lastmile_qr_scan", "android": "https://dc.lft.to/lastmile_qr_scan"}, "fusion_lon": 0.0, "lon": -77.04237416666666, "name": "a20bb4bd884b89b878b35d1d79f26d8a", "is_reserved": 0, "is_disabled": 0}, {"lat": 38.90478983333333, "fusion_lat": 0.0, "type": "electric_scooter", "bike_id": "7f27c39c22a9c699c374fe857cf5e9fa", "rental_uris": {"ios": "https://dc.lft.to/lastmile_qr_scan", "android": "https://dc.lft.to/lastmile_qr_scan"}, "fusion_lon": 0.0, "lon": -77.02819033333333, "name": "7f27c39c22a9c699c374fe857cf5e9fa", "is_reserved": 0, "is_disabled": 0}, {"lat": 38.88762233333333, "fusion_lat": 0.0, "type": "electric_scooter", "bike_id": "24a9f0bc08d83c0c8ca1afd233039a48", "rental_uris": {"ios": "https://dc.lft.to/lastmile_qr_scan", "android": "https://dc.lft.to/lastmile_qr_scan"}, "fusion_lon": 0.0, "lon": -76.98298066666666, "name": "24a9f0bc08d83c0c8ca1afd233039a48", "is_reserved": 0, "is_disabled": 0}, {"lat": 38.9203505, "fusion_lat": 0.0, "type": "electric_scooter", "bike_id": "fbc740678afabdb2aa38bab514f5f633", "rental_uris": {"ios": "https://dc.lft.to/lastmile_qr_scan", "android": "https://dc.lft.to/lastmile_qr_scan"}, "fusion_lon": 0.0, "lon": -77.01217533333333, "name": "fbc740678afabdb2aa38bab514f5f633", "is_reserved": 0, "is_disabled": 0}, {"lat": 38.93222683333333, "fusion_lat": 0.0, "type": "electric_scooter", "bike_id": "35e9b184604e3069203d77e0e3e8386e", "rental_uris": {"ios": "https://dc.lft.to/lastmile_qr_scan", "android": "https://dc.lft.to/lastmile_qr_scan"}, "fusion_lon": 0.0, "lon": -77.0352025, "name": "35e9b184604e3069203d77e0e3e8386e", "is_reserved": 0, "is_disabled": 0}, {"lat": 38.915933333333335, "fusion_lat": 0.0, "type": "electric_scooter", "bike_id": "b5c2f3fe01844635b6c1f96be03f42c3", "rental_uris": {"ios": "https://dc.lft.to/lastmile_qr_scan", "android": "https://dc.lft.to/lastmile_qr_scan"}, "fusion_lon": 0.0, "lon": -77.0147805, "name": "b5c2f3fe01844635b6c1f96be03f42c3", "is_reserved": 0, "is_disabled": 0}, {"lat": 38.89744016666667, "fusion_lat": 0.0, "type": "electric_scooter", "bike_id": "4bffba2bd0040a6de5640b709a047c94", "rental_uris": {"ios": "https://dc.lft.to/lastmile_qr_scan", "android": "https://dc.lft.to/lastmile_qr_scan"}, "fusion_lon": 0.0, "lon": -77.012713, "name": "4bffba2bd0040a6de5640b709a047c94", "is_reserved": 0, "is_disabled": 0}, {"lat": 38.907498, "fusion_lat": 0.0, "type": "electric_scooter", "bike_id": "6b1471e0fe86d9be0831a81284e7c839", "rental_uris": {"ios": "https://dc.lft.to/lastmile_qr_scan", "android": "https://dc.lft.to/lastmile_qr_scan"}, "fusion_lon": 0.0, "lon": -77.03580816666667, "name": "6b1471e0fe86d9be0831a81284e7c839", "is_reserved": 0, "is_disabled": 0}, {"lat": 38.90152, "fusion_lat": 0.0, "type": "electric_scooter", "bike_id": "554479b8314b973c49d1ac8d8c682d03", "rental_uris": {"ios": "https://dc.lft.to/lastmile_qr_scan", "android": "https://dc.lft.to/lastmile_qr_scan"}, "fusion_lon": 0.0, "lon": -76.97423633333334, "name": "554479b8314b973c49d1ac8d8c682d03", "is_reserved": 0, "is_disabled": 0}, {"lat": 38.9198915, "fusion_lat": 0.0, "type": "electric_scooter", "bike_id": "0f336dadd5d7a0f50a2416d7a9f97670", "rental_uris": {"ios": "https://dc.lft.to/lastmile_qr_scan", "android": "https://dc.lft.to/lastmile_qr_scan"}, "fusion_lon": 0.0, "lon": -76.97303916666667, "name": "0f336dadd5d7a0f50a2416d7a9f97670", "is_reserved": 0, "is_disabled": 0}, {"lat": 38.897961333333335, "fusion_lat": 0.0, "type": "electric_scooter", "bike_id": "c784be0d75b3ac3c57e2e543798be050", "rental_uris": {"ios": "https://dc.lft.to/lastmile_qr_scan", "android": "https://dc.lft.to/lastmile_qr_scan"}, "fusion_lon": 0.0, "lon": -77.041866, "name": "c784be0d75b3ac3c57e2e543798be050", "is_reserved": 0, "is_disabled": 0}, {"lat": 38.90396, "fusion_lat": 0.0, "type": "electric_scooter", "bike_id": "3f00988ef957fabdb211d5c5cc8376b6", "rental_uris": {"ios": "https://dc.lft.to/lastmile_qr_scan", "android": "https://dc.lft.to/lastmile_qr_scan"}, "fusion_lon": 0.0, "lon": -77.06809083333333, "name": "3f00988ef957fabdb211d5c5cc8376b6", "is_reserved": 0, "is_disabled": 0}, {"lat": 38.92253683333333, "fusion_lat": 0.0, "type": "electric_scooter", "bike_id": "24b1c327fac2f17b21f25c8a99804598", "rental_uris": {"ios": "https://dc.lft.to/lastmile_qr_scan", "android": "https://dc.lft.to/lastmile_qr_scan"}, "fusion_lon": 0.0, "lon": -77.01912133333333, "name": "24b1c327fac2f17b21f25c8a99804598", "is_reserved": 0, "is_disabled": 0}, {"lat": 38.924435833333334, "fusion_lat": 0.0, "type": "electric_scooter", "bike_id": "eff6ee2e3775e438e220277eab906043", "rental_uris": {"ios": "https://dc.lft.to/lastmile_qr_scan", "android": "https://dc.lft.to/lastmile_qr_scan"}, "fusion_lon": 0.0, "lon": -77.02145516666667, "name": "eff6ee2e3775e438e220277eab906043", "is_reserved": 0, "is_disabled": 0}, {"lat": 38.919221, "fusion_lat": 0.0, "type": "electric_scooter", "bike_id": "63e1eed730082e2771bad75958752572", "rental_uris": {"ios": "https://dc.lft.to/lastmile_qr_scan", "android": "https://dc.lft.to/lastmile_qr_scan"}, "fusion_lon": 0.0, "lon": -77.0342305, "name": "63e1eed730082e2771bad75958752572", "is_reserved": 0, "is_disabled": 0}, {"lat": 38.900386, "fusion_lat": 0.0, "type": "electric_scooter", "bike_id": "7b6ed9897562cb8cb599a2d9437e20f5", "rental_uris": {"ios": "https://dc.lft.to/lastmile_qr_scan", "android": "https://dc.lft.to/lastmile_qr_scan"}, "fusion_lon": 0.0, "lon": -76.988396, "name": "7b6ed9897562cb8cb599a2d9437e20f5", "is_reserved": 0, "is_disabled": 0}, {"lat": 38.9202755, "fusion_lat": 0.0, "type": "electric_scooter", "bike_id": "be3dfe123881b1848afbb4bd6d54b07b", "rental_uris": {"ios": "https://dc.lft.to/lastmile_qr_scan", "android": "https://dc.lft.to/lastmile_qr_scan"}, "fusion_lon": 0.0, "lon": -77.0714525, "name": "be3dfe123881b1848afbb4bd6d54b07b", "is_reserved": 0, "is_disabled": 0}, {"lat": 38.916563, "fusion_lat": 0.0, "type": "electric_scooter", "bike_id": "c798456efd06eb8ebb9adb1701b4a6d5", "rental_uris": {"ios": "https://dc.lft.to/lastmile_qr_scan", "android": "https://dc.lft.to/lastmile_qr_scan"}, "fusion_lon": 0.0, "lon": -77.041725, "name": "c798456efd06eb8ebb9adb1701b4a6d5", "is_reserved": 0, "is_disabled": 0}, {"lat": 38.89219466666667, "fusion_lat": 0.0, "type": "electric_scooter", "bike_id": "b3faa0ba641d6f85cedb8ddb7bf15e2f", "rental_uris": {"ios": "https://dc.lft.to/lastmile_qr_scan", "android": "https://dc.lft.to/lastmile_qr_scan"}, "fusion_lon": 0.0, "lon": -77.02628583333333, "name": "b3faa0ba641d6f85cedb8ddb7bf15e2f", "is_reserved": 0, "is_disabled": 0}, {"lat": 38.915585666666665, "fusion_lat": 0.0, "type": "electric_scooter", "bike_id": "46799f87615e37c861ba20e2f7642ea7", "rental_uris": {"ios": "https://dc.lft.to/lastmile_qr_scan", "android": "https://dc.lft.to/lastmile_qr_scan"}, "fusion_lon": 0.0, "lon": -77.03200783333334, "name": "46799f87615e37c861ba20e2f7642ea7", "is_reserved": 0, "is_disabled": 0}, {"lat": 38.924957, "fusion_lat": 0.0, "type": "electric_scooter", "bike_id": "fe04b5a850cd17f82350cdacc806f010", "rental_uris": {"ios": "https://dc.lft.to/lastmile_qr_scan", "android": "https://dc.lft.to/lastmile_qr_scan"}, "fusion_lon": 0.0, "lon": -77.0240185, "name": "fe04b5a850cd17f82350cdacc806f010", "is_reserved": 0, "is_disabled": 0}, {"lat": 38.92261516666667, "fusion_lat": 0.0, "type": "electric_scooter", "bike_id": "aad6db11d2baa3fbdb99e2ca7ae6ae03", "rental_uris": {"ios": "https://dc.lft.to/lastmile_qr_scan", "android": "https://dc.lft.to/lastmile_qr_scan"}, "fusion_lon": 0.0, "lon": -77.021039, "name": "aad6db11d2baa3fbdb99e2ca7ae6ae03", "is_reserved": 0, "is_disabled": 0}, {"lat": 38.877108166666666, "fusion_lat": 0.0, "type": "electric_scooter", "bike_id": "323f2f559c4eeca4131a57ec1ffbc8cd", "rental_uris": {"ios": "https://dc.lft.to/lastmile_qr_scan", "android": "https://dc.lft.to/lastmile_qr_scan"}, "fusion_lon": 0.0, "lon": -76.99694616666666, "name": "323f2f559c4eeca4131a57ec1ffbc8cd", "is_reserved": 0, "is_disabled": 0}, {"lat": 38.887685833333336, "fusion_lat": 0.0, "type": "electric_scooter", "bike_id": "1c477755fba321464ae8fa63a6abee45", "rental_uris": {"ios": "https://dc.lft.to/lastmile_qr_scan", "android": "https://dc.lft.to/lastmile_qr_scan"}, "fusion_lon": 0.0, "lon": -77.02237066666666, "name": "1c477755fba321464ae8fa63a6abee45", "is_reserved": 0, "is_disabled": 0}, {"lat": 38.89604516666667, "fusion_lat": 0.0, "type": "electric_scooter", "bike_id": "6569009fa8a3bfc0021f798a0d930ce5", "rental_uris": {"ios": "https://dc.lft.to/lastmile_qr_scan", "android": "https://dc.lft.to/lastmile_qr_scan"}, "fusion_lon": 0.0, "lon": -77.0021535, "name": "6569009fa8a3bfc0021f798a0d930ce5", "is_reserved": 0, "is_disabled": 0}, {"lat": 38.87221266666667, "fusion_lat": 0.0, "type": "electric_scooter", "bike_id": "3bc9d63bb08708f6327352df511e6065", "rental_uris": {"ios": "https://dc.lft.to/lastmile_qr_scan", "android": "https://dc.lft.to/lastmile_qr_scan"}, "fusion_lon": 0.0, "lon": -77.01215333333333, "name": "3bc9d63bb08708f6327352df511e6065", "is_reserved": 0, "is_disabled": 0}, {"lat": 38.9508625, "fusion_lat": 0.0, "type": "electric_scooter", "bike_id": "867304ebff5ea54f7c27fc8a68ee081e", "rental_uris": {"ios": "https://dc.lft.to/lastmile_qr_scan", "android": "https://dc.lft.to/lastmile_qr_scan"}, "fusion_lon": 0.0, "lon": -77.03158883333333, "name": "867304ebff5ea54f7c27fc8a68ee081e", "is_reserved": 0, "is_disabled": 0}, {"lat": 38.920519, "fusion_lat": 0.0, "type": "electric_scooter", "bike_id": "9e1b5e614b5336cf5cf721c7fc242847", "rental_uris": {"ios": "https://dc.lft.to/lastmile_qr_scan", "android": "https://dc.lft.to/lastmile_qr_scan"}, "fusion_lon": 0.0, "lon": -77.01706583333333, "name": "9e1b5e614b5336cf5cf721c7fc242847", "is_reserved": 0, "is_disabled": 0}, {"lat": 38.921170000000004, "fusion_lat": 0.0, "type": "electric_scooter", "bike_id": "4fc7b2ae7fdd4c21261adcb2d16d7dd8", "rental_uris": {"ios": "https://dc.lft.to/lastmile_qr_scan", "android": "https://dc.lft.to/lastmile_qr_scan"}, "fusion_lon": 0.0, "lon": -77.03663383333334, "name": "4fc7b2ae7fdd4c21261adcb2d16d7dd8", "is_reserved": 0, "is_disabled": 0}, {"lat": 38.90061683333333, "fusion_lat": 0.0, "type": "electric_scooter", "bike_id": "5c412dcf8096472e306e9670298374e1", "rental_uris": {"ios": "https://dc.lft.to/lastmile_qr_scan", "android": "https://dc.lft.to/lastmile_qr_scan"}, "fusion_lon": 0.0, "lon": -77.0452885, "name": "5c412dcf8096472e306e9670298374e1", "is_reserved": 0, "is_disabled": 0}, {"lat": 38.916116833333334, "fusion_lat": 0.0, "type": "electric_scooter", "bike_id": "c29b9ec6f01f34919d27cd2328e34d00", "rental_uris": {"ios": "https://dc.lft.to/lastmile_qr_scan", "android": "https://dc.lft.to/lastmile_qr_scan"}, "fusion_lon": 0.0, "lon": -77.01153216666667, "name": "c29b9ec6f01f34919d27cd2328e34d00", "is_reserved": 0, "is_disabled": 0}, {"lat": 38.92091116666667, "fusion_lat": 0.0, "type": "electric_scooter", "bike_id": "648405733d30dade8606909ab1e82821", "rental_uris": {"ios": "https://dc.lft.to/lastmile_qr_scan", "android": "https://dc.lft.to/lastmile_qr_scan"}, "fusion_lon": 0.0, "lon": -77.02516516666667, "name": "648405733d30dade8606909ab1e82821", "is_reserved": 0, "is_disabled": 0}, {"lat": 38.87654666666667, "fusion_lat": 0.0, "type": "electric_scooter", "bike_id": "724395885c1f229bec9af45697b2f89c", "rental_uris": {"ios": "https://dc.lft.to/lastmile_qr_scan", "android": "https://dc.lft.to/lastmile_qr_scan"}, "fusion_lon": 0.0, "lon": -76.9945785, "name": "724395885c1f229bec9af45697b2f89c", "is_reserved": 0, "is_disabled": 0}, {"lat": 38.89820666666667, "fusion_lat": 0.0, "type": "electric_scooter", "bike_id": "d3278bda53dcc05063d559f880db0ebb", "rental_uris": {"ios": "https://dc.lft.to/lastmile_qr_scan", "android": "https://dc.lft.to/lastmile_qr_scan"}, "fusion_lon": 0.0, "lon": -77.03053183333333, "name": "d3278bda53dcc05063d559f880db0ebb", "is_reserved": 0, "is_disabled": 0}, {"lat": 38.92331933333333, "fusion_lat": 0.0, "type": "electric_scooter", "bike_id": "20f3235706b0ad0b04e52c35d4f92328", "rental_uris": {"ios": "https://dc.lft.to/lastmile_qr_scan", "android": "https://dc.lft.to/lastmile_qr_scan"}, "fusion_lon": 0.0, "lon": -77.02282966666667, "name": "20f3235706b0ad0b04e52c35d4f92328", "is_reserved": 0, "is_disabled": 0}, {"lat": 38.92637383333334, "fusion_lat": 0.0, "type": "electric_scooter", "bike_id": "234f647e2bd9027991ca0abe6ea8cbfa", "rental_uris": {"ios": "https://dc.lft.to/lastmile_qr_scan", "android": "https://dc.lft.to/lastmile_qr_scan"}, "fusion_lon": 0.0, "lon": -77.03396883333333, "name": "234f647e2bd9027991ca0abe6ea8cbfa", "is_reserved": 0, "is_disabled": 0}, {"lat": 38.920629166666664, "fusion_lat": 0.0, "type": "electric_scooter", "bike_id": "4d0b22e278f321eff96722f0f27c0741", "rental_uris": {"ios": "https://dc.lft.to/lastmile_qr_scan", "android": "https://dc.lft.to/lastmile_qr_scan"}, "fusion_lon": 0.0, "lon": -77.04220583333333, "name": "4d0b22e278f321eff96722f0f27c0741", "is_reserved": 0, "is_disabled": 0}, {"lat": 38.89771916666667, "fusion_lat": 0.0, "type": "electric_scooter", "bike_id": "7edfc16fad55530bccf53a1f02465f70", "rental_uris": {"ios": "https://dc.lft.to/lastmile_qr_scan", "android": "https://dc.lft.to/lastmile_qr_scan"}, "fusion_lon": 0.0, "lon": -76.984609, "name": "7edfc16fad55530bccf53a1f02465f70", "is_reserved": 0, "is_disabled": 0}, {"lat": 39.039032, "fusion_lat": 0.0, "type": "electric_bike", "bike_id": "d95cc1cf559308fa9021092521ac71e2", "rental_uris": {"ios": "https://dc.lft.to/lastmile_qr_scan", "android": "https://dc.lft.to/lastmile_qr_scan"}, "fusion_lon": 0.0, "lon": -77.05036333333334, "name": "d95cc1cf559308fa9021092521ac71e2", "is_reserved": 0, "is_disabled": 0}, {"lat": 38.884128, "fusion_lat": 0.0, "type": "electric_scooter", "bike_id": "f38b146c623a115af559fa9fb23176d7", "rental_uris": {"ios": "https://dc.lft.to/lastmile_qr_scan", "android": "https://dc.lft.to/lastmile_qr_scan"}, "fusion_lon": 0.0, "lon": -77.01753883333333, "name": "f38b146c623a115af559fa9fb23176d7", "is_reserved": 0, "is_disabled": 0}, {"lat": 38.860635, "fusion_lat": 0.0, "type": "electric_scooter", "bike_id": "d13f022cfaafcd75f17d05ca963befdd", "rental_uris": {"ios": "https://dc.lft.to/lastmile_qr_scan", "android": "https://dc.lft.to/lastmile_qr_scan"}, "fusion_lon": 0.0, "lon": -76.96713966666667, "name": "d13f022cfaafcd75f17d05ca963befdd", "is_reserved": 0, "is_disabled": 0}, {"lat": 38.877636333333335, "fusion_lat": 0.0, "type": "electric_scooter", "bike_id": "ffc38b3fa9cb50c4e23851ac4487d911", "rental_uris": {"ios": "https://dc.lft.to/lastmile_qr_scan", "android": "https://dc.lft.to/lastmile_qr_scan"}, "fusion_lon": 0.0, "lon": -77.017589, "name": "ffc38b3fa9cb50c4e23851ac4487d911", "is_reserved": 0, "is_disabled": 0}, {"lat": 38.91067833333334, "fusion_lat": 0.0, "type": "electric_scooter", "bike_id": "6e5adb5a55d6b52daaa2dc3fd2c12b59", "rental_uris": {"ios": "https://dc.lft.to/lastmile_qr_scan", "android": "https://dc.lft.to/lastmile_qr_scan"}, "fusion_lon": 0.0, "lon": -77.044796, "name": "6e5adb5a55d6b52daaa2dc3fd2c12b59", "is_reserved": 0, "is_disabled": 0}, {"lat": 38.85925566666667, "fusion_lat": 0.0, "type": "electric_scooter", "bike_id": "c6305fd3dbbdeec9ed5f128d975f1362", "rental_uris": {"ios": "https://dc.lft.to/lastmile_qr_scan", "android": "https://dc.lft.to/lastmile_qr_scan"}, "fusion_lon": 0.0, "lon": -76.98973666666667, "name": "c6305fd3dbbdeec9ed5f128d975f1362", "is_reserved": 0, "is_disabled": 0}, {"lat": 38.90667, "fusion_lat": 0.0, "type": "electric_scooter", "bike_id": "eb1b2eab3b1acfd83527e2463241ad83", "rental_uris": {"ios": "https://dc.lft.to/lastmile_qr_scan", "android": "https://dc.lft.to/lastmile_qr_scan"}, "fusion_lon": 0.0, "lon": -77.05021383333333, "name": "eb1b2eab3b1acfd83527e2463241ad83", "is_reserved": 0, "is_disabled": 0}, {"lat": 38.9241645, "fusion_lat": 0.0, "type": "electric_scooter", "bike_id": "dd5c9117a801be9741bae2e6844c1ba8", "rental_uris": {"ios": "https://dc.lft.to/lastmile_qr_scan", "android": "https://dc.lft.to/lastmile_qr_scan"}, "fusion_lon": 0.0, "lon": -77.02128466666667, "name": "dd5c9117a801be9741bae2e6844c1ba8", "is_reserved": 0, "is_disabled": 0}, {"lat": 38.905748, "fusion_lat": 0.0, "type": "electric_scooter", "bike_id": "361f56f6d40b40fcb6390f406819642a", "rental_uris": {"ios": "https://dc.lft.to/lastmile_qr_scan", "android": "https://dc.lft.to/lastmile_qr_scan"}, "fusion_lon": 0.0, "lon": -77.0487885, "name": "361f56f6d40b40fcb6390f406819642a", "is_reserved": 0, "is_disabled": 0}, {"lat": 38.903068166666664, "fusion_lat": 0.0, "type": "electric_scooter", "bike_id": "6ff0fa21ac705befa24200b19fe8e576", "rental_uris": {"ios": "https://dc.lft.to/lastmile_qr_scan", "android": "https://dc.lft.to/lastmile_qr_scan"}, "fusion_lon": 0.0, "lon": -77.06106816666667, "name": "6ff0fa21ac705befa24200b19fe8e576", "is_reserved": 0, "is_disabled": 0}, {"lat": 38.873970166666666, "fusion_lat": 0.0, "type": "electric_scooter", "bike_id": "3b424ca8dc0ff91dd860e0ddb8fcc31d", "rental_uris": {"ios": "https://dc.lft.to/lastmile_qr_scan", "android": "https://dc.lft.to/lastmile_qr_scan"}, "fusion_lon": 0.0, "lon": -77.0002765, "name": "3b424ca8dc0ff91dd860e0ddb8fcc31d", "is_reserved": 0, "is_disabled": 0}, {"lat": 38.92492566666667, "fusion_lat": 0.0, "type": "electric_scooter", "bike_id": "5303bf8bde0cf2c0e2706d10ca104dce", "rental_uris": {"ios": "https://dc.lft.to/lastmile_qr_scan", "android": "https://dc.lft.to/lastmile_qr_scan"}, "fusion_lon": 0.0, "lon": -77.02442083333334, "name": "5303bf8bde0cf2c0e2706d10ca104dce", "is_reserved": 0, "is_disabled": 0}, {"lat": 38.915687, "fusion_lat": 0.0, "type": "electric_scooter", "bike_id": "93aea0f38bacc0fdb32909454582b94a", "rental_uris": {"ios": "https://dc.lft.to/lastmile_qr_scan", "android": "https://dc.lft.to/lastmile_qr_scan"}, "fusion_lon": 0.0, "lon": -77.02187566666667, "name": "93aea0f38bacc0fdb32909454582b94a", "is_reserved": 0, "is_disabled": 0}, {"lat": 38.88695883333333, "fusion_lat": 0.0, "type": "electric_bike", "bike_id": "ba0fb9fab20e284dcca8863fead4ade4", "rental_uris": {"ios": "https://dc.lft.to/lastmile_qr_scan", "android": "https://dc.lft.to/lastmile_qr_scan"}, "fusion_lon": 0.0, "lon": -77.08678733333333, "name": "ba0fb9fab20e284dcca8863fead4ade4", "is_reserved": 0, "is_disabled": 0}, {"lat": 38.898005166666664, "fusion_lat": 0.0, "type": "electric_bike", "bike_id": "9043209e4ac821f91e24c9bf61f8d05a", "rental_uris": {"ios": "https://dc.lft.to/lastmile_qr_scan", "android": "https://dc.lft.to/lastmile_qr_scan"}, "fusion_lon": 0.0, "lon": -77.00604583333333, "name": "9043209e4ac821f91e24c9bf61f8d05a", "is_reserved": 0, "is_disabled": 0}, {"lat": 38.91978233333333, "fusion_lat": 0.0, "type": "electric_scooter", "bike_id": "bd241c7cf5385b00b85b448dcb7067c3", "rental_uris": {"ios": "https://dc.lft.to/lastmile_qr_scan", "android": "https://dc.lft.to/lastmile_qr_scan"}, "fusion_lon": 0.0, "lon": -77.04175316666667, "name": "bd241c7cf5385b00b85b448dcb7067c3", "is_reserved": 0, "is_disabled": 0}, {"lat": 38.95763433333333, "fusion_lat": 0.0, "type": "electric_scooter", "bike_id": "72e613512945184e8e13898ccc1c150e", "rental_uris": {"ios": "https://dc.lft.to/lastmile_qr_scan", "android": "https://dc.lft.to/lastmile_qr_scan"}, "fusion_lon": 0.0, "lon": -77.01496216666666, "name": "72e613512945184e8e13898ccc1c150e", "is_reserved": 0, "is_disabled": 0}, {"lat": 38.917473333333334, "fusion_lat": 0.0, "type": "electric_scooter", "bike_id": "28e8ab6e3a50b4c006eebca3e87e5cf0", "rental_uris": {"ios": "https://dc.lft.to/lastmile_qr_scan", "android": "https://dc.lft.to/lastmile_qr_scan"}, "fusion_lon": 0.0, "lon": -77.06934933333334, "name": "28e8ab6e3a50b4c006eebca3e87e5cf0", "is_reserved": 0, "is_disabled": 0}, {"lat": 38.92342983333333, "fusion_lat": 0.0, "type": "electric_scooter", "bike_id": "451e2fa60d4f428fea59eaa91bf50df6", "rental_uris": {"ios": "https://dc.lft.to/lastmile_qr_scan", "android": "https://dc.lft.to/lastmile_qr_scan"}, "fusion_lon": 0.0, "lon": -77.00912266666667, "name": "451e2fa60d4f428fea59eaa91bf50df6", "is_reserved": 0, "is_disabled": 0}, {"lat": 38.91573983333333, "fusion_lat": 0.0, "type": "electric_scooter", "bike_id": "142652bd748f731f6afb457904d063c8", "rental_uris": {"ios": "https://dc.lft.to/lastmile_qr_scan", "android": "https://dc.lft.to/lastmile_qr_scan"}, "fusion_lon": 0.0, "lon": -77.02188633333333, "name": "142652bd748f731f6afb457904d063c8", "is_reserved": 0, "is_disabled": 0}, {"lat": 38.884824333333334, "fusion_lat": 0.0, "type": "electric_scooter", "bike_id": "a9991ad7eedb12342b3502e306bd9443", "rental_uris": {"ios": "https://dc.lft.to/lastmile_qr_scan", "android": "https://dc.lft.to/lastmile_qr_scan"}, "fusion_lon": 0.0, "lon": -76.9970395, "name": "a9991ad7eedb12342b3502e306bd9443", "is_reserved": 0, "is_disabled": 0}, {"lat": 38.91758083333333, "fusion_lat": 0.0, "type": "electric_scooter", "bike_id": "77de76afc2870c2f06cce953eb1c070f", "rental_uris": {"ios": "https://dc.lft.to/lastmile_qr_scan", "android": "https://dc.lft.to/lastmile_qr_scan"}, "fusion_lon": 0.0, "lon": -77.03215766666666, "name": "77de76afc2870c2f06cce953eb1c070f", "is_reserved": 0, "is_disabled": 0}, {"lat": 38.907269166666666, "fusion_lat": 0.0, "type": "electric_scooter", "bike_id": "b53587b2cb9011805deaa04866f7fe29", "rental_uris": {"ios": "https://dc.lft.to/lastmile_qr_scan", "android": "https://dc.lft.to/lastmile_qr_scan"}, "fusion_lon": 0.0, "lon": -77.04339466666667, "name": "b53587b2cb9011805deaa04866f7fe29", "is_reserved": 0, "is_disabled": 0}, {"lat": 38.90163666666667, "fusion_lat": 0.0, "type": "electric_scooter", "bike_id": "25d57d71c94c0a52d6185c8c81bc8eb1", "rental_uris": {"ios": "https://dc.lft.to/lastmile_qr_scan", "android": "https://dc.lft.to/lastmile_qr_scan"}, "fusion_lon": 0.0, "lon": -77.04652583333333, "name": "25d57d71c94c0a52d6185c8c81bc8eb1", "is_reserved": 0, "is_disabled": 0}, {"lat": 38.90026, "fusion_lat": 0.0, "type": "electric_scooter", "bike_id": "37299d22f141effd56e52cdf28448ed6", "rental_uris": {"ios": "https://dc.lft.to/lastmile_qr_scan", "android": "https://dc.lft.to/lastmile_qr_scan"}, "fusion_lon": 0.0, "lon": -76.991889, "name": "37299d22f141effd56e52cdf28448ed6", "is_reserved": 0, "is_disabled": 0}, {"lat": 38.874898333333334, "fusion_lat": 0.0, "type": "electric_scooter", "bike_id": "82b655e93b1a67504d529eb99cc63882", "rental_uris": {"ios": "https://dc.lft.to/lastmile_qr_scan", "android": "https://dc.lft.to/lastmile_qr_scan"}, "fusion_lon": 0.0, "lon": -77.0017265, "name": "82b655e93b1a67504d529eb99cc63882", "is_reserved": 0, "is_disabled": 0}, {"lat": 38.909436166666666, "fusion_lat": 0.0, "type": "electric_scooter", "bike_id": "9d61660b6a856e684f1f02b6be75a7ca", "rental_uris": {"ios": "https://dc.lft.to/lastmile_qr_scan", "android": "https://dc.lft.to/lastmile_qr_scan"}, "fusion_lon": 0.0, "lon": -77.034317, "name": "9d61660b6a856e684f1f02b6be75a7ca", "is_reserved": 0, "is_disabled": 0}, {"lat": 38.911222, "fusion_lat": 0.0, "type": "electric_scooter", "bike_id": "89991015ed122ee55215d4d601eb0ff5", "rental_uris": {"ios": "https://dc.lft.to/lastmile_qr_scan", "android": "https://dc.lft.to/lastmile_qr_scan"}, "fusion_lon": 0.0, "lon": -77.0318435, "name": "89991015ed122ee55215d4d601eb0ff5", "is_reserved": 0, "is_disabled": 0}, {"lat": 38.9047465, "fusion_lat": 0.0, "type": "electric_scooter", "bike_id": "5935cd1b20201844d81e81ca2aa0ef3e", "rental_uris": {"ios": "https://dc.lft.to/lastmile_qr_scan", "android": "https://dc.lft.to/lastmile_qr_scan"}, "fusion_lon": 0.0, "lon": -77.04878416666666, "name": "5935cd1b20201844d81e81ca2aa0ef3e", "is_reserved": 0, "is_disabled": 0}, {"lat": 38.931909, "fusion_lat": 0.0, "type": "electric_scooter", "bike_id": "162622b9a69be2aba3d84f1436ccb4d7", "rental_uris": {"ios": "https://dc.lft.to/lastmile_qr_scan", "android": "https://dc.lft.to/lastmile_qr_scan"}, "fusion_lon": 0.0, "lon": -77.01986716666667, "name": "162622b9a69be2aba3d84f1436ccb4d7", "is_reserved": 0, "is_disabled": 0}, {"lat": 38.93228533333333, "fusion_lat": 0.0, "type": "electric_scooter", "bike_id": "35962cf212b4d0894289dc6e6f7ce9ec", "rental_uris": {"ios": "https://dc.lft.to/lastmile_qr_scan", "android": "https://dc.lft.to/lastmile_qr_scan"}, "fusion_lon": 0.0, "lon": -77.02957566666667, "name": "35962cf212b4d0894289dc6e6f7ce9ec", "is_reserved": 0, "is_disabled": 0}, {"lat": 38.905953, "fusion_lat": 0.0, "type": "electric_scooter", "bike_id": "9f78a9acb421800fe8a024042f218129", "rental_uris": {"ios": "https://dc.lft.to/lastmile_qr_scan", "android": "https://dc.lft.to/lastmile_qr_scan"}, "fusion_lon": 0.0, "lon": -77.040344, "name": "9f78a9acb421800fe8a024042f218129", "is_reserved": 0, "is_disabled": 0}, {"lat": 38.899543333333334, "fusion_lat": 0.0, "type": "electric_scooter", "bike_id": "cacf90a34abdc6b1b06ccf24da9a59b1", "rental_uris": {"ios": "https://dc.lft.to/lastmile_qr_scan", "android": "https://dc.lft.to/lastmile_qr_scan"}, "fusion_lon": 0.0, "lon": -77.04645783333333, "name": "cacf90a34abdc6b1b06ccf24da9a59b1", "is_reserved": 0, "is_disabled": 0}, {"lat": 38.895481833333335, "fusion_lat": 0.0, "type": "electric_scooter", "bike_id": "f79ae63db31b8c08317d4cb91f2b4bca", "rental_uris": {"ios": "https://dc.lft.to/lastmile_qr_scan", "android": "https://dc.lft.to/lastmile_qr_scan"}, "fusion_lon": 0.0, "lon": -76.98335466666667, "name": "f79ae63db31b8c08317d4cb91f2b4bca", "is_reserved": 0, "is_disabled": 0}, {"lat": 38.9008345, "fusion_lat": 0.0, "type": "electric_scooter", "bike_id": "a8b9c732eda310f5d8af9ff4c642324e", "rental_uris": {"ios": "https://dc.lft.to/lastmile_qr_scan", "android": "https://dc.lft.to/lastmile_qr_scan"}, "fusion_lon": 0.0, "lon": -76.92961083333333, "name": "a8b9c732eda310f5d8af9ff4c642324e", "is_reserved": 0, "is_disabled": 0}, {"lat": 38.9679675, "fusion_lat": 0.0, "type": "electric_scooter", "bike_id": "988b52df5554b7e25fef42b13f26c4f3", "rental_uris": {"ios": "https://dc.lft.to/lastmile_qr_scan", "android": "https://dc.lft.to/lastmile_qr_scan"}, "fusion_lon": 0.0, "lon": -77.02424216666667, "name": "988b52df5554b7e25fef42b13f26c4f3", "is_reserved": 0, "is_disabled": 0}, {"lat": 38.884076666666665, "fusion_lat": 0.0, "type": "electric_scooter", "bike_id": "c94f063d3ef03ca5dd3314fc084634bb", "rental_uris": {"ios": "https://dc.lft.to/lastmile_qr_scan", "android": "https://dc.lft.to/lastmile_qr_scan"}, "fusion_lon": 0.0, "lon": -77.031812, "name": "c94f063d3ef03ca5dd3314fc084634bb", "is_reserved": 0, "is_disabled": 0}, {"lat": 38.91746633333333, "fusion_lat": 0.0, "type": "electric_scooter", "bike_id": "62a64404cbf3557df069bbf12506385b", "rental_uris": {"ios": "https://dc.lft.to/lastmile_qr_scan", "android": "https://dc.lft.to/lastmile_qr_scan"}, "fusion_lon": 0.0, "lon": -77.024971, "name": "62a64404cbf3557df069bbf12506385b", "is_reserved": 0, "is_disabled": 0}, {"lat": 38.837435, "fusion_lat": 0.0, "type": "electric_bike", "bike_id": "4823d60439729b4676a5dae0b87c766c", "rental_uris": {"ios": "https://dc.lft.to/lastmile_qr_scan", "android": "https://dc.lft.to/lastmile_qr_scan"}, "fusion_lon": 0.0, "lon": -76.99813666666667, "name": "4823d60439729b4676a5dae0b87c766c", "is_reserved": 0, "is_disabled": 0}, {"lat": 38.83247383333333, "fusion_lat": 0.0, "type": "electric_bike", "bike_id": "f30107b2f5bdde46ff91e17fc558b0ee", "rental_uris": {"ios": "https://dc.lft.to/lastmile_qr_scan", "android": "https://dc.lft.to/lastmile_qr_scan"}, "fusion_lon": 0.0, "lon": -77.0072245, "name": "f30107b2f5bdde46ff91e17fc558b0ee", "is_reserved": 0, "is_disabled": 0}, {"lat": 38.88435166666667, "fusion_lat": 0.0, "type": "electric_scooter", "bike_id": "47700107388cab855d53db3eb863f4d5", "rental_uris": {"ios": "https://dc.lft.to/lastmile_qr_scan", "android": "https://dc.lft.to/lastmile_qr_scan"}, "fusion_lon": 0.0, "lon": -76.95757283333333, "name": "47700107388cab855d53db3eb863f4d5", "is_reserved": 0, "is_disabled": 0}, {"lat": 38.90020333333333, "fusion_lat": 0.0, "type": "electric_scooter", "bike_id": "d269c5626026613de197acf043d11b85", "rental_uris": {"ios": "https://dc.lft.to/lastmile_qr_scan", "android": "https://dc.lft.to/lastmile_qr_scan"}, "fusion_lon": 0.0, "lon": -77.00217316666667, "name": "d269c5626026613de197acf043d11b85", "is_reserved": 0, "is_disabled": 0}, {"lat": 38.93600933333333, "fusion_lat": 0.0, "type": "electric_scooter", "bike_id": "5e2620e846f12579b4cda04b5015382c", "rental_uris": {"ios": "https://dc.lft.to/lastmile_qr_scan", "android": "https://dc.lft.to/lastmile_qr_scan"}, "fusion_lon": 0.0, "lon": -77.03795966666667, "name": "5e2620e846f12579b4cda04b5015382c", "is_reserved": 0, "is_disabled": 0}, {"lat": 38.900310166666664, "fusion_lat": 0.0, "type": "electric_scooter", "bike_id": "25d27e2db47c62c4a3b61f5b9721e8eb", "rental_uris": {"ios": "https://dc.lft.to/lastmile_qr_scan", "android": "https://dc.lft.to/lastmile_qr_scan"}, "fusion_lon": 0.0, "lon": -77.04649033333334, "name": "25d27e2db47c62c4a3b61f5b9721e8eb", "is_reserved": 0, "is_disabled": 0}, {"lat": 38.916911, "fusion_lat": 0.0, "type": "electric_scooter", "bike_id": "d6e8ff44d9fe66ce37cdb4b48c4084fb", "rental_uris": {"ios": "https://dc.lft.to/lastmile_qr_scan", "android": "https://dc.lft.to/lastmile_qr_scan"}, "fusion_lon": 0.0, "lon": -77.00921766666667, "name": "d6e8ff44d9fe66ce37cdb4b48c4084fb", "is_reserved": 0, "is_disabled": 0}, {"lat": 38.900015333333336, "fusion_lat": 0.0, "type": "electric_bike", "bike_id": "79d9ca3e0871aac4fab3d46a2cd29979", "rental_uris": {"ios": "https://dc.lft.to/lastmile_qr_scan", "android": "https://dc.lft.to/lastmile_qr_scan"}, "fusion_lon": 0.0, "lon": -76.99762183333333, "name": "79d9ca3e0871aac4fab3d46a2cd29979", "is_reserved": 0, "is_disabled": 0}, {"lat": 38.890013, "fusion_lat": 0.0, "type": "electric_scooter", "bike_id": "88b79de3b999f6f6a4ba554d7cdcf93a", "rental_uris": {"ios": "https://dc.lft.to/lastmile_qr_scan", "android": "https://dc.lft.to/lastmile_qr_scan"}, "fusion_lon": 0.0, "lon": -76.95436016666666, "name": "88b79de3b999f6f6a4ba554d7cdcf93a", "is_reserved": 0, "is_disabled": 0}, {"lat": 38.91007183333333, "fusion_lat": 0.0, "type": "electric_scooter", "bike_id": "a74cc9d3fef8b154bb85efdf82920262", "rental_uris": {"ios": "https://dc.lft.to/lastmile_qr_scan", "android": "https://dc.lft.to/lastmile_qr_scan"}, "fusion_lon": 0.0, "lon": -77.02093933333333, "name": "a74cc9d3fef8b154bb85efdf82920262", "is_reserved": 0, "is_disabled": 0}, {"lat": 38.8874705, "fusion_lat": 0.0, "type": "electric_scooter", "bike_id": "05020bc9cb12bf7e03373d45035e3df6", "rental_uris": {"ios": "https://dc.lft.to/lastmile_qr_scan", "android": "https://dc.lft.to/lastmile_qr_scan"}, "fusion_lon": 0.0, "lon": -77.01776633333333, "name": "05020bc9cb12bf7e03373d45035e3df6", "is_reserved": 0, "is_disabled": 0}, {"lat": 38.90041983333333, "fusion_lat": 0.0, "type": "electric_scooter", "bike_id": "84d8195c149141c556d9d4cf26692a9f", "rental_uris": {"ios": "https://dc.lft.to/lastmile_qr_scan", "android": "https://dc.lft.to/lastmile_qr_scan"}, "fusion_lon": 0.0, "lon": -77.01770783333333, "name": "84d8195c149141c556d9d4cf26692a9f", "is_reserved": 0, "is_disabled": 0}, {"lat": 38.894536, "fusion_lat": 0.0, "type": "electric_scooter", "bike_id": "5efd4704b905c75c77e2dac72c80b205", "rental_uris": {"ios": "https://dc.lft.to/lastmile_qr_scan", "android": "https://dc.lft.to/lastmile_qr_scan"}, "fusion_lon": 0.0, "lon": -77.02737416666666, "name": "5efd4704b905c75c77e2dac72c80b205", "is_reserved": 0, "is_disabled": 0}, {"lat": 38.920746666666666, "fusion_lat": 0.0, "type": "electric_scooter", "bike_id": "e83144e088058cc6a61efd3adcb77333", "rental_uris": {"ios": "https://dc.lft.to/lastmile_qr_scan", "android": "https://dc.lft.to/lastmile_qr_scan"}, "fusion_lon": 0.0, "lon": -77.02313, "name": "e83144e088058cc6a61efd3adcb77333", "is_reserved": 0, "is_disabled": 0}, {"lat": 38.83509983333333, "fusion_lat": 0.0, "type": "electric_bike", "bike_id": "9c99660c9303f1ca523eb5a32b4f25ea", "rental_uris": {"ios": "https://dc.lft.to/lastmile_qr_scan", "android": "https://dc.lft.to/lastmile_qr_scan"}, "fusion_lon": 0.0, "lon": -76.9867795, "name": "9c99660c9303f1ca523eb5a32b4f25ea", "is_reserved": 0, "is_disabled": 0}, {"lat": 38.8063885, "fusion_lat": 0.0, "type": "electric_bike", "bike_id": "3cb5be38ee61b7e3f87cb15af325e292", "rental_uris": {"ios": "https://dc.lft.to/lastmile_qr_scan", "android": "https://dc.lft.to/lastmile_qr_scan"}, "fusion_lon": 0.0, "lon": -77.06248216666667, "name": "3cb5be38ee61b7e3f87cb15af325e292", "is_reserved": 0, "is_disabled": 0}, {"lat": 38.93411, "fusion_lat": 0.0, "type": "electric_scooter", "bike_id": "96278704ae10701b172c42a8048a21d9", "rental_uris": {"ios": "https://dc.lft.to/lastmile_qr_scan", "android": "https://dc.lft.to/lastmile_qr_scan"}, "fusion_lon": 0.0, "lon": -77.01979233333333, "name": "96278704ae10701b172c42a8048a21d9", "is_reserved": 0, "is_disabled": 0}, {"lat": 38.9246895, "fusion_lat": 0.0, "type": "electric_scooter", "bike_id": "49c0f2e50517cf3043647dca79bb2b87", "rental_uris": {"ios": "https://dc.lft.to/lastmile_qr_scan", "android": "https://dc.lft.to/lastmile_qr_scan"}, "fusion_lon": 0.0, "lon": -77.02247966666667, "name": "49c0f2e50517cf3043647dca79bb2b87", "is_reserved": 0, "is_disabled": 0}, {"lat": 38.92613983333333, "fusion_lat": 0.0, "type": "electric_scooter", "bike_id": "cdbaba1b667a8aa64086b333a617fe35", "rental_uris": {"ios": "https://dc.lft.to/lastmile_qr_scan", "android": "https://dc.lft.to/lastmile_qr_scan"}, "fusion_lon": 0.0, "lon": -77.02158283333333, "name": "cdbaba1b667a8aa64086b333a617fe35", "is_reserved": 0, "is_disabled": 0}, {"lat": 38.87693633333333, "fusion_lat": 0.0, "type": "electric_scooter", "bike_id": "8f9038002af260b5a1ee713a69a5a5e9", "rental_uris": {"ios": "https://dc.lft.to/lastmile_qr_scan", "android": "https://dc.lft.to/lastmile_qr_scan"}, "fusion_lon": 0.0, "lon": -77.0067255, "name": "8f9038002af260b5a1ee713a69a5a5e9", "is_reserved": 0, "is_disabled": 0}, {"lat": 38.874560333333335, "fusion_lat": 0.0, "type": "electric_scooter", "bike_id": "6342ce32ae7571a422dad56ea2253b67", "rental_uris": {"ios": "https://dc.lft.to/lastmile_qr_scan", "android": "https://dc.lft.to/lastmile_qr_scan"}, "fusion_lon": 0.0, "lon": -77.00542283333333, "name": "6342ce32ae7571a422dad56ea2253b67", "is_reserved": 0, "is_disabled": 0}, {"lat": 38.88118016666667, "fusion_lat": 0.0, "type": "electric_scooter", "bike_id": "665740ac3508ef34457c01945bde7ba1", "rental_uris": {"ios": "https://dc.lft.to/lastmile_qr_scan", "android": "https://dc.lft.to/lastmile_qr_scan"}, "fusion_lon": 0.0, "lon": -77.0173935, "name": "665740ac3508ef34457c01945bde7ba1", "is_reserved": 0, "is_disabled": 0}, {"lat": 38.924579, "fusion_lat": 0.0, "type": "electric_scooter", "bike_id": "4ff14e0274c382903957d41a4589e3dd", "rental_uris": {"ios": "https://dc.lft.to/lastmile_qr_scan", "android": "https://dc.lft.to/lastmile_qr_scan"}, "fusion_lon": 0.0, "lon": -77.05228583333333, "name": "4ff14e0274c382903957d41a4589e3dd", "is_reserved": 0, "is_disabled": 0}, {"lat": 38.915078333333334, "fusion_lat": 0.0, "type": "electric_scooter", "bike_id": "c4562d87eaa1f2d1739504f545ef9267", "rental_uris": {"ios": "https://dc.lft.to/lastmile_qr_scan", "android": "https://dc.lft.to/lastmile_qr_scan"}, "fusion_lon": 0.0, "lon": -76.98335983333334, "name": "c4562d87eaa1f2d1739504f545ef9267", "is_reserved": 0, "is_disabled": 0}, {"lat": 38.922663, "fusion_lat": 0.0, "type": "electric_scooter", "bike_id": "62df52eabb0c57646ae3222e44c42181", "rental_uris": {"ios": "https://dc.lft.to/lastmile_qr_scan", "android": "https://dc.lft.to/lastmile_qr_scan"}, "fusion_lon": 0.0, "lon": -77.0243745, "name": "62df52eabb0c57646ae3222e44c42181", "is_reserved": 0, "is_disabled": 0}, {"lat": 38.915551, "fusion_lat": 0.0, "type": "electric_scooter", "bike_id": "2adeb9a55a6292b0478a0362fca6b137", "rental_uris": {"ios": "https://dc.lft.to/lastmile_qr_scan", "android": "https://dc.lft.to/lastmile_qr_scan"}, "fusion_lon": 0.0, "lon": -77.02842016666666, "name": "2adeb9a55a6292b0478a0362fca6b137", "is_reserved": 0, "is_disabled": 0}, {"lat": 38.887671833333336, "fusion_lat": 0.0, "type": "electric_scooter", "bike_id": "75bd510239128c8fcb117018ccbd2488", "rental_uris": {"ios": "https://dc.lft.to/lastmile_qr_scan", "android": "https://dc.lft.to/lastmile_qr_scan"}, "fusion_lon": 0.0, "lon": -77.02237816666667, "name": "75bd510239128c8fcb117018ccbd2488", "is_reserved": 0, "is_disabled": 0}, {"lat": 38.862184, "fusion_lat": 0.0, "type": "electric_scooter", "bike_id": "60d1d395474f709a6ae270c7d82e7f84", "rental_uris": {"ios": "https://dc.lft.to/lastmile_qr_scan", "android": "https://dc.lft.to/lastmile_qr_scan"}, "fusion_lon": 0.0, "lon": -76.99480783333334, "name": "60d1d395474f709a6ae270c7d82e7f84", "is_reserved": 0, "is_disabled": 0}, {"lat": 38.901226666666666, "fusion_lat": 0.0, "type": "electric_scooter", "bike_id": "ff5d44cb0db5d8d6773068ffe202b212", "rental_uris": {"ios": "https://dc.lft.to/lastmile_qr_scan", "android": "https://dc.lft.to/lastmile_qr_scan"}, "fusion_lon": 0.0, "lon": -77.04419566666667, "name": "ff5d44cb0db5d8d6773068ffe202b212", "is_reserved": 0, "is_disabled": 0}, {"lat": 38.9539915, "fusion_lat": 0.0, "type": "electric_scooter", "bike_id": "c17a934d7b8456a21815b58f4620db15", "rental_uris": {"ios": "https://dc.lft.to/lastmile_qr_scan", "android": "https://dc.lft.to/lastmile_qr_scan"}, "fusion_lon": 0.0, "lon": -77.02792333333333, "name": "c17a934d7b8456a21815b58f4620db15", "is_reserved": 0, "is_disabled": 0}, {"lat": 38.9212425, "fusion_lat": 0.0, "type": "electric_scooter", "bike_id": "6219e615d9dc7d94be0de666cd4c0756", "rental_uris": {"ios": "https://dc.lft.to/lastmile_qr_scan", "android": "https://dc.lft.to/lastmile_qr_scan"}, "fusion_lon": 0.0, "lon": -77.02970416666666, "name": "6219e615d9dc7d94be0de666cd4c0756", "is_reserved": 0, "is_disabled": 0}, {"lat": 38.900314333333334, "fusion_lat": 0.0, "type": "electric_scooter", "bike_id": "3efed52d4f373e0ea91c1c0790e5d244", "rental_uris": {"ios": "https://dc.lft.to/lastmile_qr_scan", "android": "https://dc.lft.to/lastmile_qr_scan"}, "fusion_lon": 0.0, "lon": -77.01182683333333, "name": "3efed52d4f373e0ea91c1c0790e5d244", "is_reserved": 0, "is_disabled": 0}, {"lat": 38.9265455, "fusion_lat": 0.0, "type": "electric_scooter", "bike_id": "77642496acecca532e8e6ff5456b7025", "rental_uris": {"ios": "https://dc.lft.to/lastmile_qr_scan", "android": "https://dc.lft.to/lastmile_qr_scan"}, "fusion_lon": 0.0, "lon": -77.02418166666666, "name": "77642496acecca532e8e6ff5456b7025", "is_reserved": 0, "is_disabled": 0}, {"lat": 38.87634883333333, "fusion_lat": 0.0, "type": "electric_scooter", "bike_id": "81230b62daee0a52d73240cc225e90f0", "rental_uris": {"ios": "https://dc.lft.to/lastmile_qr_scan", "android": "https://dc.lft.to/lastmile_qr_scan"}, "fusion_lon": 0.0, "lon": -77.01474666666667, "name": "81230b62daee0a52d73240cc225e90f0", "is_reserved": 0, "is_disabled": 0}, {"lat": 38.924181833333336, "fusion_lat": 0.0, "type": "electric_scooter", "bike_id": "3873669416cec3501540f293283c108e", "rental_uris": {"ios": "https://dc.lft.to/lastmile_qr_scan", "android": "https://dc.lft.to/lastmile_qr_scan"}, "fusion_lon": 0.0, "lon": -77.051874, "name": "3873669416cec3501540f293283c108e", "is_reserved": 0, "is_disabled": 0}, {"lat": 38.89001533333333, "fusion_lat": 0.0, "type": "electric_scooter", "bike_id": "63a8901ecad27ccbe72a9f780b7f2468", "rental_uris": {"ios": "https://dc.lft.to/lastmile_qr_scan", "android": "https://dc.lft.to/lastmile_qr_scan"}, "fusion_lon": 0.0, "lon": -76.98363433333333, "name": "63a8901ecad27ccbe72a9f780b7f2468", "is_reserved": 0, "is_disabled": 0}, {"lat": 38.89490166666667, "fusion_lat": 0.0, "type": "electric_scooter", "bike_id": "7d5972d5b8c3e90b42b6716f1e5f514c", "rental_uris": {"ios": "https://dc.lft.to/lastmile_qr_scan", "android": "https://dc.lft.to/lastmile_qr_scan"}, "fusion_lon": 0.0, "lon": -77.02828, "name": "7d5972d5b8c3e90b42b6716f1e5f514c", "is_reserved": 0, "is_disabled": 0}, {"lat": 38.89830083333333, "fusion_lat": 0.0, "type": "electric_scooter", "bike_id": "8be1a099f2a92f24cf13fbfadef653f2", "rental_uris": {"ios": "https://dc.lft.to/lastmile_qr_scan", "android": "https://dc.lft.to/lastmile_qr_scan"}, "fusion_lon": 0.0, "lon": -76.94613533333333, "name": "8be1a099f2a92f24cf13fbfadef653f2", "is_reserved": 0, "is_disabled": 0}, {"lat": 38.874666500000004, "fusion_lat": 0.0, "type": "electric_scooter", "bike_id": "00ae1d4c77a876dd9c98adb83116ca4b", "rental_uris": {"ios": "https://dc.lft.to/lastmile_qr_scan", "android": "https://dc.lft.to/lastmile_qr_scan"}, "fusion_lon": 0.0, "lon": -77.00467866666666, "name": "00ae1d4c77a876dd9c98adb83116ca4b", "is_reserved": 0, "is_disabled": 0}, {"lat": 38.892282, "fusion_lat": 0.0, "type": "electric_scooter", "bike_id": "c6bbb8daecbf64b6f27a856703cf9c26", "rental_uris": {"ios": "https://dc.lft.to/lastmile_qr_scan", "android": "https://dc.lft.to/lastmile_qr_scan"}, "fusion_lon": 0.0, "lon": -77.02416316666667, "name": "c6bbb8daecbf64b6f27a856703cf9c26", "is_reserved": 0, "is_disabled": 0}, {"lat": 38.903589833333335, "fusion_lat": 0.0, "type": "electric_scooter", "bike_id": "b63e618d012ac151069ba91acd9bacbc", "rental_uris": {"ios": "https://dc.lft.to/lastmile_qr_scan", "android": "https://dc.lft.to/lastmile_qr_scan"}, "fusion_lon": 0.0, "lon": -77.035505, "name": "b63e618d012ac151069ba91acd9bacbc", "is_reserved": 0, "is_disabled": 0}, {"lat": 38.9120605, "fusion_lat": 0.0, "type": "electric_scooter", "bike_id": "8803c0a3107adb2bcd437c7480afefdb", "rental_uris": {"ios": "https://dc.lft.to/lastmile_qr_scan", "android": "https://dc.lft.to/lastmile_qr_scan"}, "fusion_lon": 0.0, "lon": -77.073085, "name": "8803c0a3107adb2bcd437c7480afefdb", "is_reserved": 0, "is_disabled": 0}, {"lat": 38.90946183333333, "fusion_lat": 0.0, "type": "electric_scooter", "bike_id": "1abe692ab77e32f20e1f429e3aa8bf54", "rental_uris": {"ios": "https://dc.lft.to/lastmile_qr_scan", "android": "https://dc.lft.to/lastmile_qr_scan"}, "fusion_lon": 0.0, "lon": -77.026902, "name": "1abe692ab77e32f20e1f429e3aa8bf54", "is_reserved": 0, "is_disabled": 0}, {"lat": 38.83607816666667, "fusion_lat": 0.0, "type": "electric_bike", "bike_id": "74d9d5c7f91b273d5da042aa285cf189", "rental_uris": {"ios": "https://dc.lft.to/lastmile_qr_scan", "android": "https://dc.lft.to/lastmile_qr_scan"}, "fusion_lon": 0.0, "lon": -77.00380416666667, "name": "74d9d5c7f91b273d5da042aa285cf189", "is_reserved": 0, "is_disabled": 0}, {"lat": 38.873966, "fusion_lat": 0.0, "type": "electric_scooter", "bike_id": "31d50b15bff398a16eb2717be7b6ff0d", "rental_uris": {"ios": "https://dc.lft.to/lastmile_qr_scan", "android": "https://dc.lft.to/lastmile_qr_scan"}, "fusion_lon": 0.0, "lon": -77.01450066666666, "name": "31d50b15bff398a16eb2717be7b6ff0d", "is_reserved": 0, "is_disabled": 0}, {"lat": 38.9266295, "fusion_lat": 0.0, "type": "electric_scooter", "bike_id": "dfe0e0d954c4960d483f55589c14b3c1", "rental_uris": {"ios": "https://dc.lft.to/lastmile_qr_scan", "android": "https://dc.lft.to/lastmile_qr_scan"}, "fusion_lon": 0.0, "lon": -77.0258325, "name": "dfe0e0d954c4960d483f55589c14b3c1", "is_reserved": 0, "is_disabled": 0}, {"lat": 38.90792116666667, "fusion_lat": 0.0, "type": "electric_scooter", "bike_id": "7ee980a1456b852aee46f90861963241", "rental_uris": {"ios": "https://dc.lft.to/lastmile_qr_scan", "android": "https://dc.lft.to/lastmile_qr_scan"}, "fusion_lon": 0.0, "lon": -77.063483, "name": "7ee980a1456b852aee46f90861963241", "is_reserved": 0, "is_disabled": 0}, {"lat": 38.91848683333333, "fusion_lat": 0.0, "type": "electric_scooter", "bike_id": "5300404c97a511ea35daea2012bf4297", "rental_uris": {"ios": "https://dc.lft.to/lastmile_qr_scan", "android": "https://dc.lft.to/lastmile_qr_scan"}, "fusion_lon": 0.0, "lon": -77.0321735, "name": "5300404c97a511ea35daea2012bf4297", "is_reserved": 0, "is_disabled": 0}, {"lat": 38.908088666666664, "fusion_lat": 0.0, "type": "electric_scooter", "bike_id": "ec05cd0bb9aa426b4db63f3348500ed0", "rental_uris": {"ios": "https://dc.lft.to/lastmile_qr_scan", "android": "https://dc.lft.to/lastmile_qr_scan"}, "fusion_lon": 0.0, "lon": -77.0345105, "name": "ec05cd0bb9aa426b4db63f3348500ed0", "is_reserved": 0, "is_disabled": 0}, {"lat": 38.9077785, "fusion_lat": 0.0, "type": "electric_scooter", "bike_id": "7ad115f1edac251037d60cf58bec8a82", "rental_uris": {"ios": "https://dc.lft.to/lastmile_qr_scan", "android": "https://dc.lft.to/lastmile_qr_scan"}, "fusion_lon": 0.0, "lon": -77.04344833333333, "name": "7ad115f1edac251037d60cf58bec8a82", "is_reserved": 0, "is_disabled": 0}, {"lat": 38.832472833333334, "fusion_lat": 0.0, "type": "electric_bike", "bike_id": "ef7471470c63327213f980b58ea02c23", "rental_uris": {"ios": "https://dc.lft.to/lastmile_qr_scan", "android": "https://dc.lft.to/lastmile_qr_scan"}, "fusion_lon": 0.0, "lon": -77.00726466666667, "name": "ef7471470c63327213f980b58ea02c23", "is_reserved": 0, "is_disabled": 0}, {"lat": 38.9134225, "fusion_lat": 0.0, "type": "electric_scooter", "bike_id": "425c82db8060bb6f3365101339d87c7b", "rental_uris": {"ios": "https://dc.lft.to/lastmile_qr_scan", "android": "https://dc.lft.to/lastmile_qr_scan"}, "fusion_lon": 0.0, "lon": -77.02389633333334, "name": "425c82db8060bb6f3365101339d87c7b", "is_reserved": 0, "is_disabled": 0}, {"lat": 38.947359666666664, "fusion_lat": 0.0, "type": "electric_scooter", "bike_id": "084734325f5ad2ef37b7ff0b7c5ee2cf", "rental_uris": {"ios": "https://dc.lft.to/lastmile_qr_scan", "android": "https://dc.lft.to/lastmile_qr_scan"}, "fusion_lon": 0.0, "lon": -77.01613033333334, "name": "084734325f5ad2ef37b7ff0b7c5ee2cf", "is_reserved": 0, "is_disabled": 0}, {"lat": 38.90680616666667, "fusion_lat": 0.0, "type": "electric_scooter", "bike_id": "cabffd948a4e3390328a434c5300cd56", "rental_uris": {"ios": "https://dc.lft.to/lastmile_qr_scan", "android": "https://dc.lft.to/lastmile_qr_scan"}, "fusion_lon": 0.0, "lon": -77.03815233333333, "name": "cabffd948a4e3390328a434c5300cd56", "is_reserved": 0, "is_disabled": 0}, {"lat": 38.91151266666667, "fusion_lat": 0.0, "type": "electric_scooter", "bike_id": "38a42ac393cbb88817f1d15e4f60dece", "rental_uris": {"ios": "https://dc.lft.to/lastmile_qr_scan", "android": "https://dc.lft.to/lastmile_qr_scan"}, "fusion_lon": 0.0, "lon": -77.034636, "name": "38a42ac393cbb88817f1d15e4f60dece", "is_reserved": 0, "is_disabled": 0}, {"lat": 38.917329333333335, "fusion_lat": 0.0, "type": "electric_scooter", "bike_id": "e55f6ea013de1585fdcfd7a26a8d50c4", "rental_uris": {"ios": "https://dc.lft.to/lastmile_qr_scan", "android": "https://dc.lft.to/lastmile_qr_scan"}, "fusion_lon": 0.0, "lon": -77.0361315, "name": "e55f6ea013de1585fdcfd7a26a8d50c4", "is_reserved": 0, "is_disabled": 0}, {"lat": 38.907201666666666, "fusion_lat": 0.0, "type": "electric_scooter", "bike_id": "559ed44033ea140d423f56b86d4a277e", "rental_uris": {"ios": "https://dc.lft.to/lastmile_qr_scan", "android": "https://dc.lft.to/lastmile_qr_scan"}, "fusion_lon": 0.0, "lon": -77.0335475, "name": "559ed44033ea140d423f56b86d4a277e", "is_reserved": 0, "is_disabled": 0}, {"lat": 38.8839225, "fusion_lat": 0.0, "type": "electric_scooter", "bike_id": "af568db03d32934c2ffe6117ef561836", "rental_uris": {"ios": "https://dc.lft.to/lastmile_qr_scan", "android": "https://dc.lft.to/lastmile_qr_scan"}, "fusion_lon": 0.0, "lon": -77.02580633333334, "name": "af568db03d32934c2ffe6117ef561836", "is_reserved": 0, "is_disabled": 0}, {"lat": 38.90246033333333, "fusion_lat": 0.0, "type": "electric_scooter", "bike_id": "7845f1ada16a6662c6a3c6071902b616", "rental_uris": {"ios": "https://dc.lft.to/lastmile_qr_scan", "android": "https://dc.lft.to/lastmile_qr_scan"}, "fusion_lon": 0.0, "lon": -77.02650366666667, "name": "7845f1ada16a6662c6a3c6071902b616", "is_reserved": 0, "is_disabled": 0}, {"lat": 38.91634216666667, "fusion_lat": 0.0, "type": "electric_scooter", "bike_id": "5874252c1c930e464f71c4e9ce651d20", "rental_uris": {"ios": "https://dc.lft.to/lastmile_qr_scan", "android": "https://dc.lft.to/lastmile_qr_scan"}, "fusion_lon": 0.0, "lon": -77.04809533333334, "name": "5874252c1c930e464f71c4e9ce651d20", "is_reserved": 0, "is_disabled": 0}, {"lat": 38.95742833333333, "fusion_lat": 0.0, "type": "electric_scooter", "bike_id": "2507941ea89776436c387c0f984714b6", "rental_uris": {"ios": "https://dc.lft.to/lastmile_qr_scan", "android": "https://dc.lft.to/lastmile_qr_scan"}, "fusion_lon": 0.0, "lon": -77.0021925, "name": "2507941ea89776436c387c0f984714b6", "is_reserved": 0, "is_disabled": 0}, {"lat": 38.8991005, "fusion_lat": 0.0, "type": "electric_scooter", "bike_id": "ea09158b9fba0c744fab7e3a8c632d1c", "rental_uris": {"ios": "https://dc.lft.to/lastmile_qr_scan", "android": "https://dc.lft.to/lastmile_qr_scan"}, "fusion_lon": 0.0, "lon": -76.94544866666666, "name": "ea09158b9fba0c744fab7e3a8c632d1c", "is_reserved": 0, "is_disabled": 0}, {"lat": 38.89219666666666, "fusion_lat": 0.0, "type": "electric_scooter", "bike_id": "b13b848b268e40401453d72f1e6cc515", "rental_uris": {"ios": "https://dc.lft.to/lastmile_qr_scan", "android": "https://dc.lft.to/lastmile_qr_scan"}, "fusion_lon": 0.0, "lon": -77.04469416666667, "name": "b13b848b268e40401453d72f1e6cc515", "is_reserved": 0, "is_disabled": 0}, {"lat": 38.90602166666667, "fusion_lat": 0.0, "type": "electric_scooter", "bike_id": "f41b1faf1766974454d6bd1ac1a3a84c", "rental_uris": {"ios": "https://dc.lft.to/lastmile_qr_scan", "android": "https://dc.lft.to/lastmile_qr_scan"}, "fusion_lon": 0.0, "lon": -77.0434015, "name": "f41b1faf1766974454d6bd1ac1a3a84c", "is_reserved": 0, "is_disabled": 0}, {"lat": 38.91685616666667, "fusion_lat": 0.0, "type": "electric_scooter", "bike_id": "17faee62c8fb6257c0db1440e53cf972", "rental_uris": {"ios": "https://dc.lft.to/lastmile_qr_scan", "android": "https://dc.lft.to/lastmile_qr_scan"}, "fusion_lon": 0.0, "lon": -77.02870983333334, "name": "17faee62c8fb6257c0db1440e53cf972", "is_reserved": 0, "is_disabled": 0}, {"lat": 38.96074683333333, "fusion_lat": 0.0, "type": "electric_scooter", "bike_id": "570577e75e47c0b291f53c10a6fe3381", "rental_uris": {"ios": "https://dc.lft.to/lastmile_qr_scan", "android": "https://dc.lft.to/lastmile_qr_scan"}, "fusion_lon": 0.0, "lon": -77.02887733333333, "name": "570577e75e47c0b291f53c10a6fe3381", "is_reserved": 0, "is_disabled": 0}, {"lat": 38.86267516666667, "fusion_lat": 0.0, "type": "electric_scooter", "bike_id": "b2177001b4fb2801f7fa2efbac2e903a", "rental_uris": {"ios": "https://dc.lft.to/lastmile_qr_scan", "android": "https://dc.lft.to/lastmile_qr_scan"}, "fusion_lon": 0.0, "lon": -76.99531283333333, "name": "b2177001b4fb2801f7fa2efbac2e903a", "is_reserved": 0, "is_disabled": 0}, {"lat": 38.939105, "fusion_lat": 0.0, "type": "electric_scooter", "bike_id": "3c460bc2bfcd0cb543557b7193395f08", "rental_uris": {"ios": "https://dc.lft.to/lastmile_qr_scan", "android": "https://dc.lft.to/lastmile_qr_scan"}, "fusion_lon": 0.0, "lon": -77.02463133333333, "name": "3c460bc2bfcd0cb543557b7193395f08", "is_reserved": 0, "is_disabled": 0}, {"lat": 38.939285, "fusion_lat": 0.0, "type": "electric_scooter", "bike_id": "b472ef30d6193cd180bc2152ba880c0a", "rental_uris": {"ios": "https://dc.lft.to/lastmile_qr_scan", "android": "https://dc.lft.to/lastmile_qr_scan"}, "fusion_lon": 0.0, "lon": -77.02586633333334, "name": "b472ef30d6193cd180bc2152ba880c0a", "is_reserved": 0, "is_disabled": 0}, {"lat": 38.90639433333333, "fusion_lat": 0.0, "type": "electric_scooter", "bike_id": "bfd595d789bbfe72b12c9c881676e180", "rental_uris": {"ios": "https://dc.lft.to/lastmile_qr_scan", "android": "https://dc.lft.to/lastmile_qr_scan"}, "fusion_lon": 0.0, "lon": -77.0060355, "name": "bfd595d789bbfe72b12c9c881676e180", "is_reserved": 0, "is_disabled": 0}, {"lat": 38.93187566666667, "fusion_lat": 0.0, "type": "electric_scooter", "bike_id": "b8925a4799c1a359993581f2f47e95b6", "rental_uris": {"ios": "https://dc.lft.to/lastmile_qr_scan", "android": "https://dc.lft.to/lastmile_qr_scan"}, "fusion_lon": 0.0, "lon": -77.034611, "name": "b8925a4799c1a359993581f2f47e95b6", "is_reserved": 0, "is_disabled": 0}, {"lat": 38.91912283333333, "fusion_lat": 0.0, "type": "electric_scooter", "bike_id": "651ac2d7e9264c7836c3065fa7a8ea84", "rental_uris": {"ios": "https://dc.lft.to/lastmile_qr_scan", "android": "https://dc.lft.to/lastmile_qr_scan"}, "fusion_lon": 0.0, "lon": -77.03928633333334, "name": "651ac2d7e9264c7836c3065fa7a8ea84", "is_reserved": 0, "is_disabled": 0}, {"lat": 38.9563535, "fusion_lat": 0.0, "type": "electric_scooter", "bike_id": "bb8b69003b09f457cd042ba288a6d952", "rental_uris": {"ios": "https://dc.lft.to/lastmile_qr_scan", "android": "https://dc.lft.to/lastmile_qr_scan"}, "fusion_lon": 0.0, "lon": -77.0330165, "name": "bb8b69003b09f457cd042ba288a6d952", "is_reserved": 0, "is_disabled": 0}, {"lat": 38.957353166666664, "fusion_lat": 0.0, "type": "electric_scooter", "bike_id": "d9d8312c8ccfc69eb444d0a25eca0ed2", "rental_uris": {"ios": "https://dc.lft.to/lastmile_qr_scan", "android": "https://dc.lft.to/lastmile_qr_scan"}, "fusion_lon": 0.0, "lon": -77.00224016666667, "name": "d9d8312c8ccfc69eb444d0a25eca0ed2", "is_reserved": 0, "is_disabled": 0}, {"lat": 38.94820566666667, "fusion_lat": 0.0, "type": "electric_bike", "bike_id": "0dd766d88428fc4e77e63d0c00ff3710", "rental_uris": {"ios": "https://dc.lft.to/lastmile_qr_scan", "android": "https://dc.lft.to/lastmile_qr_scan"}, "fusion_lon": 0.0, "lon": -77.10006833333334, "name": "0dd766d88428fc4e77e63d0c00ff3710", "is_reserved": 0, "is_disabled": 0}, {"lat": 38.924205666666666, "fusion_lat": 0.0, "type": "electric_scooter", "bike_id": "5ed06a998e5acf246add3c56add5e1e9", "rental_uris": {"ios": "https://dc.lft.to/lastmile_qr_scan", "android": "https://dc.lft.to/lastmile_qr_scan"}, "fusion_lon": 0.0, "lon": -77.050635, "name": "5ed06a998e5acf246add3c56add5e1e9", "is_reserved": 0, "is_disabled": 0}, {"lat": 38.8972895, "fusion_lat": 0.0, "type": "electric_scooter", "bike_id": "fa8d85a1f116a3765010c04ed5e91bce", "rental_uris": {"ios": "https://dc.lft.to/lastmile_qr_scan", "android": "https://dc.lft.to/lastmile_qr_scan"}, "fusion_lon": 0.0, "lon": -77.05520483333333, "name": "fa8d85a1f116a3765010c04ed5e91bce", "is_reserved": 0, "is_disabled": 0}, {"lat": 38.9228325, "fusion_lat": 0.0, "type": "electric_scooter", "bike_id": "4247e6f37a45a921cb6ad004a127a626", "rental_uris": {"ios": "https://dc.lft.to/lastmile_qr_scan", "android": "https://dc.lft.to/lastmile_qr_scan"}, "fusion_lon": 0.0, "lon": -77.03657116666666, "name": "4247e6f37a45a921cb6ad004a127a626", "is_reserved": 0, "is_disabled": 0}, {"lat": 38.898137166666665, "fusion_lat": 0.0, "type": "electric_scooter", "bike_id": "aa4850649db73738f58a283ef4d06d60", "rental_uris": {"ios": "https://dc.lft.to/lastmile_qr_scan", "android": "https://dc.lft.to/lastmile_qr_scan"}, "fusion_lon": 0.0, "lon": -77.03361883333334, "name": "aa4850649db73738f58a283ef4d06d60", "is_reserved": 0, "is_disabled": 0}, {"lat": 38.847559, "fusion_lat": 0.0, "type": "electric_scooter", "bike_id": "d163d9d4314a2fd808f1dbc731e73040", "rental_uris": {"ios": "https://dc.lft.to/lastmile_qr_scan", "android": "https://dc.lft.to/lastmile_qr_scan"}, "fusion_lon": 0.0, "lon": -76.99500633333334, "name": "d163d9d4314a2fd808f1dbc731e73040", "is_reserved": 0, "is_disabled": 0}, {"lat": 38.9222485, "fusion_lat": 0.0, "type": "electric_scooter", "bike_id": "080f3e5d72efcb8aaf5fb257fea49a80", "rental_uris": {"ios": "https://dc.lft.to/lastmile_qr_scan", "android": "https://dc.lft.to/lastmile_qr_scan"}, "fusion_lon": 0.0, "lon": -77.043326, "name": "080f3e5d72efcb8aaf5fb257fea49a80", "is_reserved": 0, "is_disabled": 0}, {"lat": 38.87653366666667, "fusion_lat": 0.0, "type": "electric_scooter", "bike_id": "f037454212a25d813c34a8c6cce7cb84", "rental_uris": {"ios": "https://dc.lft.to/lastmile_qr_scan", "android": "https://dc.lft.to/lastmile_qr_scan"}, "fusion_lon": 0.0, "lon": -77.00306683333334, "name": "f037454212a25d813c34a8c6cce7cb84", "is_reserved": 0, "is_disabled": 0}, {"lat": 38.926538, "fusion_lat": 0.0, "type": "electric_scooter", "bike_id": "e04f7b52438d04a6194dfa8d744ce700", "rental_uris": {"ios": "https://dc.lft.to/lastmile_qr_scan", "android": "https://dc.lft.to/lastmile_qr_scan"}, "fusion_lon": 0.0, "lon": -77.0431245, "name": "e04f7b52438d04a6194dfa8d744ce700", "is_reserved": 0, "is_disabled": 0}, {"lat": 38.893269833333335, "fusion_lat": 0.0, "type": "electric_scooter", "bike_id": "a9909d0fa46b3b51f5d44a0931e5693f", "rental_uris": {"ios": "https://dc.lft.to/lastmile_qr_scan", "android": "https://dc.lft.to/lastmile_qr_scan"}, "fusion_lon": 0.0, "lon": -77.0320085, "name": "a9909d0fa46b3b51f5d44a0931e5693f", "is_reserved": 0, "is_disabled": 0}, {"lat": 38.91595483333333, "fusion_lat": 0.0, "type": "electric_scooter", "bike_id": "3bb6e66da84815932fc249571fd557c4", "rental_uris": {"ios": "https://dc.lft.to/lastmile_qr_scan", "android": "https://dc.lft.to/lastmile_qr_scan"}, "fusion_lon": 0.0, "lon": -76.99368166666666, "name": "3bb6e66da84815932fc249571fd557c4", "is_reserved": 0, "is_disabled": 0}, {"lat": 38.859823, "fusion_lat": 0.0, "type": "electric_scooter", "bike_id": "2a0401f88dcad83f23732b39d5741660", "rental_uris": {"ios": "https://dc.lft.to/lastmile_qr_scan", "android": "https://dc.lft.to/lastmile_qr_scan"}, "fusion_lon": 0.0, "lon": -76.9964355, "name": "2a0401f88dcad83f23732b39d5741660", "is_reserved": 0, "is_disabled": 0}, {"lat": 38.9165185, "fusion_lat": 0.0, "type": "electric_scooter", "bike_id": "007cc3e3fab19b73818f108f6d297005", "rental_uris": {"ios": "https://dc.lft.to/lastmile_qr_scan", "android": "https://dc.lft.to/lastmile_qr_scan"}, "fusion_lon": 0.0, "lon": -77.0300585, "name": "007cc3e3fab19b73818f108f6d297005", "is_reserved": 0, "is_disabled": 0}, {"lat": 38.91728466666667, "fusion_lat": 0.0, "type": "electric_scooter", "bike_id": "32cbd0580b02c1a458a8ced7b417d209", "rental_uris": {"ios": "https://dc.lft.to/lastmile_qr_scan", "android": "https://dc.lft.to/lastmile_qr_scan"}, "fusion_lon": 0.0, "lon": -77.0460385, "name": "32cbd0580b02c1a458a8ced7b417d209", "is_reserved": 0, "is_disabled": 0}, {"lat": 38.91883833333333, "fusion_lat": 0.0, "type": "electric_scooter", "bike_id": "6bf8567996d643636e6b928f46d2eb28", "rental_uris": {"ios": "https://dc.lft.to/lastmile_qr_scan", "android": "https://dc.lft.to/lastmile_qr_scan"}, "fusion_lon": 0.0, "lon": -77.02186, "name": "6bf8567996d643636e6b928f46d2eb28", "is_reserved": 0, "is_disabled": 0}, {"lat": 38.924693500000004, "fusion_lat": 0.0, "type": "electric_scooter", "bike_id": "3a55ca08cb446fef762bff41d79154ee", "rental_uris": {"ios": "https://dc.lft.to/lastmile_qr_scan", "android": "https://dc.lft.to/lastmile_qr_scan"}, "fusion_lon": 0.0, "lon": -77.0523545, "name": "3a55ca08cb446fef762bff41d79154ee", "is_reserved": 0, "is_disabled": 0}, {"lat": 38.88765466666667, "fusion_lat": 0.0, "type": "electric_scooter", "bike_id": "fb4a2528a295127924e9e495f768a6e2", "rental_uris": {"ios": "https://dc.lft.to/lastmile_qr_scan", "android": "https://dc.lft.to/lastmile_qr_scan"}, "fusion_lon": 0.0, "lon": -77.013016, "name": "fb4a2528a295127924e9e495f768a6e2", "is_reserved": 0, "is_disabled": 0}, {"lat": 38.87620166666667, "fusion_lat": 0.0, "type": "electric_scooter", "bike_id": "82a52ac30aab4bcfdf963ef53670ab09", "rental_uris": {"ios": "https://dc.lft.to/lastmile_qr_scan", "android": "https://dc.lft.to/lastmile_qr_scan"}, "fusion_lon": 0.0, "lon": -76.9654555, "name": "82a52ac30aab4bcfdf963ef53670ab09", "is_reserved": 0, "is_disabled": 0}, {"lat": 38.9259285, "fusion_lat": 0.0, "type": "electric_bike", "bike_id": "6eb5f9148950664df1e2649eedeced2e", "rental_uris": {"ios": "https://dc.lft.to/lastmile_qr_scan", "android": "https://dc.lft.to/lastmile_qr_scan"}, "fusion_lon": 0.0, "lon": -77.2100315, "name": "6eb5f9148950664df1e2649eedeced2e", "is_reserved": 0, "is_disabled": 0}, {"lat": 38.90429916666667, "fusion_lat": 0.0, "type": "electric_scooter", "bike_id": "2a2b38f537bfa9c0a5a0ecf8b3ee931f", "rental_uris": {"ios": "https://dc.lft.to/lastmile_qr_scan", "android": "https://dc.lft.to/lastmile_qr_scan"}, "fusion_lon": 0.0, "lon": -76.99944433333333, "name": "2a2b38f537bfa9c0a5a0ecf8b3ee931f", "is_reserved": 0, "is_disabled": 0}, {"lat": 38.915829333333335, "fusion_lat": 0.0, "type": "electric_scooter", "bike_id": "956c5e5a3c012c79be7a55e7406ddefb", "rental_uris": {"ios": "https://dc.lft.to/lastmile_qr_scan", "android": "https://dc.lft.to/lastmile_qr_scan"}, "fusion_lon": 0.0, "lon": -77.0171745, "name": "956c5e5a3c012c79be7a55e7406ddefb", "is_reserved": 0, "is_disabled": 0}, {"lat": 38.89223033333333, "fusion_lat": 0.0, "type": "electric_scooter", "bike_id": "712a56cbef3ccb0db205e699db14ebc6", "rental_uris": {"ios": "https://dc.lft.to/lastmile_qr_scan", "android": "https://dc.lft.to/lastmile_qr_scan"}, "fusion_lon": 0.0, "lon": -77.0265645, "name": "712a56cbef3ccb0db205e699db14ebc6", "is_reserved": 0, "is_disabled": 0}, {"lat": 38.9243365, "fusion_lat": 0.0, "type": "electric_scooter", "bike_id": "bf05d9435f2d397503d600cd1f2ab767", "rental_uris": {"ios": "https://dc.lft.to/lastmile_qr_scan", "android": "https://dc.lft.to/lastmile_qr_scan"}, "fusion_lon": 0.0, "lon": -77.02038466666667, "name": "bf05d9435f2d397503d600cd1f2ab767", "is_reserved": 0, "is_disabled": 0}, {"lat": 38.827887833333335, "fusion_lat": 0.0, "type": "electric_bike", "bike_id": "bddd1a1943edeb26c6e7fc4f664c9c45", "rental_uris": {"ios": "https://dc.lft.to/lastmile_qr_scan", "android": "https://dc.lft.to/lastmile_qr_scan"}, "fusion_lon": 0.0, "lon": -77.12484616666667, "name": "bddd1a1943edeb26c6e7fc4f664c9c45", "is_reserved": 0, "is_disabled": 0}, {"lat": 38.89221166666667, "fusion_lat": 0.0, "type": "electric_scooter", "bike_id": "129f2a2c4e2998b95239dc7afedb46a2", "rental_uris": {"ios": "https://dc.lft.to/lastmile_qr_scan", "android": "https://dc.lft.to/lastmile_qr_scan"}, "fusion_lon": 0.0, "lon": -77.041954, "name": "129f2a2c4e2998b95239dc7afedb46a2", "is_reserved": 0, "is_disabled": 0}, {"lat": 38.92152466666667, "fusion_lat": 0.0, "type": "electric_scooter", "bike_id": "816c46e45c1d5d6a639cb7394ed9566c", "rental_uris": {"ios": "https://dc.lft.to/lastmile_qr_scan", "android": "https://dc.lft.to/lastmile_qr_scan"}, "fusion_lon": 0.0, "lon": -77.02093733333334, "name": "816c46e45c1d5d6a639cb7394ed9566c", "is_reserved": 0, "is_disabled": 0}, {"lat": 38.9111915, "fusion_lat": 0.0, "type": "electric_scooter", "bike_id": "65a68d47b2bd81f274dd2d1f65b88c91", "rental_uris": {"ios": "https://dc.lft.to/lastmile_qr_scan", "android": "https://dc.lft.to/lastmile_qr_scan"}, "fusion_lon": 0.0, "lon": -77.045298, "name": "65a68d47b2bd81f274dd2d1f65b88c91", "is_reserved": 0, "is_disabled": 0}, {"lat": 38.906267666666665, "fusion_lat": 0.0, "type": "electric_scooter", "bike_id": "61e0762295091e80826f98ec4ba28b37", "rental_uris": {"ios": "https://dc.lft.to/lastmile_qr_scan", "android": "https://dc.lft.to/lastmile_qr_scan"}, "fusion_lon": 0.0, "lon": -77.02496933333333, "name": "61e0762295091e80826f98ec4ba28b37", "is_reserved": 0, "is_disabled": 0}, {"lat": 38.906055333333335, "fusion_lat": 0.0, "type": "electric_scooter", "bike_id": "7d8229d9d4dc2af444ba478ffcbb8bd2", "rental_uris": {"ios": "https://dc.lft.to/lastmile_qr_scan", "android": "https://dc.lft.to/lastmile_qr_scan"}, "fusion_lon": 0.0, "lon": -77.06376516666667, "name": "7d8229d9d4dc2af444ba478ffcbb8bd2", "is_reserved": 0, "is_disabled": 0}, {"lat": 38.923297833333336, "fusion_lat": 0.0, "type": "electric_scooter", "bike_id": "9708ffd0a0e8420350f7865bed411bb2", "rental_uris": {"ios": "https://dc.lft.to/lastmile_qr_scan", "android": "https://dc.lft.to/lastmile_qr_scan"}, "fusion_lon": 0.0, "lon": -77.0568535, "name": "9708ffd0a0e8420350f7865bed411bb2", "is_reserved": 0, "is_disabled": 0}, {"lat": 38.918706666666665, "fusion_lat": 0.0, "type": "electric_scooter", "bike_id": "c56fde28a4b07149ca678f734ce5013a", "rental_uris": {"ios": "https://dc.lft.to/lastmile_qr_scan", "android": "https://dc.lft.to/lastmile_qr_scan"}, "fusion_lon": 0.0, "lon": -77.04195766666666, "name": "c56fde28a4b07149ca678f734ce5013a", "is_reserved": 0, "is_disabled": 0}, {"lat": 38.92649733333333, "fusion_lat": 0.0, "type": "electric_scooter", "bike_id": "48228efdec0ab3d10d86a51ccfab2f19", "rental_uris": {"ios": "https://dc.lft.to/lastmile_qr_scan", "android": "https://dc.lft.to/lastmile_qr_scan"}, "fusion_lon": 0.0, "lon": -77.037251, "name": "48228efdec0ab3d10d86a51ccfab2f19", "is_reserved": 0, "is_disabled": 0}, {"lat": 38.92321716666667, "fusion_lat": 0.0, "type": "electric_scooter", "bike_id": "a9f617fff24704b9c528b21b01b60c10", "rental_uris": {"ios": "https://dc.lft.to/lastmile_qr_scan", "android": "https://dc.lft.to/lastmile_qr_scan"}, "fusion_lon": 0.0, "lon": -77.041094, "name": "a9f617fff24704b9c528b21b01b60c10", "is_reserved": 0, "is_disabled": 0}, {"lat": 38.917994666666665, "fusion_lat": 0.0, "type": "electric_scooter", "bike_id": "64ece8c7313d8f42215f7f9bff627585", "rental_uris": {"ios": "https://dc.lft.to/lastmile_qr_scan", "android": "https://dc.lft.to/lastmile_qr_scan"}, "fusion_lon": 0.0, "lon": -77.03177066666667, "name": "64ece8c7313d8f42215f7f9bff627585", "is_reserved": 0, "is_disabled": 0}, {"lat": 38.8719245, "fusion_lat": 0.0, "type": "electric_scooter", "bike_id": "c54763ccbc2b9a600662cd965964b4a1", "rental_uris": {"ios": "https://dc.lft.to/lastmile_qr_scan", "android": "https://dc.lft.to/lastmile_qr_scan"}, "fusion_lon": 0.0, "lon": -77.013698, "name": "c54763ccbc2b9a600662cd965964b4a1", "is_reserved": 0, "is_disabled": 0}, {"lat": 38.915105, "fusion_lat": 0.0, "type": "electric_scooter", "bike_id": "52684df92181a7d5a7f991a881185de2", "rental_uris": {"ios": "https://dc.lft.to/lastmile_qr_scan", "android": "https://dc.lft.to/lastmile_qr_scan"}, "fusion_lon": 0.0, "lon": -77.0156685, "name": "52684df92181a7d5a7f991a881185de2", "is_reserved": 0, "is_disabled": 0}, {"lat": 38.902477833333336, "fusion_lat": 0.0, "type": "electric_scooter", "bike_id": "fb517cba0ae059160f4a36be9599f151", "rental_uris": {"ios": "https://dc.lft.to/lastmile_qr_scan", "android": "https://dc.lft.to/lastmile_qr_scan"}, "fusion_lon": 0.0, "lon": -77.0363135, "name": "fb517cba0ae059160f4a36be9599f151", "is_reserved": 0, "is_disabled": 0}, {"lat": 38.90808783333333, "fusion_lat": 0.0, "type": "electric_scooter", "bike_id": "ba15876cd7263215e310f7b3d8c5f53d", "rental_uris": {"ios": "https://dc.lft.to/lastmile_qr_scan", "android": "https://dc.lft.to/lastmile_qr_scan"}, "fusion_lon": 0.0, "lon": -77.02531533333334, "name": "ba15876cd7263215e310f7b3d8c5f53d", "is_reserved": 0, "is_disabled": 0}, {"lat": 38.8971435, "fusion_lat": 0.0, "type": "electric_scooter", "bike_id": "e7240494b2a1f9037c6ced5147212b9c", "rental_uris": {"ios": "https://dc.lft.to/lastmile_qr_scan", "android": "https://dc.lft.to/lastmile_qr_scan"}, "fusion_lon": 0.0, "lon": -77.00791933333333, "name": "e7240494b2a1f9037c6ced5147212b9c", "is_reserved": 0, "is_disabled": 0}, {"lat": 38.907268333333334, "fusion_lat": 0.0, "type": "electric_scooter", "bike_id": "19f2e32a1578234e0671b722925235df", "rental_uris": {"ios": "https://dc.lft.to/lastmile_qr_scan", "android": "https://dc.lft.to/lastmile_qr_scan"}, "fusion_lon": 0.0, "lon": -77.076107, "name": "19f2e32a1578234e0671b722925235df", "is_reserved": 0, "is_disabled": 0}, {"lat": 38.903650166666665, "fusion_lat": 0.0, "type": "electric_scooter", "bike_id": "c67dcbc5322deb5a7ccea88bf7efb92b", "rental_uris": {"ios": "https://dc.lft.to/lastmile_qr_scan", "android": "https://dc.lft.to/lastmile_qr_scan"}, "fusion_lon": 0.0, "lon": -77.03163083333334, "name": "c67dcbc5322deb5a7ccea88bf7efb92b", "is_reserved": 0, "is_disabled": 0}, {"lat": 38.92318683333333, "fusion_lat": 0.0, "type": "electric_scooter", "bike_id": "ba803da24211e060928f1122ef0c5528", "rental_uris": {"ios": "https://dc.lft.to/lastmile_qr_scan", "android": "https://dc.lft.to/lastmile_qr_scan"}, "fusion_lon": 0.0, "lon": -77.03971033333333, "name": "ba803da24211e060928f1122ef0c5528", "is_reserved": 0, "is_disabled": 0}, {"lat": 38.900591166666665, "fusion_lat": 0.0, "type": "electric_scooter", "bike_id": "de86b2b4981bee143f6433c779fc9327", "rental_uris": {"ios": "https://dc.lft.to/lastmile_qr_scan", "android": "https://dc.lft.to/lastmile_qr_scan"}, "fusion_lon": 0.0, "lon": -77.05133366666666, "name": "de86b2b4981bee143f6433c779fc9327", "is_reserved": 0, "is_disabled": 0}, {"lat": 38.898748166666664, "fusion_lat": 0.0, "type": "electric_scooter", "bike_id": "9883fc130d5d1f1466ed97cfdc973b16", "rental_uris": {"ios": "https://dc.lft.to/lastmile_qr_scan", "android": "https://dc.lft.to/lastmile_qr_scan"}, "fusion_lon": 0.0, "lon": -76.9318655, "name": "9883fc130d5d1f1466ed97cfdc973b16", "is_reserved": 0, "is_disabled": 0}, {"lat": 38.9126465, "fusion_lat": 0.0, "type": "electric_scooter", "bike_id": "2d0eaad8fba1b25a7ed20bc9fd6c2966", "rental_uris": {"ios": "https://dc.lft.to/lastmile_qr_scan", "android": "https://dc.lft.to/lastmile_qr_scan"}, "fusion_lon": 0.0, "lon": -77.03175816666666, "name": "2d0eaad8fba1b25a7ed20bc9fd6c2966", "is_reserved": 0, "is_disabled": 0}, {"lat": 38.889298833333335, "fusion_lat": 0.0, "type": "electric_scooter", "bike_id": "c5a520652d14ea9d2f2a961729ec4f92", "rental_uris": {"ios": "https://dc.lft.to/lastmile_qr_scan", "android": "https://dc.lft.to/lastmile_qr_scan"}, "fusion_lon": 0.0, "lon": -76.99369316666667, "name": "c5a520652d14ea9d2f2a961729ec4f92", "is_reserved": 0, "is_disabled": 0}, {"lat": 38.898555, "fusion_lat": 0.0, "type": "electric_scooter", "bike_id": "6bbc9de296be5464fb21f38d137ba5ff", "rental_uris": {"ios": "https://dc.lft.to/lastmile_qr_scan", "android": "https://dc.lft.to/lastmile_qr_scan"}, "fusion_lon": 0.0, "lon": -77.0136985, "name": "6bbc9de296be5464fb21f38d137ba5ff", "is_reserved": 0, "is_disabled": 0}, {"lat": 38.898346833333335, "fusion_lat": 0.0, "type": "electric_scooter", "bike_id": "1cb7dd1639d00c1685ac9bcb5bfc0b64", "rental_uris": {"ios": "https://dc.lft.to/lastmile_qr_scan", "android": "https://dc.lft.to/lastmile_qr_scan"}, "fusion_lon": 0.0, "lon": -77.04656966666667, "name": "1cb7dd1639d00c1685ac9bcb5bfc0b64", "is_reserved": 0, "is_disabled": 0}, {"lat": 38.898339666666665, "fusion_lat": 0.0, "type": "electric_scooter", "bike_id": "fcbfa63b50a59806151fe31fe0bad2e8", "rental_uris": {"ios": "https://dc.lft.to/lastmile_qr_scan", "android": "https://dc.lft.to/lastmile_qr_scan"}, "fusion_lon": 0.0, "lon": -77.00746466666666, "name": "fcbfa63b50a59806151fe31fe0bad2e8", "is_reserved": 0, "is_disabled": 0}, {"lat": 38.907338833333334, "fusion_lat": 0.0, "type": "electric_scooter", "bike_id": "48b55d62af797a0c754c825ac3037e78", "rental_uris": {"ios": "https://dc.lft.to/lastmile_qr_scan", "android": "https://dc.lft.to/lastmile_qr_scan"}, "fusion_lon": 0.0, "lon": -77.01305933333333, "name": "48b55d62af797a0c754c825ac3037e78", "is_reserved": 0, "is_disabled": 0}, {"lat": 38.847589666666664, "fusion_lat": 0.0, "type": "electric_scooter", "bike_id": "a31866d803f903fc7c1510e41aef7179", "rental_uris": {"ios": "https://dc.lft.to/lastmile_qr_scan", "android": "https://dc.lft.to/lastmile_qr_scan"}, "fusion_lon": 0.0, "lon": -76.99500633333334, "name": "a31866d803f903fc7c1510e41aef7179", "is_reserved": 0, "is_disabled": 0}, {"lat": 38.898366, "fusion_lat": 0.0, "type": "electric_scooter", "bike_id": "c8e0bc058298684124ad0684a25e9c7d", "rental_uris": {"ios": "https://dc.lft.to/lastmile_qr_scan", "android": "https://dc.lft.to/lastmile_qr_scan"}, "fusion_lon": 0.0, "lon": -77.02856783333333, "name": "c8e0bc058298684124ad0684a25e9c7d", "is_reserved": 0, "is_disabled": 0}, {"lat": 38.924387, "fusion_lat": 0.0, "type": "electric_scooter", "bike_id": "49153a49c09216cb05c4d50f99d94205", "rental_uris": {"ios": "https://dc.lft.to/lastmile_qr_scan", "android": "https://dc.lft.to/lastmile_qr_scan"}, "fusion_lon": 0.0, "lon": -77.020283, "name": "49153a49c09216cb05c4d50f99d94205", "is_reserved": 0, "is_disabled": 0}, {"lat": 38.89701916666667, "fusion_lat": 0.0, "type": "electric_bike", "bike_id": "ddcd5fbc22042b9531958a1652d29b27", "rental_uris": {"ios": "https://dc.lft.to/lastmile_qr_scan", "android": "https://dc.lft.to/lastmile_qr_scan"}, "fusion_lon": 0.0, "lon": -76.96305816666667, "name": "ddcd5fbc22042b9531958a1652d29b27", "is_reserved": 0, "is_disabled": 0}, {"lat": 38.924463, "fusion_lat": 0.0, "type": "electric_scooter", "bike_id": "edbc01b43d7d367a307d7652009c256a", "rental_uris": {"ios": "https://dc.lft.to/lastmile_qr_scan", "android": "https://dc.lft.to/lastmile_qr_scan"}, "fusion_lon": 0.0, "lon": -76.98989066666667, "name": "edbc01b43d7d367a307d7652009c256a", "is_reserved": 0, "is_disabled": 0}, {"lat": 38.880139666666665, "fusion_lat": 0.0, "type": "electric_scooter", "bike_id": "df47dffb54ea9a533b13a7dbbe5c2548", "rental_uris": {"ios": "https://dc.lft.to/lastmile_qr_scan", "android": "https://dc.lft.to/lastmile_qr_scan"}, "fusion_lon": 0.0, "lon": -76.98069583333333, "name": "df47dffb54ea9a533b13a7dbbe5c2548", "is_reserved": 0, "is_disabled": 0}, {"lat": 38.9053295, "fusion_lat": 0.0, "type": "electric_scooter", "bike_id": "cd4e29f3d6a8348bb8809e6a3d0119ef", "rental_uris": {"ios": "https://dc.lft.to/lastmile_qr_scan", "android": "https://dc.lft.to/lastmile_qr_scan"}, "fusion_lon": 0.0, "lon": -77.04951316666667, "name": "cd4e29f3d6a8348bb8809e6a3d0119ef", "is_reserved": 0, "is_disabled": 0}, {"lat": 38.887369666666665, "fusion_lat": 0.0, "type": "electric_scooter", "bike_id": "e0b9824eb20e5408ca27510fa93e9de0", "rental_uris": {"ios": "https://dc.lft.to/lastmile_qr_scan", "android": "https://dc.lft.to/lastmile_qr_scan"}, "fusion_lon": 0.0, "lon": -77.03170466666667, "name": "e0b9824eb20e5408ca27510fa93e9de0", "is_reserved": 0, "is_disabled": 0}, {"lat": 38.962209333333334, "fusion_lat": 0.0, "type": "electric_bike", "bike_id": "ae6661fa5126ee3445759cbb0bca1388", "rental_uris": {"ios": "https://dc.lft.to/lastmile_qr_scan", "android": "https://dc.lft.to/lastmile_qr_scan"}, "fusion_lon": 0.0, "lon": -77.02624516666667, "name": "ae6661fa5126ee3445759cbb0bca1388", "is_reserved": 0, "is_disabled": 0}, {"lat": 38.887338666666665, "fusion_lat": 0.0, "type": "electric_scooter", "bike_id": "f4684d47705069fad07e2dbd51d62043", "rental_uris": {"ios": "https://dc.lft.to/lastmile_qr_scan", "android": "https://dc.lft.to/lastmile_qr_scan"}, "fusion_lon": 0.0, "lon": -77.0138615, "name": "f4684d47705069fad07e2dbd51d62043", "is_reserved": 0, "is_disabled": 0}, {"lat": 38.923092, "fusion_lat": 0.0, "type": "electric_scooter", "bike_id": "76f2dd0d6db76e17404ebfd10afc7a3a", "rental_uris": {"ios": "https://dc.lft.to/lastmile_qr_scan", "android": "https://dc.lft.to/lastmile_qr_scan"}, "fusion_lon": 0.0, "lon": -77.0391075, "name": "76f2dd0d6db76e17404ebfd10afc7a3a", "is_reserved": 0, "is_disabled": 0}, {"lat": 38.90256816666667, "fusion_lat": 0.0, "type": "electric_scooter", "bike_id": "a1ceb0461cf02c04036ce6bf2d0cdeb1", "rental_uris": {"ios": "https://dc.lft.to/lastmile_qr_scan", "android": "https://dc.lft.to/lastmile_qr_scan"}, "fusion_lon": 0.0, "lon": -77.04609666666667, "name": "a1ceb0461cf02c04036ce6bf2d0cdeb1", "is_reserved": 0, "is_disabled": 0}, {"lat": 38.9259095, "fusion_lat": 0.0, "type": "electric_scooter", "bike_id": "a72b1c05e4e5a10cef1d0bd3a58e134c", "rental_uris": {"ios": "https://dc.lft.to/lastmile_qr_scan", "android": "https://dc.lft.to/lastmile_qr_scan"}, "fusion_lon": 0.0, "lon": -77.036415, "name": "a72b1c05e4e5a10cef1d0bd3a58e134c", "is_reserved": 0, "is_disabled": 0}, {"lat": 38.88745083333333, "fusion_lat": 0.0, "type": "electric_scooter", "bike_id": "56a715a805ff3b808732d399be98dc3f", "rental_uris": {"ios": "https://dc.lft.to/lastmile_qr_scan", "android": "https://dc.lft.to/lastmile_qr_scan"}, "fusion_lon": 0.0, "lon": -77.01397833333333, "name": "56a715a805ff3b808732d399be98dc3f", "is_reserved": 0, "is_disabled": 0}, {"lat": 38.956769333333334, "fusion_lat": 0.0, "type": "electric_scooter", "bike_id": "bf8c7af7ac27bfd4bf37b9503f29e8ef", "rental_uris": {"ios": "https://dc.lft.to/lastmile_qr_scan", "android": "https://dc.lft.to/lastmile_qr_scan"}, "fusion_lon": 0.0, "lon": -77.0136125, "name": "bf8c7af7ac27bfd4bf37b9503f29e8ef", "is_reserved": 0, "is_disabled": 0}, {"lat": 38.928769833333334, "fusion_lat": 0.0, "type": "electric_scooter", "bike_id": "641e3a3334859d0b5ddce310d4fc2621", "rental_uris": {"ios": "https://dc.lft.to/lastmile_qr_scan", "android": "https://dc.lft.to/lastmile_qr_scan"}, "fusion_lon": 0.0, "lon": -77.0327175, "name": "641e3a3334859d0b5ddce310d4fc2621", "is_reserved": 0, "is_disabled": 0}, {"lat": 38.900429333333335, "fusion_lat": 0.0, "type": "electric_scooter", "bike_id": "79f52f011a4e4c911a308613bb8c007e", "rental_uris": {"ios": "https://dc.lft.to/lastmile_qr_scan", "android": "https://dc.lft.to/lastmile_qr_scan"}, "fusion_lon": 0.0, "lon": -77.0220385, "name": "79f52f011a4e4c911a308613bb8c007e", "is_reserved": 0, "is_disabled": 0}, {"lat": 38.8872795, "fusion_lat": 0.0, "type": "electric_scooter", "bike_id": "671dd086a07645c117c3bf4b616fc5b6", "rental_uris": {"ios": "https://dc.lft.to/lastmile_qr_scan", "android": "https://dc.lft.to/lastmile_qr_scan"}, "fusion_lon": 0.0, "lon": -77.0238195, "name": "671dd086a07645c117c3bf4b616fc5b6", "is_reserved": 0, "is_disabled": 0}, {"lat": 38.918004, "fusion_lat": 0.0, "type": "electric_scooter", "bike_id": "af92a9195b35984c1afdbb2bc1974b38", "rental_uris": {"ios": "https://dc.lft.to/lastmile_qr_scan", "android": "https://dc.lft.to/lastmile_qr_scan"}, "fusion_lon": 0.0, "lon": -77.02706183333333, "name": "af92a9195b35984c1afdbb2bc1974b38", "is_reserved": 0, "is_disabled": 0}, {"lat": 38.9246985, "fusion_lat": 0.0, "type": "electric_scooter", "bike_id": "6ffaf863645af5c3e2bb4a8f141f4d03", "rental_uris": {"ios": "https://dc.lft.to/lastmile_qr_scan", "android": "https://dc.lft.to/lastmile_qr_scan"}, "fusion_lon": 0.0, "lon": -77.0215035, "name": "6ffaf863645af5c3e2bb4a8f141f4d03", "is_reserved": 0, "is_disabled": 0}, {"lat": 38.95652966666667, "fusion_lat": 0.0, "type": "electric_scooter", "bike_id": "54cb093b2a5e7cc164d3b50551ec6c07", "rental_uris": {"ios": "https://dc.lft.to/lastmile_qr_scan", "android": "https://dc.lft.to/lastmile_qr_scan"}, "fusion_lon": 0.0, "lon": -77.01964666666667, "name": "54cb093b2a5e7cc164d3b50551ec6c07", "is_reserved": 0, "is_disabled": 0}, {"lat": 38.92241966666667, "fusion_lat": 0.0, "type": "electric_scooter", "bike_id": "b3a09e7f8be4272b9605cb0a92173012", "rental_uris": {"ios": "https://dc.lft.to/lastmile_qr_scan", "android": "https://dc.lft.to/lastmile_qr_scan"}, "fusion_lon": 0.0, "lon": -77.07309983333333, "name": "b3a09e7f8be4272b9605cb0a92173012", "is_reserved": 0, "is_disabled": 0}, {"lat": 38.89777216666667, "fusion_lat": 0.0, "type": "electric_scooter", "bike_id": "58a4e8a35ac693ee92cae0a25e49a468", "rental_uris": {"ios": "https://dc.lft.to/lastmile_qr_scan", "android": "https://dc.lft.to/lastmile_qr_scan"}, "fusion_lon": 0.0, "lon": -77.05471866666667, "name": "58a4e8a35ac693ee92cae0a25e49a468", "is_reserved": 0, "is_disabled": 0}, {"lat": 38.930878666666665, "fusion_lat": 0.0, "type": "electric_scooter", "bike_id": "1405f0adad88ad2a72d206de07e8ff97", "rental_uris": {"ios": "https://dc.lft.to/lastmile_qr_scan", "android": "https://dc.lft.to/lastmile_qr_scan"}, "fusion_lon": 0.0, "lon": -77.025533, "name": "1405f0adad88ad2a72d206de07e8ff97", "is_reserved": 0, "is_disabled": 0}, {"lat": 38.896075, "fusion_lat": 0.0, "type": "electric_scooter", "bike_id": "4a460eb259d4d6cb5cb468f9bffba398", "rental_uris": {"ios": "https://dc.lft.to/lastmile_qr_scan", "android": "https://dc.lft.to/lastmile_qr_scan"}, "fusion_lon": 0.0, "lon": -77.0092725, "name": "4a460eb259d4d6cb5cb468f9bffba398", "is_reserved": 0, "is_disabled": 0}, {"lat": 38.90212483333333, "fusion_lat": 0.0, "type": "electric_scooter", "bike_id": "6e9f27a992e2600b515e52c3e17af7b1", "rental_uris": {"ios": "https://dc.lft.to/lastmile_qr_scan", "android": "https://dc.lft.to/lastmile_qr_scan"}, "fusion_lon": 0.0, "lon": -77.02371566666666, "name": "6e9f27a992e2600b515e52c3e17af7b1", "is_reserved": 0, "is_disabled": 0}, {"lat": 38.89224133333333, "fusion_lat": 0.0, "type": "electric_scooter", "bike_id": "f838a0cc81cab1dd26577610879d6d62", "rental_uris": {"ios": "https://dc.lft.to/lastmile_qr_scan", "android": "https://dc.lft.to/lastmile_qr_scan"}, "fusion_lon": 0.0, "lon": -77.02781966666667, "name": "f838a0cc81cab1dd26577610879d6d62", "is_reserved": 0, "is_disabled": 0}, {"lat": 38.927682833333336, "fusion_lat": 0.0, "type": "electric_scooter", "bike_id": "d2e3d9ce77826d6e5dfc56bb4a1309e4", "rental_uris": {"ios": "https://dc.lft.to/lastmile_qr_scan", "android": "https://dc.lft.to/lastmile_qr_scan"}, "fusion_lon": 0.0, "lon": -77.032483, "name": "d2e3d9ce77826d6e5dfc56bb4a1309e4", "is_reserved": 0, "is_disabled": 0}, {"lat": 38.92320216666667, "fusion_lat": 0.0, "type": "electric_scooter", "bike_id": "2245d7eca40fb4b7c363de6f1a8b5e34", "rental_uris": {"ios": "https://dc.lft.to/lastmile_qr_scan", "android": "https://dc.lft.to/lastmile_qr_scan"}, "fusion_lon": 0.0, "lon": -77.0297445, "name": "2245d7eca40fb4b7c363de6f1a8b5e34", "is_reserved": 0, "is_disabled": 0}, {"lat": 38.92041783333333, "fusion_lat": 0.0, "type": "electric_scooter", "bike_id": "1da0b9798c77b7c47f8aae12d8a69c80", "rental_uris": {"ios": "https://dc.lft.to/lastmile_qr_scan", "android": "https://dc.lft.to/lastmile_qr_scan"}, "fusion_lon": 0.0, "lon": -77.01808116666666, "name": "1da0b9798c77b7c47f8aae12d8a69c80", "is_reserved": 0, "is_disabled": 0}, {"lat": 38.91805683333333, "fusion_lat": 0.0, "type": "electric_scooter", "bike_id": "73beb9c03ec875afe8f3175f57e47210", "rental_uris": {"ios": "https://dc.lft.to/lastmile_qr_scan", "android": "https://dc.lft.to/lastmile_qr_scan"}, "fusion_lon": 0.0, "lon": -77.025486, "name": "73beb9c03ec875afe8f3175f57e47210", "is_reserved": 0, "is_disabled": 0}, {"lat": 38.87419716666667, "fusion_lat": 0.0, "type": "electric_scooter", "bike_id": "b1e52b32cc196ff6b24421e268e57dd7", "rental_uris": {"ios": "https://dc.lft.to/lastmile_qr_scan", "android": "https://dc.lft.to/lastmile_qr_scan"}, "fusion_lon": 0.0, "lon": -77.0008165, "name": "b1e52b32cc196ff6b24421e268e57dd7", "is_reserved": 0, "is_disabled": 0}, {"lat": 38.917004166666665, "fusion_lat": 0.0, "type": "electric_scooter", "bike_id": "586fb4d45cf645e84a699ba17d1f6825", "rental_uris": {"ios": "https://dc.lft.to/lastmile_qr_scan", "android": "https://dc.lft.to/lastmile_qr_scan"}, "fusion_lon": 0.0, "lon": -77.0248585, "name": "586fb4d45cf645e84a699ba17d1f6825", "is_reserved": 0, "is_disabled": 0}, {"lat": 38.93332816666667, "fusion_lat": 0.0, "type": "electric_scooter", "bike_id": "b44b00e3e34b1a1ca838021db3e3f741", "rental_uris": {"ios": "https://dc.lft.to/lastmile_qr_scan", "android": "https://dc.lft.to/lastmile_qr_scan"}, "fusion_lon": 0.0, "lon": -77.02912533333334, "name": "b44b00e3e34b1a1ca838021db3e3f741", "is_reserved": 0, "is_disabled": 0}, {"lat": 38.915467166666666, "fusion_lat": 0.0, "type": "electric_scooter", "bike_id": "d646beba13a0740b8432fade9a33210d", "rental_uris": {"ios": "https://dc.lft.to/lastmile_qr_scan", "android": "https://dc.lft.to/lastmile_qr_scan"}, "fusion_lon": 0.0, "lon": -76.98345083333334, "name": "d646beba13a0740b8432fade9a33210d", "is_reserved": 0, "is_disabled": 0}, {"lat": 38.926039333333335, "fusion_lat": 0.0, "type": "electric_scooter", "bike_id": "b6dce6b1a1ef43f011ee9bbb67c12b49", "rental_uris": {"ios": "https://dc.lft.to/lastmile_qr_scan", "android": "https://dc.lft.to/lastmile_qr_scan"}, "fusion_lon": 0.0, "lon": -77.02153133333333, "name": "b6dce6b1a1ef43f011ee9bbb67c12b49", "is_reserved": 0, "is_disabled": 0}, {"lat": 38.89576116666667, "fusion_lat": 0.0, "type": "electric_scooter", "bike_id": "d4e23faaeaac492ebba1fcafa0005608", "rental_uris": {"ios": "https://dc.lft.to/lastmile_qr_scan", "android": "https://dc.lft.to/lastmile_qr_scan"}, "fusion_lon": 0.0, "lon": -77.021711, "name": "d4e23faaeaac492ebba1fcafa0005608", "is_reserved": 0, "is_disabled": 0}, {"lat": 38.924927, "fusion_lat": 0.0, "type": "electric_scooter", "bike_id": "8f9d8e542ecd82f2a57e175c19dd4786", "rental_uris": {"ios": "https://dc.lft.to/lastmile_qr_scan", "android": "https://dc.lft.to/lastmile_qr_scan"}, "fusion_lon": 0.0, "lon": -77.03919966666666, "name": "8f9d8e542ecd82f2a57e175c19dd4786", "is_reserved": 0, "is_disabled": 0}, {"lat": 38.914087, "fusion_lat": 0.0, "type": "electric_scooter", "bike_id": "cc8108616aa037128550d4cb0d7d484c", "rental_uris": {"ios": "https://dc.lft.to/lastmile_qr_scan", "android": "https://dc.lft.to/lastmile_qr_scan"}, "fusion_lon": 0.0, "lon": -77.04274183333334, "name": "cc8108616aa037128550d4cb0d7d484c", "is_reserved": 0, "is_disabled": 0}, {"lat": 38.9612795, "fusion_lat": 0.0, "type": "electric_bike", "bike_id": "511a4ecd345afc4d7c44cf6815d1fc5d", "rental_uris": {"ios": "https://dc.lft.to/lastmile_qr_scan", "android": "https://dc.lft.to/lastmile_qr_scan"}, "fusion_lon": 0.0, "lon": -77.03267666666666, "name": "511a4ecd345afc4d7c44cf6815d1fc5d", "is_reserved": 0, "is_disabled": 0}, {"lat": 38.951992, "fusion_lat": 0.0, "type": "electric_scooter", "bike_id": "e78d6ece3aedddcc1c9818c63605ad5e", "rental_uris": {"ios": "https://dc.lft.to/lastmile_qr_scan", "android": "https://dc.lft.to/lastmile_qr_scan"}, "fusion_lon": 0.0, "lon": -77.02732616666667, "name": "e78d6ece3aedddcc1c9818c63605ad5e", "is_reserved": 0, "is_disabled": 0}, {"lat": 38.92255316666667, "fusion_lat": 0.0, "type": "electric_scooter", "bike_id": "d0ec7de5d71c4b2c1c3164d1fe927c00", "rental_uris": {"ios": "https://dc.lft.to/lastmile_qr_scan", "android": "https://dc.lft.to/lastmile_qr_scan"}, "fusion_lon": 0.0, "lon": -77.01912583333333, "name": "d0ec7de5d71c4b2c1c3164d1fe927c00", "is_reserved": 0, "is_disabled": 0}, {"lat": 38.95054233333333, "fusion_lat": 0.0, "type": "electric_scooter", "bike_id": "58fc8d927c708eb6f519851e6b61ee61", "rental_uris": {"ios": "https://dc.lft.to/lastmile_qr_scan", "android": "https://dc.lft.to/lastmile_qr_scan"}, "fusion_lon": 0.0, "lon": -77.08024266666666, "name": "58fc8d927c708eb6f519851e6b61ee61", "is_reserved": 0, "is_disabled": 0}, {"lat": 38.87580666666667, "fusion_lat": 0.0, "type": "electric_bike", "bike_id": "7ae592015c4eb967716e44d326761bc6", "rental_uris": {"ios": "https://dc.lft.to/lastmile_qr_scan", "android": "https://dc.lft.to/lastmile_qr_scan"}, "fusion_lon": 0.0, "lon": -77.23410866666667, "name": "7ae592015c4eb967716e44d326761bc6", "is_reserved": 0, "is_disabled": 0}, {"lat": 38.91804116666667, "fusion_lat": 0.0, "type": "electric_scooter", "bike_id": "e4fd0dddd11ae3e3f22010102ffee19d", "rental_uris": {"ios": "https://dc.lft.to/lastmile_qr_scan", "android": "https://dc.lft.to/lastmile_qr_scan"}, "fusion_lon": 0.0, "lon": -77.02485733333333, "name": "e4fd0dddd11ae3e3f22010102ffee19d", "is_reserved": 0, "is_disabled": 0}, {"lat": 38.934474, "fusion_lat": 0.0, "type": "electric_scooter", "bike_id": "aa1c4bd971561235161d17c739ab826b", "rental_uris": {"ios": "https://dc.lft.to/lastmile_qr_scan", "android": "https://dc.lft.to/lastmile_qr_scan"}, "fusion_lon": 0.0, "lon": -77.09058716666667, "name": "aa1c4bd971561235161d17c739ab826b", "is_reserved": 0, "is_disabled": 0}, {"lat": 38.91753933333333, "fusion_lat": 0.0, "type": "electric_scooter", "bike_id": "eccdda1613d44677d7015039f7063f7e", "rental_uris": {"ios": "https://dc.lft.to/lastmile_qr_scan", "android": "https://dc.lft.to/lastmile_qr_scan"},