{"data": {"bikes": [{"lon": -77.04208033333333, "is_disabled": 0, "lat": 38.90386483333333, "fusion_lat": 0.0, "is_reserved": 0, "rental_uris": {"ios": "https://dc.lft.to/lastmile_qr_scan", "android": "https://dc.lft.to/lastmile_qr_scan"}, "fusion_lon": 0.0, "type": "electric_scooter", "bike_id": "d05c9bd6045f8f22d04017af9b01b63f", "name": "d05c9bd6045f8f22d04017af9b01b63f"}, {"lon": -77.0317175, "is_disabled": 0, "lat": 38.91814083333333, "fusion_lat": 0.0, "is_reserved": 0, "rental_uris": {"ios": "https://dc.lft.to/lastmile_qr_scan", "android": "https://dc.lft.to/lastmile_qr_scan"}, "fusion_lon": 0.0, "type": "electric_scooter", "bike_id": "cc0e55fde422a9608c9a89a3549081a7", "name": "cc0e55fde422a9608c9a89a3549081a7"}, {"lon": -77.02230716666666, "is_disabled": 0, "lat": 38.95679633333334, "fusion_lat": 0.0, "is_reserved": 0, "rental_uris": {"ios": "https://dc.lft.to/lastmile_qr_scan", "android": "https://dc.lft.to/lastmile_qr_scan"}, "fusion_lon": 0.0, "type": "electric_bike", "bike_id": "417a7e97f576d35d28f593962c1e38fc", "name": "417a7e97f576d35d28f593962c1e38fc"}, {"lon": -77.04533666666667, "is_disabled": 0, "lat": 38.934595, "fusion_lat": 0.0, "is_reserved": 0, "rental_uris": {"ios": "https://dc.lft.to/lastmile_qr_scan", "android": "https://dc.lft.to/lastmile_qr_scan"}, "fusion_lon": 0.0, "type": "electric_scooter", "bike_id": "ddde14814eee88feb8d7cf9f29602c08", "name": "ddde14814eee88feb8d7cf9f29602c08"}, {"lon": -77.02390416666667, "is_disabled": 0, "lat": 38.89658883333333, "fusion_lat": 0.0, "is_reserved": 0, "rental_uris": {"ios": "https://dc.lft.to/lastmile_qr_scan", "android": "https://dc.lft.to/lastmile_qr_scan"}, "fusion_lon": 0.0, "type": "electric_bike", "bike_id": "a390f345f4062071d7a3ea2fd9c5e4f4", "name": "a390f345f4062071d7a3ea2fd9c5e4f4"}, {"lon": -76.98054333333333, "is_disabled": 0, "lat": 38.88533833333334, "fusion_lat": 0.0, "is_reserved": 0, "rental_uris": {"ios": "https://dc.lft.to/lastmile_qr_scan", "android": "https://dc.lft.to/lastmile_qr_scan"}, "fusion_lon": 0.0, "type": "electric_scooter", "bike_id": "057d27e6de2d9e8aadea092fc4d83970", "name": "057d27e6de2d9e8aadea092fc4d83970"}, {"lon": -77.02591166666667, "is_disabled": 0, "lat": 38.915628833333336, "fusion_lat": 0.0, "is_reserved": 0, "rental_uris": {"ios": "https://dc.lft.to/lastmile_qr_scan", "android": "https://dc.lft.to/lastmile_qr_scan"}, "fusion_lon": 0.0, "type": "electric_scooter", "bike_id": "c45a7b70f8501acda41966c4179776e9", "name": "c45a7b70f8501acda41966c4179776e9"}, {"lon": -77.03828666666666, "is_disabled": 0, "lat": 38.91972283333333, "fusion_lat": 0.0, "is_reserved": 0, "rental_uris": {"ios": "https://dc.lft.to/lastmile_qr_scan", "android": "https://dc.lft.to/lastmile_qr_scan"}, "fusion_lon": 0.0, "type": "electric_scooter", "bike_id": "5d3dfa322527bdede1eb95c0857bbe30", "name": "5d3dfa322527bdede1eb95c0857bbe30"}, {"lon": -77.042069, "is_disabled": 0, "lat": 38.92257733333334, "fusion_lat": 0.0, "is_reserved": 0, "rental_uris": {"ios": "https://dc.lft.to/lastmile_qr_scan", "android": "https://dc.lft.to/lastmile_qr_scan"}, "fusion_lon": 0.0, "type": "electric_scooter", "bike_id": "3732d2a5f8536bd0972186e48731754d", "name": "3732d2a5f8536bd0972186e48731754d"}, {"lon": -77.01804766666666, "is_disabled": 0, "lat": 38.901367666666665, "fusion_lat": 0.0, "is_reserved": 0, "rental_uris": {"ios": "https://dc.lft.to/lastmile_qr_scan", "android": "https://dc.lft.to/lastmile_qr_scan"}, "fusion_lon": 0.0, "type": "electric_scooter", "bike_id": "8de98948fbce4341e9cf34f9a9abb207", "name": "8de98948fbce4341e9cf34f9a9abb207"}, {"lon": -77.03380333333334, "is_disabled": 0, "lat": 38.9384675, "fusion_lat": 0.0, "is_reserved": 0, "rental_uris": {"ios": "https://dc.lft.to/lastmile_qr_scan", "android": "https://dc.lft.to/lastmile_qr_scan"}, "fusion_lon": 0.0, "type": "electric_scooter", "bike_id": "6099b4d2719da0db11f2a9196adf79ec", "name": "6099b4d2719da0db11f2a9196adf79ec"}, {"lon": -76.94635216666667, "is_disabled": 0, "lat": 38.89831616666667, "fusion_lat": 0.0, "is_reserved": 0, "rental_uris": {"ios": "https://dc.lft.to/lastmile_qr_scan", "android": "https://dc.lft.to/lastmile_qr_scan"}, "fusion_lon": 0.0, "type": "electric_scooter", "bike_id": "ed599be75d6e403d951f549b81314cc8", "name": "ed599be75d6e403d951f549b81314cc8"}, {"lon": -76.98252216666667, "is_disabled": 0, "lat": 38.95331316666667, "fusion_lat": 0.0, "is_reserved": 0, "rental_uris": {"ios": "https://dc.lft.to/lastmile_qr_scan", "android": "https://dc.lft.to/lastmile_qr_scan"}, "fusion_lon": 0.0, "type": "electric_bike", "bike_id": "738aababb750df73257197896ef2a5f7", "name": "738aababb750df73257197896ef2a5f7"}, {"lon": -76.97881983333333, "is_disabled": 0, "lat": 38.901909, "fusion_lat": 0.0, "is_reserved": 0, "rental_uris": {"ios": "https://dc.lft.to/lastmile_qr_scan", "android": "https://dc.lft.to/lastmile_qr_scan"}, "fusion_lon": 0.0, "type": "electric_scooter", "bike_id": "989707c4f71dbda2bda643dbb804a6aa", "name": "989707c4f71dbda2bda643dbb804a6aa"}, {"lon": -77.00573266666666, "is_disabled": 0, "lat": 38.87641966666666, "fusion_lat": 0.0, "is_reserved": 0, "rental_uris": {"ios": "https://dc.lft.to/lastmile_qr_scan", "android": "https://dc.lft.to/lastmile_qr_scan"}, "fusion_lon": 0.0, "type": "electric_scooter", "bike_id": "9be39fa66bf469ad129e8dff79d0d696", "name": "9be39fa66bf469ad129e8dff79d0d696"}, {"lon": -77.03829033333334, "is_disabled": 0, "lat": 38.911081, "fusion_lat": 0.0, "is_reserved": 0, "rental_uris": {"ios": "https://dc.lft.to/lastmile_qr_scan", "android": "https://dc.lft.to/lastmile_qr_scan"}, "fusion_lon": 0.0, "type": "electric_scooter", "bike_id": "e730e01c6a737a9821cb248cd8dc8754", "name": "e730e01c6a737a9821cb248cd8dc8754"}, {"lon": -77.02493333333334, "is_disabled": 0, "lat": 38.918061, "fusion_lat": 0.0, "is_reserved": 0, "rental_uris": {"ios": "https://dc.lft.to/lastmile_qr_scan", "android": "https://dc.lft.to/lastmile_qr_scan"}, "fusion_lon": 0.0, "type": "electric_scooter", "bike_id": "3283969f2f9799ce8f43d3a4786a8d6e", "name": "3283969f2f9799ce8f43d3a4786a8d6e"}, {"lon": -77.022487, "is_disabled": 0, "lat": 38.966838, "fusion_lat": 0.0, "is_reserved": 0, "rental_uris": {"ios": "https://dc.lft.to/lastmile_qr_scan", "android": "https://dc.lft.to/lastmile_qr_scan"}, "fusion_lon": 0.0, "type": "electric_bike", "bike_id": "e79188fa877416c03d18888e02a28795", "name": "e79188fa877416c03d18888e02a28795"}, {"lon": -76.97858383333333, "is_disabled": 0, "lat": 38.84470733333333, "fusion_lat": 0.0, "is_reserved": 0, "rental_uris": {"ios": "https://dc.lft.to/lastmile_qr_scan", "android": "https://dc.lft.to/lastmile_qr_scan"}, "fusion_lon": 0.0, "type": "electric_bike", "bike_id": "aadd05ba6bd29a208d5364df1b3c070b", "name": "aadd05ba6bd29a208d5364df1b3c070b"}, {"lon": -77.012163, "is_disabled": 0, "lat": 38.898466166666665, "fusion_lat": 0.0, "is_reserved": 0, "rental_uris": {"ios": "https://dc.lft.to/lastmile_qr_scan", "android": "https://dc.lft.to/lastmile_qr_scan"}, "fusion_lon": 0.0, "type": "electric_scooter", "bike_id": "97223d0614ad7d71886647d0e13e6ac1", "name": "97223d0614ad7d71886647d0e13e6ac1"}, {"lon": -77.03477216666667, "is_disabled": 0, "lat": 38.88487883333333, "fusion_lat": 0.0, "is_reserved": 0, "rental_uris": {"ios": "https://dc.lft.to/lastmile_qr_scan", "android": "https://dc.lft.to/lastmile_qr_scan"}, "fusion_lon": 0.0, "type": "electric_scooter", "bike_id": "a6be6c1ed09d0fcc48eb99af9d363a39", "name": "a6be6c1ed09d0fcc48eb99af9d363a39"}, {"lon": -76.983758, "is_disabled": 0, "lat": 38.87946783333334, "fusion_lat": 0.0, "is_reserved": 0, "rental_uris": {"ios": "https://dc.lft.to/lastmile_qr_scan", "android": "https://dc.lft.to/lastmile_qr_scan"}, "fusion_lon": 0.0, "type": "electric_scooter", "bike_id": "1ac678126801a95eaaa0ced83df715be", "name": "1ac678126801a95eaaa0ced83df715be"}, {"lon": -77.02555033333333, "is_disabled": 0, "lat": 38.90961266666667, "fusion_lat": 0.0, "is_reserved": 0, "rental_uris": {"ios": "https://dc.lft.to/lastmile_qr_scan", "android": "https://dc.lft.to/lastmile_qr_scan"}, "fusion_lon": 0.0, "type": "electric_scooter", "bike_id": "4a3721f1851b942148c6aec460b816c3", "name": "4a3721f1851b942148c6aec460b816c3"}, {"lon": -77.05655016666667, "is_disabled": 0, "lat": 38.9061185, "fusion_lat": 0.0, "is_reserved": 0, "rental_uris": {"ios": "https://dc.lft.to/lastmile_qr_scan", "android": "https://dc.lft.to/lastmile_qr_scan"}, "fusion_lon": 0.0, "type": "electric_scooter", "bike_id": "5dce5eef40a06269a67f2b98e9331a79", "name": "5dce5eef40a06269a67f2b98e9331a79"}, {"lon": -77.05734566666666, "is_disabled": 0, "lat": 38.933605, "fusion_lat": 0.0, "is_reserved": 0, "rental_uris": {"ios": "https://dc.lft.to/lastmile_qr_scan", "android": "https://dc.lft.to/lastmile_qr_scan"}, "fusion_lon": 0.0, "type": "electric_scooter", "bike_id": "e614972580fe85de52fe03a66fc456fc", "name": "e614972580fe85de52fe03a66fc456fc"}, {"lon": -77.00849683333334, "is_disabled": 0, "lat": 38.922341, "fusion_lat": 0.0, "is_reserved": 0, "rental_uris": {"ios": "https://dc.lft.to/lastmile_qr_scan", "android": "https://dc.lft.to/lastmile_qr_scan"}, "fusion_lon": 0.0, "type": "electric_scooter", "bike_id": "0866fa56f6a5bb56807f2bae1345954b", "name": "0866fa56f6a5bb56807f2bae1345954b"}, {"lon": -77.02694383333333, "is_disabled": 0, "lat": 38.90870616666667, "fusion_lat": 0.0, "is_reserved": 0, "rental_uris": {"ios": "https://dc.lft.to/lastmile_qr_scan", "android": "https://dc.lft.to/lastmile_qr_scan"}, "fusion_lon": 0.0, "type": "electric_scooter", "bike_id": "8711d46581cfc66cb6b34ab46e4e00a8", "name": "8711d46581cfc66cb6b34ab46e4e00a8"}, {"lon": -77.02691516666667, "is_disabled": 0, "lat": 38.9045125, "fusion_lat": 0.0, "is_reserved": 0, "rental_uris": {"ios": "https://dc.lft.to/lastmile_qr_scan", "android": "https://dc.lft.to/lastmile_qr_scan"}, "fusion_lon": 0.0, "type": "electric_scooter", "bike_id": "a108627b42de4d3447e9b10dccabc71b", "name": "a108627b42de4d3447e9b10dccabc71b"}, {"lon": -77.021728, "is_disabled": 0, "lat": 38.89899716666667, "fusion_lat": 0.0, "is_reserved": 0, "rental_uris": {"ios": "https://dc.lft.to/lastmile_qr_scan", "android": "https://dc.lft.to/lastmile_qr_scan"}, "fusion_lon": 0.0, "type": "electric_scooter", "bike_id": "4fbd328f4ed7a4f34e7fd42c5b2fa782", "name": "4fbd328f4ed7a4f34e7fd42c5b2fa782"}, {"lon": -77.04813366666667, "is_disabled": 0, "lat": 38.91636616666667, "fusion_lat": 0.0, "is_reserved": 0, "rental_uris": {"ios": "https://dc.lft.to/lastmile_qr_scan", "android": "https://dc.lft.to/lastmile_qr_scan"}, "fusion_lon": 0.0, "type": "electric_scooter", "bike_id": "f5499745d3dd351f6627c649b2e47f27", "name": "f5499745d3dd351f6627c649b2e47f27"}, {"lon": -77.02983383333333, "is_disabled": 0, "lat": 38.90739883333333, "fusion_lat": 0.0, "is_reserved": 0, "rental_uris": {"ios": "https://dc.lft.to/lastmile_qr_scan", "android": "https://dc.lft.to/lastmile_qr_scan"}, "fusion_lon": 0.0, "type": "electric_scooter", "bike_id": "132f4c63a9fffa46942443e09bdeeab4", "name": "132f4c63a9fffa46942443e09bdeeab4"}, {"lon": -77.13475816666667, "is_disabled": 0, "lat": 38.8534955, "fusion_lat": 0.0, "is_reserved": 0, "rental_uris": {"ios": "https://dc.lft.to/lastmile_qr_scan", "android": "https://dc.lft.to/lastmile_qr_scan"}, "fusion_lon": 0.0, "type": "electric_bike", "bike_id": "14170e9a911c2aa8838db879bebfe54d", "name": "14170e9a911c2aa8838db879bebfe54d"}, {"lon": -77.03517, "is_disabled": 0, "lat": 38.936004, "fusion_lat": 0.0, "is_reserved": 0, "rental_uris": {"ios": "https://dc.lft.to/lastmile_qr_scan", "android": "https://dc.lft.to/lastmile_qr_scan"}, "fusion_lon": 0.0, "type": "electric_scooter", "bike_id": "7e29ea364c71954371f5fcfbc0397413", "name": "7e29ea364c71954371f5fcfbc0397413"}, {"lon": -77.021377, "is_disabled": 0, "lat": 38.91552766666667, "fusion_lat": 0.0, "is_reserved": 0, "rental_uris": {"ios": "https://dc.lft.to/lastmile_qr_scan", "android": "https://dc.lft.to/lastmile_qr_scan"}, "fusion_lon": 0.0, "type": "electric_scooter", "bike_id": "aeec8ec89680b4cdd25e9b683bd21f45", "name": "aeec8ec89680b4cdd25e9b683bd21f45"}, {"lon": -77.05064133333333, "is_disabled": 0, "lat": 38.925354166666665, "fusion_lat": 0.0, "is_reserved": 0, "rental_uris": {"ios": "https://dc.lft.to/lastmile_qr_scan", "android": "https://dc.lft.to/lastmile_qr_scan"}, "fusion_lon": 0.0, "type": "electric_scooter", "bike_id": "ff13a88eadb22789b60f38428a6575a5", "name": "ff13a88eadb22789b60f38428a6575a5"}, {"lon": -77.01315866666667, "is_disabled": 0, "lat": 38.901312, "fusion_lat": 0.0, "is_reserved": 0, "rental_uris": {"ios": "https://dc.lft.to/lastmile_qr_scan", "android": "https://dc.lft.to/lastmile_qr_scan"}, "fusion_lon": 0.0, "type": "electric_scooter", "bike_id": "4e57a35cfca54254348e7babf02b2ef6", "name": "4e57a35cfca54254348e7babf02b2ef6"}, {"lon": -76.98569333333333, "is_disabled": 0, "lat": 38.86685416666667, "fusion_lat": 0.0, "is_reserved": 0, "rental_uris": {"ios": "https://dc.lft.to/lastmile_qr_scan", "android": "https://dc.lft.to/lastmile_qr_scan"}, "fusion_lon": 0.0, "type": "electric_scooter", "bike_id": "16ce559ff59207e6d996fe1286503880", "name": "16ce559ff59207e6d996fe1286503880"}, {"lon": -76.985972, "is_disabled": 0, "lat": 38.90370983333333, "fusion_lat": 0.0, "is_reserved": 0, "rental_uris": {"ios": "https://dc.lft.to/lastmile_qr_scan", "android": "https://dc.lft.to/lastmile_qr_scan"}, "fusion_lon": 0.0, "type": "electric_scooter", "bike_id": "e71db13c92ef2cd8d08552891b6b9adc", "name": "e71db13c92ef2cd8d08552891b6b9adc"}, {"lon": -77.0317645, "is_disabled": 0, "lat": 38.90699766666667, "fusion_lat": 0.0, "is_reserved": 0, "rental_uris": {"ios": "https://dc.lft.to/lastmile_qr_scan", "android": "https://dc.lft.to/lastmile_qr_scan"}, "fusion_lon": 0.0, "type": "electric_scooter", "bike_id": "a99ba382d3ff58839ad0a5cd28b5b87e", "name": "a99ba382d3ff58839ad0a5cd28b5b87e"}, {"lon": -76.979743, "is_disabled": 0, "lat": 38.89740333333334, "fusion_lat": 0.0, "is_reserved": 0, "rental_uris": {"ios": "https://dc.lft.to/lastmile_qr_scan", "android": "https://dc.lft.to/lastmile_qr_scan"}, "fusion_lon": 0.0, "type": "electric_scooter", "bike_id": "57f3aef38c22db8b895d124fad56c793", "name": "57f3aef38c22db8b895d124fad56c793"}, {"lon": -77.023852, "is_disabled": 0, "lat": 38.989703166666665, "fusion_lat": 0.0, "is_reserved": 0, "rental_uris": {"ios": "https://dc.lft.to/lastmile_qr_scan", "android": "https://dc.lft.to/lastmile_qr_scan"}, "fusion_lon": 0.0, "type": "electric_bike", "bike_id": "d67f5c304cc38c8b715bd41144d750b7", "name": "d67f5c304cc38c8b715bd41144d750b7"}, {"lon": -77.03399066666667, "is_disabled": 0, "lat": 38.92642133333333, "fusion_lat": 0.0, "is_reserved": 0, "rental_uris": {"ios": "https://dc.lft.to/lastmile_qr_scan", "android": "https://dc.lft.to/lastmile_qr_scan"}, "fusion_lon": 0.0, "type": "electric_scooter", "bike_id": "19328cfc46bca0eaaaddf71ee0be9992", "name": "19328cfc46bca0eaaaddf71ee0be9992"}, {"lon": -76.97998966666667, "is_disabled": 0, "lat": 38.90442616666667, "fusion_lat": 0.0, "is_reserved": 0, "rental_uris": {"ios": "https://dc.lft.to/lastmile_qr_scan", "android": "https://dc.lft.to/lastmile_qr_scan"}, "fusion_lon": 0.0, "type": "electric_scooter", "bike_id": "7e1a6c9549b3ad648703e5beb2ddfe09", "name": "7e1a6c9549b3ad648703e5beb2ddfe09"}, {"lon": -77.04769116666667, "is_disabled": 0, "lat": 38.917663166666664, "fusion_lat": 0.0, "is_reserved": 0, "rental_uris": {"ios": "https://dc.lft.to/lastmile_qr_scan", "android": "https://dc.lft.to/lastmile_qr_scan"}, "fusion_lon": 0.0, "type": "electric_scooter", "bike_id": "6acf602e9e30dd540dd9d917b4b1254c", "name": "6acf602e9e30dd540dd9d917b4b1254c"}, {"lon": -76.93380816666667, "is_disabled": 0, "lat": 38.89903183333333, "fusion_lat": 0.0, "is_reserved": 0, "rental_uris": {"ios": "https://dc.lft.to/lastmile_qr_scan", "android": "https://dc.lft.to/lastmile_qr_scan"}, "fusion_lon": 0.0, "type": "electric_scooter", "bike_id": "df6c905cbb24fdb87122b3c59947a858", "name": "df6c905cbb24fdb87122b3c59947a858"}, {"lon": -77.01193016666667, "is_disabled": 0, "lat": 38.900288, "fusion_lat": 0.0, "is_reserved": 0, "rental_uris": {"ios": "https://dc.lft.to/lastmile_qr_scan", "android": "https://dc.lft.to/lastmile_qr_scan"}, "fusion_lon": 0.0, "type": "electric_scooter", "bike_id": "2b48859a86a6e8fe44ee1e74d696d168", "name": "2b48859a86a6e8fe44ee1e74d696d168"}, {"lon": -76.98084933333334, "is_disabled": 0, "lat": 38.922459, "fusion_lat": 0.0, "is_reserved": 0, "rental_uris": {"ios": "https://dc.lft.to/lastmile_qr_scan", "android": "https://dc.lft.to/lastmile_qr_scan"}, "fusion_lon": 0.0, "type": "electric_scooter", "bike_id": "ecbedef4f5d18ac7a19861fb7b8a3f21", "name": "ecbedef4f5d18ac7a19861fb7b8a3f21"}, {"lon": -77.0239755, "is_disabled": 0, "lat": 38.920813333333335, "fusion_lat": 0.0, "is_reserved": 0, "rental_uris": {"ios": "https://dc.lft.to/lastmile_qr_scan", "android": "https://dc.lft.to/lastmile_qr_scan"}, "fusion_lon": 0.0, "type": "electric_scooter", "bike_id": "78a88ba34eb8a3701d09e07a693ca226", "name": "78a88ba34eb8a3701d09e07a693ca226"}, {"lon": -77.04859783333333, "is_disabled": 0, "lat": 38.904528666666664, "fusion_lat": 0.0, "is_reserved": 0, "rental_uris": {"ios": "https://dc.lft.to/lastmile_qr_scan", "android": "https://dc.lft.to/lastmile_qr_scan"}, "fusion_lon": 0.0, "type": "electric_scooter", "bike_id": "20c8dae817c5536dc76fcec0786dec1e", "name": "20c8dae817c5536dc76fcec0786dec1e"}, {"lon": -77.02174533333333, "is_disabled": 0, "lat": 38.9286425, "fusion_lat": 0.0, "is_reserved": 0, "rental_uris": {"ios": "https://dc.lft.to/lastmile_qr_scan", "android": "https://dc.lft.to/lastmile_qr_scan"}, "fusion_lon": 0.0, "type": "electric_scooter", "bike_id": "b388c323447fa0bb59fca2a0fd87c37c", "name": "b388c323447fa0bb59fca2a0fd87c37c"}, {"lon": -77.03198783333333, "is_disabled": 0, "lat": 38.91595566666667, "fusion_lat": 0.0, "is_reserved": 0, "rental_uris": {"ios": "https://dc.lft.to/lastmile_qr_scan", "android": "https://dc.lft.to/lastmile_qr_scan"}, "fusion_lon": 0.0, "type": "electric_scooter", "bike_id": "68f03a06f09d1768f17aa349db2f6948", "name": "68f03a06f09d1768f17aa349db2f6948"}, {"lon": -77.038077, "is_disabled": 0, "lat": 38.924796666666666, "fusion_lat": 0.0, "is_reserved": 0, "rental_uris": {"ios": "https://dc.lft.to/lastmile_qr_scan", "android": "https://dc.lft.to/lastmile_qr_scan"}, "fusion_lon": 0.0, "type": "electric_scooter", "bike_id": "c0df743549946cbe3cbcd4ee8ff76a39", "name": "c0df743549946cbe3cbcd4ee8ff76a39"}, {"lon": -77.03851883333333, "is_disabled": 0, "lat": 38.93241583333333, "fusion_lat": 0.0, "is_reserved": 0, "rental_uris": {"ios": "https://dc.lft.to/lastmile_qr_scan", "android": "https://dc.lft.to/lastmile_qr_scan"}, "fusion_lon": 0.0, "type": "electric_scooter", "bike_id": "ec74ebdd85306390b1d3d7a269405791", "name": "ec74ebdd85306390b1d3d7a269405791"}, {"lon": -77.023451, "is_disabled": 0, "lat": 38.893959833333334, "fusion_lat": 0.0, "is_reserved": 0, "rental_uris": {"ios": "https://dc.lft.to/lastmile_qr_scan", "android": "https://dc.lft.to/lastmile_qr_scan"}, "fusion_lon": 0.0, "type": "electric_scooter", "bike_id": "99650cce3fe7bb32ddb8155bfe397568", "name": "99650cce3fe7bb32ddb8155bfe397568"}, {"lon": -77.02690766666667, "is_disabled": 0, "lat": 38.90684983333333, "fusion_lat": 0.0, "is_reserved": 0, "rental_uris": {"ios": "https://dc.lft.to/lastmile_qr_scan", "android": "https://dc.lft.to/lastmile_qr_scan"}, "fusion_lon": 0.0, "type": "electric_scooter", "bike_id": "2e003d6a2b7cbd7e02f96b5a521a8b95", "name": "2e003d6a2b7cbd7e02f96b5a521a8b95"}, {"lon": -77.03271166666667, "is_disabled": 0, "lat": 38.90281566666667, "fusion_lat": 0.0, "is_reserved": 0, "rental_uris": {"ios": "https://dc.lft.to/lastmile_qr_scan", "android": "https://dc.lft.to/lastmile_qr_scan"}, "fusion_lon": 0.0, "type": "electric_scooter", "bike_id": "af6a8c60d5999aa0844155a84d30ebfc", "name": "af6a8c60d5999aa0844155a84d30ebfc"}, {"lon": -77.04453, "is_disabled": 0, "lat": 38.91541, "fusion_lat": 0.0, "is_reserved": 0, "rental_uris": {"ios": "https://dc.lft.to/lastmile_qr_scan", "android": "https://dc.lft.to/lastmile_qr_scan"}, "fusion_lon": 0.0, "type": "electric_scooter", "bike_id": "2ddc50e1ca00afc952c571f1fdc59bb3", "name": "2ddc50e1ca00afc952c571f1fdc59bb3"}, {"lon": -77.02186616666667, "is_disabled": 0, "lat": 38.91059933333333, "fusion_lat": 0.0, "is_reserved": 0, "rental_uris": {"ios": "https://dc.lft.to/lastmile_qr_scan", "android": "https://dc.lft.to/lastmile_qr_scan"}, "fusion_lon": 0.0, "type": "electric_scooter", "bike_id": "385d5bc99782f6e36143c2a64f0ee25d", "name": "385d5bc99782f6e36143c2a64f0ee25d"}, {"lon": -77.006061, "is_disabled": 0, "lat": 38.89801516666667, "fusion_lat": 0.0, "is_reserved": 0, "rental_uris": {"ios": "https://dc.lft.to/lastmile_qr_scan", "android": "https://dc.lft.to/lastmile_qr_scan"}, "fusion_lon": 0.0, "type": "electric_bike", "bike_id": "822dc0fb5849f31670c2d439db0a5d66", "name": "822dc0fb5849f31670c2d439db0a5d66"}, {"lon": -77.018569, "is_disabled": 0, "lat": 38.9492245, "fusion_lat": 0.0, "is_reserved": 0, "rental_uris": {"ios": "https://dc.lft.to/lastmile_qr_scan", "android": "https://dc.lft.to/lastmile_qr_scan"}, "fusion_lon": 0.0, "type": "electric_scooter", "bike_id": "8daff94732bb8443e28e4ad48e5bfc2e", "name": "8daff94732bb8443e28e4ad48e5bfc2e"}, {"lon": -77.03935116666666, "is_disabled": 0, "lat": 38.90259266666666, "fusion_lat": 0.0, "is_reserved": 0, "rental_uris": {"ios": "https://dc.lft.to/lastmile_qr_scan", "android": "https://dc.lft.to/lastmile_qr_scan"}, "fusion_lon": 0.0, "type": "electric_scooter", "bike_id": "3871b74ed612cc593daf6c874ba42110", "name": "3871b74ed612cc593daf6c874ba42110"}, {"lon": -77.0269515, "is_disabled": 0, "lat": 38.89716583333333, "fusion_lat": 0.0, "is_reserved": 0, "rental_uris": {"ios": "https://dc.lft.to/lastmile_qr_scan", "android": "https://dc.lft.to/lastmile_qr_scan"}, "fusion_lon": 0.0, "type": "electric_scooter", "bike_id": "e2959d4d225304b61dd68e75bcaeda12", "name": "e2959d4d225304b61dd68e75bcaeda12"}, {"lon": -77.02219616666666, "is_disabled": 0, "lat": 38.89726666666667, "fusion_lat": 0.0, "is_reserved": 0, "rental_uris": {"ios": "https://dc.lft.to/lastmile_qr_scan", "android": "https://dc.lft.to/lastmile_qr_scan"}, "fusion_lon": 0.0, "type": "electric_scooter", "bike_id": "4a1a7cef74a987aa6b5ce29985d21152", "name": "4a1a7cef74a987aa6b5ce29985d21152"}, {"lon": -77.03963433333334, "is_disabled": 0, "lat": 38.894245833333336, "fusion_lat": 0.0, "is_reserved": 0, "rental_uris": {"ios": "https://dc.lft.to/lastmile_qr_scan", "android": "https://dc.lft.to/lastmile_qr_scan"}, "fusion_lon": 0.0, "type": "electric_scooter", "bike_id": "f83b5c1d49df068d381f26247d458da8", "name": "f83b5c1d49df068d381f26247d458da8"}, {"lon": -77.024246, "is_disabled": 0, "lat": 38.920525833333336, "fusion_lat": 0.0, "is_reserved": 0, "rental_uris": {"ios": "https://dc.lft.to/lastmile_qr_scan", "android": "https://dc.lft.to/lastmile_qr_scan"}, "fusion_lon": 0.0, "type": "electric_scooter", "bike_id": "6475373174ca6bab3e10e369836fe1d2", "name": "6475373174ca6bab3e10e369836fe1d2"}, {"lon": -77.010397, "is_disabled": 0, "lat": 38.915644, "fusion_lat": 0.0, "is_reserved": 0, "rental_uris": {"ios": "https://dc.lft.to/lastmile_qr_scan", "android": "https://dc.lft.to/lastmile_qr_scan"}, "fusion_lon": 0.0, "type": "electric_scooter", "bike_id": "cc8d1c953a97ec6715d8cf856ba8cffe", "name": "cc8d1c953a97ec6715d8cf856ba8cffe"}, {"lon": -77.04329216666666, "is_disabled": 0, "lat": 38.89640883333333, "fusion_lat": 0.0, "is_reserved": 0, "rental_uris": {"ios": "https://dc.lft.to/lastmile_qr_scan", "android": "https://dc.lft.to/lastmile_qr_scan"}, "fusion_lon": 0.0, "type": "electric_scooter", "bike_id": "f566cac1ae2f0c52fa4621640ca57923", "name": "f566cac1ae2f0c52fa4621640ca57923"}, {"lon": -77.03122116666667, "is_disabled": 0, "lat": 38.930902833333334, "fusion_lat": 0.0, "is_reserved": 0, "rental_uris": {"ios": "https://dc.lft.to/lastmile_qr_scan", "android": "https://dc.lft.to/lastmile_qr_scan"}, "fusion_lon": 0.0, "type": "electric_scooter", "bike_id": "0045f060d09a69652f8968f60d4504a7", "name": "0045f060d09a69652f8968f60d4504a7"}, {"lon": -77.02189583333333, "is_disabled": 0, "lat": 38.90667116666667, "fusion_lat": 0.0, "is_reserved": 0, "rental_uris": {"ios": "https://dc.lft.to/lastmile_qr_scan", "android": "https://dc.lft.to/lastmile_qr_scan"}, "fusion_lon": 0.0, "type": "electric_scooter", "bike_id": "a250adda6dceb75df22ea2f2cd38a205", "name": "a250adda6dceb75df22ea2f2cd38a205"}, {"lon": -77.0327345, "is_disabled": 0, "lat": 38.9264715, "fusion_lat": 0.0, "is_reserved": 0, "rental_uris": {"ios": "https://dc.lft.to/lastmile_qr_scan", "android": "https://dc.lft.to/lastmile_qr_scan"}, "fusion_lon": 0.0, "type": "electric_scooter", "bike_id": "5eb15f1d25a6fc6c2ad85e1c6e97028a", "name": "5eb15f1d25a6fc6c2ad85e1c6e97028a"}, {"lon": -77.02113733333333, "is_disabled": 0, "lat": 38.914205, "fusion_lat": 0.0, "is_reserved": 0, "rental_uris": {"ios": "https://dc.lft.to/lastmile_qr_scan", "android": "https://dc.lft.to/lastmile_qr_scan"}, "fusion_lon": 0.0, "type": "electric_scooter", "bike_id": "63fe036405f698c98332778d57e7e181", "name": "63fe036405f698c98332778d57e7e181"}, {"lon": -77.0053435, "is_disabled": 0, "lat": 38.880044, "fusion_lat": 0.0, "is_reserved": 0, "rental_uris": {"ios": "https://dc.lft.to/lastmile_qr_scan", "android": "https://dc.lft.to/lastmile_qr_scan"}, "fusion_lon": 0.0, "type": "electric_scooter", "bike_id": "4be7b6c6f1f0bba22636b4347f51935c", "name": "4be7b6c6f1f0bba22636b4347f51935c"}, {"lon": -77.02049833333334, "is_disabled": 0, "lat": 38.92110566666667, "fusion_lat": 0.0, "is_reserved": 0, "rental_uris": {"ios": "https://dc.lft.to/lastmile_qr_scan", "android": "https://dc.lft.to/lastmile_qr_scan"}, "fusion_lon": 0.0, "type": "electric_scooter", "bike_id": "e8b3559b70ebded956ad4bee94004720", "name": "e8b3559b70ebded956ad4bee94004720"}, {"lon": -77.017826, "is_disabled": 0, "lat": 38.8771335, "fusion_lat": 0.0, "is_reserved": 0, "rental_uris": {"ios": "https://dc.lft.to/lastmile_qr_scan", "android": "https://dc.lft.to/lastmile_qr_scan"}, "fusion_lon": 0.0, "type": "electric_scooter", "bike_id": "e4eac3611d04253bac883e009cc82abe", "name": "e4eac3611d04253bac883e009cc82abe"}, {"lon": -77.03731716666667, "is_disabled": 0, "lat": 38.926598, "fusion_lat": 0.0, "is_reserved": 0, "rental_uris": {"ios": "https://dc.lft.to/lastmile_qr_scan", "android": "https://dc.lft.to/lastmile_qr_scan"}, "fusion_lon": 0.0, "type": "electric_scooter", "bike_id": "58d59b2a704d3d74425ea78a15eecb0e", "name": "58d59b2a704d3d74425ea78a15eecb0e"}, {"lon": -77.0298215, "is_disabled": 0, "lat": 38.901750166666666, "fusion_lat": 0.0, "is_reserved": 0, "rental_uris": {"ios": "https://dc.lft.to/lastmile_qr_scan", "android": "https://dc.lft.to/lastmile_qr_scan"}, "fusion_lon": 0.0, "type": "electric_scooter", "bike_id": "6ca189f5eaff29adf67e82e676243407", "name": "6ca189f5eaff29adf67e82e676243407"}, {"lon": -77.03272766666667, "is_disabled": 0, "lat": 38.934392833333334, "fusion_lat": 0.0, "is_reserved": 0, "rental_uris": {"ios": "https://dc.lft.to/lastmile_qr_scan", "android": "https://dc.lft.to/lastmile_qr_scan"}, "fusion_lon": 0.0, "type": "electric_scooter", "bike_id": "9cf3e1787ee8276531ccbfadb254daba", "name": "9cf3e1787ee8276531ccbfadb254daba"}, {"lon": -77.0165255, "is_disabled": 0, "lat": 38.88126716666667, "fusion_lat": 0.0, "is_reserved": 0, "rental_uris": {"ios": "https://dc.lft.to/lastmile_qr_scan", "android": "https://dc.lft.to/lastmile_qr_scan"}, "fusion_lon": 0.0, "type": "electric_scooter", "bike_id": "5027405144e9d5cd51880aa206f8df1f", "name": "5027405144e9d5cd51880aa206f8df1f"}, {"lon": -77.04334266666666, "is_disabled": 0, "lat": 38.92219766666667, "fusion_lat": 0.0, "is_reserved": 0, "rental_uris": {"ios": "https://dc.lft.to/lastmile_qr_scan", "android": "https://dc.lft.to/lastmile_qr_scan"}, "fusion_lon": 0.0, "type": "electric_scooter", "bike_id": "957f4cb48eac7c6ef8bc9d9977565ca1", "name": "957f4cb48eac7c6ef8bc9d9977565ca1"}, {"lon": -77.04156783333333, "is_disabled": 0, "lat": 38.91418516666667, "fusion_lat": 0.0, "is_reserved": 0, "rental_uris": {"ios": "https://dc.lft.to/lastmile_qr_scan", "android": "https://dc.lft.to/lastmile_qr_scan"}, "fusion_lon": 0.0, "type": "electric_scooter", "bike_id": "1b99486778911f79243aede3afc9b74d", "name": "1b99486778911f79243aede3afc9b74d"}, {"lon": -77.04486983333334, "is_disabled": 0, "lat": 38.899214, "fusion_lat": 0.0, "is_reserved": 0, "rental_uris": {"ios": "https://dc.lft.to/lastmile_qr_scan", "android": "https://dc.lft.to/lastmile_qr_scan"}, "fusion_lon": 0.0, "type": "electric_scooter", "bike_id": "37305c9e4685351e4f31cfbdb037250b", "name": "37305c9e4685351e4f31cfbdb037250b"}, {"lon": -77.03786, "is_disabled": 0, "lat": 38.925777833333335, "fusion_lat": 0.0, "is_reserved": 0, "rental_uris": {"ios": "https://dc.lft.to/lastmile_qr_scan", "android": "https://dc.lft.to/lastmile_qr_scan"}, "fusion_lon": 0.0, "type": "electric_scooter", "bike_id": "4b42ede2b74cf4823c862b8ecd9c104d", "name": "4b42ede2b74cf4823c862b8ecd9c104d"}, {"lon": -76.93136083333333, "is_disabled": 0, "lat": 38.87650583333333, "fusion_lat": 0.0, "is_reserved": 0, "rental_uris": {"ios": "https://dc.lft.to/lastmile_qr_scan", "android": "https://dc.lft.to/lastmile_qr_scan"}, "fusion_lon": 0.0, "type": "electric_scooter", "bike_id": "59e96ae9f722d27e0af47467cfa0668a", "name": "59e96ae9f722d27e0af47467cfa0668a"}, {"lon": -77.022587, "is_disabled": 0, "lat": 38.89620466666667, "fusion_lat": 0.0, "is_reserved": 0, "rental_uris": {"ios": "https://dc.lft.to/lastmile_qr_scan", "android": "https://dc.lft.to/lastmile_qr_scan"}, "fusion_lon": 0.0, "type": "electric_scooter", "bike_id": "621c458b7ccc9cc4878b30e4220d3e23", "name": "621c458b7ccc9cc4878b30e4220d3e23"}, {"lon": -77.02385883333334, "is_disabled": 0, "lat": 38.90723533333333, "fusion_lat": 0.0, "is_reserved": 0, "rental_uris": {"ios": "https://dc.lft.to/lastmile_qr_scan", "android": "https://dc.lft.to/lastmile_qr_scan"}, "fusion_lon": 0.0, "type": "electric_scooter", "bike_id": "85a775899057d0bbb2c38d02bb924e77", "name": "85a775899057d0bbb2c38d02bb924e77"}, {"lon": -77.00046983333333, "is_disabled": 0, "lat": 38.888538, "fusion_lat": 0.0, "is_reserved": 0, "rental_uris": {"ios": "https://dc.lft.to/lastmile_qr_scan", "android": "https://dc.lft.to/lastmile_qr_scan"}, "fusion_lon": 0.0, "type": "electric_scooter", "bike_id": "6820f7e4a2f0939c9062396360053a75", "name": "6820f7e4a2f0939c9062396360053a75"}, {"lon": -76.99797933333333, "is_disabled": 0, "lat": 38.908544, "fusion_lat": 0.0, "is_reserved": 0, "rental_uris": {"ios": "https://dc.lft.to/lastmile_qr_scan", "android": "https://dc.lft.to/lastmile_qr_scan"}, "fusion_lon": 0.0, "type": "electric_scooter", "bike_id": "94ea7e6c8e464334a0f9e0cfeab00e32", "name": "94ea7e6c8e464334a0f9e0cfeab00e32"}, {"lon": -77.0271075, "is_disabled": 0, "lat": 38.90666816666667, "fusion_lat": 0.0, "is_reserved": 0, "rental_uris": {"ios": "https://dc.lft.to/lastmile_qr_scan", "android": "https://dc.lft.to/lastmile_qr_scan"}, "fusion_lon": 0.0, "type": "electric_scooter", "bike_id": "417e0e4f5c15d88cb95595eba5290914", "name": "417e0e4f5c15d88cb95595eba5290914"}, {"lon": -77.0360375, "is_disabled": 0, "lat": 38.934835166666666, "fusion_lat": 0.0, "is_reserved": 0, "rental_uris": {"ios": "https://dc.lft.to/lastmile_qr_scan", "android": "https://dc.lft.to/lastmile_qr_scan"}, "fusion_lon": 0.0, "type": "electric_scooter", "bike_id": "ab8930a20662f61c22ce17593dcd157e", "name": "ab8930a20662f61c22ce17593dcd157e"}, {"lon": -77.00756116666666, "is_disabled": 0, "lat": 38.871161666666666, "fusion_lat": 0.0, "is_reserved": 0, "rental_uris": {"ios": "https://dc.lft.to/lastmile_qr_scan", "android": "https://dc.lft.to/lastmile_qr_scan"}, "fusion_lon": 0.0, "type": "electric_scooter", "bike_id": "a5e053f599206a23ae18a75a6525519d", "name": "a5e053f599206a23ae18a75a6525519d"}, {"lon": -77.02976316666667, "is_disabled": 0, "lat": 38.93447, "fusion_lat": 0.0, "is_reserved": 0, "rental_uris": {"ios": "https://dc.lft.to/lastmile_qr_scan", "android": "https://dc.lft.to/lastmile_qr_scan"}, "fusion_lon": 0.0, "type": "electric_scooter", "bike_id": "c5657425b915b96d54d9c8df94617051", "name": "c5657425b915b96d54d9c8df94617051"}, {"lon": -77.03403116666667, "is_disabled": 0, "lat": 38.93853683333333, "fusion_lat": 0.0, "is_reserved": 0, "rental_uris": {"ios": "https://dc.lft.to/lastmile_qr_scan", "android": "https://dc.lft.to/lastmile_qr_scan"}, "fusion_lon": 0.0, "type": "electric_scooter", "bike_id": "121f81ac94ef6fe97e4dfb3ac1e362c4", "name": "121f81ac94ef6fe97e4dfb3ac1e362c4"}, {"lon": -76.99660833333333, "is_disabled": 0, "lat": 38.860081, "fusion_lat": 0.0, "is_reserved": 0, "rental_uris": {"ios": "https://dc.lft.to/lastmile_qr_scan", "android": "https://dc.lft.to/lastmile_qr_scan"}, "fusion_lon": 0.0, "type": "electric_scooter", "bike_id": "fae7c6cd6a3e62cfb40b53d41640c927", "name": "fae7c6cd6a3e62cfb40b53d41640c927"}, {"lon": -77.031837, "is_disabled": 0, "lat": 38.924880333333334, "fusion_lat": 0.0, "is_reserved": 0, "rental_uris": {"ios": "https://dc.lft.to/lastmile_qr_scan", "android": "https://dc.lft.to/lastmile_qr_scan"}, "fusion_lon": 0.0, "type": "electric_scooter", "bike_id": "15fd48dfb97b9b794e508a2bf6c7726d", "name": "15fd48dfb97b9b794e508a2bf6c7726d"}, {"lon": -77.054846, "is_disabled": 0, "lat": 38.908611666666665, "fusion_lat": 0.0, "is_reserved": 0, "rental_uris": {"ios": "https://dc.lft.to/lastmile_qr_scan", "android": "https://dc.lft.to/lastmile_qr_scan"}, "fusion_lon": 0.0, "type": "electric_scooter", "bike_id": "c8f3bb20b888586dfe2f9cca853d7b4b", "name": "c8f3bb20b888586dfe2f9cca853d7b4b"}, {"lon": -77.02378333333333, "is_disabled": 0, "lat": 38.907300166666666, "fusion_lat": 0.0, "is_reserved": 0, "rental_uris": {"ios": "https://dc.lft.to/lastmile_qr_scan", "android": "https://dc.lft.to/lastmile_qr_scan"}, "fusion_lon": 0.0, "type": "electric_scooter", "bike_id": "c2a0f0247c3f5d2db1c0252d8c2300e0", "name": "c2a0f0247c3f5d2db1c0252d8c2300e0"}, {"lon": -76.950585, "is_disabled": 0, "lat": 38.89336133333333, "fusion_lat": 0.0, "is_reserved": 0, "rental_uris": {"ios": "https://dc.lft.to/lastmile_qr_scan", "android": "https://dc.lft.to/lastmile_qr_scan"}, "fusion_lon": 0.0, "type": "electric_scooter", "bike_id": "bd3ab23426d7c26f6923316500619f98", "name": "bd3ab23426d7c26f6923316500619f98"}, {"lon": -77.05028, "is_disabled": 0, "lat": 38.923648166666666, "fusion_lat": 0.0, "is_reserved": 0, "rental_uris": {"ios": "https://dc.lft.to/lastmile_qr_scan", "android": "https://dc.lft.to/lastmile_qr_scan"}, "fusion_lon": 0.0, "type": "electric_scooter", "bike_id": "528fee43ba80db4a2e745736f10f428a", "name": "528fee43ba80db4a2e745736f10f428a"}, {"lon": -77.01764816666666, "is_disabled": 0, "lat": 38.87701783333333, "fusion_lat": 0.0, "is_reserved": 0, "rental_uris": {"ios": "https://dc.lft.to/lastmile_qr_scan", "android": "https://dc.lft.to/lastmile_qr_scan"}, "fusion_lon": 0.0, "type": "electric_scooter", "bike_id": "9fb986028bf24392ac6440036b84497a", "name": "9fb986028bf24392ac6440036b84497a"}, {"lon": -77.04395416666667, "is_disabled": 0, "lat": 38.92231833333334, "fusion_lat": 0.0, "is_reserved": 0, "rental_uris": {"ios": "https://dc.lft.to/lastmile_qr_scan", "android": "https://dc.lft.to/lastmile_qr_scan"}, "fusion_lon": 0.0, "type": "electric_scooter", "bike_id": "863d370ef3584471c5b18b4a77165d58", "name": "863d370ef3584471c5b18b4a77165d58"}, {"lon": -77.00314616666667, "is_disabled": 0, "lat": 38.877014333333335, "fusion_lat": 0.0, "is_reserved": 0, "rental_uris": {"ios": "https://dc.lft.to/lastmile_qr_scan", "android": "https://dc.lft.to/lastmile_qr_scan"}, "fusion_lon": 0.0, "type": "electric_scooter", "bike_id": "aedcca2433c81849b06ec5dcd1f50472", "name": "aedcca2433c81849b06ec5dcd1f50472"}, {"lon": -77.01993266666666, "is_disabled": 0, "lat": 38.89350683333333, "fusion_lat": 0.0, "is_reserved": 0, "rental_uris": {"ios": "https://dc.lft.to/lastmile_qr_scan", "android": "https://dc.lft.to/lastmile_qr_scan"}, "fusion_lon": 0.0, "type": "electric_scooter", "bike_id": "1269239e4ec1ea74d4961965150959c4", "name": "1269239e4ec1ea74d4961965150959c4"}, {"lon": -77.02214683333334, "is_disabled": 0, "lat": 38.9126985, "fusion_lat": 0.0, "is_reserved": 0, "rental_uris": {"ios": "https://dc.lft.to/lastmile_qr_scan", "android": "https://dc.lft.to/lastmile_qr_scan"}, "fusion_lon": 0.0, "type": "electric_scooter", "bike_id": "2ab29d574779cb1df8a53a22d768f652", "name": "2ab29d574779cb1df8a53a22d768f652"}, {"lon": -77.05086633333333, "is_disabled": 0, "lat": 38.923427333333336, "fusion_lat": 0.0, "is_reserved": 0, "rental_uris": {"ios": "https://dc.lft.to/lastmile_qr_scan", "android": "https://dc.lft.to/lastmile_qr_scan"}, "fusion_lon": 0.0, "type": "electric_scooter", "bike_id": "02294c9ff1ebd499052620658b8b7dab", "name": "02294c9ff1ebd499052620658b8b7dab"}, {"lon": -77.00341116666667, "is_disabled": 0, "lat": 38.895271666666666, "fusion_lat": 0.0, "is_reserved": 0, "rental_uris": {"ios": "https://dc.lft.to/lastmile_qr_scan", "android": "https://dc.lft.to/lastmile_qr_scan"}, "fusion_lon": 0.0, "type": "electric_scooter", "bike_id": "c9792c900f03a1e68cde267f2805e910", "name": "c9792c900f03a1e68cde267f2805e910"}, {"lon": -77.04347166666666, "is_disabled": 0, "lat": 38.873860666666666, "fusion_lat": 0.0, "is_reserved": 0, "rental_uris": {"ios": "https://dc.lft.to/lastmile_qr_scan", "android": "https://dc.lft.to/lastmile_qr_scan"}, "fusion_lon": 0.0, "type": "electric_scooter", "bike_id": "a4dbdcb068ac3e7ba6c8dd0b322cfc0a", "name": "a4dbdcb068ac3e7ba6c8dd0b322cfc0a"}, {"lon": -77.0865885, "is_disabled": 0, "lat": 38.809156, "fusion_lat": 0.0, "is_reserved": 0, "rental_uris": {"ios": "https://dc.lft.to/lastmile_qr_scan", "android": "https://dc.lft.to/lastmile_qr_scan"}, "fusion_lon": 0.0, "type": "electric_bike", "bike_id": "d1a9e3ad20987e6db659643b1bcca4f6", "name": "d1a9e3ad20987e6db659643b1bcca4f6"}, {"lon": -76.98340333333333, "is_disabled": 0, "lat": 38.900955, "fusion_lat": 0.0, "is_reserved": 0, "rental_uris": {"ios": "https://dc.lft.to/lastmile_qr_scan", "android": "https://dc.lft.to/lastmile_qr_scan"}, "fusion_lon": 0.0, "type": "electric_scooter", "bike_id": "a860661392de9654416a63139e608bd7", "name": "a860661392de9654416a63139e608bd7"}, {"lon": -77.02970916666666, "is_disabled": 0, "lat": 38.933143, "fusion_lat": 0.0, "is_reserved": 0, "rental_uris": {"ios": "https://dc.lft.to/lastmile_qr_scan", "android": "https://dc.lft.to/lastmile_qr_scan"}, "fusion_lon": 0.0, "type": "electric_scooter", "bike_id": "73158e4ac9d98036ead2056495601e01", "name": "73158e4ac9d98036ead2056495601e01"}, {"lon": -76.95331216666666, "is_disabled": 0, "lat": 38.8924195, "fusion_lat": 0.0, "is_reserved": 0, "rental_uris": {"ios": "https://dc.lft.to/lastmile_qr_scan", "android": "https://dc.lft.to/lastmile_qr_scan"}, "fusion_lon": 0.0, "type": "electric_scooter", "bike_id": "155d288ea9e185f9dd2034c3aa59bd9c", "name": "155d288ea9e185f9dd2034c3aa59bd9c"}, {"lon": -77.01910333333333, "is_disabled": 0, "lat": 38.92336616666667, "fusion_lat": 0.0, "is_reserved": 0, "rental_uris": {"ios": "https://dc.lft.to/lastmile_qr_scan", "android": "https://dc.lft.to/lastmile_qr_scan"}, "fusion_lon": 0.0, "type": "electric_scooter", "bike_id": "1399ff50fc80d9ffe022ff56ccc97b2f", "name": "1399ff50fc80d9ffe022ff56ccc97b2f"}, {"lon": -76.99016716666667, "is_disabled": 0, "lat": 38.8650525, "fusion_lat": 0.0, "is_reserved": 0, "rental_uris": {"ios": "https://dc.lft.to/lastmile_qr_scan", "android": "https://dc.lft.to/lastmile_qr_scan"}, "fusion_lon": 0.0, "type": "electric_scooter", "bike_id": "07ae4e7a8f51d33d1d106cbd7ed43946", "name": "07ae4e7a8f51d33d1d106cbd7ed43946"}, {"lon": -77.04410416666667, "is_disabled": 0, "lat": 38.89753433333333, "fusion_lat": 0.0, "is_reserved": 0, "rental_uris": {"ios": "https://dc.lft.to/lastmile_qr_scan", "android": "https://dc.lft.to/lastmile_qr_scan"}, "fusion_lon": 0.0, "type": "electric_scooter", "bike_id": "fc316651a8f8b95c95e765f4440bba40", "name": "fc316651a8f8b95c95e765f4440bba40"}, {"lon": -77.02804266666666, "is_disabled": 0, "lat": 38.896072333333336, "fusion_lat": 0.0, "is_reserved": 0, "rental_uris": {"ios": "https://dc.lft.to/lastmile_qr_scan", "android": "https://dc.lft.to/lastmile_qr_scan"}, "fusion_lon": 0.0, "type": "electric_scooter", "bike_id": "962ba3f257b8d1082cdd9057653d4233", "name": "962ba3f257b8d1082cdd9057653d4233"}, {"lon": -77.03960733333334, "is_disabled": 0, "lat": 38.90271083333333, "fusion_lat": 0.0, "is_reserved": 0, "rental_uris": {"ios": "https://dc.lft.to/lastmile_qr_scan", "android": "https://dc.lft.to/lastmile_qr_scan"}, "fusion_lon": 0.0, "type": "electric_scooter", "bike_id": "ecaa41e372cf3471716a5732c3225007", "name": "ecaa41e372cf3471716a5732c3225007"}, {"lon": -77.02529033333333, "is_disabled": 0, "lat": 38.9205695, "fusion_lat": 0.0, "is_reserved": 0, "rental_uris": {"ios": "https://dc.lft.to/lastmile_qr_scan", "android": "https://dc.lft.to/lastmile_qr_scan"}, "fusion_lon": 0.0, "type": "electric_scooter", "bike_id": "cfc4bdc84b394e7d22d3706284ff9f65", "name": "cfc4bdc84b394e7d22d3706284ff9f65"}, {"lon": -77.05328383333334, "is_disabled": 0, "lat": 38.90235083333334, "fusion_lat": 0.0, "is_reserved": 0, "rental_uris": {"ios": "https://dc.lft.to/lastmile_qr_scan", "android": "https://dc.lft.to/lastmile_qr_scan"}, "fusion_lon": 0.0, "type": "electric_scooter", "bike_id": "6bcadc12fec14f9e6ae673a7c88b0bce", "name": "6bcadc12fec14f9e6ae673a7c88b0bce"}, {"lon": -77.04873416666666, "is_disabled": 0, "lat": 38.8925055, "fusion_lat": 0.0, "is_reserved": 0, "rental_uris": {"ios": "https://dc.lft.to/lastmile_qr_scan", "android": "https://dc.lft.to/lastmile_qr_scan"}, "fusion_lon": 0.0, "type": "electric_scooter", "bike_id": "2a260d3699e799bcd3b4bcc52a3b01f1", "name": "2a260d3699e799bcd3b4bcc52a3b01f1"}, {"lon": -77.0122635, "is_disabled": 0, "lat": 38.875011666666666, "fusion_lat": 0.0, "is_reserved": 0, "rental_uris": {"ios": "https://dc.lft.to/lastmile_qr_scan", "android": "https://dc.lft.to/lastmile_qr_scan"}, "fusion_lon": 0.0, "type": "electric_scooter", "bike_id": "6d020dca2acab21fa7a9a2d51dc26dcb", "name": "6d020dca2acab21fa7a9a2d51dc26dcb"}, {"lon": -77.05888133333333, "is_disabled": 0, "lat": 38.93638583333333, "fusion_lat": 0.0, "is_reserved": 0, "rental_uris": {"ios": "https://dc.lft.to/lastmile_qr_scan", "android": "https://dc.lft.to/lastmile_qr_scan"}, "fusion_lon": 0.0, "type": "electric_scooter", "bike_id": "36f8ac029259edcdc27dc6786064398d", "name": "36f8ac029259edcdc27dc6786064398d"}, {"lon": -77.022035, "is_disabled": 0, "lat": 38.90194133333333, "fusion_lat": 0.0, "is_reserved": 0, "rental_uris": {"ios": "https://dc.lft.to/lastmile_qr_scan", "android": "https://dc.lft.to/lastmile_qr_scan"}, "fusion_lon": 0.0, "type": "electric_scooter", "bike_id": "857610fe55b7a41e7b2f4bcc245376e2", "name": "857610fe55b7a41e7b2f4bcc245376e2"}, {"lon": -77.04155833333333, "is_disabled": 0, "lat": 38.907303166666665, "fusion_lat": 0.0, "is_reserved": 0, "rental_uris": {"ios": "https://dc.lft.to/lastmile_qr_scan", "android": "https://dc.lft.to/lastmile_qr_scan"}, "fusion_lon": 0.0, "type": "electric_scooter", "bike_id": "92e44c641a381c6d3ef2c99cc503752e", "name": "92e44c641a381c6d3ef2c99cc503752e"}, {"lon": -76.96112033333333, "is_disabled": 0, "lat": 38.918597166666665, "fusion_lat": 0.0, "is_reserved": 0, "rental_uris": {"ios": "https://dc.lft.to/lastmile_qr_scan", "android": "https://dc.lft.to/lastmile_qr_scan"}, "fusion_lon": 0.0, "type": "electric_scooter", "bike_id": "3366605d397ffc93238d6a2162cc0be9", "name": "3366605d397ffc93238d6a2162cc0be9"}, {"lon": -77.05035933333333, "is_disabled": 0, "lat": 38.92338816666667, "fusion_lat": 0.0, "is_reserved": 0, "rental_uris": {"ios": "https://dc.lft.to/lastmile_qr_scan", "android": "https://dc.lft.to/lastmile_qr_scan"}, "fusion_lon": 0.0, "type": "electric_scooter", "bike_id": "4930bf6fd16272eac05f1e07e677f20d", "name": "4930bf6fd16272eac05f1e07e677f20d"}, {"lon": -77.0446755, "is_disabled": 0, "lat": 38.91179366666667, "fusion_lat": 0.0, "is_reserved": 0, "rental_uris": {"ios": "https://dc.lft.to/lastmile_qr_scan", "android": "https://dc.lft.to/lastmile_qr_scan"}, "fusion_lon": 0.0, "type": "electric_scooter", "bike_id": "acd989f4c4fb4508fdfc1aa8e6941bcf", "name": "acd989f4c4fb4508fdfc1aa8e6941bcf"}, {"lon": -77.0385405, "is_disabled": 0, "lat": 38.91264066666667, "fusion_lat": 0.0, "is_reserved": 0, "rental_uris": {"ios": "https://dc.lft.to/lastmile_qr_scan", "android": "https://dc.lft.to/lastmile_qr_scan"}, "fusion_lon": 0.0, "type": "electric_scooter", "bike_id": "e64b9d1822d25126eddbd7e3bb887577", "name": "e64b9d1822d25126eddbd7e3bb887577"}, {"lon": -77.02126533333333, "is_disabled": 0, "lat": 38.92123466666666, "fusion_lat": 0.0, "is_reserved": 0, "rental_uris": {"ios": "https://dc.lft.to/lastmile_qr_scan", "android": "https://dc.lft.to/lastmile_qr_scan"}, "fusion_lon": 0.0, "type": "electric_scooter", "bike_id": "9767f4b94c0d683aecc98f293b13ad21", "name": "9767f4b94c0d683aecc98f293b13ad21"}, {"lon": -77.0422925, "is_disabled": 0, "lat": 38.920654, "fusion_lat": 0.0, "is_reserved": 0, "rental_uris": {"ios": "https://dc.lft.to/lastmile_qr_scan", "android": "https://dc.lft.to/lastmile_qr_scan"}, "fusion_lon": 0.0, "type": "electric_scooter", "bike_id": "f4ae73b6ede6aedd86ac98758bca96b8", "name": "f4ae73b6ede6aedd86ac98758bca96b8"}, {"lon": -77.00387216666667, "is_disabled": 0, "lat": 38.895441166666664, "fusion_lat": 0.0, "is_reserved": 0, "rental_uris": {"ios": "https://dc.lft.to/lastmile_qr_scan", "android": "https://dc.lft.to/lastmile_qr_scan"}, "fusion_lon": 0.0, "type": "electric_scooter", "bike_id": "1e4a85c8da8d14a3219a69ef78368686", "name": "1e4a85c8da8d14a3219a69ef78368686"}, {"lon": -77.06394833333333, "is_disabled": 0, "lat": 38.944191333333336, "fusion_lat": 0.0, "is_reserved": 0, "rental_uris": {"ios": "https://dc.lft.to/lastmile_qr_scan", "android": "https://dc.lft.to/lastmile_qr_scan"}, "fusion_lon": 0.0, "type": "electric_scooter", "bike_id": "e81c818ced628e01b25d92926cf11d92", "name": "e81c818ced628e01b25d92926cf11d92"}, {"lon": -76.98364566666666, "is_disabled": 0, "lat": 38.914969666666664, "fusion_lat": 0.0, "is_reserved": 0, "rental_uris": {"ios": "https://dc.lft.to/lastmile_qr_scan", "android": "https://dc.lft.to/lastmile_qr_scan"}, "fusion_lon": 0.0, "type": "electric_scooter", "bike_id": "24fc72ccdd391f897aad445c23cc4a7a", "name": "24fc72ccdd391f897aad445c23cc4a7a"}, {"lon": -77.02808266666666, "is_disabled": 0, "lat": 38.90895716666667, "fusion_lat": 0.0, "is_reserved": 0, "rental_uris": {"ios": "https://dc.lft.to/lastmile_qr_scan", "android": "https://dc.lft.to/lastmile_qr_scan"}, "fusion_lon": 0.0, "type": "electric_scooter", "bike_id": "13a233a120bbd8693df325336c7efcdf", "name": "13a233a120bbd8693df325336c7efcdf"}, {"lon": -77.02278883333334, "is_disabled": 0, "lat": 38.89497216666667, "fusion_lat": 0.0, "is_reserved": 0, "rental_uris": {"ios": "https://dc.lft.to/lastmile_qr_scan", "android": "https://dc.lft.to/lastmile_qr_scan"}, "fusion_lon": 0.0, "type": "electric_scooter", "bike_id": "933d4795035964e16b2436d8da0845fb", "name": "933d4795035964e16b2436d8da0845fb"}, {"lon": -77.04160783333333, "is_disabled": 0, "lat": 38.91418, "fusion_lat": 0.0, "is_reserved": 0, "rental_uris": {"ios": "https://dc.lft.to/lastmile_qr_scan", "android": "https://dc.lft.to/lastmile_qr_scan"}, "fusion_lon": 0.0, "type": "electric_scooter", "bike_id": "dc7be539675a839299e7cf850999e96f", "name": "dc7be539675a839299e7cf850999e96f"}, {"lon": -77.02974133333333, "is_disabled": 0, "lat": 38.91298883333333, "fusion_lat": 0.0, "is_reserved": 0, "rental_uris": {"ios": "https://dc.lft.to/lastmile_qr_scan", "android": "https://dc.lft.to/lastmile_qr_scan"}, "fusion_lon": 0.0, "type": "electric_scooter", "bike_id": "fb5c91c64addb7605d30ee54fda1df3c", "name": "fb5c91c64addb7605d30ee54fda1df3c"}, {"lon": -77.04496683333333, "is_disabled": 0, "lat": 38.903635666666666, "fusion_lat": 0.0, "is_reserved": 0, "rental_uris": {"ios": "https://dc.lft.to/lastmile_qr_scan", "android": "https://dc.lft.to/lastmile_qr_scan"}, "fusion_lon": 0.0, "type": "electric_scooter", "bike_id": "e9d8da662f91d57148aa47b2637a1d7f", "name": "e9d8da662f91d57148aa47b2637a1d7f"}, {"lon": -77.00892433333334, "is_disabled": 0, "lat": 38.923276, "fusion_lat": 0.0, "is_reserved": 0, "rental_uris": {"ios": "https://dc.lft.to/lastmile_qr_scan", "android": "https://dc.lft.to/lastmile_qr_scan"}, "fusion_lon": 0.0, "type": "electric_scooter", "bike_id": "b724eaa4130e921b998cf28079c738e1", "name": "b724eaa4130e921b998cf28079c738e1"}, {"lon": -76.98594916666667, "is_disabled": 0, "lat": 38.90626283333334, "fusion_lat": 0.0, "is_reserved": 0, "rental_uris": {"ios": "https://dc.lft.to/lastmile_qr_scan", "android": "https://dc.lft.to/lastmile_qr_scan"}, "fusion_lon": 0.0, "type": "electric_bike", "bike_id": "0f414563be181a300809ee41f380e485", "name": "0f414563be181a300809ee41f380e485"}, {"lon": -77.14043016666666, "is_disabled": 0, "lat": 38.9876935, "fusion_lat": 0.0, "is_reserved": 0, "rental_uris": {"ios": "https://dc.lft.to/lastmile_qr_scan", "android": "https://dc.lft.to/lastmile_qr_scan"}, "fusion_lon": 0.0, "type": "electric_bike", "bike_id": "a765c518ab7ee8c7ce17a547f5f39047", "name": "a765c518ab7ee8c7ce17a547f5f39047"}, {"lon": -77.00724766666667, "is_disabled": 0, "lat": 38.8849495, "fusion_lat": 0.0, "is_reserved": 0, "rental_uris": {"ios": "https://dc.lft.to/lastmile_qr_scan", "android": "https://dc.lft.to/lastmile_qr_scan"}, "fusion_lon": 0.0, "type": "electric_scooter", "bike_id": "da1bf4f18f8ad4f1cf006f90e555b616", "name": "da1bf4f18f8ad4f1cf006f90e555b616"}, {"lon": -77.03208516666666, "is_disabled": 0, "lat": 38.918198833333335, "fusion_lat": 0.0, "is_reserved": 0, "rental_uris": {"ios": "https://dc.lft.to/lastmile_qr_scan", "android": "https://dc.lft.to/lastmile_qr_scan"}, "fusion_lon": 0.0, "type": "electric_scooter", "bike_id": "f518582f08bfcd5f937f0f5e684543fa", "name": "f518582f08bfcd5f937f0f5e684543fa"}, {"lon": -76.97918433333334, "is_disabled": 0, "lat": 38.916534, "fusion_lat": 0.0, "is_reserved": 0, "rental_uris": {"ios": "https://dc.lft.to/lastmile_qr_scan", "android": "https://dc.lft.to/lastmile_qr_scan"}, "fusion_lon": 0.0, "type": "electric_scooter", "bike_id": "11bc0d2f4ae0e3e8a57c62e0e4137a4c", "name": "11bc0d2f4ae0e3e8a57c62e0e4137a4c"}, {"lon": -77.0029865, "is_disabled": 0, "lat": 38.92036366666667, "fusion_lat": 0.0, "is_reserved": 0, "rental_uris": {"ios": "https://dc.lft.to/lastmile_qr_scan", "android": "https://dc.lft.to/lastmile_qr_scan"}, "fusion_lon": 0.0, "type": "electric_scooter", "bike_id": "cc3ed809f7a7b2177621f576f7f475ae", "name": "cc3ed809f7a7b2177621f576f7f475ae"}, {"lon": -76.98537183333333, "is_disabled": 0, "lat": 38.866719, "fusion_lat": 0.0, "is_reserved": 0, "rental_uris": {"ios": "https://dc.lft.to/lastmile_qr_scan", "android": "https://dc.lft.to/lastmile_qr_scan"}, "fusion_lon": 0.0, "type": "electric_scooter", "bike_id": "3ffb526ab058a18fad62e45b4f532547", "name": "3ffb526ab058a18fad62e45b4f532547"}, {"lon": -77.05051816666666, "is_disabled": 0, "lat": 38.90513933333333, "fusion_lat": 0.0, "is_reserved": 0, "rental_uris": {"ios": "https://dc.lft.to/lastmile_qr_scan", "android": "https://dc.lft.to/lastmile_qr_scan"}, "fusion_lon": 0.0, "type": "electric_scooter", "bike_id": "a225d8054b128c61cbefd6b270bd1b9c", "name": "a225d8054b128c61cbefd6b270bd1b9c"}, {"lon": -76.930699, "is_disabled": 0, "lat": 38.901660666666665, "fusion_lat": 0.0, "is_reserved": 0, "rental_uris": {"ios": "https://dc.lft.to/lastmile_qr_scan", "android": "https://dc.lft.to/lastmile_qr_scan"}, "fusion_lon": 0.0, "type": "electric_scooter", "bike_id": "96c60c3a1bcbb6880531fe9e51fae2e0", "name": "96c60c3a1bcbb6880531fe9e51fae2e0"}, {"lon": -77.02393733333334, "is_disabled": 0, "lat": 38.92075666666667, "fusion_lat": 0.0, "is_reserved": 0, "rental_uris": {"ios": "https://dc.lft.to/lastmile_qr_scan", "android": "https://dc.lft.to/lastmile_qr_scan"}, "fusion_lon": 0.0, "type": "electric_scooter", "bike_id": "20e4aa60d0a16ddff368225c3cd57528", "name": "20e4aa60d0a16ddff368225c3cd57528"}, {"lon": -77.02177816666666, "is_disabled": 0, "lat": 38.9130625, "fusion_lat": 0.0, "is_reserved": 0, "rental_uris": {"ios": "https://dc.lft.to/lastmile_qr_scan", "android": "https://dc.lft.to/lastmile_qr_scan"}, "fusion_lon": 0.0, "type": "electric_scooter", "bike_id": "d3e39ce885d90e820f9c8de3ac2a94c2", "name": "d3e39ce885d90e820f9c8de3ac2a94c2"}, {"lon": -77.066539, "is_disabled": 0, "lat": 38.9507125, "fusion_lat": 0.0, "is_reserved": 0, "rental_uris": {"ios": "https://dc.lft.to/lastmile_qr_scan", "android": "https://dc.lft.to/lastmile_qr_scan"}, "fusion_lon": 0.0, "type": "electric_bike", "bike_id": "f541be0e6a319b97cccb08a3beb98c97", "name": "f541be0e6a319b97cccb08a3beb98c97"}, {"lon": -77.06129566666667, "is_disabled": 0, "lat": 38.943536333333334, "fusion_lat": 0.0, "is_reserved": 0, "rental_uris": {"ios": "https://dc.lft.to/lastmile_qr_scan", "android": "https://dc.lft.to/lastmile_qr_scan"}, "fusion_lon": 0.0, "type": "electric_scooter", "bike_id": "2d11dacd1528c43aa24648b5ac085137", "name": "2d11dacd1528c43aa24648b5ac085137"}, {"lon": -76.995678, "is_disabled": 0, "lat": 38.940108, "fusion_lat": 0.0, "is_reserved": 0, "rental_uris": {"ios": "https://dc.lft.to/lastmile_qr_scan", "android": "https://dc.lft.to/lastmile_qr_scan"}, "fusion_lon": 0.0, "type": "electric_bike", "bike_id": "3c10240ee59b21467a7ff97b692ee8c4", "name": "3c10240ee59b21467a7ff97b692ee8c4"}, {"lon": -77.062824, "is_disabled": 0, "lat": 38.90578166666667, "fusion_lat": 0.0, "is_reserved": 0, "rental_uris": {"ios": "https://dc.lft.to/lastmile_qr_scan", "android": "https://dc.lft.to/lastmile_qr_scan"}, "fusion_lon": 0.0, "type": "electric_scooter", "bike_id": "0909708d85f23aceb4b201d529411f56", "name": "0909708d85f23aceb4b201d529411f56"}, {"lon": -77.04335233333333, "is_disabled": 0, "lat": 38.907349833333335, "fusion_lat": 0.0, "is_reserved": 0, "rental_uris": {"ios": "https://dc.lft.to/lastmile_qr_scan", "android": "https://dc.lft.to/lastmile_qr_scan"}, "fusion_lon": 0.0, "type": "electric_scooter", "bike_id": "4578dd590c696611b3b2d195ecddf32d", "name": "4578dd590c696611b3b2d195ecddf32d"}, {"lon": -77.05686283333333, "is_disabled": 0, "lat": 38.951641, "fusion_lat": 0.0, "is_reserved": 0, "rental_uris": {"ios": "https://dc.lft.to/lastmile_qr_scan", "android": "https://dc.lft.to/lastmile_qr_scan"}, "fusion_lon": 0.0, "type": "electric_scooter", "bike_id": "8381f33d2c8c2e4a689552a50173fa54", "name": "8381f33d2c8c2e4a689552a50173fa54"}, {"lon": -77.036566, "is_disabled": 0, "lat": 38.90272933333333, "fusion_lat": 0.0, "is_reserved": 0, "rental_uris": {"ios": "https://dc.lft.to/lastmile_qr_scan", "android": "https://dc.lft.to/lastmile_qr_scan"}, "fusion_lon": 0.0, "type": "electric_scooter", "bike_id": "fe03548497f4e8b9a740f880e394544a", "name": "fe03548497f4e8b9a740f880e394544a"}, {"lon": -76.9397365, "is_disabled": 0, "lat": 38.893088166666665, "fusion_lat": 0.0, "is_reserved": 0, "rental_uris": {"ios": "https://dc.lft.to/lastmile_qr_scan", "android": "https://dc.lft.to/lastmile_qr_scan"}, "fusion_lon": 0.0, "type": "electric_scooter", "bike_id": "f58ef9c8994b7d2975173794a27a4f15", "name": "f58ef9c8994b7d2975173794a27a4f15"}, {"lon": -76.98856883333333, "is_disabled": 0, "lat": 38.84431433333334, "fusion_lat": 0.0, "is_reserved": 0, "rental_uris": {"ios": "https://dc.lft.to/lastmile_qr_scan", "android": "https://dc.lft.to/lastmile_qr_scan"}, "fusion_lon": 0.0, "type": "electric_scooter", "bike_id": "2680c58aad2eed58e8519405d44a121a", "name": "2680c58aad2eed58e8519405d44a121a"}, {"lon": -77.02653083333334, "is_disabled": 0, "lat": 38.916935, "fusion_lat": 0.0, "is_reserved": 0, "rental_uris": {"ios": "https://dc.lft.to/lastmile_qr_scan", "android": "https://dc.lft.to/lastmile_qr_scan"}, "fusion_lon": 0.0, "type": "electric_scooter", "bike_id": "3dd1f1afb6d3d32279eec0b3d6964c17", "name": "3dd1f1afb6d3d32279eec0b3d6964c17"}, {"lon": -77.04191766666666, "is_disabled": 0, "lat": 38.92623866666667, "fusion_lat": 0.0, "is_reserved": 0, "rental_uris": {"ios": "https://dc.lft.to/lastmile_qr_scan", "android": "https://dc.lft.to/lastmile_qr_scan"}, "fusion_lon": 0.0, "type": "electric_scooter", "bike_id": "8c5ae4cbc9ad80a5612de974e7500531", "name": "8c5ae4cbc9ad80a5612de974e7500531"}, {"lon": -76.99494233333333, "is_disabled": 0, "lat": 38.862455833333335, "fusion_lat": 0.0, "is_reserved": 0, "rental_uris": {"ios": "https://dc.lft.to/lastmile_qr_scan", "android": "https://dc.lft.to/lastmile_qr_scan"}, "fusion_lon": 0.0, "type": "electric_scooter", "bike_id": "537d29bf76c7f101b58b63adc0b49506", "name": "537d29bf76c7f101b58b63adc0b49506"}, {"lon": -77.04364516666666, "is_disabled": 0, "lat": 38.89217266666667, "fusion_lat": 0.0, "is_reserved": 0, "rental_uris": {"ios": "https://dc.lft.to/lastmile_qr_scan", "android": "https://dc.lft.to/lastmile_qr_scan"}, "fusion_lon": 0.0, "type": "electric_scooter", "bike_id": "443eea86adfc7dba79ee59e581bdd211", "name": "443eea86adfc7dba79ee59e581bdd211"}, {"lon": -77.0245715, "is_disabled": 0, "lat": 38.918546166666665, "fusion_lat": 0.0, "is_reserved": 0, "rental_uris": {"ios": "https://dc.lft.to/lastmile_qr_scan", "android": "https://dc.lft.to/lastmile_qr_scan"}, "fusion_lon": 0.0, "type": "electric_scooter", "bike_id": "74db574e97264e40668bbbafcbdc1a39", "name": "74db574e97264e40668bbbafcbdc1a39"}, {"lon": -77.03967733333333, "is_disabled": 0, "lat": 38.90361016666667, "fusion_lat": 0.0, "is_reserved": 0, "rental_uris": {"ios": "https://dc.lft.to/lastmile_qr_scan", "android": "https://dc.lft.to/lastmile_qr_scan"}, "fusion_lon": 0.0, "type": "electric_scooter", "bike_id": "4442ed6e3b1299402d27a4f360c21362", "name": "4442ed6e3b1299402d27a4f360c21362"}, {"lon": -77.032115, "is_disabled": 0, "lat": 38.8923175, "fusion_lat": 0.0, "is_reserved": 0, "rental_uris": {"ios": "https://dc.lft.to/lastmile_qr_scan", "android": "https://dc.lft.to/lastmile_qr_scan"}, "fusion_lon": 0.0, "type": "electric_scooter", "bike_id": "436982831504ccea937d6210d7f0d4e9", "name": "436982831504ccea937d6210d7f0d4e9"}, {"lon": -76.98059933333333, "is_disabled": 0, "lat": 38.901175, "fusion_lat": 0.0, "is_reserved": 0, "rental_uris": {"ios": "https://dc.lft.to/lastmile_qr_scan", "android": "https://dc.lft.to/lastmile_qr_scan"}, "fusion_lon": 0.0, "type": "electric_bike", "bike_id": "9d849c8b0e5e7179ad8b712afc651ebb", "name": "9d849c8b0e5e7179ad8b712afc651ebb"}, {"lon": -77.0618775, "is_disabled": 0, "lat": 38.903395833333335, "fusion_lat": 0.0, "is_reserved": 0, "rental_uris": {"ios": "https://dc.lft.to/lastmile_qr_scan", "android": "https://dc.lft.to/lastmile_qr_scan"}, "fusion_lon": 0.0, "type": "electric_scooter", "bike_id": "271cccf58522520f0371a91f4e41f54c", "name": "271cccf58522520f0371a91f4e41f54c"}, {"lon": -77.03258533333333, "is_disabled": 0, "lat": 38.90968016666667, "fusion_lat": 0.0, "is_reserved": 0, "rental_uris": {"ios": "https://dc.lft.to/lastmile_qr_scan", "android": "https://dc.lft.to/lastmile_qr_scan"}, "fusion_lon": 0.0, "type": "electric_scooter", "bike_id": "5819de9f98896e9d8e844a2d80e183fa", "name": "5819de9f98896e9d8e844a2d80e183fa"}, {"lon": -77.0034745, "is_disabled": 0, "lat": 38.882119833333334, "fusion_lat": 0.0, "is_reserved": 0, "rental_uris": {"ios": "https://dc.lft.to/lastmile_qr_scan", "android": "https://dc.lft.to/lastmile_qr_scan"}, "fusion_lon": 0.0, "type": "electric_scooter", "bike_id": "43536ae232707ce7d7abe8241e6a2fc7", "name": "43536ae232707ce7d7abe8241e6a2fc7"}, {"lon": -77.05307166666667, "is_disabled": 0, "lat": 38.904218666666665, "fusion_lat": 0.0, "is_reserved": 0, "rental_uris": {"ios": "https://dc.lft.to/lastmile_qr_scan", "android": "https://dc.lft.to/lastmile_qr_scan"}, "fusion_lon": 0.0, "type": "electric_scooter", "bike_id": "9000ea5072805fe2a119abc137f22c18", "name": "9000ea5072805fe2a119abc137f22c18"}, {"lon": -77.0366595, "is_disabled": 0, "lat": 38.922602833333336, "fusion_lat": 0.0, "is_reserved": 0, "rental_uris": {"ios": "https://dc.lft.to/lastmile_qr_scan", "android": "https://dc.lft.to/lastmile_qr_scan"}, "fusion_lon": 0.0, "type": "electric_scooter", "bike_id": "e0f062cf5e91c2010bdc15c1b6beca84", "name": "e0f062cf5e91c2010bdc15c1b6beca84"}, {"lon": -77.02916383333333, "is_disabled": 0, "lat": 38.90160683333333, "fusion_lat": 0.0, "is_reserved": 0, "rental_uris": {"ios": "https://dc.lft.to/lastmile_qr_scan", "android": "https://dc.lft.to/lastmile_qr_scan"}, "fusion_lon": 0.0, "type": "electric_scooter", "bike_id": "581a1d1a941996d250b703fb6f40419f", "name": "581a1d1a941996d250b703fb6f40419f"}, {"lon": -77.03310966666666, "is_disabled": 0, "lat": 38.93888666666667, "fusion_lat": 0.0, "is_reserved": 0, "rental_uris": {"ios": "https://dc.lft.to/lastmile_qr_scan", "android": "https://dc.lft.to/lastmile_qr_scan"}, "fusion_lon": 0.0, "type": "electric_scooter", "bike_id": "9561bef33b70eda6285f7d90fb81f93f", "name": "9561bef33b70eda6285f7d90fb81f93f"}, {"lon": -76.95411933333334, "is_disabled": 0, "lat": 38.8841295, "fusion_lat": 0.0, "is_reserved": 0, "rental_uris": {"ios": "https://dc.lft.to/lastmile_qr_scan", "android": "https://dc.lft.to/lastmile_qr_scan"}, "fusion_lon": 0.0, "type": "electric_bike", "bike_id": "6f73b3a48b3aad2fe852ef812988266c", "name": "6f73b3a48b3aad2fe852ef812988266c"}, {"lon": -76.99798233333334, "is_disabled": 0, "lat": 38.9086455, "fusion_lat": 0.0, "is_reserved": 0, "rental_uris": {"ios": "https://dc.lft.to/lastmile_qr_scan", "android": "https://dc.lft.to/lastmile_qr_scan"}, "fusion_lon": 0.0, "type": "electric_scooter", "bike_id": "69633459b9d226d97b0e221fa8778afc", "name": "69633459b9d226d97b0e221fa8778afc"}, {"lon": -77.0215045, "is_disabled": 0, "lat": 38.8791935, "fusion_lat": 0.0, "is_reserved": 0, "rental_uris": {"ios": "https://dc.lft.to/lastmile_qr_scan", "android": "https://dc.lft.to/lastmile_qr_scan"}, "fusion_lon": 0.0, "type": "electric_scooter", "bike_id": "547ce301658419d34f8f3565b38e519a", "name": "547ce301658419d34f8f3565b38e519a"}, {"lon": -77.03188783333333, "is_disabled": 0, "lat": 38.9097935, "fusion_lat": 0.0, "is_reserved": 0, "rental_uris": {"ios": "https://dc.lft.to/lastmile_qr_scan", "android": "https://dc.lft.to/lastmile_qr_scan"}, "fusion_lon": 0.0, "type": "electric_scooter", "bike_id": "54b0285e1aedfe3c17995939de8499aa", "name": "54b0285e1aedfe3c17995939de8499aa"}, {"lon": -77.0422215, "is_disabled": 0, "lat": 38.92623583333334, "fusion_lat": 0.0, "is_reserved": 0, "rental_uris": {"ios": "https://dc.lft.to/lastmile_qr_scan", "android": "https://dc.lft.to/lastmile_qr_scan"}, "fusion_lon": 0.0, "type": "electric_scooter", "bike_id": "546219ee9ebcff9933e506f31a9654d8", "name": "546219ee9ebcff9933e506f31a9654d8"}, {"lon": -77.05234166666666, "is_disabled": 0, "lat": 38.92505766666667, "fusion_lat": 0.0, "is_reserved": 0, "rental_uris": {"ios": "https://dc.lft.to/lastmile_qr_scan", "android": "https://dc.lft.to/lastmile_qr_scan"}, "fusion_lon": 0.0, "type": "electric_scooter", "bike_id": "c014d57fe94ca6382a3ea3c369c5cffb", "name": "c014d57fe94ca6382a3ea3c369c5cffb"}, {"lon": -77.00029816666667, "is_disabled": 0, "lat": 38.874099, "fusion_lat": 0.0, "is_reserved": 0, "rental_uris": {"ios": "https://dc.lft.to/lastmile_qr_scan", "android": "https://dc.lft.to/lastmile_qr_scan"}, "fusion_lon": 0.0, "type": "electric_scooter", "bike_id": "7be0ecb33352c7113d2488c0609b0d0e", "name": "7be0ecb33352c7113d2488c0609b0d0e"}, {"lon": -76.99215666666667, "is_disabled": 0, "lat": 38.94026383333333, "fusion_lat": 0.0, "is_reserved": 0, "rental_uris": {"ios": "https://dc.lft.to/lastmile_qr_scan", "android": "https://dc.lft.to/lastmile_qr_scan"}, "fusion_lon": 0.0, "type": "electric_bike", "bike_id": "926f0157f35327f670ce742ba6682070", "name": "926f0157f35327f670ce742ba6682070"}, {"lon": -77.02378566666667, "is_disabled": 0, "lat": 38.914068666666665, "fusion_lat": 0.0, "is_reserved": 0, "rental_uris": {"ios": "https://dc.lft.to/lastmile_qr_scan", "android": "https://dc.lft.to/lastmile_qr_scan"}, "fusion_lon": 0.0, "type": "electric_scooter", "bike_id": "8ee9439a77841a904e61a358a1ee8c67", "name": "8ee9439a77841a904e61a358a1ee8c67"}, {"lon": -77.0857385, "is_disabled": 0, "lat": 38.87418816666667, "fusion_lat": 0.0, "is_reserved": 0, "rental_uris": {"ios": "https://dc.lft.to/lastmile_qr_scan", "android": "https://dc.lft.to/lastmile_qr_scan"}, "fusion_lon": 0.0, "type": "electric_bike", "bike_id": "9ac9011f717b645ec598163a908817ca", "name": "9ac9011f717b645ec598163a908817ca"}, {"lon": -77.0545105, "is_disabled": 0, "lat": 38.9283305, "fusion_lat": 0.0, "is_reserved": 0, "rental_uris": {"ios": "https://dc.lft.to/lastmile_qr_scan", "android": "https://dc.lft.to/lastmile_qr_scan"}, "fusion_lon": 0.0, "type": "electric_scooter", "bike_id": "b5225ee86618012add7e9a52c2e7b1e4", "name": "b5225ee86618012add7e9a52c2e7b1e4"}, {"lon": -77.03458533333334, "is_disabled": 0, "lat": 38.9068025, "fusion_lat": 0.0, "is_reserved": 0, "rental_uris": {"ios": "https://dc.lft.to/lastmile_qr_scan", "android": "https://dc.lft.to/lastmile_qr_scan"}, "fusion_lon": 0.0, "type": "electric_scooter", "bike_id": "8f0b12a17986ffae7f4b09ab5187fc7f", "name": "8f0b12a17986ffae7f4b09ab5187fc7f"}, {"lon": -77.02638333333333, "is_disabled": 0, "lat": 38.89619966666667, "fusion_lat": 0.0, "is_reserved": 0, "rental_uris": {"ios": "https://dc.lft.to/lastmile_qr_scan", "android": "https://dc.lft.to/lastmile_qr_scan"}, "fusion_lon": 0.0, "type": "electric_scooter", "bike_id": "32a471a7ec9f1a2288db8e7d3d42bc2e", "name": "32a471a7ec9f1a2288db8e7d3d42bc2e"}, {"lon": -77.0446215, "is_disabled": 0, "lat": 38.923035, "fusion_lat": 0.0, "is_reserved": 0, "rental_uris": {"ios": "https://dc.lft.to/lastmile_qr_scan", "android": "https://dc.lft.to/lastmile_qr_scan"}, "fusion_lon": 0.0, "type": "electric_scooter", "bike_id": "763b1d919b7b429b25e4ac0001ac83e8", "name": "763b1d919b7b429b25e4ac0001ac83e8"}, {"lon": -77.04435783333334, "is_disabled": 0, "lat": 38.89832966666667, "fusion_lat": 0.0, "is_reserved": 0, "rental_uris": {"ios": "https://dc.lft.to/lastmile_qr_scan", "android": "https://dc.lft.to/lastmile_qr_scan"}, "fusion_lon": 0.0, "type": "electric_scooter", "bike_id": "187bb5efe21fbf1add9f81958d22f3cb", "name": "187bb5efe21fbf1add9f81958d22f3cb"}, {"lon": -76.98839466666666, "is_disabled": 0, "lat": 38.8966395, "fusion_lat": 0.0, "is_reserved": 0, "rental_uris": {"ios": "https://dc.lft.to/lastmile_qr_scan", "android": "https://dc.lft.to/lastmile_qr_scan"}, "fusion_lon": 0.0, "type": "electric_scooter", "bike_id": "5a69afdec42210fd36485fb116b59904", "name": "5a69afdec42210fd36485fb116b59904"}, {"lon": -77.03653983333334, "is_disabled": 0, "lat": 38.91245416666667, "fusion_lat": 0.0, "is_reserved": 0, "rental_uris": {"ios": "https://dc.lft.to/lastmile_qr_scan", "android": "https://dc.lft.to/lastmile_qr_scan"}, "fusion_lon": 0.0, "type": "electric_scooter", "bike_id": "b14e825d885a858b2f65cf9f6ca85d4b", "name": "b14e825d885a858b2f65cf9f6ca85d4b"}, {"lon": -76.99629816666666, "is_disabled": 0, "lat": 38.887169166666666, "fusion_lat": 0.0, "is_reserved": 0, "rental_uris": {"ios": "https://dc.lft.to/lastmile_qr_scan", "android": "https://dc.lft.to/lastmile_qr_scan"}, "fusion_lon": 0.0, "type": "electric_scooter", "bike_id": "f2d673ed16873f66d319f18a2045d5e6", "name": "f2d673ed16873f66d319f18a2045d5e6"}, {"lon": -77.025419, "is_disabled": 0, "lat": 38.92404466666667, "fusion_lat": 0.0, "is_reserved": 0, "rental_uris": {"ios": "https://dc.lft.to/lastmile_qr_scan", "android": "https://dc.lft.to/lastmile_qr_scan"}, "fusion_lon": 0.0, "type": "electric_scooter", "bike_id": "1a920d1123ed627fabe61d88b80a2c14", "name": "1a920d1123ed627fabe61d88b80a2c14"}, {"lon": -77.02168333333333, "is_disabled": 0, "lat": 38.9429455, "fusion_lat": 0.0, "is_reserved": 0, "rental_uris": {"ios": "https://dc.lft.to/lastmile_qr_scan", "android": "https://dc.lft.to/lastmile_qr_scan"}, "fusion_lon": 0.0, "type": "electric_scooter", "bike_id": "2942228383034bca6fd3678d765e006b", "name": "2942228383034bca6fd3678d765e006b"}, {"lon": -77.00341416666667, "is_disabled": 0, "lat": 38.89523666666667, "fusion_lat": 0.0, "is_reserved": 0, "rental_uris": {"ios": "https://dc.lft.to/lastmile_qr_scan", "android": "https://dc.lft.to/lastmile_qr_scan"}, "fusion_lon": 0.0, "type": "electric_scooter", "bike_id": "8120ed9e5551c85eac68d6e76ce70932", "name": "8120ed9e5551c85eac68d6e76ce70932"}, {"lon": -77.00901533333334, "is_disabled": 0, "lat": 38.900810666666665, "fusion_lat": 0.0, "is_reserved": 0, "rental_uris": {"ios": "https://dc.lft.to/lastmile_qr_scan", "android": "https://dc.lft.to/lastmile_qr_scan"}, "fusion_lon": 0.0, "type": "electric_scooter", "bike_id": "029c71c2bc384a213ae52f75eb5ff3f5", "name": "029c71c2bc384a213ae52f75eb5ff3f5"}, {"lon": -77.03541816666667, "is_disabled": 0, "lat": 38.918351333333334, "fusion_lat": 0.0, "is_reserved": 0, "rental_uris": {"ios": "https://dc.lft.to/lastmile_qr_scan", "android": "https://dc.lft.to/lastmile_qr_scan"}, "fusion_lon": 0.0, "type": "electric_scooter", "bike_id": "9faf61b7e40ce479a46e7a257f8b1141", "name": "9faf61b7e40ce479a46e7a257f8b1141"}, {"lon": -77.0262675, "is_disabled": 0, "lat": 38.928258166666666, "fusion_lat": 0.0, "is_reserved": 0, "rental_uris": {"ios": "https://dc.lft.to/lastmile_qr_scan", "android": "https://dc.lft.to/lastmile_qr_scan"}, "fusion_lon": 0.0, "type": "electric_scooter", "bike_id": "4de8323bff7c2ccfbb4f8e639ee0039e", "name": "4de8323bff7c2ccfbb4f8e639ee0039e"}, {"lon": -77.03776816666667, "is_disabled": 0, "lat": 38.924698, "fusion_lat": 0.0, "is_reserved": 0, "rental_uris": {"ios": "https://dc.lft.to/lastmile_qr_scan", "android": "https://dc.lft.to/lastmile_qr_scan"}, "fusion_lon": 0.0, "type": "electric_scooter", "bike_id": "e18d95a5714cb6f1b01a349c8637923d", "name": "e18d95a5714cb6f1b01a349c8637923d"}, {"lon": -77.0122735, "is_disabled": 0, "lat": 38.900810166666666, "fusion_lat": 0.0, "is_reserved": 0, "rental_uris": {"ios": "https://dc.lft.to/lastmile_qr_scan", "android": "https://dc.lft.to/lastmile_qr_scan"}, "fusion_lon": 0.0, "type": "electric_scooter", "bike_id": "812a1c22a95f326fba7d64690ddcc2b1", "name": "812a1c22a95f326fba7d64690ddcc2b1"}, {"lon": -77.00128916666667, "is_disabled": 0, "lat": 38.89276433333333, "fusion_lat": 0.0, "is_reserved": 0, "rental_uris": {"ios": "https://dc.lft.to/lastmile_qr_scan", "android": "https://dc.lft.to/lastmile_qr_scan"}, "fusion_lon": 0.0, "type": "electric_scooter", "bike_id": "42da34f2dfc4a3f16f95570a499fd87c", "name": "42da34f2dfc4a3f16f95570a499fd87c"}, {"lon": -77.02313016666666, "is_disabled": 0, "lat": 38.91780766666667, "fusion_lat": 0.0, "is_reserved": 0, "rental_uris": {"ios": "https://dc.lft.to/lastmile_qr_scan", "android": "https://dc.lft.to/lastmile_qr_scan"}, "fusion_lon": 0.0, "type": "electric_scooter", "bike_id": "6d02982b001e45fc1e9ec968044f5bb3", "name": "6d02982b001e45fc1e9ec968044f5bb3"}, {"lon": -76.97710683333334, "is_disabled": 0, "lat": 38.892072666666664, "fusion_lat": 0.0, "is_reserved": 0, "rental_uris": {"ios": "https://dc.lft.to/lastmile_qr_scan", "android": "https://dc.lft.to/lastmile_qr_scan"}, "fusion_lon": 0.0, "type": "electric_bike", "bike_id": "315fe72ad4b9f389a23b829422e9f269", "name": "315fe72ad4b9f389a23b829422e9f269"}, {"lon": -77.02602466666667, "is_disabled": 0, "lat": 38.923781166666664, "fusion_lat": 0.0, "is_reserved": 0, "rental_uris": {"ios": "https://dc.lft.to/lastmile_qr_scan", "android": "https://dc.lft.to/lastmile_qr_scan"}, "fusion_lon": 0.0, "type": "electric_scooter", "bike_id": "76a2880a47e5f1560cba8e5cffc2782f", "name": "76a2880a47e5f1560cba8e5cffc2782f"}, {"lon": -77.0215085, "is_disabled": 0, "lat": 38.901805833333334, "fusion_lat": 0.0, "is_reserved": 0, "rental_uris": {"ios": "https://dc.lft.to/lastmile_qr_scan", "android": "https://dc.lft.to/lastmile_qr_scan"}, "fusion_lon": 0.0, "type": "electric_scooter", "bike_id": "04d20056487c144096ee52748e7d9c7d", "name": "04d20056487c144096ee52748e7d9c7d"}, {"lon": -77.0383395, "is_disabled": 0, "lat": 38.91562916666667, "fusion_lat": 0.0, "is_reserved": 0, "rental_uris": {"ios": "https://dc.lft.to/lastmile_qr_scan", "android": "https://dc.lft.to/lastmile_qr_scan"}, "fusion_lon": 0.0, "type": "electric_scooter", "bike_id": "ec8752a255937e76faa2f2fab0282851", "name": "ec8752a255937e76faa2f2fab0282851"}, {"lon": -76.96056183333333, "is_disabled": 0, "lat": 38.8840545, "fusion_lat": 0.0, "is_reserved": 0, "rental_uris": {"ios": "https://dc.lft.to/lastmile_qr_scan", "android": "https://dc.lft.to/lastmile_qr_scan"}, "fusion_lon": 0.0, "type": "electric_bike", "bike_id": "b777705d84c6659133c68c050a7d10f4", "name": "b777705d84c6659133c68c050a7d10f4"}, {"lon": -77.02528366666667, "is_disabled": 0, "lat": 38.9192375, "fusion_lat": 0.0, "is_reserved": 0, "rental_uris": {"ios": "https://dc.lft.to/lastmile_qr_scan", "android": "https://dc.lft.to/lastmile_qr_scan"}, "fusion_lon": 0.0, "type": "electric_scooter", "bike_id": "c829a30da680dd96c1a7ad20b1a1e476", "name": "c829a30da680dd96c1a7ad20b1a1e476"}, {"lon": -77.0063575, "is_disabled": 0, "lat": 38.89988816666666, "fusion_lat": 0.0, "is_reserved": 0, "rental_uris": {"ios": "https://dc.lft.to/lastmile_qr_scan", "android": "https://dc.lft.to/lastmile_qr_scan"}, "fusion_lon": 0.0, "type": "electric_scooter", "bike_id": "00a25aa00ee4f46dcbfebd829d8b8107", "name": "00a25aa00ee4f46dcbfebd829d8b8107"}, {"lon": -77.00253866666667, "is_disabled": 0, "lat": 38.874855833333335, "fusion_lat": 0.0, "is_reserved": 0, "rental_uris": {"ios": "https://dc.lft.to/lastmile_qr_scan", "android": "https://dc.lft.to/lastmile_qr_scan"}, "fusion_lon": 0.0, "type": "electric_scooter", "bike_id": "03599bb32e2e5a2a919fd4fba1f9f433", "name": "03599bb32e2e5a2a919fd4fba1f9f433"}, {"lon": -77.01109866666667, "is_disabled": 0, "lat": 38.90966933333333, "fusion_lat": 0.0, "is_reserved": 0, "rental_uris": {"ios": "https://dc.lft.to/lastmile_qr_scan", "android": "https://dc.lft.to/lastmile_qr_scan"}, "fusion_lon": 0.0, "type": "electric_scooter", "bike_id": "028f25ce4da83807d65c261439ec231f", "name": "028f25ce4da83807d65c261439ec231f"}, {"lon": -77.037108, "is_disabled": 0, "lat": 38.928614, "fusion_lat": 0.0, "is_reserved": 0, "rental_uris": {"ios": "https://dc.lft.to/lastmile_qr_scan", "android": "https://dc.lft.to/lastmile_qr_scan"}, "fusion_lon": 0.0, "type": "electric_scooter", "bike_id": "b50dab76498f8ef2e92310725c664b48", "name": "b50dab76498f8ef2e92310725c664b48"}, {"lon": -77.02471383333334, "is_disabled": 0, "lat": 38.91882366666667, "fusion_lat": 0.0, "is_reserved": 0, "rental_uris": {"ios": "https://dc.lft.to/lastmile_qr_scan", "android": "https://dc.lft.to/lastmile_qr_scan"}, "fusion_lon": 0.0, "type": "electric_scooter", "bike_id": "898d20115c848f0389f40035afcb37e6", "name": "898d20115c848f0389f40035afcb37e6"}, {"lon": -77.11828116666666, "is_disabled": 0, "lat": 38.859367666666664, "fusion_lat": 0.0, "is_reserved": 0, "rental_uris": {"ios": "https://dc.lft.to/lastmile_qr_scan", "android": "https://dc.lft.to/lastmile_qr_scan"}, "fusion_lon": 0.0, "type": "electric_bike", "bike_id": "7b7a3ee86f781ade3eb6354016aa4684", "name": "7b7a3ee86f781ade3eb6354016aa4684"}, {"lon": -76.97612066666667, "is_disabled": 0, "lat": 38.89290866666666, "fusion_lat": 0.0, "is_reserved": 0, "rental_uris": {"ios": "https://dc.lft.to/lastmile_qr_scan", "android": "https://dc.lft.to/lastmile_qr_scan"}, "fusion_lon": 0.0, "type": "electric_bike", "bike_id": "3cd80e1810a79ab5e827b18ae446a6d4", "name": "3cd80e1810a79ab5e827b18ae446a6d4"}, {"lon": -77.00928133333333, "is_disabled": 0, "lat": 38.91921083333333, "fusion_lat": 0.0, "is_reserved": 0, "rental_uris": {"ios": "https://dc.lft.to/lastmile_qr_scan", "android": "https://dc.lft.to/lastmile_qr_scan"}, "fusion_lon": 0.0, "type": "electric_scooter", "bike_id": "ad37860a6dd3e45c0e3bef09889f3dfb", "name": "ad37860a6dd3e45c0e3bef09889f3dfb"}, {"lon": -76.9997685, "is_disabled": 0, "lat": 38.874775, "fusion_lat": 0.0, "is_reserved": 0, "rental_uris": {"ios": "https://dc.lft.to/lastmile_qr_scan", "android": "https://dc.lft.to/lastmile_qr_scan"}, "fusion_lon": 0.0, "type": "electric_scooter", "bike_id": "2c7968c38b3a0e7351f1f7b7e9215845", "name": "2c7968c38b3a0e7351f1f7b7e9215845"}, {"lon": -77.03354783333333, "is_disabled": 0, "lat": 38.924460833333335, "fusion_lat": 0.0, "is_reserved": 0, "rental_uris": {"ios": "https://dc.lft.to/lastmile_qr_scan", "android": "https://dc.lft.to/lastmile_qr_scan"}, "fusion_lon": 0.0, "type": "electric_scooter", "bike_id": "21943f75bff2e62061d076b19e4e393a", "name": "21943f75bff2e62061d076b19e4e393a"}, {"lon": -76.98222016666666, "is_disabled": 0, "lat": 38.90190283333333, "fusion_lat": 0.0, "is_reserved": 0, "rental_uris": {"ios": "https://dc.lft.to/lastmile_qr_scan", "android": "https://dc.lft.to/lastmile_qr_scan"}, "fusion_lon": 0.0, "type": "electric_scooter", "bike_id": "e365f397a9d4112e8b5852a318a3e6ca", "name": "e365f397a9d4112e8b5852a318a3e6ca"}, {"lon": -77.002144, "is_disabled": 0, "lat": 38.82369583333333, "fusion_lat": 0.0, "is_reserved": 0, "rental_uris": {"ios": "https://dc.lft.to/lastmile_qr_scan", "android": "https://dc.lft.to/lastmile_qr_scan"}, "fusion_lon": 0.0, "type": "electric_bike", "bike_id": "b551b13fe2b585fb14fc7e870fd56c91", "name": "b551b13fe2b585fb14fc7e870fd56c91"}, {"lon": -77.03714966666666, "is_disabled": 0, "lat": 38.90250016666667, "fusion_lat": 0.0, "is_reserved": 0, "rental_uris": {"ios": "https://dc.lft.to/lastmile_qr_scan", "android": "https://dc.lft.to/lastmile_qr_scan"}, "fusion_lon": 0.0, "type": "electric_scooter", "bike_id": "63b8d2a3f7162a6775399e19c0899e75", "name": "63b8d2a3f7162a6775399e19c0899e75"}, {"lon": -77.04188033333334, "is_disabled": 0, "lat": 38.92044666666666, "fusion_lat": 0.0, "is_reserved": 0, "rental_uris": {"ios": "https://dc.lft.to/lastmile_qr_scan", "android": "https://dc.lft.to/lastmile_qr_scan"}, "fusion_lon": 0.0, "type": "electric_scooter", "bike_id": "5cf9fdd2e8625fb613142971a7974768", "name": "5cf9fdd2e8625fb613142971a7974768"}, {"lon": -77.07260433333333, "is_disabled": 0, "lat": 38.91161233333333, "fusion_lat": 0.0, "is_reserved": 0, "rental_uris": {"ios": "https://dc.lft.to/lastmile_qr_scan", "android": "https://dc.lft.to/lastmile_qr_scan"}, "fusion_lon": 0.0, "type": "electric_scooter", "bike_id": "a4f2b082df093d84277b54fe7cf28266", "name": "a4f2b082df093d84277b54fe7cf28266"}, {"lon": -76.97557916666666, "is_disabled": 0, "lat": 38.924565333333334, "fusion_lat": 0.0, "is_reserved": 0, "rental_uris": {"ios": "https://dc.lft.to/lastmile_qr_scan", "android": "https://dc.lft.to/lastmile_qr_scan"}, "fusion_lon": 0.0, "type": "electric_bike", "bike_id": "1a95c77b5c0efc34ead48577f01514c4", "name": "1a95c77b5c0efc34ead48577f01514c4"}, {"lon": -77.027095, "is_disabled": 0, "lat": 38.90672983333333, "fusion_lat": 0.0, "is_reserved": 0, "rental_uris": {"ios": "https://dc.lft.to/lastmile_qr_scan", "android": "https://dc.lft.to/lastmile_qr_scan"}, "fusion_lon": 0.0, "type": "electric_scooter", "bike_id": "203f9900478804b670825e1b0c3cbdfb", "name": "203f9900478804b670825e1b0c3cbdfb"}, {"lon": -77.01218516666667, "is_disabled": 0, "lat": 38.917506, "fusion_lat": 0.0, "is_reserved": 0, "rental_uris": {"ios": "https://dc.lft.to/lastmile_qr_scan", "android": "https://dc.lft.to/lastmile_qr_scan"}, "fusion_lon": 0.0, "type": "electric_scooter", "bike_id": "4a55b594369ece9b6c22b56638a2f527", "name": "4a55b594369ece9b6c22b56638a2f527"}, {"lon": -77.05973083333333, "is_disabled": 0, "lat": 38.901079833333334, "fusion_lat": 0.0, "is_reserved": 0, "rental_uris": {"ios": "https://dc.lft.to/lastmile_qr_scan", "android": "https://dc.lft.to/lastmile_qr_scan"}, "fusion_lon": 0.0, "type": "electric_scooter", "bike_id": "d2df1713a2f02fbab84887e590eebe2f", "name": "d2df1713a2f02fbab84887e590eebe2f"}, {"lon": -77.12737266666667, "is_disabled": 0, "lat": 38.89565983333333, "fusion_lat": 0.0, "is_reserved": 0, "rental_uris": {"ios": "https://dc.lft.to/lastmile_qr_scan", "android": "https://dc.lft.to/lastmile_qr_scan"}, "fusion_lon": 0.0, "type": "electric_bike", "bike_id": "15450bc2cdf03e6081a9587977d653ac", "name": "15450bc2cdf03e6081a9587977d653ac"}, {"lon": -76.984397, "is_disabled": 0, "lat": 38.9058255, "fusion_lat": 0.0, "is_reserved": 0, "rental_uris": {"ios": "https://dc.lft.to/lastmile_qr_scan", "android": "https://dc.lft.to/lastmile_qr_scan"}, "fusion_lon": 0.0, "type": "electric_scooter", "bike_id": "442f2b21b67c485d416de588267aab99", "name": "442f2b21b67c485d416de588267aab99"}, {"lon": -77.00381933333334, "is_disabled": 0, "lat": 38.83609, "fusion_lat": 0.0, "is_reserved": 0, "rental_uris": {"ios": "https://dc.lft.to/lastmile_qr_scan", "android": "https://dc.lft.to/lastmile_qr_scan"}, "fusion_lon": 0.0, "type": "electric_bike", "bike_id": "27914472db26c3341c8a15fb6b488223", "name": "27914472db26c3341c8a15fb6b488223"}, {"lon": -77.02406033333334, "is_disabled": 0, "lat": 38.914012666666665, "fusion_lat": 0.0, "is_reserved": 0, "rental_uris": {"ios": "https://dc.lft.to/lastmile_qr_scan", "android": "https://dc.lft.to/lastmile_qr_scan"}, "fusion_lon": 0.0, "type": "electric_scooter", "bike_id": "077f4811d0373022ca08d999e6279483", "name": "077f4811d0373022ca08d999e6279483"}, {"lon": -77.024944, "is_disabled": 0, "lat": 38.91806483333333, "fusion_lat": 0.0, "is_reserved": 0, "rental_uris": {"ios": "https://dc.lft.to/lastmile_qr_scan", "android": "https://dc.lft.to/lastmile_qr_scan"}, "fusion_lon": 0.0, "type": "electric_scooter", "bike_id": "1fce1b868edf20e7256c9b904f5c7b3c", "name": "1fce1b868edf20e7256c9b904f5c7b3c"}, {"lon": -77.022559, "is_disabled": 0, "lat": 38.89373533333333, "fusion_lat": 0.0, "is_reserved": 0, "rental_uris": {"ios": "https://dc.lft.to/lastmile_qr_scan", "android": "https://dc.lft.to/lastmile_qr_scan"}, "fusion_lon": 0.0, "type": "electric_scooter", "bike_id": "ac8ab5cca2dad7972e572dee13a4e08f", "name": "ac8ab5cca2dad7972e572dee13a4e08f"}, {"lon": -77.07347166666666, "is_disabled": 0, "lat": 38.922670833333335, "fusion_lat": 0.0, "is_reserved": 0, "rental_uris": {"ios": "https://dc.lft.to/lastmile_qr_scan", "android": "https://dc.lft.to/lastmile_qr_scan"}, "fusion_lon": 0.0, "type": "electric_scooter", "bike_id": "37ea309c2e34da55ebd83577fb2a0fc4", "name": "37ea309c2e34da55ebd83577fb2a0fc4"}, {"lon": -77.01895366666666, "is_disabled": 0, "lat": 38.909181833333335, "fusion_lat": 0.0, "is_reserved": 0, "rental_uris": {"ios": "https://dc.lft.to/lastmile_qr_scan", "android": "https://dc.lft.to/lastmile_qr_scan"}, "fusion_lon": 0.0, "type": "electric_scooter", "bike_id": "33c976776f93c40b2f459bb15190886e", "name": "33c976776f93c40b2f459bb15190886e"}, {"lon": -77.02958716666667, "is_disabled": 0, "lat": 38.905003666666666, "fusion_lat": 0.0, "is_reserved": 0, "rental_uris": {"ios": "https://dc.lft.to/lastmile_qr_scan", "android": "https://dc.lft.to/lastmile_qr_scan"}, "fusion_lon": 0.0, "type": "electric_bike", "bike_id": "3b96f5c0aad7083e25303b17e1e6ccd8", "name": "3b96f5c0aad7083e25303b17e1e6ccd8"}, {"lon": -77.001983, "is_disabled": 0, "lat": 38.90268416666667, "fusion_lat": 0.0, "is_reserved": 0, "rental_uris": {"ios": "https://dc.lft.to/lastmile_qr_scan", "android": "https://dc.lft.to/lastmile_qr_scan"}, "fusion_lon": 0.0, "type": "electric_scooter", "bike_id": "855c7296896e7f51d5b8fb0b698280f8", "name": "855c7296896e7f51d5b8fb0b698280f8"}, {"lon": -77.019871, "is_disabled": 0, "lat": 38.914213833333335, "fusion_lat": 0.0, "is_reserved": 0, "rental_uris": {"ios": "https://dc.lft.to/lastmile_qr_scan", "android": "https://dc.lft.to/lastmile_qr_scan"}, "fusion_lon": 0.0, "type": "electric_scooter", "bike_id": "da9a1ec399cb0706921d419db2fa5958", "name": "da9a1ec399cb0706921d419db2fa5958"}, {"lon": -77.0383775, "is_disabled": 0, "lat": 38.9122745, "fusion_lat": 0.0, "is_reserved": 0, "rental_uris": {"ios": "https://dc.lft.to/lastmile_qr_scan", "android": "https://dc.lft.to/lastmile_qr_scan"}, "fusion_lon": 0.0, "type": "electric_scooter", "bike_id": "7ee28640117a52e201894c5364badbb2", "name": "7ee28640117a52e201894c5364badbb2"}, {"lon": -77.02287866666667, "is_disabled": 0, "lat": 38.91572683333333, "fusion_lat": 0.0, "is_reserved": 0, "rental_uris": {"ios": "https://dc.lft.to/lastmile_qr_scan", "android": "https://dc.lft.to/lastmile_qr_scan"}, "fusion_lon": 0.0, "type": "electric_scooter", "bike_id": "856593e892b39632a1427fc438028dd2", "name": "856593e892b39632a1427fc438028dd2"}, {"lon": -77.03397983333333, "is_disabled": 0, "lat": 38.90965716666667, "fusion_lat": 0.0, "is_reserved": 0, "rental_uris": {"ios": "https://dc.lft.to/lastmile_qr_scan", "android": "https://dc.lft.to/lastmile_qr_scan"}, "fusion_lon": 0.0, "type": "electric_scooter", "bike_id": "2227cbf18a58bea906f890c28e562a4f", "name": "2227cbf18a58bea906f890c28e562a4f"}, {"lon": -77.00106233333334, "is_disabled": 0, "lat": 38.886546333333335, "fusion_lat": 0.0, "is_reserved": 0, "rental_uris": {"ios": "https://dc.lft.to/lastmile_qr_scan", "android": "https://dc.lft.to/lastmile_qr_scan"}, "fusion_lon": 0.0, "type": "electric_scooter", "bike_id": "d53fd3d084d94e053e1f5cdb8f121ff3", "name": "d53fd3d084d94e053e1f5cdb8f121ff3"}, {"lon": -77.02281866666667, "is_disabled": 0, "lat": 38.8951815, "fusion_lat": 0.0, "is_reserved": 0, "rental_uris": {"ios": "https://dc.lft.to/lastmile_qr_scan", "android": "https://dc.lft.to/lastmile_qr_scan"}, "fusion_lon": 0.0, "type": "electric_scooter", "bike_id": "244e080de77306e3a13643fc5af41583", "name": "244e080de77306e3a13643fc5af41583"}, {"lon": -77.02113883333334, "is_disabled": 0, "lat": 38.90229166666667, "fusion_lat": 0.0, "is_reserved": 0, "rental_uris": {"ios": "https://dc.lft.to/lastmile_qr_scan", "android": "https://dc.lft.to/lastmile_qr_scan"}, "fusion_lon": 0.0, "type": "electric_scooter", "bike_id": "944a8942c095bf4508313c6caabcf40d", "name": "944a8942c095bf4508313c6caabcf40d"}, {"lon": -76.9652785, "is_disabled": 0, "lat": 38.8747475, "fusion_lat": 0.0, "is_reserved": 0, "rental_uris": {"ios": "https://dc.lft.to/lastmile_qr_scan", "android": "https://dc.lft.to/lastmile_qr_scan"}, "fusion_lon": 0.0, "type": "electric_bike", "bike_id": "e5fc50f7271b0c67d51be99db2c783f6", "name": "e5fc50f7271b0c67d51be99db2c783f6"}, {"lon": -76.930241, "is_disabled": 0, "lat": 38.90165916666667, "fusion_lat": 0.0, "is_reserved": 0, "rental_uris": {"ios": "https://dc.lft.to/lastmile_qr_scan", "android": "https://dc.lft.to/lastmile_qr_scan"}, "fusion_lon": 0.0, "type": "electric_scooter", "bike_id": "c2a57da69f28003975d09eefd6b17960", "name": "c2a57da69f28003975d09eefd6b17960"}, {"lon": -77.01199166666666, "is_disabled": 0, "lat": 38.91699033333333, "fusion_lat": 0.0, "is_reserved": 0, "rental_uris": {"ios": "https://dc.lft.to/lastmile_qr_scan", "android": "https://dc.lft.to/lastmile_qr_scan"}, "fusion_lon": 0.0, "type": "electric_scooter", "bike_id": "57aa5495fc1676118e593b16cf5b2d6a", "name": "57aa5495fc1676118e593b16cf5b2d6a"}, {"lon": -77.063039, "is_disabled": 0, "lat": 38.79856133333333, "fusion_lat": 0.0, "is_reserved": 0, "rental_uris": {"ios": "https://dc.lft.to/lastmile_qr_scan", "android": "https://dc.lft.to/lastmile_qr_scan"}, "fusion_lon": 0.0, "type": "electric_bike", "bike_id": "aeab9ce0093ca9b6fa020d19882c83c5", "name": "aeab9ce0093ca9b6fa020d19882c83c5"}, {"lon": -77.01000183333333, "is_disabled": 0, "lat": 38.95651483333333, "fusion_lat": 0.0, "is_reserved": 0, "rental_uris": {"ios": "https://dc.lft.to/lastmile_qr_scan", "android": "https://dc.lft.to/lastmile_qr_scan"}, "fusion_lon": 0.0, "type": "electric_scooter", "bike_id": "ce98cb61fb64ad42859f3b3426e5fe48", "name": "ce98cb61fb64ad42859f3b3426e5fe48"}, {"lon": -77.01165666666667, "is_disabled": 0, "lat": 38.95623283333333, "fusion_lat": 0.0, "is_reserved": 0, "rental_uris": {"ios": "https://dc.lft.to/lastmile_qr_scan", "android": "https://dc.lft.to/lastmile_qr_scan"}, "fusion_lon": 0.0, "type": "electric_scooter", "bike_id": "d1432776bd6cb517461bc42025fc35d2", "name": "d1432776bd6cb517461bc42025fc35d2"}, {"lon": -77.02453916666667, "is_disabled": 0, "lat": 38.94363516666667, "fusion_lat": 0.0, "is_reserved": 0, "rental_uris": {"ios": "https://dc.lft.to/lastmile_qr_scan", "android": "https://dc.lft.to/lastmile_qr_scan"}, "fusion_lon": 0.0, "type": "electric_scooter", "bike_id": "1104a52e5274546c8a02cb9a366993fe", "name": "1104a52e5274546c8a02cb9a366993fe"}, {"lon": -77.00569516666667, "is_disabled": 0, "lat": 38.90550616666667, "fusion_lat": 0.0, "is_reserved": 0, "rental_uris": {"ios": "https://dc.lft.to/lastmile_qr_scan", "android": "https://dc.lft.to/lastmile_qr_scan"}, "fusion_lon": 0.0, "type": "electric_scooter", "bike_id": "41124448e1ca7209e0ea913046e7a826", "name": "41124448e1ca7209e0ea913046e7a826"}, {"lon": -77.02968466666667, "is_disabled": 0, "lat": 38.904788, "fusion_lat": 0.0, "is_reserved": 0, "rental_uris": {"ios": "https://dc.lft.to/lastmile_qr_scan", "android": "https://dc.lft.to/lastmile_qr_scan"}, "fusion_lon": 0.0, "type": "electric_scooter", "bike_id": "b78d4628d3a5f210a75583a35cb3b1ef", "name": "b78d4628d3a5f210a75583a35cb3b1ef"}, {"lon": -77.02096383333334, "is_disabled": 0, "lat": 38.92131416666667, "fusion_lat": 0.0, "is_reserved": 0, "rental_uris": {"ios": "https://dc.lft.to/lastmile_qr_scan", "android": "https://dc.lft.to/lastmile_qr_scan"}, "fusion_lon": 0.0, "type": "electric_scooter", "bike_id": "06cb44e16e8dccc54c48a69d720425cd", "name": "06cb44e16e8dccc54c48a69d720425cd"}, {"lon": -77.022977, "is_disabled": 0, "lat": 38.909246, "fusion_lat": 0.0, "is_reserved": 0, "rental_uris": {"ios": "https://dc.lft.to/lastmile_qr_scan", "android": "https://dc.lft.to/lastmile_qr_scan"}, "fusion_lon": 0.0, "type": "electric_scooter", "bike_id": "068df4719a0cea1c0d9fd592b627fd75", "name": "068df4719a0cea1c0d9fd592b627fd75"}, {"lon": -77.01774966666666, "is_disabled": 0, "lat": 38.91503566666667, "fusion_lat": 0.0, "is_reserved": 0, "rental_uris": {"ios": "https://dc.lft.to/lastmile_qr_scan", "android": "https://dc.lft.to/lastmile_qr_scan"}, "fusion_lon": 0.0, "type": "electric_scooter", "bike_id": "edc869cef07d5adae12ebce98e4f258f", "name": "edc869cef07d5adae12ebce98e4f258f"}, {"lon": -77.025006, "is_disabled": 0, "lat": 38.91935566666667, "fusion_lat": 0.0, "is_reserved": 0, "rental_uris": {"ios": "https://dc.lft.to/lastmile_qr_scan", "android": "https://dc.lft.to/lastmile_qr_scan"}, "fusion_lon": 0.0, "type": "electric_scooter", "bike_id": "8e474572003df2989da6e13802bb9415", "name": "8e474572003df2989da6e13802bb9415"}, {"lon": -77.00453916666666, "is_disabled": 0, "lat": 38.876613666666664, "fusion_lat": 0.0, "is_reserved": 0, "rental_uris": {"ios": "https://dc.lft.to/lastmile_qr_scan", "android": "https://dc.lft.to/lastmile_qr_scan"}, "fusion_lon": 0.0, "type": "electric_scooter", "bike_id": "84453d3d75a994d1277d3c5f8f4bd2da", "name": "84453d3d75a994d1277d3c5f8f4bd2da"}, {"lon": -77.025943, "is_disabled": 0, "lat": 38.90431566666667, "fusion_lat": 0.0, "is_reserved": 0, "rental_uris": {"ios": "https://dc.lft.to/lastmile_qr_scan", "android": "https://dc.lft.to/lastmile_qr_scan"}, "fusion_lon": 0.0, "type": "electric_scooter", "bike_id": "48690cb9840688f9b04f11204033b1c4", "name": "48690cb9840688f9b04f11204033b1c4"}, {"lon": -77.04892133333334, "is_disabled": 0, "lat": 38.900843333333334, "fusion_lat": 0.0, "is_reserved": 0, "rental_uris": {"ios": "https://dc.lft.to/lastmile_qr_scan", "android": "https://dc.lft.to/lastmile_qr_scan"}, "fusion_lon": 0.0, "type": "electric_scooter", "bike_id": "99c66de89207f4f51a91ca9f5002fbf8", "name": "99c66de89207f4f51a91ca9f5002fbf8"}, {"lon": -77.03519466666667, "is_disabled": 0, "lat": 38.922372333333335, "fusion_lat": 0.0, "is_reserved": 0, "rental_uris": {"ios": "https://dc.lft.to/lastmile_qr_scan", "android": "https://dc.lft.to/lastmile_qr_scan"}, "fusion_lon": 0.0, "type": "electric_scooter", "bike_id": "07c4426216be77bc84af4852e015977f", "name": "07c4426216be77bc84af4852e015977f"}, {"lon": -77.04175333333333, "is_disabled": 0, "lat": 38.91119233333333, "fusion_lat": 0.0, "is_reserved": 0, "rental_uris": {"ios": "https://dc.lft.to/lastmile_qr_scan", "android": "https://dc.lft.to/lastmile_qr_scan"}, "fusion_lon": 0.0, "type": "electric_scooter", "bike_id": "75acc85f4f9d54501450362a4a03e2e5", "name": "75acc85f4f9d54501450362a4a03e2e5"}, {"lon": -77.022102, "is_disabled": 0, "lat": 38.915669, "fusion_lat": 0.0, "is_reserved": 0, "rental_uris": {"ios": "https://dc.lft.to/lastmile_qr_scan", "android": "https://dc.lft.to/lastmile_qr_scan"}, "fusion_lon": 0.0, "type": "electric_scooter", "bike_id": "5c0360c347c3cd3d75f56aebd07779ca", "name": "5c0360c347c3cd3d75f56aebd07779ca"}, {"lon": -77.03439033333333, "is_disabled": 0, "lat": 38.90570683333333, "fusion_lat": 0.0, "is_reserved": 0, "rental_uris": {"ios": "https://dc.lft.to/lastmile_qr_scan", "android": "https://dc.lft.to/lastmile_qr_scan"}, "fusion_lon": 0.0, "type": "electric_scooter", "bike_id": "496aa9980d9bf5ecc23eee6cb4ffa714", "name": "496aa9980d9bf5ecc23eee6cb4ffa714"}, {"lon": -76.97861566666667, "is_disabled": 0, "lat": 38.867448, "fusion_lat": 0.0, "is_reserved": 0, "rental_uris": {"ios": "https://dc.lft.to/lastmile_qr_scan", "android": "https://dc.lft.to/lastmile_qr_scan"}, "fusion_lon": 0.0, "type": "electric_scooter", "bike_id": "b52aa5d4d30adb67b821ba07d3a2bcfc", "name": "b52aa5d4d30adb67b821ba07d3a2bcfc"}, {"lon": -77.0394545, "is_disabled": 0, "lat": 38.914138333333334, "fusion_lat": 0.0, "is_reserved": 0, "rental_uris": {"ios": "https://dc.lft.to/lastmile_qr_scan", "android": "https://dc.lft.to/lastmile_qr_scan"}, "fusion_lon": 0.0, "type": "electric_scooter", "bike_id": "e7b13fb3ec3d3292cfcccfefb5a5bc87", "name": "e7b13fb3ec3d3292cfcccfefb5a5bc87"}, {"lon": -76.990577, "is_disabled": 0, "lat": 38.898117666666664, "fusion_lat": 0.0, "is_reserved": 0, "rental_uris": {"ios": "https://dc.lft.to/lastmile_qr_scan", "android": "https://dc.lft.to/lastmile_qr_scan"}, "fusion_lon": 0.0, "type": "electric_bike", "bike_id": "9b6560c08dfc632c32ea230ab7500419", "name": "9b6560c08dfc632c32ea230ab7500419"}, {"lon": -76.98083616666666, "is_disabled": 0, "lat": 38.9263525, "fusion_lat": 0.0, "is_reserved": 0, "rental_uris": {"ios": "https://dc.lft.to/lastmile_qr_scan", "android": "https://dc.lft.to/lastmile_qr_scan"}, "fusion_lon": 0.0, "type": "electric_scooter", "bike_id": "2dc04aaa337326d000ca09815d12454f", "name": "2dc04aaa337326d000ca09815d12454f"}, {"lon": -77.020929, "is_disabled": 0, "lat": 38.927013333333335, "fusion_lat": 0.0, "is_reserved": 0, "rental_uris": {"ios": "https://dc.lft.to/lastmile_qr_scan", "android": "https://dc.lft.to/lastmile_qr_scan"}, "fusion_lon": 0.0, "type": "electric_scooter", "bike_id": "b17f49936983b743497b342c3b3c06fa", "name": "b17f49936983b743497b342c3b3c06fa"}, {"lon": -77.00109383333333, "is_disabled": 0, "lat": 38.87372666666667, "fusion_lat": 0.0, "is_reserved": 0, "rental_uris": {"ios": "https://dc.lft.to/lastmile_qr_scan", "android": "https://dc.lft.to/lastmile_qr_scan"}, "fusion_lon": 0.0, "type": "electric_scooter", "bike_id": "8f57de9c59bd5912525396b78c3c0a2e", "name": "8f57de9c59bd5912525396b78c3c0a2e"}, {"lon": -77.03272733333333, "is_disabled": 0, "lat": 38.92796166666667, "fusion_lat": 0.0, "is_reserved": 0, "rental_uris": {"ios": "https://dc.lft.to/lastmile_qr_scan", "android": "https://dc.lft.to/lastmile_qr_scan"}, "fusion_lon": 0.0, "type": "electric_scooter", "bike_id": "5ba4aeef30a55ac5852aeba0dcf75bda", "name": "5ba4aeef30a55ac5852aeba0dcf75bda"}, {"lon": -77.01223516666667, "is_disabled": 0, "lat": 38.924014166666666, "fusion_lat": 0.0, "is_reserved": 0, "rental_uris": {"ios": "https://dc.lft.to/lastmile_qr_scan", "android": "https://dc.lft.to/lastmile_qr_scan"}, "fusion_lon": 0.0, "type": "electric_scooter", "bike_id": "dc56cc33e65a0d999357469e5ca6f4a7", "name": "dc56cc33e65a0d999357469e5ca6f4a7"}, {"lon": -77.0332075, "is_disabled": 0, "lat": 38.92156133333334, "fusion_lat": 0.0, "is_reserved": 0, "rental_uris": {"ios": "https://dc.lft.to/lastmile_qr_scan", "android": "https://dc.lft.to/lastmile_qr_scan"}, "fusion_lon": 0.0, "type": "electric_scooter", "bike_id": "d0a2b1d22b3d85c9e49bb5a9994c3e95", "name": "d0a2b1d22b3d85c9e49bb5a9994c3e95"}, {"lon": -77.028871, "is_disabled": 0, "lat": 38.901470833333335, "fusion_lat": 0.0, "is_reserved": 0, "rental_uris": {"ios": "https://dc.lft.to/lastmile_qr_scan", "android": "https://dc.lft.to/lastmile_qr_scan"}, "fusion_lon": 0.0, "type": "electric_scooter", "bike_id": "86358deb66c0c3f4ab19fcf917b31741", "name": "86358deb66c0c3f4ab19fcf917b31741"}, {"lon": -77.00652266666667, "is_disabled": 0, "lat": 38.89991116666667, "fusion_lat": 0.0, "is_reserved": 0, "rental_uris": {"ios": "https://dc.lft.to/lastmile_qr_scan", "android": "https://dc.lft.to/lastmile_qr_scan"}, "fusion_lon": 0.0, "type": "electric_scooter", "bike_id": "6d177ae5fd07bc0eaeff1d6c5fddaacd", "name": "6d177ae5fd07bc0eaeff1d6c5fddaacd"}, {"lon": -77.02368166666666, "is_disabled": 0, "lat": 38.9019995, "fusion_lat": 0.0, "is_reserved": 0, "rental_uris": {"ios": "https://dc.lft.to/lastmile_qr_scan", "android": "https://dc.lft.to/lastmile_qr_scan"}, "fusion_lon": 0.0, "type": "electric_scooter", "bike_id": "b90ae20321ee4df2b00d998c41987e35", "name": "b90ae20321ee4df2b00d998c41987e35"}, {"lon": -77.04263183333333, "is_disabled": 0, "lat": 38.908651166666665, "fusion_lat": 0.0, "is_reserved": 0, "rental_uris": {"ios": "https://dc.lft.to/lastmile_qr_scan", "android": "https://dc.lft.to/lastmile_qr_scan"}, "fusion_lon": 0.0, "type": "electric_scooter", "bike_id": "b147f3ab33a282e4cbf5e5e380ca984e", "name": "b147f3ab33a282e4cbf5e5e380ca984e"}, {"lon": -77.04764716666666, "is_disabled": 0, "lat": 38.91756433333333, "fusion_lat": 0.0, "is_reserved": 0, "rental_uris": {"ios": "https://dc.lft.to/lastmile_qr_scan", "android": "https://dc.lft.to/lastmile_qr_scan"}, "fusion_lon": 0.0, "type": "electric_scooter", "bike_id": "3120a977f97a32ba54376d24732bdbe9", "name": "3120a977f97a32ba54376d24732bdbe9"}, {"lon": -77.01486966666667, "is_disabled": 0, "lat": 38.892216166666664, "fusion_lat": 0.0, "is_reserved": 0, "rental_uris": {"ios": "https://dc.lft.to/lastmile_qr_scan", "android": "https://dc.lft.to/lastmile_qr_scan"}, "fusion_lon": 0.0, "type": "electric_scooter", "bike_id": "00b6110c264e1af7f2977933242899a4", "name": "00b6110c264e1af7f2977933242899a4"}, {"lon": -76.980335, "is_disabled": 0, "lat": 38.90790233333333, "fusion_lat": 0.0, "is_reserved": 0, "rental_uris": {"ios": "https://dc.lft.to/lastmile_qr_scan", "android": "https://dc.lft.to/lastmile_qr_scan"}, "fusion_lon": 0.0, "type": "electric_scooter", "bike_id": "8712fabeb2c8fb98fe204c07ca2f58f0", "name": "8712fabeb2c8fb98fe204c07ca2f58f0"}, {"lon": -77.03205083333333, "is_disabled": 0, "lat": 38.8978145, "fusion_lat": 0.0, "is_reserved": 0, "rental_uris": {"ios": "https://dc.lft.to/lastmile_qr_scan", "android": "https://dc.lft.to/lastmile_qr_scan"}, "fusion_lon": 0.0, "type": "electric_scooter", "bike_id": "ae3453b9e499dbd95a8c30c5e09c1ca4", "name": "ae3453b9e499dbd95a8c30c5e09c1ca4"}, {"lon": -77.02309166666667, "is_disabled": 0, "lat": 38.91797433333333, "fusion_lat": 0.0, "is_reserved": 0, "rental_uris": {"ios": "https://dc.lft.to/lastmile_qr_scan", "android": "https://dc.lft.to/lastmile_qr_scan"}, "fusion_lon": 0.0, "type": "electric_scooter", "bike_id": "144ae03c302d16f86ccbd0351ec4a223", "name": "144ae03c302d16f86ccbd0351ec4a223"}, {"lon": -77.024598, "is_disabled": 0, "lat": 38.9482945, "fusion_lat": 0.0, "is_reserved": 0, "rental_uris": {"ios": "https://dc.lft.to/lastmile_qr_scan", "android": "https://dc.lft.to/lastmile_qr_scan"}, "fusion_lon": 0.0, "type": "electric_scooter", "bike_id": "145b114cba1bb784e349459d07499e75", "name": "145b114cba1bb784e349459d07499e75"}, {"lon": -77.02711033333334, "is_disabled": 0, "lat": 38.90716316666666, "fusion_lat": 0.0, "is_reserved": 0, "rental_uris": {"ios": "https://dc.lft.to/lastmile_qr_scan", "android": "https://dc.lft.to/lastmile_qr_scan"}, "fusion_lon": 0.0, "type": "electric_scooter", "bike_id": "defe45bc713a63bb8580d6fb36034f43", "name": "defe45bc713a63bb8580d6fb36034f43"},