{"data": {"bikes": [{"rental_uris": {"ios": "https://dc.lft.to/lastmile_qr_scan", "android": "https://dc.lft.to/lastmile_qr_scan"}, "type": "electric_bike", "name": "65c324c3c1a1c9e55542de9cf63bc283", "is_reserved": 0, "lon": -77.12654216666667, "is_disabled": 0, "fusion_lat": 0.0, "lat": 38.819090833333334, "bike_id": "65c324c3c1a1c9e55542de9cf63bc283", "fusion_lon": 0.0}, {"rental_uris": {"ios": "https://dc.lft.to/lastmile_qr_scan", "android": "https://dc.lft.to/lastmile_qr_scan"}, "type": "electric_scooter", "name": "f4153810eb1920bdc3a8d9dda81d03a9", "is_reserved": 0, "lon": -77.00544633333334, "is_disabled": 0, "fusion_lat": 0.0, "lat": 38.87644216666666, "bike_id": "f4153810eb1920bdc3a8d9dda81d03a9", "fusion_lon": 0.0}, {"rental_uris": {"ios": "https://dc.lft.to/lastmile_qr_scan", "android": "https://dc.lft.to/lastmile_qr_scan"}, "type": "electric_bike", "name": "dc45ce294650a84b7f5b35732131d209", "is_reserved": 0, "lon": -77.08530533333334, "is_disabled": 0, "fusion_lat": 0.0, "lat": 38.85646633333333, "bike_id": "dc45ce294650a84b7f5b35732131d209", "fusion_lon": 0.0}, {"rental_uris": {"ios": "https://dc.lft.to/lastmile_qr_scan", "android": "https://dc.lft.to/lastmile_qr_scan"}, "type": "electric_scooter", "name": "c9510a507364077f085ac2041aad7f1a", "is_reserved": 0, "lon": -76.98506883333333, "is_disabled": 0, "fusion_lat": 0.0, "lat": 38.87992666666667, "bike_id": "c9510a507364077f085ac2041aad7f1a", "fusion_lon": 0.0}, {"rental_uris": {"ios": "https://dc.lft.to/lastmile_qr_scan", "android": "https://dc.lft.to/lastmile_qr_scan"}, "type": "electric_scooter", "name": "3b18cb8df44f692e6f80f9796722d226", "is_reserved": 0, "lon": -77.059238, "is_disabled": 0, "fusion_lat": 0.0, "lat": 38.90272616666667, "bike_id": "3b18cb8df44f692e6f80f9796722d226", "fusion_lon": 0.0}, {"rental_uris": {"ios": "https://dc.lft.to/lastmile_qr_scan", "android": "https://dc.lft.to/lastmile_qr_scan"}, "type": "electric_scooter", "name": "5dcace31cbbb37be694114d50bb0f976", "is_reserved": 0, "lon": -77.02509616666667, "is_disabled": 0, "fusion_lat": 0.0, "lat": 38.93548533333333, "bike_id": "5dcace31cbbb37be694114d50bb0f976", "fusion_lon": 0.0}, {"rental_uris": {"ios": "https://dc.lft.to/lastmile_qr_scan", "android": "https://dc.lft.to/lastmile_qr_scan"}, "type": "electric_scooter", "name": "2073c6839f32d8fb16ea5c32cf7991d7", "is_reserved": 0, "lon": -77.03420283333334, "is_disabled": 0, "fusion_lat": 0.0, "lat": 38.921999666666665, "bike_id": "2073c6839f32d8fb16ea5c32cf7991d7", "fusion_lon": 0.0}, {"rental_uris": {"ios": "https://dc.lft.to/lastmile_qr_scan", "android": "https://dc.lft.to/lastmile_qr_scan"}, "type": "electric_scooter", "name": "34235e4a67580bc0c926541de02b136b", "is_reserved": 0, "lon": -77.0663005, "is_disabled": 0, "fusion_lat": 0.0, "lat": 38.905227833333335, "bike_id": "34235e4a67580bc0c926541de02b136b", "fusion_lon": 0.0}, {"rental_uris": {"ios": "https://dc.lft.to/lastmile_qr_scan", "android": "https://dc.lft.to/lastmile_qr_scan"}, "type": "electric_scooter", "name": "c5776f6f7d520f529493d8b7c411f2ca", "is_reserved": 0, "lon": -77.042356, "is_disabled": 0, "fusion_lat": 0.0, "lat": 38.911092333333336, "bike_id": "c5776f6f7d520f529493d8b7c411f2ca", "fusion_lon": 0.0}, {"rental_uris": {"ios": "https://dc.lft.to/lastmile_qr_scan", "android": "https://dc.lft.to/lastmile_qr_scan"}, "type": "electric_scooter", "name": "bb5e04a8bf365a94b7e6de3e4f18438b", "is_reserved": 0, "lon": -77.00060116666667, "is_disabled": 0, "fusion_lat": 0.0, "lat": 38.87429616666667, "bike_id": "bb5e04a8bf365a94b7e6de3e4f18438b", "fusion_lon": 0.0}, {"rental_uris": {"ios": "https://dc.lft.to/lastmile_qr_scan", "android": "https://dc.lft.to/lastmile_qr_scan"}, "type": "electric_scooter", "name": "bc229f9ce9a0da9e1a67b88346d61c27", "is_reserved": 0, "lon": -77.02847266666667, "is_disabled": 0, "fusion_lat": 0.0, "lat": 38.904425333333336, "bike_id": "bc229f9ce9a0da9e1a67b88346d61c27", "fusion_lon": 0.0}, {"rental_uris": {"ios": "https://dc.lft.to/lastmile_qr_scan", "android": "https://dc.lft.to/lastmile_qr_scan"}, "type": "electric_scooter", "name": "00e198ee3f627f1078779740907e908b", "is_reserved": 0, "lon": -77.024034, "is_disabled": 0, "fusion_lat": 0.0, "lat": 38.9381695, "bike_id": "00e198ee3f627f1078779740907e908b", "fusion_lon": 0.0}, {"rental_uris": {"ios": "https://dc.lft.to/lastmile_qr_scan", "android": "https://dc.lft.to/lastmile_qr_scan"}, "type": "electric_scooter", "name": "00745ac76311baa6b174c87853b6cecb", "is_reserved": 0, "lon": -76.99860766666667, "is_disabled": 0, "fusion_lat": 0.0, "lat": 38.90028383333333, "bike_id": "00745ac76311baa6b174c87853b6cecb", "fusion_lon": 0.0}, {"rental_uris": {"ios": "https://dc.lft.to/lastmile_qr_scan", "android": "https://dc.lft.to/lastmile_qr_scan"}, "type": "electric_scooter", "name": "3452d13edfb64d57dd77755d47ad643b", "is_reserved": 0, "lon": -77.06481683333334, "is_disabled": 0, "fusion_lat": 0.0, "lat": 38.927019666666666, "bike_id": "3452d13edfb64d57dd77755d47ad643b", "fusion_lon": 0.0}, {"rental_uris": {"ios": "https://dc.lft.to/lastmile_qr_scan", "android": "https://dc.lft.to/lastmile_qr_scan"}, "type": "electric_scooter", "name": "4e4435a4d816ba72dff6c223fe63aaf7", "is_reserved": 0, "lon": -76.99382366666667, "is_disabled": 0, "fusion_lat": 0.0, "lat": 38.8933635, "bike_id": "4e4435a4d816ba72dff6c223fe63aaf7", "fusion_lon": 0.0}, {"rental_uris": {"ios": "https://dc.lft.to/lastmile_qr_scan", "android": "https://dc.lft.to/lastmile_qr_scan"}, "type": "electric_scooter", "name": "a54e6e61ea63ce519e05dbcd9d15517c", "is_reserved": 0, "lon": -77.02690083333333, "is_disabled": 0, "fusion_lat": 0.0, "lat": 38.92487066666666, "bike_id": "a54e6e61ea63ce519e05dbcd9d15517c", "fusion_lon": 0.0}, {"rental_uris": {"ios": "https://dc.lft.to/lastmile_qr_scan", "android": "https://dc.lft.to/lastmile_qr_scan"}, "type": "electric_scooter", "name": "9d38f499177ae4b22e14b9dd940fb2db", "is_reserved": 0, "lon": -77.045257, "is_disabled": 0, "fusion_lat": 0.0, "lat": 38.91110033333333, "bike_id": "9d38f499177ae4b22e14b9dd940fb2db", "fusion_lon": 0.0}, {"rental_uris": {"ios": "https://dc.lft.to/lastmile_qr_scan", "android": "https://dc.lft.to/lastmile_qr_scan"}, "type": "electric_scooter", "name": "5686f821c131b8355322e096e0baca79", "is_reserved": 0, "lon": -76.9845825, "is_disabled": 0, "fusion_lat": 0.0, "lat": 38.900163, "bike_id": "5686f821c131b8355322e096e0baca79", "fusion_lon": 0.0}, {"rental_uris": {"ios": "https://dc.lft.to/lastmile_qr_scan", "android": "https://dc.lft.to/lastmile_qr_scan"}, "type": "electric_scooter", "name": "827c0ef73967f1369cfa90c55c12f415", "is_reserved": 0, "lon": -77.0247755, "is_disabled": 0, "fusion_lat": 0.0, "lat": 38.91812933333333, "bike_id": "827c0ef73967f1369cfa90c55c12f415", "fusion_lon": 0.0}, {"rental_uris": {"ios": "https://dc.lft.to/lastmile_qr_scan", "android": "https://dc.lft.to/lastmile_qr_scan"}, "type": "electric_scooter", "name": "5f792890262a0a9b1c8b6c8b9a45bf6c", "is_reserved": 0, "lon": -76.9915425, "is_disabled": 0, "fusion_lat": 0.0, "lat": 38.88813, "bike_id": "5f792890262a0a9b1c8b6c8b9a45bf6c", "fusion_lon": 0.0}, {"rental_uris": {"ios": "https://dc.lft.to/lastmile_qr_scan", "android": "https://dc.lft.to/lastmile_qr_scan"}, "type": "electric_scooter", "name": "63ac9e8187650f9bc7516b4709384294", "is_reserved": 0, "lon": -77.01976316666666, "is_disabled": 0, "fusion_lat": 0.0, "lat": 38.92251233333333, "bike_id": "63ac9e8187650f9bc7516b4709384294", "fusion_lon": 0.0}, {"rental_uris": {"ios": "https://dc.lft.to/lastmile_qr_scan", "android": "https://dc.lft.to/lastmile_qr_scan"}, "type": "electric_scooter", "name": "2c660ab3a53503bbb909d3f799ed952f", "is_reserved": 0, "lon": -77.04471366666667, "is_disabled": 0, "fusion_lat": 0.0, "lat": 38.915312666666665, "bike_id": "2c660ab3a53503bbb909d3f799ed952f", "fusion_lon": 0.0}, {"rental_uris": {"ios": "https://dc.lft.to/lastmile_qr_scan", "android": "https://dc.lft.to/lastmile_qr_scan"}, "type": "electric_scooter", "name": "f1c71ad0f4ad3c59ba9dd321b5b9c38f", "is_reserved": 0, "lon": -77.01700083333333, "is_disabled": 0, "fusion_lat": 0.0, "lat": 38.9047015, "bike_id": "f1c71ad0f4ad3c59ba9dd321b5b9c38f", "fusion_lon": 0.0}, {"rental_uris": {"ios": "https://dc.lft.to/lastmile_qr_scan", "android": "https://dc.lft.to/lastmile_qr_scan"}, "type": "electric_scooter", "name": "d6556d6ed35aec2d2beace862af24ae1", "is_reserved": 0, "lon": -77.02442033333334, "is_disabled": 0, "fusion_lat": 0.0, "lat": 38.9203705, "bike_id": "d6556d6ed35aec2d2beace862af24ae1", "fusion_lon": 0.0}, {"rental_uris": {"ios": "https://dc.lft.to/lastmile_qr_scan", "android": "https://dc.lft.to/lastmile_qr_scan"}, "type": "electric_scooter", "name": "e6ad8835c8521d1d04df6c8b7f4ef5bb", "is_reserved": 0, "lon": -77.05322916666667, "is_disabled": 0, "fusion_lat": 0.0, "lat": 38.92353, "bike_id": "e6ad8835c8521d1d04df6c8b7f4ef5bb", "fusion_lon": 0.0}, {"rental_uris": {"ios": "https://dc.lft.to/lastmile_qr_scan", "android": "https://dc.lft.to/lastmile_qr_scan"}, "type": "electric_bike", "name": "aaadeb4f1956341a02f3d240e7478276", "is_reserved": 0, "lon": -76.97323366666667, "is_disabled": 0, "fusion_lat": 0.0, "lat": 38.857788, "bike_id": "aaadeb4f1956341a02f3d240e7478276", "fusion_lon": 0.0}, {"rental_uris": {"ios": "https://dc.lft.to/lastmile_qr_scan", "android": "https://dc.lft.to/lastmile_qr_scan"}, "type": "electric_scooter", "name": "b6e52ba85024f4734b1eac1c106551ae", "is_reserved": 0, "lon": -77.01095583333333, "is_disabled": 0, "fusion_lat": 0.0, "lat": 38.90679733333333, "bike_id": "b6e52ba85024f4734b1eac1c106551ae", "fusion_lon": 0.0}, {"rental_uris": {"ios": "https://dc.lft.to/lastmile_qr_scan", "android": "https://dc.lft.to/lastmile_qr_scan"}, "type": "electric_scooter", "name": "562c9c1adc4002defa3b81548d5377ef", "is_reserved": 0, "lon": -77.0319115, "is_disabled": 0, "fusion_lat": 0.0, "lat": 38.908539, "bike_id": "562c9c1adc4002defa3b81548d5377ef", "fusion_lon": 0.0}, {"rental_uris": {"ios": "https://dc.lft.to/lastmile_qr_scan", "android": "https://dc.lft.to/lastmile_qr_scan"}, "type": "electric_scooter", "name": "fedfab3954d98a6528d01188d7f82c03", "is_reserved": 0, "lon": -77.05983533333334, "is_disabled": 0, "fusion_lat": 0.0, "lat": 38.902473666666666, "bike_id": "fedfab3954d98a6528d01188d7f82c03", "fusion_lon": 0.0}, {"rental_uris": {"ios": "https://dc.lft.to/lastmile_qr_scan", "android": "https://dc.lft.to/lastmile_qr_scan"}, "type": "electric_scooter", "name": "d456d9345e752cdb697ee57d536dabba", "is_reserved": 0, "lon": -77.00214216666667, "is_disabled": 0, "fusion_lat": 0.0, "lat": 38.90054416666667, "bike_id": "d456d9345e752cdb697ee57d536dabba", "fusion_lon": 0.0}, {"rental_uris": {"ios": "https://dc.lft.to/lastmile_qr_scan", "android": "https://dc.lft.to/lastmile_qr_scan"}, "type": "electric_scooter", "name": "979dbd38f68c3b27a9caa3ca8c5d3023", "is_reserved": 0, "lon": -77.02951966666667, "is_disabled": 0, "fusion_lat": 0.0, "lat": 38.902788666666666, "bike_id": "979dbd38f68c3b27a9caa3ca8c5d3023", "fusion_lon": 0.0}, {"rental_uris": {"ios": "https://dc.lft.to/lastmile_qr_scan", "android": "https://dc.lft.to/lastmile_qr_scan"}, "type": "electric_bike", "name": "2ecfbde1959ef2428377f094b0b081bb", "is_reserved": 0, "lon": -77.12840916666667, "is_disabled": 0, "fusion_lat": 0.0, "lat": 38.80052083333333, "bike_id": "2ecfbde1959ef2428377f094b0b081bb", "fusion_lon": 0.0}, {"rental_uris": {"ios": "https://dc.lft.to/lastmile_qr_scan", "android": "https://dc.lft.to/lastmile_qr_scan"}, "type": "electric_scooter", "name": "4419eca8e20fcd6542597a98b56f1ef9", "is_reserved": 0, "lon": -76.9912095, "is_disabled": 0, "fusion_lat": 0.0, "lat": 38.90901383333333, "bike_id": "4419eca8e20fcd6542597a98b56f1ef9", "fusion_lon": 0.0}, {"rental_uris": {"ios": "https://dc.lft.to/lastmile_qr_scan", "android": "https://dc.lft.to/lastmile_qr_scan"}, "type": "electric_scooter", "name": "9a35590af98ac38eb771695b398005e9", "is_reserved": 0, "lon": -77.0273085, "is_disabled": 0, "fusion_lat": 0.0, "lat": 38.93460366666667, "bike_id": "9a35590af98ac38eb771695b398005e9", "fusion_lon": 0.0}, {"rental_uris": {"ios": "https://dc.lft.to/lastmile_qr_scan", "android": "https://dc.lft.to/lastmile_qr_scan"}, "type": "electric_scooter", "name": "356fb62261e436449c36224436ab4922", "is_reserved": 0, "lon": -77.03214366666667, "is_disabled": 0, "fusion_lat": 0.0, "lat": 38.898373166666666, "bike_id": "356fb62261e436449c36224436ab4922", "fusion_lon": 0.0}, {"rental_uris": {"ios": "https://dc.lft.to/lastmile_qr_scan", "android": "https://dc.lft.to/lastmile_qr_scan"}, "type": "electric_bike", "name": "165cd35d78c7392486ba19ec37208705", "is_reserved": 0, "lon": -76.98343083333333, "is_disabled": 0, "fusion_lat": 0.0, "lat": 38.925804666666664, "bike_id": "165cd35d78c7392486ba19ec37208705", "fusion_lon": 0.0}, {"rental_uris": {"ios": "https://dc.lft.to/lastmile_qr_scan", "android": "https://dc.lft.to/lastmile_qr_scan"}, "type": "electric_scooter", "name": "e8820bf5ded8ea4ac15d04d187896e61", "is_reserved": 0, "lon": -77.0199405, "is_disabled": 0, "fusion_lat": 0.0, "lat": 38.87606316666667, "bike_id": "e8820bf5ded8ea4ac15d04d187896e61", "fusion_lon": 0.0}, {"rental_uris": {"ios": "https://dc.lft.to/lastmile_qr_scan", "android": "https://dc.lft.to/lastmile_qr_scan"}, "type": "electric_scooter", "name": "36ef91fb60d90f07d399b89644314e8c", "is_reserved": 0, "lon": -77.00350166666666, "is_disabled": 0, "fusion_lat": 0.0, "lat": 38.876885, "bike_id": "36ef91fb60d90f07d399b89644314e8c", "fusion_lon": 0.0}, {"rental_uris": {"ios": "https://dc.lft.to/lastmile_qr_scan", "android": "https://dc.lft.to/lastmile_qr_scan"}, "type": "electric_scooter", "name": "69819522469a73214e6e713587dac759", "is_reserved": 0, "lon": -77.022359, "is_disabled": 0, "fusion_lat": 0.0, "lat": 38.89222133333333, "bike_id": "69819522469a73214e6e713587dac759", "fusion_lon": 0.0}, {"rental_uris": {"ios": "https://dc.lft.to/lastmile_qr_scan", "android": "https://dc.lft.to/lastmile_qr_scan"}, "type": "electric_scooter", "name": "347e954abdca63bbe68f454454b9d1ef", "is_reserved": 0, "lon": -77.0176015, "is_disabled": 0, "fusion_lat": 0.0, "lat": 38.876914666666664, "bike_id": "347e954abdca63bbe68f454454b9d1ef", "fusion_lon": 0.0}, {"rental_uris": {"ios": "https://dc.lft.to/lastmile_qr_scan", "android": "https://dc.lft.to/lastmile_qr_scan"}, "type": "electric_scooter", "name": "35a9fe7ffc8448232c46582036ff5738", "is_reserved": 0, "lon": -77.04457166666667, "is_disabled": 0, "fusion_lat": 0.0, "lat": 38.903620833333335, "bike_id": "35a9fe7ffc8448232c46582036ff5738", "fusion_lon": 0.0}, {"rental_uris": {"ios": "https://dc.lft.to/lastmile_qr_scan", "android": "https://dc.lft.to/lastmile_qr_scan"}, "type": "electric_scooter", "name": "7198c8f1942a80c1242061f46dcbd0f9", "is_reserved": 0, "lon": -76.98834716666667, "is_disabled": 0, "fusion_lat": 0.0, "lat": 38.84291, "bike_id": "7198c8f1942a80c1242061f46dcbd0f9", "fusion_lon": 0.0}, {"rental_uris": {"ios": "https://dc.lft.to/lastmile_qr_scan", "android": "https://dc.lft.to/lastmile_qr_scan"}, "type": "electric_bike", "name": "6668e86dc25d048f0fa2752147c0ca09", "is_reserved": 0, "lon": -76.96264466666666, "is_disabled": 0, "fusion_lat": 0.0, "lat": 38.9678215, "bike_id": "6668e86dc25d048f0fa2752147c0ca09", "fusion_lon": 0.0}, {"rental_uris": {"ios": "https://dc.lft.to/lastmile_qr_scan", "android": "https://dc.lft.to/lastmile_qr_scan"}, "type": "electric_scooter", "name": "596affa294b8f3452d30da2520beb2be", "is_reserved": 0, "lon": -76.996228, "is_disabled": 0, "fusion_lat": 0.0, "lat": 38.8896285, "bike_id": "596affa294b8f3452d30da2520beb2be", "fusion_lon": 0.0}, {"rental_uris": {"ios": "https://dc.lft.to/lastmile_qr_scan", "android": "https://dc.lft.to/lastmile_qr_scan"}, "type": "electric_scooter", "name": "2db369e650f7102f6e4e2379ed2c7229", "is_reserved": 0, "lon": -77.0259525, "is_disabled": 0, "fusion_lat": 0.0, "lat": 38.95818383333334, "bike_id": "2db369e650f7102f6e4e2379ed2c7229", "fusion_lon": 0.0}, {"rental_uris": {"ios": "https://dc.lft.to/lastmile_qr_scan", "android": "https://dc.lft.to/lastmile_qr_scan"}, "type": "electric_bike", "name": "569d9431dc35c65e6bb976cfe229a55c", "is_reserved": 0, "lon": -77.03630283333334, "is_disabled": 0, "fusion_lat": 0.0, "lat": 38.97297183333333, "bike_id": "569d9431dc35c65e6bb976cfe229a55c", "fusion_lon": 0.0}, {"rental_uris": {"ios": "https://dc.lft.to/lastmile_qr_scan", "android": "https://dc.lft.to/lastmile_qr_scan"}, "type": "electric_scooter", "name": "1a9b83472dfff889e307722fe966d74b", "is_reserved": 0, "lon": -77.04346783333334, "is_disabled": 0, "fusion_lat": 0.0, "lat": 38.907377833333335, "bike_id": "1a9b83472dfff889e307722fe966d74b", "fusion_lon": 0.0}, {"rental_uris": {"ios": "https://dc.lft.to/lastmile_qr_scan", "android": "https://dc.lft.to/lastmile_qr_scan"}, "type": "electric_bike", "name": "a5e48473ff51c247eaf16bdb96cdb5fd", "is_reserved": 0, "lon": -77.10209883333333, "is_disabled": 0, "fusion_lat": 0.0, "lat": 38.91996433333333, "bike_id": "a5e48473ff51c247eaf16bdb96cdb5fd", "fusion_lon": 0.0}, {"rental_uris": {"ios": "https://dc.lft.to/lastmile_qr_scan", "android": "https://dc.lft.to/lastmile_qr_scan"}, "type": "electric_scooter", "name": "6dc80d8fefda67d2043f73518d1522d4", "is_reserved": 0, "lon": -77.03173616666666, "is_disabled": 0, "fusion_lat": 0.0, "lat": 38.913341333333335, "bike_id": "6dc80d8fefda67d2043f73518d1522d4", "fusion_lon": 0.0}, {"rental_uris": {"ios": "https://dc.lft.to/lastmile_qr_scan", "android": "https://dc.lft.to/lastmile_qr_scan"}, "type": "electric_bike", "name": "cd4f1659b496b73d613b8dd496b8c6f6", "is_reserved": 0, "lon": -76.9869035, "is_disabled": 0, "fusion_lat": 0.0, "lat": 38.944737833333335, "bike_id": "cd4f1659b496b73d613b8dd496b8c6f6", "fusion_lon": 0.0}, {"rental_uris": {"ios": "https://dc.lft.to/lastmile_qr_scan", "android": "https://dc.lft.to/lastmile_qr_scan"}, "type": "electric_scooter", "name": "250424dff3f57fd606bbd94f6e5a4f0c", "is_reserved": 0, "lon": -77.02425116666667, "is_disabled": 0, "fusion_lat": 0.0, "lat": 38.915627, "bike_id": "250424dff3f57fd606bbd94f6e5a4f0c", "fusion_lon": 0.0}, {"rental_uris": {"ios": "https://dc.lft.to/lastmile_qr_scan", "android": "https://dc.lft.to/lastmile_qr_scan"}, "type": "electric_bike", "name": "69d3cafe2fc0fe443b05620a4d5ac151", "is_reserved": 0, "lon": -77.0040225, "is_disabled": 0, "fusion_lat": 0.0, "lat": 38.921157, "bike_id": "69d3cafe2fc0fe443b05620a4d5ac151", "fusion_lon": 0.0}, {"rental_uris": {"ios": "https://dc.lft.to/lastmile_qr_scan", "android": "https://dc.lft.to/lastmile_qr_scan"}, "type": "electric_bike", "name": "69f8f0f8700cee4de8ca6c0adf5ed2dd", "is_reserved": 0, "lon": -76.980595, "is_disabled": 0, "fusion_lat": 0.0, "lat": 38.97248283333333, "bike_id": "69f8f0f8700cee4de8ca6c0adf5ed2dd", "fusion_lon": 0.0}, {"rental_uris": {"ios": "https://dc.lft.to/lastmile_qr_scan", "android": "https://dc.lft.to/lastmile_qr_scan"}, "type": "electric_scooter", "name": "4eec9ab54cbf5bf2a6528fba4c817575", "is_reserved": 0, "lon": -77.006481, "is_disabled": 0, "fusion_lat": 0.0, "lat": 38.912455666666666, "bike_id": "4eec9ab54cbf5bf2a6528fba4c817575", "fusion_lon": 0.0}, {"rental_uris": {"ios": "https://dc.lft.to/lastmile_qr_scan", "android": "https://dc.lft.to/lastmile_qr_scan"}, "type": "electric_scooter", "name": "61dbb7d82996933269ff98748a643dcb", "is_reserved": 0, "lon": -77.02409933333334, "is_disabled": 0, "fusion_lat": 0.0, "lat": 38.94507466666666, "bike_id": "61dbb7d82996933269ff98748a643dcb", "fusion_lon": 0.0}, {"rental_uris": {"ios": "https://dc.lft.to/lastmile_qr_scan", "android": "https://dc.lft.to/lastmile_qr_scan"}, "type": "electric_bike", "name": "b4a84e3b0c8b6dcce881aed7128630a4", "is_reserved": 0, "lon": -77.02423216666666, "is_disabled": 0, "fusion_lat": 0.0, "lat": 38.94905833333333, "bike_id": "b4a84e3b0c8b6dcce881aed7128630a4", "fusion_lon": 0.0}, {"rental_uris": {"ios": "https://dc.lft.to/lastmile_qr_scan", "android": "https://dc.lft.to/lastmile_qr_scan"}, "type": "electric_scooter", "name": "072e1e6cd5b172254770fd97a5cf21cc", "is_reserved": 0, "lon": -77.0048245, "is_disabled": 0, "fusion_lat": 0.0, "lat": 38.87458183333333, "bike_id": "072e1e6cd5b172254770fd97a5cf21cc", "fusion_lon": 0.0}, {"rental_uris": {"ios": "https://dc.lft.to/lastmile_qr_scan", "android": "https://dc.lft.to/lastmile_qr_scan"}, "type": "electric_scooter", "name": "130c50d8ea3f10beba29aacc07c3e042", "is_reserved": 0, "lon": -77.0190145, "is_disabled": 0, "fusion_lat": 0.0, "lat": 38.87464116666666, "bike_id": "130c50d8ea3f10beba29aacc07c3e042", "fusion_lon": 0.0}, {"rental_uris": {"ios": "https://dc.lft.to/lastmile_qr_scan", "android": "https://dc.lft.to/lastmile_qr_scan"}, "type": "electric_scooter", "name": "bdaec68adbc0a5ace6e3eea6969fe73f", "is_reserved": 0, "lon": -77.04282966666666, "is_disabled": 0, "fusion_lat": 0.0, "lat": 38.910406, "bike_id": "bdaec68adbc0a5ace6e3eea6969fe73f", "fusion_lon": 0.0}, {"rental_uris": {"ios": "https://dc.lft.to/lastmile_qr_scan", "android": "https://dc.lft.to/lastmile_qr_scan"}, "type": "electric_scooter", "name": "e9b49ca6c39e9ef148c172a3b659409c", "is_reserved": 0, "lon": -77.036818, "is_disabled": 0, "fusion_lat": 0.0, "lat": 38.93920166666667, "bike_id": "e9b49ca6c39e9ef148c172a3b659409c", "fusion_lon": 0.0}, {"rental_uris": {"ios": "https://dc.lft.to/lastmile_qr_scan", "android": "https://dc.lft.to/lastmile_qr_scan"}, "type": "electric_scooter", "name": "807c629cb48275ed71e4922543c26973", "is_reserved": 0, "lon": -77.03992683333334, "is_disabled": 0, "fusion_lat": 0.0, "lat": 38.93395316666667, "bike_id": "807c629cb48275ed71e4922543c26973", "fusion_lon": 0.0}, {"rental_uris": {"ios": "https://dc.lft.to/lastmile_qr_scan", "android": "https://dc.lft.to/lastmile_qr_scan"}, "type": "electric_scooter", "name": "28cdcbc9ce4698175f6dbd8cc144b9a7", "is_reserved": 0, "lon": -76.93718933333334, "is_disabled": 0, "fusion_lat": 0.0, "lat": 38.8903825, "bike_id": "28cdcbc9ce4698175f6dbd8cc144b9a7", "fusion_lon": 0.0}, {"rental_uris": {"ios": "https://dc.lft.to/lastmile_qr_scan", "android": "https://dc.lft.to/lastmile_qr_scan"}, "type": "electric_scooter", "name": "1b801eb102ea7fe53185451374e3fb0f", "is_reserved": 0, "lon": -77.00253, "is_disabled": 0, "fusion_lat": 0.0, "lat": 38.902588333333334, "bike_id": "1b801eb102ea7fe53185451374e3fb0f", "fusion_lon": 0.0}, {"rental_uris": {"ios": "https://dc.lft.to/lastmile_qr_scan", "android": "https://dc.lft.to/lastmile_qr_scan"}, "type": "electric_scooter", "name": "dae0e77e8258a6562bd2905e37e1c1ba", "is_reserved": 0, "lon": -77.02091266666666, "is_disabled": 0, "fusion_lat": 0.0, "lat": 38.929112333333336, "bike_id": "dae0e77e8258a6562bd2905e37e1c1ba", "fusion_lon": 0.0}, {"rental_uris": {"ios": "https://dc.lft.to/lastmile_qr_scan", "android": "https://dc.lft.to/lastmile_qr_scan"}, "type": "electric_scooter", "name": "93386be39cae8a6ba47e3a23d38b8e06", "is_reserved": 0, "lon": -77.04049233333333, "is_disabled": 0, "fusion_lat": 0.0, "lat": 38.91787333333333, "bike_id": "93386be39cae8a6ba47e3a23d38b8e06", "fusion_lon": 0.0}, {"rental_uris": {"ios": "https://dc.lft.to/lastmile_qr_scan", "android": "https://dc.lft.to/lastmile_qr_scan"}, "type": "electric_scooter", "name": "a0579250a98e9b3344d311c412116851", "is_reserved": 0, "lon": -77.003623, "is_disabled": 0, "fusion_lat": 0.0, "lat": 38.876815, "bike_id": "a0579250a98e9b3344d311c412116851", "fusion_lon": 0.0}, {"rental_uris": {"ios": "https://dc.lft.to/lastmile_qr_scan", "android": "https://dc.lft.to/lastmile_qr_scan"}, "type": "electric_scooter", "name": "ca18b55415e0985baac4ab68fed25d94", "is_reserved": 0, "lon": -77.00338416666666, "is_disabled": 0, "fusion_lat": 0.0, "lat": 38.87714883333334, "bike_id": "ca18b55415e0985baac4ab68fed25d94", "fusion_lon": 0.0}, {"rental_uris": {"ios": "https://dc.lft.to/lastmile_qr_scan", "android": "https://dc.lft.to/lastmile_qr_scan"}, "type": "electric_scooter", "name": "0ca9dcd65a20bb0179ea1cd0ec0b5fa9", "is_reserved": 0, "lon": -77.01235116666666, "is_disabled": 0, "fusion_lat": 0.0, "lat": 38.88103316666667, "bike_id": "0ca9dcd65a20bb0179ea1cd0ec0b5fa9", "fusion_lon": 0.0}, {"rental_uris": {"ios": "https://dc.lft.to/lastmile_qr_scan", "android": "https://dc.lft.to/lastmile_qr_scan"}, "type": "electric_scooter", "name": "f509c153a280e3bd917e2207cbd901c3", "is_reserved": 0, "lon": -77.06124033333333, "is_disabled": 0, "fusion_lat": 0.0, "lat": 38.903849, "bike_id": "f509c153a280e3bd917e2207cbd901c3", "fusion_lon": 0.0}, {"rental_uris": {"ios": "https://dc.lft.to/lastmile_qr_scan", "android": "https://dc.lft.to/lastmile_qr_scan"}, "type": "electric_scooter", "name": "3bf0ff414e3b256d26a88d61b80cce86", "is_reserved": 0, "lon": -77.03204383333333, "is_disabled": 0, "fusion_lat": 0.0, "lat": 38.909833166666665, "bike_id": "3bf0ff414e3b256d26a88d61b80cce86", "fusion_lon": 0.0}, {"rental_uris": {"ios": "https://dc.lft.to/lastmile_qr_scan", "android": "https://dc.lft.to/lastmile_qr_scan"}, "type": "electric_scooter", "name": "8dceb774b737984e0c75d8baaf8ee4e3", "is_reserved": 0, "lon": -77.03338933333333, "is_disabled": 0, "fusion_lat": 0.0, "lat": 38.8972555, "bike_id": "8dceb774b737984e0c75d8baaf8ee4e3", "fusion_lon": 0.0}, {"rental_uris": {"ios": "https://dc.lft.to/lastmile_qr_scan", "android": "https://dc.lft.to/lastmile_qr_scan"}, "type": "electric_scooter", "name": "f7a6a22b30be6e3d834235f85aa43c2f", "is_reserved": 0, "lon": -77.03655583333334, "is_disabled": 0, "fusion_lat": 0.0, "lat": 38.90630933333333, "bike_id": "f7a6a22b30be6e3d834235f85aa43c2f", "fusion_lon": 0.0}, {"rental_uris": {"ios": "https://dc.lft.to/lastmile_qr_scan", "android": "https://dc.lft.to/lastmile_qr_scan"}, "type": "electric_scooter", "name": "1572d8f4de9cfd90d16c16d1c08b9af5", "is_reserved": 0, "lon": -77.0164835, "is_disabled": 0, "fusion_lat": 0.0, "lat": 38.92936266666667, "bike_id": "1572d8f4de9cfd90d16c16d1c08b9af5", "fusion_lon": 0.0}, {"rental_uris": {"ios": "https://dc.lft.to/lastmile_qr_scan", "android": "https://dc.lft.to/lastmile_qr_scan"}, "type": "electric_scooter", "name": "38f9cfdab63c5af7c20c79fdff8f1d99", "is_reserved": 0, "lon": -76.9869415, "is_disabled": 0, "fusion_lat": 0.0, "lat": 38.912959666666666, "bike_id": "38f9cfdab63c5af7c20c79fdff8f1d99", "fusion_lon": 0.0}, {"rental_uris": {"ios": "https://dc.lft.to/lastmile_qr_scan", "android": "https://dc.lft.to/lastmile_qr_scan"}, "type": "electric_scooter", "name": "0c0afebb7c5a86b379f013bdeb678eda", "is_reserved": 0, "lon": -77.00287666666667, "is_disabled": 0, "fusion_lat": 0.0, "lat": 38.90128816666667, "bike_id": "0c0afebb7c5a86b379f013bdeb678eda", "fusion_lon": 0.0}, {"rental_uris": {"ios": "https://dc.lft.to/lastmile_qr_scan", "android": "https://dc.lft.to/lastmile_qr_scan"}, "type": "electric_scooter", "name": "93d828248db67e6c03dba02a88b3c80a", "is_reserved": 0, "lon": -77.02920233333333, "is_disabled": 0, "fusion_lat": 0.0, "lat": 38.9345105, "bike_id": "93d828248db67e6c03dba02a88b3c80a", "fusion_lon": 0.0}, {"rental_uris": {"ios": "https://dc.lft.to/lastmile_qr_scan", "android": "https://dc.lft.to/lastmile_qr_scan"}, "type": "electric_scooter", "name": "756cc094ed95b389f7511d6365028716", "is_reserved": 0, "lon": -77.04176233333334, "is_disabled": 0, "fusion_lat": 0.0, "lat": 38.903766, "bike_id": "756cc094ed95b389f7511d6365028716", "fusion_lon": 0.0}, {"rental_uris": {"ios": "https://dc.lft.to/lastmile_qr_scan", "android": "https://dc.lft.to/lastmile_qr_scan"}, "type": "electric_scooter", "name": "03b156392eb1cd64c93e1a3f81b30115", "is_reserved": 0, "lon": -77.02132133333333, "is_disabled": 0, "fusion_lat": 0.0, "lat": 38.927917666666666, "bike_id": "03b156392eb1cd64c93e1a3f81b30115", "fusion_lon": 0.0}, {"rental_uris": {"ios": "https://dc.lft.to/lastmile_qr_scan", "android": "https://dc.lft.to/lastmile_qr_scan"}, "type": "electric_scooter", "name": "a3389ef4397b660abb9789fe9cbbb0bb", "is_reserved": 0, "lon": -77.022999, "is_disabled": 0, "fusion_lat": 0.0, "lat": 38.918489666666666, "bike_id": "a3389ef4397b660abb9789fe9cbbb0bb", "fusion_lon": 0.0}, {"rental_uris": {"ios": "https://dc.lft.to/lastmile_qr_scan", "android": "https://dc.lft.to/lastmile_qr_scan"}, "type": "electric_scooter", "name": "b655e4448c870e7aae206c8cf4668a99", "is_reserved": 0, "lon": -77.06846166666666, "is_disabled": 0, "fusion_lat": 0.0, "lat": 38.904002166666665, "bike_id": "b655e4448c870e7aae206c8cf4668a99", "fusion_lon": 0.0}, {"rental_uris": {"ios": "https://dc.lft.to/lastmile_qr_scan", "android": "https://dc.lft.to/lastmile_qr_scan"}, "type": "electric_scooter", "name": "e814e0f409d9fe329dc8d76925c8fe1b", "is_reserved": 0, "lon": -77.034666, "is_disabled": 0, "fusion_lat": 0.0, "lat": 38.92159133333333, "bike_id": "e814e0f409d9fe329dc8d76925c8fe1b", "fusion_lon": 0.0}, {"rental_uris": {"ios": "https://dc.lft.to/lastmile_qr_scan", "android": "https://dc.lft.to/lastmile_qr_scan"}, "type": "electric_scooter", "name": "092ba7cc06cc202b5998e1cfe0b785dc", "is_reserved": 0, "lon": -77.01749433333333, "is_disabled": 0, "fusion_lat": 0.0, "lat": 38.87688966666666, "bike_id": "092ba7cc06cc202b5998e1cfe0b785dc", "fusion_lon": 0.0}, {"rental_uris": {"ios": "https://dc.lft.to/lastmile_qr_scan", "android": "https://dc.lft.to/lastmile_qr_scan"}, "type": "electric_bike", "name": "035fc69b477cce82dab0fb3757a3e34f", "is_reserved": 0, "lon": -77.01235416666667, "is_disabled": 0, "fusion_lat": 0.0, "lat": 38.950804833333336, "bike_id": "035fc69b477cce82dab0fb3757a3e34f", "fusion_lon": 0.0}, {"rental_uris": {"ios": "https://dc.lft.to/lastmile_qr_scan", "android": "https://dc.lft.to/lastmile_qr_scan"}, "type": "electric_scooter", "name": "bab876c2cf70b02442192c371b260e3c", "is_reserved": 0, "lon": -77.03373866666666, "is_disabled": 0, "fusion_lat": 0.0, "lat": 38.89924216666667, "bike_id": "bab876c2cf70b02442192c371b260e3c", "fusion_lon": 0.0}, {"rental_uris": {"ios": "https://dc.lft.to/lastmile_qr_scan", "android": "https://dc.lft.to/lastmile_qr_scan"}, "type": "electric_scooter", "name": "287d0be9ac28e2daa166835f9353f07d", "is_reserved": 0, "lon": -77.03260333333333, "is_disabled": 0, "fusion_lat": 0.0, "lat": 38.938683166666664, "bike_id": "287d0be9ac28e2daa166835f9353f07d", "fusion_lon": 0.0}, {"rental_uris": {"ios": "https://dc.lft.to/lastmile_qr_scan", "android": "https://dc.lft.to/lastmile_qr_scan"}, "type": "electric_scooter", "name": "d3a775787876e1e8d8d65da97563f108", "is_reserved": 0, "lon": -77.028382, "is_disabled": 0, "fusion_lat": 0.0, "lat": 38.91017516666667, "bike_id": "d3a775787876e1e8d8d65da97563f108", "fusion_lon": 0.0}, {"rental_uris": {"ios": "https://dc.lft.to/lastmile_qr_scan", "android": "https://dc.lft.to/lastmile_qr_scan"}, "type": "electric_scooter", "name": "823c31299fb61b8d64cb94b5826a57a1", "is_reserved": 0, "lon": -77.03283833333333, "is_disabled": 0, "fusion_lat": 0.0, "lat": 38.90714716666667, "bike_id": "823c31299fb61b8d64cb94b5826a57a1", "fusion_lon": 0.0}, {"rental_uris": {"ios": "https://dc.lft.to/lastmile_qr_scan", "android": "https://dc.lft.to/lastmile_qr_scan"}, "type": "electric_scooter", "name": "dab7e06171f7b8ba200ef1e4d328b722", "is_reserved": 0, "lon": -77.01747016666667, "is_disabled": 0, "fusion_lat": 0.0, "lat": 38.887324666666665, "bike_id": "dab7e06171f7b8ba200ef1e4d328b722", "fusion_lon": 0.0}, {"rental_uris": {"ios": "https://dc.lft.to/lastmile_qr_scan", "android": "https://dc.lft.to/lastmile_qr_scan"}, "type": "electric_scooter", "name": "e597b00af56016b4d02b87ccfc849d04", "is_reserved": 0, "lon": -77.01199916666667, "is_disabled": 0, "fusion_lat": 0.0, "lat": 38.9003925, "bike_id": "e597b00af56016b4d02b87ccfc849d04", "fusion_lon": 0.0}, {"rental_uris": {"ios": "https://dc.lft.to/lastmile_qr_scan", "android": "https://dc.lft.to/lastmile_qr_scan"}, "type": "electric_scooter", "name": "24bbcb3d610d0db368552a0c4db010aa", "is_reserved": 0, "lon": -77.05743366666667, "is_disabled": 0, "fusion_lat": 0.0, "lat": 38.930367333333336, "bike_id": "24bbcb3d610d0db368552a0c4db010aa", "fusion_lon": 0.0}, {"rental_uris": {"ios": "https://dc.lft.to/lastmile_qr_scan", "android": "https://dc.lft.to/lastmile_qr_scan"}, "type": "electric_bike", "name": "5edbc5bda25d57576752b7b8d8044201", "is_reserved": 0, "lon": -77.04295733333333, "is_disabled": 0, "fusion_lat": 0.0, "lat": 38.90931233333333, "bike_id": "5edbc5bda25d57576752b7b8d8044201", "fusion_lon": 0.0}, {"rental_uris": {"ios": "https://dc.lft.to/lastmile_qr_scan", "android": "https://dc.lft.to/lastmile_qr_scan"}, "type": "electric_scooter", "name": "67e5ecacfe5485eaecb100b09f584bab", "is_reserved": 0, "lon": -77.02399333333334, "is_disabled": 0, "fusion_lat": 0.0, "lat": 38.90700133333333, "bike_id": "67e5ecacfe5485eaecb100b09f584bab", "fusion_lon": 0.0}, {"rental_uris": {"ios": "https://dc.lft.to/lastmile_qr_scan", "android": "https://dc.lft.to/lastmile_qr_scan"}, "type": "electric_scooter", "name": "8ac147bd7c5f75ea56b2759f9339e1c3", "is_reserved": 0, "lon": -77.0402025, "is_disabled": 0, "fusion_lat": 0.0, "lat": 38.92245616666666, "bike_id": "8ac147bd7c5f75ea56b2759f9339e1c3", "fusion_lon": 0.0}, {"rental_uris": {"ios": "https://dc.lft.to/lastmile_qr_scan", "android": "https://dc.lft.to/lastmile_qr_scan"}, "type": "electric_scooter", "name": "0dfcf9737112e8d72e40caf1078d9a1e", "is_reserved": 0, "lon": -77.00962466666667, "is_disabled": 0, "fusion_lat": 0.0, "lat": 38.874573166666664, "bike_id": "0dfcf9737112e8d72e40caf1078d9a1e", "fusion_lon": 0.0}, {"rental_uris": {"ios": "https://dc.lft.to/lastmile_qr_scan", "android": "https://dc.lft.to/lastmile_qr_scan"}, "type": "electric_scooter", "name": "388a08c5c99d4942090839eaf8cb3a1e", "is_reserved": 0, "lon": -77.0051945, "is_disabled": 0, "fusion_lat": 0.0, "lat": 38.878503, "bike_id": "388a08c5c99d4942090839eaf8cb3a1e", "fusion_lon": 0.0}, {"rental_uris": {"ios": "https://dc.lft.to/lastmile_qr_scan", "android": "https://dc.lft.to/lastmile_qr_scan"}, "type": "electric_scooter", "name": "69c3179eb1daf5677bb2579afb3db520", "is_reserved": 0, "lon": -77.07879716666666, "is_disabled": 0, "fusion_lat": 0.0, "lat": 38.931607166666666, "bike_id": "69c3179eb1daf5677bb2579afb3db520", "fusion_lon": 0.0}, {"rental_uris": {"ios": "https://dc.lft.to/lastmile_qr_scan", "android": "https://dc.lft.to/lastmile_qr_scan"}, "type": "electric_scooter", "name": "2d298bab0e916cd5de3aec7abc5940ef", "is_reserved": 0, "lon": -77.02981683333333, "is_disabled": 0, "fusion_lat": 0.0, "lat": 38.923632166666664, "bike_id": "2d298bab0e916cd5de3aec7abc5940ef", "fusion_lon": 0.0}, {"rental_uris": {"ios": "https://dc.lft.to/lastmile_qr_scan", "android": "https://dc.lft.to/lastmile_qr_scan"}, "type": "electric_bike", "name": "ea17cdb1e863cf679118fe9e65ea97c2", "is_reserved": 0, "lon": -77.09621883333334, "is_disabled": 0, "fusion_lat": 0.0, "lat": 38.9743865, "bike_id": "ea17cdb1e863cf679118fe9e65ea97c2", "fusion_lon": 0.0}, {"rental_uris": {"ios": "https://dc.lft.to/lastmile_qr_scan", "android": "https://dc.lft.to/lastmile_qr_scan"}, "type": "electric_bike", "name": "02859705546eecb37dafe5a6f9ae171f", "is_reserved": 0, "lon": -76.9333145, "is_disabled": 0, "fusion_lat": 0.0, "lat": 38.951547833333336, "bike_id": "02859705546eecb37dafe5a6f9ae171f", "fusion_lon": 0.0}, {"rental_uris": {"ios": "https://dc.lft.to/lastmile_qr_scan", "android": "https://dc.lft.to/lastmile_qr_scan"}, "type": "electric_scooter", "name": "44070f73641b65e07750e6f9cf63b687", "is_reserved": 0, "lon": -77.03023233333333, "is_disabled": 0, "fusion_lat": 0.0, "lat": 38.878450666666666, "bike_id": "44070f73641b65e07750e6f9cf63b687", "fusion_lon": 0.0}, {"rental_uris": {"ios": "https://dc.lft.to/lastmile_qr_scan", "android": "https://dc.lft.to/lastmile_qr_scan"}, "type": "electric_scooter", "name": "32cf4618efe6b3eaf00a29cc3bd3adae", "is_reserved": 0, "lon": -77.007398, "is_disabled": 0, "fusion_lat": 0.0, "lat": 38.898948833333336, "bike_id": "32cf4618efe6b3eaf00a29cc3bd3adae", "fusion_lon": 0.0}, {"rental_uris": {"ios": "https://dc.lft.to/lastmile_qr_scan", "android": "https://dc.lft.to/lastmile_qr_scan"}, "type": "electric_scooter", "name": "b784d221bfd1e99d2fd687414fb1f099", "is_reserved": 0, "lon": -77.057597, "is_disabled": 0, "fusion_lat": 0.0, "lat": 38.9250665, "bike_id": "b784d221bfd1e99d2fd687414fb1f099", "fusion_lon": 0.0}, {"rental_uris": {"ios": "https://dc.lft.to/lastmile_qr_scan", "android": "https://dc.lft.to/lastmile_qr_scan"}, "type": "electric_scooter", "name": "f41bb35ca24540a443113044ca0c4c22", "is_reserved": 0, "lon": -77.031743, "is_disabled": 0, "fusion_lat": 0.0, "lat": 38.9162615, "bike_id": "f41bb35ca24540a443113044ca0c4c22", "fusion_lon": 0.0}, {"rental_uris": {"ios": "https://dc.lft.to/lastmile_qr_scan", "android": "https://dc.lft.to/lastmile_qr_scan"}, "type": "electric_scooter", "name": "8a136c79a01f957e054067b0bc5e9473", "is_reserved": 0, "lon": -77.04602116666666, "is_disabled": 0, "fusion_lat": 0.0, "lat": 38.9058815, "bike_id": "8a136c79a01f957e054067b0bc5e9473", "fusion_lon": 0.0}, {"rental_uris": {"ios": "https://dc.lft.to/lastmile_qr_scan", "android": "https://dc.lft.to/lastmile_qr_scan"}, "type": "electric_bike", "name": "9efc40f48321bb76fde23f50ac81d000", "is_reserved": 0, "lon": -76.99804716666667, "is_disabled": 0, "fusion_lat": 0.0, "lat": 38.908524, "bike_id": "9efc40f48321bb76fde23f50ac81d000", "fusion_lon": 0.0}, {"rental_uris": {"ios": "https://dc.lft.to/lastmile_qr_scan", "android": "https://dc.lft.to/lastmile_qr_scan"}, "type": "electric_scooter", "name": "82452bc3aecdedc0f5b322af40c544e8", "is_reserved": 0, "lon": -77.00754883333333, "is_disabled": 0, "fusion_lat": 0.0, "lat": 38.878421, "bike_id": "82452bc3aecdedc0f5b322af40c544e8", "fusion_lon": 0.0}, {"rental_uris": {"ios": "https://dc.lft.to/lastmile_qr_scan", "android": "https://dc.lft.to/lastmile_qr_scan"}, "type": "electric_bike", "name": "0d33aa520e88d65b7134af49dbdedf9b", "is_reserved": 0, "lon": -76.99545216666667, "is_disabled": 0, "fusion_lat": 0.0, "lat": 38.86216316666667, "bike_id": "0d33aa520e88d65b7134af49dbdedf9b", "fusion_lon": 0.0}, {"rental_uris": {"ios": "https://dc.lft.to/lastmile_qr_scan", "android": "https://dc.lft.to/lastmile_qr_scan"}, "type": "electric_bike", "name": "4b1d004326ff7ff16beee0fd20097f23", "is_reserved": 0, "lon": -76.90742016666667, "is_disabled": 0, "fusion_lat": 0.0, "lat": 38.89617366666667, "bike_id": "4b1d004326ff7ff16beee0fd20097f23", "fusion_lon": 0.0}, {"rental_uris": {"ios": "https://dc.lft.to/lastmile_qr_scan", "android": "https://dc.lft.to/lastmile_qr_scan"}, "type": "electric_scooter", "name": "ca06a203e23993d49a60b1f0bdb6a151", "is_reserved": 0, "lon": -77.0383115, "is_disabled": 0, "fusion_lat": 0.0, "lat": 38.9626085, "bike_id": "ca06a203e23993d49a60b1f0bdb6a151", "fusion_lon": 0.0}, {"rental_uris": {"ios": "https://dc.lft.to/lastmile_qr_scan", "android": "https://dc.lft.to/lastmile_qr_scan"}, "type": "electric_scooter", "name": "c9340db218df832693170dbff151a62f", "is_reserved": 0, "lon": -77.014994, "is_disabled": 0, "fusion_lat": 0.0, "lat": 38.92661183333333, "bike_id": "c9340db218df832693170dbff151a62f", "fusion_lon": 0.0}, {"rental_uris": {"ios": "https://dc.lft.to/lastmile_qr_scan", "android": "https://dc.lft.to/lastmile_qr_scan"}, "type": "electric_scooter", "name": "eb9306fcceccecf00d169aa036c3f6af", "is_reserved": 0, "lon": -76.99918366666667, "is_disabled": 0, "fusion_lat": 0.0, "lat": 38.900590333333334, "bike_id": "eb9306fcceccecf00d169aa036c3f6af", "fusion_lon": 0.0}, {"rental_uris": {"ios": "https://dc.lft.to/lastmile_qr_scan", "android": "https://dc.lft.to/lastmile_qr_scan"}, "type": "electric_scooter", "name": "a98da0cdf756d61aadc006ea182da219", "is_reserved": 0, "lon": -77.02164866666666, "is_disabled": 0, "fusion_lat": 0.0, "lat": 38.92495233333333, "bike_id": "a98da0cdf756d61aadc006ea182da219", "fusion_lon": 0.0}, {"rental_uris": {"ios": "https://dc.lft.to/lastmile_qr_scan", "android": "https://dc.lft.to/lastmile_qr_scan"}, "type": "electric_scooter", "name": "12ab6c3977ab6246ee8e770f3353b721", "is_reserved": 0, "lon": -77.043693, "is_disabled": 0, "fusion_lat": 0.0, "lat": 38.89223483333333, "bike_id": "12ab6c3977ab6246ee8e770f3353b721", "fusion_lon": 0.0}, {"rental_uris": {"ios": "https://dc.lft.to/lastmile_qr_scan", "android": "https://dc.lft.to/lastmile_qr_scan"}, "type": "electric_scooter", "name": "95a59b024e50a30a40313866ff85a51c", "is_reserved": 0, "lon": -76.9901185, "is_disabled": 0, "fusion_lat": 0.0, "lat": 38.8642725, "bike_id": "95a59b024e50a30a40313866ff85a51c", "fusion_lon": 0.0}, {"rental_uris": {"ios": "https://dc.lft.to/lastmile_qr_scan", "android": "https://dc.lft.to/lastmile_qr_scan"}, "type": "electric_bike", "name": "8fa00ab4d9e9b0c387fbb4d2a62fc312", "is_reserved": 0, "lon": -76.94151616666667, "is_disabled": 0, "fusion_lat": 0.0, "lat": 38.89009383333333, "bike_id": "8fa00ab4d9e9b0c387fbb4d2a62fc312", "fusion_lon": 0.0}, {"rental_uris": {"ios": "https://dc.lft.to/lastmile_qr_scan", "android": "https://dc.lft.to/lastmile_qr_scan"}, "type": "electric_scooter", "name": "80056dd59c6b7a6c4d3e229ee1e87414", "is_reserved": 0, "lon": -77.07019783333334, "is_disabled": 0, "fusion_lat": 0.0, "lat": 38.893496999999996, "bike_id": "80056dd59c6b7a6c4d3e229ee1e87414", "fusion_lon": 0.0}, {"rental_uris": {"ios": "https://dc.lft.to/lastmile_qr_scan", "android": "https://dc.lft.to/lastmile_qr_scan"}, "type": "electric_scooter", "name": "78098a33e525579de9142b57ceae5183", "is_reserved": 0, "lon": -77.058176, "is_disabled": 0, "fusion_lat": 0.0, "lat": 38.93518733333333, "bike_id": "78098a33e525579de9142b57ceae5183", "fusion_lon": 0.0}, {"rental_uris": {"ios": "https://dc.lft.to/lastmile_qr_scan", "android": "https://dc.lft.to/lastmile_qr_scan"}, "type": "electric_scooter", "name": "950b8fcc785f7fe82fb962e845132478", "is_reserved": 0, "lon": -77.000765, "is_disabled": 0, "fusion_lat": 0.0, "lat": 38.874399333333336, "bike_id": "950b8fcc785f7fe82fb962e845132478", "fusion_lon": 0.0}, {"rental_uris": {"ios": "https://dc.lft.to/lastmile_qr_scan", "android": "https://dc.lft.to/lastmile_qr_scan"}, "type": "electric_scooter", "name": "c9e6bf1beee4297231f824b3b072c4a9", "is_reserved": 0, "lon": -77.00185833333333, "is_disabled": 0, "fusion_lat": 0.0, "lat": 38.91192233333334, "bike_id": "c9e6bf1beee4297231f824b3b072c4a9", "fusion_lon": 0.0}, {"rental_uris": {"ios": "https://dc.lft.to/lastmile_qr_scan", "android": "https://dc.lft.to/lastmile_qr_scan"}, "type": "electric_scooter", "name": "bbff2a98719851f2ee0c02f6ca79afac", "is_reserved": 0, "lon": -77.02476466666667, "is_disabled": 0, "fusion_lat": 0.0, "lat": 38.9181465, "bike_id": "bbff2a98719851f2ee0c02f6ca79afac", "fusion_lon": 0.0}, {"rental_uris": {"ios": "https://dc.lft.to/lastmile_qr_scan", "android": "https://dc.lft.to/lastmile_qr_scan"}, "type": "electric_bike", "name": "0cf90fd2f1a777501c853da979260ad9", "is_reserved": 0, "lon": -77.12935616666667, "is_disabled": 0, "fusion_lat": 0.0, "lat": 38.865788333333334, "bike_id": "0cf90fd2f1a777501c853da979260ad9", "fusion_lon": 0.0}, {"rental_uris": {"ios": "https://dc.lft.to/lastmile_qr_scan", "android": "https://dc.lft.to/lastmile_qr_scan"}, "type": "electric_scooter", "name": "22ed9515c5dd2983552f1d712d88a4f5", "is_reserved": 0, "lon": -76.93186766666666, "is_disabled": 0, "fusion_lat": 0.0, "lat": 38.8986935, "bike_id": "22ed9515c5dd2983552f1d712d88a4f5", "fusion_lon": 0.0}, {"rental_uris": {"ios": "https://dc.lft.to/lastmile_qr_scan", "android": "https://dc.lft.to/lastmile_qr_scan"}, "type": "electric_scooter", "name": "ce2a918e8e041c9b04dbfaa6618e3044", "is_reserved": 0, "lon": -77.055335, "is_disabled": 0, "fusion_lat": 0.0, "lat": 38.91002233333333, "bike_id": "ce2a918e8e041c9b04dbfaa6618e3044", "fusion_lon": 0.0}, {"rental_uris": {"ios": "https://dc.lft.to/lastmile_qr_scan", "android": "https://dc.lft.to/lastmile_qr_scan"}, "type": "electric_bike", "name": "d609710317f3f67af22b47b5e38af342", "is_reserved": 0, "lon": -76.98883316666667, "is_disabled": 0, "fusion_lat": 0.0, "lat": 38.92114183333333, "bike_id": "d609710317f3f67af22b47b5e38af342", "fusion_lon": 0.0}, {"rental_uris": {"ios": "https://dc.lft.to/lastmile_qr_scan", "android": "https://dc.lft.to/lastmile_qr_scan"}, "type": "electric_scooter", "name": "08dc53a1c99c879a38da4bd62bf9c736", "is_reserved": 0, "lon": -77.03655416666666, "is_disabled": 0, "fusion_lat": 0.0, "lat": 38.92385266666667, "bike_id": "08dc53a1c99c879a38da4bd62bf9c736", "fusion_lon": 0.0}, {"rental_uris": {"ios": "https://dc.lft.to/lastmile_qr_scan", "android": "https://dc.lft.to/lastmile_qr_scan"}, "type": "electric_scooter", "name": "9094d13f75a44cc8c253748e1fa1e3ce", "is_reserved": 0, "lon": -77.03054016666667, "is_disabled": 0, "fusion_lat": 0.0, "lat": 38.9072135, "bike_id": "9094d13f75a44cc8c253748e1fa1e3ce", "fusion_lon": 0.0}, {"rental_uris": {"ios": "https://dc.lft.to/lastmile_qr_scan", "android": "https://dc.lft.to/lastmile_qr_scan"}, "type": "electric_scooter", "name": "ddc1165b78577d87a4f94ae58c57b220", "is_reserved": 0, "lon": -77.04059766666667, "is_disabled": 0, "fusion_lat": 0.0, "lat": 38.91764166666667, "bike_id": "ddc1165b78577d87a4f94ae58c57b220", "fusion_lon": 0.0}, {"rental_uris": {"ios": "https://dc.lft.to/lastmile_qr_scan", "android": "https://dc.lft.to/lastmile_qr_scan"}, "type": "electric_bike", "name": "48515f9a7cc2d5dd9e8f42cbd49955bf", "is_reserved": 0, "lon": -77.001565, "is_disabled": 0, "fusion_lat": 0.0, "lat": 38.94156983333333, "bike_id": "48515f9a7cc2d5dd9e8f42cbd49955bf", "fusion_lon": 0.0}, {"rental_uris": {"ios": "https://dc.lft.to/lastmile_qr_scan", "android": "https://dc.lft.to/lastmile_qr_scan"}, "type": "electric_scooter", "name": "1ab8d1119d443e33b8545c1d1a5b53be", "is_reserved": 0, "lon": -77.05813983333333, "is_disabled": 0, "fusion_lat": 0.0, "lat": 38.9351735, "bike_id": "1ab8d1119d443e33b8545c1d1a5b53be", "fusion_lon": 0.0}, {"rental_uris": {"ios": "https://dc.lft.to/lastmile_qr_scan", "android": "https://dc.lft.to/lastmile_qr_scan"}, "type": "electric_scooter", "name": "f249d0af4280c194fc2dc24f89b25c5d", "is_reserved": 0, "lon": -77.03387816666667, "is_disabled": 0, "fusion_lat": 0.0, "lat": 38.89979, "bike_id": "f249d0af4280c194fc2dc24f89b25c5d", "fusion_lon": 0.0}, {"rental_uris": {"ios": "https://dc.lft.to/lastmile_qr_scan", "android": "https://dc.lft.to/lastmile_qr_scan"}, "type": "electric_scooter", "name": "f4dfe93e087c9c319300d49c32e5a7c4", "is_reserved": 0, "lon": -77.03307283333334, "is_disabled": 0, "fusion_lat": 0.0, "lat": 38.917157333333336, "bike_id": "f4dfe93e087c9c319300d49c32e5a7c4", "fusion_lon": 0.0}, {"rental_uris": {"ios": "https://dc.lft.to/lastmile_qr_scan", "android": "https://dc.lft.to/lastmile_qr_scan"}, "type": "electric_scooter", "name": "2ad6c83610f0ac92a94dbe32d8ed2dce", "is_reserved": 0, "lon": -77.04815466666666, "is_disabled": 0, "fusion_lat": 0.0, "lat": 38.920394333333334, "bike_id": "2ad6c83610f0ac92a94dbe32d8ed2dce", "fusion_lon": 0.0}, {"rental_uris": {"ios": "https://dc.lft.to/lastmile_qr_scan", "android": "https://dc.lft.to/lastmile_qr_scan"}, "type": "electric_bike", "name": "b2dd663cc6b083b3bb45e19b9ea9e041", "is_reserved": 0, "lon": -77.03234483333334, "is_disabled": 0, "fusion_lat": 0.0, "lat": 38.96164783333333, "bike_id": "b2dd663cc6b083b3bb45e19b9ea9e041", "fusion_lon": 0.0}, {"rental_uris": {"ios": "https://dc.lft.to/lastmile_qr_scan", "android": "https://dc.lft.to/lastmile_qr_scan"}, "type": "electric_bike", "name": "a072f96c2e51bc299df0cb9443e07f06", "is_reserved": 0, "lon": -77.0076715, "is_disabled": 0, "fusion_lat": 0.0, "lat": 38.981272833333335, "bike_id": "a072f96c2e51bc299df0cb9443e07f06", "fusion_lon": 0.0}, {"rental_uris": {"ios": "https://dc.lft.to/lastmile_qr_scan", "android": "https://dc.lft.to/lastmile_qr_scan"}, "type": "electric_scooter", "name": "1d88be4ec559841b98ca10ff5ba29395", "is_reserved": 0, "lon": -77.0480535, "is_disabled": 0, "fusion_lat": 0.0, "lat": 38.89951933333333, "bike_id": "1d88be4ec559841b98ca10ff5ba29395", "fusion_lon": 0.0}, {"rental_uris": {"ios": "https://dc.lft.to/lastmile_qr_scan", "android": "https://dc.lft.to/lastmile_qr_scan"}, "type": "electric_scooter", "name": "c0d26353bfff30794a02e59273af5e81", "is_reserved": 0, "lon": -77.03163566666667, "is_disabled": 0, "fusion_lat": 0.0, "lat": 38.9593505, "bike_id": "c0d26353bfff30794a02e59273af5e81", "fusion_lon": 0.0}, {"rental_uris": {"ios": "https://dc.lft.to/lastmile_qr_scan", "android": "https://dc.lft.to/lastmile_qr_scan"}, "type": "electric_scooter", "name": "b126f8f5af117d7432c2a721e4f5b464", "is_reserved": 0, "lon": -77.01908616666667, "is_disabled": 0, "fusion_lat": 0.0, "lat": 38.909515, "bike_id": "b126f8f5af117d7432c2a721e4f5b464", "fusion_lon": 0.0}, {"rental_uris": {"ios": "https://dc.lft.to/lastmile_qr_scan", "android": "https://dc.lft.to/lastmile_qr_scan"}, "type": "electric_scooter", "name": "ed5464ca1661f71695d509e7cf4f92ad", "is_reserved": 0, "lon": -76.99071216666667, "is_disabled": 0, "fusion_lat": 0.0, "lat": 38.9041175, "bike_id": "ed5464ca1661f71695d509e7cf4f92ad", "fusion_lon": 0.0}, {"rental_uris": {"ios": "https://dc.lft.to/lastmile_qr_scan", "android": "https://dc.lft.to/lastmile_qr_scan"}, "type": "electric_scooter", "name": "c26c32c391ba1d8f5480e27ae97972d3", "is_reserved": 0, "lon": -77.04382933333333, "is_disabled": 0, "fusion_lat": 0.0, "lat": 38.934242, "bike_id": "c26c32c391ba1d8f5480e27ae97972d3", "fusion_lon": 0.0}, {"rental_uris": {"ios": "https://dc.lft.to/lastmile_qr_scan", "android": "https://dc.lft.to/lastmile_qr_scan"}, "type": "electric_scooter", "name": "5e2ac6aa83b4fa8de67a2fa17ef652bb", "is_reserved": 0, "lon": -77.012328, "is_disabled": 0, "fusion_lat": 0.0, "lat": 38.91577983333333, "bike_id": "5e2ac6aa83b4fa8de67a2fa17ef652bb", "fusion_lon": 0.0}, {"rental_uris": {"ios": "https://dc.lft.to/lastmile_qr_scan", "android": "https://dc.lft.to/lastmile_qr_scan"}, "type": "electric_scooter", "name": "e85c4c02293de0d6453ca619bf519bd1", "is_reserved": 0, "lon": -76.98335433333334, "is_disabled": 0, "fusion_lat": 0.0, "lat": 38.900889666666664, "bike_id": "e85c4c02293de0d6453ca619bf519bd1", "fusion_lon": 0.0}, {"rental_uris": {"ios": "https://dc.lft.to/lastmile_qr_scan", "android": "https://dc.lft.to/lastmile_qr_scan"}, "type": "electric_scooter", "name": "225dfbd18b18fb89e50e496644bea750", "is_reserved": 0, "lon": -77.018916, "is_disabled": 0, "fusion_lat": 0.0, "lat": 38.89745716666667, "bike_id": "225dfbd18b18fb89e50e496644bea750", "fusion_lon": 0.0}, {"rental_uris": {"ios": "https://dc.lft.to/lastmile_qr_scan", "android": "https://dc.lft.to/lastmile_qr_scan"}, "type": "electric_scooter", "name": "af2060a7632bc41537cd9e460dfc6ef4", "is_reserved": 0, "lon": -77.04884516666667, "is_disabled": 0, "fusion_lat": 0.0, "lat": 38.905753833333335, "bike_id": "af2060a7632bc41537cd9e460dfc6ef4", "fusion_lon": 0.0}, {"rental_uris": {"ios": "https://dc.lft.to/lastmile_qr_scan", "android": "https://dc.lft.to/lastmile_qr_scan"}, "type": "electric_scooter", "name": "14e8b2201c2341349a53e60de2375661", "is_reserved": 0, "lon": -77.03757583333334, "is_disabled": 0, "fusion_lat": 0.0, "lat": 38.929091166666666, "bike_id": "14e8b2201c2341349a53e60de2375661", "fusion_lon": 0.0}, {"rental_uris": {"ios": "https://dc.lft.to/lastmile_qr_scan", "android": "https://dc.lft.to/lastmile_qr_scan"}, "type": "electric_scooter", "name": "fcfb09da3d59cb3113fae4ca6ac68e9f", "is_reserved": 0, "lon": -77.04232133333333, "is_disabled": 0, "fusion_lat": 0.0, "lat": 38.9213775, "bike_id": "fcfb09da3d59cb3113fae4ca6ac68e9f", "fusion_lon": 0.0}, {"rental_uris": {"ios": "https://dc.lft.to/lastmile_qr_scan", "android": "https://dc.lft.to/lastmile_qr_scan"}, "type": "electric_scooter", "name": "0f3e69277ff7b03fb6633291403eddfd", "is_reserved": 0, "lon": -77.024122, "is_disabled": 0, "fusion_lat": 0.0, "lat": 38.927051166666665, "bike_id": "0f3e69277ff7b03fb6633291403eddfd", "fusion_lon": 0.0}, {"rental_uris": {"ios": "https://dc.lft.to/lastmile_qr_scan", "android": "https://dc.lft.to/lastmile_qr_scan"}, "type": "electric_scooter", "name": "be375b5f3f4ec65be91ab9510c66f263", "is_reserved": 0, "lon": -77.02224316666667, "is_disabled": 0, "fusion_lat": 0.0, "lat": 38.92070916666667, "bike_id": "be375b5f3f4ec65be91ab9510c66f263", "fusion_lon": 0.0}, {"rental_uris": {"ios": "https://dc.lft.to/lastmile_qr_scan", "android": "https://dc.lft.to/lastmile_qr_scan"}, "type": "electric_scooter", "name": "76974dec81bf5fbf643e9066a27aec7f", "is_reserved": 0, "lon": -77.01884883333334, "is_disabled": 0, "fusion_lat": 0.0, "lat": 38.899561166666665, "bike_id": "76974dec81bf5fbf643e9066a27aec7f", "fusion_lon": 0.0}, {"rental_uris": {"ios": "https://dc.lft.to/lastmile_qr_scan", "android": "https://dc.lft.to/lastmile_qr_scan"}, "type": "electric_scooter", "name": "657b94741033a63d995aee3cf7c1d424", "is_reserved": 0, "lon": -77.02484983333333, "is_disabled": 0, "fusion_lat": 0.0, "lat": 38.90398716666667, "bike_id": "657b94741033a63d995aee3cf7c1d424", "fusion_lon": 0.0}, {"rental_uris": {"ios": "https://dc.lft.to/lastmile_qr_scan", "android": "https://dc.lft.to/lastmile_qr_scan"}, "type": "electric_scooter", "name": "e3bdaaaced9956bc8d5b03a73663347e", "is_reserved": 0, "lon": -77.03065333333333, "is_disabled": 0, "fusion_lat": 0.0, "lat": 38.926672833333335, "bike_id": "e3bdaaaced9956bc8d5b03a73663347e", "fusion_lon": 0.0}, {"rental_uris": {"ios": "https://dc.lft.to/lastmile_qr_scan", "android": "https://dc.lft.to/lastmile_qr_scan"}, "type": "electric_bike", "name": "88507b2770f12c337aae2f3f190bbe3f", "is_reserved": 0, "lon": -77.10741866666666, "is_disabled": 0, "fusion_lat": 0.0, "lat": 38.855323166666665, "bike_id": "88507b2770f12c337aae2f3f190bbe3f", "fusion_lon": 0.0}, {"rental_uris": {"ios": "https://dc.lft.to/lastmile_qr_scan", "android": "https://dc.lft.to/lastmile_qr_scan"}, "type": "electric_scooter", "name": "e4fa35592d69141b61ed7f716e5b1493", "is_reserved": 0, "lon": -77.01758566666666, "is_disabled": 0, "fusion_lat": 0.0, "lat": 38.876868, "bike_id": "e4fa35592d69141b61ed7f716e5b1493", "fusion_lon": 0.0}, {"rental_uris": {"ios": "https://dc.lft.to/lastmile_qr_scan", "android": "https://dc.lft.to/lastmile_qr_scan"}, "type": "electric_scooter", "name": "0fb67b37adc50b0422711e1b96080b14", "is_reserved": 0, "lon": -76.97377116666667, "is_disabled": 0, "fusion_lat": 0.0, "lat": 38.8499135, "bike_id": "0fb67b37adc50b0422711e1b96080b14", "fusion_lon": 0.0}, {"rental_uris": {"ios": "https://dc.lft.to/lastmile_qr_scan", "android": "https://dc.lft.to/lastmile_qr_scan"}, "type": "electric_scooter", "name": "e6b44b6afd86835c8542bee70588e93d", "is_reserved": 0, "lon": -77.00499566666667, "is_disabled": 0, "fusion_lat": 0.0, "lat": 38.87935916666667, "bike_id": "e6b44b6afd86835c8542bee70588e93d", "fusion_lon": 0.0}, {"rental_uris": {"ios": "https://dc.lft.to/lastmile_qr_scan", "android": "https://dc.lft.to/lastmile_qr_scan"}, "type": "electric_scooter", "name": "f4f16a8620f73515fff9898f161ab9a2", "is_reserved": 0, "lon": -77.074564, "is_disabled": 0, "fusion_lat": 0.0, "lat": 38.93780733333333, "bike_id": "f4f16a8620f73515fff9898f161ab9a2", "fusion_lon": 0.0}, {"rental_uris": {"ios": "https://dc.lft.to/lastmile_qr_scan", "android": "https://dc.lft.to/lastmile_qr_scan"}, "type": "electric_bike", "name": "325d1bbcd1d1e6f05ae260a86eb17ca3", "is_reserved": 0, "lon": -77.1135715, "is_disabled": 0, "fusion_lat": 0.0, "lat": 38.84195833333333, "bike_id": "325d1bbcd1d1e6f05ae260a86eb17ca3", "fusion_lon": 0.0}, {"rental_uris": {"ios": "https://dc.lft.to/lastmile_qr_scan", "android": "https://dc.lft.to/lastmile_qr_scan"}, "type": "electric_scooter", "name": "0e37d2565c8f8b527fd5ea36ec68ec0d", "is_reserved": 0, "lon": -76.98122583333334, "is_disabled": 0, "fusion_lat": 0.0, "lat": 38.902448666666665, "bike_id": "0e37d2565c8f8b527fd5ea36ec68ec0d", "fusion_lon": 0.0}, {"rental_uris": {"ios": "https://dc.lft.to/lastmile_qr_scan", "android": "https://dc.lft.to/lastmile_qr_scan"}, "type": "electric_scooter", "name": "b6d23172d92c249b9975d896eb977fd3", "is_reserved": 0, "lon": -77.01789083333334, "is_disabled": 0, "fusion_lat": 0.0, "lat": 38.900382, "bike_id": "b6d23172d92c249b9975d896eb977fd3", "fusion_lon": 0.0}, {"rental_uris": {"ios": "https://dc.lft.to/lastmile_qr_scan", "android": "https://dc.lft.to/lastmile_qr_scan"}, "type": "electric_scooter", "name": "4f6583a11d93b322e361a6507a01c06f", "is_reserved": 0, "lon": -76.9967865, "is_disabled": 0, "fusion_lat": 0.0, "lat": 38.884643, "bike_id": "4f6583a11d93b322e361a6507a01c06f", "fusion_lon": 0.0}, {"rental_uris": {"ios": "https://dc.lft.to/lastmile_qr_scan", "android": "https://dc.lft.to/lastmile_qr_scan"}, "type": "electric_scooter", "name": "e5d13f22e2e5762279589692b80336a9", "is_reserved": 0, "lon": -76.99347316666666, "is_disabled": 0, "fusion_lat": 0.0, "lat": 38.876906166666664, "bike_id": "e5d13f22e2e5762279589692b80336a9", "fusion_lon": 0.0}, {"rental_uris": {"ios": "https://dc.lft.to/lastmile_qr_scan", "android": "https://dc.lft.to/lastmile_qr_scan"}, "type": "electric_scooter", "name": "2efb090614752af63ded64d8e8266f3b", "is_reserved": 0, "lon": -77.01019633333334, "is_disabled": 0, "fusion_lat": 0.0, "lat": 38.90643466666667, "bike_id": "2efb090614752af63ded64d8e8266f3b", "fusion_lon": 0.0}, {"rental_uris": {"ios": "https://dc.lft.to/lastmile_qr_scan", "android": "https://dc.lft.to/lastmile_qr_scan"}, "type": "electric_scooter", "name": "fed1ac2b5a7d45f67f2722415c1a2bbb", "is_reserved": 0, "lon": -77.0365895, "is_disabled": 0, "fusion_lat": 0.0, "lat": 38.922849166666666, "bike_id": "fed1ac2b5a7d45f67f2722415c1a2bbb", "fusion_lon": 0.0}, {"rental_uris": {"ios": "https://dc.lft.to/lastmile_qr_scan", "android": "https://dc.lft.to/lastmile_qr_scan"}, "type": "electric_scooter", "name": "f1849826164d27c2ac19a9464c25d708", "is_reserved": 0, "lon": -77.03278916666666, "is_disabled": 0, "fusion_lat": 0.0, "lat": 38.93256383333333, "bike_id": "f1849826164d27c2ac19a9464c25d708", "fusion_lon": 0.0}, {"rental_uris": {"ios": "https://dc.lft.to/lastmile_qr_scan", "android": "https://dc.lft.to/lastmile_qr_scan"}, "type": "electric_scooter", "name": "f2b2c30361454d9c91f485fdd38684ac", "is_reserved": 0, "lon": -77.01852816666667, "is_disabled": 0, "fusion_lat": 0.0, "lat": 38.902476666666665, "bike_id": "f2b2c30361454d9c91f485fdd38684ac", "fusion_lon": 0.0}, {"rental_uris": {"ios": "https://dc.lft.to/lastmile_qr_scan", "android": "https://dc.lft.to/lastmile_qr_scan"}, "type": "electric_bike", "name": "6e1ab9ea2971907185280a9351d0930a", "is_reserved": 0, "lon": -77.043208, "is_disabled": 0, "fusion_lat": 0.0, "lat": 39.034281, "bike_id": "6e1ab9ea2971907185280a9351d0930a", "fusion_lon": 0.0}, {"rental_uris": {"ios": "https://dc.lft.to/lastmile_qr_scan", "android": "https://dc.lft.to/lastmile_qr_scan"}, "type": "electric_scooter", "name": "360d5dbf5e2b0ff845fa02e23a3fdc42", "is_reserved": 0, "lon": -77.04519666666667, "is_disabled": 0, "fusion_lat": 0.0, "lat": 38.90799466666667, "bike_id": "360d5dbf5e2b0ff845fa02e23a3fdc42", "fusion_lon": 0.0}, {"rental_uris": {"ios": "https://dc.lft.to/lastmile_qr_scan", "android": "https://dc.lft.to/lastmile_qr_scan"}, "type": "electric_scooter", "name": "b86308ad776b6109f520fded2eba8114", "is_reserved": 0, "lon": -77.03214983333334, "is_disabled": 0, "fusion_lat": 0.0, "lat": 38.9073095, "bike_id": "b86308ad776b6109f520fded2eba8114", "fusion_lon": 0.0}, {"rental_uris": {"ios": "https://dc.lft.to/lastmile_qr_scan", "android": "https://dc.lft.to/lastmile_qr_scan"}, "type": "electric_scooter", "name": "3fda17a7ac89abeda3a9f68eeae9973d", "is_reserved": 0, "lon": -77.0021025, "is_disabled": 0, "fusion_lat": 0.0, "lat": 38.91459916666667, "bike_id": "3fda17a7ac89abeda3a9f68eeae9973d", "fusion_lon": 0.0}, {"rental_uris": {"ios": "https://dc.lft.to/lastmile_qr_scan", "android": "https://dc.lft.to/lastmile_qr_scan"}, "type": "electric_scooter", "name": "94760bc32bb135e0e49048ce3cb0c1d2", "is_reserved": 0, "lon": -77.0163865, "is_disabled": 0, "fusion_lat": 0.0, "lat": 38.902393833333335, "bike_id": "94760bc32bb135e0e49048ce3cb0c1d2", "fusion_lon": 0.0}, {"rental_uris": {"ios": "https://dc.lft.to/lastmile_qr_scan", "android": "https://dc.lft.to/lastmile_qr_scan"}, "type": "electric_bike", "name": "aa137801a9b46cdcc9276dd8da6994b3", "is_reserved": 0, "lon": -77.0415645, "is_disabled": 0, "fusion_lat": 0.0, "lat": 38.914178, "bike_id": "aa137801a9b46cdcc9276dd8da6994b3", "fusion_lon": 0.0}, {"rental_uris": {"ios": "https://dc.lft.to/lastmile_qr_scan", "android": "https://dc.lft.to/lastmile_qr_scan"}, "type": "electric_scooter", "name": "b78cf585462796e670b12cdd91ef76a2", "is_reserved": 0, "lon": -77.023141, "is_disabled": 0, "fusion_lat": 0.0, "lat": 38.927812833333334, "bike_id": "b78cf585462796e670b12cdd91ef76a2", "fusion_lon": 0.0}, {"rental_uris": {"ios": "https://dc.lft.to/lastmile_qr_scan", "android": "https://dc.lft.to/lastmile_qr_scan"}, "type": "electric_scooter", "name": "816e07dbe91a5e5f0bfdaacc7e343489", "is_reserved": 0, "lon": -77.020973, "is_disabled": 0, "fusion_lat": 0.0, "lat": 38.9311735, "bike_id": "816e07dbe91a5e5f0bfdaacc7e343489", "fusion_lon": 0.0}, {"rental_uris": {"ios": "https://dc.lft.to/lastmile_qr_scan", "android": "https://dc.lft.to/lastmile_qr_scan"}, "type": "electric_scooter", "name": "50574d3e6deb22f1e4f648b759c58b7c", "is_reserved": 0, "lon": -77.038629, "is_disabled": 0, "fusion_lat": 0.0, "lat": 38.911961, "bike_id": "50574d3e6deb22f1e4f648b759c58b7c", "fusion_lon": 0.0}, {"rental_uris": {"ios": "https://dc.lft.to/lastmile_qr_scan", "android": "https://dc.lft.to/lastmile_qr_scan"}, "type": "electric_scooter", "name": "8f8b2ac0e6d20c96df13eab78e5545b7", "is_reserved": 0, "lon": -77.02076216666667, "is_disabled": 0, "fusion_lat": 0.0, "lat": 38.930229833333335, "bike_id": "8f8b2ac0e6d20c96df13eab78e5545b7", "fusion_lon": 0.0}, {"rental_uris": {"ios": "https://dc.lft.to/lastmile_qr_scan", "android": "https://dc.lft.to/lastmile_qr_scan"}, "type": "electric_scooter", "name": "8c652e47d22d4d9aebd74218f4176afa", "is_reserved": 0, "lon": -77.02836833333333, "is_disabled": 0, "fusion_lat": 0.0, "lat": 38.88731966666667, "bike_id": "8c652e47d22d4d9aebd74218f4176afa", "fusion_lon": 0.0}, {"rental_uris": {"ios": "https://dc.lft.to/lastmile_qr_scan", "android": "https://dc.lft.to/lastmile_qr_scan"}, "type": "electric_scooter", "name": "73f3d918acb2d980f6bf3a5c2febb87d", "is_reserved": 0, "lon": -76.99614683333333, "is_disabled": 0, "fusion_lat": 0.0, "lat": 38.88713383333333, "bike_id": "73f3d918acb2d980f6bf3a5c2febb87d", "fusion_lon": 0.0}, {"rental_uris": {"ios": "https://dc.lft.to/lastmile_qr_scan", "android": "https://dc.lft.to/lastmile_qr_scan"}, "type": "electric_bike", "name": "5667141f527a698b19f05649903def84", "is_reserved": 0, "lon": -76.9632045, "is_disabled": 0, "fusion_lat": 0.0, "lat": 38.93895216666667, "bike_id": "5667141f527a698b19f05649903def84", "fusion_lon": 0.0}, {"rental_uris": {"ios": "https://dc.lft.to/lastmile_qr_scan", "android": "https://dc.lft.to/lastmile_qr_scan"}, "type": "electric_scooter", "name": "d3fa88c349ecb2cfba9454c029cd4106", "is_reserved": 0, "lon": -77.04122083333333, "is_disabled": 0, "fusion_lat": 0.0, "lat": 38.93400883333333, "bike_id": "d3fa88c349ecb2cfba9454c029cd4106", "fusion_lon": 0.0}, {"rental_uris": {"ios": "https://dc.lft.to/lastmile_qr_scan", "android": "https://dc.lft.to/lastmile_qr_scan"}, "type": "electric_scooter", "name": "062bd1e9a9e4d6857d3fd055b09e6675", "is_reserved": 0, "lon": -77.00207633333333, "is_disabled": 0, "fusion_lat": 0.0, "lat": 38.90758433333333, "bike_id": "062bd1e9a9e4d6857d3fd055b09e6675", "fusion_lon": 0.0}, {"rental_uris": {"ios": "https://dc.lft.to/lastmile_qr_scan", "android": "https://dc.lft.to/lastmile_qr_scan"}, "type": "electric_scooter", "name": "12082305d96949949a6239c20d35846b", "is_reserved": 0, "lon": -77.03080716666666, "is_disabled": 0, "fusion_lat": 0.0, "lat": 38.92380266666667, "bike_id": "12082305d96949949a6239c20d35846b", "fusion_lon": 0.0}, {"rental_uris": {"ios": "https://dc.lft.to/lastmile_qr_scan", "android": "https://dc.lft.to/lastmile_qr_scan"}, "type": "electric_scooter", "name": "e30e826b8cb147a3a1ca5c147dd450f1", "is_reserved": 0, "lon": -77.03841816666667, "is_disabled": 0, "fusion_lat": 0.0, "lat": 38.90983583333333, "bike_id": "e30e826b8cb147a3a1ca5c147dd450f1", "fusion_lon": 0.0}, {"rental_uris": {"ios": "https://dc.lft.to/lastmile_qr_scan", "android": "https://dc.lft.to/lastmile_qr_scan"}, "type": "electric_scooter", "name": "d500921a546eacf68c618c1affdb6c27", "is_reserved": 0, "lon": -77.02279466666667, "is_disabled": 0, "fusion_lat": 0.0, "lat": 38.91838166666667, "bike_id": "d500921a546eacf68c618c1affdb6c27", "fusion_lon": 0.0}, {"rental_uris": {"ios": "https://dc.lft.to/lastmile_qr_scan", "android": "https://dc.lft.to/lastmile_qr_scan"}, "type": "electric_scooter", "name": "a41cb5999a47304c948e88f1eecfcdfb", "is_reserved": 0, "lon": -77.06108283333333, "is_disabled": 0, "fusion_lat": 0.0, "lat": 38.937044, "bike_id": "a41cb5999a47304c948e88f1eecfcdfb", "fusion_lon": 0.0}, {"rental_uris": {"ios": "https://dc.lft.to/lastmile_qr_scan", "android": "https://dc.lft.to/lastmile_qr_scan"}, "type": "electric_scooter", "name": "b5f6f40d881075b410110495d92fcd5d", "is_reserved": 0, "lon": -76.98277983333334, "is_disabled": 0, "fusion_lat": 0.0, "lat": 38.903408166666665, "bike_id": "b5f6f40d881075b410110495d92fcd5d", "fusion_lon": 0.0}, {"rental_uris": {"ios": "https://dc.lft.to/lastmile_qr_scan", "android": "https://dc.lft.to/lastmile_qr_scan"}, "type": "electric_bike", "name": "2cac916d2925955e5051109e9983ef5b", "is_reserved": 0, "lon": -77.01665233333334, "is_disabled": 0, "fusion_lat": 0.0, "lat": 38.8814495, "bike_id": "2cac916d2925955e5051109e9983ef5b", "fusion_lon": 0.0}, {"rental_uris": {"ios": "https://dc.lft.to/lastmile_qr_scan", "android": "https://dc.lft.to/lastmile_qr_scan"}, "type": "electric_scooter", "name": "8c2aaf5bc7083fa279a196ebb8079a02", "is_reserved": 0, "lon": -77.030322, "is_disabled": 0, "fusion_lat": 0.0, "lat": 38.8972405, "bike_id": "8c2aaf5bc7083fa279a196ebb8079a02", "fusion_lon": 0.0}, {"rental_uris": {"ios": "https://dc.lft.to/lastmile_qr_scan", "android": "https://dc.lft.to/lastmile_qr_scan"}, "type": "electric_scooter", "name": "85ace9832d634b1e3da7677360b55926", "is_reserved": 0, "lon": -77.04439733333334, "is_disabled": 0, "fusion_lat": 0.0, "lat": 38.912646333333335, "bike_id": "85ace9832d634b1e3da7677360b55926", "fusion_lon": 0.0}, {"rental_uris": {"ios": "https://dc.lft.to/lastmile_qr_scan", "android": "https://dc.lft.to/lastmile_qr_scan"}, "type": "electric_scooter", "name": "0abb0d2c214d5b7ab3d8c72e12f8ee1b", "is_reserved": 0, "lon": -77.002139, "is_disabled": 0, "fusion_lat": 0.0, "lat": 38.90039683333333, "bike_id": "0abb0d2c214d5b7ab3d8c72e12f8ee1b", "fusion_lon": 0.0}, {"rental_uris": {"ios": "https://dc.lft.to/lastmile_qr_scan", "android": "https://dc.lft.to/lastmile_qr_scan"}, "type": "electric_scooter", "name": "ce9df7a5749a02ca199950c593860795", "is_reserved": 0, "lon": -77.011567, "is_disabled": 0, "fusion_lat": 0.0, "lat": 38.95694366666667, "bike_id": "ce9df7a5749a02ca199950c593860795", "fusion_lon": 0.0}, {"rental_uris": {"ios": "https://dc.lft.to/lastmile_qr_scan", "android": "https://dc.lft.to/lastmile_qr_scan"}, "type": "electric_scooter", "name": "67a0413ecaa3e3d0cf36ab656b131dd1", "is_reserved": 0, "lon": -77.02928683333333, "is_disabled": 0, "fusion_lat": 0.0, "lat": 38.897724, "bike_id": "67a0413ecaa3e3d0cf36ab656b131dd1", "fusion_lon": 0.0}, {"rental_uris": {"ios": "https://dc.lft.to/lastmile_qr_scan", "android": "https://dc.lft.to/lastmile_qr_scan"}, "type": "electric_scooter", "name": "5da756643160ecb924c20784b389b93a", "is_reserved": 0, "lon": -77.01642833333334, "is_disabled": 0, "fusion_lat": 0.0, "lat": 38.9039265, "bike_id": "5da756643160ecb924c20784b389b93a", "fusion_lon": 0.0}, {"rental_uris": {"ios": "https://dc.lft.to/lastmile_qr_scan", "android": "https://dc.lft.to/lastmile_qr_scan"}, "type": "electric_scooter", "name": "c0037f1b705aac2cda80295ba7c7ad2d", "is_reserved": 0, "lon": -76.9463945, "is_disabled": 0, "fusion_lat": 0.0, "lat": 38.8986805, "bike_id": "c0037f1b705aac2cda80295ba7c7ad2d", "fusion_lon": 0.0}, {"rental_uris": {"ios": "https://dc.lft.to/lastmile_qr_scan", "android": "https://dc.lft.to/lastmile_qr_scan"}, "type": "electric_scooter", "name": "102857cbfc8315a975c40e9f6d5d04fe", "is_reserved": 0, "lon": -77.04175416666666, "is_disabled": 0, "fusion_lat": 0.0, "lat": 38.91848433333333, "bike_id": "102857cbfc8315a975c40e9f6d5d04fe", "fusion_lon": 0.0}, {"rental_uris": {"ios": "https://dc.lft.to/lastmile_qr_scan", "android": "https://dc.lft.to/lastmile_qr_scan"}, "type": "electric_scooter", "name": "4cd0780a7bbe1a7a5b3479fef6cb21a8", "is_reserved": 0, "lon": -77.02234016666667, "is_disabled": 0, "fusion_lat": 0.0, "lat": 38.89219416666667, "bike_id": "4cd0780a7bbe1a7a5b3479fef6cb21a8", "fusion_lon": 0.0}, {"rental_uris": {"ios": "https://dc.lft.to/lastmile_qr_scan", "android": "https://dc.lft.to/lastmile_qr_scan"}, "type": "electric_scooter", "name": "97247ef311181a414b532050e20bc253", "is_reserved": 0, "lon": -77.02590033333334, "is_disabled": 0, "fusion_lat": 0.0, "lat": 38.9069005, "bike_id": "97247ef311181a414b532050e20bc253", "fusion_lon": 0.0}, {"rental_uris": {"ios": "https://dc.lft.to/lastmile_qr_scan", "android": "https://dc.lft.to/lastmile_qr_scan"}, "type": "electric_bike", "name": "c551848a7de76e070943e279cef766f6", "is_reserved": 0, "lon": -77.10291216666667, "is_disabled": 0, "fusion_lat": 0.0, "lat": 38.8525265, "bike_id": "c551848a7de76e070943e279cef766f6", "fusion_lon": 0.0}, {"rental_uris": {"ios": "https://dc.lft.to/lastmile_qr_scan", "android": "https://dc.lft.to/lastmile_qr_scan"}, "type": "electric_scooter", "name": "9342c3b0982a1def518eeb174fe7ae31", "is_reserved": 0, "lon": -77.026664, "is_disabled": 0, "fusion_lat": 0.0, "lat": 38.9309685, "bike_id": "9342c3b0982a1def518eeb174fe7ae31", "fusion_lon": 0.0}, {"rental_uris": {"ios": "https://dc.lft.to/lastmile_qr_scan", "android": "https://dc.lft.to/lastmile_qr_scan"}, "type": "electric_scooter", "name": "f90f9e2276b2b1f8a5a31db6ed7ddb3b", "is_reserved": 0, "lon": -77.032021, "is_disabled": 0, "fusion_lat": 0.0, "lat": 38.92182, "bike_id": "f90f9e2276b2b1f8a5a31db6ed7ddb3b", "fusion_lon": 0.0}, {"rental_uris": {"ios": "https://dc.lft.to/lastmile_qr_scan", "android": "https://dc.lft.to/lastmile_qr_scan"}, "type": "electric_scooter", "name": "e928842884b3a497194e8a5e7b41bd58", "is_reserved": 0, "lon": -77.02002566666667, "is_disabled": 0, "fusion_lat": 0.0, "lat": 38.928005666666664, "bike_id": "e928842884b3a497194e8a5e7b41bd58", "fusion_lon": 0.0}, {"rental_uris": {"ios": "https://dc.lft.to/lastmile_qr_scan", "android": "https://dc.lft.to/lastmile_qr_scan"}, "type": "electric_bike", "name": "718f773e70522798d74168ee77079d7f", "is_reserved": 0, "lon": -76.97957766666667, "is_disabled": 0, "fusion_lat": 0.0, "lat": 38.920346, "bike_id": "718f773e70522798d74168ee77079d7f", "fusion_lon": 0.0}, {"rental_uris": {"ios": "https://dc.lft.to/lastmile_qr_scan", "android": "https://dc.lft.to/lastmile_qr_scan"}, "type": "electric_scooter", "name": "cd95740b8361234e149cc6210ac18ab1", "is_reserved": 0, "lon": -77.01506766666667, "is_disabled": 0, "fusion_lat": 0.0, "lat": 38.90657516666667, "bike_id": "cd95740b8361234e149cc6210ac18ab1", "fusion_lon": 0.0}, {"rental_uris": {"ios": "https://dc.lft.to/lastmile_qr_scan", "android": "https://dc.lft.to/lastmile_qr_scan"}, "type": "electric_scooter", "name": "62c691fa552da9d70be972fa583fa4eb", "is_reserved": 0, "lon": -77.02570816666666, "is_disabled": 0, "fusion_lat": 0.0, "lat": 38.94849116666666, "bike_id": "62c691fa552da9d70be972fa583fa4eb", "fusion_lon": 0.0}, {"rental_uris": {"ios": "https://dc.lft.to/lastmile_qr_scan", "android": "https://dc.lft.to/lastmile_qr_scan"}, "type": "electric_scooter", "name": "2df467e1ba185a6e2cd37d099c310300", "is_reserved": 0, "lon": -77.0342285, "is_disabled": 0, "fusion_lat": 0.0, "lat": 38.9013825, "bike_id": "2df467e1ba185a6e2cd37d099c310300", "fusion_lon": 0.0}, {"rental_uris": {"ios": "https://dc.lft.to/lastmile_qr_scan", "android": "https://dc.lft.to/lastmile_qr_scan"}, "type": "electric_scooter", "name": "47cb5564f11ccbda178379709868bf3a", "is_reserved": 0, "lon": -77.0058715, "is_disabled": 0, "fusion_lat": 0.0, "lat": 38.876602166666665, "bike_id": "47cb5564f11ccbda178379709868bf3a", "fusion_lon": 0.0}, {"rental_uris": {"ios": "https://dc.lft.to/lastmile_qr_scan", "android": "https://dc.lft.to/lastmile_qr_scan"}, "type": "electric_scooter", "name": "ee6b6dcd3a5f6ba134a3fd0541727fbb", "is_reserved": 0, "lon": -76.923098, "is_disabled": 0, "fusion_lat": 0.0, "lat": 38.8938455, "bike_id": "ee6b6dcd3a5f6ba134a3fd0541727fbb", "fusion_lon": 0.0}, {"rental_uris": {"ios": "https://dc.lft.to/lastmile_qr_scan", "android": "https://dc.lft.to/lastmile_qr_scan"}, "type": "electric_scooter", "name": "355f386578ba205a44569411633c5aa3", "is_reserved": 0, "lon": -77.06386066666667, "is_disabled": 0, "fusion_lat": 0.0, "lat": 38.90519833333333, "bike_id": "355f386578ba205a44569411633c5aa3", "fusion_lon": 0.0}, {"rental_uris": {"ios": "https://dc.lft.to/lastmile_qr_scan", "android": "https://dc.lft.to/lastmile_qr_scan"}, "type": "electric_bike", "name": "f256feb3704f77a3314c5632d8b4b997", "is_reserved": 0, "lon": -77.0251425, "is_disabled": 0, "fusion_lat": 0.0, "lat": 38.93416466666667, "bike_id": "f256feb3704f77a3314c5632d8b4b997", "fusion_lon": 0.0}, {"rental_uris": {"ios": "https://dc.lft.to/lastmile_qr_scan", "android": "https://dc.lft.to/lastmile_qr_scan"}, "type": "electric_scooter", "name": "eaf4568199ceca1bdfc523dd56e28fb0", "is_reserved": 0, "lon": -77.02337933333334, "is_disabled": 0, "fusion_lat": 0.0, "lat": 38.93295, "bike_id": "eaf4568199ceca1bdfc523dd56e28fb0", "fusion_lon": 0.0}, {"rental_uris": {"ios": "https://dc.lft.to/lastmile_qr_scan", "android": "https://dc.lft.to/lastmile_qr_scan"}, "type": "electric_bike", "name": "cf6df3db930f9f65e5326bbd18814c7a", "is_reserved": 0, "lon": -77.2317785, "is_disabled": 0, "fusion_lat": 0.0, "lat": 38.928922, "bike_id": "cf6df3db930f9f65e5326bbd18814c7a", "fusion_lon": 0.0}, {"rental_uris": {"ios": "https://dc.lft.to/lastmile_qr_scan", "android": "https://dc.lft.to/lastmile_qr_scan"}, "type": "electric_scooter", "name": "e88da6642937b38c2ca9f6227b7ce789", "is_reserved": 0, "lon": -77.02287016666666, "is_disabled": 0, "fusion_lat": 0.0, "lat": 38.91677466666667, "bike_id": "e88da6642937b38c2ca9f6227b7ce789", "fusion_lon": 0.0}, {"rental_uris": {"ios": "https://dc.lft.to/lastmile_qr_scan", "android": "https://dc.lft.to/lastmile_qr_scan"}, "type": "electric_bike", "name": "8d5f98fac5ef577fc920230e77c52cb2", "is_reserved": 0, "lon": -77.11288316666666, "is_disabled": 0, "fusion_lat": 0.0, "lat": 38.8310355, "bike_id": "8d5f98fac5ef577fc920230e77c52cb2", "fusion_lon": 0.0}, {"rental_uris": {"ios": "https://dc.lft.to/lastmile_qr_scan", "android": "https://dc.lft.to/lastmile_qr_scan"}, "type": "electric_bike", "name": "721d63a683a2699aed7446e300a1fb99", "is_reserved": 0, "lon": -77.04331733333333, "is_disabled": 0, "fusion_lat": 0.0, "lat": 38.92785966666667, "bike_id": "721d63a683a2699aed7446e300a1fb99", "fusion_lon": 0.0}, {"rental_uris": {"ios": "https://dc.lft.to/lastmile_qr_scan", "android": "https://dc.lft.to/lastmile_qr_scan"}, "type": "electric_scooter", "name": "e108667e5933a7148dff6cf25ddc03a6", "is_reserved": 0, "lon": -77.05130166666666, "is_disabled": 0, "fusion_lat": 0.0, "lat": 38.92360216666667, "bike_id": "e108667e5933a7148dff6cf25ddc03a6", "fusion_lon": 0.0}, {"rental_uris": {"ios": "https://dc.lft.to/lastmile_qr_scan", "android": "https://dc.lft.to/lastmile_qr_scan"}, "type": "electric_scooter", "name": "af5d035e9525894d0c53f8f060b59930", "is_reserved": 0, "lon": -77.00223, "is_disabled": 0, "fusion_lat": 0.0, "lat": 38.900557666666664, "bike_id": "af5d035e9525894d0c53f8f060b59930", "fusion_lon": 0.0}, {"rental_uris": {"ios": "https://dc.lft.to/lastmile_qr_scan", "android": "https://dc.lft.to/lastmile_qr_scan"}, "type": "electric_scooter", "name": "2dae74a98344386ae6a4ffe3a71a886f", "is_reserved": 0, "lon": -77.08777283333333, "is_disabled": 0, "fusion_lat": 0.0, "lat": 38.935602833333334, "bike_id": "2dae74a98344386ae6a4ffe3a71a886f", "fusion_lon": 0.0}, {"rental_uris": {"ios": "https://dc.lft.to/lastmile_qr_scan", "android": "https://dc.lft.to/lastmile_qr_scan"}, "type": "electric_scooter", "name": "e9e2466fb5f59d8ace93f6c28ef5960e", "is_reserved": 0, "lon": -77.06320083333334, "is_disabled": 0, "fusion_lat": 0.0, "lat": 38.9133555, "bike_id": "e9e2466fb5f59d8ace93f6c28ef5960e", "fusion_lon": 0.0}, {"rental_uris": {"ios": "https://dc.lft.to/lastmile_qr_scan", "android": "https://dc.lft.to/lastmile_qr_scan"}, "type": "electric_scooter", "name": "d16c7b8f65a47475e59a0dba6b546660", "is_reserved": 0, "lon": -77.0392515, "is_disabled": 0, "fusion_lat": 0.0, "lat": 38.89874583333334, "bike_id": "d16c7b8f65a47475e59a0dba6b546660", "fusion_lon": 0.0}, {"rental_uris": {"ios": "https://dc.lft.to/lastmile_qr_scan", "android": "https://dc.lft.to/lastmile_qr_scan"}, "type": "electric_scooter", "name": "0b6eeee809ae70f21eb4db6a396d9175", "is_reserved": 0, "lon": -77.02833466666667, "is_disabled": 0, "fusion_lat": 0.0, "lat": 38.93290833333333, "bike_id": "0b6eeee809ae70f21eb4db6a396d9175", "fusion_lon": 0.0}, {"rental_uris": {"ios": "https://dc.lft.to/lastmile_qr_scan", "android": "https://dc.lft.to/lastmile_qr_scan"}, "type": "electric_bike", "name": "84ea12a05dcc964f57ad3178f3e2b6d0", "is_reserved": 0, "lon": -77.02008183333334, "is_disabled": 0, "fusion_lat": 0.0, "lat": 39.0262185, "bike_id": "84ea12a05dcc964f57ad3178f3e2b6d0", "fusion_lon": 0.0}, {"rental_uris": {"ios": "https://dc.lft.to/lastmile_qr_scan", "android": "https://dc.lft.to/lastmile_qr_scan"}, "type": "electric_scooter", "name": "b70497502cd3bbd987da2f7fd80dc7d8", "is_reserved": 0, "lon": -77.0082055, "is_disabled": 0, "fusion_lat": 0.0, "lat": 38.915636666666664, "bike_id": "b70497502cd3bbd987da2f7fd80dc7d8", "fusion_lon": 0.0}, {"rental_uris": {"ios": "https://dc.lft.to/lastmile_qr_scan", "android": "https://dc.lft.to/lastmile_qr_scan"}, "type": "electric_scooter", "name": "da09d11871352c1adc1176009017fd4e", "is_reserved": 0, "lon": -77.02180216666666, "is_disabled": 0, "fusion_lat": 0.0, "lat": 38.929122666666665, "bike_id": "da09d11871352c1adc1176009017fd4e", "fusion_lon": 0.0}, {"rental_uris": {"ios": "https://dc.lft.to/lastmile_qr_scan", "android": "https://dc.lft.to/lastmile_qr_scan"}, "type": "electric_scooter", "name": "ecf42245985caf1db891d1f193597ce8", "is_reserved": 0, "lon": -76.97720833333334, "is_disabled": 0, "fusion_lat": 0.0, "lat": 38.90056233333333, "bike_id": "ecf42245985caf1db891d1f193597ce8", "fusion_lon": 0.0}, {"rental_uris": {"ios": "https://dc.lft.to/lastmile_qr_scan", "android": "https://dc.lft.to/lastmile_qr_scan"}, "type": "electric_scooter", "name": "89ece5dfbcc549022a77ca5f932b73c3", "is_reserved": 0, "lon": -77.02231183333333, "is_disabled": 0, "fusion_lat": 0.0, "lat": 38.8922335, "bike_id": "89ece5dfbcc549022a77ca5f932b73c3", "fusion_lon": 0.0}, {"rental_uris": {"ios": "https://dc.lft.to/lastmile_qr_scan", "android": "https://dc.lft.to/lastmile_qr_scan"}, "type": "electric_scooter", "name": "d7d7e52aa169aa934506e629adc0a755", "is_reserved": 0, "lon": -77.06094716666666, "is_disabled": 0, "fusion_lat": 0.0, "lat": 38.93990933333333, "bike_id": "d7d7e52aa169aa934506e629adc0a755", "fusion_lon": 0.0}, {"rental_uris": {"ios": "https://dc.lft.to/lastmile_qr_scan", "android": "https://dc.lft.to/lastmile_qr_scan"}, "type": "electric_scooter", "name": "1fce7787e6e18960ff7c5f2827ce9e2b", "is_reserved": 0, "lon": -76.9903655, "is_disabled": 0, "fusion_lat": 0.0, "lat": 38.88879033333333, "bike_id": "1fce7787e6e18960ff7c5f2827ce9e2b", "fusion_lon": 0.0}, {"rental_uris": {"ios": "https://dc.lft.to/lastmile_qr_scan", "android": "https://dc.lft.to/lastmile_qr_scan"}, "type": "electric_scooter", "name": "d4a052341564c175a2839228a2892a69", "is_reserved": 0, "lon": -77.06025766666667, "is_disabled": 0, "fusion_lat": 0.0, "lat": 38.93876516666667, "bike_id": "d4a052341564c175a2839228a2892a69", "fusion_lon": 0.0}, {"rental_uris": {"ios": "https://dc.lft.to/lastmile_qr_scan", "android": "https://dc.lft.to/lastmile_qr_scan"}, "type": "electric_bike", "name": "a1fc0535fa750f99ad7fc4195a570461", "is_reserved": 0, "lon": -77.01899583333334, "is_disabled": 0, "fusion_lat": 0.0, "lat": 38.976522833333334, "bike_id": "a1fc0535fa750f99ad7fc4195a570461", "fusion_lon": 0.0}, {"rental_uris": {"ios": "https://dc.lft.to/lastmile_qr_scan", "android": "https://dc.lft.to/lastmile_qr_scan"}, "type": "electric_bike", "name": "523d24cc2fdf2d5f9644bef7e90b6063", "is_reserved": 0, "lon": -77.07658866666667, "is_disabled": 0, "fusion_lat": 0.0, "lat": 38.8097655, "bike_id": "523d24cc2fdf2d5f9644bef7e90b6063", "fusion_lon": 0.0}, {"rental_uris": {"ios": "https://dc.lft.to/lastmile_qr_scan", "android": "https://dc.lft.to/lastmile_qr_scan"}, "type": "electric_scooter", "name": "d97d78d8368d088ff3e3cab0a44c07a5", "is_reserved": 0, "lon": -77.0326315, "is_disabled": 0, "fusion_lat": 0.0, "lat": 38.9254105, "bike_id": "d97d78d8368d088ff3e3cab0a44c07a5", "fusion_lon": 0.0}, {"rental_uris": {"ios": "https://dc.lft.to/lastmile_qr_scan", "android": "https://dc.lft.to/lastmile_qr_scan"}, "type": "electric_scooter", "name": "0e580af90bbf23e529be3d4bd36db33b", "is_reserved": 0, "lon": -77.0176375, "is_disabled": 0, "fusion_lat": 0.0, "lat": 38.876841666666664, "bike_id": "0e580af90bbf23e529be3d4bd36db33b", "fusion_lon": 0.0}, {"rental_uris": {"ios": "https://dc.lft.to/lastmile_qr_scan", "android": "https://dc.lft.to/lastmile_qr_scan"}, "type": "electric_scooter", "name": "9770d73fb3487e9485b1b70f7f53803a", "is_reserved": 0, "lon": -77.0467205, "is_disabled": 0, "fusion_lat": 0.0, "lat": 38.912487666666664, "bike_id": "9770d73fb3487e9485b1b70f7f53803a", "fusion_lon": 0.0}, {"rental_uris": {"ios": "https://dc.lft.to/lastmile_qr_scan", "android": "https://dc.lft.to/lastmile_qr_scan"}, "type": "electric_bike", "name": "c4c06df41fa6919e2cbbdf0583e43de4", "is_reserved": 0, "lon": -77.02069, "is_disabled": 0, "fusion_lat": 0.0, "lat": 38.9644265, "bike_id": "c4c06df41fa6919e2cbbdf0583e43de4", "fusion_lon": 0.0}, {"rental_uris": {"ios": "https://dc.lft.to/lastmile_qr_scan", "android": "https://dc.lft.to/lastmile_qr_scan"}, "type": "electric_scooter", "name": "ea21dc76e6da4b65cec2c2b3dbfb5633", "is_reserved": 0, "lon": -77.04506516666666, "is_disabled": 0, "fusion_lat": 0.0, "lat": 38.89223, "bike_id": "ea21dc76e6da4b65cec2c2b3dbfb5633", "fusion_lon": 0.0}, {"rental_uris": {"ios": "https://dc.lft.to/lastmile_qr_scan", "android": "https://dc.lft.to/lastmile_qr_scan"}, "type": "electric_scooter", "name": "f1b857ae60448adc31d40420da43f1af", "is_reserved": 0, "lon": -76.94653433333333, "is_disabled": 0, "fusion_lat": 0.0, "lat": 38.8982815, "bike_id": "f1b857ae60448adc31d40420da43f1af", "fusion_lon": 0.0}, {"rental_uris": {"ios": "https://dc.lft.to/lastmile_qr_scan", "android": "https://dc.lft.to/lastmile_qr_scan"}, "type": "electric_bike", "name": "da8f5277a6d83880aa5e190fb76ab4ba", "is_reserved": 0, "lon": -76.918075, "is_disabled": 0, "fusion_lat": 0.0, "lat": 38.99999016666666, "bike_id": "da8f5277a6d83880aa5e190fb76ab4ba", "fusion_lon": 0.0}, {"rental_uris": {"ios": "https://dc.lft.to/lastmile_qr_scan", "android": "https://dc.lft.to/lastmile_qr_scan"}, "type": "electric_bike", "name": "13e869f24861f6318b4b80de2029efca", "is_reserved": 0, "lon": -77.01703116666667, "is_disabled": 0, "fusion_lat": 0.0, "lat": 38.914318, "bike_id": "13e869f24861f6318b4b80de2029efca", "fusion_lon": 0.0}, {"rental_uris": {"ios": "https://dc.lft.to/lastmile_qr_scan", "android": "https://dc.lft.to/lastmile_qr_scan"}, "type": "electric_scooter", "name": "c43a4e282a384637f2a05304ffa7d3fa", "is_reserved": 0, "lon": -77.03176066666667, "is_disabled": 0, "fusion_lat": 0.0, "lat": 38.9134175, "bike_id": "c43a4e282a384637f2a05304ffa7d3fa", "fusion_lon": 0.0}, {"rental_uris": {"ios": "https://dc.lft.to/lastmile_qr_scan", "android": "https://dc.lft.to/lastmile_qr_scan"}, "type": "electric_scooter", "name": "a2d18db43e2bb0ff0582d980214404f1", "is_reserved": 0, "lon": -77.03859433333334, "is_disabled": 0, "fusion_lat": 0.0, "lat": 38.926511, "bike_id": "a2d18db43e2bb0ff0582d980214404f1", "fusion_lon": 0.0}, {"rental_uris": {"ios": "https://dc.lft.to/lastmile_qr_scan", "android": "https://dc.lft.to/lastmile_qr_scan"}, "type": "electric_scooter", "name": "46ac00b0058d54868ffb5ddbe2d34e03", "is_reserved": 0, "lon": -77.0269785, "is_disabled": 0, "fusion_lat": 0.0, "lat": 38.908399833333334, "bike_id": "46ac00b0058d54868ffb5ddbe2d34e03", "fusion_lon": 0.0}, {"rental_uris": {"ios": "https://dc.lft.to/lastmile_qr_scan", "android": "https://dc.lft.to/lastmile_qr_scan"}, "type": "electric_scooter", "name": "5a4248a2e1ac113d11828c28a99836aa", "is_reserved": 0, "lon": -77.06666383333334, "is_disabled": 0, "fusion_lat": 0.0, "lat": 38.9036965, "bike_id": "5a4248a2e1ac113d11828c28a99836aa", "fusion_lon": 0.0}, {"rental_uris": {"ios": "https://dc.lft.to/lastmile_qr_scan", "android": "https://dc.lft.to/lastmile_qr_scan"}, "type": "electric_scooter", "name": "cf47763f34300a50be270631c35eb372", "is_reserved": 0, "lon": -77.02636783333334, "is_disabled": 0, "fusion_lat": 0.0, "lat": 38.92486183333333, "bike_id": "cf47763f34300a50be270631c35eb372", "fusion_lon": 0.0}, {"rental_uris": {"ios": "https://dc.lft.to/lastmile_qr_scan", "android": "https://dc.lft.to/lastmile_qr_scan"}, "type": "electric_scooter", "name": "f5b918ad4774487e38c318dd8f392677", "is_reserved": 0, "lon": -77.0179495, "is_disabled": 0, "fusion_lat": 0.0, "lat": 38.88618016666667, "bike_id": "f5b918ad4774487e38c318dd8f392677", "fusion_lon": 0.0}, {"rental_uris": {"ios": "https://dc.lft.to/lastmile_qr_scan", "android": "https://dc.lft.to/lastmile_qr_scan"}, "type": "electric_scooter", "name": "b264b97694ea51deefb2dd29d45c40fa", "is_reserved": 0, "lon": -77.006408, "is_disabled": 0, "fusion_lat": 0.0, "lat": 38.87661516666667, "bike_id": "b264b97694ea51deefb2dd29d45c40fa", "fusion_lon": 0.0}, {"rental_uris": {"ios": "https://dc.lft.to/lastmile_qr_scan", "android": "https://dc.lft.to/lastmile_qr_scan"}, "type": "electric_scooter", "name": "ffef8fed93a58199050b8d70e92c6ec7", "is_reserved": 0, "lon": -76.99488083333334, "is_disabled": 0, "fusion_lat": 0.0, "lat": 38.8822795, "bike_id": "ffef8fed93a58199050b8d70e92c6ec7", "fusion_lon": 0.0}, {"rental_uris": {"ios": "https://dc.lft.to/lastmile_qr_scan", "android": "https://dc.lft.to/lastmile_qr_scan"}, "type": "electric_bike", "name": "f452a93472dc9d9075e1d8a7610163a7", "is_reserved": 0, "lon": -77.1291275, "is_disabled": 0, "fusion_lat": 0.0, "lat": 38.799696, "bike_id": "f452a93472dc9d9075e1d8a7610163a7", "fusion_lon": 0.0}, {"rental_uris": {"ios": "https://dc.lft.to/lastmile_qr_scan", "android": "https://dc.lft.to/lastmile_qr_scan"}, "type": "electric_scooter", "name": "ee065340176d935c380f8e951b47b03d", "is_reserved": 0, "lon": -77.04174133333333, "is_disabled": 0, "fusion_lat": 0.0, "lat": 38.9118405, "bike_id": "ee065340176d935c380f8e951b47b03d", "fusion_lon": 0.0}, {"rental_uris": {"ios": "https://dc.lft.to/lastmile_qr_scan", "android": "https://dc.lft.to/lastmile_qr_scan"}, "type": "electric_scooter", "name": "a50d61f32437b5da6d63d39c5bea76af", "is_reserved": 0, "lon": -77.04749166666667, "is_disabled": 0, "fusion_lat": 0.0, "lat": 38.9177465, "bike_id": "a50d61f32437b5da6d63d39c5bea76af", "fusion_lon": 0.0}, {"rental_uris": {"ios": "https://dc.lft.to/lastmile_qr_scan", "android": "https://dc.lft.to/lastmile_qr_scan"}, "type": "electric_bike", "name": "b590fb041fec4aa3e66a9c83bb2fbaf1", "is_reserved": 0, "lon": -76.98341283333333, "is_disabled": 0, "fusion_lat": 0.0, "lat": 38.8625795, "bike_id": "b590fb041fec4aa3e66a9c83bb2fbaf1", "fusion_lon": 0.0}, {"rental_uris": {"ios": "https://dc.lft.to/lastmile_qr_scan", "android": "https://dc.lft.to/lastmile_qr_scan"}, "type": "electric_scooter", "name": "84d76b13824c48385e19115b78e5e063", "is_reserved": 0, "lon": -77.04361783333333, "is_disabled": 0, "fusion_lat": 0.0, "lat": 38.922419, "bike_id": "84d76b13824c48385e19115b78e5e063", "fusion_lon": 0.0}, {"rental_uris": {"ios": "https://dc.lft.to/lastmile_qr_scan", "android": "https://dc.lft.to/lastmile_qr_scan"}, "type": "electric_bike", "name": "e618902d4ab586f7da1d1afd3c110e79", "is_reserved": 0, "lon": -77.01850066666667, "is_disabled": 0, "fusion_lat": 0.0, "lat": 38.93108866666667, "bike_id": "e618902d4ab586f7da1d1afd3c110e79", "fusion_lon": 0.0}, {"rental_uris": {"ios": "https://dc.lft.to/lastmile_qr_scan", "android": "https://dc.lft.to/lastmile_qr_scan"}, "type": "electric_scooter", "name": "1aea7e1d0644c047e31052c5f8fd31dc", "is_reserved": 0, "lon": -77.0194805, "is_disabled": 0, "fusion_lat": 0.0, "lat": 38.95046966666666, "bike_id": "1aea7e1d0644c047e31052c5f8fd31dc", "fusion_lon": 0.0}, {"rental_uris": {"ios": "https://dc.lft.to/lastmile_qr_scan", "android": "https://dc.lft.to/lastmile_qr_scan"}, "type": "electric_bike", "name": "592635803d89553edadd9f9d788c8a27", "is_reserved": 0, "lon": -76.95158966666666, "is_disabled": 0, "fusion_lat": 0.0, "lat": 39.084368833333336, "bike_id": "592635803d89553edadd9f9d788c8a27", "fusion_lon": 0.0}, {"rental_uris": {"ios": "https://dc.lft.to/lastmile_qr_scan", "android": "https://dc.lft.to/lastmile_qr_scan"}, "type": "electric_scooter", "name": "d7cc4ece83fef020826633e3dc67296d", "is_reserved": 0, "lon": -77.02040216666667, "is_disabled": 0, "fusion_lat": 0.0, "lat": 38.894367333333335, "bike_id": "d7cc4ece83fef020826633e3dc67296d", "fusion_lon": 0.0}, {"rental_uris": {"ios": "https://dc.lft.to/lastmile_qr_scan", "android": "https://dc.lft.to/lastmile_qr_scan"}, "type": "electric_scooter", "name": "4bee9c16cd9f556e117a3e78f9ee8367", "is_reserved": 0, "lon": -77.01186433333334, "is_disabled": 0, "fusion_lat": 0.0, "lat": 38.951531833333334, "bike_id": "4bee9c16cd9f556e117a3e78f9ee8367", "fusion_lon": 0.0}, {"rental_uris": {"ios": "https://dc.lft.to/lastmile_qr_scan", "android": "https://dc.lft.to/lastmile_qr_scan"}, "type": "electric_scooter", "name": "29e185b5c1fedf82bc9f58bc84f081b7", "is_reserved": 0, "lon": -77.0264235, "is_disabled": 0, "fusion_lat": 0.0, "lat": 38.896134833333335, "bike_id": "29e185b5c1fedf82bc9f58bc84f081b7", "fusion_lon": 0.0}, {"rental_uris": {"ios": "https://dc.lft.to/lastmile_qr_scan", "android": "https://dc.lft.to/lastmile_qr_scan"}, "type": "electric_scooter", "name": "e083e463ba4878dfa59f7330e6ebd344", "is_reserved": 0, "lon": -77.0016005, "is_disabled": 0, "fusion_lat": 0.0, "lat": 38.821306166666666, "bike_id": "e083e463ba4878dfa59f7330e6ebd344", "fusion_lon": 0.0}, {"rental_uris": {"ios": "https://dc.lft.to/lastmile_qr_scan", "android": "https://dc.lft.to/lastmile_qr_scan"}, "type": "electric_scooter", "name": "a16dede075728f1ae77e9d7702deb1ba", "is_reserved": 0, "lon": -77.0756315, "is_disabled": 0, "fusion_lat": 0.0, "lat": 38.906407, "bike_id": "a16dede075728f1ae77e9d7702deb1ba", "fusion_lon": 0.0}, {"rental_uris": {"ios": "https://dc.lft.to/lastmile_qr_scan", "android": "https://dc.lft.to/lastmile_qr_scan"}, "type": "electric_scooter", "name": "3970a47ad86048327223617d2375391c", "is_reserved": 0, "lon": -76.9994705, "is_disabled": 0, "fusion_lat": 0.0, "lat": 38.890832833333334, "bike_id": "3970a47ad86048327223617d2375391c", "fusion_lon": 0.0}, {"rental_uris": {"ios": "https://dc.lft.to/lastmile_qr_scan", "android": "https://dc.lft.to/lastmile_qr_scan"}, "type": "electric_scooter", "name": "706161ee69494fcd6776258d5862967e", "is_reserved": 0, "lon": -77.01347216666667, "is_disabled": 0, "fusion_lat": 0.0, "lat": 38.919155833333335, "bike_id": "706161ee69494fcd6776258d5862967e", "fusion_lon": 0.0}, {"rental_uris": {"ios": "https://dc.lft.to/lastmile_qr_scan", "android": "https://dc.lft.to/lastmile_qr_scan"}, "type": "electric_scooter", "name": "d70cb579e7d3f6e669f3017c4b2570cb", "is_reserved": 0, "lon": -77.03477016666666, "is_disabled": 0, "fusion_lat": 0.0, "lat": 38.905719833333336, "bike_id": "d70cb579e7d3f6e669f3017c4b2570cb", "fusion_lon": 0.0}, {"rental_uris": {"ios": "https://dc.lft.to/lastmile_qr_scan", "android": "https://dc.lft.to/lastmile_qr_scan"}, "type": "electric_scooter", "name": "304ada7fdf797d127d8b42a7f9b14b6e", "is_reserved": 0, "lon": -77.07258633333333, "is_disabled": 0, "fusion_lat": 0.0, "lat": 38.9343845, "bike_id": "304ada7fdf797d127d8b42a7f9b14b6e", "fusion_lon": 0.0}, {"rental_uris": {"ios": "https://dc.lft.to/lastmile_qr_scan", "android": "https://dc.lft.to/lastmile_qr_scan"}, "type": "electric_bike", "name": "63e4647f89052764c59abd70325e1e05", "is_reserved": 0, "lon": -76.97541, "is_disabled": 0, "fusion_lat": 0.0, "lat": 38.904232666666665, "bike_id": "63e4647f89052764c59abd70325e1e05", "fusion_lon": 0.0}, {"rental_uris": {"ios": "https://dc.lft.to/lastmile_qr_scan", "android": "https://dc.lft.to/lastmile_qr_scan"}, "type": "electric_scooter", "name": "5ad8927d763fbbf4982ff81b269d8483", "is_reserved": 0, "lon": -77.032656, "is_disabled": 0, "fusion_lat": 0.0, "lat": 38.9288835, "bike_id": "5ad8927d763fbbf4982ff81b269d8483", "fusion_lon": 0.0}, {"rental_uris": {"ios": "https://dc.lft.to/lastmile_qr_scan", "android": "https://dc.lft.to/lastmile_qr_scan"}, "type": "electric_scooter", "name": "f72499cc8d56ac010b802b547cc11bd0", "is_reserved": 0, "lon": -77.05146083333334, "is_disabled": 0, "fusion_lat": 0.0, "lat": 38.923631, "bike_id": "f72499cc8d56ac010b802b547cc11bd0", "fusion_lon": 0.0}, {"rental_uris": {"ios": "https://dc.lft.to/lastmile_qr_scan", "android": "https://dc.lft.to/lastmile_qr_scan"}, "type": "electric_scooter", "name": "8a659224ef5ce9931674bd7e465c0517", "is_reserved": 0, "lon": -77.04504183333333, "is_disabled": 0, "fusion_lat": 0.0, "lat": 38.918572833333336, "bike_id": "8a659224ef5ce9931674bd7e465c0517", "fusion_lon": 0.0}, {"rental_uris": {"ios": "https://dc.lft.to/lastmile_qr_scan", "android": "https://dc.lft.to/lastmile_qr_scan"}, "type": "electric_scooter", "name": "1821c53a5706f91fc69bb26f2fd537ec", "is_reserved": 0, "lon": -77.0426425, "is_disabled": 0, "fusion_lat": 0.0, "lat": 38.904166833333335, "bike_id": "1821c53a5706f91fc69bb26f2fd537ec", "fusion_lon": 0.0}, {"rental_uris": {"ios": "https://dc.lft.to/lastmile_qr_scan", "android": "https://dc.lft.to/lastmile_qr_scan"}, "type": "electric_bike", "name": "8bfba5757e6dfbb49b8a27636187ee02", "is_reserved": 0, "lon": -77.098229, "is_disabled": 0, "fusion_lat": 0.0, "lat": 38.85013566666667, "bike_id": "8bfba5757e6dfbb49b8a27636187ee02", "fusion_lon": 0.0}, {"rental_uris": {"ios": "https://dc.lft.to/lastmile_qr_scan", "android": "https://dc.lft.to/lastmile_qr_scan"}, "type": "electric_bike", "name": "e46ab8ae387053dc42a221fb5e39ca6f", "is_reserved": 0, "lon": -77.00410383333333, "is_disabled": 0, "fusion_lat": 0.0, "lat": 38.98539816666667, "bike_id": "e46ab8ae387053dc42a221fb5e39ca6f", "fusion_lon": 0.0}, {"rental_uris": {"ios": "https://dc.lft.to/lastmile_qr_scan", "android": "https://dc.lft.to/lastmile_qr_scan"}, "type": "electric_scooter", "name": "749d32d79a86a6ecccbac5d42f9cb2f8", "is_reserved": 0, "lon": -77.04396616666666, "is_disabled": 0, "fusion_lat": 0.0, "lat": 38.9295055, "bike_id": "749d32d79a86a6ecccbac5d42f9cb2f8", "fusion_lon": 0.0}, {"rental_uris": {"ios": "https://dc.lft.to/lastmile_qr_scan", "android": "https://dc.lft.to/lastmile_qr_scan"}, "type": "electric_scooter", "name": "14042ee9a81c870a6115421b078e04aa", "is_reserved": 0, "lon": -77.025605, "is_disabled": 0, "fusion_lat": 0.0, "lat": 38.93095733333333, "bike_id": "14042ee9a81c870a6115421b078e04aa", "fusion_lon": 0.0}, {"rental_uris": {"ios": "https://dc.lft.to/lastmile_qr_scan", "android": "https://dc.lft.to/lastmile_qr_scan"}, "type": "electric_scooter", "name": "9f87c372cbc89b540c73a339f5a17394", "is_reserved": 0, "lon": -76.99938383333334, "is_disabled": 0, "fusion_lat": 0.0, "lat": 38.891679333333336, "bike_id": "9f87c372cbc89b540c73a339f5a17394", "fusion_lon": 0.0}, {"rental_uris": {"ios": "https://dc.lft.to/lastmile_qr_scan", "android": "https://dc.lft.to/lastmile_qr_scan"}, "type": "electric_scooter", "name": "384bb540024c29e4fe1b5aec826825a4", "is_reserved": 0, "lon": -77.013442, "is_disabled": 0, "fusion_lat": 0.0, "lat": 38.896288166666665, "bike_id": "384bb540024c29e4fe1b5aec826825a4", "fusion_lon": 0.0}, {"rental_uris": {"ios": "https://dc.lft.to/lastmile_qr_scan", "android": "https://dc.lft.to/lastmile_qr_scan"}, "type": "electric_scooter", "name": "dcc33a2697523cedf78291d93fbf648f", "is_reserved": 0, "lon": -76.93813966666667, "is_disabled": 0, "fusion_lat": 0.0, "lat": 38.898411, "bike_id": "dcc33a2697523cedf78291d93fbf648f", "fusion_lon": 0.0}, {"rental_uris": {"ios": "https://dc.lft.to/lastmile_qr_scan", "android": "https://dc.lft.to/lastmile_qr_scan"}, "type": "electric_scooter", "name": "f4d40b2133266c943ecf5f4a361bb3ed", "is_reserved": 0, "lon": -76.97549383333333, "is_disabled": 0, "fusion_lat": 0.0, "lat": 38.875771, "bike_id": "f4d40b2133266c943ecf5f4a361bb3ed", "fusion_lon": 0.0}, {"rental_uris": {"ios": "https://dc.lft.to/lastmile_qr_scan", "android": "https://dc.lft.to/lastmile_qr_scan"}, "type": "electric_scooter", "name": "eaef5fca194b0698b5ac0541031a3c95", "is_reserved": 0, "lon": -77.06501333333334, "is_disabled": 0, "fusion_lat": 0.0, "lat": 38.905185333333336, "bike_id": "eaef5fca194b0698b5ac0541031a3c95", "fusion_lon": 0.0}, {"rental_uris": {"ios": "https://dc.lft.to/lastmile_qr_scan", "android": "https://dc.lft.to/lastmile_qr_scan"}, "type": "electric_scooter", "name": "43edd6bba66270df1cadd2f9ad0985e7", "is_reserved": 0, "lon": -77.0386525, "is_disabled": 0, "fusion_lat": 0.0, "lat": 38.9108935, "bike_id": "43edd6bba66270df1cadd2f9ad0985e7", "fusion_lon": 0.0}, {"rental_uris": {"ios": "https://dc.lft.to/lastmile_qr_scan", "android": "https://dc.lft.to/lastmile_qr_scan"}, "type": "electric_scooter", "name": "d041d81e7bd078dbbfde259439c5b9f4", "is_reserved": 0, "lon": -76.95259783333333, "is_disabled": 0, "fusion_lat": 0.0, "lat": 38.892745, "bike_id": "d041d81e7bd078dbbfde259439c5b9f4", "fusion_lon": 0.0}, {"rental_uris": {"ios": "https://dc.lft.to/lastmile_qr_scan", "android": "https://dc.lft.to/lastmile_qr_scan"}, "type": "electric_scooter", "name": "f80a0d4cec2a7bdb161f2d343c11e20b", "is_reserved": 0, "lon": -76.94382983333334, "is_disabled": 0, "fusion_lat": 0.0, "lat": 38.89110866666667, "bike_id": "f80a0d4cec2a7bdb161f2d343c11e20b", "fusion_lon": 0.0}, {"rental_uris": {"ios": "https://dc.lft.to/lastmile_qr_scan", "android": "https://dc.lft.to/lastmile_qr_scan"}, "type": "electric_bike", "name": "80c3fe9409e724ace625f319e8579fcf", "is_reserved": 0, "lon": -77.070146, "is_disabled": 0, "fusion_lat": 0.0, "lat": 38.841091666666664, "bike_id": "80c3fe9409e724ace625f319e8579fcf", "fusion_lon": 0.0}, {"rental_uris": {"ios": "https://dc.lft.to/lastmile_qr_scan", "android": "https://dc.lft.to/lastmile_qr_scan"}, "type": "electric_scooter", "name": "db13b3e6a1335c084c6ad327ccc88bbb", "is_reserved": 0, "lon": -77.036099, "is_disabled": 0, "fusion_lat": 0.0, "lat": 38.9233815, "bike_id": "db13b3e6a1335c084c6ad327ccc88bbb", "fusion_lon": 0.0}, {"rental_uris": {"ios": "https://dc.lft.to/lastmile_qr_scan", "android": "https://dc.lft.to/lastmile_qr_scan"}, "type": "electric_scooter", "name": "7fcecaf4375732759ec17397b690d4c2", "is_reserved": 0, "lon": -77.02827016666667, "is_disabled": 0, "fusion_lat": 0.0, "lat": 38.89367416666666, "bike_id": "7fcecaf4375732759ec17397b690d4c2", "fusion_lon": 0.0}, {"rental_uris": {"ios": "https://dc.lft.to/lastmile_qr_scan", "android": "https://dc.lft.to/lastmile_qr_scan"}, "type": "electric_scooter", "name": "9e29482dec40cf1e8e7a454d150cb903", "is_reserved": 0, "lon": -76.946534, "is_disabled": 0, "fusion_lat": 0.0, "lat": 38.898307, "bike_id": "9e29482dec40cf1e8e7a454d150cb903", "fusion_lon": 0.0}, {"rental_uris": {"ios": "https://dc.lft.to/lastmile_qr_scan", "android": "https://dc.lft.to/lastmile_qr_scan"},