{"data": {"bikes": [{"lat": 38.92091466666667, "lon": -77.07552116666666, "is_disabled": 0, "fusion_lon": 0.0, "is_reserved": 0, "name": "61927741aec244639871ae94067ca7f9", "type": "electric_scooter", "bike_id": "61927741aec244639871ae94067ca7f9", "rental_uris": {"ios": "https://dc.lft.to/lastmile_qr_scan", "android": "https://dc.lft.to/lastmile_qr_scan"}, "fusion_lat": 0.0}, {"lat": 38.8921945, "lon": -77.02657116666667, "is_disabled": 0, "fusion_lon": 0.0, "is_reserved": 0, "name": "0054c060296de01db7c7f18545bb978d", "type": "electric_scooter", "bike_id": "0054c060296de01db7c7f18545bb978d", "rental_uris": {"ios": "https://dc.lft.to/lastmile_qr_scan", "android": "https://dc.lft.to/lastmile_qr_scan"}, "fusion_lat": 0.0}, {"lat": 38.919201666666666, "lon": -77.0120515, "is_disabled": 0, "fusion_lon": 0.0, "is_reserved": 0, "name": "1bde4b3b73370f318d278f3f189ba0df", "type": "electric_scooter", "bike_id": "1bde4b3b73370f318d278f3f189ba0df", "rental_uris": {"ios": "https://dc.lft.to/lastmile_qr_scan", "android": "https://dc.lft.to/lastmile_qr_scan"}, "fusion_lat": 0.0}, {"lat": 38.92500366666667, "lon": -77.024492, "is_disabled": 0, "fusion_lon": 0.0, "is_reserved": 0, "name": "3282dfc6d93cab6e78ca9ab5247dd3c1", "type": "electric_scooter", "bike_id": "3282dfc6d93cab6e78ca9ab5247dd3c1", "rental_uris": {"ios": "https://dc.lft.to/lastmile_qr_scan", "android": "https://dc.lft.to/lastmile_qr_scan"}, "fusion_lat": 0.0}, {"lat": 38.914927166666665, "lon": -77.01858033333333, "is_disabled": 0, "fusion_lon": 0.0, "is_reserved": 0, "name": "9175d1b6d128b89530666d839700eec0", "type": "electric_scooter", "bike_id": "9175d1b6d128b89530666d839700eec0", "rental_uris": {"ios": "https://dc.lft.to/lastmile_qr_scan", "android": "https://dc.lft.to/lastmile_qr_scan"}, "fusion_lat": 0.0}, {"lat": 38.879343666666664, "lon": -77.00386166666667, "is_disabled": 0, "fusion_lon": 0.0, "is_reserved": 0, "name": "c77878fe836670cb69cc86571071d29d", "type": "electric_scooter", "bike_id": "c77878fe836670cb69cc86571071d29d", "rental_uris": {"ios": "https://dc.lft.to/lastmile_qr_scan", "android": "https://dc.lft.to/lastmile_qr_scan"}, "fusion_lat": 0.0}, {"lat": 38.892915333333335, "lon": -76.9761715, "is_disabled": 0, "fusion_lon": 0.0, "is_reserved": 0, "name": "ac2049147e16bb5cad3fb586bf72cb58", "type": "electric_bike", "bike_id": "ac2049147e16bb5cad3fb586bf72cb58", "rental_uris": {"ios": "https://dc.lft.to/lastmile_qr_scan", "android": "https://dc.lft.to/lastmile_qr_scan"}, "fusion_lat": 0.0}, {"lat": 38.90656366666666, "lon": -77.03902983333333, "is_disabled": 0, "fusion_lon": 0.0, "is_reserved": 0, "name": "2dcba6f0e72faede56f304656e7e6b29", "type": "electric_scooter", "bike_id": "2dcba6f0e72faede56f304656e7e6b29", "rental_uris": {"ios": "https://dc.lft.to/lastmile_qr_scan", "android": "https://dc.lft.to/lastmile_qr_scan"}, "fusion_lat": 0.0}, {"lat": 38.92439, "lon": -77.02018766666667, "is_disabled": 0, "fusion_lon": 0.0, "is_reserved": 0, "name": "fddf313a5eced2340bac737749d4ef78", "type": "electric_scooter", "bike_id": "fddf313a5eced2340bac737749d4ef78", "rental_uris": {"ios": "https://dc.lft.to/lastmile_qr_scan", "android": "https://dc.lft.to/lastmile_qr_scan"}, "fusion_lat": 0.0}, {"lat": 38.899202333333335, "lon": -76.93379183333333, "is_disabled": 0, "fusion_lon": 0.0, "is_reserved": 0, "name": "0fd6a1fb8a24d6d7e3b2c47796bd733c", "type": "electric_scooter", "bike_id": "0fd6a1fb8a24d6d7e3b2c47796bd733c", "rental_uris": {"ios": "https://dc.lft.to/lastmile_qr_scan", "android": "https://dc.lft.to/lastmile_qr_scan"}, "fusion_lat": 0.0}, {"lat": 38.914775166666665, "lon": -77.02450733333333, "is_disabled": 0, "fusion_lon": 0.0, "is_reserved": 0, "name": "ee703200ad799ec2308f70c7c5ad3702", "type": "electric_scooter", "bike_id": "ee703200ad799ec2308f70c7c5ad3702", "rental_uris": {"ios": "https://dc.lft.to/lastmile_qr_scan", "android": "https://dc.lft.to/lastmile_qr_scan"}, "fusion_lat": 0.0}, {"lat": 38.90550666666667, "lon": -76.99468766666666, "is_disabled": 0, "fusion_lon": 0.0, "is_reserved": 0, "name": "f977636aacbd1c7e0eaeee963c3171b2", "type": "electric_scooter", "bike_id": "f977636aacbd1c7e0eaeee963c3171b2", "rental_uris": {"ios": "https://dc.lft.to/lastmile_qr_scan", "android": "https://dc.lft.to/lastmile_qr_scan"}, "fusion_lat": 0.0}, {"lat": 38.8828085, "lon": -76.97909516666667, "is_disabled": 0, "fusion_lon": 0.0, "is_reserved": 0, "name": "153d72a7d611facc5f0602be585931ba", "type": "electric_scooter", "bike_id": "153d72a7d611facc5f0602be585931ba", "rental_uris": {"ios": "https://dc.lft.to/lastmile_qr_scan", "android": "https://dc.lft.to/lastmile_qr_scan"}, "fusion_lat": 0.0}, {"lat": 38.92032533333333, "lon": -77.03863533333333, "is_disabled": 0, "fusion_lon": 0.0, "is_reserved": 0, "name": "db68126ced56252038ddee02f0540467", "type": "electric_scooter", "bike_id": "db68126ced56252038ddee02f0540467", "rental_uris": {"ios": "https://dc.lft.to/lastmile_qr_scan", "android": "https://dc.lft.to/lastmile_qr_scan"}, "fusion_lat": 0.0}, {"lat": 38.89810216666667, "lon": -77.03125616666667, "is_disabled": 0, "fusion_lon": 0.0, "is_reserved": 0, "name": "c285efb7f31b7f8cf6fd183ae5a3ebaf", "type": "electric_scooter", "bike_id": "c285efb7f31b7f8cf6fd183ae5a3ebaf", "rental_uris": {"ios": "https://dc.lft.to/lastmile_qr_scan", "android": "https://dc.lft.to/lastmile_qr_scan"}, "fusion_lat": 0.0}, {"lat": 38.93612266666667, "lon": -77.031893, "is_disabled": 0, "fusion_lon": 0.0, "is_reserved": 0, "name": "b3466ac6a6d2978760341baed7f4daab", "type": "electric_scooter", "bike_id": "b3466ac6a6d2978760341baed7f4daab", "rental_uris": {"ios": "https://dc.lft.to/lastmile_qr_scan", "android": "https://dc.lft.to/lastmile_qr_scan"}, "fusion_lat": 0.0}, {"lat": 38.931944333333334, "lon": -77.03462383333333, "is_disabled": 0, "fusion_lon": 0.0, "is_reserved": 0, "name": "d2ebd70c259323e53e5d48df25e2ff6c", "type": "electric_scooter", "bike_id": "d2ebd70c259323e53e5d48df25e2ff6c", "rental_uris": {"ios": "https://dc.lft.to/lastmile_qr_scan", "android": "https://dc.lft.to/lastmile_qr_scan"}, "fusion_lat": 0.0}, {"lat": 38.95731966666666, "lon": -77.0240375, "is_disabled": 0, "fusion_lon": 0.0, "is_reserved": 0, "name": "f2698d5733558154ca500013d60a4159", "type": "electric_scooter", "bike_id": "f2698d5733558154ca500013d60a4159", "rental_uris": {"ios": "https://dc.lft.to/lastmile_qr_scan", "android": "https://dc.lft.to/lastmile_qr_scan"}, "fusion_lat": 0.0}, {"lat": 38.93722366666667, "lon": -77.03258266666667, "is_disabled": 0, "fusion_lon": 0.0, "is_reserved": 0, "name": "01255b5db8fee06d4169bb1f1371271f", "type": "electric_scooter", "bike_id": "01255b5db8fee06d4169bb1f1371271f", "rental_uris": {"ios": "https://dc.lft.to/lastmile_qr_scan", "android": "https://dc.lft.to/lastmile_qr_scan"}, "fusion_lat": 0.0}, {"lat": 38.916940833333335, "lon": -77.02887816666667, "is_disabled": 0, "fusion_lon": 0.0, "is_reserved": 0, "name": "e0e1b382e76ad2cc1a57a3ce49ad9607", "type": "electric_scooter", "bike_id": "e0e1b382e76ad2cc1a57a3ce49ad9607", "rental_uris": {"ios": "https://dc.lft.to/lastmile_qr_scan", "android": "https://dc.lft.to/lastmile_qr_scan"}, "fusion_lat": 0.0}, {"lat": 38.89737683333333, "lon": -77.04358483333333, "is_disabled": 0, "fusion_lon": 0.0, "is_reserved": 0, "name": "e768b0256e018c51ec8910f76862d9f6", "type": "electric_scooter", "bike_id": "e768b0256e018c51ec8910f76862d9f6", "rental_uris": {"ios": "https://dc.lft.to/lastmile_qr_scan", "android": "https://dc.lft.to/lastmile_qr_scan"}, "fusion_lat": 0.0}, {"lat": 38.89224383333333, "lon": -77.04467883333334, "is_disabled": 0, "fusion_lon": 0.0, "is_reserved": 0, "name": "e849e00dc2b32e1d79e9aa24aee495c6", "type": "electric_scooter", "bike_id": "e849e00dc2b32e1d79e9aa24aee495c6", "rental_uris": {"ios": "https://dc.lft.to/lastmile_qr_scan", "android": "https://dc.lft.to/lastmile_qr_scan"}, "fusion_lat": 0.0}, {"lat": 38.956324, "lon": -77.03311916666667, "is_disabled": 0, "fusion_lon": 0.0, "is_reserved": 0, "name": "66f64aa980894cd3af9479d617c3fff6", "type": "electric_scooter", "bike_id": "66f64aa980894cd3af9479d617c3fff6", "rental_uris": {"ios": "https://dc.lft.to/lastmile_qr_scan", "android": "https://dc.lft.to/lastmile_qr_scan"}, "fusion_lat": 0.0}, {"lat": 38.93912316666667, "lon": -77.0249955, "is_disabled": 0, "fusion_lon": 0.0, "is_reserved": 0, "name": "3c9df10912b527d1be6ae3935a9fb50a", "type": "electric_scooter", "bike_id": "3c9df10912b527d1be6ae3935a9fb50a", "rental_uris": {"ios": "https://dc.lft.to/lastmile_qr_scan", "android": "https://dc.lft.to/lastmile_qr_scan"}, "fusion_lat": 0.0}, {"lat": 38.90602416666667, "lon": -77.04354383333333, "is_disabled": 0, "fusion_lon": 0.0, "is_reserved": 0, "name": "771ef88c5fda995956270c3d182f8562", "type": "electric_scooter", "bike_id": "771ef88c5fda995956270c3d182f8562", "rental_uris": {"ios": "https://dc.lft.to/lastmile_qr_scan", "android": "https://dc.lft.to/lastmile_qr_scan"}, "fusion_lat": 0.0}, {"lat": 38.90520433333333, "lon": -77.06598533333333, "is_disabled": 0, "fusion_lon": 0.0, "is_reserved": 0, "name": "bf1d6652442c871850f652378ada592d", "type": "electric_scooter", "bike_id": "bf1d6652442c871850f652378ada592d", "rental_uris": {"ios": "https://dc.lft.to/lastmile_qr_scan", "android": "https://dc.lft.to/lastmile_qr_scan"}, "fusion_lat": 0.0}, {"lat": 38.92322866666667, "lon": -77.04212266666667, "is_disabled": 0, "fusion_lon": 0.0, "is_reserved": 0, "name": "fb44a0bf44e38c6dbc77aa5d7ca543d5", "type": "electric_scooter", "bike_id": "fb44a0bf44e38c6dbc77aa5d7ca543d5", "rental_uris": {"ios": "https://dc.lft.to/lastmile_qr_scan", "android": "https://dc.lft.to/lastmile_qr_scan"}, "fusion_lat": 0.0}, {"lat": 38.9113965, "lon": -77.03837133333333, "is_disabled": 0, "fusion_lon": 0.0, "is_reserved": 0, "name": "a5815d838973d7f6057af06a19125b51", "type": "electric_scooter", "bike_id": "a5815d838973d7f6057af06a19125b51", "rental_uris": {"ios": "https://dc.lft.to/lastmile_qr_scan", "android": "https://dc.lft.to/lastmile_qr_scan"}, "fusion_lat": 0.0}, {"lat": 38.8950845, "lon": -77.04655283333334, "is_disabled": 0, "fusion_lon": 0.0, "is_reserved": 0, "name": "a3d3298aa664213bfe5d9315f218fb8e", "type": "electric_scooter", "bike_id": "a3d3298aa664213bfe5d9315f218fb8e", "rental_uris": {"ios": "https://dc.lft.to/lastmile_qr_scan", "android": "https://dc.lft.to/lastmile_qr_scan"}, "fusion_lat": 0.0}, {"lat": 38.900751166666666, "lon": -77.013355, "is_disabled": 0, "fusion_lon": 0.0, "is_reserved": 0, "name": "4883aad23d907a8770d788c777fcc38c", "type": "electric_scooter", "bike_id": "4883aad23d907a8770d788c777fcc38c", "rental_uris": {"ios": "https://dc.lft.to/lastmile_qr_scan", "android": "https://dc.lft.to/lastmile_qr_scan"}, "fusion_lat": 0.0}, {"lat": 38.87223733333333, "lon": -77.00567266666667, "is_disabled": 0, "fusion_lon": 0.0, "is_reserved": 0, "name": "a6ce19df22e9c411875700fcb833b0c4", "type": "electric_scooter", "bike_id": "a6ce19df22e9c411875700fcb833b0c4", "rental_uris": {"ios": "https://dc.lft.to/lastmile_qr_scan", "android": "https://dc.lft.to/lastmile_qr_scan"}, "fusion_lat": 0.0}, {"lat": 38.898428833333334, "lon": -77.04096516666667, "is_disabled": 0, "fusion_lon": 0.0, "is_reserved": 0, "name": "2a7e8d66e5dfa5773e5a99fa6a72e628", "type": "electric_scooter", "bike_id": "2a7e8d66e5dfa5773e5a99fa6a72e628", "rental_uris": {"ios": "https://dc.lft.to/lastmile_qr_scan", "android": "https://dc.lft.to/lastmile_qr_scan"}, "fusion_lat": 0.0}, {"lat": 38.91277816666667, "lon": -77.03543516666667, "is_disabled": 0, "fusion_lon": 0.0, "is_reserved": 0, "name": "57a48f1259295f3a1ea7bcb0741c186f", "type": "electric_scooter", "bike_id": "57a48f1259295f3a1ea7bcb0741c186f", "rental_uris": {"ios": "https://dc.lft.to/lastmile_qr_scan", "android": "https://dc.lft.to/lastmile_qr_scan"}, "fusion_lat": 0.0}, {"lat": 38.89915283333333, "lon": -77.013778, "is_disabled": 0, "fusion_lon": 0.0, "is_reserved": 0, "name": "7b2c83618a0f8692d356b216e0219400", "type": "electric_scooter", "bike_id": "7b2c83618a0f8692d356b216e0219400", "rental_uris": {"ios": "https://dc.lft.to/lastmile_qr_scan", "android": "https://dc.lft.to/lastmile_qr_scan"}, "fusion_lat": 0.0}, {"lat": 38.95438683333333, "lon": -77.01852533333333, "is_disabled": 0, "fusion_lon": 0.0, "is_reserved": 0, "name": "646f8c54dc5a55a37ed13c9894942453", "type": "electric_scooter", "bike_id": "646f8c54dc5a55a37ed13c9894942453", "rental_uris": {"ios": "https://dc.lft.to/lastmile_qr_scan", "android": "https://dc.lft.to/lastmile_qr_scan"}, "fusion_lat": 0.0}, {"lat": 38.89483366666666, "lon": -76.98601, "is_disabled": 0, "fusion_lon": 0.0, "is_reserved": 0, "name": "334f4a115e6b23af232deee409a57cb9", "type": "electric_scooter", "bike_id": "334f4a115e6b23af232deee409a57cb9", "rental_uris": {"ios": "https://dc.lft.to/lastmile_qr_scan", "android": "https://dc.lft.to/lastmile_qr_scan"}, "fusion_lat": 0.0}, {"lat": 38.876784666666666, "lon": -77.003477, "is_disabled": 0, "fusion_lon": 0.0, "is_reserved": 0, "name": "80d8cdf608dcb503d82cfd5f4479525a", "type": "electric_scooter", "bike_id": "80d8cdf608dcb503d82cfd5f4479525a", "rental_uris": {"ios": "https://dc.lft.to/lastmile_qr_scan", "android": "https://dc.lft.to/lastmile_qr_scan"}, "fusion_lat": 0.0}, {"lat": 38.919270833333336, "lon": -77.03152833333333, "is_disabled": 0, "fusion_lon": 0.0, "is_reserved": 0, "name": "57051da1cab284667be71a430719a012", "type": "electric_scooter", "bike_id": "57051da1cab284667be71a430719a012", "rental_uris": {"ios": "https://dc.lft.to/lastmile_qr_scan", "android": "https://dc.lft.to/lastmile_qr_scan"}, "fusion_lat": 0.0}, {"lat": 38.846186833333334, "lon": -76.96910216666667, "is_disabled": 0, "fusion_lon": 0.0, "is_reserved": 0, "name": "03383200ed88408aa885c6e145989095", "type": "electric_bike", "bike_id": "03383200ed88408aa885c6e145989095", "rental_uris": {"ios": "https://dc.lft.to/lastmile_qr_scan", "android": "https://dc.lft.to/lastmile_qr_scan"}, "fusion_lat": 0.0}, {"lat": 38.88738716666667, "lon": -77.02377816666667, "is_disabled": 0, "fusion_lon": 0.0, "is_reserved": 0, "name": "990c86448eb7115201c209e1d045eb21", "type": "electric_scooter", "bike_id": "990c86448eb7115201c209e1d045eb21", "rental_uris": {"ios": "https://dc.lft.to/lastmile_qr_scan", "android": "https://dc.lft.to/lastmile_qr_scan"}, "fusion_lat": 0.0}, {"lat": 38.920518333333334, "lon": -77.04187616666667, "is_disabled": 0, "fusion_lon": 0.0, "is_reserved": 0, "name": "c24aa2a7b1a47e0da52d45c09fe90681", "type": "electric_scooter", "bike_id": "c24aa2a7b1a47e0da52d45c09fe90681", "rental_uris": {"ios": "https://dc.lft.to/lastmile_qr_scan", "android": "https://dc.lft.to/lastmile_qr_scan"}, "fusion_lat": 0.0}, {"lat": 38.892241166666665, "lon": -77.043312, "is_disabled": 0, "fusion_lon": 0.0, "is_reserved": 0, "name": "9e0a5cea899831a4d14f2e05b38162c7", "type": "electric_scooter", "bike_id": "9e0a5cea899831a4d14f2e05b38162c7", "rental_uris": {"ios": "https://dc.lft.to/lastmile_qr_scan", "android": "https://dc.lft.to/lastmile_qr_scan"}, "fusion_lat": 0.0}, {"lat": 38.908817166666665, "lon": -77.032601, "is_disabled": 0, "fusion_lon": 0.0, "is_reserved": 0, "name": "588bdcc39cd2996f005d850ac4766d07", "type": "electric_scooter", "bike_id": "588bdcc39cd2996f005d850ac4766d07", "rental_uris": {"ios": "https://dc.lft.to/lastmile_qr_scan", "android": "https://dc.lft.to/lastmile_qr_scan"}, "fusion_lat": 0.0}, {"lat": 38.911348333333336, "lon": -77.02196583333334, "is_disabled": 0, "fusion_lon": 0.0, "is_reserved": 0, "name": "543d2c216b7b9d4b61ed1186521a1c6c", "type": "electric_scooter", "bike_id": "543d2c216b7b9d4b61ed1186521a1c6c", "rental_uris": {"ios": "https://dc.lft.to/lastmile_qr_scan", "android": "https://dc.lft.to/lastmile_qr_scan"}, "fusion_lat": 0.0}, {"lat": 38.90716916666667, "lon": -77.07612533333334, "is_disabled": 0, "fusion_lon": 0.0, "is_reserved": 0, "name": "aff59e7ad6e9b37c989f504d83595378", "type": "electric_scooter", "bike_id": "aff59e7ad6e9b37c989f504d83595378", "rental_uris": {"ios": "https://dc.lft.to/lastmile_qr_scan", "android": "https://dc.lft.to/lastmile_qr_scan"}, "fusion_lat": 0.0}, {"lat": 38.90914583333333, "lon": -77.04211466666666, "is_disabled": 0, "fusion_lon": 0.0, "is_reserved": 0, "name": "b858b9653f2d72b5605e23e1f88f546e", "type": "electric_scooter", "bike_id": "b858b9653f2d72b5605e23e1f88f546e", "rental_uris": {"ios": "https://dc.lft.to/lastmile_qr_scan", "android": "https://dc.lft.to/lastmile_qr_scan"}, "fusion_lat": 0.0}, {"lat": 38.994954666666665, "lon": -77.07791333333333, "is_disabled": 0, "fusion_lon": 0.0, "is_reserved": 0, "name": "2fa145e0966ee320537d44e7143b6b1b", "type": "electric_bike", "bike_id": "2fa145e0966ee320537d44e7143b6b1b", "rental_uris": {"ios": "https://dc.lft.to/lastmile_qr_scan", "android": "https://dc.lft.to/lastmile_qr_scan"}, "fusion_lat": 0.0}, {"lat": 38.91419916666667, "lon": -77.021804, "is_disabled": 0, "fusion_lon": 0.0, "is_reserved": 0, "name": "9d6e977c4cbb1f9a9ad36ea19f4ffe20", "type": "electric_scooter", "bike_id": "9d6e977c4cbb1f9a9ad36ea19f4ffe20", "rental_uris": {"ios": "https://dc.lft.to/lastmile_qr_scan", "android": "https://dc.lft.to/lastmile_qr_scan"}, "fusion_lat": 0.0}, {"lat": 38.92416766666667, "lon": -77.0201365, "is_disabled": 0, "fusion_lon": 0.0, "is_reserved": 0, "name": "495fcf881974dbdf259787ab540021cf", "type": "electric_scooter", "bike_id": "495fcf881974dbdf259787ab540021cf", "rental_uris": {"ios": "https://dc.lft.to/lastmile_qr_scan", "android": "https://dc.lft.to/lastmile_qr_scan"}, "fusion_lat": 0.0}, {"lat": 38.918819666666664, "lon": -77.04314433333333, "is_disabled": 0, "fusion_lon": 0.0, "is_reserved": 0, "name": "d69ce6cbde7da7f5e2dd8c437b8f5357", "type": "electric_scooter", "bike_id": "d69ce6cbde7da7f5e2dd8c437b8f5357", "rental_uris": {"ios": "https://dc.lft.to/lastmile_qr_scan", "android": "https://dc.lft.to/lastmile_qr_scan"}, "fusion_lat": 0.0}, {"lat": 38.877393833333336, "lon": -77.11851633333333, "is_disabled": 0, "fusion_lon": 0.0, "is_reserved": 0, "name": "a41a21ccb80f83d3ab645f0b5ef32ead", "type": "electric_bike", "bike_id": "a41a21ccb80f83d3ab645f0b5ef32ead", "rental_uris": {"ios": "https://dc.lft.to/lastmile_qr_scan", "android": "https://dc.lft.to/lastmile_qr_scan"}, "fusion_lat": 0.0}, {"lat": 38.903989833333334, "lon": -77.06013916666667, "is_disabled": 0, "fusion_lon": 0.0, "is_reserved": 0, "name": "ec867c2aed973b3630a71b6f6a64738f", "type": "electric_scooter", "bike_id": "ec867c2aed973b3630a71b6f6a64738f", "rental_uris": {"ios": "https://dc.lft.to/lastmile_qr_scan", "android": "https://dc.lft.to/lastmile_qr_scan"}, "fusion_lat": 0.0}, {"lat": 38.90374383333333, "lon": -77.04483616666667, "is_disabled": 0, "fusion_lon": 0.0, "is_reserved": 0, "name": "9a81c6aae9dd96f0a49c81fd2c7d5455", "type": "electric_scooter", "bike_id": "9a81c6aae9dd96f0a49c81fd2c7d5455", "rental_uris": {"ios": "https://dc.lft.to/lastmile_qr_scan", "android": "https://dc.lft.to/lastmile_qr_scan"}, "fusion_lat": 0.0}, {"lat": 38.90377316666667, "lon": -77.03852533333334, "is_disabled": 0, "fusion_lon": 0.0, "is_reserved": 0, "name": "c28788f3c0539e8a34f7b2854fee6f72", "type": "electric_scooter", "bike_id": "c28788f3c0539e8a34f7b2854fee6f72", "rental_uris": {"ios": "https://dc.lft.to/lastmile_qr_scan", "android": "https://dc.lft.to/lastmile_qr_scan"}, "fusion_lat": 0.0}, {"lat": 38.9029965, "lon": -77.03432166666667, "is_disabled": 0, "fusion_lon": 0.0, "is_reserved": 0, "name": "b5d4163e3f4f3ad51de857814f46762f", "type": "electric_scooter", "bike_id": "b5d4163e3f4f3ad51de857814f46762f", "rental_uris": {"ios": "https://dc.lft.to/lastmile_qr_scan", "android": "https://dc.lft.to/lastmile_qr_scan"}, "fusion_lat": 0.0}, {"lat": 38.8791745, "lon": -77.00200633333333, "is_disabled": 0, "fusion_lon": 0.0, "is_reserved": 0, "name": "f974ba62bf16170d20e6ca08b93daa22", "type": "electric_scooter", "bike_id": "f974ba62bf16170d20e6ca08b93daa22", "rental_uris": {"ios": "https://dc.lft.to/lastmile_qr_scan", "android": "https://dc.lft.to/lastmile_qr_scan"}, "fusion_lat": 0.0}, {"lat": 38.91826416666667, "lon": -77.02413666666666, "is_disabled": 0, "fusion_lon": 0.0, "is_reserved": 0, "name": "9b4daefb71d4b3a46371361e6ae7fa5c", "type": "electric_scooter", "bike_id": "9b4daefb71d4b3a46371361e6ae7fa5c", "rental_uris": {"ios": "https://dc.lft.to/lastmile_qr_scan", "android": "https://dc.lft.to/lastmile_qr_scan"}, "fusion_lat": 0.0}, {"lat": 38.9003235, "lon": -77.0020395, "is_disabled": 0, "fusion_lon": 0.0, "is_reserved": 0, "name": "2574695d465737d626b44920fbe240f9", "type": "electric_scooter", "bike_id": "2574695d465737d626b44920fbe240f9", "rental_uris": {"ios": "https://dc.lft.to/lastmile_qr_scan", "android": "https://dc.lft.to/lastmile_qr_scan"}, "fusion_lat": 0.0}, {"lat": 38.905547, "lon": -77.04168316666667, "is_disabled": 0, "fusion_lon": 0.0, "is_reserved": 0, "name": "dd723f2a48dab44efab9ede951ad4508", "type": "electric_scooter", "bike_id": "dd723f2a48dab44efab9ede951ad4508", "rental_uris": {"ios": "https://dc.lft.to/lastmile_qr_scan", "android": "https://dc.lft.to/lastmile_qr_scan"}, "fusion_lat": 0.0}, {"lat": 38.87725066666667, "lon": -77.01753733333334, "is_disabled": 0, "fusion_lon": 0.0, "is_reserved": 0, "name": "93f0371c0a93b3b4ccb923974d5db646", "type": "electric_scooter", "bike_id": "93f0371c0a93b3b4ccb923974d5db646", "rental_uris": {"ios": "https://dc.lft.to/lastmile_qr_scan", "android": "https://dc.lft.to/lastmile_qr_scan"}, "fusion_lat": 0.0}, {"lat": 38.902068666666665, "lon": -77.0234635, "is_disabled": 0, "fusion_lon": 0.0, "is_reserved": 0, "name": "929742a468426146755a2fdd49d27bca", "type": "electric_scooter", "bike_id": "929742a468426146755a2fdd49d27bca", "rental_uris": {"ios": "https://dc.lft.to/lastmile_qr_scan", "android": "https://dc.lft.to/lastmile_qr_scan"}, "fusion_lat": 0.0}, {"lat": 38.89507116666667, "lon": -77.01081933333333, "is_disabled": 0, "fusion_lon": 0.0, "is_reserved": 0, "name": "21721c79e5cac3f1cb7925bc5015b5bc", "type": "electric_scooter", "bike_id": "21721c79e5cac3f1cb7925bc5015b5bc", "rental_uris": {"ios": "https://dc.lft.to/lastmile_qr_scan", "android": "https://dc.lft.to/lastmile_qr_scan"}, "fusion_lat": 0.0}, {"lat": 38.917113, "lon": -76.97645933333334, "is_disabled": 0, "fusion_lon": 0.0, "is_reserved": 0, "name": "1999ac61ba4152f6c1e095cd16d6b4e7", "type": "electric_scooter", "bike_id": "1999ac61ba4152f6c1e095cd16d6b4e7", "rental_uris": {"ios": "https://dc.lft.to/lastmile_qr_scan", "android": "https://dc.lft.to/lastmile_qr_scan"}, "fusion_lat": 0.0}, {"lat": 38.8872965, "lon": -77.02835033333334, "is_disabled": 0, "fusion_lon": 0.0, "is_reserved": 0, "name": "bc9a67dc3eb3506e0f60c3055592e4da", "type": "electric_scooter", "bike_id": "bc9a67dc3eb3506e0f60c3055592e4da", "rental_uris": {"ios": "https://dc.lft.to/lastmile_qr_scan", "android": "https://dc.lft.to/lastmile_qr_scan"}, "fusion_lat": 0.0}, {"lat": 38.902764833333336, "lon": -77.033323, "is_disabled": 0, "fusion_lon": 0.0, "is_reserved": 0, "name": "9d5e226553ac5b0b81bebb5e0eb90976", "type": "electric_scooter", "bike_id": "9d5e226553ac5b0b81bebb5e0eb90976", "rental_uris": {"ios": "https://dc.lft.to/lastmile_qr_scan", "android": "https://dc.lft.to/lastmile_qr_scan"}, "fusion_lat": 0.0}, {"lat": 38.902742333333336, "lon": -76.9288865, "is_disabled": 0, "fusion_lon": 0.0, "is_reserved": 0, "name": "267e7bd2f070cc6fe777120f592304a8", "type": "electric_scooter", "bike_id": "267e7bd2f070cc6fe777120f592304a8", "rental_uris": {"ios": "https://dc.lft.to/lastmile_qr_scan", "android": "https://dc.lft.to/lastmile_qr_scan"}, "fusion_lat": 0.0}, {"lat": 38.934266, "lon": -77.032882, "is_disabled": 0, "fusion_lon": 0.0, "is_reserved": 0, "name": "ddc08cb9db25228706298dfd9c6d1af5", "type": "electric_scooter", "bike_id": "ddc08cb9db25228706298dfd9c6d1af5", "rental_uris": {"ios": "https://dc.lft.to/lastmile_qr_scan", "android": "https://dc.lft.to/lastmile_qr_scan"}, "fusion_lat": 0.0}, {"lat": 38.871053833333335, "lon": -76.96577383333333, "is_disabled": 0, "fusion_lon": 0.0, "is_reserved": 0, "name": "58c1cd6b55e53795916a199ae97790de", "type": "electric_scooter", "bike_id": "58c1cd6b55e53795916a199ae97790de", "rental_uris": {"ios": "https://dc.lft.to/lastmile_qr_scan", "android": "https://dc.lft.to/lastmile_qr_scan"}, "fusion_lat": 0.0}, {"lat": 38.9283545, "lon": -76.9958685, "is_disabled": 0, "fusion_lon": 0.0, "is_reserved": 0, "name": "59405ef2b4990126353041c6088bf0d5", "type": "electric_scooter", "bike_id": "59405ef2b4990126353041c6088bf0d5", "rental_uris": {"ios": "https://dc.lft.to/lastmile_qr_scan", "android": "https://dc.lft.to/lastmile_qr_scan"}, "fusion_lat": 0.0}, {"lat": 38.9239215, "lon": -77.0274405, "is_disabled": 0, "fusion_lon": 0.0, "is_reserved": 0, "name": "90e805c374b0f5043c12e1c003238edf", "type": "electric_scooter", "bike_id": "90e805c374b0f5043c12e1c003238edf", "rental_uris": {"ios": "https://dc.lft.to/lastmile_qr_scan", "android": "https://dc.lft.to/lastmile_qr_scan"}, "fusion_lat": 0.0}, {"lat": 38.90385766666667, "lon": -77.04682533333333, "is_disabled": 0, "fusion_lon": 0.0, "is_reserved": 0, "name": "638d8b742274aef562251de85a89c6ae", "type": "electric_scooter", "bike_id": "638d8b742274aef562251de85a89c6ae", "rental_uris": {"ios": "https://dc.lft.to/lastmile_qr_scan", "android": "https://dc.lft.to/lastmile_qr_scan"}, "fusion_lat": 0.0}, {"lat": 38.88419583333334, "lon": -77.0175535, "is_disabled": 0, "fusion_lon": 0.0, "is_reserved": 0, "name": "f34f19fb384ccebfa5c2feac2353d383", "type": "electric_scooter", "bike_id": "f34f19fb384ccebfa5c2feac2353d383", "rental_uris": {"ios": "https://dc.lft.to/lastmile_qr_scan", "android": "https://dc.lft.to/lastmile_qr_scan"}, "fusion_lat": 0.0}, {"lat": 38.9229315, "lon": -77.03665633333334, "is_disabled": 0, "fusion_lon": 0.0, "is_reserved": 0, "name": "eb214808ed2f185189a5718fe14789be", "type": "electric_scooter", "bike_id": "eb214808ed2f185189a5718fe14789be", "rental_uris": {"ios": "https://dc.lft.to/lastmile_qr_scan", "android": "https://dc.lft.to/lastmile_qr_scan"}, "fusion_lat": 0.0}, {"lat": 38.92329133333333, "lon": -77.0228745, "is_disabled": 0, "fusion_lon": 0.0, "is_reserved": 0, "name": "1592fa705108f3e3f5d60c651c84ca8c", "type": "electric_scooter", "bike_id": "1592fa705108f3e3f5d60c651c84ca8c", "rental_uris": {"ios": "https://dc.lft.to/lastmile_qr_scan", "android": "https://dc.lft.to/lastmile_qr_scan"}, "fusion_lat": 0.0}, {"lat": 38.9287005, "lon": -77.03663866666666, "is_disabled": 0, "fusion_lon": 0.0, "is_reserved": 0, "name": "b1308312411124dd1a6e723dbd2ca7bf", "type": "electric_scooter", "bike_id": "b1308312411124dd1a6e723dbd2ca7bf", "rental_uris": {"ios": "https://dc.lft.to/lastmile_qr_scan", "android": "https://dc.lft.to/lastmile_qr_scan"}, "fusion_lat": 0.0}, {"lat": 38.90993016666667, "lon": -77.02222316666666, "is_disabled": 0, "fusion_lon": 0.0, "is_reserved": 0, "name": "48e23aca67422723289832e2caf7f4af", "type": "electric_scooter", "bike_id": "48e23aca67422723289832e2caf7f4af", "rental_uris": {"ios": "https://dc.lft.to/lastmile_qr_scan", "android": "https://dc.lft.to/lastmile_qr_scan"}, "fusion_lat": 0.0}, {"lat": 39.0342565, "lon": -77.04298983333334, "is_disabled": 0, "fusion_lon": 0.0, "is_reserved": 0, "name": "9835a9075a97ddb91601ef5efdbd6b38", "type": "electric_bike", "bike_id": "9835a9075a97ddb91601ef5efdbd6b38", "rental_uris": {"ios": "https://dc.lft.to/lastmile_qr_scan", "android": "https://dc.lft.to/lastmile_qr_scan"}, "fusion_lat": 0.0}, {"lat": 38.8606645, "lon": -76.96713633333333, "is_disabled": 0, "fusion_lon": 0.0, "is_reserved": 0, "name": "d1c59c4a88be0f26d7571e13a256dc2d", "type": "electric_scooter", "bike_id": "d1c59c4a88be0f26d7571e13a256dc2d", "rental_uris": {"ios": "https://dc.lft.to/lastmile_qr_scan", "android": "https://dc.lft.to/lastmile_qr_scan"}, "fusion_lat": 0.0}, {"lat": 38.91611783333333, "lon": -77.01154766666667, "is_disabled": 0, "fusion_lon": 0.0, "is_reserved": 0, "name": "6487972f1185c4e18a444beb8a2c8950", "type": "electric_scooter", "bike_id": "6487972f1185c4e18a444beb8a2c8950", "rental_uris": {"ios": "https://dc.lft.to/lastmile_qr_scan", "android": "https://dc.lft.to/lastmile_qr_scan"}, "fusion_lat": 0.0}, {"lat": 38.90669833333333, "lon": -77.05016983333333, "is_disabled": 0, "fusion_lon": 0.0, "is_reserved": 0, "name": "76bcf5ae9c9554334415bd5bfc4a2a1d", "type": "electric_scooter", "bike_id": "76bcf5ae9c9554334415bd5bfc4a2a1d", "rental_uris": {"ios": "https://dc.lft.to/lastmile_qr_scan", "android": "https://dc.lft.to/lastmile_qr_scan"}, "fusion_lat": 0.0}, {"lat": 38.874875833333334, "lon": -77.00594433333333, "is_disabled": 0, "fusion_lon": 0.0, "is_reserved": 0, "name": "ee513f3433db4a7bd3d44bc026c7f287", "type": "electric_scooter", "bike_id": "ee513f3433db4a7bd3d44bc026c7f287", "rental_uris": {"ios": "https://dc.lft.to/lastmile_qr_scan", "android": "https://dc.lft.to/lastmile_qr_scan"}, "fusion_lat": 0.0}, {"lat": 38.9000665, "lon": -77.05538, "is_disabled": 0, "fusion_lon": 0.0, "is_reserved": 0, "name": "cd383916257bbf065b91e86411bbf653", "type": "electric_scooter", "bike_id": "cd383916257bbf065b91e86411bbf653", "rental_uris": {"ios": "https://dc.lft.to/lastmile_qr_scan", "android": "https://dc.lft.to/lastmile_qr_scan"}, "fusion_lat": 0.0}, {"lat": 38.87681216666667, "lon": -76.997121, "is_disabled": 0, "fusion_lon": 0.0, "is_reserved": 0, "name": "81cb717a5f722d9bda9c1f8dffff61ff", "type": "electric_scooter", "bike_id": "81cb717a5f722d9bda9c1f8dffff61ff", "rental_uris": {"ios": "https://dc.lft.to/lastmile_qr_scan", "android": "https://dc.lft.to/lastmile_qr_scan"}, "fusion_lat": 0.0}, {"lat": 38.919166, "lon": -77.02729466666666, "is_disabled": 0, "fusion_lon": 0.0, "is_reserved": 0, "name": "5c8e9a9b21f8c52f444feeb041f9eb95", "type": "electric_scooter", "bike_id": "5c8e9a9b21f8c52f444feeb041f9eb95", "rental_uris": {"ios": "https://dc.lft.to/lastmile_qr_scan", "android": "https://dc.lft.to/lastmile_qr_scan"}, "fusion_lat": 0.0}, {"lat": 38.86891383333333, "lon": -76.99002933333334, "is_disabled": 0, "fusion_lon": 0.0, "is_reserved": 0, "name": "291e211986db60ba0fb29f3d3a68c5cc", "type": "electric_scooter", "bike_id": "291e211986db60ba0fb29f3d3a68c5cc", "rental_uris": {"ios": "https://dc.lft.to/lastmile_qr_scan", "android": "https://dc.lft.to/lastmile_qr_scan"}, "fusion_lat": 0.0}, {"lat": 38.89668, "lon": -77.05029766666667, "is_disabled": 0, "fusion_lon": 0.0, "is_reserved": 0, "name": "0d62a6e36570ca817795397e54d58158", "type": "electric_scooter", "bike_id": "0d62a6e36570ca817795397e54d58158", "rental_uris": {"ios": "https://dc.lft.to/lastmile_qr_scan", "android": "https://dc.lft.to/lastmile_qr_scan"}, "fusion_lat": 0.0}, {"lat": 38.87661283333333, "lon": -76.99459133333333, "is_disabled": 0, "fusion_lon": 0.0, "is_reserved": 0, "name": "0755e5bac1bdce5787933e670efe2ff8", "type": "electric_scooter", "bike_id": "0755e5bac1bdce5787933e670efe2ff8", "rental_uris": {"ios": "https://dc.lft.to/lastmile_qr_scan", "android": "https://dc.lft.to/lastmile_qr_scan"}, "fusion_lat": 0.0}, {"lat": 38.9043185, "lon": -77.02776716666666, "is_disabled": 0, "fusion_lon": 0.0, "is_reserved": 0, "name": "7ab0b1b0238f513987685fb378609b73", "type": "electric_scooter", "bike_id": "7ab0b1b0238f513987685fb378609b73", "rental_uris": {"ios": "https://dc.lft.to/lastmile_qr_scan", "android": "https://dc.lft.to/lastmile_qr_scan"}, "fusion_lat": 0.0}, {"lat": 38.897737166666666, "lon": -76.98458383333333, "is_disabled": 0, "fusion_lon": 0.0, "is_reserved": 0, "name": "174ce4be7b1dc9374aa722e40fb74862", "type": "electric_scooter", "bike_id": "174ce4be7b1dc9374aa722e40fb74862", "rental_uris": {"ios": "https://dc.lft.to/lastmile_qr_scan", "android": "https://dc.lft.to/lastmile_qr_scan"}, "fusion_lat": 0.0}, {"lat": 38.91737666666667, "lon": -77.021127, "is_disabled": 0, "fusion_lon": 0.0, "is_reserved": 0, "name": "d77635fcc563c2186e5ff1ac7aa06764", "type": "electric_scooter", "bike_id": "d77635fcc563c2186e5ff1ac7aa06764", "rental_uris": {"ios": "https://dc.lft.to/lastmile_qr_scan", "android": "https://dc.lft.to/lastmile_qr_scan"}, "fusion_lat": 0.0}, {"lat": 38.92070016666667, "lon": -77.04212366666667, "is_disabled": 0, "fusion_lon": 0.0, "is_reserved": 0, "name": "4d0a1dd24f6a0e782084b5338871f1ed", "type": "electric_scooter", "bike_id": "4d0a1dd24f6a0e782084b5338871f1ed", "rental_uris": {"ios": "https://dc.lft.to/lastmile_qr_scan", "android": "https://dc.lft.to/lastmile_qr_scan"}, "fusion_lat": 0.0}, {"lat": 38.8907535, "lon": -76.98833833333333, "is_disabled": 0, "fusion_lon": 0.0, "is_reserved": 0, "name": "bbc1fabc9f3f9c5a772c9ee78ac171e2", "type": "electric_scooter", "bike_id": "bbc1fabc9f3f9c5a772c9ee78ac171e2", "rental_uris": {"ios": "https://dc.lft.to/lastmile_qr_scan", "android": "https://dc.lft.to/lastmile_qr_scan"}, "fusion_lat": 0.0}, {"lat": 38.899436, "lon": -77.01282233333333, "is_disabled": 0, "fusion_lon": 0.0, "is_reserved": 0, "name": "63a794ce9cdce56dc8d4ce3fec2476b9", "type": "electric_scooter", "bike_id": "63a794ce9cdce56dc8d4ce3fec2476b9", "rental_uris": {"ios": "https://dc.lft.to/lastmile_qr_scan", "android": "https://dc.lft.to/lastmile_qr_scan"}, "fusion_lat": 0.0}, {"lat": 38.961581333333335, "lon": -77.02783516666666, "is_disabled": 0, "fusion_lon": 0.0, "is_reserved": 0, "name": "568d6faa2809d117dacec9bf5c2a4a79", "type": "electric_scooter", "bike_id": "568d6faa2809d117dacec9bf5c2a4a79", "rental_uris": {"ios": "https://dc.lft.to/lastmile_qr_scan", "android": "https://dc.lft.to/lastmile_qr_scan"}, "fusion_lat": 0.0}, {"lat": 38.8877255, "lon": -77.02242716666667, "is_disabled": 0, "fusion_lon": 0.0, "is_reserved": 0, "name": "c9f1133bdf1b775039e624d75c8a5d95", "type": "electric_scooter", "bike_id": "c9f1133bdf1b775039e624d75c8a5d95", "rental_uris": {"ios": "https://dc.lft.to/lastmile_qr_scan", "android": "https://dc.lft.to/lastmile_qr_scan"}, "fusion_lat": 0.0}, {"lat": 38.906659833333336, "lon": -77.00957283333334, "is_disabled": 0, "fusion_lon": 0.0, "is_reserved": 0, "name": "6f75629ef2868466843db0c51c11cc77", "type": "electric_scooter", "bike_id": "6f75629ef2868466843db0c51c11cc77", "rental_uris": {"ios": "https://dc.lft.to/lastmile_qr_scan", "android": "https://dc.lft.to/lastmile_qr_scan"}, "fusion_lat": 0.0}, {"lat": 38.9372165, "lon": -77.03267716666667, "is_disabled": 0, "fusion_lon": 0.0, "is_reserved": 0, "name": "9fc421d689e55b5177ce6333671077cf", "type": "electric_scooter", "bike_id": "9fc421d689e55b5177ce6333671077cf", "rental_uris": {"ios": "https://dc.lft.to/lastmile_qr_scan", "android": "https://dc.lft.to/lastmile_qr_scan"}, "fusion_lat": 0.0}, {"lat": 38.918654333333336, "lon": -76.96086616666666, "is_disabled": 0, "fusion_lon": 0.0, "is_reserved": 0, "name": "fc54bf0f5506740b2c44e6abe11eb131", "type": "electric_bike", "bike_id": "fc54bf0f5506740b2c44e6abe11eb131", "rental_uris": {"ios": "https://dc.lft.to/lastmile_qr_scan", "android": "https://dc.lft.to/lastmile_qr_scan"}, "fusion_lat": 0.0}, {"lat": 38.87653483333333, "lon": -77.00603616666666, "is_disabled": 0, "fusion_lon": 0.0, "is_reserved": 0, "name": "77f3a46fd73a1e6359ca1eee5c31d257", "type": "electric_scooter", "bike_id": "77f3a46fd73a1e6359ca1eee5c31d257", "rental_uris": {"ios": "https://dc.lft.to/lastmile_qr_scan", "android": "https://dc.lft.to/lastmile_qr_scan"}, "fusion_lat": 0.0}, {"lat": 38.908237666666665, "lon": -77.063726, "is_disabled": 0, "fusion_lon": 0.0, "is_reserved": 0, "name": "27461e88eb3999c271dab63fc2df0924", "type": "electric_scooter", "bike_id": "27461e88eb3999c271dab63fc2df0924", "rental_uris": {"ios": "https://dc.lft.to/lastmile_qr_scan", "android": "https://dc.lft.to/lastmile_qr_scan"}, "fusion_lat": 0.0}, {"lat": 38.915809333333335, "lon": -77.03185433333333, "is_disabled": 0, "fusion_lon": 0.0, "is_reserved": 0, "name": "173ab5274aff75a82ab84345ea23ea24", "type": "electric_scooter", "bike_id": "173ab5274aff75a82ab84345ea23ea24", "rental_uris": {"ios": "https://dc.lft.to/lastmile_qr_scan", "android": "https://dc.lft.to/lastmile_qr_scan"}, "fusion_lat": 0.0}, {"lat": 38.90825316666667, "lon": -76.93439616666667, "is_disabled": 0, "fusion_lon": 0.0, "is_reserved": 0, "name": "e0959a1323901afb7a223cb88171f661", "type": "electric_scooter", "bike_id": "e0959a1323901afb7a223cb88171f661", "rental_uris": {"ios": "https://dc.lft.to/lastmile_qr_scan", "android": "https://dc.lft.to/lastmile_qr_scan"}, "fusion_lat": 0.0}, {"lat": 38.90723716666667, "lon": -77.01663033333334, "is_disabled": 0, "fusion_lon": 0.0, "is_reserved": 0, "name": "d838283feb47c08a92c5631e1eb98ad7", "type": "electric_scooter", "bike_id": "d838283feb47c08a92c5631e1eb98ad7", "rental_uris": {"ios": "https://dc.lft.to/lastmile_qr_scan", "android": "https://dc.lft.to/lastmile_qr_scan"}, "fusion_lat": 0.0}, {"lat": 38.90032216666667, "lon": -77.037156, "is_disabled": 0, "fusion_lon": 0.0, "is_reserved": 0, "name": "b3cadc9365b2010c1f1ec527b4c23b74", "type": "electric_scooter", "bike_id": "b3cadc9365b2010c1f1ec527b4c23b74", "rental_uris": {"ios": "https://dc.lft.to/lastmile_qr_scan", "android": "https://dc.lft.to/lastmile_qr_scan"}, "fusion_lat": 0.0}, {"lat": 38.887526666666666, "lon": -77.02568116666667, "is_disabled": 0, "fusion_lon": 0.0, "is_reserved": 0, "name": "3fe2c737630713aac6837860705d4983", "type": "electric_scooter", "bike_id": "3fe2c737630713aac6837860705d4983", "rental_uris": {"ios": "https://dc.lft.to/lastmile_qr_scan", "android": "https://dc.lft.to/lastmile_qr_scan"}, "fusion_lat": 0.0}, {"lat": 38.9214145, "lon": -77.04357633333333, "is_disabled": 0, "fusion_lon": 0.0, "is_reserved": 0, "name": "1563b6d5917848479e711617c546ab71", "type": "electric_scooter", "bike_id": "1563b6d5917848479e711617c546ab71", "rental_uris": {"ios": "https://dc.lft.to/lastmile_qr_scan", "android": "https://dc.lft.to/lastmile_qr_scan"}, "fusion_lat": 0.0}, {"lat": 38.836328333333334, "lon": -77.06944333333334, "is_disabled": 0, "fusion_lon": 0.0, "is_reserved": 0, "name": "71ab9f3753eb075693482f8f7fa268bc", "type": "electric_bike", "bike_id": "71ab9f3753eb075693482f8f7fa268bc", "rental_uris": {"ios": "https://dc.lft.to/lastmile_qr_scan", "android": "https://dc.lft.to/lastmile_qr_scan"}, "fusion_lat": 0.0}, {"lat": 38.949762166666666, "lon": -77.02443883333333, "is_disabled": 0, "fusion_lon": 0.0, "is_reserved": 0, "name": "45db6cb6242717c79c1daa4b061663ca", "type": "electric_scooter", "bike_id": "45db6cb6242717c79c1daa4b061663ca", "rental_uris": {"ios": "https://dc.lft.to/lastmile_qr_scan", "android": "https://dc.lft.to/lastmile_qr_scan"}, "fusion_lat": 0.0}, {"lat": 38.9128195, "lon": -77.04507983333333, "is_disabled": 0, "fusion_lon": 0.0, "is_reserved": 0, "name": "1d0b18154ddacd51f247c24f15f9bdbc", "type": "electric_scooter", "bike_id": "1d0b18154ddacd51f247c24f15f9bdbc", "rental_uris": {"ios": "https://dc.lft.to/lastmile_qr_scan", "android": "https://dc.lft.to/lastmile_qr_scan"}, "fusion_lat": 0.0}, {"lat": 38.905494, "lon": -77.03336433333334, "is_disabled": 0, "fusion_lon": 0.0, "is_reserved": 0, "name": "db1fadde3cfc7f637ce86b518f1ac865", "type": "electric_scooter", "bike_id": "db1fadde3cfc7f637ce86b518f1ac865", "rental_uris": {"ios": "https://dc.lft.to/lastmile_qr_scan", "android": "https://dc.lft.to/lastmile_qr_scan"}, "fusion_lat": 0.0}, {"lat": 38.924663833333334, "lon": -77.02251366666667, "is_disabled": 0, "fusion_lon": 0.0, "is_reserved": 0, "name": "e422ea2195bb53f02a611380489de111", "type": "electric_scooter", "bike_id": "e422ea2195bb53f02a611380489de111", "rental_uris": {"ios": "https://dc.lft.to/lastmile_qr_scan", "android": "https://dc.lft.to/lastmile_qr_scan"}, "fusion_lat": 0.0}, {"lat": 38.916775, "lon": -77.02277316666667, "is_disabled": 0, "fusion_lon": 0.0, "is_reserved": 0, "name": "c560b0a402ba0f7d6d246612d63e4e8b", "type": "electric_scooter", "bike_id": "c560b0a402ba0f7d6d246612d63e4e8b", "rental_uris": {"ios": "https://dc.lft.to/lastmile_qr_scan", "android": "https://dc.lft.to/lastmile_qr_scan"}, "fusion_lat": 0.0}, {"lat": 38.90047366666667, "lon": -77.01782916666667, "is_disabled": 0, "fusion_lon": 0.0, "is_reserved": 0, "name": "07ebe18fcc5379fc839b7ec2d36bf205", "type": "electric_scooter", "bike_id": "07ebe18fcc5379fc839b7ec2d36bf205", "rental_uris": {"ios": "https://dc.lft.to/lastmile_qr_scan", "android": "https://dc.lft.to/lastmile_qr_scan"}, "fusion_lat": 0.0}, {"lat": 38.89000683333333, "lon": -76.95434166666666, "is_disabled": 0, "fusion_lon": 0.0, "is_reserved": 0, "name": "1562d40c49b442b1c0aa3c50fbca0dbc", "type": "electric_scooter", "bike_id": "1562d40c49b442b1c0aa3c50fbca0dbc", "rental_uris": {"ios": "https://dc.lft.to/lastmile_qr_scan", "android": "https://dc.lft.to/lastmile_qr_scan"}, "fusion_lat": 0.0}, {"lat": 38.9010135, "lon": -77.04196683333333, "is_disabled": 0, "fusion_lon": 0.0, "is_reserved": 0, "name": "c2298c6d3cf0e8a780b5316740d0b056", "type": "electric_scooter", "bike_id": "c2298c6d3cf0e8a780b5316740d0b056", "rental_uris": {"ios": "https://dc.lft.to/lastmile_qr_scan", "android": "https://dc.lft.to/lastmile_qr_scan"}, "fusion_lat": 0.0}, {"lat": 38.80649283333333, "lon": -77.06248783333334, "is_disabled": 0, "fusion_lon": 0.0, "is_reserved": 0, "name": "caeeb3d33ae0bbfb808e784b93979823", "type": "electric_bike", "bike_id": "caeeb3d33ae0bbfb808e784b93979823", "rental_uris": {"ios": "https://dc.lft.to/lastmile_qr_scan", "android": "https://dc.lft.to/lastmile_qr_scan"}, "fusion_lat": 0.0}, {"lat": 38.9008745, "lon": -77.0476615, "is_disabled": 0, "fusion_lon": 0.0, "is_reserved": 0, "name": "f0667475fa9492bb23bbc410ac9f458b", "type": "electric_scooter", "bike_id": "f0667475fa9492bb23bbc410ac9f458b", "rental_uris": {"ios": "https://dc.lft.to/lastmile_qr_scan", "android": "https://dc.lft.to/lastmile_qr_scan"}, "fusion_lat": 0.0}, {"lat": 38.835179, "lon": -76.98666283333333, "is_disabled": 0, "fusion_lon": 0.0, "is_reserved": 0, "name": "0a36d3821483d20467c8b2cac112532b", "type": "electric_bike", "bike_id": "0a36d3821483d20467c8b2cac112532b", "rental_uris": {"ios": "https://dc.lft.to/lastmile_qr_scan", "android": "https://dc.lft.to/lastmile_qr_scan"}, "fusion_lat": 0.0}, {"lat": 38.89241166666667, "lon": -77.026221, "is_disabled": 0, "fusion_lon": 0.0, "is_reserved": 0, "name": "bf2c62a1f67c7690ec06613a0f9a7ce8", "type": "electric_scooter", "bike_id": "bf2c62a1f67c7690ec06613a0f9a7ce8", "rental_uris": {"ios": "https://dc.lft.to/lastmile_qr_scan", "android": "https://dc.lft.to/lastmile_qr_scan"}, "fusion_lat": 0.0}, {"lat": 38.92465283333333, "lon": -77.05231933333333, "is_disabled": 0, "fusion_lon": 0.0, "is_reserved": 0, "name": "248c45bd1fc042f037a1153241ee59d1", "type": "electric_scooter", "bike_id": "248c45bd1fc042f037a1153241ee59d1", "rental_uris": {"ios": "https://dc.lft.to/lastmile_qr_scan", "android": "https://dc.lft.to/lastmile_qr_scan"}, "fusion_lat": 0.0}, {"lat": 38.898608333333335, "lon": -77.02771766666666, "is_disabled": 0, "fusion_lon": 0.0, "is_reserved": 0, "name": "d600b27bd2c31f66f0a3b919b49fa2be", "type": "electric_scooter", "bike_id": "d600b27bd2c31f66f0a3b919b49fa2be", "rental_uris": {"ios": "https://dc.lft.to/lastmile_qr_scan", "android": "https://dc.lft.to/lastmile_qr_scan"}, "fusion_lat": 0.0}, {"lat": 38.8874605, "lon": -77.0177815, "is_disabled": 0, "fusion_lon": 0.0, "is_reserved": 0, "name": "e89bb11f12bd3fbea5d7dbd62d65787a", "type": "electric_scooter", "bike_id": "e89bb11f12bd3fbea5d7dbd62d65787a", "rental_uris": {"ios": "https://dc.lft.to/lastmile_qr_scan", "android": "https://dc.lft.to/lastmile_qr_scan"}, "fusion_lat": 0.0}, {"lat": 38.900406333333336, "lon": -77.023788, "is_disabled": 0, "fusion_lon": 0.0, "is_reserved": 0, "name": "7c5f04ff62416d656294c1f41021fa17", "type": "electric_scooter", "bike_id": "7c5f04ff62416d656294c1f41021fa17", "rental_uris": {"ios": "https://dc.lft.to/lastmile_qr_scan", "android": "https://dc.lft.to/lastmile_qr_scan"}, "fusion_lat": 0.0}, {"lat": 38.90955533333333, "lon": -77.02693066666667, "is_disabled": 0, "fusion_lon": 0.0, "is_reserved": 0, "name": "9e9cd3cf2889ed67d30ae5566a99c3fa", "type": "electric_scooter", "bike_id": "9e9cd3cf2889ed67d30ae5566a99c3fa", "rental_uris": {"ios": "https://dc.lft.to/lastmile_qr_scan", "android": "https://dc.lft.to/lastmile_qr_scan"}, "fusion_lat": 0.0}, {"lat": 38.90383116666667, "lon": -77.036279, "is_disabled": 0, "fusion_lon": 0.0, "is_reserved": 0, "name": "11b798814ff0b3e4ca936dc58b8dbe0b", "type": "electric_scooter", "bike_id": "11b798814ff0b3e4ca936dc58b8dbe0b", "rental_uris": {"ios": "https://dc.lft.to/lastmile_qr_scan", "android": "https://dc.lft.to/lastmile_qr_scan"}, "fusion_lat": 0.0}, {"lat": 38.91282233333333, "lon": -77.045075, "is_disabled": 0, "fusion_lon": 0.0, "is_reserved": 0, "name": "6695c50be7a895913685887ddd4fe717", "type": "electric_scooter", "bike_id": "6695c50be7a895913685887ddd4fe717", "rental_uris": {"ios": "https://dc.lft.to/lastmile_qr_scan", "android": "https://dc.lft.to/lastmile_qr_scan"}, "fusion_lat": 0.0}, {"lat": 38.905527166666666, "lon": -77.041542, "is_disabled": 0, "fusion_lon": 0.0, "is_reserved": 0, "name": "4e44904ff0df7177de2d91cb45d8345f", "type": "electric_scooter", "bike_id": "4e44904ff0df7177de2d91cb45d8345f", "rental_uris": {"ios": "https://dc.lft.to/lastmile_qr_scan", "android": "https://dc.lft.to/lastmile_qr_scan"}, "fusion_lat": 0.0}, {"lat": 38.89933083333333, "lon": -77.05001866666667, "is_disabled": 0, "fusion_lon": 0.0, "is_reserved": 0, "name": "da3d7877e95949c9015763a957899924", "type": "electric_scooter", "bike_id": "da3d7877e95949c9015763a957899924", "rental_uris": {"ios": "https://dc.lft.to/lastmile_qr_scan", "android": "https://dc.lft.to/lastmile_qr_scan"}, "fusion_lat": 0.0}, {"lat": 38.898136666666666, "lon": -77.015527, "is_disabled": 0, "fusion_lon": 0.0, "is_reserved": 0, "name": "940154b75b962adc31389cc1f48b9557", "type": "electric_scooter", "bike_id": "940154b75b962adc31389cc1f48b9557", "rental_uris": {"ios": "https://dc.lft.to/lastmile_qr_scan", "android": "https://dc.lft.to/lastmile_qr_scan"}, "fusion_lat": 0.0}, {"lat": 38.887199833333334, "lon": -77.028389, "is_disabled": 0, "fusion_lon": 0.0, "is_reserved": 0, "name": "b88551ece267e92cc23251eb66076382", "type": "electric_scooter", "bike_id": "b88551ece267e92cc23251eb66076382", "rental_uris": {"ios": "https://dc.lft.to/lastmile_qr_scan", "android": "https://dc.lft.to/lastmile_qr_scan"}, "fusion_lat": 0.0}, {"lat": 38.886363833333334, "lon": -76.92593766666667, "is_disabled": 0, "fusion_lon": 0.0, "is_reserved": 0, "name": "c54b7b8f9baa9d3c5eb330b9f1130d79", "type": "electric_scooter", "bike_id": "c54b7b8f9baa9d3c5eb330b9f1130d79", "rental_uris": {"ios": "https://dc.lft.to/lastmile_qr_scan", "android": "https://dc.lft.to/lastmile_qr_scan"}, "fusion_lat": 0.0}, {"lat": 38.878683333333335, "lon": -76.96257566666667, "is_disabled": 0, "fusion_lon": 0.0, "is_reserved": 0, "name": "8dfd58d6fa5e25f76c99912503694741", "type": "electric_scooter", "bike_id": "8dfd58d6fa5e25f76c99912503694741", "rental_uris": {"ios": "https://dc.lft.to/lastmile_qr_scan", "android": "https://dc.lft.to/lastmile_qr_scan"}, "fusion_lat": 0.0}, {"lat": 38.86017733333333, "lon": -76.96706216666666, "is_disabled": 0, "fusion_lon": 0.0, "is_reserved": 0, "name": "1157ec4721c4d7923fb0eab418254320", "type": "electric_scooter", "bike_id": "1157ec4721c4d7923fb0eab418254320", "rental_uris": {"ios": "https://dc.lft.to/lastmile_qr_scan", "android": "https://dc.lft.to/lastmile_qr_scan"}, "fusion_lat": 0.0}, {"lat": 38.908760666666666, "lon": -77.04047416666667, "is_disabled": 0, "fusion_lon": 0.0, "is_reserved": 0, "name": "6fa1465d23459583125a2cb81f9c015c", "type": "electric_scooter", "bike_id": "6fa1465d23459583125a2cb81f9c015c", "rental_uris": {"ios": "https://dc.lft.to/lastmile_qr_scan", "android": "https://dc.lft.to/lastmile_qr_scan"}, "fusion_lat": 0.0}, {"lat": 38.92731583333333, "lon": -77.02272733333334, "is_disabled": 0, "fusion_lon": 0.0, "is_reserved": 0, "name": "029bf4f51b910f388ce751b8e1ac4b04", "type": "electric_scooter", "bike_id": "029bf4f51b910f388ce751b8e1ac4b04", "rental_uris": {"ios": "https://dc.lft.to/lastmile_qr_scan", "android": "https://dc.lft.to/lastmile_qr_scan"}, "fusion_lat": 0.0}, {"lat": 38.93628733333333, "lon": -77.05879183333333, "is_disabled": 0, "fusion_lon": 0.0, "is_reserved": 0, "name": "b72ff3b621eb83da23a0fefe3642f3ea", "type": "electric_scooter", "bike_id": "b72ff3b621eb83da23a0fefe3642f3ea", "rental_uris": {"ios": "https://dc.lft.to/lastmile_qr_scan", "android": "https://dc.lft.to/lastmile_qr_scan"}, "fusion_lat": 0.0}, {"lat": 38.90105366666667, "lon": -76.93044133333333, "is_disabled": 0, "fusion_lon": 0.0, "is_reserved": 0, "name": "d8bc021f73d954cb6747874806b616d6", "type": "electric_scooter", "bike_id": "d8bc021f73d954cb6747874806b616d6", "rental_uris": {"ios": "https://dc.lft.to/lastmile_qr_scan", "android": "https://dc.lft.to/lastmile_qr_scan"}, "fusion_lat": 0.0}, {"lat": 38.918245666666664, "lon": -77.0241915, "is_disabled": 0, "fusion_lon": 0.0, "is_reserved": 0, "name": "cbae771a2400e1bd17fdeb22a8eb09c1", "type": "electric_scooter", "bike_id": "cbae771a2400e1bd17fdeb22a8eb09c1", "rental_uris": {"ios": "https://dc.lft.to/lastmile_qr_scan", "android": "https://dc.lft.to/lastmile_qr_scan"}, "fusion_lat": 0.0}, {"lat": 38.92623116666667, "lon": -77.032334, "is_disabled": 0, "fusion_lon": 0.0, "is_reserved": 0, "name": "77a395e6eb876f9216dcd40077f285e9", "type": "electric_scooter", "bike_id": "77a395e6eb876f9216dcd40077f285e9", "rental_uris": {"ios": "https://dc.lft.to/lastmile_qr_scan", "android": "https://dc.lft.to/lastmile_qr_scan"}, "fusion_lat": 0.0}, {"lat": 38.9119985, "lon": -77.011875, "is_disabled": 0, "fusion_lon": 0.0, "is_reserved": 0, "name": "4db5791d1eee5790be701129333c96cf", "type": "electric_scooter", "bike_id": "4db5791d1eee5790be701129333c96cf", "rental_uris": {"ios": "https://dc.lft.to/lastmile_qr_scan", "android": "https://dc.lft.to/lastmile_qr_scan"}, "fusion_lat": 0.0}, {"lat": 38.903885833333334, "lon": -77.03824633333333, "is_disabled": 0, "fusion_lon": 0.0, "is_reserved": 0, "name": "13cb8ebf66124c6fc51c96d6bd761940", "type": "electric_scooter", "bike_id": "13cb8ebf66124c6fc51c96d6bd761940", "rental_uris": {"ios": "https://dc.lft.to/lastmile_qr_scan", "android": "https://dc.lft.to/lastmile_qr_scan"}, "fusion_lat": 0.0}, {"lat": 38.91059533333333, "lon": -77.02200183333333, "is_disabled": 0, "fusion_lon": 0.0, "is_reserved": 0, "name": "2b511d5f644a0a607c261d649d020621", "type": "electric_scooter", "bike_id": "2b511d5f644a0a607c261d649d020621", "rental_uris": {"ios": "https://dc.lft.to/lastmile_qr_scan", "android": "https://dc.lft.to/lastmile_qr_scan"}, "fusion_lat": 0.0}, {"lat": 38.9184135, "lon": -77.02308766666667, "is_disabled": 0, "fusion_lon": 0.0, "is_reserved": 0, "name": "5329a0268fbf6403bcdd2b07f89398f2", "type": "electric_scooter", "bike_id": "5329a0268fbf6403bcdd2b07f89398f2", "rental_uris": {"ios": "https://dc.lft.to/lastmile_qr_scan", "android": "https://dc.lft.to/lastmile_qr_scan"}, "fusion_lat": 0.0}, {"lat": 38.916828, "lon": -77.03211316666666, "is_disabled": 0, "fusion_lon": 0.0, "is_reserved": 0, "name": "c8af092d844adf9092e500071657dd22", "type": "electric_scooter", "bike_id": "c8af092d844adf9092e500071657dd22", "rental_uris": {"ios": "https://dc.lft.to/lastmile_qr_scan", "android": "https://dc.lft.to/lastmile_qr_scan"}, "fusion_lat": 0.0}, {"lat": 38.9087515, "lon": -77.0716505, "is_disabled": 0, "fusion_lon": 0.0, "is_reserved": 0, "name": "c08900c5001411995e1426750ae0699e", "type": "electric_scooter", "bike_id": "c08900c5001411995e1426750ae0699e", "rental_uris": {"ios": "https://dc.lft.to/lastmile_qr_scan", "android": "https://dc.lft.to/lastmile_qr_scan"}, "fusion_lat": 0.0}, {"lat": 38.923466833333336, "lon": -77.05180333333334, "is_disabled": 0, "fusion_lon": 0.0, "is_reserved": 0, "name": "26ac687c5424eff2611c0fda4f759782", "type": "electric_scooter", "bike_id": "26ac687c5424eff2611c0fda4f759782", "rental_uris": {"ios": "https://dc.lft.to/lastmile_qr_scan", "android": "https://dc.lft.to/lastmile_qr_scan"}, "fusion_lat": 0.0}, {"lat": 38.90025583333333, "lon": -76.98860833333333, "is_disabled": 0, "fusion_lon": 0.0, "is_reserved": 0, "name": "f34ed5a746a9b94fb1aac5c731151f87", "type": "electric_scooter", "bike_id": "f34ed5a746a9b94fb1aac5c731151f87", "rental_uris": {"ios": "https://dc.lft.to/lastmile_qr_scan", "android": "https://dc.lft.to/lastmile_qr_scan"}, "fusion_lat": 0.0}, {"lat": 38.893233, "lon": -77.086038, "is_disabled": 0, "fusion_lon": 0.0, "is_reserved": 0, "name": "bf48be5a8afb265a2c41e4b22ae4250e", "type": "electric_bike", "bike_id": "bf48be5a8afb265a2c41e4b22ae4250e", "rental_uris": {"ios": "https://dc.lft.to/lastmile_qr_scan", "android": "https://dc.lft.to/lastmile_qr_scan"}, "fusion_lat": 0.0}, {"lat": 38.8843415, "lon": -77.0177285, "is_disabled": 0, "fusion_lon": 0.0, "is_reserved": 0, "name": "7b10a79f410ba6a1492daf0d188f2554", "type": "electric_scooter", "bike_id": "7b10a79f410ba6a1492daf0d188f2554", "rental_uris": {"ios": "https://dc.lft.to/lastmile_qr_scan", "android": "https://dc.lft.to/lastmile_qr_scan"}, "fusion_lat": 0.0}, {"lat": 38.89271866666667, "lon": -77.04679333333333, "is_disabled": 0, "fusion_lon": 0.0, "is_reserved": 0, "name": "3e198e187d160e9ec41a9b819b358dcc", "type": "electric_scooter", "bike_id": "3e198e187d160e9ec41a9b819b358dcc", "rental_uris": {"ios": "https://dc.lft.to/lastmile_qr_scan", "android": "https://dc.lft.to/lastmile_qr_scan"}, "fusion_lat": 0.0}, {"lat": 38.87291233333333, "lon": -77.00986616666667, "is_disabled": 0, "fusion_lon": 0.0, "is_reserved": 0, "name": "84ce103feb5ef69aa8fce54623f039e8", "type": "electric_scooter", "bike_id": "84ce103feb5ef69aa8fce54623f039e8", "rental_uris": {"ios": "https://dc.lft.to/lastmile_qr_scan", "android": "https://dc.lft.to/lastmile_qr_scan"}, "fusion_lat": 0.0}, {"lat": 38.900953, "lon": -77.02518483333333, "is_disabled": 0, "fusion_lon": 0.0, "is_reserved": 0, "name": "e6110f8863bf4ca63d13b6da5fa6396d", "type": "electric_scooter", "bike_id": "e6110f8863bf4ca63d13b6da5fa6396d", "rental_uris": {"ios": "https://dc.lft.to/lastmile_qr_scan", "android": "https://dc.lft.to/lastmile_qr_scan"}, "fusion_lat": 0.0}, {"lat": 38.936386166666665, "lon": -77.06628416666666, "is_disabled": 0, "fusion_lon": 0.0, "is_reserved": 0, "name": "dc4b5ad4c994e5631a57b9be2cb34af6", "type": "electric_scooter", "bike_id": "dc4b5ad4c994e5631a57b9be2cb34af6", "rental_uris": {"ios": "https://dc.lft.to/lastmile_qr_scan", "android": "https://dc.lft.to/lastmile_qr_scan"}, "fusion_lat": 0.0}, {"lat": 38.916988833333335, "lon": -77.03896633333333, "is_disabled": 0, "fusion_lon": 0.0, "is_reserved": 0, "name": "90616bce5b23b7fb23cc44952f088d1d", "type": "electric_scooter", "bike_id": "90616bce5b23b7fb23cc44952f088d1d", "rental_uris": {"ios": "https://dc.lft.to/lastmile_qr_scan", "android": "https://dc.lft.to/lastmile_qr_scan"}, "fusion_lat": 0.0}, {"lat": 38.89224466666667, "lon": -77.0316405, "is_disabled": 0, "fusion_lon": 0.0, "is_reserved": 0, "name": "cb8d4a1b41745b46d37295fbc2364d18", "type": "electric_scooter", "bike_id": "cb8d4a1b41745b46d37295fbc2364d18", "rental_uris": {"ios": "https://dc.lft.to/lastmile_qr_scan", "android": "https://dc.lft.to/lastmile_qr_scan"}, "fusion_lat": 0.0}, {"lat": 38.926785, "lon": -77.02751683333334, "is_disabled": 0, "fusion_lon": 0.0, "is_reserved": 0, "name": "bea69b841e9c483c04e0fe5156f858e6", "type": "electric_scooter", "bike_id": "bea69b841e9c483c04e0fe5156f858e6", "rental_uris": {"ios": "https://dc.lft.to/lastmile_qr_scan", "android": "https://dc.lft.to/lastmile_qr_scan"}, "fusion_lat": 0.0}, {"lat": 38.90646816666667, "lon": -77.02465116666667, "is_disabled": 0, "fusion_lon": 0.0, "is_reserved": 0, "name": "2c72734717bb917b2bfed133aa9e1703", "type": "electric_scooter", "bike_id": "2c72734717bb917b2bfed133aa9e1703", "rental_uris": {"ios": "https://dc.lft.to/lastmile_qr_scan", "android": "https://dc.lft.to/lastmile_qr_scan"}, "fusion_lat": 0.0}, {"lat": 38.9265475, "lon": -77.00757333333334, "is_disabled": 0, "fusion_lon": 0.0, "is_reserved": 0, "name": "181c97d87ac33824d3b6127b0ad8b490", "type": "electric_scooter", "bike_id": "181c97d87ac33824d3b6127b0ad8b490", "rental_uris": {"ios": "https://dc.lft.to/lastmile_qr_scan", "android": "https://dc.lft.to/lastmile_qr_scan"}, "fusion_lat": 0.0}, {"lat": 38.90728266666667, "lon": -77.00760416666667, "is_disabled": 0, "fusion_lon": 0.0, "is_reserved": 0, "name": "e571bdffe230d73a0cba3cf262d44b6e", "type": "electric_scooter", "bike_id": "e571bdffe230d73a0cba3cf262d44b6e", "rental_uris": {"ios": "https://dc.lft.to/lastmile_qr_scan", "android": "https://dc.lft.to/lastmile_qr_scan"}, "fusion_lat": 0.0}, {"lat": 38.901514166666665, "lon": -76.930644, "is_disabled": 0, "fusion_lon": 0.0, "is_reserved": 0, "name": "15b6ee42de634801aec4c95c4c3549eb", "type": "electric_scooter", "bike_id": "15b6ee42de634801aec4c95c4c3549eb", "rental_uris": {"ios": "https://dc.lft.to/lastmile_qr_scan", "android": "https://dc.lft.to/lastmile_qr_scan"}, "fusion_lat": 0.0}, {"lat": 38.9020095, "lon": -77.02371783333334, "is_disabled": 0, "fusion_lon": 0.0, "is_reserved": 0, "name": "9dc6a540975dc1b7bec382741ec8f6c8", "type": "electric_scooter", "bike_id": "9dc6a540975dc1b7bec382741ec8f6c8", "rental_uris": {"ios": "https://dc.lft.to/lastmile_qr_scan", "android": "https://dc.lft.to/lastmile_qr_scan"}, "fusion_lat": 0.0}, {"lat": 38.923032666666664, "lon": -77.042697, "is_disabled": 0, "fusion_lon": 0.0, "is_reserved": 0, "name": "1401095c9fa440b334d69a08369d1544", "type": "electric_scooter", "bike_id": "1401095c9fa440b334d69a08369d1544", "rental_uris": {"ios": "https://dc.lft.to/lastmile_qr_scan", "android": "https://dc.lft.to/lastmile_qr_scan"}, "fusion_lat": 0.0}, {"lat": 38.885079833333336, "lon": -77.005667, "is_disabled": 0, "fusion_lon": 0.0, "is_reserved": 0, "name": "7cb2fe38ce86cb845de1c845fbca8f0f", "type": "electric_scooter", "bike_id": "7cb2fe38ce86cb845de1c845fbca8f0f", "rental_uris": {"ios": "https://dc.lft.to/lastmile_qr_scan", "android": "https://dc.lft.to/lastmile_qr_scan"}, "fusion_lat": 0.0}, {"lat": 38.90292633333333, "lon": -77.03349983333334, "is_disabled": 0, "fusion_lon": 0.0, "is_reserved": 0, "name": "2733416b61ebbdaf0d9cd9243bd748a6", "type": "electric_scooter", "bike_id": "2733416b61ebbdaf0d9cd9243bd748a6", "rental_uris": {"ios": "https://dc.lft.to/lastmile_qr_scan", "android": "https://dc.lft.to/lastmile_qr_scan"}, "fusion_lat": 0.0}, {"lat": 38.9506325, "lon": -77.08031016666666, "is_disabled": 0, "fusion_lon": 0.0, "is_reserved": 0, "name": "92d0392af8a01af5660bf68e47be1985", "type": "electric_scooter", "bike_id": "92d0392af8a01af5660bf68e47be1985", "rental_uris": {"ios": "https://dc.lft.to/lastmile_qr_scan", "android": "https://dc.lft.to/lastmile_qr_scan"}, "fusion_lat": 0.0}, {"lat": 38.90039733333333, "lon": -77.02412166666667, "is_disabled": 0, "fusion_lon": 0.0, "is_reserved": 0, "name": "e95f8c4f0e69d7a7ca8f99bb0db9bec1", "type": "electric_scooter", "bike_id": "e95f8c4f0e69d7a7ca8f99bb0db9bec1", "rental_uris": {"ios": "https://dc.lft.to/lastmile_qr_scan", "android": "https://dc.lft.to/lastmile_qr_scan"}, "fusion_lat": 0.0}, {"lat": 38.92724066666667, "lon": -77.02092283333333, "is_disabled": 0, "fusion_lon": 0.0, "is_reserved": 0, "name": "5b7cb1e126f868237d51230acd892e2e", "type": "electric_scooter", "bike_id": "5b7cb1e126f868237d51230acd892e2e", "rental_uris": {"ios": "https://dc.lft.to/lastmile_qr_scan", "android": "https://dc.lft.to/lastmile_qr_scan"}, "fusion_lat": 0.0}, {"lat": 38.92039833333333, "lon": -77.02589416666666, "is_disabled": 0, "fusion_lon": 0.0, "is_reserved": 0, "name": "984d1d31adb1f42aa4e303655a4ab025", "type": "electric_scooter", "bike_id": "984d1d31adb1f42aa4e303655a4ab025", "rental_uris": {"ios": "https://dc.lft.to/lastmile_qr_scan", "android": "https://dc.lft.to/lastmile_qr_scan"}, "fusion_lat": 0.0}, {"lat": 38.896022333333335, "lon": -77.022046, "is_disabled": 0, "fusion_lon": 0.0, "is_reserved": 0, "name": "61a14da73fa2c10ff2a1178fe1a74b6c", "type": "electric_bike", "bike_id": "61a14da73fa2c10ff2a1178fe1a74b6c", "rental_uris": {"ios": "https://dc.lft.to/lastmile_qr_scan", "android": "https://dc.lft.to/lastmile_qr_scan"}, "fusion_lat": 0.0}, {"lat": 38.93013716666667, "lon": -77.01508966666667, "is_disabled": 0, "fusion_lon": 0.0, "is_reserved": 0, "name": "4f946a86ef9bb9a2aba163b4cf42b57c", "type": "electric_scooter", "bike_id": "4f946a86ef9bb9a2aba163b4cf42b57c", "rental_uris": {"ios": "https://dc.lft.to/lastmile_qr_scan", "android": "https://dc.lft.to/lastmile_qr_scan"}, "fusion_lat": 0.0}, {"lat": 38.905255333333336, "lon": -77.05330216666667, "is_disabled": 0, "fusion_lon": 0.0, "is_reserved": 0, "name": "37b7ce3c4c7b03ae05710b7210431231", "type": "electric_scooter", "bike_id": "37b7ce3c4c7b03ae05710b7210431231", "rental_uris": {"ios": "https://dc.lft.to/lastmile_qr_scan", "android": "https://dc.lft.to/lastmile_qr_scan"}, "fusion_lat": 0.0}, {"lat": 38.924283333333335, "lon": -77.05185683333333, "is_disabled": 0, "fusion_lon": 0.0, "is_reserved": 0, "name": "7a5293c1142dc7b995c7f305b72973bd", "type": "electric_scooter", "bike_id": "7a5293c1142dc7b995c7f305b72973bd", "rental_uris": {"ios": "https://dc.lft.to/lastmile_qr_scan", "android": "https://dc.lft.to/lastmile_qr_scan"}, "fusion_lat": 0.0}, {"lat": 38.90727866666667, "lon": -77.04349116666667, "is_disabled": 0, "fusion_lon": 0.0, "is_reserved": 0, "name": "fc15e629225febb6fa91c338f072ad39", "type": "electric_scooter", "bike_id": "fc15e629225febb6fa91c338f072ad39", "rental_uris": {"ios": "https://dc.lft.to/lastmile_qr_scan", "android": "https://dc.lft.to/lastmile_qr_scan"}, "fusion_lat": 0.0}, {"lat": 38.88017816666667, "lon": -76.980718, "is_disabled": 0, "fusion_lon": 0.0, "is_reserved": 0, "name": "281e0a5f2db52648d36cace2afc2af72", "type": "electric_scooter", "bike_id": "281e0a5f2db52648d36cace2afc2af72", "rental_uris": {"ios": "https://dc.lft.to/lastmile_qr_scan", "android": "https://dc.lft.to/lastmile_qr_scan"}, "fusion_lat": 0.0}, {"lat": 38.962242333333336, "lon": -77.026261, "is_disabled": 0, "fusion_lon": 0.0, "is_reserved": 0, "name": "9e4e23ed37f8cc5f4ff78b308c8a0d62", "type": "electric_bike", "bike_id": "9e4e23ed37f8cc5f4ff78b308c8a0d62", "rental_uris": {"ios": "https://dc.lft.to/lastmile_qr_scan", "android": "https://dc.lft.to/lastmile_qr_scan"}, "fusion_lat": 0.0}, {"lat": 38.9232485, "lon": -77.03910116666667, "is_disabled": 0, "fusion_lon": 0.0, "is_reserved": 0, "name": "7600b816784220e85f99dc929a8e84c9", "type": "electric_scooter", "bike_id": "7600b816784220e85f99dc929a8e84c9", "rental_uris": {"ios": "https://dc.lft.to/lastmile_qr_scan", "android": "https://dc.lft.to/lastmile_qr_scan"}, "fusion_lat": 0.0}, {"lat": 38.91801566666667, "lon": -77.04015516666666, "is_disabled": 0, "fusion_lon": 0.0, "is_reserved": 0, "name": "c7c8b4a253b65a57eeb68626b9c862cb", "type": "electric_scooter", "bike_id": "c7c8b4a253b65a57eeb68626b9c862cb", "rental_uris": {"ios": "https://dc.lft.to/lastmile_qr_scan", "android": "https://dc.lft.to/lastmile_qr_scan"}, "fusion_lat": 0.0}, {"lat": 38.887336, "lon": -77.031842, "is_disabled": 0, "fusion_lon": 0.0, "is_reserved": 0, "name": "efa95dadf9f0e3db7b8e65ac21f6f1eb", "type": "electric_scooter", "bike_id": "efa95dadf9f0e3db7b8e65ac21f6f1eb", "rental_uris": {"ios": "https://dc.lft.to/lastmile_qr_scan", "android": "https://dc.lft.to/lastmile_qr_scan"}, "fusion_lat": 0.0}, {"lat": 38.88751466666667, "lon": -77.01402816666666, "is_disabled": 0, "fusion_lon": 0.0, "is_reserved": 0, "name": "b8e8f4720ea6ec35a497dc08a613b8d1", "type": "electric_scooter", "bike_id": "b8e8f4720ea6ec35a497dc08a613b8d1", "rental_uris": {"ios": "https://dc.lft.to/lastmile_qr_scan", "android": "https://dc.lft.to/lastmile_qr_scan"}, "fusion_lat": 0.0}, {"lat": 38.924183, "lon": -77.05060116666667, "is_disabled": 0, "fusion_lon": 0.0, "is_reserved": 0, "name": "3e42ec61610e0035a8e4d74b5035fcb4", "type": "electric_scooter", "bike_id": "3e42ec61610e0035a8e4d74b5035fcb4", "rental_uris": {"ios": "https://dc.lft.to/lastmile_qr_scan", "android": "https://dc.lft.to/lastmile_qr_scan"}, "fusion_lat": 0.0}, {"lat": 38.90270833333334, "lon": -77.04618166666667, "is_disabled": 0, "fusion_lon": 0.0, "is_reserved": 0, "name": "a4aa130a693f0934a889c62a728773fd", "type": "electric_scooter", "bike_id": "a4aa130a693f0934a889c62a728773fd", "rental_uris": {"ios": "https://dc.lft.to/lastmile_qr_scan", "android": "https://dc.lft.to/lastmile_qr_scan"}, "fusion_lat": 0.0}, {"lat": 38.8873545, "lon": -77.013873, "is_disabled": 0, "fusion_lon": 0.0, "is_reserved": 0, "name": "22b67691825fec0e6bb9acc947e0e76a", "type": "electric_scooter", "bike_id": "22b67691825fec0e6bb9acc947e0e76a", "rental_uris": {"ios": "https://dc.lft.to/lastmile_qr_scan", "android": "https://dc.lft.to/lastmile_qr_scan"}, "fusion_lat": 0.0}, {"lat": 38.895573166666665, "lon": -77.04671266666666, "is_disabled": 0, "fusion_lon": 0.0, "is_reserved": 0, "name": "e0b5435769bc8f2402657ffac1c912e3", "type": "electric_scooter", "bike_id": "e0b5435769bc8f2402657ffac1c912e3", "rental_uris": {"ios": "https://dc.lft.to/lastmile_qr_scan", "android": "https://dc.lft.to/lastmile_qr_scan"}, "fusion_lat": 0.0}, {"lat": 38.90774533333333, "lon": -77.03762383333333, "is_disabled": 0, "fusion_lon": 0.0, "is_reserved": 0, "name": "77067e09ce8ec329c71130434ced5728", "type": "electric_scooter", "bike_id": "77067e09ce8ec329c71130434ced5728", "rental_uris": {"ios": "https://dc.lft.to/lastmile_qr_scan", "android": "https://dc.lft.to/lastmile_qr_scan"}, "fusion_lat": 0.0}, {"lat": 38.89360116666667, "lon": -77.00338933333333, "is_disabled": 0, "fusion_lon": 0.0, "is_reserved": 0, "name": "ee866545b957ceabe4e3421b3cdf61c0", "type": "electric_scooter", "bike_id": "ee866545b957ceabe4e3421b3cdf61c0", "rental_uris": {"ios": "https://dc.lft.to/lastmile_qr_scan", "android": "https://dc.lft.to/lastmile_qr_scan"}, "fusion_lat": 0.0}, {"lat": 38.960675, "lon": -76.94163716666667, "is_disabled": 0, "fusion_lon": 0.0, "is_reserved": 0, "name": "c5fc51d7b18ed4f5428e07a534ff23c9", "type": "electric_bike", "bike_id": "c5fc51d7b18ed4f5428e07a534ff23c9", "rental_uris": {"ios": "https://dc.lft.to/lastmile_qr_scan", "android": "https://dc.lft.to/lastmile_qr_scan"}, "fusion_lat": 0.0}, {"lat": 38.875480333333336, "lon": -77.00534316666666, "is_disabled": 0, "fusion_lon": 0.0, "is_reserved": 0, "name": "aa1042ac3352a76638bf80c08407422a", "type": "electric_scooter", "bike_id": "aa1042ac3352a76638bf80c08407422a", "rental_uris": {"ios": "https://dc.lft.to/lastmile_qr_scan", "android": "https://dc.lft.to/lastmile_qr_scan"}, "fusion_lat": 0.0}, {"lat": 38.923432, "lon": -77.05180933333334, "is_disabled": 0, "fusion_lon": 0.0, "is_reserved": 0, "name": "f241deb841a0c171d89279ca62db1267", "type": "electric_scooter", "bike_id": "f241deb841a0c171d89279ca62db1267", "rental_uris": {"ios": "https://dc.lft.to/lastmile_qr_scan", "android": "https://dc.lft.to/lastmile_qr_scan"}, "fusion_lat": 0.0}, {"lat": 38.94338783333333, "lon": -76.98316683333333, "is_disabled": 0, "fusion_lon": 0.0, "is_reserved": 0, "name": "6d8db8a445cbb29b92c1eb214c4a0880", "type": "electric_scooter", "bike_id": "6d8db8a445cbb29b92c1eb214c4a0880", "rental_uris": {"ios": "https://dc.lft.to/lastmile_qr_scan", "android": "https://dc.lft.to/lastmile_qr_scan"}, "fusion_lat": 0.0}, {"lat": 38.908116166666666, "lon": -77.03433233333334, "is_disabled": 0, "fusion_lon": 0.0, "is_reserved": 0, "name": "98c1ab1f4975b5056f404263594ff31a", "type": "electric_scooter", "bike_id": "98c1ab1f4975b5056f404263594ff31a", "rental_uris": {"ios": "https://dc.lft.to/lastmile_qr_scan", "android": "https://dc.lft.to/lastmile_qr_scan"}, "fusion_lat": 0.0}, {"lat": 38.90653916666667, "lon": -77.01432133333333, "is_disabled": 0, "fusion_lon": 0.0, "is_reserved": 0, "name": "175c5f859f8f6bec8dc5fea092226066", "type": "electric_scooter", "bike_id": "175c5f859f8f6bec8dc5fea092226066", "rental_uris": {"ios": "https://dc.lft.to/lastmile_qr_scan", "android": "https://dc.lft.to/lastmile_qr_scan"}, "fusion_lat": 0.0}, {"lat": 38.966079666666666, "lon": -77.02748716666666, "is_disabled": 0, "fusion_lon": 0.0, "is_reserved": 0, "name": "ce7bb7446407774dfa52d23730fd16e1", "type": "electric_scooter", "bike_id": "ce7bb7446407774dfa52d23730fd16e1", "rental_uris": {"ios": "https://dc.lft.to/lastmile_qr_scan", "android": "https://dc.lft.to/lastmile_qr_scan"}, "fusion_lat": 0.0}, {"lat": 38.87671483333333, "lon": -76.992779, "is_disabled": 0, "fusion_lon": 0.0, "is_reserved": 0, "name": "04a78a7c109e3c02401e0e1208eab0b7", "type": "electric_scooter", "bike_id": "04a78a7c109e3c02401e0e1208eab0b7", "rental_uris": {"ios": "https://dc.lft.to/lastmile_qr_scan", "android": "https://dc.lft.to/lastmile_qr_scan"}, "fusion_lat": 0.0}, {"lat": 38.9226075, "lon": -77.05298283333333, "is_disabled": 0, "fusion_lon": 0.0, "is_reserved": 0, "name": "2c69aa9fc1876b40b12b4d05a29a759e", "type": "electric_scooter", "bike_id": "2c69aa9fc1876b40b12b4d05a29a759e", "rental_uris": {"ios": "https://dc.lft.to/lastmile_qr_scan", "android": "https://dc.lft.to/lastmile_qr_scan"}, "fusion_lat": 0.0}, {"lat": 38.86753683333333, "lon": -76.94529033333333, "is_disabled": 0, "fusion_lon": 0.0, "is_reserved": 0, "name": "cb13e6070afad7a177401a84bc5ef0fb", "type": "electric_bike", "bike_id": "cb13e6070afad7a177401a84bc5ef0fb", "rental_uris": {"ios": "https://dc.lft.to/lastmile_qr_scan", "android": "https://dc.lft.to/lastmile_qr_scan"}, "fusion_lat": 0.0}, {"lat": 38.9297545, "lon": -77.028245, "is_disabled": 0, "fusion_lon": 0.0, "is_reserved": 0, "name": "c4617b59cb7efcb10883e521bc6195c4", "type": "electric_scooter", "bike_id": "c4617b59cb7efcb10883e521bc6195c4", "rental_uris": {"ios": "https://dc.lft.to/lastmile_qr_scan", "android": "https://dc.lft.to/lastmile_qr_scan"}, "fusion_lat": 0.0}, {"lat": 38.9112085, "lon": -77.0060505, "is_disabled": 0, "fusion_lon": 0.0, "is_reserved": 0, "name": "61ae2e03fcfb95ef9c060cc8edc1a75c", "type": "electric_scooter", "bike_id": "61ae2e03fcfb95ef9c060cc8edc1a75c", "rental_uris": {"ios": "https://dc.lft.to/lastmile_qr_scan", "android": "https://dc.lft.to/lastmile_qr_scan"}, "fusion_lat": 0.0}, {"lat": 38.93384966666667, "lon": -77.02965933333333, "is_disabled": 0, "fusion_lon": 0.0, "is_reserved": 0, "name": "3fa465ec1d0e91b9442bd4a8a7ecf44a", "type": "electric_scooter", "bike_id": "3fa465ec1d0e91b9442bd4a8a7ecf44a", "rental_uris": {"ios": "https://dc.lft.to/lastmile_qr_scan", "android": "https://dc.lft.to/lastmile_qr_scan"}, "fusion_lat": 0.0}, {"lat": 38.855249666666666, "lon": -76.98438766666666, "is_disabled": 0, "fusion_lon": 0.0, "is_reserved": 0, "name": "8a7ac29586db0f5c961f69e252a2f6a4", "type": "electric_bike", "bike_id": "8a7ac29586db0f5c961f69e252a2f6a4", "rental_uris": {"ios": "https://dc.lft.to/lastmile_qr_scan", "android": "https://dc.lft.to/lastmile_qr_scan"}, "fusion_lat": 0.0}, {"lat": 38.92897683333333, "lon": -77.05810433333333, "is_disabled": 0, "fusion_lon": 0.0, "is_reserved": 0, "name": "98e43589f1ac71c34e7d537c0e5fc6c2", "type": "electric_scooter", "bike_id": "98e43589f1ac71c34e7d537c0e5fc6c2", "rental_uris": {"ios": "https://dc.lft.to/lastmile_qr_scan", "android": "https://dc.lft.to/lastmile_qr_scan"}, "fusion_lat": 0.0}, {"lat": 38.8971055, "lon": -77.0267775, "is_disabled": 0, "fusion_lon": 0.0, "is_reserved": 0, "name": "9eb5800bf4fe0605bc6fa661743d58bf", "type": "electric_scooter", "bike_id": "9eb5800bf4fe0605bc6fa661743d58bf", "rental_uris": {"ios": "https://dc.lft.to/lastmile_qr_scan", "android": "https://dc.lft.to/lastmile_qr_scan"}, "fusion_lat": 0.0}, {"lat": 38.9182195, "lon": -77.0417845, "is_disabled": 0, "fusion_lon": 0.0, "is_reserved": 0, "name": "167bb4782788f5782619c55c04e6b3e2", "type": "electric_scooter", "bike_id": "167bb4782788f5782619c55c04e6b3e2", "rental_uris": {"ios": "https://dc.lft.to/lastmile_qr_scan", "android": "https://dc.lft.to/lastmile_qr_scan"}, "fusion_lat": 0.0}, {"lat": 38.921173, "lon": -77.04127183333334, "is_disabled": 0, "fusion_lon": 0.0, "is_reserved": 0, "name": "5d3b8f82e2ef579e4c84be3223ba57e8", "type": "electric_scooter", "bike_id": "5d3b8f82e2ef579e4c84be3223ba57e8", "rental_uris": {"ios": "https://dc.lft.to/lastmile_qr_scan", "android": "https://dc.lft.to/lastmile_qr_scan"}, "fusion_lat": 0.0}, {"lat": 38.900215833333334, "lon": -77.04278183333334, "is_disabled": 0, "fusion_lon": 0.0, "is_reserved": 0, "name": "ed8834f4b2bfb4782efdd86c0dcf65c2", "type": "electric_bike", "bike_id": "ed8834f4b2bfb4782efdd86c0dcf65c2", "rental_uris": {"ios": "https://dc.lft.to/lastmile_qr_scan", "android": "https://dc.lft.to/lastmile_qr_scan"}, "fusion_lat": 0.0}, {"lat": 38.924655, "lon": -77.02151433333333, "is_disabled": 0, "fusion_lon": 0.0, "is_reserved": 0, "name": "10ef99c0968d5b0e3b649b961a752a89", "type": "electric_scooter", "bike_id": "10ef99c0968d5b0e3b649b961a752a89", "rental_uris": {"ios": "https://dc.lft.to/lastmile_qr_scan", "android": "https://dc.lft.to/lastmile_qr_scan"}, "fusion_lat": 0.0}, {"lat": 38.9073225, "lon": -77.009556, "is_disabled": 0, "fusion_lon": 0.0, "is_reserved": 0, "name": "67c2430bf94e6d35b0d4664ac87436a5", "type": "electric_scooter", "bike_id": "67c2430bf94e6d35b0d4664ac87436a5", "rental_uris": {"ios": "https://dc.lft.to/lastmile_qr_scan", "android": "https://dc.lft.to/lastmile_qr_scan"}, "fusion_lat": 0.0}, {"lat": 38.876920166666665, "lon": -77.0035535, "is_disabled": 0, "fusion_lon": 0.0, "is_reserved": 0, "name": "2a28bfbeeecc4da67410e2e367c40625", "type": "electric_scooter", "bike_id": "2a28bfbeeecc4da67410e2e367c40625", "rental_uris": {"ios": "https://dc.lft.to/lastmile_qr_scan", "android": "https://dc.lft.to/lastmile_qr_scan"}, "fusion_lat": 0.0}, {"lat": 38.9139245, "lon": -77.03666333333334, "is_disabled": 0, "fusion_lon": 0.0, "is_reserved": 0, "name": "c9802c08d212604af049d3388a89b756", "type": "electric_scooter", "bike_id": "c9802c08d212604af049d3388a89b756", "rental_uris": {"ios": "https://dc.lft.to/lastmile_qr_scan", "android": "https://dc.lft.to/lastmile_qr_scan"}, "fusion_lat": 0.0}, {"lat": 38.90320716666667, "lon": -77.038298, "is_disabled": 0, "fusion_lon": 0.0, "is_reserved": 0, "name": "f712a7d7e3fbb840b865eead5128ae88", "type": "electric_scooter", "bike_id": "f712a7d7e3fbb840b865eead5128ae88", "rental_uris": {"ios": "https://dc.lft.to/lastmile_qr_scan", "android": "https://dc.lft.to/lastmile_qr_scan"}, "fusion_lat": 0.0}, {"lat": 38.9111225, "lon": -77.01278516666666, "is_disabled": 0, "fusion_lon": 0.0, "is_reserved": 0, "name": "d4f8bb013c7851d4da20b65b09d9e5de", "type": "electric_scooter", "bike_id": "d4f8bb013c7851d4da20b65b09d9e5de", "rental_uris": {"ios": "https://dc.lft.to/lastmile_qr_scan", "android": "https://dc.lft.to/lastmile_qr_scan"}, "fusion_lat": 0.0}, {"lat": 38.917051666666666, "lon": -77.02492616666666, "is_disabled": 0, "fusion_lon": 0.0, "is_reserved": 0, "name": "f1b79640924bbb780d1c01598de079ac", "type": "electric_scooter", "bike_id": "f1b79640924bbb780d1c01598de079ac", "rental_uris": {"ios": "https://dc.lft.to/lastmile_qr_scan", "android": "https://dc.lft.to/lastmile_qr_scan"}, "fusion_lat": 0.0}, {"lat": 38.906218833333334, "lon": -77.04343566666667, "is_disabled": 0, "fusion_lon": 0.0, "is_reserved": 0, "name": "37049bcab25d607d65e549dbf65e7125", "type": "electric_scooter", "bike_id": "37049bcab25d607d65e549dbf65e7125", "rental_uris": {"ios": "https://dc.lft.to/lastmile_qr_scan", "android": "https://dc.lft.to/lastmile_qr_scan"}, "fusion_lat": 0.0}, {"lat": 38.87438066666667, "lon": -77.0003865, "is_disabled": 0, "fusion_lon": 0.0, "is_reserved": 0, "name": "daa214e0596280e1fe481757db318e9a", "type": "electric_scooter", "bike_id": "daa214e0596280e1fe481757db318e9a", "rental_uris": {"ios": "https://dc.lft.to/lastmile_qr_scan", "android": "https://dc.lft.to/lastmile_qr_scan"}, "fusion_lat": 0.0}, {"lat": 38.952061, "lon": -77.02731483333334, "is_disabled": 0, "fusion_lon": 0.0, "is_reserved": 0, "name": "e9530cbbcb26cbfea30f96268c848471", "type": "electric_scooter", "bike_id": "e9530cbbcb26cbfea30f96268c848471", "rental_uris": {"ios": "https://dc.lft.to/lastmile_qr_scan", "android": "https://dc.lft.to/lastmile_qr_scan"}, "fusion_lat": 0.0}, {"lat": 38.89573083333333, "lon": -77.02164183333333, "is_disabled": 0, "fusion_lon": 0.0, "is_reserved": 0, "name": "b40ddad3404ecf6bb7c5ed67444bfafc", "type": "electric_scooter", "bike_id": "b40ddad3404ecf6bb7c5ed67444bfafc", "rental_uris": {"ios": "https://dc.lft.to/lastmile_qr_scan", "android": "https://dc.lft.to/lastmile_qr_scan"}, "fusion_lat": 0.0}, {"lat": 38.9257805, "lon": -77.05261783333333, "is_disabled": 0, "fusion_lon": 0.0, "is_reserved": 0, "name": "3a9f89513b31615d78d84ffdb690a709", "type": "electric_scooter", "bike_id": "3a9f89513b31615d78d84ffdb690a709", "rental_uris": {"ios": "https://dc.lft.to/lastmile_qr_scan", "android": "https://dc.lft.to/lastmile_qr_scan"}, "fusion_lat": 0.0}, {"lat": 38.92053383333333, "lon": -77.0237735, "is_disabled": 0, "fusion_lon": 0.0, "is_reserved": 0, "name": "b7396bf8982eea3a236e88cb62bbf795", "type": "electric_scooter", "bike_id": "b7396bf8982eea3a236e88cb62bbf795", "rental_uris": {"ios": "https://dc.lft.to/lastmile_qr_scan", "android": "https://dc.lft.to/lastmile_qr_scan"}, "fusion_lat": 0.0}, {"lat": 38.92266716666666, "lon": -77.019549, "is_disabled": 0, "fusion_lon": 0.0, "is_reserved": 0, "name": "509c11ecd51ba6efa4c79a33d2dae1f2", "type": "electric_scooter", "bike_id": "509c11ecd51ba6efa4c79a33d2dae1f2", "rental_uris": {"ios": "https://dc.lft.to/lastmile_qr_scan", "android": "https://dc.lft.to/lastmile_qr_scan"}, "fusion_lat": 0.0}, {"lat": 38.93336983333333, "lon": -77.02921816666667, "is_disabled": 0, "fusion_lon": 0.0, "is_reserved": 0, "name": "369bdf38c47edb3af4473f43926580bf", "type": "electric_scooter", "bike_id": "369bdf38c47edb3af4473f43926580bf", "rental_uris": {"ios": "https://dc.lft.to/lastmile_qr_scan", "android": "https://dc.lft.to/lastmile_qr_scan"}, "fusion_lat": 0.0}, {"lat": 38.917966166666666, "lon": -77.02462583333333, "is_disabled": 0, "fusion_lon": 0.0, "is_reserved": 0, "name": "a4c1ef6a706c404290002c129e58eb28", "type": "electric_scooter", "bike_id": "a4c1ef6a706c404290002c129e58eb28", "rental_uris": {"ios": "https://dc.lft.to/lastmile_qr_scan", "android": "https://dc.lft.to/lastmile_qr_scan"}, "fusion_lat": 0.0}, {"lat": 38.9266, "lon": -77.03847033333334, "is_disabled": 0, "fusion_lon": 0.0, "is_reserved": 0, "name": "475d741d7b2c44a71ba112969011c839", "type": "electric_scooter", "bike_id": "475d741d7b2c44a71ba112969011c839", "rental_uris": {"ios": "https://dc.lft.to/lastmile_qr_scan", "android": "https://dc.lft.to/lastmile_qr_scan"}, "fusion_lat": 0.0}, {"lat": 38.9275985, "lon": -77.03327466666667, "is_disabled": 0, "fusion_lon": 0.0, "is_reserved": 0, "name": "77ba1b645b2929819f3b4fdad67509b5", "type": "electric_scooter", "bike_id": "77ba1b645b2929819f3b4fdad67509b5", "rental_uris": {"ios": "https://dc.lft.to/lastmile_qr_scan", "android": "https://dc.lft.to/lastmile_qr_scan"}, "fusion_lat": 0.0}, {"lat": 38.89980166666667, "lon": -77.02854916666666, "is_disabled": 0, "fusion_lon": 0.0, "is_reserved": 0, "name": "a4b9567270d4b9cf86704c50ec446489", "type": "electric_scooter", "bike_id": "a4b9567270d4b9cf86704c50ec446489", "rental_uris": {"ios": "https://dc.lft.to/lastmile_qr_scan", "android": "https://dc.lft.to/lastmile_qr_scan"}, "fusion_lat": 0.0}, {"lat": 39.099691, "lon": -77.183031, "is_disabled": 0, "fusion_lon": 0.0, "is_reserved": 0, "name": "67a1b55a5236439f2d1c0a19e20c933f", "type": "electric_bike", "bike_id": "67a1b55a5236439f2d1c0a19e20c933f", "rental_uris": {"ios": "https://dc.lft.to/lastmile_qr_scan", "android": "https://dc.lft.to/lastmile_qr_scan"}, "fusion_lat": 0.0}, {"lat": 38.906147, "lon": -77.0435155, "is_disabled": 0, "fusion_lon": 0.0, "is_reserved": 0, "name": "941b621b10a9c0d73f3b95aa49d68bb5", "type": "electric_scooter", "bike_id": "941b621b10a9c0d73f3b95aa49d68bb5", "rental_uris": {"ios": "https://dc.lft.to/lastmile_qr_scan", "android": "https://dc.lft.to/lastmile_qr_scan"}, "fusion_lat": 0.0}, {"lat": 38.89989333333333, "lon": -77.02204, "is_disabled": 0, "fusion_lon": 0.0, "is_reserved": 0, "name": "ca0fdea8e932ca0217416e687ee0deb6", "type": "electric_scooter", "bike_id": "ca0fdea8e932ca0217416e687ee0deb6", "rental_uris": {"ios": "https://dc.lft.to/lastmile_qr_scan", "android": "https://dc.lft.to/lastmile_qr_scan"}, "fusion_lat": 0.0}, {"lat": 38.898525166666666, "lon": -76.99032716666666, "is_disabled": 0, "fusion_lon": 0.0, "is_reserved": 0, "name": "44dc7d1f2775ccf3f44d0e392051acb7", "type": "electric_scooter", "bike_id": "44dc7d1f2775ccf3f44d0e392051acb7", "rental_uris": {"ios": "https://dc.lft.to/lastmile_qr_scan", "android": "https://dc.lft.to/lastmile_qr_scan"}, "fusion_lat": 0.0}, {"lat": 38.89897633333333, "lon": -77.01960733333334, "is_disabled": 0, "fusion_lon": 0.0, "is_reserved": 0, "name": "93fa27fb2bbcc4d76c3cebb6abb15972", "type": "electric_scooter", "bike_id": "93fa27fb2bbcc4d76c3cebb6abb15972", "rental_uris": {"ios": "https://dc.lft.to/lastmile_qr_scan", "android": "https://dc.lft.to/lastmile_qr_scan"}, "fusion_lat": 0.0}, {"lat": 38.91211233333333, "lon": -77.07590416666666, "is_disabled": 0, "fusion_lon": 0.0, "is_reserved": 0, "name": "cf73f222f8cb381cc931fdfb6962c1c8", "type": "electric_scooter", "bike_id": "cf73f222f8cb381cc931fdfb6962c1c8", "rental_uris": {"ios": "https://dc.lft.to/lastmile_qr_scan", "android": "https://dc.lft.to/lastmile_qr_scan"}, "fusion_lat": 0.0}, {"lat": 38.93107066666666, "lon": -77.03082233333333, "is_disabled": 0, "fusion_lon": 0.0, "is_reserved": 0, "name": "a06aa2d75e6f9f1934bf2ed4f5374b9e", "type": "electric_scooter", "bike_id": "a06aa2d75e6f9f1934bf2ed4f5374b9e", "rental_uris": {"ios": "https://dc.lft.to/lastmile_qr_scan", "android": "https://dc.lft.to/lastmile_qr_scan"}, "fusion_lat": 0.0}, {"lat": 38.917222833333334, "lon": -77.027012, "is_disabled": 0, "fusion_lon": 0.0, "is_reserved": 0, "name": "0967ae03202179b510400ea183d4d13b", "type": "electric_scooter", "bike_id": "0967ae03202179b510400ea183d4d13b", "rental_uris": {"ios": "https://dc.lft.to/lastmile_qr_scan", "android": "https://dc.lft.to/lastmile_qr_scan"}, "fusion_lat": 0.0}, {"lat": 38.90490583333333, "lon": -77.02112766666667, "is_disabled": 0, "fusion_lon": 0.0, "is_reserved": 0, "name": "b507c55afb26e490204a1d15d332e3fd", "type": "electric_scooter", "bike_id": "b507c55afb26e490204a1d15d332e3fd", "rental_uris": {"ios": "https://dc.lft.to/lastmile_qr_scan", "android": "https://dc.lft.to/lastmile_qr_scan"}, "fusion_lat": 0.0}, {"lat": 38.887696, "lon": -77.02836783333333, "is_disabled": 0, "fusion_lon": 0.0, "is_reserved": 0, "name": "aa5c882b74f59e10a92c93db5d7c0a14", "type": "electric_scooter", "bike_id": "aa5c882b74f59e10a92c93db5d7c0a14", "rental_uris": {"ios": "https://dc.lft.to/lastmile_qr_scan", "android": "https://dc.lft.to/lastmile_qr_scan"}, "fusion_lat": 0.0}, {"lat": 38.9228825, "lon": -77.03196133333333, "is_disabled": 0, "fusion_lon": 0.0, "is_reserved": 0, "name": "cd690a062da422c6ebe5d958769b32fa", "type": "electric_scooter", "bike_id": "cd690a062da422c6ebe5d958769b32fa", "rental_uris": {"ios": "https://dc.lft.to/lastmile_qr_scan", "android": "https://dc.lft.to/lastmile_qr_scan"}, "fusion_lat": 0.0}, {"lat": 38.884987833333334, "lon": -76.980589, "is_disabled": 0, "fusion_lon": 0.0, "is_reserved": 0, "name": "e20e8c1c9625f5e10f6f1c34485d7508", "type": "electric_scooter", "bike_id": "e20e8c1c9625f5e10f6f1c34485d7508", "rental_uris": {"ios": "https://dc.lft.to/lastmile_qr_scan", "android": "https://dc.lft.to/lastmile_qr_scan"}, "fusion_lat": 0.0}, {"lat": 38.92488133333333, "lon": -77.022103, "is_disabled": 0, "fusion_lon": 0.0, "is_reserved": 0, "name": "e98c5dcd4b75e1654fc92a379324f510", "type": "electric_scooter", "bike_id": "e98c5dcd4b75e1654fc92a379324f510", "rental_uris": {"ios": "https://dc.lft.to/lastmile_qr_scan", "android": "https://dc.lft.to/lastmile_qr_scan"}, "fusion_lat": 0.0}, {"lat": 38.924271166666664, "lon": -77.0575585, "is_disabled": 0, "fusion_lon": 0.0, "is_reserved": 0, "name": "f5d4554f3e3ede50ea8db5c8882390bd", "type": "electric_scooter", "bike_id": "f5d4554f3e3ede50ea8db5c8882390bd", "rental_uris": {"ios": "https://dc.lft.to/lastmile_qr_scan", "android": "https://dc.lft.to/lastmile_qr_scan"}, "fusion_lat": 0.0}, {"lat": 38.8985965, "lon": -77.02208616666667, "is_disabled": 0, "fusion_lon": 0.0, "is_reserved": 0, "name": "33a7414edf4960d3a00edb5d40842a99", "type": "electric_scooter", "bike_id": "33a7414edf4960d3a00edb5d40842a99", "rental_uris": {"ios": "https://dc.lft.to/lastmile_qr_scan", "android": "https://dc.lft.to/lastmile_qr_scan"}, "fusion_lat": 0.0}, {"lat": 38.9214665, "lon": -77.0347925, "is_disabled": 0, "fusion_lon": 0.0, "is_reserved": 0, "name": "f9c6b7ead5dcd91682ea9474a596734d", "type": "electric_scooter", "bike_id": "f9c6b7ead5dcd91682ea9474a596734d", "rental_uris": {"ios": "https://dc.lft.to/lastmile_qr_scan", "android": "https://dc.lft.to/lastmile_qr_scan"}, "fusion_lat": 0.0}, {"lat": 38.92370666666667, "lon": -77.0204935, "is_disabled": 0, "fusion_lon": 0.0, "is_reserved": 0, "name": "916354130d09b908d55bce4217af5714", "type": "electric_scooter", "bike_id": "916354130d09b908d55bce4217af5714", "rental_uris": {"ios": "https://dc.lft.to/lastmile_qr_scan", "android": "https://dc.lft.to/lastmile_qr_scan"}, "fusion_lat": 0.0}, {"lat": 38.87342016666667, "lon": -76.991687, "is_disabled": 0, "fusion_lon": 0.0, "is_reserved": 0, "name": "286dee0091fb47a8cf0421d7c42df839", "type": "electric_scooter", "bike_id": "286dee0091fb47a8cf0421d7c42df839", "rental_uris": {"ios": "https://dc.lft.to/lastmile_qr_scan", "android": "https://dc.lft.to/lastmile_qr_scan"}, "fusion_lat": 0.0}, {"lat": 38.96185833333333, "lon": -77.05266683333333, "is_disabled": 0, "fusion_lon": 0.0, "is_reserved": 0, "name": "4f33397ee309deadb460681404974d50", "type": "electric_bike", "bike_id": "4f33397ee309deadb460681404974d50", "rental_uris": {"ios": "https://dc.lft.to/lastmile_qr_scan", "android": "https://dc.lft.to/lastmile_qr_scan"}, "fusion_lat": 0.0}, {"lat": 38.886971833333334, "lon": -77.00223333333334, "is_disabled": 0, "fusion_lon": 0.0, "is_reserved": 0, "name": "3f1874ea4b20add2b38b31e88384e0e7", "type": "electric_scooter", "bike_id": "3f1874ea4b20add2b38b31e88384e0e7", "rental_uris": {"ios": "https://dc.lft.to/lastmile_qr_scan", "android": "https://dc.lft.to/lastmile_qr_scan"}, "fusion_lat": 0.0}, {"lat": 38.93975583333334, "lon": -77.03255116666666, "is_disabled": 0, "fusion_lon": 0.0, "is_reserved": 0, "name": "42e00f99b2e22c8d9d09d110ceb01899", "type": "electric_scooter", "bike_id": "42e00f99b2e22c8d9d09d110ceb01899", "rental_uris": {"ios": "https://dc.lft.to/lastmile_qr_scan", "android": "https://dc.lft.to/lastmile_qr_scan"}, "fusion_lat": 0.0}, {"lat": 38.923184166666665, "lon": -77.0303935, "is_disabled": 0, "fusion_lon": 0.0, "is_reserved": 0, "name": "8d846ae2f23e3ece5535fc618c56e5c1", "type": "electric_scooter", "bike_id": "8d846ae2f23e3ece5535fc618c56e5c1", "rental_uris": {"ios": "https://dc.lft.to/lastmile_qr_scan", "android": "https://dc.lft.to/lastmile_qr_scan"}, "fusion_lat": 0.0}, {"lat": 38.89810083333333, "lon": -77.0313215, "is_disabled": 0, "fusion_lon": 0.0, "is_reserved": 0, "name": "bb40ec4f3d3423586e0e1b4b9a7a516d", "type": "electric_scooter", "bike_id": "bb40ec4f3d3423586e0e1b4b9a7a516d", "rental_uris": {"ios": "https://dc.lft.to/lastmile_qr_scan", "android": "https://dc.lft.to/lastmile_qr_scan"}, "fusion_lat": 0.0}, {"lat": 38.956024666666664, "lon": -77.01009116666667, "is_disabled": 0, "fusion_lon": 0.0, "is_reserved": 0, "name": "37d8c0090eec755d5760ff3f5ceba383", "type": "electric_bike", "bike_id": "37d8c0090eec755d5760ff3f5ceba383", "rental_uris": {"ios": "https://dc.lft.to/lastmile_qr_scan", "android": "https://dc.lft.to/lastmile_qr_scan"}, "fusion_lat": 0.0}, {"lat": 38.9296285, "lon": -77.01148466666666, "is_disabled": 0, "fusion_lon": 0.0, "is_reserved": 0, "name": "06367667453ee85135fe4a0318735625", "type": "electric_scooter", "bike_id": "06367667453ee85135fe4a0318735625", "rental_uris": {"ios": "https://dc.lft.to/lastmile_qr_scan", "android": "https://dc.lft.to/lastmile_qr_scan"}, "fusion_lat": 0.0}, {"lat": 38.88827333333333, "lon": -76.977191, "is_disabled": 0, "fusion_lon": 0.0, "is_reserved": 0, "name": "675887200074f8021a0d112a040bb003", "type": "electric_scooter", "bike_id": "675887200074f8021a0d112a040bb003", "rental_uris": {"ios": "https://dc.lft.to/lastmile_qr_scan", "android": "https://dc.lft.to/lastmile_qr_scan"}, "fusion_lat": 0.0}, {"lat": 38.892010666666664, "lon": -77.00292133333333, "is_disabled": 0, "fusion_lon": 0.0, "is_reserved": 0, "name": "78d773b28a715805b9167587453de561", "type": "electric_scooter", "bike_id": "78d773b28a715805b9167587453de561", "rental_uris": {"ios": "https://dc.lft.to/lastmile_qr_scan", "android": "https://dc.lft.to/lastmile_qr_scan"}, "fusion_lat": 0.0}, {"lat": 38.918234166666664, "lon": -77.02420866666667, "is_disabled": 0, "fusion_lon": 0.0, "is_reserved": 0, "name": "dd6f5f4199ff21f7d81db5c5cac4cfe6", "type": "electric_scooter", "bike_id": "dd6f5f4199ff21f7d81db5c5cac4cfe6", "rental_uris": {"ios": "https://dc.lft.to/lastmile_qr_scan", "android": "https://dc.lft.to/lastmile_qr_scan"}, "fusion_lat": 0.0}, {"lat": 38.894445833333336, "lon": -76.97817316666666, "is_disabled": 0, "fusion_lon": 0.0, "is_reserved": 0, "name": "4ed0185f2651cc1876abb82564605a71", "type": "electric_scooter", "bike_id": "4ed0185f2651cc1876abb82564605a71", "rental_uris": {"ios": "https://dc.lft.to/lastmile_qr_scan", "android": "https://dc.lft.to/lastmile_qr_scan"}, "fusion_lat": 0.0}, {"lat": 38.91988083333333, "lon": -77.02389766666667, "is_disabled": 0, "fusion_lon": 0.0, "is_reserved": 0, "name": "e86cb2e80bad11c5de344df583d5ba0e", "type": "electric_scooter", "bike_id": "e86cb2e80bad11c5de344df583d5ba0e", "rental_uris": {"ios": "https://dc.lft.to/lastmile_qr_scan", "android": "https://dc.lft.to/lastmile_qr_scan"}, "fusion_lat": 0.0}, {"lat": 38.93053333333334, "lon": -77.05569233333334, "is_disabled": 0, "fusion_lon": 0.0, "is_reserved": 0, "name": "f56b4e13823a410827a88ffe4a29f00d", "type": "electric_scooter", "bike_id": "f56b4e13823a410827a88ffe4a29f00d", "rental_uris": {"ios": "https://dc.lft.to/lastmile_qr_scan", "android": "https://dc.lft.to/lastmile_qr_scan"}, "fusion_lat": 0.0}, {"lat": 38.91572933333333, "lon": -77.020083, "is_disabled": 0, "fusion_lon": 0.0, "is_reserved": 0, "name": "b1f5607b8e1cfb812424942e9b2cd997", "type": "electric_scooter", "bike_id": "b1f5607b8e1cfb812424942e9b2cd997", "rental_uris": {"ios": "https://dc.lft.to/lastmile_qr_scan", "android": "https://dc.lft.to/lastmile_qr_scan"}, "fusion_lat": 0.0}, {"lat": 38.909479166666664, "lon": -77.044873, "is_disabled": 0, "fusion_lon": 0.0, "is_reserved": 0, "name": "a763e26f28ceb3bb99771150e433440d", "type": "electric_scooter", "bike_id": "a763e26f28ceb3bb99771150e433440d", "rental_uris": {"ios": "https://dc.lft.to/lastmile_qr_scan", "android": "https://dc.lft.to/lastmile_qr_scan"}, "fusion_lat": 0.0}, {"lat": 38.89549983333333, "lon": -76.98338883333334, "is_disabled": 0, "fusion_lon": 0.0, "is_reserved": 0, "name": "698f66ebe1f426dfcf2eb0ae7ad3ffb0", "type": "electric_scooter", "bike_id": "698f66ebe1f426dfcf2eb0ae7ad3ffb0", "rental_uris": {"ios": "https://dc.lft.to/lastmile_qr_scan", "android": "https://dc.lft.to/lastmile_qr_scan"}, "fusion_lat": 0.0}, {"lat": 38.9270495, "lon": -77.020782, "is_disabled": 0, "fusion_lon": 0.0, "is_reserved": 0, "name": "6903be3d88de3946d44d85f10304bfd9", "type": "electric_scooter", "bike_id": "6903be3d88de3946d44d85f10304bfd9", "rental_uris": {"ios": "https://dc.lft.to/lastmile_qr_scan", "android": "https://dc.lft.to/lastmile_qr_scan"}, "fusion_lat": 0.0}, {"lat": 38.9054135, "lon": -77.05040416666667, "is_disabled": 0, "fusion_lon": 0.0, "is_reserved": 0, "name": "0660042323075aa19dba7c23c06fed86", "type": "electric_scooter", "bike_id": "0660042323075aa19dba7c23c06fed86", "rental_uris": {"ios": "https://dc.lft.to/lastmile_qr_scan", "android": "https://dc.lft.to/lastmile_qr_scan"}, "fusion_lat": 0.0}, {"lat": 38.887725833333334, "lon": -77.001894, "is_disabled": 0, "fusion_lon": 0.0, "is_reserved": 0, "name": "78628ff48f9d50252087528987390c05", "type": "electric_scooter", "bike_id": "78628ff48f9d50252087528987390c05", "rental_uris": {"ios": "https://dc.lft.to/lastmile_qr_scan", "android": "https://dc.lft.to/lastmile_qr_scan"}, "fusion_lat": 0.0}, {"lat": 38.91645716666667, "lon": -77.022551, "is_disabled": 0, "fusion_lon": 0.0, "is_reserved": 0, "name": "dc7f9e6c6de80e4b0253bf757bf4404a", "type": "electric_scooter", "bike_id": "dc7f9e6c6de80e4b0253bf757bf4404a", "rental_uris": {"ios": "https://dc.lft.to/lastmile_qr_scan", "android": "https://dc.lft.to/lastmile_qr_scan"}, "fusion_lat": 0.0}, {"lat": 38.91945283333333, "lon": -77.03198816666666, "is_disabled": 0, "fusion_lon": 0.0, "is_reserved": 0, "name": "15597da729b46f0c3d8fa100b3e96b62", "type": "electric_scooter", "bike_id": "15597da729b46f0c3d8fa100b3e96b62", "rental_uris": {"ios": "https://dc.lft.to/lastmile_qr_scan", "android": "https://dc.lft.to/lastmile_qr_scan"}, "fusion_lat": 0.0}, {"lat": 38.922292, "lon": -77.01821883333334, "is_disabled": 0, "fusion_lon": 0.0, "is_reserved": 0, "name": "1669a33b2af958713fafef295e0b3910", "type": "electric_scooter", "bike_id": "1669a33b2af958713fafef295e0b3910", "rental_uris": {"ios": "https://dc.lft.to/lastmile_qr_scan", "android": "https://dc.lft.to/lastmile_qr_scan"}, "fusion_lat": 0.0}, {"lat": 38.92768816666667, "lon": -77.02064183333333, "is_disabled": 0, "fusion_lon": 0.0, "is_reserved": 0, "name": "355a19909ebc952a9000e56f779babda", "type": "electric_scooter", "bike_id": "355a19909ebc952a9000e56f779babda", "rental_uris": {"ios": "https://dc.lft.to/lastmile_qr_scan", "android": "https://dc.lft.to/lastmile_qr_scan"}, "fusion_lat": 0.0}, {"lat": 38.926064, "lon": -77.02154316666666, "is_disabled": 0, "fusion_lon": 0.0, "is_reserved": 0, "name": "ab46b1f321057f940e1dc3b45a28dca0", "type": "electric_scooter", "bike_id": "ab46b1f321057f940e1dc3b45a28dca0", "rental_uris": {"ios": "https://dc.lft.to/lastmile_qr_scan", "android": "https://dc.lft.to/lastmile_qr_scan"}, "fusion_lat": 0.0}, {"lat": 38.903766, "lon": -77.03809283333334, "is_disabled": 0, "fusion_lon": 0.0, "is_reserved": 0, "name": "a926ed951f03b0de2455c3bbb26069c9", "type": "electric_scooter", "bike_id": "a926ed951f03b0de2455c3bbb26069c9", "rental_uris": {"ios": "https://dc.lft.to/lastmile_qr_scan", "android": "https://dc.lft.to/lastmile_qr_scan"}, "fusion_lat": 0.0}, {"lat": 38.93404116666667, "lon": -77.03982383333333, "is_disabled": 0, "fusion_lon": 0.0, "is_reserved": 0, "name": "8424a308040dbc25b7b28fa602db8896", "type": "electric_scooter", "bike_id": "8424a308040dbc25b7b28fa602db8896", "rental_uris": {"ios": "https://dc.lft.to/lastmile_qr_scan", "android": "https://dc.lft.to/lastmile_qr_scan"}, "fusion_lat": 0.0}, {"lat": 38.89836433333333, "lon": -77.0467055, "is_disabled": 0, "fusion_lon": 0.0, "is_reserved": 0, "name": "e3475b946f61a1f120978cb2e76b9c81", "type": "electric_bike", "bike_id": "e3475b946f61a1f120978cb2e76b9c81", "rental_uris": {"ios": "https://dc.lft.to/lastmile_qr_scan", "android": "https://dc.lft.to/lastmile_qr_scan"}, "fusion_lat": 0.0}, {"lat": 38.903444666666665, "lon": -77.04640966666666, "is_disabled": 0, "fusion_lon": 0.0, "is_reserved": 0, "name": "590bbcc961c8365d1838b89f50e3cd7d", "type": "electric_scooter", "bike_id": "590bbcc961c8365d1838b89f50e3cd7d", "rental_uris": {"ios": "https://dc.lft.to/lastmile_qr_scan", "android": "https://dc.lft.to/lastmile_qr_scan"}, "fusion_lat": 0.0}, {"lat": 38.892249666666665, "lon": -77.0222895, "is_disabled": 0, "fusion_lon": 0.0, "is_reserved": 0, "name": "7c2aed9fd5b5222c79ce3b679d312e37", "type": "electric_scooter", "bike_id": "7c2aed9fd5b5222c79ce3b679d312e37", "rental_uris": {"ios": "https://dc.lft.to/lastmile_qr_scan", "android": "https://dc.lft.to/lastmile_qr_scan"}, "fusion_lat": 0.0}, {"lat": 38.92890716666667, "lon": -77.03255066666667, "is_disabled": 0, "fusion_lon": 0.0, "is_reserved": 0, "name": "b85012b24b22a7b995aa08ffcb47c7d5", "type": "electric_scooter", "bike_id": "b85012b24b22a7b995aa08ffcb47c7d5", "rental_uris": {"ios": "https://dc.lft.to/lastmile_qr_scan", "android": "https://dc.lft.to/lastmile_qr_scan"}, "fusion_lat": 0.0}, {"lat": 38.917105166666666, "lon": -77.00714783333333, "is_disabled": 0, "fusion_lon": 0.0, "is_reserved": 0, "name": "0a608f97b71cc8bfefb4b50080362c7e", "type": "electric_scooter", "bike_id": "0a608f97b71cc8bfefb4b50080362c7e", "rental_uris": {"ios": "https://dc.lft.to/lastmile_qr_scan", "android": "https://dc.lft.to/lastmile_qr_scan"}, "fusion_lat": 0.0}, {"lat": 38.9368755, "lon": -77.02404116666666, "is_disabled": 0, "fusion_lon": 0.0, "is_reserved": 0, "name": "952d084a8f2a61accb803edba35f8266", "type": "electric_scooter", "bike_id": "952d084a8f2a61accb803edba35f8266", "rental_uris": {"ios": "https://dc.lft.to/lastmile_qr_scan", "android": "https://dc.lft.to/lastmile_qr_scan"}, "fusion_lat": 0.0}, {"lat": 39.03613933333333, "lon": -77.05543733333333, "is_disabled": 0, "fusion_lon": 0.0, "is_reserved": 0, "name": "8e38306f7b32f50d7167e7a933da200c", "type": "electric_bike", "bike_id": "8e38306f7b32f50d7167e7a933da200c", "rental_uris": {"ios": "https://dc.lft.to/lastmile_qr_scan", "android": "https://dc.lft.to/lastmile_qr_scan"}, "fusion_lat": 0.0}, {"lat": 38.92301366666667, "lon": -77.03529883333333, "is_disabled": 0, "fusion_lon": 0.0, "is_reserved": 0, "name": "45e30ed5d02af1c58616aa3114dce61d", "type": "electric_scooter", "bike_id": "45e30ed5d02af1c58616aa3114dce61d", "rental_uris": {"ios": "https://dc.lft.to/lastmile_qr_scan", "android": "https://dc.lft.to/lastmile_qr_scan"}, "fusion_lat": 0.0}, {"lat": 38.911219333333335, "lon": -77.0432345, "is_disabled": 0, "fusion_lon": 0.0, "is_reserved": 0, "name": "e851b79f17164f34eacaf7d0b5a6a996", "type": "electric_scooter", "bike_id": "e851b79f17164f34eacaf7d0b5a6a996", "rental_uris": {"ios": "https://dc.lft.to/lastmile_qr_scan", "android": "https://dc.lft.to/lastmile_qr_scan"}, "fusion_lat": 0.0}, {"lat": 39.014873, "lon": -77.0995045, "is_disabled": 0, "fusion_lon": 0.0, "is_reserved": 0, "name": "362c2cfe0b7a3c15c1260a30d2e45b20", "type": "electric_bike", "bike_id": "362c2cfe0b7a3c15c1260a30d2e45b20", "rental_uris": {"ios": "https://dc.lft.to/lastmile_qr_scan", "android": "https://dc.lft.to/lastmile_qr_scan"}, "fusion_lat": 0.0}, {"lat": 38.92452, "lon": -77.05192916666667, "is_disabled": 0, "fusion_lon": 0.0, "is_reserved": 0, "name": "1178f5e1cd99983a9c09f38751333a39", "type": "electric_scooter", "bike_id": "1178f5e1cd99983a9c09f38751333a39", "rental_uris": {"ios": "https://dc.lft.to/lastmile_qr_scan", "android": "https://dc.lft.to/lastmile_qr_scan"}, "fusion_lat": 0.0}, {"lat": 38.91552816666667, "lon": -77.03251116666667, "is_disabled": 0, "fusion_lon": 0.0, "is_reserved": 0, "name": "ad488e3cf53d221869c7120f88b2901a", "type": "electric_scooter", "bike_id": "ad488e3cf53d221869c7120f88b2901a", "rental_uris": {"ios": "https://dc.lft.to/lastmile_qr_scan", "android": "https://dc.lft.to/lastmile_qr_scan"}, "fusion_lat": 0.0}, {"lat": 38.929742, "lon": -77.02333866666666, "is_disabled": 0, "fusion_lon": 0.0, "is_reserved": 0, "name": "09f31876be5c9518cfc74dcd919d12b7", "type": "electric_scooter", "bike_id": "09f31876be5c9518cfc74dcd919d12b7", "rental_uris": {"ios": "https://dc.lft.to/lastmile_qr_scan", "android": "https://dc.lft.to/lastmile_qr_scan"}, "fusion_lat": 0.0}, {"lat": 38.91025483333333, "lon": -76.99718883333334, "is_disabled": 0, "fusion_lon": 0.0, "is_reserved": 0, "name": "608e00f3b6b3292fb6a0c182f08f4bd3", "type": "electric_scooter", "bike_id": "608e00f3b6b3292fb6a0c182f08f4bd3", "rental_uris": {"ios": "https://dc.lft.to/lastmile_qr_scan", "android": "https://dc.lft.to/lastmile_qr_scan"}, "fusion_lat": 0.0}, {"lat": 38.903284666666664, "lon": -77.019993, "is_disabled": 0, "fusion_lon": 0.0, "is_reserved": 0, "name": "28b008d2cea7af81a481f663bb8d9ac5", "type": "electric_scooter", "bike_id": "28b008d2cea7af81a481f663bb8d9ac5", "rental_uris": {"ios": "https://dc.lft.to/lastmile_qr_scan", "android": "https://dc.lft.to/lastmile_qr_scan"},