{"data": {"bikes": [{"is_disabled": 0, "rental_uris": {"android": "https://dc.lft.to/lastmile_qr_scan", "ios": "https://dc.lft.to/lastmile_qr_scan"}, "is_reserved": 0, "name": "1cb7c65f1bd0cf5a77469c4d8112b9ee", "lon": -76.99857516666667, "type": "electric_scooter", "bike_id": "1cb7c65f1bd0cf5a77469c4d8112b9ee", "fusion_lon": 0.0, "lat": 38.900248833333336, "fusion_lat": 0.0}, {"is_disabled": 0, "rental_uris": {"android": "https://dc.lft.to/lastmile_qr_scan", "ios": "https://dc.lft.to/lastmile_qr_scan"}, "is_reserved": 0, "name": "e29329ce7bb3058260243e5cbcd29a59", "lon": -76.97900333333334, "type": "electric_bike", "bike_id": "e29329ce7bb3058260243e5cbcd29a59", "fusion_lon": 0.0, "lat": 38.854905333333335, "fusion_lat": 0.0}, {"is_disabled": 0, "rental_uris": {"android": "https://dc.lft.to/lastmile_qr_scan", "ios": "https://dc.lft.to/lastmile_qr_scan"}, "is_reserved": 0, "name": "a49aaccc22846a5a7f3396aec09a80c8", "lon": -76.90818783333333, "type": "electric_bike", "bike_id": "a49aaccc22846a5a7f3396aec09a80c8", "fusion_lon": 0.0, "lat": 38.99453616666667, "fusion_lat": 0.0}, {"is_disabled": 0, "rental_uris": {"android": "https://dc.lft.to/lastmile_qr_scan", "ios": "https://dc.lft.to/lastmile_qr_scan"}, "is_reserved": 0, "name": "5431e839e1413bab66e3d5a3b71cb664", "lon": -77.0077725, "type": "electric_scooter", "bike_id": "5431e839e1413bab66e3d5a3b71cb664", "fusion_lon": 0.0, "lat": 38.87113, "fusion_lat": 0.0}, {"is_disabled": 0, "rental_uris": {"android": "https://dc.lft.to/lastmile_qr_scan", "ios": "https://dc.lft.to/lastmile_qr_scan"}, "is_reserved": 0, "name": "665d3216ef0b8a4c4cbde658710f929a", "lon": -76.99537116666667, "type": "electric_scooter", "bike_id": "665d3216ef0b8a4c4cbde658710f929a", "fusion_lon": 0.0, "lat": 38.8625205, "fusion_lat": 0.0}, {"is_disabled": 0, "rental_uris": {"android": "https://dc.lft.to/lastmile_qr_scan", "ios": "https://dc.lft.to/lastmile_qr_scan"}, "is_reserved": 0, "name": "f017b6f994731bff68a2875eba3b8eca", "lon": -77.04034033333333, "type": "electric_scooter", "bike_id": "f017b6f994731bff68a2875eba3b8eca", "fusion_lon": 0.0, "lat": 38.92419116666667, "fusion_lat": 0.0}, {"is_disabled": 0, "rental_uris": {"android": "https://dc.lft.to/lastmile_qr_scan", "ios": "https://dc.lft.to/lastmile_qr_scan"}, "is_reserved": 0, "name": "498f0a2232b0de50d91a41dd0927e877", "lon": -77.050959, "type": "electric_scooter", "bike_id": "498f0a2232b0de50d91a41dd0927e877", "fusion_lon": 0.0, "lat": 38.9234265, "fusion_lat": 0.0}, {"is_disabled": 0, "rental_uris": {"android": "https://dc.lft.to/lastmile_qr_scan", "ios": "https://dc.lft.to/lastmile_qr_scan"}, "is_reserved": 0, "name": "484c4cea8a60ceb22d0a4f38eb8a768c", "lon": -77.03202166666667, "type": "electric_scooter", "bike_id": "484c4cea8a60ceb22d0a4f38eb8a768c", "fusion_lon": 0.0, "lat": 38.910635666666664, "fusion_lat": 0.0}, {"is_disabled": 0, "rental_uris": {"android": "https://dc.lft.to/lastmile_qr_scan", "ios": "https://dc.lft.to/lastmile_qr_scan"}, "is_reserved": 0, "name": "21ab3bbe55c4b206f7b05c6bfb3a39fb", "lon": -76.94894966666666, "type": "electric_scooter", "bike_id": "21ab3bbe55c4b206f7b05c6bfb3a39fb", "fusion_lon": 0.0, "lat": 38.89530233333333, "fusion_lat": 0.0}, {"is_disabled": 0, "rental_uris": {"android": "https://dc.lft.to/lastmile_qr_scan", "ios": "https://dc.lft.to/lastmile_qr_scan"}, "is_reserved": 0, "name": "76fd507526baeff18bc3cee8f77bd826", "lon": -77.019388, "type": "electric_scooter", "bike_id": "76fd507526baeff18bc3cee8f77bd826", "fusion_lon": 0.0, "lat": 38.94704383333333, "fusion_lat": 0.0}, {"is_disabled": 0, "rental_uris": {"android": "https://dc.lft.to/lastmile_qr_scan", "ios": "https://dc.lft.to/lastmile_qr_scan"}, "is_reserved": 0, "name": "08a7554853c087cd7151b038a4f877e2", "lon": -77.03445266666667, "type": "electric_scooter", "bike_id": "08a7554853c087cd7151b038a4f877e2", "fusion_lon": 0.0, "lat": 38.9150255, "fusion_lat": 0.0}, {"is_disabled": 0, "rental_uris": {"android": "https://dc.lft.to/lastmile_qr_scan", "ios": "https://dc.lft.to/lastmile_qr_scan"}, "is_reserved": 0, "name": "032fa8681191f65e033515ed6ea43cd0", "lon": -77.03666083333333, "type": "electric_scooter", "bike_id": "032fa8681191f65e033515ed6ea43cd0", "fusion_lon": 0.0, "lat": 38.902832833333335, "fusion_lat": 0.0}, {"is_disabled": 0, "rental_uris": {"android": "https://dc.lft.to/lastmile_qr_scan", "ios": "https://dc.lft.to/lastmile_qr_scan"}, "is_reserved": 0, "name": "6af53cea1ca78f81606ee919fcaddfa9", "lon": -76.9159455, "type": "electric_bike", "bike_id": "6af53cea1ca78f81606ee919fcaddfa9", "fusion_lon": 0.0, "lat": 38.8800575, "fusion_lat": 0.0}, {"is_disabled": 0, "rental_uris": {"android": "https://dc.lft.to/lastmile_qr_scan", "ios": "https://dc.lft.to/lastmile_qr_scan"}, "is_reserved": 0, "name": "3baa42f88830f37c79d401210e1daa09", "lon": -76.98338533333333, "type": "electric_scooter", "bike_id": "3baa42f88830f37c79d401210e1daa09", "fusion_lon": 0.0, "lat": 38.91271783333333, "fusion_lat": 0.0}, {"is_disabled": 0, "rental_uris": {"android": "https://dc.lft.to/lastmile_qr_scan", "ios": "https://dc.lft.to/lastmile_qr_scan"}, "is_reserved": 0, "name": "37a7bf53e132e5a6f5159f75f51a9e2c", "lon": -77.03740633333334, "type": "electric_scooter", "bike_id": "37a7bf53e132e5a6f5159f75f51a9e2c", "fusion_lon": 0.0, "lat": 38.911886333333335, "fusion_lat": 0.0}, {"is_disabled": 0, "rental_uris": {"android": "https://dc.lft.to/lastmile_qr_scan", "ios": "https://dc.lft.to/lastmile_qr_scan"}, "is_reserved": 0, "name": "9bfa47a158bac1ac698be5c6b89e1305", "lon": -77.00333833333333, "type": "electric_scooter", "bike_id": "9bfa47a158bac1ac698be5c6b89e1305", "fusion_lon": 0.0, "lat": 38.883141, "fusion_lat": 0.0}, {"is_disabled": 0, "rental_uris": {"android": "https://dc.lft.to/lastmile_qr_scan", "ios": "https://dc.lft.to/lastmile_qr_scan"}, "is_reserved": 0, "name": "a13645b0ac3810003027858d6ae58109", "lon": -77.02944633333334, "type": "electric_scooter", "bike_id": "a13645b0ac3810003027858d6ae58109", "fusion_lon": 0.0, "lat": 38.89522266666667, "fusion_lat": 0.0}, {"is_disabled": 0, "rental_uris": {"android": "https://dc.lft.to/lastmile_qr_scan", "ios": "https://dc.lft.to/lastmile_qr_scan"}, "is_reserved": 0, "name": "15a6392cde98559c611400e187a22309", "lon": -77.01632566666666, "type": "electric_scooter", "bike_id": "15a6392cde98559c611400e187a22309", "fusion_lon": 0.0, "lat": 38.88323583333333, "fusion_lat": 0.0}, {"is_disabled": 0, "rental_uris": {"android": "https://dc.lft.to/lastmile_qr_scan", "ios": "https://dc.lft.to/lastmile_qr_scan"}, "is_reserved": 0, "name": "9be76e11a43d25db729b3c43b3d52048", "lon": -77.02842833333334, "type": "electric_scooter", "bike_id": "9be76e11a43d25db729b3c43b3d52048", "fusion_lon": 0.0, "lat": 38.934242833333336, "fusion_lat": 0.0}, {"is_disabled": 0, "rental_uris": {"android": "https://dc.lft.to/lastmile_qr_scan", "ios": "https://dc.lft.to/lastmile_qr_scan"}, "is_reserved": 0, "name": "c739d9837f3d6cbceb29b73e3fcb7888", "lon": -77.03438483333333, "type": "electric_scooter", "bike_id": "c739d9837f3d6cbceb29b73e3fcb7888", "fusion_lon": 0.0, "lat": 38.90726516666667, "fusion_lat": 0.0}, {"is_disabled": 0, "rental_uris": {"android": "https://dc.lft.to/lastmile_qr_scan", "ios": "https://dc.lft.to/lastmile_qr_scan"}, "is_reserved": 0, "name": "2238db73437a00f873826eb2add6d95e", "lon": -77.012588, "type": "electric_scooter", "bike_id": "2238db73437a00f873826eb2add6d95e", "fusion_lon": 0.0, "lat": 38.87630933333333, "fusion_lat": 0.0}, {"is_disabled": 0, "rental_uris": {"android": "https://dc.lft.to/lastmile_qr_scan", "ios": "https://dc.lft.to/lastmile_qr_scan"}, "is_reserved": 0, "name": "2826358bed41ea2245762c43dc4e656c", "lon": -77.039626, "type": "electric_scooter", "bike_id": "2826358bed41ea2245762c43dc4e656c", "fusion_lon": 0.0, "lat": 38.931503166666666, "fusion_lat": 0.0}, {"is_disabled": 0, "rental_uris": {"android": "https://dc.lft.to/lastmile_qr_scan", "ios": "https://dc.lft.to/lastmile_qr_scan"}, "is_reserved": 0, "name": "961a11503b9e9f520e7d1a1249a7839e", "lon": -77.01757516666666, "type": "electric_scooter", "bike_id": "961a11503b9e9f520e7d1a1249a7839e", "fusion_lon": 0.0, "lat": 38.876864833333336, "fusion_lat": 0.0}, {"is_disabled": 0, "rental_uris": {"android": "https://dc.lft.to/lastmile_qr_scan", "ios": "https://dc.lft.to/lastmile_qr_scan"}, "is_reserved": 0, "name": "18690002cba4a1c5c19d97807ad14a09", "lon": -76.93413466666667, "type": "electric_bike", "bike_id": "18690002cba4a1c5c19d97807ad14a09", "fusion_lon": 0.0, "lat": 38.946236999999996, "fusion_lat": 0.0}, {"is_disabled": 0, "rental_uris": {"android": "https://dc.lft.to/lastmile_qr_scan", "ios": "https://dc.lft.to/lastmile_qr_scan"}, "is_reserved": 0, "name": "be1191efc4a237540131e3f274b0502c", "lon": -77.03522366666667, "type": "electric_scooter", "bike_id": "be1191efc4a237540131e3f274b0502c", "fusion_lon": 0.0, "lat": 38.9359495, "fusion_lat": 0.0}, {"is_disabled": 0, "rental_uris": {"android": "https://dc.lft.to/lastmile_qr_scan", "ios": "https://dc.lft.to/lastmile_qr_scan"}, "is_reserved": 0, "name": "2a1f8d259cedfd9b72bec4c0a29509c6", "lon": -77.02122916666667, "type": "electric_scooter", "bike_id": "2a1f8d259cedfd9b72bec4c0a29509c6", "fusion_lon": 0.0, "lat": 38.887413333333335, "fusion_lat": 0.0}, {"is_disabled": 0, "rental_uris": {"android": "https://dc.lft.to/lastmile_qr_scan", "ios": "https://dc.lft.to/lastmile_qr_scan"}, "is_reserved": 0, "name": "5c3c7cd656ff8ebbc3f2248a5b3a8951", "lon": -77.0291785, "type": "electric_scooter", "bike_id": "5c3c7cd656ff8ebbc3f2248a5b3a8951", "fusion_lon": 0.0, "lat": 38.9387585, "fusion_lat": 0.0}, {"is_disabled": 0, "rental_uris": {"android": "https://dc.lft.to/lastmile_qr_scan", "ios": "https://dc.lft.to/lastmile_qr_scan"}, "is_reserved": 0, "name": "cccf563fa1913250009d6b11ffb552a7", "lon": -77.02529583333333, "type": "electric_scooter", "bike_id": "cccf563fa1913250009d6b11ffb552a7", "fusion_lon": 0.0, "lat": 38.9024485, "fusion_lat": 0.0}, {"is_disabled": 0, "rental_uris": {"android": "https://dc.lft.to/lastmile_qr_scan", "ios": "https://dc.lft.to/lastmile_qr_scan"}, "is_reserved": 0, "name": "9238263c767d42e72d6286ad096b5500", "lon": -76.96539383333334, "type": "electric_scooter", "bike_id": "9238263c767d42e72d6286ad096b5500", "fusion_lon": 0.0, "lat": 38.91887366666667, "fusion_lat": 0.0}, {"is_disabled": 0, "rental_uris": {"android": "https://dc.lft.to/lastmile_qr_scan", "ios": "https://dc.lft.to/lastmile_qr_scan"}, "is_reserved": 0, "name": "1657895cf5e865bc57bc9cc5a22e8038", "lon": -77.0157635, "type": "electric_scooter", "bike_id": "1657895cf5e865bc57bc9cc5a22e8038", "fusion_lon": 0.0, "lat": 38.87641083333333, "fusion_lat": 0.0}, {"is_disabled": 0, "rental_uris": {"android": "https://dc.lft.to/lastmile_qr_scan", "ios": "https://dc.lft.to/lastmile_qr_scan"}, "is_reserved": 0, "name": "d302f19cae229eec2cc75899df81f61f", "lon": -77.02368266666667, "type": "electric_scooter", "bike_id": "d302f19cae229eec2cc75899df81f61f", "fusion_lon": 0.0, "lat": 38.88769516666667, "fusion_lat": 0.0}, {"is_disabled": 0, "rental_uris": {"android": "https://dc.lft.to/lastmile_qr_scan", "ios": "https://dc.lft.to/lastmile_qr_scan"}, "is_reserved": 0, "name": "fb08616251806a8c8ac2f8dc484b04f1", "lon": -77.0596655, "type": "electric_scooter", "bike_id": "fb08616251806a8c8ac2f8dc484b04f1", "fusion_lon": 0.0, "lat": 38.90522466666667, "fusion_lat": 0.0}, {"is_disabled": 0, "rental_uris": {"android": "https://dc.lft.to/lastmile_qr_scan", "ios": "https://dc.lft.to/lastmile_qr_scan"}, "is_reserved": 0, "name": "7125c7c016d4663e9a9e2e322f04bffd", "lon": -76.996834, "type": "electric_scooter", "bike_id": "7125c7c016d4663e9a9e2e322f04bffd", "fusion_lon": 0.0, "lat": 38.860365, "fusion_lat": 0.0}, {"is_disabled": 0, "rental_uris": {"android": "https://dc.lft.to/lastmile_qr_scan", "ios": "https://dc.lft.to/lastmile_qr_scan"}, "is_reserved": 0, "name": "d012ad2eb538d437c3c2a724d75fcc6f", "lon": -76.94886216666667, "type": "electric_scooter", "bike_id": "d012ad2eb538d437c3c2a724d75fcc6f", "fusion_lon": 0.0, "lat": 38.89509783333333, "fusion_lat": 0.0}, {"is_disabled": 0, "rental_uris": {"android": "https://dc.lft.to/lastmile_qr_scan", "ios": "https://dc.lft.to/lastmile_qr_scan"}, "is_reserved": 0, "name": "5f56f6afca52d40b7bc02c113ef35783", "lon": -77.14777483333333, "type": "electric_bike", "bike_id": "5f56f6afca52d40b7bc02c113ef35783", "fusion_lon": 0.0, "lat": 39.0959325, "fusion_lat": 0.0}, {"is_disabled": 0, "rental_uris": {"android": "https://dc.lft.to/lastmile_qr_scan", "ios": "https://dc.lft.to/lastmile_qr_scan"}, "is_reserved": 0, "name": "4cd61a0d17077b65008081002836c349", "lon": -77.0460275, "type": "electric_scooter", "bike_id": "4cd61a0d17077b65008081002836c349", "fusion_lon": 0.0, "lat": 38.917102166666666, "fusion_lat": 0.0}, {"is_disabled": 0, "rental_uris": {"android": "https://dc.lft.to/lastmile_qr_scan", "ios": "https://dc.lft.to/lastmile_qr_scan"}, "is_reserved": 0, "name": "853b003ac927172f4ad14010866a55c8", "lon": -77.03613966666667, "type": "electric_scooter", "bike_id": "853b003ac927172f4ad14010866a55c8", "fusion_lon": 0.0, "lat": 38.93148, "fusion_lat": 0.0}, {"is_disabled": 0, "rental_uris": {"android": "https://dc.lft.to/lastmile_qr_scan", "ios": "https://dc.lft.to/lastmile_qr_scan"}, "is_reserved": 0, "name": "1afb75e3ff371d670677c74ee815c91c", "lon": -77.00739266666666, "type": "electric_scooter", "bike_id": "1afb75e3ff371d670677c74ee815c91c", "fusion_lon": 0.0, "lat": 38.8984735, "fusion_lat": 0.0}, {"is_disabled": 0, "rental_uris": {"android": "https://dc.lft.to/lastmile_qr_scan", "ios": "https://dc.lft.to/lastmile_qr_scan"}, "is_reserved": 0, "name": "661406e6f0f8d5c48385233a88244c91", "lon": -77.09578983333333, "type": "electric_bike", "bike_id": "661406e6f0f8d5c48385233a88244c91", "fusion_lon": 0.0, "lat": 38.837921333333334, "fusion_lat": 0.0}, {"is_disabled": 0, "rental_uris": {"android": "https://dc.lft.to/lastmile_qr_scan", "ios": "https://dc.lft.to/lastmile_qr_scan"}, "is_reserved": 0, "name": "4b55de51a7bf2c11a40abd1fa488ccf1", "lon": -76.947018, "type": "electric_scooter", "bike_id": "4b55de51a7bf2c11a40abd1fa488ccf1", "fusion_lon": 0.0, "lat": 38.89730766666667, "fusion_lat": 0.0}, {"is_disabled": 0, "rental_uris": {"android": "https://dc.lft.to/lastmile_qr_scan", "ios": "https://dc.lft.to/lastmile_qr_scan"}, "is_reserved": 0, "name": "58e5a846aca2f3bf1b02ae2b4120d923", "lon": -77.02571433333334, "type": "electric_scooter", "bike_id": "58e5a846aca2f3bf1b02ae2b4120d923", "fusion_lon": 0.0, "lat": 38.89964333333333, "fusion_lat": 0.0}, {"is_disabled": 0, "rental_uris": {"android": "https://dc.lft.to/lastmile_qr_scan", "ios": "https://dc.lft.to/lastmile_qr_scan"}, "is_reserved": 0, "name": "5fbefec0064776f9d4e0593b5a9520be", "lon": -76.99227483333334, "type": "electric_scooter", "bike_id": "5fbefec0064776f9d4e0593b5a9520be", "fusion_lon": 0.0, "lat": 38.89882566666667, "fusion_lat": 0.0}, {"is_disabled": 0, "rental_uris": {"android": "https://dc.lft.to/lastmile_qr_scan", "ios": "https://dc.lft.to/lastmile_qr_scan"}, "is_reserved": 0, "name": "87478eeedb8125df255576a2473ccf10", "lon": -77.03058033333333, "type": "electric_scooter", "bike_id": "87478eeedb8125df255576a2473ccf10", "fusion_lon": 0.0, "lat": 38.95632716666667, "fusion_lat": 0.0}, {"is_disabled": 0, "rental_uris": {"android": "https://dc.lft.to/lastmile_qr_scan", "ios": "https://dc.lft.to/lastmile_qr_scan"}, "is_reserved": 0, "name": "6e7ad9cf2ce10c464dea71f905d6ae5c", "lon": -77.04124283333333, "type": "electric_scooter", "bike_id": "6e7ad9cf2ce10c464dea71f905d6ae5c", "fusion_lon": 0.0, "lat": 38.91708833333333, "fusion_lat": 0.0}, {"is_disabled": 0, "rental_uris": {"android": "https://dc.lft.to/lastmile_qr_scan", "ios": "https://dc.lft.to/lastmile_qr_scan"}, "is_reserved": 0, "name": "c0fcde6ef07f8a556a396aeddfcc9450", "lon": -77.02817416666667, "type": "electric_scooter", "bike_id": "c0fcde6ef07f8a556a396aeddfcc9450", "fusion_lon": 0.0, "lat": 38.89803966666667, "fusion_lat": 0.0}, {"is_disabled": 0, "rental_uris": {"android": "https://dc.lft.to/lastmile_qr_scan", "ios": "https://dc.lft.to/lastmile_qr_scan"}, "is_reserved": 0, "name": "dc31cbe2a64a6f908fac8e523a7b1af8", "lon": -77.00585, "type": "electric_bike", "bike_id": "dc31cbe2a64a6f908fac8e523a7b1af8", "fusion_lon": 0.0, "lat": 38.836948166666666, "fusion_lat": 0.0}, {"is_disabled": 0, "rental_uris": {"android": "https://dc.lft.to/lastmile_qr_scan", "ios": "https://dc.lft.to/lastmile_qr_scan"}, "is_reserved": 0, "name": "206a22688c8f8183d68ed5998d9f581b", "lon": -77.02958983333333, "type": "electric_scooter", "bike_id": "206a22688c8f8183d68ed5998d9f581b", "fusion_lon": 0.0, "lat": 38.91706383333333, "fusion_lat": 0.0}, {"is_disabled": 0, "rental_uris": {"android": "https://dc.lft.to/lastmile_qr_scan", "ios": "https://dc.lft.to/lastmile_qr_scan"}, "is_reserved": 0, "name": "828ec146075697d680b8e341b8653eea", "lon": -76.96176716666666, "type": "electric_bike", "bike_id": "828ec146075697d680b8e341b8653eea", "fusion_lon": 0.0, "lat": 38.918612333333336, "fusion_lat": 0.0}, {"is_disabled": 0, "rental_uris": {"android": "https://dc.lft.to/lastmile_qr_scan", "ios": "https://dc.lft.to/lastmile_qr_scan"}, "is_reserved": 0, "name": "3ffbf4dc6f2fbf68565cb38439a003a4", "lon": -77.03148183333333, "type": "electric_scooter", "bike_id": "3ffbf4dc6f2fbf68565cb38439a003a4", "fusion_lon": 0.0, "lat": 38.90958966666667, "fusion_lat": 0.0}, {"is_disabled": 0, "rental_uris": {"android": "https://dc.lft.to/lastmile_qr_scan", "ios": "https://dc.lft.to/lastmile_qr_scan"}, "is_reserved": 0, "name": "65503373112047099d1614d12be29674", "lon": -77.038322, "type": "electric_scooter", "bike_id": "65503373112047099d1614d12be29674", "fusion_lon": 0.0, "lat": 38.911065666666666, "fusion_lat": 0.0}, {"is_disabled": 0, "rental_uris": {"android": "https://dc.lft.to/lastmile_qr_scan", "ios": "https://dc.lft.to/lastmile_qr_scan"}, "is_reserved": 0, "name": "228081fcb1d0f857799cbe1922bc4b3e", "lon": -77.06352833333334, "type": "electric_scooter", "bike_id": "228081fcb1d0f857799cbe1922bc4b3e", "fusion_lon": 0.0, "lat": 38.94439283333333, "fusion_lat": 0.0}, {"is_disabled": 0, "rental_uris": {"android": "https://dc.lft.to/lastmile_qr_scan", "ios": "https://dc.lft.to/lastmile_qr_scan"}, "is_reserved": 0, "name": "ebbccfb2f3663faf7643b8d753fb9eb6", "lon": -76.93382283333334, "type": "electric_scooter", "bike_id": "ebbccfb2f3663faf7643b8d753fb9eb6", "fusion_lon": 0.0, "lat": 38.899111166666664, "fusion_lat": 0.0}, {"is_disabled": 0, "rental_uris": {"android": "https://dc.lft.to/lastmile_qr_scan", "ios": "https://dc.lft.to/lastmile_qr_scan"}, "is_reserved": 0, "name": "ee62754bda30a6f5ce8edb1d11c770b9", "lon": -77.01180366666667, "type": "electric_scooter", "bike_id": "ee62754bda30a6f5ce8edb1d11c770b9", "fusion_lon": 0.0, "lat": 38.870857, "fusion_lat": 0.0}, {"is_disabled": 0, "rental_uris": {"android": "https://dc.lft.to/lastmile_qr_scan", "ios": "https://dc.lft.to/lastmile_qr_scan"}, "is_reserved": 0, "name": "cc56bca2433288d28ba27a7a8f2b9cf4", "lon": -77.02492483333333, "type": "electric_scooter", "bike_id": "cc56bca2433288d28ba27a7a8f2b9cf4", "fusion_lon": 0.0, "lat": 38.902353833333336, "fusion_lat": 0.0}, {"is_disabled": 0, "rental_uris": {"android": "https://dc.lft.to/lastmile_qr_scan", "ios": "https://dc.lft.to/lastmile_qr_scan"}, "is_reserved": 0, "name": "bd9440c8d19bc6417f4d1d4bdd5ed3b5", "lon": -76.92933616666667, "type": "electric_bike", "bike_id": "bd9440c8d19bc6417f4d1d4bdd5ed3b5", "fusion_lon": 0.0, "lat": 38.9028745, "fusion_lat": 0.0}, {"is_disabled": 0, "rental_uris": {"android": "https://dc.lft.to/lastmile_qr_scan", "ios": "https://dc.lft.to/lastmile_qr_scan"}, "is_reserved": 0, "name": "c59a5c53debf596ecd76045a30754b7b", "lon": -77.00197116666666, "type": "electric_scooter", "bike_id": "c59a5c53debf596ecd76045a30754b7b", "fusion_lon": 0.0, "lat": 38.916355, "fusion_lat": 0.0}, {"is_disabled": 0, "rental_uris": {"android": "https://dc.lft.to/lastmile_qr_scan", "ios": "https://dc.lft.to/lastmile_qr_scan"}, "is_reserved": 0, "name": "816fc77f66642b8e3c649d1591aa8e4c", "lon": -77.030925, "type": "electric_scooter", "bike_id": "816fc77f66642b8e3c649d1591aa8e4c", "fusion_lon": 0.0, "lat": 38.935385833333335, "fusion_lat": 0.0}, {"is_disabled": 0, "rental_uris": {"android": "https://dc.lft.to/lastmile_qr_scan", "ios": "https://dc.lft.to/lastmile_qr_scan"}, "is_reserved": 0, "name": "5cd5db9b76c3f9f8c7aaae6ef984fd79", "lon": -77.0401125, "type": "electric_scooter", "bike_id": "5cd5db9b76c3f9f8c7aaae6ef984fd79", "fusion_lon": 0.0, "lat": 38.90998316666666, "fusion_lat": 0.0}, {"is_disabled": 0, "rental_uris": {"android": "https://dc.lft.to/lastmile_qr_scan", "ios": "https://dc.lft.to/lastmile_qr_scan"}, "is_reserved": 0, "name": "6f49b2f9918501f4e5973ecc5a5b8c1f", "lon": -77.03582466666667, "type": "electric_scooter", "bike_id": "6f49b2f9918501f4e5973ecc5a5b8c1f", "fusion_lon": 0.0, "lat": 38.90761883333333, "fusion_lat": 0.0}, {"is_disabled": 0, "rental_uris": {"android": "https://dc.lft.to/lastmile_qr_scan", "ios": "https://dc.lft.to/lastmile_qr_scan"}, "is_reserved": 0, "name": "3f05a372d15b5e3b3594de99e97a00b1", "lon": -77.02522733333333, "type": "electric_scooter", "bike_id": "3f05a372d15b5e3b3594de99e97a00b1", "fusion_lon": 0.0, "lat": 38.9757265, "fusion_lat": 0.0}, {"is_disabled": 0, "rental_uris": {"android": "https://dc.lft.to/lastmile_qr_scan", "ios": "https://dc.lft.to/lastmile_qr_scan"}, "is_reserved": 0, "name": "6c08bdf557329b2ff5095089ceb6eb6e", "lon": -77.00462883333333, "type": "electric_scooter", "bike_id": "6c08bdf557329b2ff5095089ceb6eb6e", "fusion_lon": 0.0, "lat": 38.91162333333333, "fusion_lat": 0.0}, {"is_disabled": 0, "rental_uris": {"android": "https://dc.lft.to/lastmile_qr_scan", "ios": "https://dc.lft.to/lastmile_qr_scan"}, "is_reserved": 0, "name": "9f1fa57faedf21c87162b5c30e98023a", "lon": -77.02220416666667, "type": "electric_scooter", "bike_id": "9f1fa57faedf21c87162b5c30e98023a", "fusion_lon": 0.0, "lat": 38.912688833333334, "fusion_lat": 0.0}, {"is_disabled": 0, "rental_uris": {"android": "https://dc.lft.to/lastmile_qr_scan", "ios": "https://dc.lft.to/lastmile_qr_scan"}, "is_reserved": 0, "name": "31e81dcb3842c91809723b55edb70f16", "lon": -77.0265595, "type": "electric_scooter", "bike_id": "31e81dcb3842c91809723b55edb70f16", "fusion_lon": 0.0, "lat": 38.897417, "fusion_lat": 0.0}, {"is_disabled": 0, "rental_uris": {"android": "https://dc.lft.to/lastmile_qr_scan", "ios": "https://dc.lft.to/lastmile_qr_scan"}, "is_reserved": 0, "name": "0949a33ad48364604c7e4fbd0df8ec6d", "lon": -77.032094, "type": "electric_scooter", "bike_id": "0949a33ad48364604c7e4fbd0df8ec6d", "fusion_lon": 0.0, "lat": 38.91795233333333, "fusion_lat": 0.0}, {"is_disabled": 0, "rental_uris": {"android": "https://dc.lft.to/lastmile_qr_scan", "ios": "https://dc.lft.to/lastmile_qr_scan"}, "is_reserved": 0, "name": "a831f17fa50f0ff6cc36a773f5351262", "lon": -76.96389083333334, "type": "electric_bike", "bike_id": "a831f17fa50f0ff6cc36a773f5351262", "fusion_lon": 0.0, "lat": 38.97579283333334, "fusion_lat": 0.0}, {"is_disabled": 0, "rental_uris": {"android": "https://dc.lft.to/lastmile_qr_scan", "ios": "https://dc.lft.to/lastmile_qr_scan"}, "is_reserved": 0, "name": "c4e3395676c928054cb3b3e5fb68b2ea", "lon": -77.00779, "type": "electric_bike", "bike_id": "c4e3395676c928054cb3b3e5fb68b2ea", "fusion_lon": 0.0, "lat": 38.981285166666666, "fusion_lat": 0.0}, {"is_disabled": 0, "rental_uris": {"android": "https://dc.lft.to/lastmile_qr_scan", "ios": "https://dc.lft.to/lastmile_qr_scan"}, "is_reserved": 0, "name": "b6ea5e559b56c6f204c8f1ad3ef21a18", "lon": -76.87775666666667, "type": "electric_bike", "bike_id": "b6ea5e559b56c6f204c8f1ad3ef21a18", "fusion_lon": 0.0, "lat": 38.99227966666667, "fusion_lat": 0.0}, {"is_disabled": 0, "rental_uris": {"android": "https://dc.lft.to/lastmile_qr_scan", "ios": "https://dc.lft.to/lastmile_qr_scan"}, "is_reserved": 0, "name": "b5ccb028ea9b537b0ed71bc33d9b2d4d", "lon": -77.01592183333334, "type": "electric_scooter", "bike_id": "b5ccb028ea9b537b0ed71bc33d9b2d4d", "fusion_lon": 0.0, "lat": 38.9289455, "fusion_lat": 0.0}, {"is_disabled": 0, "rental_uris": {"android": "https://dc.lft.to/lastmile_qr_scan", "ios": "https://dc.lft.to/lastmile_qr_scan"}, "is_reserved": 0, "name": "def295166f4d951c1de7b6d327be3574", "lon": -77.02965716666667, "type": "electric_scooter", "bike_id": "def295166f4d951c1de7b6d327be3574", "fusion_lon": 0.0, "lat": 38.9246285, "fusion_lat": 0.0}, {"is_disabled": 0, "rental_uris": {"android": "https://dc.lft.to/lastmile_qr_scan", "ios": "https://dc.lft.to/lastmile_qr_scan"}, "is_reserved": 0, "name": "7ffe52c9b00977338db48a0d51edfffa", "lon": -77.0130805, "type": "electric_scooter", "bike_id": "7ffe52c9b00977338db48a0d51edfffa", "fusion_lon": 0.0, "lat": 38.901370166666666, "fusion_lat": 0.0}, {"is_disabled": 0, "rental_uris": {"android": "https://dc.lft.to/lastmile_qr_scan", "ios": "https://dc.lft.to/lastmile_qr_scan"}, "is_reserved": 0, "name": "45cb3413c16dfbbe39c320aaf751fd8f", "lon": -77.01483983333334, "type": "electric_scooter", "bike_id": "45cb3413c16dfbbe39c320aaf751fd8f", "fusion_lon": 0.0, "lat": 38.876275666666665, "fusion_lat": 0.0}, {"is_disabled": 0, "rental_uris": {"android": "https://dc.lft.to/lastmile_qr_scan", "ios": "https://dc.lft.to/lastmile_qr_scan"}, "is_reserved": 0, "name": "215ad8bcc71dec20d238b817ff9380b9", "lon": -77.03994983333334, "type": "electric_scooter", "bike_id": "215ad8bcc71dec20d238b817ff9380b9", "fusion_lon": 0.0, "lat": 38.914182833333335, "fusion_lat": 0.0}, {"is_disabled": 0, "rental_uris": {"android": "https://dc.lft.to/lastmile_qr_scan", "ios": "https://dc.lft.to/lastmile_qr_scan"}, "is_reserved": 0, "name": "c788c409713fe48a71b311117a7ee9c0", "lon": -77.0316535, "type": "electric_bike", "bike_id": "c788c409713fe48a71b311117a7ee9c0", "fusion_lon": 0.0, "lat": 38.894554, "fusion_lat": 0.0}, {"is_disabled": 0, "rental_uris": {"android": "https://dc.lft.to/lastmile_qr_scan", "ios": "https://dc.lft.to/lastmile_qr_scan"}, "is_reserved": 0, "name": "d9db87afd9ceb2e1a2e9e805606663a7", "lon": -77.02210233333334, "type": "electric_scooter", "bike_id": "d9db87afd9ceb2e1a2e9e805606663a7", "fusion_lon": 0.0, "lat": 38.9053415, "fusion_lat": 0.0}, {"is_disabled": 0, "rental_uris": {"android": "https://dc.lft.to/lastmile_qr_scan", "ios": "https://dc.lft.to/lastmile_qr_scan"}, "is_reserved": 0, "name": "9bf4e2ef45f1dd6edd437ab37a8d0e13", "lon": -77.02411433333333, "type": "electric_scooter", "bike_id": "9bf4e2ef45f1dd6edd437ab37a8d0e13", "fusion_lon": 0.0, "lat": 38.89252883333333, "fusion_lat": 0.0}, {"is_disabled": 0, "rental_uris": {"android": "https://dc.lft.to/lastmile_qr_scan", "ios": "https://dc.lft.to/lastmile_qr_scan"}, "is_reserved": 0, "name": "076901417f7735a6770736fe5cd590c4", "lon": -76.937601, "type": "electric_scooter", "bike_id": "076901417f7735a6770736fe5cd590c4", "fusion_lon": 0.0, "lat": 38.890451666666664, "fusion_lat": 0.0}, {"is_disabled": 0, "rental_uris": {"android": "https://dc.lft.to/lastmile_qr_scan", "ios": "https://dc.lft.to/lastmile_qr_scan"}, "is_reserved": 0, "name": "302a0ab8a92cbbe6baa07c707c57ee88", "lon": -76.94867783333333, "type": "electric_bike", "bike_id": "302a0ab8a92cbbe6baa07c707c57ee88", "fusion_lon": 0.0, "lat": 38.88973, "fusion_lat": 0.0}, {"is_disabled": 0, "rental_uris": {"android": "https://dc.lft.to/lastmile_qr_scan", "ios": "https://dc.lft.to/lastmile_qr_scan"}, "is_reserved": 0, "name": "79eef909e58124e69a8ac5ed92a24542", "lon": -77.072889, "type": "electric_scooter", "bike_id": "79eef909e58124e69a8ac5ed92a24542", "fusion_lon": 0.0, "lat": 38.9319765, "fusion_lat": 0.0}, {"is_disabled": 0, "rental_uris": {"android": "https://dc.lft.to/lastmile_qr_scan", "ios": "https://dc.lft.to/lastmile_qr_scan"}, "is_reserved": 0, "name": "f409d1503a87b2c29e4a72b8a90fa017", "lon": -76.9801975, "type": "electric_scooter", "bike_id": "f409d1503a87b2c29e4a72b8a90fa017", "fusion_lon": 0.0, "lat": 38.8640225, "fusion_lat": 0.0}, {"is_disabled": 0, "rental_uris": {"android": "https://dc.lft.to/lastmile_qr_scan", "ios": "https://dc.lft.to/lastmile_qr_scan"}, "is_reserved": 0, "name": "0e56f7bb215d0b272345adccc7e5f4e3", "lon": -77.02408416666667, "type": "electric_scooter", "bike_id": "0e56f7bb215d0b272345adccc7e5f4e3", "fusion_lon": 0.0, "lat": 38.91566, "fusion_lat": 0.0}, {"is_disabled": 0, "rental_uris": {"android": "https://dc.lft.to/lastmile_qr_scan", "ios": "https://dc.lft.to/lastmile_qr_scan"}, "is_reserved": 0, "name": "c0e11a504f5a35b8780bd1ec61492d8a", "lon": -77.00296966666667, "type": "electric_scooter", "bike_id": "c0e11a504f5a35b8780bd1ec61492d8a", "fusion_lon": 0.0, "lat": 38.891953, "fusion_lat": 0.0}, {"is_disabled": 0, "rental_uris": {"android": "https://dc.lft.to/lastmile_qr_scan", "ios": "https://dc.lft.to/lastmile_qr_scan"}, "is_reserved": 0, "name": "c863d8f7c67fb2c6e034be0f21bebd6b", "lon": -77.0111075, "type": "electric_scooter", "bike_id": "c863d8f7c67fb2c6e034be0f21bebd6b", "fusion_lon": 0.0, "lat": 38.907829166666666, "fusion_lat": 0.0}, {"is_disabled": 0, "rental_uris": {"android": "https://dc.lft.to/lastmile_qr_scan", "ios": "https://dc.lft.to/lastmile_qr_scan"}, "is_reserved": 0, "name": "c5fadba843766c86c7760b778486f890", "lon": -77.02791116666667, "type": "electric_scooter", "bike_id": "c5fadba843766c86c7760b778486f890", "fusion_lon": 0.0, "lat": 38.89632266666667, "fusion_lat": 0.0}, {"is_disabled": 0, "rental_uris": {"android": "https://dc.lft.to/lastmile_qr_scan", "ios": "https://dc.lft.to/lastmile_qr_scan"}, "is_reserved": 0, "name": "a023d4c8c52c8a2b52cdcad508bb8edc", "lon": -77.02992583333334, "type": "electric_scooter", "bike_id": "a023d4c8c52c8a2b52cdcad508bb8edc", "fusion_lon": 0.0, "lat": 38.9247735, "fusion_lat": 0.0}, {"is_disabled": 0, "rental_uris": {"android": "https://dc.lft.to/lastmile_qr_scan", "ios": "https://dc.lft.to/lastmile_qr_scan"}, "is_reserved": 0, "name": "8ef7899c4c84aad2df749d13497dc675", "lon": -77.05111916666667, "type": "electric_scooter", "bike_id": "8ef7899c4c84aad2df749d13497dc675", "fusion_lon": 0.0, "lat": 38.92362033333333, "fusion_lat": 0.0}, {"is_disabled": 0, "rental_uris": {"android": "https://dc.lft.to/lastmile_qr_scan", "ios": "https://dc.lft.to/lastmile_qr_scan"}, "is_reserved": 0, "name": "ea6d62c59ee98c7084235669e608abc4", "lon": -77.00286916666667, "type": "electric_scooter", "bike_id": "ea6d62c59ee98c7084235669e608abc4", "fusion_lon": 0.0, "lat": 38.90553416666667, "fusion_lat": 0.0}, {"is_disabled": 0, "rental_uris": {"android": "https://dc.lft.to/lastmile_qr_scan", "ios": "https://dc.lft.to/lastmile_qr_scan"}, "is_reserved": 0, "name": "4321c0236084a71b19c8cbdb53f48ae7", "lon": -77.029858, "type": "electric_scooter", "bike_id": "4321c0236084a71b19c8cbdb53f48ae7", "fusion_lon": 0.0, "lat": 38.92470733333333, "fusion_lat": 0.0}, {"is_disabled": 0, "rental_uris": {"android": "https://dc.lft.to/lastmile_qr_scan", "ios": "https://dc.lft.to/lastmile_qr_scan"}, "is_reserved": 0, "name": "dfbd977d2c589919bf3e6b5eac3df12a", "lon": -77.05853483333334, "type": "electric_scooter", "bike_id": "dfbd977d2c589919bf3e6b5eac3df12a", "fusion_lon": 0.0, "lat": 38.93695833333334, "fusion_lat": 0.0}, {"is_disabled": 0, "rental_uris": {"android": "https://dc.lft.to/lastmile_qr_scan", "ios": "https://dc.lft.to/lastmile_qr_scan"}, "is_reserved": 0, "name": "83428a3af969beb96d1e5bcf224161c4", "lon": -77.04485783333334, "type": "electric_scooter", "bike_id": "83428a3af969beb96d1e5bcf224161c4", "fusion_lon": 0.0, "lat": 38.897451833333335, "fusion_lat": 0.0}, {"is_disabled": 0, "rental_uris": {"android": "https://dc.lft.to/lastmile_qr_scan", "ios": "https://dc.lft.to/lastmile_qr_scan"}, "is_reserved": 0, "name": "e779ac97283c7afbe0727aa090dfb1f1", "lon": -77.07799866666667, "type": "electric_bike", "bike_id": "e779ac97283c7afbe0727aa090dfb1f1", "fusion_lon": 0.0, "lat": 38.845163166666666, "fusion_lat": 0.0}, {"is_disabled": 0, "rental_uris": {"android": "https://dc.lft.to/lastmile_qr_scan", "ios": "https://dc.lft.to/lastmile_qr_scan"}, "is_reserved": 0, "name": "d05818f5378cf0aee0f4dd716525cbf6", "lon": -77.04624633333333, "type": "electric_scooter", "bike_id": "d05818f5378cf0aee0f4dd716525cbf6", "fusion_lon": 0.0, "lat": 38.904587, "fusion_lat": 0.0}, {"is_disabled": 0, "rental_uris": {"android": "https://dc.lft.to/lastmile_qr_scan", "ios": "https://dc.lft.to/lastmile_qr_scan"}, "is_reserved": 0, "name": "385a37cb3cf7439a43ff7493668658c3", "lon": -77.02493116666666, "type": "electric_scooter", "bike_id": "385a37cb3cf7439a43ff7493668658c3", "fusion_lon": 0.0, "lat": 38.9418415, "fusion_lat": 0.0}, {"is_disabled": 0, "rental_uris": {"android": "https://dc.lft.to/lastmile_qr_scan", "ios": "https://dc.lft.to/lastmile_qr_scan"}, "is_reserved": 0, "name": "9f41b9dab3813485a9fa3a2a89395d3c", "lon": -77.02958933333333, "type": "electric_scooter", "bike_id": "9f41b9dab3813485a9fa3a2a89395d3c", "fusion_lon": 0.0, "lat": 38.921445, "fusion_lat": 0.0}, {"is_disabled": 0, "rental_uris": {"android": "https://dc.lft.to/lastmile_qr_scan", "ios": "https://dc.lft.to/lastmile_qr_scan"}, "is_reserved": 0, "name": "c884fbd612f1c23d2a9922c70905d1c5", "lon": -77.04162766666667, "type": "electric_scooter", "bike_id": "c884fbd612f1c23d2a9922c70905d1c5", "fusion_lon": 0.0, "lat": 38.916146833333336, "fusion_lat": 0.0}, {"is_disabled": 0, "rental_uris": {"android": "https://dc.lft.to/lastmile_qr_scan", "ios": "https://dc.lft.to/lastmile_qr_scan"}, "is_reserved": 0, "name": "ebc4a4e7a0206aeef96e521ea59ca717", "lon": -76.99410016666667, "type": "electric_scooter", "bike_id": "ebc4a4e7a0206aeef96e521ea59ca717", "fusion_lon": 0.0, "lat": 38.877818166666664, "fusion_lat": 0.0}, {"is_disabled": 0, "rental_uris": {"android": "https://dc.lft.to/lastmile_qr_scan", "ios": "https://dc.lft.to/lastmile_qr_scan"}, "is_reserved": 0, "name": "2792095acfb1a827f35f055ab9bdb6ed", "lon": -77.02722483333334, "type": "electric_scooter", "bike_id": "2792095acfb1a827f35f055ab9bdb6ed", "fusion_lon": 0.0, "lat": 38.90854866666667, "fusion_lat": 0.0}, {"is_disabled": 0, "rental_uris": {"android": "https://dc.lft.to/lastmile_qr_scan", "ios": "https://dc.lft.to/lastmile_qr_scan"}, "is_reserved": 0, "name": "d5bed87e094ed921f7ebc134389ae621", "lon": -77.0852975, "type": "electric_bike", "bike_id": "d5bed87e094ed921f7ebc134389ae621", "fusion_lon": 0.0, "lat": 38.856492833333334, "fusion_lat": 0.0}, {"is_disabled": 0, "rental_uris": {"android": "https://dc.lft.to/lastmile_qr_scan", "ios": "https://dc.lft.to/lastmile_qr_scan"}, "is_reserved": 0, "name": "4a6171596f92fed25eae8a3b68e2ef60", "lon": -77.00986216666666, "type": "electric_scooter", "bike_id": "4a6171596f92fed25eae8a3b68e2ef60", "fusion_lon": 0.0, "lat": 38.897506166666666, "fusion_lat": 0.0}, {"is_disabled": 0, "rental_uris": {"android": "https://dc.lft.to/lastmile_qr_scan", "ios": "https://dc.lft.to/lastmile_qr_scan"}, "is_reserved": 0, "name": "29e199101417ef5741bb328b0653b962", "lon": -76.933537, "type": "electric_scooter", "bike_id": "29e199101417ef5741bb328b0653b962", "fusion_lon": 0.0, "lat": 38.899091166666665, "fusion_lat": 0.0}, {"is_disabled": 0, "rental_uris": {"android": "https://dc.lft.to/lastmile_qr_scan", "ios": "https://dc.lft.to/lastmile_qr_scan"}, "is_reserved": 0, "name": "b265051867583331da32007afb59b0ae", "lon": -77.0111815, "type": "electric_scooter", "bike_id": "b265051867583331da32007afb59b0ae", "fusion_lon": 0.0, "lat": 38.9036775, "fusion_lat": 0.0}, {"is_disabled": 0, "rental_uris": {"android": "https://dc.lft.to/lastmile_qr_scan", "ios": "https://dc.lft.to/lastmile_qr_scan"}, "is_reserved": 0, "name": "3901e96aa0b3b1989e3ff8c924d1a4e4", "lon": -77.03854566666666, "type": "electric_scooter", "bike_id": "3901e96aa0b3b1989e3ff8c924d1a4e4", "fusion_lon": 0.0, "lat": 38.91193233333333, "fusion_lat": 0.0}, {"is_disabled": 0, "rental_uris": {"android": "https://dc.lft.to/lastmile_qr_scan", "ios": "https://dc.lft.to/lastmile_qr_scan"}, "is_reserved": 0, "name": "cec0830279e33b97c0639f54313e530d", "lon": -77.02430016666666, "type": "electric_scooter", "bike_id": "cec0830279e33b97c0639f54313e530d", "fusion_lon": 0.0, "lat": 38.9124815, "fusion_lat": 0.0}, {"is_disabled": 0, "rental_uris": {"android": "https://dc.lft.to/lastmile_qr_scan", "ios": "https://dc.lft.to/lastmile_qr_scan"}, "is_reserved": 0, "name": "814bebe646ce8fa7d005c12bea33bbe5", "lon": -76.96529666666666, "type": "electric_scooter", "bike_id": "814bebe646ce8fa7d005c12bea33bbe5", "fusion_lon": 0.0, "lat": 38.87631666666667, "fusion_lat": 0.0}, {"is_disabled": 0, "rental_uris": {"android": "https://dc.lft.to/lastmile_qr_scan", "ios": "https://dc.lft.to/lastmile_qr_scan"}, "is_reserved": 0, "name": "c08508b260b0c46a3bfb5c77ba5605bd", "lon": -77.03159016666666, "type": "electric_scooter", "bike_id": "c08508b260b0c46a3bfb5c77ba5605bd", "fusion_lon": 0.0, "lat": 38.88753783333333, "fusion_lat": 0.0}, {"is_disabled": 0, "rental_uris": {"android": "https://dc.lft.to/lastmile_qr_scan", "ios": "https://dc.lft.to/lastmile_qr_scan"}, "is_reserved": 0, "name": "daf3db470851b4af5ded7b992d7f77fe", "lon": -77.0353455, "type": "electric_scooter", "bike_id": "daf3db470851b4af5ded7b992d7f77fe", "fusion_lon": 0.0, "lat": 38.91840533333333, "fusion_lat": 0.0}, {"is_disabled": 0, "rental_uris": {"android": "https://dc.lft.to/lastmile_qr_scan", "ios": "https://dc.lft.to/lastmile_qr_scan"}, "is_reserved": 0, "name": "f611f6541fb7b623b715c2732623fba2", "lon": -77.03763566666667, "type": "electric_bike", "bike_id": "f611f6541fb7b623b715c2732623fba2", "fusion_lon": 0.0, "lat": 38.996804833333336, "fusion_lat": 0.0}, {"is_disabled": 0, "rental_uris": {"android": "https://dc.lft.to/lastmile_qr_scan", "ios": "https://dc.lft.to/lastmile_qr_scan"}, "is_reserved": 0, "name": "8497a56901c20f2a1e0d12025051e93b", "lon": -77.0249405, "type": "electric_bike", "bike_id": "8497a56901c20f2a1e0d12025051e93b", "fusion_lon": 0.0, "lat": 38.97399133333333, "fusion_lat": 0.0}, {"is_disabled": 0, "rental_uris": {"android": "https://dc.lft.to/lastmile_qr_scan", "ios": "https://dc.lft.to/lastmile_qr_scan"}, "is_reserved": 0, "name": "6d21c1bc75406ba862128ea32029638c", "lon": -77.0983385, "type": "electric_bike", "bike_id": "6d21c1bc75406ba862128ea32029638c", "fusion_lon": 0.0, "lat": 38.857896, "fusion_lat": 0.0}, {"is_disabled": 0, "rental_uris": {"android": "https://dc.lft.to/lastmile_qr_scan", "ios": "https://dc.lft.to/lastmile_qr_scan"}, "is_reserved": 0, "name": "c5745963ab29d48f73b0112622d13d1f", "lon": -77.04824566666667, "type": "electric_scooter", "bike_id": "c5745963ab29d48f73b0112622d13d1f", "fusion_lon": 0.0, "lat": 38.904609666666666, "fusion_lat": 0.0}, {"is_disabled": 0, "rental_uris": {"android": "https://dc.lft.to/lastmile_qr_scan", "ios": "https://dc.lft.to/lastmile_qr_scan"}, "is_reserved": 0, "name": "a28cb3962fcbe10a2c3682c12384116e", "lon": -77.00751316666667, "type": "electric_scooter", "bike_id": "a28cb3962fcbe10a2c3682c12384116e", "fusion_lon": 0.0, "lat": 38.8985625, "fusion_lat": 0.0}, {"is_disabled": 0, "rental_uris": {"android": "https://dc.lft.to/lastmile_qr_scan", "ios": "https://dc.lft.to/lastmile_qr_scan"}, "is_reserved": 0, "name": "01d6680ff8577e0e31db907d01b0592b", "lon": -77.02225483333334, "type": "electric_scooter", "bike_id": "01d6680ff8577e0e31db907d01b0592b", "fusion_lon": 0.0, "lat": 38.89221283333333, "fusion_lat": 0.0}, {"is_disabled": 0, "rental_uris": {"android": "https://dc.lft.to/lastmile_qr_scan", "ios": "https://dc.lft.to/lastmile_qr_scan"}, "is_reserved": 0, "name": "88d6ff0e82225fb158e4f9e3860477e2", "lon": -77.0318275, "type": "electric_scooter", "bike_id": "88d6ff0e82225fb158e4f9e3860477e2", "fusion_lon": 0.0, "lat": 38.9100975, "fusion_lat": 0.0}, {"is_disabled": 0, "rental_uris": {"android": "https://dc.lft.to/lastmile_qr_scan", "ios": "https://dc.lft.to/lastmile_qr_scan"}, "is_reserved": 0, "name": "b71fbf0337ca317013996bc36882a554", "lon": -76.93189383333333, "type": "electric_scooter", "bike_id": "b71fbf0337ca317013996bc36882a554", "fusion_lon": 0.0, "lat": 38.8987805, "fusion_lat": 0.0}, {"is_disabled": 0, "rental_uris": {"android": "https://dc.lft.to/lastmile_qr_scan", "ios": "https://dc.lft.to/lastmile_qr_scan"}, "is_reserved": 0, "name": "baf70ad365c91d300ea7ee8edd1c1a3a", "lon": -77.05480766666666, "type": "electric_scooter", "bike_id": "baf70ad365c91d300ea7ee8edd1c1a3a", "fusion_lon": 0.0, "lat": 38.904374, "fusion_lat": 0.0}, {"is_disabled": 0, "rental_uris": {"android": "https://dc.lft.to/lastmile_qr_scan", "ios": "https://dc.lft.to/lastmile_qr_scan"}, "is_reserved": 0, "name": "62c90c5fe0596e8ade145f2d6441c2aa", "lon": -77.03178166666666, "type": "electric_scooter", "bike_id": "62c90c5fe0596e8ade145f2d6441c2aa", "fusion_lon": 0.0, "lat": 38.91913233333333, "fusion_lat": 0.0}, {"is_disabled": 0, "rental_uris": {"android": "https://dc.lft.to/lastmile_qr_scan", "ios": "https://dc.lft.to/lastmile_qr_scan"}, "is_reserved": 0, "name": "773d68b717f7bd9ba8fd85940977f94a", "lon": -77.021708, "type": "electric_scooter", "bike_id": "773d68b717f7bd9ba8fd85940977f94a", "fusion_lon": 0.0, "lat": 38.94294933333333, "fusion_lat": 0.0}, {"is_disabled": 0, "rental_uris": {"android": "https://dc.lft.to/lastmile_qr_scan", "ios": "https://dc.lft.to/lastmile_qr_scan"}, "is_reserved": 0, "name": "9e70d6c37eaf4d4726cf67201ca2f209", "lon": -77.03910783333333, "type": "electric_scooter", "bike_id": "9e70d6c37eaf4d4726cf67201ca2f209", "fusion_lon": 0.0, "lat": 38.90648933333333, "fusion_lat": 0.0}, {"is_disabled": 0, "rental_uris": {"android": "https://dc.lft.to/lastmile_qr_scan", "ios": "https://dc.lft.to/lastmile_qr_scan"}, "is_reserved": 0, "name": "f5325334fa446636d4db7ce6d85da6e4", "lon": -76.93522866666666, "type": "electric_scooter", "bike_id": "f5325334fa446636d4db7ce6d85da6e4", "fusion_lon": 0.0, "lat": 38.878949, "fusion_lat": 0.0}, {"is_disabled": 0, "rental_uris": {"android": "https://dc.lft.to/lastmile_qr_scan", "ios": "https://dc.lft.to/lastmile_qr_scan"}, "is_reserved": 0, "name": "5ad80f9d45a726b1754dac1d659a5e6d", "lon": -76.99078016666667, "type": "electric_scooter", "bike_id": "5ad80f9d45a726b1754dac1d659a5e6d", "fusion_lon": 0.0, "lat": 38.90424733333333, "fusion_lat": 0.0}, {"is_disabled": 0, "rental_uris": {"android": "https://dc.lft.to/lastmile_qr_scan", "ios": "https://dc.lft.to/lastmile_qr_scan"}, "is_reserved": 0, "name": "190fd968ef626865eeb2187bf151a998", "lon": -76.933516, "type": "electric_scooter", "bike_id": "190fd968ef626865eeb2187bf151a998", "fusion_lon": 0.0, "lat": 38.90198816666667, "fusion_lat": 0.0}, {"is_disabled": 0, "rental_uris": {"android": "https://dc.lft.to/lastmile_qr_scan", "ios": "https://dc.lft.to/lastmile_qr_scan"}, "is_reserved": 0, "name": "a690117dd675a93fa73e6cc456088951", "lon": -77.03362333333334, "type": "electric_scooter", "bike_id": "a690117dd675a93fa73e6cc456088951", "fusion_lon": 0.0, "lat": 38.911828, "fusion_lat": 0.0}, {"is_disabled": 0, "rental_uris": {"android": "https://dc.lft.to/lastmile_qr_scan", "ios": "https://dc.lft.to/lastmile_qr_scan"}, "is_reserved": 0, "name": "6efe9e529844a0972f98ca09def3a534", "lon": -77.00071083333333, "type": "electric_scooter", "bike_id": "6efe9e529844a0972f98ca09def3a534", "fusion_lon": 0.0, "lat": 38.900196333333334, "fusion_lat": 0.0}, {"is_disabled": 0, "rental_uris": {"android": "https://dc.lft.to/lastmile_qr_scan", "ios": "https://dc.lft.to/lastmile_qr_scan"}, "is_reserved": 0, "name": "23ac0f06869faf3096aeb1fd23c8fc0d", "lon": -76.9899435, "type": "electric_scooter", "bike_id": "23ac0f06869faf3096aeb1fd23c8fc0d", "fusion_lon": 0.0, "lat": 38.86432833333333, "fusion_lat": 0.0}, {"is_disabled": 0, "rental_uris": {"android": "https://dc.lft.to/lastmile_qr_scan", "ios": "https://dc.lft.to/lastmile_qr_scan"}, "is_reserved": 0, "name": "ea5533a8952c4aec810870e8e886fc4c", "lon": -77.0436705, "type": "electric_scooter", "bike_id": "ea5533a8952c4aec810870e8e886fc4c", "fusion_lon": 0.0, "lat": 38.90825066666667, "fusion_lat": 0.0}, {"is_disabled": 0, "rental_uris": {"android": "https://dc.lft.to/lastmile_qr_scan", "ios": "https://dc.lft.to/lastmile_qr_scan"}, "is_reserved": 0, "name": "ebf8c04e43c344b5c59ff38f5723e51e", "lon": -77.04193066666667, "type": "electric_scooter", "bike_id": "ebf8c04e43c344b5c59ff38f5723e51e", "fusion_lon": 0.0, "lat": 38.9261855, "fusion_lat": 0.0}, {"is_disabled": 0, "rental_uris": {"android": "https://dc.lft.to/lastmile_qr_scan", "ios": "https://dc.lft.to/lastmile_qr_scan"}, "is_reserved": 0, "name": "54ec8f1f176ab7080fc1b6e04abccbf4", "lon": -76.94634466666666, "type": "electric_scooter", "bike_id": "54ec8f1f176ab7080fc1b6e04abccbf4", "fusion_lon": 0.0, "lat": 38.89845016666666, "fusion_lat": 0.0}, {"is_disabled": 0, "rental_uris": {"android": "https://dc.lft.to/lastmile_qr_scan", "ios": "https://dc.lft.to/lastmile_qr_scan"}, "is_reserved": 0, "name": "a40cb5447b28e1abe17d20b2be5537d4", "lon": -77.05051666666667, "type": "electric_scooter", "bike_id": "a40cb5447b28e1abe17d20b2be5537d4", "fusion_lon": 0.0, "lat": 38.9166715, "fusion_lat": 0.0}, {"is_disabled": 0, "rental_uris": {"android": "https://dc.lft.to/lastmile_qr_scan", "ios": "https://dc.lft.to/lastmile_qr_scan"}, "is_reserved": 0, "name": "104ec6c98b9c487d27a91221c83f2895", "lon": -77.03311983333333, "type": "electric_scooter", "bike_id": "104ec6c98b9c487d27a91221c83f2895", "fusion_lon": 0.0, "lat": 38.918093, "fusion_lat": 0.0}, {"is_disabled": 0, "rental_uris": {"android": "https://dc.lft.to/lastmile_qr_scan", "ios": "https://dc.lft.to/lastmile_qr_scan"}, "is_reserved": 0, "name": "9c994956c56ed722256c5f611204a9de", "lon": -77.041281, "type": "electric_scooter", "bike_id": "9c994956c56ed722256c5f611204a9de", "fusion_lon": 0.0, "lat": 38.89924416666667, "fusion_lat": 0.0}, {"is_disabled": 0, "rental_uris": {"android": "https://dc.lft.to/lastmile_qr_scan", "ios": "https://dc.lft.to/lastmile_qr_scan"}, "is_reserved": 0, "name": "16e3edbf18f96d4cf5d59209737277e1", "lon": -77.02698733333334, "type": "electric_scooter", "bike_id": "16e3edbf18f96d4cf5d59209737277e1", "fusion_lon": 0.0, "lat": 38.936340666666666, "fusion_lat": 0.0}, {"is_disabled": 0, "rental_uris": {"android": "https://dc.lft.to/lastmile_qr_scan", "ios": "https://dc.lft.to/lastmile_qr_scan"}, "is_reserved": 0, "name": "c2fdedcf19266544611100cf6f54290d", "lon": -77.04356066666666, "type": "electric_scooter", "bike_id": "c2fdedcf19266544611100cf6f54290d", "fusion_lon": 0.0, "lat": 38.904719, "fusion_lat": 0.0}, {"is_disabled": 0, "rental_uris": {"android": "https://dc.lft.to/lastmile_qr_scan", "ios": "https://dc.lft.to/lastmile_qr_scan"}, "is_reserved": 0, "name": "773d67c4cbf1cbb3cdfa62481348c4e0", "lon": -77.04421366666666, "type": "electric_scooter", "bike_id": "773d67c4cbf1cbb3cdfa62481348c4e0", "fusion_lon": 0.0, "lat": 38.894043333333336, "fusion_lat": 0.0}, {"is_disabled": 0, "rental_uris": {"android": "https://dc.lft.to/lastmile_qr_scan", "ios": "https://dc.lft.to/lastmile_qr_scan"}, "is_reserved": 0, "name": "4be312a14284ba715036b312016d991a", "lon": -77.031878, "type": "electric_scooter", "bike_id": "4be312a14284ba715036b312016d991a", "fusion_lon": 0.0, "lat": 38.89356016666667, "fusion_lat": 0.0}, {"is_disabled": 0, "rental_uris": {"android": "https://dc.lft.to/lastmile_qr_scan", "ios": "https://dc.lft.to/lastmile_qr_scan"}, "is_reserved": 0, "name": "295e5352d00cb70bffc0e9b49c2a98c0", "lon": -76.99622716666667, "type": "electric_scooter", "bike_id": "295e5352d00cb70bffc0e9b49c2a98c0", "fusion_lon": 0.0, "lat": 38.900336, "fusion_lat": 0.0}, {"is_disabled": 0, "rental_uris": {"android": "https://dc.lft.to/lastmile_qr_scan", "ios": "https://dc.lft.to/lastmile_qr_scan"}, "is_reserved": 0, "name": "921f81960eb1efd4a76033ecfe2c741b", "lon": -77.0499255, "type": "electric_bike", "bike_id": "921f81960eb1efd4a76033ecfe2c741b", "fusion_lon": 0.0, "lat": 38.901323833333336, "fusion_lat": 0.0}, {"is_disabled": 0, "rental_uris": {"android": "https://dc.lft.to/lastmile_qr_scan", "ios": "https://dc.lft.to/lastmile_qr_scan"}, "is_reserved": 0, "name": "2114dc4664eb0e1915649a576511356f", "lon": -77.0499955, "type": "electric_scooter", "bike_id": "2114dc4664eb0e1915649a576511356f", "fusion_lon": 0.0, "lat": 38.897286666666666, "fusion_lat": 0.0}, {"is_disabled": 0, "rental_uris": {"android": "https://dc.lft.to/lastmile_qr_scan", "ios": "https://dc.lft.to/lastmile_qr_scan"}, "is_reserved": 0, "name": "d6da51bcd0dd2efd756b243fec6c1ac4", "lon": -77.04693533333334, "type": "electric_scooter", "bike_id": "d6da51bcd0dd2efd756b243fec6c1ac4", "fusion_lon": 0.0, "lat": 38.905924, "fusion_lat": 0.0}, {"is_disabled": 0, "rental_uris": {"android": "https://dc.lft.to/lastmile_qr_scan", "ios": "https://dc.lft.to/lastmile_qr_scan"}, "is_reserved": 0, "name": "c453433fe7b168dd9ebfec1b946dd4b8", "lon": -77.03832416666667, "type": "electric_scooter", "bike_id": "c453433fe7b168dd9ebfec1b946dd4b8", "fusion_lon": 0.0, "lat": 38.911123333333336, "fusion_lat": 0.0}, {"is_disabled": 0, "rental_uris": {"android": "https://dc.lft.to/lastmile_qr_scan", "ios": "https://dc.lft.to/lastmile_qr_scan"}, "is_reserved": 0, "name": "9f360f21ba68dc095d7c6caafdc4abcd", "lon": -77.03847833333333, "type": "electric_scooter", "bike_id": "9f360f21ba68dc095d7c6caafdc4abcd", "fusion_lon": 0.0, "lat": 38.921589, "fusion_lat": 0.0}, {"is_disabled": 0, "rental_uris": {"android": "https://dc.lft.to/lastmile_qr_scan", "ios": "https://dc.lft.to/lastmile_qr_scan"}, "is_reserved": 0, "name": "6475268b5b9a6f3bf8e800b43f8a41ab", "lon": -77.04181983333334, "type": "electric_scooter", "bike_id": "6475268b5b9a6f3bf8e800b43f8a41ab", "fusion_lon": 0.0, "lat": 38.9140205, "fusion_lat": 0.0}, {"is_disabled": 0, "rental_uris": {"android": "https://dc.lft.to/lastmile_qr_scan", "ios": "https://dc.lft.to/lastmile_qr_scan"}, "is_reserved": 0, "name": "910bd048cdfbe94536d86c63423a1013", "lon": -77.028143, "type": "electric_bike", "bike_id": "910bd048cdfbe94536d86c63423a1013", "fusion_lon": 0.0, "lat": 38.993793333333336, "fusion_lat": 0.0}, {"is_disabled": 0, "rental_uris": {"android": "https://dc.lft.to/lastmile_qr_scan", "ios": "https://dc.lft.to/lastmile_qr_scan"}, "is_reserved": 0, "name": "aa2cf903a563a4e1110a8614b0f6875c", "lon": -77.02413333333334, "type": "electric_scooter", "bike_id": "aa2cf903a563a4e1110a8614b0f6875c", "fusion_lon": 0.0, "lat": 38.912561, "fusion_lat": 0.0}, {"is_disabled": 0, "rental_uris": {"android": "https://dc.lft.to/lastmile_qr_scan", "ios": "https://dc.lft.to/lastmile_qr_scan"}, "is_reserved": 0, "name": "929ffeea9a8b09db856ccd4ca5eed700", "lon": -77.023082, "type": "electric_scooter", "bike_id": "929ffeea9a8b09db856ccd4ca5eed700", "fusion_lon": 0.0, "lat": 38.87888483333333, "fusion_lat": 0.0}, {"is_disabled": 0, "rental_uris": {"android": "https://dc.lft.to/lastmile_qr_scan", "ios": "https://dc.lft.to/lastmile_qr_scan"}, "is_reserved": 0, "name": "dc46f53b9c20b30a2de631c13ec3d9e8", "lon": -77.023165, "type": "electric_scooter", "bike_id": "dc46f53b9c20b30a2de631c13ec3d9e8", "fusion_lon": 0.0, "lat": 38.917695333333334, "fusion_lat": 0.0}, {"is_disabled": 0, "rental_uris": {"android": "https://dc.lft.to/lastmile_qr_scan", "ios": "https://dc.lft.to/lastmile_qr_scan"}, "is_reserved": 0, "name": "db629e640da986a8321e32b65cca7cda", "lon": -77.02295433333333, "type": "electric_scooter", "bike_id": "db629e640da986a8321e32b65cca7cda", "fusion_lon": 0.0, "lat": 38.910782833333336, "fusion_lat": 0.0}, {"is_disabled": 0, "rental_uris": {"android": "https://dc.lft.to/lastmile_qr_scan", "ios": "https://dc.lft.to/lastmile_qr_scan"}, "is_reserved": 0, "name": "bdb689b4e0a1e4caa543c29ba527f656", "lon": -77.0138325, "type": "electric_scooter", "bike_id": "bdb689b4e0a1e4caa543c29ba527f656", "fusion_lon": 0.0, "lat": 38.91009433333333, "fusion_lat": 0.0}, {"is_disabled": 0, "rental_uris": {"android": "https://dc.lft.to/lastmile_qr_scan", "ios": "https://dc.lft.to/lastmile_qr_scan"}, "is_reserved": 0, "name": "5584fab65af2d8c134477bc4d85ab6dd", "lon": -77.0008915, "type": "electric_scooter", "bike_id": "5584fab65af2d8c134477bc4d85ab6dd", "fusion_lon": 0.0, "lat": 38.8940705, "fusion_lat": 0.0}, {"is_disabled": 0, "rental_uris": {"android": "https://dc.lft.to/lastmile_qr_scan", "ios": "https://dc.lft.to/lastmile_qr_scan"}, "is_reserved": 0, "name": "2a940d0e46eb4949f0f3b81ea25eb6bb", "lon": -77.03376683333333, "type": "electric_scooter", "bike_id": "2a940d0e46eb4949f0f3b81ea25eb6bb", "fusion_lon": 0.0, "lat": 38.91702133333333, "fusion_lat": 0.0}, {"is_disabled": 0, "rental_uris": {"android": "https://dc.lft.to/lastmile_qr_scan", "ios": "https://dc.lft.to/lastmile_qr_scan"}, "is_reserved": 0, "name": "9d752946361cddb4cf517d887e30d973", "lon": -77.02154733333333, "type": "electric_scooter", "bike_id": "9d752946361cddb4cf517d887e30d973", "fusion_lon": 0.0, "lat": 38.926022833333334, "fusion_lat": 0.0}, {"is_disabled": 0, "rental_uris": {"android": "https://dc.lft.to/lastmile_qr_scan", "ios": "https://dc.lft.to/lastmile_qr_scan"}, "is_reserved": 0, "name": "2bb060c40b00e1009a2cfb9d2048784e", "lon": -77.00516116666667, "type": "electric_scooter", "bike_id": "2bb060c40b00e1009a2cfb9d2048784e", "fusion_lon": 0.0, "lat": 38.848809333333335, "fusion_lat": 0.0}, {"is_disabled": 0, "rental_uris": {"android": "https://dc.lft.to/lastmile_qr_scan", "ios": "https://dc.lft.to/lastmile_qr_scan"}, "is_reserved": 0, "name": "bda761991888f57e0252552e7ec7eeee", "lon": -77.07250966666666, "type": "electric_scooter", "bike_id": "bda761991888f57e0252552e7ec7eeee", "fusion_lon": 0.0, "lat": 38.907855166666664, "fusion_lat": 0.0}, {"is_disabled": 0, "rental_uris": {"android": "https://dc.lft.to/lastmile_qr_scan", "ios": "https://dc.lft.to/lastmile_qr_scan"}, "is_reserved": 0, "name": "ec2ed640ad28ae37d2b95fd3291615db", "lon": -77.02807566666667, "type": "electric_scooter", "bike_id": "ec2ed640ad28ae37d2b95fd3291615db", "fusion_lon": 0.0, "lat": 38.93082916666667, "fusion_lat": 0.0}, {"is_disabled": 0, "rental_uris": {"android": "https://dc.lft.to/lastmile_qr_scan", "ios": "https://dc.lft.to/lastmile_qr_scan"}, "is_reserved": 0, "name": "e3910489ffc9d9626433db8ef4609b76", "lon": -77.0395675, "type": "electric_scooter", "bike_id": "e3910489ffc9d9626433db8ef4609b76", "fusion_lon": 0.0, "lat": 38.898503166666664, "fusion_lat": 0.0}, {"is_disabled": 0, "rental_uris": {"android": "https://dc.lft.to/lastmile_qr_scan", "ios": "https://dc.lft.to/lastmile_qr_scan"}, "is_reserved": 0, "name": "6a60398dfa70adfb99f9ecd50760bd5b", "lon": -77.03956066666667, "type": "electric_scooter", "bike_id": "6a60398dfa70adfb99f9ecd50760bd5b", "fusion_lon": 0.0, "lat": 38.89877833333333, "fusion_lat": 0.0}, {"is_disabled": 0, "rental_uris": {"android": "https://dc.lft.to/lastmile_qr_scan", "ios": "https://dc.lft.to/lastmile_qr_scan"}, "is_reserved": 0, "name": "4bc503f715b09535cfe0d461d97d89ed", "lon": -77.02689966666667, "type": "electric_scooter", "bike_id": "4bc503f715b09535cfe0d461d97d89ed", "fusion_lon": 0.0, "lat": 38.920667333333334, "fusion_lat": 0.0}, {"is_disabled": 0, "rental_uris": {"android": "https://dc.lft.to/lastmile_qr_scan", "ios": "https://dc.lft.to/lastmile_qr_scan"}, "is_reserved": 0, "name": "85dd6d9683571533923a56794bd540bf", "lon": -77.04377683333334, "type": "electric_scooter", "bike_id": "85dd6d9683571533923a56794bd540bf", "fusion_lon": 0.0, "lat": 38.902757666666666, "fusion_lat": 0.0}, {"is_disabled": 0, "rental_uris": {"android": "https://dc.lft.to/lastmile_qr_scan", "ios": "https://dc.lft.to/lastmile_qr_scan"}, "is_reserved": 0, "name": "c3a7e39cb64e6371707e82afddae2799", "lon": -77.03183, "type": "electric_scooter", "bike_id": "c3a7e39cb64e6371707e82afddae2799", "fusion_lon": 0.0, "lat": 38.919157166666665, "fusion_lat": 0.0}, {"is_disabled": 0, "rental_uris": {"android": "https://dc.lft.to/lastmile_qr_scan", "ios": "https://dc.lft.to/lastmile_qr_scan"}, "is_reserved": 0, "name": "ea97f605975c2a6c7f39d6a519be87c5", "lon": -77.03751483333333, "type": "electric_scooter", "bike_id": "ea97f605975c2a6c7f39d6a519be87c5", "fusion_lon": 0.0, "lat": 38.929022333333336, "fusion_lat": 0.0}, {"is_disabled": 0, "rental_uris": {"android": "https://dc.lft.to/lastmile_qr_scan", "ios": "https://dc.lft.to/lastmile_qr_scan"}, "is_reserved": 0, "name": "7721a65c9d49d4b824f1c5279f792678", "lon": -77.02388666666667, "type": "electric_scooter", "bike_id": "7721a65c9d49d4b824f1c5279f792678", "fusion_lon": 0.0, "lat": 38.907089166666665, "fusion_lat": 0.0}, {"is_disabled": 0, "rental_uris": {"android": "https://dc.lft.to/lastmile_qr_scan", "ios": "https://dc.lft.to/lastmile_qr_scan"}, "is_reserved": 0, "name": "4a6153e2c474eb9e40d46f2bd766fc83", "lon": -77.0418165, "type": "electric_scooter", "bike_id": "4a6153e2c474eb9e40d46f2bd766fc83", "fusion_lon": 0.0, "lat": 38.892322, "fusion_lat": 0.0}, {"is_disabled": 0, "rental_uris": {"android": "https://dc.lft.to/lastmile_qr_scan", "ios": "https://dc.lft.to/lastmile_qr_scan"}, "is_reserved": 0, "name": "c7416872aa563028c6040f6ffb63ad7a", "lon": -77.03153283333333, "type": "electric_scooter", "bike_id": "c7416872aa563028c6040f6ffb63ad7a", "fusion_lon": 0.0, "lat": 38.9272345, "fusion_lat": 0.0}, {"is_disabled": 0, "rental_uris": {"android": "https://dc.lft.to/lastmile_qr_scan", "ios": "https://dc.lft.to/lastmile_qr_scan"}, "is_reserved": 0, "name": "2116c37527bcc0bdb86b393df9b892f4", "lon": -76.98210616666667, "type": "electric_bike", "bike_id": "2116c37527bcc0bdb86b393df9b892f4", "fusion_lon": 0.0, "lat": 38.985050333333334, "fusion_lat": 0.0}, {"is_disabled": 0, "rental_uris": {"android": "https://dc.lft.to/lastmile_qr_scan", "ios": "https://dc.lft.to/lastmile_qr_scan"}, "is_reserved": 0, "name": "e05d571019cd090f59035da31fc80fd1", "lon": -76.99646, "type": "electric_scooter", "bike_id": "e05d571019cd090f59035da31fc80fd1", "fusion_lon": 0.0, "lat": 38.887198166666664, "fusion_lat": 0.0}, {"is_disabled": 0, "rental_uris": {"android": "https://dc.lft.to/lastmile_qr_scan", "ios": "https://dc.lft.to/lastmile_qr_scan"}, "is_reserved": 0, "name": "18e941d2e630bd18d7c90f6a5f2f1415", "lon": -77.0334585, "type": "electric_scooter", "bike_id": "18e941d2e630bd18d7c90f6a5f2f1415", "fusion_lon": 0.0, "lat": 38.892444166666664, "fusion_lat": 0.0}, {"is_disabled": 0, "rental_uris": {"android": "https://dc.lft.to/lastmile_qr_scan", "ios": "https://dc.lft.to/lastmile_qr_scan"}, "is_reserved": 0, "name": "37f743f61d1f59b8510bbccca3e7460a", "lon": -77.07847666666666, "type": "electric_scooter", "bike_id": "37f743f61d1f59b8510bbccca3e7460a", "fusion_lon": 0.0, "lat": 38.931443, "fusion_lat": 0.0}, {"is_disabled": 0, "rental_uris": {"android": "https://dc.lft.to/lastmile_qr_scan", "ios": "https://dc.lft.to/lastmile_qr_scan"}, "is_reserved": 0, "name": "d4d2e1d405bab3970539a5e35cf6fab0", "lon": -77.01094533333334, "type": "electric_scooter", "bike_id": "d4d2e1d405bab3970539a5e35cf6fab0", "fusion_lon": 0.0, "lat": 38.9055885, "fusion_lat": 0.0}, {"is_disabled": 0, "rental_uris": {"android": "https://dc.lft.to/lastmile_qr_scan", "ios": "https://dc.lft.to/lastmile_qr_scan"}, "is_reserved": 0, "name": "d73ca3c10379bfbd2958c0031d4ac99c", "lon": -77.01966983333334, "type": "electric_scooter", "bike_id": "d73ca3c10379bfbd2958c0031d4ac99c", "fusion_lon": 0.0, "lat": 38.896320833333334, "fusion_lat": 0.0}, {"is_disabled": 0, "rental_uris": {"android": "https://dc.lft.to/lastmile_qr_scan", "ios": "https://dc.lft.to/lastmile_qr_scan"}, "is_reserved": 0, "name": "760014db3e7859a5610566127fe3a36f", "lon": -77.03195633333333, "type": "electric_scooter", "bike_id": "760014db3e7859a5610566127fe3a36f", "fusion_lon": 0.0, "lat": 38.897838, "fusion_lat": 0.0}, {"is_disabled": 0, "rental_uris": {"android": "https://dc.lft.to/lastmile_qr_scan", "ios": "https://dc.lft.to/lastmile_qr_scan"}, "is_reserved": 0, "name": "4d80fb86c8458fc38beca0eb27b954d8", "lon": -77.03135783333333, "type": "electric_scooter", "bike_id": "4d80fb86c8458fc38beca0eb27b954d8", "fusion_lon": 0.0, "lat": 38.917997, "fusion_lat": 0.0}, {"is_disabled": 0, "rental_uris": {"android": "https://dc.lft.to/lastmile_qr_scan", "ios": "https://dc.lft.to/lastmile_qr_scan"}, "is_reserved": 0, "name": "d1f8308d5558d9609e8f4a215113c693", "lon": -77.04860566666666, "type": "electric_scooter", "bike_id": "d1f8308d5558d9609e8f4a215113c693", "fusion_lon": 0.0, "lat": 38.91331133333333, "fusion_lat": 0.0}, {"is_disabled": 0, "rental_uris": {"android": "https://dc.lft.to/lastmile_qr_scan", "ios": "https://dc.lft.to/lastmile_qr_scan"}, "is_reserved": 0, "name": "b2d35e767d49dcc2728570e32b32183d", "lon": -77.12258066666666, "type": "electric_bike", "bike_id": "b2d35e767d49dcc2728570e32b32183d", "fusion_lon": 0.0, "lat": 38.88768183333333, "fusion_lat": 0.0}, {"is_disabled": 0, "rental_uris": {"android": "https://dc.lft.to/lastmile_qr_scan", "ios": "https://dc.lft.to/lastmile_qr_scan"}, "is_reserved": 0, "name": "0bc31f814e9335799623df8eaef94512", "lon": -77.11232816666667, "type": "electric_bike", "bike_id": "0bc31f814e9335799623df8eaef94512", "fusion_lon": 0.0, "lat": 38.8287675, "fusion_lat": 0.0}, {"is_disabled": 0, "rental_uris": {"android": "https://dc.lft.to/lastmile_qr_scan", "ios": "https://dc.lft.to/lastmile_qr_scan"}, "is_reserved": 0, "name": "af6495174d15f3506584cf5ac7787b7c", "lon": -77.07684566666667, "type": "electric_bike", "bike_id": "af6495174d15f3506584cf5ac7787b7c", "fusion_lon": 0.0, "lat": 38.831931, "fusion_lat": 0.0}, {"is_disabled": 0, "rental_uris": {"android": "https://dc.lft.to/lastmile_qr_scan", "ios": "https://dc.lft.to/lastmile_qr_scan"}, "is_reserved": 0, "name": "3a4f5e7ce18a4135b692d1d0e5116087", "lon": -77.0321155, "type": "electric_scooter", "bike_id": "3a4f5e7ce18a4135b692d1d0e5116087", "fusion_lon": 0.0, "lat": 38.914631166666666, "fusion_lat": 0.0}, {"is_disabled": 0, "rental_uris": {"android": "https://dc.lft.to/lastmile_qr_scan", "ios": "https://dc.lft.to/lastmile_qr_scan"}, "is_reserved": 0, "name": "c844242b34d47ea3e1afd6c66c05c02c", "lon": -76.93539633333333, "type": "electric_bike", "bike_id": "c844242b34d47ea3e1afd6c66c05c02c", "fusion_lon": 0.0, "lat": 38.95546483333333, "fusion_lat": 0.0}, {"is_disabled": 0, "rental_uris": {"android": "https://dc.lft.to/lastmile_qr_scan", "ios": "https://dc.lft.to/lastmile_qr_scan"}, "is_reserved": 0, "name": "9d1a02e15f2c5486e6019902b6ec8073", "lon": -77.04203033333333, "type": "electric_scooter", "bike_id": "9d1a02e15f2c5486e6019902b6ec8073", "fusion_lon": 0.0, "lat": 38.9112275, "fusion_lat": 0.0}, {"is_disabled": 0, "rental_uris": {"android": "https://dc.lft.to/lastmile_qr_scan", "ios": "https://dc.lft.to/lastmile_qr_scan"}, "is_reserved": 0, "name": "4baf22a46e8631d8866b585d266ea9f5", "lon": -76.99533033333333, "type": "electric_scooter", "bike_id": "4baf22a46e8631d8866b585d266ea9f5", "fusion_lon": 0.0, "lat": 38.920632166666664, "fusion_lat": 0.0}, {"is_disabled": 0, "rental_uris": {"android": "https://dc.lft.to/lastmile_qr_scan", "ios": "https://dc.lft.to/lastmile_qr_scan"}, "is_reserved": 0, "name": "6209e34118fb9c7a97814e7f00f34818", "lon": -77.04343766666666, "type": "electric_scooter", "bike_id": "6209e34118fb9c7a97814e7f00f34818", "fusion_lon": 0.0, "lat": 38.89856283333334, "fusion_lat": 0.0}, {"is_disabled": 0, "rental_uris": {"android": "https://dc.lft.to/lastmile_qr_scan", "ios": "https://dc.lft.to/lastmile_qr_scan"}, "is_reserved": 0, "name": "9b1823f60f0fcc8126c6edbd9516044a", "lon": -77.01949983333333, "type": "electric_scooter", "bike_id": "9b1823f60f0fcc8126c6edbd9516044a", "fusion_lon": 0.0, "lat": 38.92249866666667, "fusion_lat": 0.0}, {"is_disabled": 0, "rental_uris": {"android": "https://dc.lft.to/lastmile_qr_scan", "ios": "https://dc.lft.to/lastmile_qr_scan"}, "is_reserved": 0, "name": "4670d5a0e0c1d2393b226c0584d34d3a", "lon": -76.97508366666666, "type": "electric_bike", "bike_id": "4670d5a0e0c1d2393b226c0584d34d3a", "fusion_lon": 0.0, "lat": 38.903161, "fusion_lat": 0.0}, {"is_disabled": 0, "rental_uris": {"android": "https://dc.lft.to/lastmile_qr_scan", "ios": "https://dc.lft.to/lastmile_qr_scan"}, "is_reserved": 0, "name": "1eaca50a843e9466dcbaa6e47b0687ee", "lon": -77.03847416666666, "type": "electric_scooter", "bike_id": "1eaca50a843e9466dcbaa6e47b0687ee", "fusion_lon": 0.0, "lat": 38.903388666666665, "fusion_lat": 0.0}, {"is_disabled": 0, "rental_uris": {"android": "https://dc.lft.to/lastmile_qr_scan", "ios": "https://dc.lft.to/lastmile_qr_scan"}, "is_reserved": 0, "name": "7ce272eee80dabf540c3a84446824141", "lon": -77.0086405, "type": "electric_scooter", "bike_id": "7ce272eee80dabf540c3a84446824141", "fusion_lon": 0.0, "lat": 38.90635366666667, "fusion_lat": 0.0}, {"is_disabled": 0, "rental_uris": {"android": "https://dc.lft.to/lastmile_qr_scan", "ios": "https://dc.lft.to/lastmile_qr_scan"}, "is_reserved": 0, "name": "0fde1f722f286dbb207058b2c93a01b5", "lon": -77.02301666666666, "type": "electric_scooter", "bike_id": "0fde1f722f286dbb207058b2c93a01b5", "fusion_lon": 0.0, "lat": 38.9161895, "fusion_lat": 0.0}, {"is_disabled": 0, "rental_uris": {"android": "https://dc.lft.to/lastmile_qr_scan", "ios": "https://dc.lft.to/lastmile_qr_scan"}, "is_reserved": 0, "name": "33fe4fad7a5e7a3667debd906c6edce3", "lon": -77.01226233333334, "type": "electric_scooter", "bike_id": "33fe4fad7a5e7a3667debd906c6edce3", "fusion_lon": 0.0, "lat": 38.88583166666667, "fusion_lat": 0.0}, {"is_disabled": 0, "rental_uris": {"android": "https://dc.lft.to/lastmile_qr_scan", "ios": "https://dc.lft.to/lastmile_qr_scan"}, "is_reserved": 0, "name": "4339d3db0c99b0e2b17c19836614ddd3", "lon": -77.03327266666666, "type": "electric_scooter", "bike_id": "4339d3db0c99b0e2b17c19836614ddd3", "fusion_lon": 0.0, "lat": 38.89846883333333, "fusion_lat": 0.0}, {"is_disabled": 0, "rental_uris": {"android": "https://dc.lft.to/lastmile_qr_scan", "ios": "https://dc.lft.to/lastmile_qr_scan"}, "is_reserved": 0, "name": "84c68c4c120db0e9c2f9d1fbd334aa37", "lon": -77.0376545, "type": "electric_scooter", "bike_id": "84c68c4c120db0e9c2f9d1fbd334aa37", "fusion_lon": 0.0, "lat": 38.916908166666666, "fusion_lat": 0.0}, {"is_disabled": 0, "rental_uris": {"android": "https://dc.lft.to/lastmile_qr_scan", "ios": "https://dc.lft.to/lastmile_qr_scan"}, "is_reserved": 0, "name": "eb38222f7484d942bdb83ba66aab2d9c", "lon": -76.97877183333334, "type": "electric_scooter", "bike_id": "eb38222f7484d942bdb83ba66aab2d9c", "fusion_lon": 0.0, "lat": 38.927254, "fusion_lat": 0.0}, {"is_disabled": 0, "rental_uris": {"android": "https://dc.lft.to/lastmile_qr_scan", "ios": "https://dc.lft.to/lastmile_qr_scan"}, "is_reserved": 0, "name": "7cef316587296ede260bdc0521101e6f", "lon": -76.94829083333333, "type": "electric_scooter", "bike_id": "7cef316587296ede260bdc0521101e6f", "fusion_lon": 0.0, "lat": 38.88512083333333, "fusion_lat": 0.0}, {"is_disabled": 0, "rental_uris": {"android": "https://dc.lft.to/lastmile_qr_scan", "ios": "https://dc.lft.to/lastmile_qr_scan"}, "is_reserved": 0, "name": "3d74eec7f5b8a8452acd13df86da1509", "lon": -77.02348883333333, "type": "electric_scooter", "bike_id": "3d74eec7f5b8a8452acd13df86da1509", "fusion_lon": 0.0, "lat": 38.915937666666665, "fusion_lat": 0.0}, {"is_disabled": 0, "rental_uris": {"android": "https://dc.lft.to/lastmile_qr_scan", "ios": "https://dc.lft.to/lastmile_qr_scan"}, "is_reserved": 0, "name": "46ef839ac20187d350b1386115d47905", "lon": -77.05439116666666, "type": "electric_scooter", "bike_id": "46ef839ac20187d350b1386115d47905", "fusion_lon": 0.0, "lat": 38.8960425, "fusion_lat": 0.0}, {"is_disabled": 0, "rental_uris": {"android": "https://dc.lft.to/lastmile_qr_scan", "ios": "https://dc.lft.to/lastmile_qr_scan"}, "is_reserved": 0, "name": "9f6aa79e178a615cc6c5947f9bd3aeac", "lon": -77.045702, "type": "electric_scooter", "bike_id": "9f6aa79e178a615cc6c5947f9bd3aeac", "fusion_lon": 0.0, "lat": 38.917853666666666, "fusion_lat": 0.0}, {"is_disabled": 0, "rental_uris": {"android": "https://dc.lft.to/lastmile_qr_scan", "ios": "https://dc.lft.to/lastmile_qr_scan"}, "is_reserved": 0, "name": "ff84a73a38395ce0959a94e6ee66bd67", "lon": -77.04637483333333, "type": "electric_scooter", "bike_id": "ff84a73a38395ce0959a94e6ee66bd67", "fusion_lon": 0.0, "lat": 38.905604333333336, "fusion_lat": 0.0}, {"is_disabled": 0, "rental_uris": {"android": "https://dc.lft.to/lastmile_qr_scan", "ios": "https://dc.lft.to/lastmile_qr_scan"}, "is_reserved": 0, "name": "dcaa059144f4790b8021d662ab399e37", "lon": -77.006018, "type": "electric_scooter", "bike_id": "dcaa059144f4790b8021d662ab399e37", "fusion_lon": 0.0, "lat": 38.90639783333334, "fusion_lat": 0.0}, {"is_disabled": 0, "rental_uris": {"android": "https://dc.lft.to/lastmile_qr_scan", "ios": "https://dc.lft.to/lastmile_qr_scan"}, "is_reserved": 0, "name": "222761fbeb0de200ac17273c4264261b", "lon": -77.1117365, "type": "electric_bike", "bike_id": "222761fbeb0de200ac17273c4264261b", "fusion_lon": 0.0, "lat": 38.8563615, "fusion_lat": 0.0}, {"is_disabled": 0, "rental_uris": {"android": "https://dc.lft.to/lastmile_qr_scan", "ios": "https://dc.lft.to/lastmile_qr_scan"}, "is_reserved": 0, "name": "f5b2a1d885edd79b0e2cfe0de06e6d68", "lon": -77.0282665, "type": "electric_scooter", "bike_id": "f5b2a1d885edd79b0e2cfe0de06e6d68", "fusion_lon": 0.0, "lat": 38.929774333333334, "fusion_lat": 0.0}, {"is_disabled": 0, "rental_uris": {"android": "https://dc.lft.to/lastmile_qr_scan", "ios": "https://dc.lft.to/lastmile_qr_scan"}, "is_reserved": 0, "name": "b970b89044ae948d46ed05009fa89fdf", "lon": -77.09447183333333, "type": "electric_scooter", "bike_id": "b970b89044ae948d46ed05009fa89fdf", "fusion_lon": 0.0, "lat": 38.917905833333336, "fusion_lat": 0.0}, {"is_disabled": 0, "rental_uris": {"android": "https://dc.lft.to/lastmile_qr_scan", "ios": "https://dc.lft.to/lastmile_qr_scan"}, "is_reserved": 0, "name": "ab4a2d2668d018935876f38c553af1b5", "lon": -76.94942016666667, "type": "electric_scooter", "bike_id": "ab4a2d2668d018935876f38c553af1b5", "fusion_lon": 0.0, "lat": 38.88320383333333, "fusion_lat": 0.0}, {"is_disabled": 0, "rental_uris": {"android": "https://dc.lft.to/lastmile_qr_scan", "ios": "https://dc.lft.to/lastmile_qr_scan"}, "is_reserved": 0, "name": "343ee0a4ac8988b852c47ec7c29585b8", "lon": -77.02421983333333, "type": "electric_scooter", "bike_id": "343ee0a4ac8988b852c47ec7c29585b8", "fusion_lon": 0.0, "lat": 38.89358216666667, "fusion_lat": 0.0}, {"is_disabled": 0, "rental_uris": {"android": "https://dc.lft.to/lastmile_qr_scan", "ios": "https://dc.lft.to/lastmile_qr_scan"}, "is_reserved": 0, "name": "96e271299652a279f6308028c20f5e0b", "lon": -77.04027, "type": "electric_scooter", "bike_id": "96e271299652a279f6308028c20f5e0b", "fusion_lon": 0.0, "lat": 38.9045475, "fusion_lat": 0.0}, {"is_disabled": 0, "rental_uris": {"android": "https://dc.lft.to/lastmile_qr_scan", "ios": "https://dc.lft.to/lastmile_qr_scan"}, "is_reserved": 0, "name": "51cd1d1bf1213fdb0aedeaa6cc226405", "lon": -77.03213416666667, "type": "electric_scooter", "bike_id": "51cd1d1bf1213fdb0aedeaa6cc226405", "fusion_lon": 0.0, "lat": 38.90744516666667, "fusion_lat": 0.0}, {"is_disabled": 0, "rental_uris": {"android": "https://dc.lft.to/lastmile_qr_scan", "ios": "https://dc.lft.to/lastmile_qr_scan"}, "is_reserved": 0, "name": "b93d8b43a4414be485f624ccf0643347", "lon": -77.04159933333334, "type": "electric_scooter", "bike_id": "b93d8b43a4414be485f624ccf0643347", "fusion_lon": 0.0, "lat": 38.92328366666667, "fusion_lat": 0.0}, {"is_disabled": 0, "rental_uris": {"android": "https://dc.lft.to/lastmile_qr_scan", "ios": "https://dc.lft.to/lastmile_qr_scan"}, "is_reserved": 0, "name": "343585ba71e37f4bd88a4cd01c01850f", "lon": -77.00310966666666, "type": "electric_scooter", "bike_id": "343585ba71e37f4bd88a4cd01c01850f", "fusion_lon": 0.0, "lat": 38.89224433333333, "fusion_lat": 0.0}, {"is_disabled": 0, "rental_uris": {"android": "https://dc.lft.to/lastmile_qr_scan", "ios": "https://dc.lft.to/lastmile_qr_scan"}, "is_reserved": 0, "name": "8cb8afb4829709b2ec7532575492bf0d", "lon": -76.9830045, "type": "electric_scooter", "bike_id": "8cb8afb4829709b2ec7532575492bf0d", "fusion_lon": 0.0, "lat": 38.903789333333336, "fusion_lat": 0.0}, {"is_disabled": 0, "rental_uris": {"android": "https://dc.lft.to/lastmile_qr_scan", "ios": "https://dc.lft.to/lastmile_qr_scan"}, "is_reserved": 0, "name": "c9c50affadcf9ee7e491d2bb8ff71e92", "lon": -77.01538266666667, "type": "electric_scooter", "bike_id": "c9c50affadcf9ee7e491d2bb8ff71e92", "fusion_lon": 0.0, "lat": 38.89545283333333, "fusion_lat": 0.0}, {"is_disabled": 0, "rental_uris": {"android": "https://dc.lft.to/lastmile_qr_scan", "ios": "https://dc.lft.to/lastmile_qr_scan"}, "is_reserved": 0, "name": "2670c8b67d499491a2e6fa7d20e85ee5", "lon": -77.02478366666666, "type": "electric_scooter", "bike_id": "2670c8b67d499491a2e6fa7d20e85ee5", "fusion_lon": 0.0, "lat": 38.937554166666665, "fusion_lat": 0.0}, {"is_disabled": 0, "rental_uris": {"android": "https://dc.lft.to/lastmile_qr_scan", "ios": "https://dc.lft.to/lastmile_qr_scan"}, "is_reserved": 0, "name": "34ed13134446324837fa2feef776da87", "lon": -77.04131883333334, "type": "electric_scooter", "bike_id": "34ed13134446324837fa2feef776da87", "fusion_lon": 0.0, "lat": 38.92143733333333, "fusion_lat": 0.0}, {"is_disabled": 0, "rental_uris": {"android": "https://dc.lft.to/lastmile_qr_scan", "ios": "https://dc.lft.to/lastmile_qr_scan"}, "is_reserved": 0, "name": "d3feb6b270454a6b018d29a5e8cc93f6", "lon": -77.04408116666667, "type": "electric_scooter", "bike_id": "d3feb6b270454a6b018d29a5e8cc93f6", "fusion_lon": 0.0, "lat": 38.9295405, "fusion_lat": 0.0}, {"is_disabled": 0, "rental_uris": {"android": "https://dc.lft.to/lastmile_qr_scan", "ios": "https://dc.lft.to/lastmile_qr_scan"}, "is_reserved": 0, "name": "1ac3f9ef07ca31a1a84b5b492ca50d32", "lon": -77.02783916666667, "type": "electric_scooter", "bike_id": "1ac3f9ef07ca31a1a84b5b492ca50d32", "fusion_lon": 0.0, "lat": 38.951221, "fusion_lat": 0.0}, {"is_disabled": 0, "rental_uris": {"android": "https://dc.lft.to/lastmile_qr_scan", "ios": "https://dc.lft.to/lastmile_qr_scan"}, "is_reserved": 0, "name": "12575c78249406cb45ec10806306c5fe", "lon": -77.02049116666667, "type": "electric_scooter", "bike_id": "12575c78249406cb45ec10806306c5fe", "fusion_lon": 0.0, "lat": 38.9587155, "fusion_lat": 0.0}, {"is_disabled": 0, "rental_uris": {"android": "https://dc.lft.to/lastmile_qr_scan", "ios": "https://dc.lft.to/lastmile_qr_scan"}, "is_reserved": 0, "name": "de7676b86a7f6af829c1f82404401b10", "lon": -77.038697, "type": "electric_scooter", "bike_id": "de7676b86a7f6af829c1f82404401b10", "fusion_lon": 0.0, "lat": 38.915631833333336, "fusion_lat": 0.0}, {"is_disabled": 0, "rental_uris": {"android": "https://dc.lft.to/lastmile_qr_scan", "ios": "https://dc.lft.to/lastmile_qr_scan"}, "is_reserved": 0, "name": "1ba936c96d8ac4fa91515f819dd5263e", "lon": -77.04474883333333, "type": "electric_scooter", "bike_id": "1ba936c96d8ac4fa91515f819dd5263e", "fusion_lon": 0.0, "lat": 38.91105866666667, "fusion_lat": 0.0}, {"is_disabled": 0, "rental_uris": {"android": "https://dc.lft.to/lastmile_qr_scan", "ios": "https://dc.lft.to/lastmile_qr_scan"}, "is_reserved": 0, "name": "42d15bfca7debea088adebd26930244b", "lon": -77.03202433333334, "type": "electric_scooter", "bike_id": "42d15bfca7debea088adebd26930244b", "fusion_lon": 0.0, "lat": 38.9153505, "fusion_lat": 0.0}, {"is_disabled": 0, "rental_uris": {"android": "https://dc.lft.to/lastmile_qr_scan", "ios": "https://dc.lft.to/lastmile_qr_scan"}, "is_reserved": 0, "name": "2e31e424a87f14c6c4188ab9061abd91", "lon": -77.0211125, "type": "electric_scooter", "bike_id": "2e31e424a87f14c6c4188ab9061abd91", "fusion_lon": 0.0, "lat": 38.940987166666666, "fusion_lat": 0.0}, {"is_disabled": 0, "rental_uris": {"android": "https://dc.lft.to/lastmile_qr_scan", "ios": "https://dc.lft.to/lastmile_qr_scan"}, "is_reserved": 0, "name": "389bcefd989e5ca27d3aa7dd77f894f4", "lon": -76.99059116666666, "type": "electric_scooter", "bike_id": "389bcefd989e5ca27d3aa7dd77f894f4", "fusion_lon": 0.0, "lat": 38.86366233333333, "fusion_lat": 0.0}, {"is_disabled": 0, "rental_uris": {"android": "https://dc.lft.to/lastmile_qr_scan", "ios": "https://dc.lft.to/lastmile_qr_scan"}, "is_reserved": 0, "name": "ca60234b34a25262ed32d7be5584bbd4", "lon": -77.01247683333334, "type": "electric_scooter", "bike_id": "ca60234b34a25262ed32d7be5584bbd4", "fusion_lon": 0.0, "lat": 38.931071333333335, "fusion_lat": 0.0}, {"is_disabled": 0, "rental_uris": {"android": "https://dc.lft.to/lastmile_qr_scan", "ios": "https://dc.lft.to/lastmile_qr_scan"}, "is_reserved": 0, "name": "8f0c9e4601fdf436c9121e68f7f8fed5", "lon": -77.05134433333333, "type": "electric_scooter", "bike_id": "8f0c9e4601fdf436c9121e68f7f8fed5", "fusion_lon": 0.0, "lat": 38.906702333333335, "fusion_lat": 0.0}, {"is_disabled": 0, "rental_uris": {"android": "https://dc.lft.to/lastmile_qr_scan", "ios": "https://dc.lft.to/lastmile_qr_scan"}, "is_reserved": 0, "name": "cb047537ac508ed677318820e7d145d2", "lon": -77.04195833333333, "type": "electric_scooter", "bike_id": "cb047537ac508ed677318820e7d145d2", "fusion_lon": 0.0, "lat": 38.91673333333333, "fusion_lat": 0.0}, {"is_disabled": 0, "rental_uris": {"android": "https://dc.lft.to/lastmile_qr_scan", "ios": "https://dc.lft.to/lastmile_qr_scan"}, "is_reserved": 0, "name": "cc3d3934876d8616d3a6ad4601fc3212", "lon": -77.0337635, "type": "electric_scooter", "bike_id": "cc3d3934876d8616d3a6ad4601fc3212", "fusion_lon": 0.0, "lat": 38.90274616666667, "fusion_lat": 0.0}, {"is_disabled": 0, "rental_uris": {"android": "https://dc.lft.to/lastmile_qr_scan", "ios": "https://dc.lft.to/lastmile_qr_scan"}, "is_reserved": 0, "name": "7a0463f33f9611773f788086dff2a39b", "lon": -76.98459283333334, "type": "electric_scooter", "bike_id": "7a0463f33f9611773f788086dff2a39b", "fusion_lon": 0.0, "lat": 38.8936225, "fusion_lat": 0.0}, {"is_disabled": 0, "rental_uris": {"android": "https://dc.lft.to/lastmile_qr_scan", "ios": "https://dc.lft.to/lastmile_qr_scan"}, "is_reserved": 0, "name": "e0000de7ac0562101d0722558ff01a46", "lon": -77.01203783333334, "type": "electric_scooter", "bike_id": "e0000de7ac0562101d0722558ff01a46", "fusion_lon": 0.0, "lat": 38.92741483333333, "fusion_lat": 0.0}, {"is_disabled": 0, "rental_uris": {"android": "https://dc.lft.to/lastmile_qr_scan", "ios": "https://dc.lft.to/lastmile_qr_scan"}, "is_reserved": 0, "name": "5caf7eef353c5dcb3c74bcc4205e4355", "lon": -77.03250216666666, "type": "electric_scooter", "bike_id": "5caf7eef353c5dcb3c74bcc4205e4355", "fusion_lon": 0.0, "lat": 38.909758, "fusion_lat": 0.0}, {"is_disabled": 0, "rental_uris": {"android": "https://dc.lft.to/lastmile_qr_scan", "ios": "https://dc.lft.to/lastmile_qr_scan"}, "is_reserved": 0, "name": "b72942521b64b456bd53d96614c70f9a", "lon": -77.029102, "type": "electric_scooter", "bike_id": "b72942521b64b456bd53d96614c70f9a", "fusion_lon": 0.0, "lat": 38.939657, "fusion_lat": 0.0}, {"is_disabled": 0, "rental_uris": {"android": "https://dc.lft.to/lastmile_qr_scan", "ios": "https://dc.lft.to/lastmile_qr_scan"}, "is_reserved": 0, "name": "81d5855b3bad6977f18ccf8adc677174", "lon": -77.054632, "type": "electric_scooter", "bike_id": "81d5855b3bad6977f18ccf8adc677174", "fusion_lon": 0.0, "lat": 38.929007, "fusion_lat": 0.0}, {"is_disabled": 0, "rental_uris": {"android": "https://dc.lft.to/lastmile_qr_scan", "ios": "https://dc.lft.to/lastmile_qr_scan"}, "is_reserved": 0, "name": "c9b33c389b4bda6554b31037376b03b4", "lon": -77.02315716666666, "type": "electric_scooter", "bike_id": "c9b33c389b4bda6554b31037376b03b4", "fusion_lon": 0.0, "lat": 38.917633333333335, "fusion_lat": 0.0}, {"is_disabled": 0, "rental_uris": {"android": "https://dc.lft.to/lastmile_qr_scan", "ios": "https://dc.lft.to/lastmile_qr_scan"}, "is_reserved": 0, "name": "be2fdb703318d6fd5e7c0cb0c97ef3fb", "lon": -76.9355225, "type": "electric_scooter", "bike_id": "be2fdb703318d6fd5e7c0cb0c97ef3fb", "fusion_lon": 0.0, "lat": 38.90155683333333, "fusion_lat": 0.0}, {"is_disabled": 0, "rental_uris": {"android": "https://dc.lft.to/lastmile_qr_scan", "ios": "https://dc.lft.to/lastmile_qr_scan"}, "is_reserved": 0, "name": "b3bc238052e3a435b88ffd3370859835", "lon": -77.04344816666666, "type": "electric_scooter", "bike_id": "b3bc238052e3a435b88ffd3370859835", "fusion_lon": 0.0, "lat": 38.910609666666666, "fusion_lat": 0.0}, {"is_disabled": 0, "rental_uris": {"android": "https://dc.lft.to/lastmile_qr_scan", "ios": "https://dc.lft.to/lastmile_qr_scan"}, "is_reserved": 0, "name": "23acd03e7fbf769b1698d0d0e380045b", "lon": -77.057863, "type": "electric_scooter", "bike_id": "23acd03e7fbf769b1698d0d0e380045b", "fusion_lon": 0.0, "lat": 38.90504116666666, "fusion_lat": 0.0}, {"is_disabled": 0, "rental_uris": {"android": "https://dc.lft.to/lastmile_qr_scan", "ios": "https://dc.lft.to/lastmile_qr_scan"}, "is_reserved": 0, "name": "e83d171b86ad26581c0ce401613167dc", "lon": -77.03788683333333, "type": "electric_scooter", "bike_id": "e83d171b86ad26581c0ce401613167dc", "fusion_lon": 0.0, "lat": 38.9302, "fusion_lat": 0.0}, {"is_disabled": 0, "rental_uris": {"android": "https://dc.lft.to/lastmile_qr_scan", "ios": "https://dc.lft.to/lastmile_qr_scan"}, "is_reserved": 0, "name": "d1af4a0223131a4f2662ad334f6bff43", "lon": -77.02586083333334, "type": "electric_scooter", "bike_id": "d1af4a0223131a4f2662ad334f6bff43", "fusion_lon": 0.0, "lat": 38.920369666666666, "fusion_lat": 0.0}, {"is_disabled": 0, "rental_uris": {"android": "https://dc.lft.to/lastmile_qr_scan", "ios": "https://dc.lft.to/lastmile_qr_scan"}, "is_reserved": 0, "name": "335c5ea09bfb96c9e4224d0093c75f2e", "lon": -77.0291755, "type": "electric_scooter", "bike_id": "335c5ea09bfb96c9e4224d0093c75f2e", "fusion_lon": 0.0, "lat": 38.924779666666666, "fusion_lat": 0.0}, {"is_disabled": 0, "rental_uris": {"android": "https://dc.lft.to/lastmile_qr_scan", "ios": "https://dc.lft.to/lastmile_qr_scan"}, "is_reserved": 0, "name": "9667af5a30846c25b6fcdc5caf89635a", "lon": -76.95197116666667, "type": "electric_bike", "bike_id": "9667af5a30846c25b6fcdc5caf89635a", "fusion_lon": 0.0, "lat": 38.90685416666667, "fusion_lat": 0.0}, {"is_disabled": 0, "rental_uris": {"android": "https://dc.lft.to/lastmile_qr_scan", "ios": "https://dc.lft.to/lastmile_qr_scan"}, "is_reserved": 0, "name": "dc451d9784d029d7621331e7aa8e4ae6", "lon": -76.98771, "type": "electric_scooter", "bike_id": "dc451d9784d029d7621331e7aa8e4ae6", "fusion_lon": 0.0, "lat": 38.844565333333335, "fusion_lat": 0.0}, {"is_disabled": 0, "rental_uris": {"android": "https://dc.lft.to/lastmile_qr_scan", "ios": "https://dc.lft.to/lastmile_qr_scan"}, "is_reserved": 0, "name": "ffa48626eab49fb5c94b68d488001cf5", "lon": -77.03212766666667, "type": "electric_scooter", "bike_id": "ffa48626eab49fb5c94b68d488001cf5", "fusion_lon": 0.0, "lat": 38.925812666666666, "fusion_lat": 0.0}, {"is_disabled": 0, "rental_uris": {"android": "https://dc.lft.to/lastmile_qr_scan", "ios": "https://dc.lft.to/lastmile_qr_scan"}, "is_reserved": 0, "name": "3d03a883e2ba6ba03280a803c31301cd", "lon": -77.00533416666667, "type": "electric_scooter", "bike_id": "3d03a883e2ba6ba03280a803c31301cd", "fusion_lon": 0.0, "lat": 38.92970533333333, "fusion_lat": 0.0}, {"is_disabled": 0, "rental_uris": {"android": "https://dc.lft.to/lastmile_qr_scan", "ios": "https://dc.lft.to/lastmile_qr_scan"}, "is_reserved": 0, "name": "49dc3a0376d581962e797cf5b1a4d49b", "lon": -77.02605166666666, "type": "electric_scooter", "bike_id": "49dc3a0376d581962e797cf5b1a4d49b", "fusion_lon": 0.0, "lat": 38.928894, "fusion_lat": 0.0}, {"is_disabled": 0, "rental_uris": {"android": "https://dc.lft.to/lastmile_qr_scan", "ios": "https://dc.lft.to/lastmile_qr_scan"}, "is_reserved": 0, "name": "d7ddde46f08abd05aa4fff2a2515074a", "lon": -77.04161383333333, "type": "electric_scooter", "bike_id": "d7ddde46f08abd05aa4fff2a2515074a", "fusion_lon": 0.0, "lat": 38.91575366666667, "fusion_lat": 0.0}, {"is_disabled": 0, "rental_uris": {"android": "https://dc.lft.to/lastmile_qr_scan", "ios": "https://dc.lft.to/lastmile_qr_scan"}, "is_reserved": 0, "name": "d560adfcc58dc3aa9e07ad292e790602", "lon": -77.02654816666667, "type": "electric_bike", "bike_id": "d560adfcc58dc3aa9e07ad292e790602", "fusion_lon": 0.0, "lat": 38.9882165, "fusion_lat": 0.0}, {"is_disabled": 0, "rental_uris": {"android": "https://dc.lft.to/lastmile_qr_scan", "ios": "https://dc.lft.to/lastmile_qr_scan"}, "is_reserved": 0, "name": "cf290000d72cef2fccc075dbaa1144f1", "lon": -77.0486785, "type": "electric_scooter", "bike_id": "cf290000d72cef2fccc075dbaa1144f1", "fusion_lon": 0.0, "lat": 38.909501666666664, "fusion_lat": 0.0}, {"is_disabled": 0, "rental_uris": {"android": "https://dc.lft.to/lastmile_qr_scan", "ios": "https://dc.lft.to/lastmile_qr_scan"}, "is_reserved": 0, "name": "3bc933dec590f4b63fb7b54566f6ffde", "lon": -77.12625333333334, "type": "electric_bike", "bike_id": "3bc933dec590f4b63fb7b54566f6ffde", "fusion_lon": 0.0, "lat": 39.05811116666667, "fusion_lat": 0.0}, {"is_disabled": 0, "rental_uris": {"android": "https://dc.lft.to/lastmile_qr_scan", "ios": "https://dc.lft.to/lastmile_qr_scan"}, "is_reserved": 0, "name": "53aa2e403accccde816dce1824b155eb", "lon": -77.0074335, "type": "electric_scooter", "bike_id": "53aa2e403accccde816dce1824b155eb", "fusion_lon": 0.0, "lat": 38.9155615, "fusion_lat": 0.0}, {"is_disabled": 0, "rental_uris": {"android": "https://dc.lft.to/lastmile_qr_scan", "ios": "https://dc.lft.to/lastmile_qr_scan"}, "is_reserved": 0, "name": "183f4ed2069ba54131fa77f1436e4596", "lon": -77.01769883333333, "type": "electric_scooter", "bike_id": "183f4ed2069ba54131fa77f1436e4596", "fusion_lon": 0.0, "lat": 38.90639916666667, "fusion_lat": 0.0}, {"is_disabled": 0, "rental_uris": {"android": "https://dc.lft.to/lastmile_qr_scan", "ios": "https://dc.lft.to/lastmile_qr_scan"}, "is_reserved": 0, "name": "6235d14fa004fc10f75ab98049fe638c", "lon": -77.00337516666667, "type": "electric_scooter", "bike_id": "6235d14fa004fc10f75ab98049fe638c", "fusion_lon": 0.0, "lat": 38.893549, "fusion_lat": 0.0}, {"is_disabled": 0, "rental_uris": {"android": "https://dc.lft.to/lastmile_qr_scan", "ios": "https://dc.lft.to/lastmile_qr_scan"}, "is_reserved": 0, "name": "1c96e8d5fa84fff5196b45260a279602", "lon": -77.0296195, "type": "electric_scooter", "bike_id": "1c96e8d5fa84fff5196b45260a279602", "fusion_lon": 0.0, "lat": 38.8922505, "fusion_lat": 0.0}, {"is_disabled": 0, "rental_uris": {"android": "https://dc.lft.to/lastmile_qr_scan", "ios": "https://dc.lft.to/lastmile_qr_scan"}, "is_reserved": 0, "name": "e7f1658966b981cecba61288d1f8f16a", "lon": -77.17523216666666, "type": "electric_bike", "bike_id": "e7f1658966b981cecba61288d1f8f16a", "fusion_lon": 0.0, "lat": 39.096039166666664, "fusion_lat": 0.0}, {"is_disabled": 0, "rental_uris": {"android": "https://dc.lft.to/lastmile_qr_scan", "ios": "https://dc.lft.to/lastmile_qr_scan"}, "is_reserved": 0, "name": "aef5b713931c6c5b3a65f63d5080d8a9", "lon": -77.02123483333334, "type": "electric_scooter", "bike_id": "aef5b713931c6c5b3a65f63d5080d8a9", "fusion_lon": 0.0, "lat": 38.887403166666665, "fusion_lat": 0.0}, {"is_disabled": 0, "rental_uris": {"android": "https://dc.lft.to/lastmile_qr_scan", "ios": "https://dc.lft.to/lastmile_qr_scan"}, "is_reserved": 0, "name": "982f0f308754e1e10e350a0cc8cd2de8", "lon": -77.02225233333333, "type": "electric_scooter", "bike_id": "982f0f308754e1e10e350a0cc8cd2de8", "fusion_lon": 0.0, "lat": 38.88743616666667, "fusion_lat": 0.0}, {"is_disabled": 0, "rental_uris": {"android": "https://dc.lft.to/lastmile_qr_scan", "ios": "https://dc.lft.to/lastmile_qr_scan"}, "is_reserved": 0, "name": "d344e460eb9c99233de3b557111c880e", "lon": -77.04173366666667, "type": "electric_scooter", "bike_id": "d344e460eb9c99233de3b557111c880e", "fusion_lon": 0.0, "lat": 38.9102615, "fusion_lat": 0.0}, {"is_disabled": 0, "rental_uris": {"android": "https://dc.lft.to/lastmile_qr_scan", "ios": "https://dc.lft.to/lastmile_qr_scan"}, "is_reserved": 0, "name": "ab0f0dcdcfd9edd48d2b3fba8cb2b16b", "lon": -76.9982005, "type": "electric_scooter", "bike_id": "ab0f0dcdcfd9edd48d2b3fba8cb2b16b", "fusion_lon": 0.0, "lat": 38.844357333333335, "fusion_lat": 0.0}, {"is_disabled": 0, "rental_uris": {"android": "https://dc.lft.to/lastmile_qr_scan", "ios": "https://dc.lft.to/lastmile_qr_scan"}, "is_reserved": 0, "name": "fa44b4c162cc3a63b49c2deb8cb0ed82", "lon": -77.03201133333333, "type": "electric_scooter", "bike_id": "fa44b4c162cc3a63b49c2deb8cb0ed82", "fusion_lon": 0.0, "lat": 38.919973666666664, "fusion_lat": 0.0}, {"is_disabled": 0, "rental_uris": {"android": "https://dc.lft.to/lastmile_qr_scan", "ios": "https://dc.lft.to/lastmile_qr_scan"}, "is_reserved": 0, "name": "9566d7b2d66efabd0d643eb5d3ec8afe", "lon": -77.05417116666666, "type": "electric_scooter", "bike_id": "9566d7b2d66efabd0d643eb5d3ec8afe", "fusion_lon": 0.0, "lat": 38.92832, "fusion_lat": 0.0}, {"is_disabled": 0, "rental_uris": {"android": "https://dc.lft.to/lastmile_qr_scan", "ios": "https://dc.lft.to/lastmile_qr_scan"}, "is_reserved": 0, "name": "37e4e1f297c22783e07ccc7319f2759e", "lon": -77.05516483333334, "type": "electric_bike", "bike_id": "37e4e1f297c22783e07ccc7319f2759e", "fusion_lon": 0.0, "lat": 38.91060983333333, "fusion_lat": 0.0}, {"is_disabled": 0, "rental_uris": {"android": "https://dc.lft.to/lastmile_qr_scan", "ios": "https://dc.lft.to/lastmile_qr_scan"}, "is_reserved": 0, "name": "14a59b2e0588c1b903bde61519b014c0", "lon": -76.973411, "type": "electric_bike", "bike_id": "14a59b2e0588c1b903bde61519b014c0", "fusion_lon": 0.0, "lat": 38.86575066666666, "fusion_lat": 0.0}, {"is_disabled": 0, "rental_uris": {"android": "https://dc.lft.to/lastmile_qr_scan", "ios": "https://dc.lft.to/lastmile_qr_scan"}, "is_reserved": 0, "name": "198ee8f07f0e5a7c2d172bf891e52aed", "lon": -77.00599116666666, "type": "electric_bike", "bike_id": "198ee8f07f0e5a7c2d172bf891e52aed", "fusion_lon": 0.0, "lat": 38.898049666666665, "fusion_lat": 0.0}, {"is_disabled": 0, "rental_uris": {"android": "https://dc.lft.to/lastmile_qr_scan", "ios": "https://dc.lft.to/lastmile_qr_scan"}, "is_reserved": 0, "name": "d7977b8f4aa28266140624824ac77d43", "lon": -77.0467135, "type": "electric_scooter", "bike_id": "d7977b8f4aa28266140624824ac77d43", "fusion_lon": 0.0, "lat": 38.9033895, "fusion_lat": 0.0}, {"is_disabled": 0, "rental_uris": {"android": "https://dc.lft.to/lastmile_qr_scan", "ios": "https://dc.lft.to/lastmile_qr_scan"}, "is_reserved": 0, "name": "d5b20f68dfee920403ba664a2f3b6a19", "lon": -77.052812, "type": "electric_scooter", "bike_id": "d5b20f68dfee920403ba664a2f3b6a19", "fusion_lon": 0.0, "lat": 38.9224935, "fusion_lat": 0.0}, {"is_disabled": 0, "rental_uris": {"android": "https://dc.lft.to/lastmile_qr_scan", "ios": "https://dc.lft.to/lastmile_qr_scan"}, "is_reserved": 0, "name": "3350f367a6cfb746a3e2b645380be6f4", "lon": -77.04417316666667, "type": "electric_scooter", "bike_id": "3350f367a6cfb746a3e2b645380be6f4", "fusion_lon": 0.0, "lat": 38.90947883333333, "fusion_lat": 0.0}, {"is_disabled": 0, "rental_uris": {"android": "https://dc.lft.to/lastmile_qr_scan", "ios": "https://dc.lft.to/lastmile_qr_scan"}, "is_reserved": 0, "name": "506015c3116a0000532842b96a0deba9", "lon": -76.99400516666667, "type": "electric_scooter", "bike_id": "506015c3116a0000532842b96a0deba9", "fusion_lon": 0.0, "lat": 38.921653166666665, "fusion_lat": 0.0}, {"is_disabled": 0, "rental_uris": {"android": "https://dc.lft.to/lastmile_qr_scan", "ios": "https://dc.lft.to/lastmile_qr_scan"}, "is_reserved": 0, "name": "f8a600248dbcf4882379b5d4d62abc0e", "lon": -77.03449216666667, "type": "electric_scooter", "bike_id": "f8a600248dbcf4882379b5d4d62abc0e", "fusion_lon": 0.0, "lat": 38.93356883333333, "fusion_lat": 0.0}, {"is_disabled": 0, "rental_uris": {"android": "https://dc.lft.to/lastmile_qr_scan", "ios": "https://dc.lft.to/lastmile_qr_scan"}, "is_reserved": 0, "name": "287b817025ebf4a5537979c82e62905a", "lon": -77.03657316666667, "type": "electric_scooter", "bike_id": "287b817025ebf4a5537979c82e62905a", "fusion_lon": 0.0, "lat": 38.922855166666665, "fusion_lat": 0.0}, {"is_disabled": 0, "rental_uris": {"android": "https://dc.lft.to/lastmile_qr_scan", "ios": "https://dc.lft.to/lastmile_qr_scan"}, "is_reserved": 0, "name": "66494c1d88e14c4a2e0b891827f9f72a", "lon": -76.987297, "type": "electric_scooter", "bike_id": "66494c1d88e14c4a2e0b891827f9f72a", "fusion_lon": 0.0, "lat": 38.86711916666667, "fusion_lat": 0.0}, {"is_disabled": 0, "rental_uris": {"android": "https://dc.lft.to/lastmile_qr_scan", "ios": "https://dc.lft.to/lastmile_qr_scan"}, "is_reserved": 0, "name": "8f78809fd94cb749a136c3bad3a90f8a", "lon": -77.01768133333333, "type": "electric_scooter", "bike_id": "8f78809fd94cb749a136c3bad3a90f8a", "fusion_lon": 0.0, "lat": 38.8838895, "fusion_lat": 0.0}, {"is_disabled": 0, "rental_uris": {"android": "https://dc.lft.to/lastmile_qr_scan", "ios": "https://dc.lft.to/lastmile_qr_scan"}, "is_reserved": 0, "name": "47671eba6e996ec188dab1d8639763fb", "lon": -77.02958583333333, "type": "electric_scooter", "bike_id": "47671eba6e996ec188dab1d8639763fb", "fusion_lon": 0.0, "lat": 38.90415316666667, "fusion_lat": 0.0}, {"is_disabled": 0, "rental_uris": {"android": "https://dc.lft.to/lastmile_qr_scan", "ios": "https://dc.lft.to/lastmile_qr_scan"}, "is_reserved": 0, "name": "0de68a3c68388dee6d3d5807b1aea465", "lon": -77.0417355, "type": "electric_scooter", "bike_id": "0de68a3c68388dee6d3d5807b1aea465", "fusion_lon": 0.0, "lat": 38.898923833333335, "fusion_lat": 0.0}, {"is_disabled": 0, "rental_uris": {"android": "https://dc.lft.to/lastmile_qr_scan", "ios": "https://dc.lft.to/lastmile_qr_scan"}, "is_reserved": 0, "name": "18b19699b08cee197bd157d21eb32ca7", "lon": -76.93746, "type": "electric_scooter", "bike_id": "18b19699b08cee197bd157d21eb32ca7", "fusion_lon": 0.0, "lat": 38.89014566666667, "fusion_lat": 0.0}, {"is_disabled": 0, "rental_uris": {"android": "https://dc.lft.to/lastmile_qr_scan", "ios": "https://dc.lft.to/lastmile_qr_scan"}, "is_reserved": 0, "name": "6351912262b5e542dae648953500821d", "lon": -77.0420265, "type": "electric_scooter", "bike_id": "6351912262b5e542dae648953500821d", "fusion_lon": 0.0, "lat": 38.91123616666667, "fusion_lat": 0.0}, {"is_disabled": 0, "rental_uris": {"android": "https://dc.lft.to/lastmile_qr_scan", "ios": "https://dc.lft.to/lastmile_qr_scan"}, "is_reserved": 0, "name": "6faae43cd3822c02ad8d19110f457b88", "lon": -77.03436883333333, "type": "electric_scooter", "bike_id": "6faae43cd3822c02ad8d19110f457b88", "fusion_lon": 0.0, "lat": 38.90729316666667, "fusion_lat": 0.0}, {"is_disabled": 0, "rental_uris": {"android": "https://dc.lft.to/lastmile_qr_scan", "ios": "https://dc.lft.to/lastmile_qr_scan"}, "is_reserved": 0, "name": "b2d7c346f470a1829b6ff69153ebb225", "lon": -77.01822666666666, "type": "electric_scooter", "bike_id": "b2d7c346f470a1829b6ff69153ebb225", "fusion_lon": 0.0, "lat": 38.92202233333333, "fusion_lat": 0.0}, {"is_disabled": 0, "rental_uris": {"android": "https://dc.lft.to/lastmile_qr_scan", "ios": "https://dc.lft.to/lastmile_qr_scan"}, "is_reserved": 0, "name": "f2b5e786e647d21583ce9fa1fcc36d34", "lon": -77.0447505, "type": "electric_scooter", "bike_id": "f2b5e786e647d21583ce9fa1fcc36d34", "fusion_lon": 0.0, "lat": 38.908767833333336, "fusion_lat": 0.0}, {"is_disabled": 0, "rental_uris": {"android": "https://dc.lft.to/lastmile_qr_scan", "ios": "https://dc.lft.to/lastmile_qr_scan"}, "is_reserved": 0, "name": "5c1b1edb0c27586ab3a976c9b3662277", "lon": -77.0306745, "type": "electric_scooter", "bike_id": "5c1b1edb0c27586ab3a976c9b3662277", "fusion_lon": 0.0, "lat": 38.8997825, "fusion_lat": 0.0}, {"is_disabled": 0, "rental_uris": {"android": "https://dc.lft.to/lastmile_qr_scan", "ios": "https://dc.lft.to/lastmile_qr_scan"}, "is_reserved": 0, "name": "3cbfada2fa036add30380bb1987c2f66", "lon": -76.986605, "type": "electric_scooter", "bike_id": "3cbfada2fa036add30380bb1987c2f66", "fusion_lon": 0.0, "lat": 38.901407166666665, "fusion_lat": 0.0}, {"is_disabled": 0, "rental_uris": {"android": "https://dc.lft.to/lastmile_qr_scan", "ios": "https://dc.lft.to/lastmile_qr_scan"}, "is_reserved": 0, "name": "b1ae4b57b76dc730effa3931394db345", "lon": -76.93184516666666, "type": "electric_scooter", "bike_id": "b1ae4b57b76dc730effa3931394db345", "fusion_lon": 0.0, "lat": 38.898777333333335, "fusion_lat": 0.0}, {"is_disabled": 0, "rental_uris": {"android": "https://dc.lft.to/lastmile_qr_scan", "ios": "https://dc.lft.to/lastmile_qr_scan"}, "is_reserved": 0, "name": "dbe7bbe90550a91c773a051e9ec18a7b", "lon": -77.022579, "type": "electric_scooter", "bike_id": "dbe7bbe90550a91c773a051e9ec18a7b", "fusion_lon": 0.0, "lat": 38.92825583333333, "fusion_lat": 0.0}, {"is_disabled": 0, "rental_uris": {"android": "https://dc.lft.to/lastmile_qr_scan", "ios": "https://dc.lft.to/lastmile_qr_scan"}, "is_reserved": 0, "name": "8614d05fd48755bd647316225ddf496e", "lon": -77.04739166666667, "type": "electric_scooter", "bike_id": "8614d05fd48755bd647316225ddf496e", "fusion_lon": 0.0, "lat": 38.90548183333333, "fusion_lat": 0.0}, {"is_disabled": 0, "rental_uris": {"android": "https://dc.lft.to/lastmile_qr_scan", "ios": "https://dc.lft.to/lastmile_qr_scan"}, "is_reserved": 0, "name": "3501fcae86768b3fbd0946a61b08f057", "lon": -77.01784116666667, "type": "electric_scooter", "bike_id": "3501fcae86768b3fbd0946a61b08f057", "fusion_lon": 0.0, "lat": 38.913579666666664, "fusion_lat": 0.0}, {"is_disabled": 0, "rental_uris": {"android": "https://dc.lft.to/lastmile_qr_scan", "ios": "https://dc.lft.to/lastmile_qr_scan"}, "is_reserved": 0, "name": "33c88080e77f89e9dfa5bd1961710e2c", "lon": -77.01200183333333, "type": "electric_scooter", "bike_id": "33c88080e77f89e9dfa5bd1961710e2c", "fusion_lon": 0.0, "lat": 38.8969415, "fusion_lat": 0.0}, {"is_disabled": 0, "rental_uris": {"android": "https://dc.lft.to/lastmile_qr_scan", "ios": "https://dc.lft.to/lastmile_qr_scan"}, "is_reserved": 0, "name": "0f94e444dffacb9cf7760c21c8e16bf0", "lon": -77.03856083333334, "type": "electric_scooter", "bike_id": "0f94e444dffacb9cf7760c21c8e16bf0", "fusion_lon": 0.0, "lat": 38.918366, "fusion_lat": 0.0}, {"is_disabled": 0, "rental_uris": {"android": "https://dc.lft.to/lastmile_qr_scan", "ios": "https://dc.lft.to/lastmile_qr_scan"}, "is_reserved": 0, "name": "4d9fc4574062829846190a34afb1160a", "lon": -77.02583133333333, "type": "electric_scooter", "bike_id": "4d9fc4574062829846190a34afb1160a", "fusion_lon": 0.0, "lat": 38.920362833333336, "fusion_lat": 0.0}, {"is_disabled": 0, "rental_uris": {"android": "https://dc.lft.to/lastmile_qr_scan", "ios": "https://dc.lft.to/lastmile_qr_scan"}, "is_reserved": 0, "name": "59b36830af1b902fa41d758de631d194", "lon": -77.05211, "type": "electric_scooter", "bike_id": "59b36830af1b902fa41d758de631d194", "fusion_lon": 0.0, "lat": 38.92477016666667, "fusion_lat": 0.0}, {"is_disabled": 0, "rental_uris": {"android": "https://dc.lft.to/lastmile_qr_scan", "ios": "https://dc.lft.to/lastmile_qr_scan"}, "is_reserved": 0, "name": "9c8721cb12231cc707b779d06a915777", "lon": -77.02238733333333, "type": "electric_scooter", "bike_id": "9c8721cb12231cc707b779d06a915777", "fusion_lon": 0.0, "lat": 38.923345, "fusion_lat": 0.0}, {"is_disabled": 0, "rental_uris": {"android": "https://dc.lft.to/lastmile_qr_scan", "ios": "https://dc.lft.to/lastmile_qr_scan"}, "is_reserved": 0, "name": "147a29b23dcdf91eff21619dc78d9434", "lon": -76.99850183333334, "type": "electric_scooter", "bike_id": "147a29b23dcdf91eff21619dc78d9434", "fusion_lon": 0.0, "lat": 38.9088685, "fusion_lat": 0.0}, {"is_disabled": 0, "rental_uris": {"android": "https://dc.lft.to/lastmile_qr_scan", "ios": "https://dc.lft.to/lastmile_qr_scan"}, "is_reserved": 0, "name": "31f3a31016564061b09caf144742ec51", "lon": -77.03852283333333, "type": "electric_scooter", "bike_id": "31f3a31016564061b09caf144742ec51", "fusion_lon": 0.0, "lat": 38.93201916666666, "fusion_lat": 0.0}, {"is_disabled": 0, "rental_uris": {"android": "https://dc.lft.to/lastmile_qr_scan", "ios": "https://dc.lft.to/lastmile_qr_scan"}, "is_reserved": 0, "name": "c10f8239f4b5e5e2fc073ec19bd90172", "lon": -77.04548883333334, "type": "electric_scooter", "bike_id": "c10f8239f4b5e5e2fc073ec19bd90172", "fusion_lon": 0.0, "lat": 38.913197333333336, "fusion_lat": 0.0},