{"data": {"bikes": [{"is_reserved": 0, "type": "electric_scooter", "bike_id": "dca81c0568548cbe4e690b34d21e007e", "lat": 38.914154, "lon": -77.01872666666667, "rental_uris": {"android": "https://dc.lft.to/lastmile_qr_scan", "ios": "https://dc.lft.to/lastmile_qr_scan"}, "is_disabled": 0, "fusion_lat": 0.0, "name": "dca81c0568548cbe4e690b34d21e007e", "fusion_lon": 0.0}, {"is_reserved": 0, "type": "electric_scooter", "bike_id": "a13ec19e941e6c5d9ddaf4bb549a8314", "lat": 38.8959415, "lon": -76.92982483333333, "rental_uris": {"android": "https://dc.lft.to/lastmile_qr_scan", "ios": "https://dc.lft.to/lastmile_qr_scan"}, "is_disabled": 0, "fusion_lat": 0.0, "name": "a13ec19e941e6c5d9ddaf4bb549a8314", "fusion_lon": 0.0}, {"is_reserved": 0, "type": "electric_scooter", "bike_id": "57314e4e2fa12f61b0c486f4ffd7fa16", "lat": 38.9150845, "lon": -77.0034005, "rental_uris": {"android": "https://dc.lft.to/lastmile_qr_scan", "ios": "https://dc.lft.to/lastmile_qr_scan"}, "is_disabled": 0, "fusion_lat": 0.0, "name": "57314e4e2fa12f61b0c486f4ffd7fa16", "fusion_lon": 0.0}, {"is_reserved": 0, "type": "electric_scooter", "bike_id": "e7793ff55fbc8a5c34e5e6d533088e01", "lat": 38.90535066666666, "lon": -76.988281, "rental_uris": {"android": "https://dc.lft.to/lastmile_qr_scan", "ios": "https://dc.lft.to/lastmile_qr_scan"}, "is_disabled": 0, "fusion_lat": 0.0, "name": "e7793ff55fbc8a5c34e5e6d533088e01", "fusion_lon": 0.0}, {"is_reserved": 0, "type": "electric_scooter", "bike_id": "9ff141f763ab44348ee3e9ec582b48f2", "lat": 38.90257866666666, "lon": -77.01745033333333, "rental_uris": {"android": "https://dc.lft.to/lastmile_qr_scan", "ios": "https://dc.lft.to/lastmile_qr_scan"}, "is_disabled": 0, "fusion_lat": 0.0, "name": "9ff141f763ab44348ee3e9ec582b48f2", "fusion_lon": 0.0}, {"is_reserved": 0, "type": "electric_scooter", "bike_id": "c19a095331f8214a0b2be75fbba77fe7", "lat": 38.9181875, "lon": -77.045153, "rental_uris": {"android": "https://dc.lft.to/lastmile_qr_scan", "ios": "https://dc.lft.to/lastmile_qr_scan"}, "is_disabled": 0, "fusion_lat": 0.0, "name": "c19a095331f8214a0b2be75fbba77fe7", "fusion_lon": 0.0}, {"is_reserved": 0, "type": "electric_bike", "bike_id": "2a7203b42f76766c0cafa1b0a3386aae", "lat": 38.9490645, "lon": -77.02421016666666, "rental_uris": {"android": "https://dc.lft.to/lastmile_qr_scan", "ios": "https://dc.lft.to/lastmile_qr_scan"}, "is_disabled": 0, "fusion_lat": 0.0, "name": "2a7203b42f76766c0cafa1b0a3386aae", "fusion_lon": 0.0}, {"is_reserved": 0, "type": "electric_scooter", "bike_id": "23d25ae9a28a1e90a0acc63b989de608", "lat": 38.899656, "lon": -77.0263245, "rental_uris": {"android": "https://dc.lft.to/lastmile_qr_scan", "ios": "https://dc.lft.to/lastmile_qr_scan"}, "is_disabled": 0, "fusion_lat": 0.0, "name": "23d25ae9a28a1e90a0acc63b989de608", "fusion_lon": 0.0}, {"is_reserved": 0, "type": "electric_bike", "bike_id": "cc68eebb02565d3e134284954556176c", "lat": 38.909816, "lon": -76.985187, "rental_uris": {"android": "https://dc.lft.to/lastmile_qr_scan", "ios": "https://dc.lft.to/lastmile_qr_scan"}, "is_disabled": 0, "fusion_lat": 0.0, "name": "cc68eebb02565d3e134284954556176c", "fusion_lon": 0.0}, {"is_reserved": 0, "type": "electric_scooter", "bike_id": "4a002799a35f9c38bba2e859042d9a27", "lat": 38.925048, "lon": -77.021686, "rental_uris": {"android": "https://dc.lft.to/lastmile_qr_scan", "ios": "https://dc.lft.to/lastmile_qr_scan"}, "is_disabled": 0, "fusion_lat": 0.0, "name": "4a002799a35f9c38bba2e859042d9a27", "fusion_lon": 0.0}, {"is_reserved": 0, "type": "electric_scooter", "bike_id": "c8ee7794a948a5c7127817052768cf53", "lat": 38.911501333333334, "lon": -77.021619, "rental_uris": {"android": "https://dc.lft.to/lastmile_qr_scan", "ios": "https://dc.lft.to/lastmile_qr_scan"}, "is_disabled": 0, "fusion_lat": 0.0, "name": "c8ee7794a948a5c7127817052768cf53", "fusion_lon": 0.0}, {"is_reserved": 0, "type": "electric_scooter", "bike_id": "6ad034cc875ce3722fcf1d59ba007772", "lat": 38.90791883333333, "lon": -77.00966016666666, "rental_uris": {"android": "https://dc.lft.to/lastmile_qr_scan", "ios": "https://dc.lft.to/lastmile_qr_scan"}, "is_disabled": 0, "fusion_lat": 0.0, "name": "6ad034cc875ce3722fcf1d59ba007772", "fusion_lon": 0.0}, {"is_reserved": 0, "type": "electric_scooter", "bike_id": "a59a0b737135ee8c82f03fbcdd90c26e", "lat": 38.91760766666667, "lon": -77.00446833333334, "rental_uris": {"android": "https://dc.lft.to/lastmile_qr_scan", "ios": "https://dc.lft.to/lastmile_qr_scan"}, "is_disabled": 0, "fusion_lat": 0.0, "name": "a59a0b737135ee8c82f03fbcdd90c26e", "fusion_lon": 0.0}, {"is_reserved": 0, "type": "electric_scooter", "bike_id": "83f2af91da9c063d00e8778d88d4261f", "lat": 38.94978183333333, "lon": -77.02448666666666, "rental_uris": {"android": "https://dc.lft.to/lastmile_qr_scan", "ios": "https://dc.lft.to/lastmile_qr_scan"}, "is_disabled": 0, "fusion_lat": 0.0, "name": "83f2af91da9c063d00e8778d88d4261f", "fusion_lon": 0.0}, {"is_reserved": 0, "type": "electric_scooter", "bike_id": "2c777c399174f70a776a87007fcc639b", "lat": 38.908098833333334, "lon": -77.0488745, "rental_uris": {"android": "https://dc.lft.to/lastmile_qr_scan", "ios": "https://dc.lft.to/lastmile_qr_scan"}, "is_disabled": 0, "fusion_lat": 0.0, "name": "2c777c399174f70a776a87007fcc639b", "fusion_lon": 0.0}, {"is_reserved": 0, "type": "electric_scooter", "bike_id": "f9e23a01df9804fb099178429788ebd1", "lat": 38.93330016666667, "lon": -77.02909866666667, "rental_uris": {"android": "https://dc.lft.to/lastmile_qr_scan", "ios": "https://dc.lft.to/lastmile_qr_scan"}, "is_disabled": 0, "fusion_lat": 0.0, "name": "f9e23a01df9804fb099178429788ebd1", "fusion_lon": 0.0}, {"is_reserved": 0, "type": "electric_scooter", "bike_id": "4296d2868372a1415b3f213d28325e0f", "lat": 38.87981683333334, "lon": -77.00861, "rental_uris": {"android": "https://dc.lft.to/lastmile_qr_scan", "ios": "https://dc.lft.to/lastmile_qr_scan"}, "is_disabled": 0, "fusion_lat": 0.0, "name": "4296d2868372a1415b3f213d28325e0f", "fusion_lon": 0.0}, {"is_reserved": 0, "type": "electric_scooter", "bike_id": "ecda9ca628d047bad1d8c210f11fc8c1", "lat": 38.90246366666667, "lon": -77.016438, "rental_uris": {"android": "https://dc.lft.to/lastmile_qr_scan", "ios": "https://dc.lft.to/lastmile_qr_scan"}, "is_disabled": 0, "fusion_lat": 0.0, "name": "ecda9ca628d047bad1d8c210f11fc8c1", "fusion_lon": 0.0}, {"is_reserved": 0, "type": "electric_bike", "bike_id": "6a37a34e4c465c0d137f65d05a1f054f", "lat": 38.8919085, "lon": -76.98558116666666, "rental_uris": {"android": "https://dc.lft.to/lastmile_qr_scan", "ios": "https://dc.lft.to/lastmile_qr_scan"}, "is_disabled": 0, "fusion_lat": 0.0, "name": "6a37a34e4c465c0d137f65d05a1f054f", "fusion_lon": 0.0}, {"is_reserved": 0, "type": "electric_bike", "bike_id": "08a77cb52a49f2c2e717d1094eb0d1c3", "lat": 38.92135716666667, "lon": -77.00402, "rental_uris": {"android": "https://dc.lft.to/lastmile_qr_scan", "ios": "https://dc.lft.to/lastmile_qr_scan"}, "is_disabled": 0, "fusion_lat": 0.0, "name": "08a77cb52a49f2c2e717d1094eb0d1c3", "fusion_lon": 0.0}, {"is_reserved": 0, "type": "electric_scooter", "bike_id": "c52e19273e7e3c044e6a594e3e235a22", "lat": 38.91112066666667, "lon": -77.03048683333333, "rental_uris": {"android": "https://dc.lft.to/lastmile_qr_scan", "ios": "https://dc.lft.to/lastmile_qr_scan"}, "is_disabled": 0, "fusion_lat": 0.0, "name": "c52e19273e7e3c044e6a594e3e235a22", "fusion_lon": 0.0}, {"is_reserved": 0, "type": "electric_scooter", "bike_id": "96b2fe2d04ab24904fc687ab3ecd6222", "lat": 38.89778533333333, "lon": -77.04788533333334, "rental_uris": {"android": "https://dc.lft.to/lastmile_qr_scan", "ios": "https://dc.lft.to/lastmile_qr_scan"}, "is_disabled": 0, "fusion_lat": 0.0, "name": "96b2fe2d04ab24904fc687ab3ecd6222", "fusion_lon": 0.0}, {"is_reserved": 0, "type": "electric_scooter", "bike_id": "9f20b06ee29191064a31c32a09cffc65", "lat": 38.874723833333334, "lon": -77.00336733333333, "rental_uris": {"android": "https://dc.lft.to/lastmile_qr_scan", "ios": "https://dc.lft.to/lastmile_qr_scan"}, "is_disabled": 0, "fusion_lat": 0.0, "name": "9f20b06ee29191064a31c32a09cffc65", "fusion_lon": 0.0}, {"is_reserved": 0, "type": "electric_scooter", "bike_id": "46e326b211af2b63c94519bfe790501e", "lat": 38.922083666666666, "lon": -77.02034183333333, "rental_uris": {"android": "https://dc.lft.to/lastmile_qr_scan", "ios": "https://dc.lft.to/lastmile_qr_scan"}, "is_disabled": 0, "fusion_lat": 0.0, "name": "46e326b211af2b63c94519bfe790501e", "fusion_lon": 0.0}, {"is_reserved": 0, "type": "electric_scooter", "bike_id": "53b242c70942dfb79109a69932b20d48", "lat": 38.918797833333336, "lon": -77.0431395, "rental_uris": {"android": "https://dc.lft.to/lastmile_qr_scan", "ios": "https://dc.lft.to/lastmile_qr_scan"}, "is_disabled": 0, "fusion_lat": 0.0, "name": "53b242c70942dfb79109a69932b20d48", "fusion_lon": 0.0}, {"is_reserved": 0, "type": "electric_scooter", "bike_id": "fd810e559ea1a5c8b23f4ac2d40ff3db", "lat": 38.918873833333336, "lon": -77.04312533333334, "rental_uris": {"android": "https://dc.lft.to/lastmile_qr_scan", "ios": "https://dc.lft.to/lastmile_qr_scan"}, "is_disabled": 0, "fusion_lat": 0.0, "name": "fd810e559ea1a5c8b23f4ac2d40ff3db", "fusion_lon": 0.0}, {"is_reserved": 0, "type": "electric_scooter", "bike_id": "46df7fed9a47310d5539deee63724f13", "lat": 38.907155333333336, "lon": -77.045712, "rental_uris": {"android": "https://dc.lft.to/lastmile_qr_scan", "ios": "https://dc.lft.to/lastmile_qr_scan"}, "is_disabled": 0, "fusion_lat": 0.0, "name": "46df7fed9a47310d5539deee63724f13", "fusion_lon": 0.0}, {"is_reserved": 0, "type": "electric_scooter", "bike_id": "9a25d0303012d1ed0a8247f6bd16a9d9", "lat": 38.911783666666665, "lon": -77.0026045, "rental_uris": {"android": "https://dc.lft.to/lastmile_qr_scan", "ios": "https://dc.lft.to/lastmile_qr_scan"}, "is_disabled": 0, "fusion_lat": 0.0, "name": "9a25d0303012d1ed0a8247f6bd16a9d9", "fusion_lon": 0.0}, {"is_reserved": 0, "type": "electric_scooter", "bike_id": "ff0bdded2248ff7efb8fc919bf564cc1", "lat": 38.90283216666667, "lon": -77.03172733333334, "rental_uris": {"android": "https://dc.lft.to/lastmile_qr_scan", "ios": "https://dc.lft.to/lastmile_qr_scan"}, "is_disabled": 0, "fusion_lat": 0.0, "name": "ff0bdded2248ff7efb8fc919bf564cc1", "fusion_lon": 0.0}, {"is_reserved": 0, "type": "electric_scooter", "bike_id": "291050c80f9985e88aca5e6baac2da0f", "lat": 38.91019466666667, "lon": -76.99373466666667, "rental_uris": {"android": "https://dc.lft.to/lastmile_qr_scan", "ios": "https://dc.lft.to/lastmile_qr_scan"}, "is_disabled": 0, "fusion_lat": 0.0, "name": "291050c80f9985e88aca5e6baac2da0f", "fusion_lon": 0.0}, {"is_reserved": 0, "type": "electric_scooter", "bike_id": "0f638ba760cc8f550a65a306fbc8b6f8", "lat": 38.892209666666666, "lon": -77.02219866666667, "rental_uris": {"android": "https://dc.lft.to/lastmile_qr_scan", "ios": "https://dc.lft.to/lastmile_qr_scan"}, "is_disabled": 0, "fusion_lat": 0.0, "name": "0f638ba760cc8f550a65a306fbc8b6f8", "fusion_lon": 0.0}, {"is_reserved": 0, "type": "electric_scooter", "bike_id": "735116ba21a7bea17f5a9669fd62659e", "lat": 38.92580616666667, "lon": -76.99494383333334, "rental_uris": {"android": "https://dc.lft.to/lastmile_qr_scan", "ios": "https://dc.lft.to/lastmile_qr_scan"}, "is_disabled": 0, "fusion_lat": 0.0, "name": "735116ba21a7bea17f5a9669fd62659e", "fusion_lon": 0.0}, {"is_reserved": 0, "type": "electric_scooter", "bike_id": "0e53026d4d859c67cbdb1d15280998b6", "lat": 38.89602416666666, "lon": -77.04685133333334, "rental_uris": {"android": "https://dc.lft.to/lastmile_qr_scan", "ios": "https://dc.lft.to/lastmile_qr_scan"}, "is_disabled": 0, "fusion_lat": 0.0, "name": "0e53026d4d859c67cbdb1d15280998b6", "fusion_lon": 0.0}, {"is_reserved": 0, "type": "electric_scooter", "bike_id": "431cb7e75a037badfe182867dfc72778", "lat": 38.897567, "lon": -77.00201633333333, "rental_uris": {"android": "https://dc.lft.to/lastmile_qr_scan", "ios": "https://dc.lft.to/lastmile_qr_scan"}, "is_disabled": 0, "fusion_lat": 0.0, "name": "431cb7e75a037badfe182867dfc72778", "fusion_lon": 0.0}, {"is_reserved": 0, "type": "electric_scooter", "bike_id": "0c83f4327a2c235358db1f496daf2892", "lat": 38.92445816666667, "lon": -77.04035533333334, "rental_uris": {"android": "https://dc.lft.to/lastmile_qr_scan", "ios": "https://dc.lft.to/lastmile_qr_scan"}, "is_disabled": 0, "fusion_lat": 0.0, "name": "0c83f4327a2c235358db1f496daf2892", "fusion_lon": 0.0}, {"is_reserved": 0, "type": "electric_scooter", "bike_id": "c38c2f3d8c06bb3daf499639131ecf7c", "lat": 38.8992075, "lon": -76.978378, "rental_uris": {"android": "https://dc.lft.to/lastmile_qr_scan", "ios": "https://dc.lft.to/lastmile_qr_scan"}, "is_disabled": 0, "fusion_lat": 0.0, "name": "c38c2f3d8c06bb3daf499639131ecf7c", "fusion_lon": 0.0}, {"is_reserved": 0, "type": "electric_scooter", "bike_id": "99d625046023e0ad0faccfa1493c3aa1", "lat": 38.91117033333333, "lon": -77.04501233333333, "rental_uris": {"android": "https://dc.lft.to/lastmile_qr_scan", "ios": "https://dc.lft.to/lastmile_qr_scan"}, "is_disabled": 0, "fusion_lat": 0.0, "name": "99d625046023e0ad0faccfa1493c3aa1", "fusion_lon": 0.0}, {"is_reserved": 0, "type": "electric_scooter", "bike_id": "02fb77083d780aa171707f971ae665bb", "lat": 38.910916666666665, "lon": -77.05066716666667, "rental_uris": {"android": "https://dc.lft.to/lastmile_qr_scan", "ios": "https://dc.lft.to/lastmile_qr_scan"}, "is_disabled": 0, "fusion_lat": 0.0, "name": "02fb77083d780aa171707f971ae665bb", "fusion_lon": 0.0}, {"is_reserved": 0, "type": "electric_scooter", "bike_id": "24b7fdafb4e27f86694c5756971db6aa", "lat": 38.92774566666667, "lon": -77.02791716666667, "rental_uris": {"android": "https://dc.lft.to/lastmile_qr_scan", "ios": "https://dc.lft.to/lastmile_qr_scan"}, "is_disabled": 0, "fusion_lat": 0.0, "name": "24b7fdafb4e27f86694c5756971db6aa", "fusion_lon": 0.0}, {"is_reserved": 0, "type": "electric_scooter", "bike_id": "6db724c4b7b7210a8dfe33b7335668c4", "lat": 38.96792766666667, "lon": -77.02434016666666, "rental_uris": {"android": "https://dc.lft.to/lastmile_qr_scan", "ios": "https://dc.lft.to/lastmile_qr_scan"}, "is_disabled": 0, "fusion_lat": 0.0, "name": "6db724c4b7b7210a8dfe33b7335668c4", "fusion_lon": 0.0}, {"is_reserved": 0, "type": "electric_scooter", "bike_id": "e31ad90dfa8eecbf3ca338445d50ef70", "lat": 38.9054955, "lon": -77.04165416666666, "rental_uris": {"android": "https://dc.lft.to/lastmile_qr_scan", "ios": "https://dc.lft.to/lastmile_qr_scan"}, "is_disabled": 0, "fusion_lat": 0.0, "name": "e31ad90dfa8eecbf3ca338445d50ef70", "fusion_lon": 0.0}, {"is_reserved": 0, "type": "electric_scooter", "bike_id": "3be77f180c407ce78a2cb19db073accd", "lat": 38.92310283333333, "lon": -77.02901133333333, "rental_uris": {"android": "https://dc.lft.to/lastmile_qr_scan", "ios": "https://dc.lft.to/lastmile_qr_scan"}, "is_disabled": 0, "fusion_lat": 0.0, "name": "3be77f180c407ce78a2cb19db073accd", "fusion_lon": 0.0}, {"is_reserved": 0, "type": "electric_scooter", "bike_id": "3efd5f90bfac2f13b4a64f7e914a4614", "lat": 38.934128, "lon": -77.03261033333334, "rental_uris": {"android": "https://dc.lft.to/lastmile_qr_scan", "ios": "https://dc.lft.to/lastmile_qr_scan"}, "is_disabled": 0, "fusion_lat": 0.0, "name": "3efd5f90bfac2f13b4a64f7e914a4614", "fusion_lon": 0.0}, {"is_reserved": 0, "type": "electric_scooter", "bike_id": "4200e1e0bd65466e154bae2ea45b72f4", "lat": 38.898405333333336, "lon": -77.02494633333333, "rental_uris": {"android": "https://dc.lft.to/lastmile_qr_scan", "ios": "https://dc.lft.to/lastmile_qr_scan"}, "is_disabled": 0, "fusion_lat": 0.0, "name": "4200e1e0bd65466e154bae2ea45b72f4", "fusion_lon": 0.0}, {"is_reserved": 0, "type": "electric_scooter", "bike_id": "8383527287683cb8e3ea937418f2d5ac", "lat": 38.90972416666666, "lon": -77.00778533333333, "rental_uris": {"android": "https://dc.lft.to/lastmile_qr_scan", "ios": "https://dc.lft.to/lastmile_qr_scan"}, "is_disabled": 0, "fusion_lat": 0.0, "name": "8383527287683cb8e3ea937418f2d5ac", "fusion_lon": 0.0}, {"is_reserved": 0, "type": "electric_scooter", "bike_id": "09d0312421ff5d494c08b1c769a2ca84", "lat": 38.9308925, "lon": -77.02812183333333, "rental_uris": {"android": "https://dc.lft.to/lastmile_qr_scan", "ios": "https://dc.lft.to/lastmile_qr_scan"}, "is_disabled": 0, "fusion_lat": 0.0, "name": "09d0312421ff5d494c08b1c769a2ca84", "fusion_lon": 0.0}, {"is_reserved": 0, "type": "electric_bike", "bike_id": "2f8db6f7d1c1dd6e750e16499a3a2f89", "lat": 38.862633833333334, "lon": -76.983476, "rental_uris": {"android": "https://dc.lft.to/lastmile_qr_scan", "ios": "https://dc.lft.to/lastmile_qr_scan"}, "is_disabled": 0, "fusion_lat": 0.0, "name": "2f8db6f7d1c1dd6e750e16499a3a2f89", "fusion_lon": 0.0}, {"is_reserved": 0, "type": "electric_scooter", "bike_id": "b0a6dfa6e9fa321ca5590e8ae2b9fcd7", "lat": 38.918819166666665, "lon": -77.03574866666666, "rental_uris": {"android": "https://dc.lft.to/lastmile_qr_scan", "ios": "https://dc.lft.to/lastmile_qr_scan"}, "is_disabled": 0, "fusion_lat": 0.0, "name": "b0a6dfa6e9fa321ca5590e8ae2b9fcd7", "fusion_lon": 0.0}, {"is_reserved": 0, "type": "electric_scooter", "bike_id": "0965bffa12a6f53be40ded09a0827c1f", "lat": 38.92644083333333, "lon": -77.02717316666667, "rental_uris": {"android": "https://dc.lft.to/lastmile_qr_scan", "ios": "https://dc.lft.to/lastmile_qr_scan"}, "is_disabled": 0, "fusion_lat": 0.0, "name": "0965bffa12a6f53be40ded09a0827c1f", "fusion_lon": 0.0}, {"is_reserved": 0, "type": "electric_scooter", "bike_id": "c1cd5c6bbca089adfd306afb26258de3", "lat": 38.90969183333333, "lon": -77.04502516666666, "rental_uris": {"android": "https://dc.lft.to/lastmile_qr_scan", "ios": "https://dc.lft.to/lastmile_qr_scan"}, "is_disabled": 0, "fusion_lat": 0.0, "name": "c1cd5c6bbca089adfd306afb26258de3", "fusion_lon": 0.0}, {"is_reserved": 0, "type": "electric_scooter", "bike_id": "fcbaf7587376f2204a89548f30b33036", "lat": 38.8872915, "lon": -76.98380033333333, "rental_uris": {"android": "https://dc.lft.to/lastmile_qr_scan", "ios": "https://dc.lft.to/lastmile_qr_scan"}, "is_disabled": 0, "fusion_lat": 0.0, "name": "fcbaf7587376f2204a89548f30b33036", "fusion_lon": 0.0}, {"is_reserved": 0, "type": "electric_scooter", "bike_id": "63e98c2c4fde832f41a6d0ad08219675", "lat": 38.93405816666667, "lon": -77.039899, "rental_uris": {"android": "https://dc.lft.to/lastmile_qr_scan", "ios": "https://dc.lft.to/lastmile_qr_scan"}, "is_disabled": 0, "fusion_lat": 0.0, "name": "63e98c2c4fde832f41a6d0ad08219675", "fusion_lon": 0.0}, {"is_reserved": 0, "type": "electric_scooter", "bike_id": "e674fc686013e1369aac3948931c50d5", "lat": 38.93398283333333, "lon": -77.0284535, "rental_uris": {"android": "https://dc.lft.to/lastmile_qr_scan", "ios": "https://dc.lft.to/lastmile_qr_scan"}, "is_disabled": 0, "fusion_lat": 0.0, "name": "e674fc686013e1369aac3948931c50d5", "fusion_lon": 0.0}, {"is_reserved": 0, "type": "electric_scooter", "bike_id": "fdfe5a9f02bb3feb82403a2fc2c573bf", "lat": 38.892389666666666, "lon": -77.04487266666666, "rental_uris": {"android": "https://dc.lft.to/lastmile_qr_scan", "ios": "https://dc.lft.to/lastmile_qr_scan"}, "is_disabled": 0, "fusion_lat": 0.0, "name": "fdfe5a9f02bb3feb82403a2fc2c573bf", "fusion_lon": 0.0}, {"is_reserved": 0, "type": "electric_scooter", "bike_id": "dab902d0c3d8cbcb46cb9d4d719ac4a2", "lat": 38.9263975, "lon": -77.03684966666667, "rental_uris": {"android": "https://dc.lft.to/lastmile_qr_scan", "ios": "https://dc.lft.to/lastmile_qr_scan"}, "is_disabled": 0, "fusion_lat": 0.0, "name": "dab902d0c3d8cbcb46cb9d4d719ac4a2", "fusion_lon": 0.0}, {"is_reserved": 0, "type": "electric_scooter", "bike_id": "c32c23e902778151265daa7eccada28e", "lat": 38.93370983333333, "lon": -77.03471083333334, "rental_uris": {"android": "https://dc.lft.to/lastmile_qr_scan", "ios": "https://dc.lft.to/lastmile_qr_scan"}, "is_disabled": 0, "fusion_lat": 0.0, "name": "c32c23e902778151265daa7eccada28e", "fusion_lon": 0.0}, {"is_reserved": 0, "type": "electric_scooter", "bike_id": "6afa50f699fe29e86a158fca750dc362", "lat": 38.90239433333333, "lon": -77.02863466666666, "rental_uris": {"android": "https://dc.lft.to/lastmile_qr_scan", "ios": "https://dc.lft.to/lastmile_qr_scan"}, "is_disabled": 0, "fusion_lat": 0.0, "name": "6afa50f699fe29e86a158fca750dc362", "fusion_lon": 0.0}, {"is_reserved": 0, "type": "electric_scooter", "bike_id": "cadcfe135c7b9ff24ccc2ceef196b3ff", "lat": 38.920653, "lon": -77.02324583333333, "rental_uris": {"android": "https://dc.lft.to/lastmile_qr_scan", "ios": "https://dc.lft.to/lastmile_qr_scan"}, "is_disabled": 0, "fusion_lat": 0.0, "name": "cadcfe135c7b9ff24ccc2ceef196b3ff", "fusion_lon": 0.0}, {"is_reserved": 0, "type": "electric_scooter", "bike_id": "c320696e2a6ebb58e69acd6c7a81c9d6", "lat": 38.88394183333333, "lon": -77.02995766666666, "rental_uris": {"android": "https://dc.lft.to/lastmile_qr_scan", "ios": "https://dc.lft.to/lastmile_qr_scan"}, "is_disabled": 0, "fusion_lat": 0.0, "name": "c320696e2a6ebb58e69acd6c7a81c9d6", "fusion_lon": 0.0}, {"is_reserved": 0, "type": "electric_scooter", "bike_id": "772adaea8a5dd4a28e79921770471a5b", "lat": 38.898868, "lon": -76.99357383333333, "rental_uris": {"android": "https://dc.lft.to/lastmile_qr_scan", "ios": "https://dc.lft.to/lastmile_qr_scan"}, "is_disabled": 0, "fusion_lat": 0.0, "name": "772adaea8a5dd4a28e79921770471a5b", "fusion_lon": 0.0}, {"is_reserved": 0, "type": "electric_bike", "bike_id": "607eaf5a0c439add7505c3c87dff7c61", "lat": 38.945113166666665, "lon": -77.0067805, "rental_uris": {"android": "https://dc.lft.to/lastmile_qr_scan", "ios": "https://dc.lft.to/lastmile_qr_scan"}, "is_disabled": 0, "fusion_lat": 0.0, "name": "607eaf5a0c439add7505c3c87dff7c61", "fusion_lon": 0.0}, {"is_reserved": 0, "type": "electric_bike", "bike_id": "c18e84c34e2a9e321284db52cd44f565", "lat": 38.877348166666664, "lon": -77.11845866666667, "rental_uris": {"android": "https://dc.lft.to/lastmile_qr_scan", "ios": "https://dc.lft.to/lastmile_qr_scan"}, "is_disabled": 0, "fusion_lat": 0.0, "name": "c18e84c34e2a9e321284db52cd44f565", "fusion_lon": 0.0}, {"is_reserved": 0, "type": "electric_scooter", "bike_id": "5fe73d2cd70916fb51a32ae4592e44c4", "lat": 38.910481833333336, "lon": -77.01515516666667, "rental_uris": {"android": "https://dc.lft.to/lastmile_qr_scan", "ios": "https://dc.lft.to/lastmile_qr_scan"}, "is_disabled": 0, "fusion_lat": 0.0, "name": "5fe73d2cd70916fb51a32ae4592e44c4", "fusion_lon": 0.0}, {"is_reserved": 0, "type": "electric_scooter", "bike_id": "6b28e8aaca82440fe5c5eea0c5e66b0d", "lat": 38.933348333333335, "lon": -77.04140966666667, "rental_uris": {"android": "https://dc.lft.to/lastmile_qr_scan", "ios": "https://dc.lft.to/lastmile_qr_scan"}, "is_disabled": 0, "fusion_lat": 0.0, "name": "6b28e8aaca82440fe5c5eea0c5e66b0d", "fusion_lon": 0.0}, {"is_reserved": 0, "type": "electric_bike", "bike_id": "ee600522f3f5454ebf0f48e6d352190d", "lat": 38.802588, "lon": -77.12172933333333, "rental_uris": {"android": "https://dc.lft.to/lastmile_qr_scan", "ios": "https://dc.lft.to/lastmile_qr_scan"}, "is_disabled": 0, "fusion_lat": 0.0, "name": "ee600522f3f5454ebf0f48e6d352190d", "fusion_lon": 0.0}, {"is_reserved": 0, "type": "electric_scooter", "bike_id": "41e7c3f8886aeed07fc7f855dd824929", "lat": 38.949803, "lon": -77.024408, "rental_uris": {"android": "https://dc.lft.to/lastmile_qr_scan", "ios": "https://dc.lft.to/lastmile_qr_scan"}, "is_disabled": 0, "fusion_lat": 0.0, "name": "41e7c3f8886aeed07fc7f855dd824929", "fusion_lon": 0.0}, {"is_reserved": 0, "type": "electric_scooter", "bike_id": "466817598687f5173e7a38a04bc43d21", "lat": 38.926005, "lon": -77.0570655, "rental_uris": {"android": "https://dc.lft.to/lastmile_qr_scan", "ios": "https://dc.lft.to/lastmile_qr_scan"}, "is_disabled": 0, "fusion_lat": 0.0, "name": "466817598687f5173e7a38a04bc43d21", "fusion_lon": 0.0}, {"is_reserved": 0, "type": "electric_bike", "bike_id": "fd04f256b8568932fd71f1273b10d125", "lat": 38.95153416666667, "lon": -76.93329516666667, "rental_uris": {"android": "https://dc.lft.to/lastmile_qr_scan", "ios": "https://dc.lft.to/lastmile_qr_scan"}, "is_disabled": 0, "fusion_lat": 0.0, "name": "fd04f256b8568932fd71f1273b10d125", "fusion_lon": 0.0}, {"is_reserved": 0, "type": "electric_scooter", "bike_id": "d4f1f97acb6a7c5bbf2f43c128d5c492", "lat": 38.902560666666666, "lon": -77.01768233333334, "rental_uris": {"android": "https://dc.lft.to/lastmile_qr_scan", "ios": "https://dc.lft.to/lastmile_qr_scan"}, "is_disabled": 0, "fusion_lat": 0.0, "name": "d4f1f97acb6a7c5bbf2f43c128d5c492", "fusion_lon": 0.0}, {"is_reserved": 0, "type": "electric_scooter", "bike_id": "82b9f9f7d5ae0bb10b0b771f802e3705", "lat": 38.918140666666666, "lon": -77.04549366666667, "rental_uris": {"android": "https://dc.lft.to/lastmile_qr_scan", "ios": "https://dc.lft.to/lastmile_qr_scan"}, "is_disabled": 0, "fusion_lat": 0.0, "name": "82b9f9f7d5ae0bb10b0b771f802e3705", "fusion_lon": 0.0}, {"is_reserved": 0, "type": "electric_scooter", "bike_id": "ff9f84cf17850d4f450074c1415c157f", "lat": 38.92328583333333, "lon": -77.05390533333333, "rental_uris": {"android": "https://dc.lft.to/lastmile_qr_scan", "ios": "https://dc.lft.to/lastmile_qr_scan"}, "is_disabled": 0, "fusion_lat": 0.0, "name": "ff9f84cf17850d4f450074c1415c157f", "fusion_lon": 0.0}, {"is_reserved": 0, "type": "electric_scooter", "bike_id": "df0f9d799dda365de0c07ff182c3d57e", "lat": 38.93118883333333, "lon": -77.0381125, "rental_uris": {"android": "https://dc.lft.to/lastmile_qr_scan", "ios": "https://dc.lft.to/lastmile_qr_scan"}, "is_disabled": 0, "fusion_lat": 0.0, "name": "df0f9d799dda365de0c07ff182c3d57e", "fusion_lon": 0.0}, {"is_reserved": 0, "type": "electric_scooter", "bike_id": "5be989f646b9ef11fa3a966e75b14ec3", "lat": 38.935308666666664, "lon": -77.03651916666666, "rental_uris": {"android": "https://dc.lft.to/lastmile_qr_scan", "ios": "https://dc.lft.to/lastmile_qr_scan"}, "is_disabled": 0, "fusion_lat": 0.0, "name": "5be989f646b9ef11fa3a966e75b14ec3", "fusion_lon": 0.0}, {"is_reserved": 0, "type": "electric_scooter", "bike_id": "b78a218c96ed94a1244873c92365befd", "lat": 38.96815616666667, "lon": -77.00898016666666, "rental_uris": {"android": "https://dc.lft.to/lastmile_qr_scan", "ios": "https://dc.lft.to/lastmile_qr_scan"}, "is_disabled": 0, "fusion_lat": 0.0, "name": "b78a218c96ed94a1244873c92365befd", "fusion_lon": 0.0}, {"is_reserved": 0, "type": "electric_scooter", "bike_id": "17023fb15d96ad2ceb5790f182c3e18a", "lat": 38.918255, "lon": -77.031707, "rental_uris": {"android": "https://dc.lft.to/lastmile_qr_scan", "ios": "https://dc.lft.to/lastmile_qr_scan"}, "is_disabled": 0, "fusion_lat": 0.0, "name": "17023fb15d96ad2ceb5790f182c3e18a", "fusion_lon": 0.0}, {"is_reserved": 0, "type": "electric_scooter", "bike_id": "d4a00517a2a01c241cfedafdee6e3fbf", "lat": 38.92051416666666, "lon": -77.03390016666667, "rental_uris": {"android": "https://dc.lft.to/lastmile_qr_scan", "ios": "https://dc.lft.to/lastmile_qr_scan"}, "is_disabled": 0, "fusion_lat": 0.0, "name": "d4a00517a2a01c241cfedafdee6e3fbf", "fusion_lon": 0.0}, {"is_reserved": 0, "type": "electric_scooter", "bike_id": "3d75debb64be44c2ecdf76cb17573b0d", "lat": 38.90040666666667, "lon": -77.00199433333333, "rental_uris": {"android": "https://dc.lft.to/lastmile_qr_scan", "ios": "https://dc.lft.to/lastmile_qr_scan"}, "is_disabled": 0, "fusion_lat": 0.0, "name": "3d75debb64be44c2ecdf76cb17573b0d", "fusion_lon": 0.0}, {"is_reserved": 0, "type": "electric_scooter", "bike_id": "e8eb83d979eec5159768546395a839b6", "lat": 38.923143833333334, "lon": -77.05445366666666, "rental_uris": {"android": "https://dc.lft.to/lastmile_qr_scan", "ios": "https://dc.lft.to/lastmile_qr_scan"}, "is_disabled": 0, "fusion_lat": 0.0, "name": "e8eb83d979eec5159768546395a839b6", "fusion_lon": 0.0}, {"is_reserved": 0, "type": "electric_scooter", "bike_id": "155874887d85fa087abce540e4305fdc", "lat": 38.920823666666664, "lon": -77.03166083333333, "rental_uris": {"android": "https://dc.lft.to/lastmile_qr_scan", "ios": "https://dc.lft.to/lastmile_qr_scan"}, "is_disabled": 0, "fusion_lat": 0.0, "name": "155874887d85fa087abce540e4305fdc", "fusion_lon": 0.0}, {"is_reserved": 0, "type": "electric_scooter", "bike_id": "db6de3c4b2cac7263a79a4cbf644013f", "lat": 38.905537, "lon": -77.047484, "rental_uris": {"android": "https://dc.lft.to/lastmile_qr_scan", "ios": "https://dc.lft.to/lastmile_qr_scan"}, "is_disabled": 0, "fusion_lat": 0.0, "name": "db6de3c4b2cac7263a79a4cbf644013f", "fusion_lon": 0.0}, {"is_reserved": 0, "type": "electric_scooter", "bike_id": "b54e3d281d5b214a39593e3c8aab5c83", "lat": 38.92019283333333, "lon": -77.01062316666666, "rental_uris": {"android": "https://dc.lft.to/lastmile_qr_scan", "ios": "https://dc.lft.to/lastmile_qr_scan"}, "is_disabled": 0, "fusion_lat": 0.0, "name": "b54e3d281d5b214a39593e3c8aab5c83", "fusion_lon": 0.0}, {"is_reserved": 0, "type": "electric_scooter", "bike_id": "f4d612ba4ccca205405d679e5302754f", "lat": 38.892227, "lon": -77.04640683333334, "rental_uris": {"android": "https://dc.lft.to/lastmile_qr_scan", "ios": "https://dc.lft.to/lastmile_qr_scan"}, "is_disabled": 0, "fusion_lat": 0.0, "name": "f4d612ba4ccca205405d679e5302754f", "fusion_lon": 0.0}, {"is_reserved": 0, "type": "electric_scooter", "bike_id": "b74bcc0d437f0ffb16672b7701a68d13", "lat": 38.918565, "lon": -77.04160516666667, "rental_uris": {"android": "https://dc.lft.to/lastmile_qr_scan", "ios": "https://dc.lft.to/lastmile_qr_scan"}, "is_disabled": 0, "fusion_lat": 0.0, "name": "b74bcc0d437f0ffb16672b7701a68d13", "fusion_lon": 0.0}, {"is_reserved": 0, "type": "electric_bike", "bike_id": "4dafa14ace994a70f0f14421278bb2e4", "lat": 38.957572666666664, "lon": -76.980218, "rental_uris": {"android": "https://dc.lft.to/lastmile_qr_scan", "ios": "https://dc.lft.to/lastmile_qr_scan"}, "is_disabled": 0, "fusion_lat": 0.0, "name": "4dafa14ace994a70f0f14421278bb2e4", "fusion_lon": 0.0}, {"is_reserved": 0, "type": "electric_scooter", "bike_id": "1d3ed9707aebeabc34bd651f15e0d0c8", "lat": 38.9035215, "lon": -76.98614866666667, "rental_uris": {"android": "https://dc.lft.to/lastmile_qr_scan", "ios": "https://dc.lft.to/lastmile_qr_scan"}, "is_disabled": 0, "fusion_lat": 0.0, "name": "1d3ed9707aebeabc34bd651f15e0d0c8", "fusion_lon": 0.0}, {"is_reserved": 0, "type": "electric_scooter", "bike_id": "0050ef8202533ee3d318fd00026a7fe1", "lat": 38.899183666666666, "lon": -77.02728683333333, "rental_uris": {"android": "https://dc.lft.to/lastmile_qr_scan", "ios": "https://dc.lft.to/lastmile_qr_scan"}, "is_disabled": 0, "fusion_lat": 0.0, "name": "0050ef8202533ee3d318fd00026a7fe1", "fusion_lon": 0.0}, {"is_reserved": 0, "type": "electric_scooter", "bike_id": "0b7e973e46d117f13f3a4888f8dcc5a4", "lat": 38.91607783333333, "lon": -77.02399016666666, "rental_uris": {"android": "https://dc.lft.to/lastmile_qr_scan", "ios": "https://dc.lft.to/lastmile_qr_scan"}, "is_disabled": 0, "fusion_lat": 0.0, "name": "0b7e973e46d117f13f3a4888f8dcc5a4", "fusion_lon": 0.0}, {"is_reserved": 0, "type": "electric_scooter", "bike_id": "fb6d27215878c1a15437bce08fb486d4", "lat": 38.925492, "lon": -77.03260966666667, "rental_uris": {"android": "https://dc.lft.to/lastmile_qr_scan", "ios": "https://dc.lft.to/lastmile_qr_scan"}, "is_disabled": 0, "fusion_lat": 0.0, "name": "fb6d27215878c1a15437bce08fb486d4", "fusion_lon": 0.0}, {"is_reserved": 0, "type": "electric_scooter", "bike_id": "eeec1e6ef1e3a33f855558879952d291", "lat": 38.917914333333336, "lon": -77.02309733333334, "rental_uris": {"android": "https://dc.lft.to/lastmile_qr_scan", "ios": "https://dc.lft.to/lastmile_qr_scan"}, "is_disabled": 0, "fusion_lat": 0.0, "name": "eeec1e6ef1e3a33f855558879952d291", "fusion_lon": 0.0}, {"is_reserved": 0, "type": "electric_scooter", "bike_id": "b84f0940f9bca0decc625278f6c7c5d1", "lat": 38.92636566666667, "lon": -77.0424975, "rental_uris": {"android": "https://dc.lft.to/lastmile_qr_scan", "ios": "https://dc.lft.to/lastmile_qr_scan"}, "is_disabled": 0, "fusion_lat": 0.0, "name": "b84f0940f9bca0decc625278f6c7c5d1", "fusion_lon": 0.0}, {"is_reserved": 0, "type": "electric_scooter", "bike_id": "ee2d83cc200261b454e63fd8256f92ab", "lat": 38.91684466666667, "lon": -77.0295675, "rental_uris": {"android": "https://dc.lft.to/lastmile_qr_scan", "ios": "https://dc.lft.to/lastmile_qr_scan"}, "is_disabled": 0, "fusion_lat": 0.0, "name": "ee2d83cc200261b454e63fd8256f92ab", "fusion_lon": 0.0}, {"is_reserved": 0, "type": "electric_scooter", "bike_id": "0ccca37388ef5219d1a70ef4e72b8459", "lat": 38.9304375, "lon": -77.05540383333333, "rental_uris": {"android": "https://dc.lft.to/lastmile_qr_scan", "ios": "https://dc.lft.to/lastmile_qr_scan"}, "is_disabled": 0, "fusion_lat": 0.0, "name": "0ccca37388ef5219d1a70ef4e72b8459", "fusion_lon": 0.0}, {"is_reserved": 0, "type": "electric_scooter", "bike_id": "18cd91bb89ad7125d15ed6543faaa21a", "lat": 38.921560666666664, "lon": -77.0421835, "rental_uris": {"android": "https://dc.lft.to/lastmile_qr_scan", "ios": "https://dc.lft.to/lastmile_qr_scan"}, "is_disabled": 0, "fusion_lat": 0.0, "name": "18cd91bb89ad7125d15ed6543faaa21a", "fusion_lon": 0.0}, {"is_reserved": 0, "type": "electric_scooter", "bike_id": "6b89fda87db8302db6e4b5aafa795625", "lat": 38.909061, "lon": -76.99618716666667, "rental_uris": {"android": "https://dc.lft.to/lastmile_qr_scan", "ios": "https://dc.lft.to/lastmile_qr_scan"}, "is_disabled": 0, "fusion_lat": 0.0, "name": "6b89fda87db8302db6e4b5aafa795625", "fusion_lon": 0.0}, {"is_reserved": 0, "type": "electric_scooter", "bike_id": "ba9d40ea73fdf507eafc132b8ef15bb8", "lat": 38.92096733333333, "lon": -77.04704483333333, "rental_uris": {"android": "https://dc.lft.to/lastmile_qr_scan", "ios": "https://dc.lft.to/lastmile_qr_scan"}, "is_disabled": 0, "fusion_lat": 0.0, "name": "ba9d40ea73fdf507eafc132b8ef15bb8", "fusion_lon": 0.0}, {"is_reserved": 0, "type": "electric_scooter", "bike_id": "cdb766accba17c4d053f9f32c1f58ed1", "lat": 38.902514333333336, "lon": -77.03480416666666, "rental_uris": {"android": "https://dc.lft.to/lastmile_qr_scan", "ios": "https://dc.lft.to/lastmile_qr_scan"}, "is_disabled": 0, "fusion_lat": 0.0, "name": "cdb766accba17c4d053f9f32c1f58ed1", "fusion_lon": 0.0}, {"is_reserved": 0, "type": "electric_scooter", "bike_id": "d538f7e697c0cd0348f30cf1fc9f8318", "lat": 38.9432585, "lon": -77.01262466666667, "rental_uris": {"android": "https://dc.lft.to/lastmile_qr_scan", "ios": "https://dc.lft.to/lastmile_qr_scan"}, "is_disabled": 0, "fusion_lat": 0.0, "name": "d538f7e697c0cd0348f30cf1fc9f8318", "fusion_lon": 0.0}, {"is_reserved": 0, "type": "electric_scooter", "bike_id": "a91502a64ab2296fda0662a081f29829", "lat": 38.895393, "lon": -76.979027, "rental_uris": {"android": "https://dc.lft.to/lastmile_qr_scan", "ios": "https://dc.lft.to/lastmile_qr_scan"}, "is_disabled": 0, "fusion_lat": 0.0, "name": "a91502a64ab2296fda0662a081f29829", "fusion_lon": 0.0}, {"is_reserved": 0, "type": "electric_scooter", "bike_id": "05417ece4d1cea257403ba9fce0f81f3", "lat": 38.9182795, "lon": -77.04517366666667, "rental_uris": {"android": "https://dc.lft.to/lastmile_qr_scan", "ios": "https://dc.lft.to/lastmile_qr_scan"}, "is_disabled": 0, "fusion_lat": 0.0, "name": "05417ece4d1cea257403ba9fce0f81f3", "fusion_lon": 0.0}, {"is_reserved": 0, "type": "electric_scooter", "bike_id": "3096877b3d4e6b106f2fe7ac8bfa9d6f", "lat": 38.89807366666667, "lon": -76.995063, "rental_uris": {"android": "https://dc.lft.to/lastmile_qr_scan", "ios": "https://dc.lft.to/lastmile_qr_scan"}, "is_disabled": 0, "fusion_lat": 0.0, "name": "3096877b3d4e6b106f2fe7ac8bfa9d6f", "fusion_lon": 0.0}, {"is_reserved": 0, "type": "electric_scooter", "bike_id": "73ae57c9623952b293e2ad18efb902c2", "lat": 38.92027816666667, "lon": -77.0185705, "rental_uris": {"android": "https://dc.lft.to/lastmile_qr_scan", "ios": "https://dc.lft.to/lastmile_qr_scan"}, "is_disabled": 0, "fusion_lat": 0.0, "name": "73ae57c9623952b293e2ad18efb902c2", "fusion_lon": 0.0}, {"is_reserved": 0, "type": "electric_bike", "bike_id": "d4d645b9a442fb89f9cfad2a904c8baf", "lat": 38.921145333333335, "lon": -76.9888035, "rental_uris": {"android": "https://dc.lft.to/lastmile_qr_scan", "ios": "https://dc.lft.to/lastmile_qr_scan"}, "is_disabled": 0, "fusion_lat": 0.0, "name": "d4d645b9a442fb89f9cfad2a904c8baf", "fusion_lon": 0.0}, {"is_reserved": 0, "type": "electric_scooter", "bike_id": "333f2618ae382d63973aea0fedba0477", "lat": 38.907475, "lon": -77.00756716666666, "rental_uris": {"android": "https://dc.lft.to/lastmile_qr_scan", "ios": "https://dc.lft.to/lastmile_qr_scan"}, "is_disabled": 0, "fusion_lat": 0.0, "name": "333f2618ae382d63973aea0fedba0477", "fusion_lon": 0.0}, {"is_reserved": 0, "type": "electric_scooter", "bike_id": "721fe0d055c3f5d75561807e99634497", "lat": 38.92162066666667, "lon": -77.03330183333334, "rental_uris": {"android": "https://dc.lft.to/lastmile_qr_scan", "ios": "https://dc.lft.to/lastmile_qr_scan"}, "is_disabled": 0, "fusion_lat": 0.0, "name": "721fe0d055c3f5d75561807e99634497", "fusion_lon": 0.0}, {"is_reserved": 0, "type": "electric_scooter", "bike_id": "b0a178f798cb33d1c69cdb04df59564e", "lat": 38.92439366666667, "lon": -77.02038916666666, "rental_uris": {"android": "https://dc.lft.to/lastmile_qr_scan", "ios": "https://dc.lft.to/lastmile_qr_scan"}, "is_disabled": 0, "fusion_lat": 0.0, "name": "b0a178f798cb33d1c69cdb04df59564e", "fusion_lon": 0.0}, {"is_reserved": 0, "type": "electric_scooter", "bike_id": "f1e93885d71e2b86fe63515e1432fb88", "lat": 38.94181666666667, "lon": -77.025661, "rental_uris": {"android": "https://dc.lft.to/lastmile_qr_scan", "ios": "https://dc.lft.to/lastmile_qr_scan"}, "is_disabled": 0, "fusion_lat": 0.0, "name": "f1e93885d71e2b86fe63515e1432fb88", "fusion_lon": 0.0}, {"is_reserved": 0, "type": "electric_bike", "bike_id": "88a67a4809eeef6d4f692d3221363eed", "lat": 38.9584695, "lon": -76.98590483333334, "rental_uris": {"android": "https://dc.lft.to/lastmile_qr_scan", "ios": "https://dc.lft.to/lastmile_qr_scan"}, "is_disabled": 0, "fusion_lat": 0.0, "name": "88a67a4809eeef6d4f692d3221363eed", "fusion_lon": 0.0}, {"is_reserved": 0, "type": "electric_bike", "bike_id": "15f34b6fafced4c2476563df9c233ccb", "lat": 38.83295833333333, "lon": -77.084116, "rental_uris": {"android": "https://dc.lft.to/lastmile_qr_scan", "ios": "https://dc.lft.to/lastmile_qr_scan"}, "is_disabled": 0, "fusion_lat": 0.0, "name": "15f34b6fafced4c2476563df9c233ccb", "fusion_lon": 0.0}, {"is_reserved": 0, "type": "electric_scooter", "bike_id": "50ee9b72714f067321747f816d2019a7", "lat": 38.88433283333333, "lon": -76.95767333333333, "rental_uris": {"android": "https://dc.lft.to/lastmile_qr_scan", "ios": "https://dc.lft.to/lastmile_qr_scan"}, "is_disabled": 0, "fusion_lat": 0.0, "name": "50ee9b72714f067321747f816d2019a7", "fusion_lon": 0.0}, {"is_reserved": 0, "type": "electric_scooter", "bike_id": "4f8e9ec97f01f864b4380284c2c58df9", "lat": 38.916959166666665, "lon": -77.02931183333334, "rental_uris": {"android": "https://dc.lft.to/lastmile_qr_scan", "ios": "https://dc.lft.to/lastmile_qr_scan"}, "is_disabled": 0, "fusion_lat": 0.0, "name": "4f8e9ec97f01f864b4380284c2c58df9", "fusion_lon": 0.0}, {"is_reserved": 0, "type": "electric_scooter", "bike_id": "6538bb360f3afaa45c27d89659dae749", "lat": 38.92925416666667, "lon": -77.020021, "rental_uris": {"android": "https://dc.lft.to/lastmile_qr_scan", "ios": "https://dc.lft.to/lastmile_qr_scan"}, "is_disabled": 0, "fusion_lat": 0.0, "name": "6538bb360f3afaa45c27d89659dae749", "fusion_lon": 0.0}, {"is_reserved": 0, "type": "electric_scooter", "bike_id": "21068811be5e8112bc7f9730ed646f1f", "lat": 38.86618466666667, "lon": -76.98216183333334, "rental_uris": {"android": "https://dc.lft.to/lastmile_qr_scan", "ios": "https://dc.lft.to/lastmile_qr_scan"}, "is_disabled": 0, "fusion_lat": 0.0, "name": "21068811be5e8112bc7f9730ed646f1f", "fusion_lon": 0.0}, {"is_reserved": 0, "type": "electric_scooter", "bike_id": "7cb4010a34e820b538a352de2bf04560", "lat": 38.928357166666665, "lon": -77.0060545, "rental_uris": {"android": "https://dc.lft.to/lastmile_qr_scan", "ios": "https://dc.lft.to/lastmile_qr_scan"}, "is_disabled": 0, "fusion_lat": 0.0, "name": "7cb4010a34e820b538a352de2bf04560", "fusion_lon": 0.0}, {"is_reserved": 0, "type": "electric_bike", "bike_id": "8808d4fc210a4b16c92eef6f240547cd", "lat": 38.959562, "lon": -77.01983966666667, "rental_uris": {"android": "https://dc.lft.to/lastmile_qr_scan", "ios": "https://dc.lft.to/lastmile_qr_scan"}, "is_disabled": 0, "fusion_lat": 0.0, "name": "8808d4fc210a4b16c92eef6f240547cd", "fusion_lon": 0.0}, {"is_reserved": 0, "type": "electric_scooter", "bike_id": "2d5cb3e44ce62d3a1f0d4709851e1c3d", "lat": 38.89745466666667, "lon": -77.00766866666666, "rental_uris": {"android": "https://dc.lft.to/lastmile_qr_scan", "ios": "https://dc.lft.to/lastmile_qr_scan"}, "is_disabled": 0, "fusion_lat": 0.0, "name": "2d5cb3e44ce62d3a1f0d4709851e1c3d", "fusion_lon": 0.0}, {"is_reserved": 0, "type": "electric_scooter", "bike_id": "9b8546648b91dccff2e637ded276add1", "lat": 38.8860525, "lon": -76.98820116666667, "rental_uris": {"android": "https://dc.lft.to/lastmile_qr_scan", "ios": "https://dc.lft.to/lastmile_qr_scan"}, "is_disabled": 0, "fusion_lat": 0.0, "name": "9b8546648b91dccff2e637ded276add1", "fusion_lon": 0.0}, {"is_reserved": 0, "type": "electric_scooter", "bike_id": "ea5a683df1e64e86aa58a0e60eb9b9ff", "lat": 38.900150333333336, "lon": -77.04039116666667, "rental_uris": {"android": "https://dc.lft.to/lastmile_qr_scan", "ios": "https://dc.lft.to/lastmile_qr_scan"}, "is_disabled": 0, "fusion_lat": 0.0, "name": "ea5a683df1e64e86aa58a0e60eb9b9ff", "fusion_lon": 0.0}, {"is_reserved": 0, "type": "electric_scooter", "bike_id": "e717a41f3a81caaf73b297d8baf3bdc9", "lat": 38.90172316666666, "lon": -77.02487516666666, "rental_uris": {"android": "https://dc.lft.to/lastmile_qr_scan", "ios": "https://dc.lft.to/lastmile_qr_scan"}, "is_disabled": 0, "fusion_lat": 0.0, "name": "e717a41f3a81caaf73b297d8baf3bdc9", "fusion_lon": 0.0}, {"is_reserved": 0, "type": "electric_scooter", "bike_id": "a8461c8faa66a0350c784c586ad43f7d", "lat": 38.91820883333333, "lon": -77.028844, "rental_uris": {"android": "https://dc.lft.to/lastmile_qr_scan", "ios": "https://dc.lft.to/lastmile_qr_scan"}, "is_disabled": 0, "fusion_lat": 0.0, "name": "a8461c8faa66a0350c784c586ad43f7d", "fusion_lon": 0.0}, {"is_reserved": 0, "type": "electric_scooter", "bike_id": "641071b9fa5d1270922dbd1c7886f89a", "lat": 38.93525416666667, "lon": -77.0193865, "rental_uris": {"android": "https://dc.lft.to/lastmile_qr_scan", "ios": "https://dc.lft.to/lastmile_qr_scan"}, "is_disabled": 0, "fusion_lat": 0.0, "name": "641071b9fa5d1270922dbd1c7886f89a", "fusion_lon": 0.0}, {"is_reserved": 0, "type": "electric_scooter", "bike_id": "5d10071201d2bd67d8c2850baa3a969a", "lat": 38.9182505, "lon": -77.03171116666667, "rental_uris": {"android": "https://dc.lft.to/lastmile_qr_scan", "ios": "https://dc.lft.to/lastmile_qr_scan"}, "is_disabled": 0, "fusion_lat": 0.0, "name": "5d10071201d2bd67d8c2850baa3a969a", "fusion_lon": 0.0}, {"is_reserved": 0, "type": "electric_bike", "bike_id": "a63a9ecea1b03657ed125a27640518fa", "lat": 38.894627666666665, "lon": -77.10365683333333, "rental_uris": {"android": "https://dc.lft.to/lastmile_qr_scan", "ios": "https://dc.lft.to/lastmile_qr_scan"}, "is_disabled": 0, "fusion_lat": 0.0, "name": "a63a9ecea1b03657ed125a27640518fa", "fusion_lon": 0.0}, {"is_reserved": 0, "type": "electric_scooter", "bike_id": "ec377874b470e492f21538ec1c7bf9aa", "lat": 38.935062333333335, "lon": -77.04277516666667, "rental_uris": {"android": "https://dc.lft.to/lastmile_qr_scan", "ios": "https://dc.lft.to/lastmile_qr_scan"}, "is_disabled": 0, "fusion_lat": 0.0, "name": "ec377874b470e492f21538ec1c7bf9aa", "fusion_lon": 0.0}, {"is_reserved": 0, "type": "electric_scooter", "bike_id": "66ca3c5788b0a3ecc9cf48d2d0e2cf04", "lat": 38.91594883333333, "lon": -77.02127983333334, "rental_uris": {"android": "https://dc.lft.to/lastmile_qr_scan", "ios": "https://dc.lft.to/lastmile_qr_scan"}, "is_disabled": 0, "fusion_lat": 0.0, "name": "66ca3c5788b0a3ecc9cf48d2d0e2cf04", "fusion_lon": 0.0}, {"is_reserved": 0, "type": "electric_scooter", "bike_id": "bc923bf84dfd0aa6f641b055086da397", "lat": 38.87491633333333, "lon": -77.000363, "rental_uris": {"android": "https://dc.lft.to/lastmile_qr_scan", "ios": "https://dc.lft.to/lastmile_qr_scan"}, "is_disabled": 0, "fusion_lat": 0.0, "name": "bc923bf84dfd0aa6f641b055086da397", "fusion_lon": 0.0}, {"is_reserved": 0, "type": "electric_scooter", "bike_id": "51ffc2c2edb9343e8f59ba7a06f9ed49", "lat": 38.877128, "lon": -77.01857483333333, "rental_uris": {"android": "https://dc.lft.to/lastmile_qr_scan", "ios": "https://dc.lft.to/lastmile_qr_scan"}, "is_disabled": 0, "fusion_lat": 0.0, "name": "51ffc2c2edb9343e8f59ba7a06f9ed49", "fusion_lon": 0.0}, {"is_reserved": 0, "type": "electric_scooter", "bike_id": "4aa5d462c0a6dae95205cf64ef18afaf", "lat": 38.85647316666667, "lon": -76.9967395, "rental_uris": {"android": "https://dc.lft.to/lastmile_qr_scan", "ios": "https://dc.lft.to/lastmile_qr_scan"}, "is_disabled": 0, "fusion_lat": 0.0, "name": "4aa5d462c0a6dae95205cf64ef18afaf", "fusion_lon": 0.0}, {"is_reserved": 0, "type": "electric_scooter", "bike_id": "238138ed71c1cbc4416845d480c36afe", "lat": 38.904521, "lon": -76.996283, "rental_uris": {"android": "https://dc.lft.to/lastmile_qr_scan", "ios": "https://dc.lft.to/lastmile_qr_scan"}, "is_disabled": 0, "fusion_lat": 0.0, "name": "238138ed71c1cbc4416845d480c36afe", "fusion_lon": 0.0}, {"is_reserved": 0, "type": "electric_scooter", "bike_id": "ae961ad9dce81d2854b5240778028bb5", "lat": 38.91815966666667, "lon": -77.02479016666666, "rental_uris": {"android": "https://dc.lft.to/lastmile_qr_scan", "ios": "https://dc.lft.to/lastmile_qr_scan"}, "is_disabled": 0, "fusion_lat": 0.0, "name": "ae961ad9dce81d2854b5240778028bb5", "fusion_lon": 0.0}, {"is_reserved": 0, "type": "electric_scooter", "bike_id": "5f4e04557057c2754edf9ba3fea6bf1f", "lat": 38.9283465, "lon": -77.05521016666667, "rental_uris": {"android": "https://dc.lft.to/lastmile_qr_scan", "ios": "https://dc.lft.to/lastmile_qr_scan"}, "is_disabled": 0, "fusion_lat": 0.0, "name": "5f4e04557057c2754edf9ba3fea6bf1f", "fusion_lon": 0.0}, {"is_reserved": 0, "type": "electric_scooter", "bike_id": "3c83e30b81488e0a85e2d00b417c23e4", "lat": 38.9239665, "lon": -77.050456, "rental_uris": {"android": "https://dc.lft.to/lastmile_qr_scan", "ios": "https://dc.lft.to/lastmile_qr_scan"}, "is_disabled": 0, "fusion_lat": 0.0, "name": "3c83e30b81488e0a85e2d00b417c23e4", "fusion_lon": 0.0}, {"is_reserved": 0, "type": "electric_scooter", "bike_id": "4834ea902611552e72f8f741f662f221", "lat": 38.900295166666666, "lon": -76.98835683333333, "rental_uris": {"android": "https://dc.lft.to/lastmile_qr_scan", "ios": "https://dc.lft.to/lastmile_qr_scan"}, "is_disabled": 0, "fusion_lat": 0.0, "name": "4834ea902611552e72f8f741f662f221", "fusion_lon": 0.0}, {"is_reserved": 0, "type": "electric_scooter", "bike_id": "e2c32142a4bc0a89ec19c6fef1875a39", "lat": 38.907960333333335, "lon": -77.00198616666667, "rental_uris": {"android": "https://dc.lft.to/lastmile_qr_scan", "ios": "https://dc.lft.to/lastmile_qr_scan"}, "is_disabled": 0, "fusion_lat": 0.0, "name": "e2c32142a4bc0a89ec19c6fef1875a39", "fusion_lon": 0.0}, {"is_reserved": 0, "type": "electric_scooter", "bike_id": "40272487656981f783ce2f765acedf4c", "lat": 38.910772, "lon": -77.01608816666666, "rental_uris": {"android": "https://dc.lft.to/lastmile_qr_scan", "ios": "https://dc.lft.to/lastmile_qr_scan"}, "is_disabled": 0, "fusion_lat": 0.0, "name": "40272487656981f783ce2f765acedf4c", "fusion_lon": 0.0}, {"is_reserved": 0, "type": "electric_bike", "bike_id": "4883e1f18c323e02ae3f3c47a268b4d6", "lat": 38.9426675, "lon": -76.99065883333333, "rental_uris": {"android": "https://dc.lft.to/lastmile_qr_scan", "ios": "https://dc.lft.to/lastmile_qr_scan"}, "is_disabled": 0, "fusion_lat": 0.0, "name": "4883e1f18c323e02ae3f3c47a268b4d6", "fusion_lon": 0.0}, {"is_reserved": 0, "type": "electric_scooter", "bike_id": "b7a39055c1bdd6d35bb8391c155027b9", "lat": 38.89993666666667, "lon": -77.02292783333333, "rental_uris": {"android": "https://dc.lft.to/lastmile_qr_scan", "ios": "https://dc.lft.to/lastmile_qr_scan"}, "is_disabled": 0, "fusion_lat": 0.0, "name": "b7a39055c1bdd6d35bb8391c155027b9", "fusion_lon": 0.0}, {"is_reserved": 0, "type": "electric_scooter", "bike_id": "c6b0a6cd76020659bdd7c51405bf356c", "lat": 38.893916833333336, "lon": -77.02254083333334, "rental_uris": {"android": "https://dc.lft.to/lastmile_qr_scan", "ios": "https://dc.lft.to/lastmile_qr_scan"}, "is_disabled": 0, "fusion_lat": 0.0, "name": "c6b0a6cd76020659bdd7c51405bf356c", "fusion_lon": 0.0}, {"is_reserved": 0, "type": "electric_scooter", "bike_id": "dfe5188e586229452250a3755e544ee8", "lat": 38.916239166666664, "lon": -77.00768466666666, "rental_uris": {"android": "https://dc.lft.to/lastmile_qr_scan", "ios": "https://dc.lft.to/lastmile_qr_scan"}, "is_disabled": 0, "fusion_lat": 0.0, "name": "dfe5188e586229452250a3755e544ee8", "fusion_lon": 0.0}, {"is_reserved": 0, "type": "electric_scooter", "bike_id": "d81881401c0a0c4973c3ad0ae74860d0", "lat": 38.885313833333335, "lon": -77.02175666666666, "rental_uris": {"android": "https://dc.lft.to/lastmile_qr_scan", "ios": "https://dc.lft.to/lastmile_qr_scan"}, "is_disabled": 0, "fusion_lat": 0.0, "name": "d81881401c0a0c4973c3ad0ae74860d0", "fusion_lon": 0.0}, {"is_reserved": 0, "type": "electric_scooter", "bike_id": "f992bf47cfbffe4d459b8d530ca6117d", "lat": 38.9239005, "lon": -77.050483, "rental_uris": {"android": "https://dc.lft.to/lastmile_qr_scan", "ios": "https://dc.lft.to/lastmile_qr_scan"}, "is_disabled": 0, "fusion_lat": 0.0, "name": "f992bf47cfbffe4d459b8d530ca6117d", "fusion_lon": 0.0}, {"is_reserved": 0, "type": "electric_scooter", "bike_id": "5e972304c9f27b37ef91ce34304c6de7", "lat": 38.921513, "lon": -77.03184166666666, "rental_uris": {"android": "https://dc.lft.to/lastmile_qr_scan", "ios": "https://dc.lft.to/lastmile_qr_scan"}, "is_disabled": 0, "fusion_lat": 0.0, "name": "5e972304c9f27b37ef91ce34304c6de7", "fusion_lon": 0.0}, {"is_reserved": 0, "type": "electric_scooter", "bike_id": "e1a27deeafd354b356fa1b92d27def2c", "lat": 38.925837, "lon": -77.0294185, "rental_uris": {"android": "https://dc.lft.to/lastmile_qr_scan", "ios": "https://dc.lft.to/lastmile_qr_scan"}, "is_disabled": 0, "fusion_lat": 0.0, "name": "e1a27deeafd354b356fa1b92d27def2c", "fusion_lon": 0.0}, {"is_reserved": 0, "type": "electric_scooter", "bike_id": "ef284e7c523e553e7379d91df1571dcf", "lat": 38.92209533333333, "lon": -77.03662, "rental_uris": {"android": "https://dc.lft.to/lastmile_qr_scan", "ios": "https://dc.lft.to/lastmile_qr_scan"}, "is_disabled": 0, "fusion_lat": 0.0, "name": "ef284e7c523e553e7379d91df1571dcf", "fusion_lon": 0.0}, {"is_reserved": 0, "type": "electric_scooter", "bike_id": "9731f4c0ae0299beda26872f1c41f4db", "lat": 38.91985283333333, "lon": -76.97304616666666, "rental_uris": {"android": "https://dc.lft.to/lastmile_qr_scan", "ios": "https://dc.lft.to/lastmile_qr_scan"}, "is_disabled": 0, "fusion_lat": 0.0, "name": "9731f4c0ae0299beda26872f1c41f4db", "fusion_lon": 0.0}, {"is_reserved": 0, "type": "electric_scooter", "bike_id": "3809a3e2d224bd7fe7e9fde855d2c989", "lat": 38.894714666666665, "lon": -77.0498895, "rental_uris": {"android": "https://dc.lft.to/lastmile_qr_scan", "ios": "https://dc.lft.to/lastmile_qr_scan"}, "is_disabled": 0, "fusion_lat": 0.0, "name": "3809a3e2d224bd7fe7e9fde855d2c989", "fusion_lon": 0.0}, {"is_reserved": 0, "type": "electric_scooter", "bike_id": "afd0f66680750faa4a9840ee56c3a550", "lat": 38.91997083333333, "lon": -77.0254045, "rental_uris": {"android": "https://dc.lft.to/lastmile_qr_scan", "ios": "https://dc.lft.to/lastmile_qr_scan"}, "is_disabled": 0, "fusion_lat": 0.0, "name": "afd0f66680750faa4a9840ee56c3a550", "fusion_lon": 0.0}, {"is_reserved": 0, "type": "electric_scooter", "bike_id": "035fa2967fb162a30f775eba612d5268", "lat": 38.9040145, "lon": -77.05378, "rental_uris": {"android": "https://dc.lft.to/lastmile_qr_scan", "ios": "https://dc.lft.to/lastmile_qr_scan"}, "is_disabled": 0, "fusion_lat": 0.0, "name": "035fa2967fb162a30f775eba612d5268", "fusion_lon": 0.0}, {"is_reserved": 0, "type": "electric_scooter", "bike_id": "e14413041c83df2755e2b44daf54d09c", "lat": 38.96414466666667, "lon": -77.03280133333334, "rental_uris": {"android": "https://dc.lft.to/lastmile_qr_scan", "ios": "https://dc.lft.to/lastmile_qr_scan"}, "is_disabled": 0, "fusion_lat": 0.0, "name": "e14413041c83df2755e2b44daf54d09c", "fusion_lon": 0.0}, {"is_reserved": 0, "type": "electric_scooter", "bike_id": "b6a7b2e4a43f9633c5d95c1259a7421e", "lat": 38.899488166666664, "lon": -76.981987, "rental_uris": {"android": "https://dc.lft.to/lastmile_qr_scan", "ios": "https://dc.lft.to/lastmile_qr_scan"}, "is_disabled": 0, "fusion_lat": 0.0, "name": "b6a7b2e4a43f9633c5d95c1259a7421e", "fusion_lon": 0.0}, {"is_reserved": 0, "type": "electric_scooter", "bike_id": "1cfc8fbeeda12d75115028d5596cafd5", "lat": 38.92486933333333, "lon": -77.02273883333334, "rental_uris": {"android": "https://dc.lft.to/lastmile_qr_scan", "ios": "https://dc.lft.to/lastmile_qr_scan"}, "is_disabled": 0, "fusion_lat": 0.0, "name": "1cfc8fbeeda12d75115028d5596cafd5", "fusion_lon": 0.0}, {"is_reserved": 0, "type": "electric_scooter", "bike_id": "c7417571201d5d1e3388a47023dcdf84", "lat": 38.904265, "lon": -77.026075, "rental_uris": {"android": "https://dc.lft.to/lastmile_qr_scan", "ios": "https://dc.lft.to/lastmile_qr_scan"}, "is_disabled": 0, "fusion_lat": 0.0, "name": "c7417571201d5d1e3388a47023dcdf84", "fusion_lon": 0.0}, {"is_reserved": 0, "type": "electric_scooter", "bike_id": "93a04d29e0ce895d5ead483b78a3a381", "lat": 38.91386583333333, "lon": -77.01984666666667, "rental_uris": {"android": "https://dc.lft.to/lastmile_qr_scan", "ios": "https://dc.lft.to/lastmile_qr_scan"}, "is_disabled": 0, "fusion_lat": 0.0, "name": "93a04d29e0ce895d5ead483b78a3a381", "fusion_lon": 0.0}, {"is_reserved": 0, "type": "electric_scooter", "bike_id": "5b05cfa63e65cfcbddcd3890fbf40c34", "lat": 38.9213655, "lon": -77.04699866666667, "rental_uris": {"android": "https://dc.lft.to/lastmile_qr_scan", "ios": "https://dc.lft.to/lastmile_qr_scan"}, "is_disabled": 0, "fusion_lat": 0.0, "name": "5b05cfa63e65cfcbddcd3890fbf40c34", "fusion_lon": 0.0}, {"is_reserved": 0, "type": "electric_bike", "bike_id": "a163c3cc294584743af69c1ac9457a69", "lat": 38.78397433333333, "lon": -77.12060816666667, "rental_uris": {"android": "https://dc.lft.to/lastmile_qr_scan", "ios": "https://dc.lft.to/lastmile_qr_scan"}, "is_disabled": 0, "fusion_lat": 0.0, "name": "a163c3cc294584743af69c1ac9457a69", "fusion_lon": 0.0}, {"is_reserved": 0, "type": "electric_scooter", "bike_id": "221bc7ba685cf94063de075e6cf1ea46", "lat": 38.8995495, "lon": -77.05089316666667, "rental_uris": {"android": "https://dc.lft.to/lastmile_qr_scan", "ios": "https://dc.lft.to/lastmile_qr_scan"}, "is_disabled": 0, "fusion_lat": 0.0, "name": "221bc7ba685cf94063de075e6cf1ea46", "fusion_lon": 0.0}, {"is_reserved": 0, "type": "electric_scooter", "bike_id": "234f3bd4fda63c44ad588c4c9c6d5beb", "lat": 38.89558066666667, "lon": -77.01112033333334, "rental_uris": {"android": "https://dc.lft.to/lastmile_qr_scan", "ios": "https://dc.lft.to/lastmile_qr_scan"}, "is_disabled": 0, "fusion_lat": 0.0, "name": "234f3bd4fda63c44ad588c4c9c6d5beb", "fusion_lon": 0.0}, {"is_reserved": 0, "type": "electric_scooter", "bike_id": "d772ab5c6795c0d59ad224cbfeacb49f", "lat": 38.920088166666666, "lon": -77.03171333333333, "rental_uris": {"android": "https://dc.lft.to/lastmile_qr_scan", "ios": "https://dc.lft.to/lastmile_qr_scan"}, "is_disabled": 0, "fusion_lat": 0.0, "name": "d772ab5c6795c0d59ad224cbfeacb49f", "fusion_lon": 0.0}, {"is_reserved": 0, "type": "electric_scooter", "bike_id": "b88b248f3f23b5e0b5f57e4c8cbec990", "lat": 38.883252166666665, "lon": -77.0095785, "rental_uris": {"android": "https://dc.lft.to/lastmile_qr_scan", "ios": "https://dc.lft.to/lastmile_qr_scan"}, "is_disabled": 0, "fusion_lat": 0.0, "name": "b88b248f3f23b5e0b5f57e4c8cbec990", "fusion_lon": 0.0}, {"is_reserved": 0, "type": "electric_scooter", "bike_id": "559cd21c27c46443ecd751439aa13b42", "lat": 38.93330133333333, "lon": -77.08196966666667, "rental_uris": {"android": "https://dc.lft.to/lastmile_qr_scan", "ios": "https://dc.lft.to/lastmile_qr_scan"}, "is_disabled": 0, "fusion_lat": 0.0, "name": "559cd21c27c46443ecd751439aa13b42", "fusion_lon": 0.0}, {"is_reserved": 0, "type": "electric_scooter", "bike_id": "62eb4411f05ba8bee48df5b0a8d93b3b", "lat": 38.91309583333334, "lon": -77.0365055, "rental_uris": {"android": "https://dc.lft.to/lastmile_qr_scan", "ios": "https://dc.lft.to/lastmile_qr_scan"}, "is_disabled": 0, "fusion_lat": 0.0, "name": "62eb4411f05ba8bee48df5b0a8d93b3b", "fusion_lon": 0.0}, {"is_reserved": 0, "type": "electric_scooter", "bike_id": "4d75442e2e9c926cadceb2850c157da1", "lat": 38.9127025, "lon": -77.00513083333334, "rental_uris": {"android": "https://dc.lft.to/lastmile_qr_scan", "ios": "https://dc.lft.to/lastmile_qr_scan"}, "is_disabled": 0, "fusion_lat": 0.0, "name": "4d75442e2e9c926cadceb2850c157da1", "fusion_lon": 0.0}, {"is_reserved": 0, "type": "electric_scooter", "bike_id": "295e1221e5da62098fcbeb26cf1f1b88", "lat": 38.9037855, "lon": -77.03144133333333, "rental_uris": {"android": "https://dc.lft.to/lastmile_qr_scan", "ios": "https://dc.lft.to/lastmile_qr_scan"}, "is_disabled": 0, "fusion_lat": 0.0, "name": "295e1221e5da62098fcbeb26cf1f1b88", "fusion_lon": 0.0}, {"is_reserved": 0, "type": "electric_bike", "bike_id": "a92d828bcc5a47393842ff2ab55039b5", "lat": 38.88405766666666, "lon": -76.96058183333334, "rental_uris": {"android": "https://dc.lft.to/lastmile_qr_scan", "ios": "https://dc.lft.to/lastmile_qr_scan"}, "is_disabled": 0, "fusion_lat": 0.0, "name": "a92d828bcc5a47393842ff2ab55039b5", "fusion_lon": 0.0}, {"is_reserved": 0, "type": "electric_scooter", "bike_id": "ed4fc603bcd03ebea90fbb4d3344a9a3", "lat": 38.92234283333333, "lon": -77.02334333333333, "rental_uris": {"android": "https://dc.lft.to/lastmile_qr_scan", "ios": "https://dc.lft.to/lastmile_qr_scan"}, "is_disabled": 0, "fusion_lat": 0.0, "name": "ed4fc603bcd03ebea90fbb4d3344a9a3", "fusion_lon": 0.0}, {"is_reserved": 0, "type": "electric_bike", "bike_id": "333dd168e3026252b722780c2a9f3c4a", "lat": 38.882478166666665, "lon": -76.9626205, "rental_uris": {"android": "https://dc.lft.to/lastmile_qr_scan", "ios": "https://dc.lft.to/lastmile_qr_scan"}, "is_disabled": 0, "fusion_lat": 0.0, "name": "333dd168e3026252b722780c2a9f3c4a", "fusion_lon": 0.0}, {"is_reserved": 0, "type": "electric_bike", "bike_id": "025708318a59677ddf3c9ddac499eec6", "lat": 38.95598016666667, "lon": -76.99536433333333, "rental_uris": {"android": "https://dc.lft.to/lastmile_qr_scan", "ios": "https://dc.lft.to/lastmile_qr_scan"}, "is_disabled": 0, "fusion_lat": 0.0, "name": "025708318a59677ddf3c9ddac499eec6", "fusion_lon": 0.0}, {"is_reserved": 0, "type": "electric_scooter", "bike_id": "e6ad6bf3eb3601332171dca671603424", "lat": 38.913130833333334, "lon": -77.04156483333334, "rental_uris": {"android": "https://dc.lft.to/lastmile_qr_scan", "ios": "https://dc.lft.to/lastmile_qr_scan"}, "is_disabled": 0, "fusion_lat": 0.0, "name": "e6ad6bf3eb3601332171dca671603424", "fusion_lon": 0.0}, {"is_reserved": 0, "type": "electric_scooter", "bike_id": "573bb5da476e57d1647f939a96447d1d", "lat": 38.8874585, "lon": -77.01740416666667, "rental_uris": {"android": "https://dc.lft.to/lastmile_qr_scan", "ios": "https://dc.lft.to/lastmile_qr_scan"}, "is_disabled": 0, "fusion_lat": 0.0, "name": "573bb5da476e57d1647f939a96447d1d", "fusion_lon": 0.0}, {"is_reserved": 0, "type": "electric_scooter", "bike_id": "0c316aabce6a0a11f4b5ba77fbed57fb", "lat": 38.94007766666667, "lon": -77.0273925, "rental_uris": {"android": "https://dc.lft.to/lastmile_qr_scan", "ios": "https://dc.lft.to/lastmile_qr_scan"}, "is_disabled": 0, "fusion_lat": 0.0, "name": "0c316aabce6a0a11f4b5ba77fbed57fb", "fusion_lon": 0.0}, {"is_reserved": 0, "type": "electric_scooter", "bike_id": "c4175c11285ecd63dd7373f326fd0949", "lat": 38.9207465, "lon": -77.0231325, "rental_uris": {"android": "https://dc.lft.to/lastmile_qr_scan", "ios": "https://dc.lft.to/lastmile_qr_scan"}, "is_disabled": 0, "fusion_lat": 0.0, "name": "c4175c11285ecd63dd7373f326fd0949", "fusion_lon": 0.0}, {"is_reserved": 0, "type": "electric_scooter", "bike_id": "cb9b7b5e57cfaccf81a38796c04f968d", "lat": 38.89951383333333, "lon": -77.05393216666667, "rental_uris": {"android": "https://dc.lft.to/lastmile_qr_scan", "ios": "https://dc.lft.to/lastmile_qr_scan"}, "is_disabled": 0, "fusion_lat": 0.0, "name": "cb9b7b5e57cfaccf81a38796c04f968d", "fusion_lon": 0.0}, {"is_reserved": 0, "type": "electric_scooter", "bike_id": "df36698966a7871ada49a479e0c7db83", "lat": 38.905648166666666, "lon": -76.99777183333333, "rental_uris": {"android": "https://dc.lft.to/lastmile_qr_scan", "ios": "https://dc.lft.to/lastmile_qr_scan"}, "is_disabled": 0, "fusion_lat": 0.0, "name": "df36698966a7871ada49a479e0c7db83", "fusion_lon": 0.0}, {"is_reserved": 0, "type": "electric_scooter", "bike_id": "7b881900c43f14efb58498a2ba28a06f", "lat": 38.92452183333333, "lon": -77.02035316666667, "rental_uris": {"android": "https://dc.lft.to/lastmile_qr_scan", "ios": "https://dc.lft.to/lastmile_qr_scan"}, "is_disabled": 0, "fusion_lat": 0.0, "name": "7b881900c43f14efb58498a2ba28a06f", "fusion_lon": 0.0}, {"is_reserved": 0, "type": "electric_scooter", "bike_id": "01a8dfb800b95af95494d1413b4af511", "lat": 38.900819166666665, "lon": -77.01631716666667, "rental_uris": {"android": "https://dc.lft.to/lastmile_qr_scan", "ios": "https://dc.lft.to/lastmile_qr_scan"}, "is_disabled": 0, "fusion_lat": 0.0, "name": "01a8dfb800b95af95494d1413b4af511", "fusion_lon": 0.0}, {"is_reserved": 0, "type": "electric_scooter", "bike_id": "254f48e500e5c8b10c9a0212e88e3da3", "lat": 38.93784683333333, "lon": -77.07448716666667, "rental_uris": {"android": "https://dc.lft.to/lastmile_qr_scan", "ios": "https://dc.lft.to/lastmile_qr_scan"}, "is_disabled": 0, "fusion_lat": 0.0, "name": "254f48e500e5c8b10c9a0212e88e3da3", "fusion_lon": 0.0}, {"is_reserved": 0, "type": "electric_scooter", "bike_id": "b30569b2991312ff2a5f15a7e989123f", "lat": 38.91113033333333, "lon": -77.0035855, "rental_uris": {"android": "https://dc.lft.to/lastmile_qr_scan", "ios": "https://dc.lft.to/lastmile_qr_scan"}, "is_disabled": 0, "fusion_lat": 0.0, "name": "b30569b2991312ff2a5f15a7e989123f", "fusion_lon": 0.0}, {"is_reserved": 0, "type": "electric_scooter", "bike_id": "61ef0177b005835d81e054d00cd22be5", "lat": 38.9497775, "lon": -77.02446783333333, "rental_uris": {"android": "https://dc.lft.to/lastmile_qr_scan", "ios": "https://dc.lft.to/lastmile_qr_scan"}, "is_disabled": 0, "fusion_lat": 0.0, "name": "61ef0177b005835d81e054d00cd22be5", "fusion_lon": 0.0}, {"is_reserved": 0, "type": "electric_bike", "bike_id": "28d803dfc8e3d65e1ce4ee53a1d703a4", "lat": 38.908055, "lon": -77.02374883333333, "rental_uris": {"android": "https://dc.lft.to/lastmile_qr_scan", "ios": "https://dc.lft.to/lastmile_qr_scan"}, "is_disabled": 0, "fusion_lat": 0.0, "name": "28d803dfc8e3d65e1ce4ee53a1d703a4", "fusion_lon": 0.0}, {"is_reserved": 0, "type": "electric_scooter", "bike_id": "389935bb65ccc92d15317c6ac159dae9", "lat": 38.8776535, "lon": -76.99531133333333, "rental_uris": {"android": "https://dc.lft.to/lastmile_qr_scan", "ios": "https://dc.lft.to/lastmile_qr_scan"}, "is_disabled": 0, "fusion_lat": 0.0, "name": "389935bb65ccc92d15317c6ac159dae9", "fusion_lon": 0.0}, {"is_reserved": 0, "type": "electric_scooter", "bike_id": "00702534c44134116c32ccd7d5068175", "lat": 38.91609533333333, "lon": -77.002708, "rental_uris": {"android": "https://dc.lft.to/lastmile_qr_scan", "ios": "https://dc.lft.to/lastmile_qr_scan"}, "is_disabled": 0, "fusion_lat": 0.0, "name": "00702534c44134116c32ccd7d5068175", "fusion_lon": 0.0}, {"is_reserved": 0, "type": "electric_scooter", "bike_id": "a2ed2c713454e23eb2f31cf6eb0c12dd", "lat": 38.9529075, "lon": -77.06879766666667, "rental_uris": {"android": "https://dc.lft.to/lastmile_qr_scan", "ios": "https://dc.lft.to/lastmile_qr_scan"}, "is_disabled": 0, "fusion_lat": 0.0, "name": "a2ed2c713454e23eb2f31cf6eb0c12dd", "fusion_lon": 0.0}, {"is_reserved": 0, "type": "electric_scooter", "bike_id": "d60589ef31b75f8babfba37bd3129445", "lat": 38.92458333333333, "lon": -77.0085845, "rental_uris": {"android": "https://dc.lft.to/lastmile_qr_scan", "ios": "https://dc.lft.to/lastmile_qr_scan"}, "is_disabled": 0, "fusion_lat": 0.0, "name": "d60589ef31b75f8babfba37bd3129445", "fusion_lon": 0.0}, {"is_reserved": 0, "type": "electric_scooter", "bike_id": "27d406cb3163948de89e0f67e3db307a", "lat": 38.919723166666664, "lon": -77.02712183333334, "rental_uris": {"android": "https://dc.lft.to/lastmile_qr_scan", "ios": "https://dc.lft.to/lastmile_qr_scan"}, "is_disabled": 0, "fusion_lat": 0.0, "name": "27d406cb3163948de89e0f67e3db307a", "fusion_lon": 0.0}, {"is_reserved": 0, "type": "electric_scooter", "bike_id": "3fe18fb38591600675121d636146635b", "lat": 38.90838816666667, "lon": -77.00273116666666, "rental_uris": {"android": "https://dc.lft.to/lastmile_qr_scan", "ios": "https://dc.lft.to/lastmile_qr_scan"}, "is_disabled": 0, "fusion_lat": 0.0, "name": "3fe18fb38591600675121d636146635b", "fusion_lon": 0.0}, {"is_reserved": 0, "type": "electric_scooter", "bike_id": "0370ccebb4d46da0f2a50abce839592e", "lat": 38.905934, "lon": -77.06419666666666, "rental_uris": {"android": "https://dc.lft.to/lastmile_qr_scan", "ios": "https://dc.lft.to/lastmile_qr_scan"}, "is_disabled": 0, "fusion_lat": 0.0, "name": "0370ccebb4d46da0f2a50abce839592e", "fusion_lon": 0.0}, {"is_reserved": 0, "type": "electric_scooter", "bike_id": "f0289e85a3aabd189b36a886cbce5765", "lat": 38.89385016666667, "lon": -77.029933, "rental_uris": {"android": "https://dc.lft.to/lastmile_qr_scan", "ios": "https://dc.lft.to/lastmile_qr_scan"}, "is_disabled": 0, "fusion_lat": 0.0, "name": "f0289e85a3aabd189b36a886cbce5765", "fusion_lon": 0.0}, {"is_reserved": 0, "type": "electric_scooter", "bike_id": "64cee5f2ad2d223cb235ff825da2fc8d", "lat": 38.9103785, "lon": -77.030859, "rental_uris": {"android": "https://dc.lft.to/lastmile_qr_scan", "ios": "https://dc.lft.to/lastmile_qr_scan"}, "is_disabled": 0, "fusion_lat": 0.0, "name": "64cee5f2ad2d223cb235ff825da2fc8d", "fusion_lon": 0.0}, {"is_reserved": 0, "type": "electric_scooter", "bike_id": "fb483fe129c127bca3e6149ae4cd5941", "lat": 38.92092483333333, "lon": -77.07178366666666, "rental_uris": {"android": "https://dc.lft.to/lastmile_qr_scan", "ios": "https://dc.lft.to/lastmile_qr_scan"}, "is_disabled": 0, "fusion_lat": 0.0, "name": "fb483fe129c127bca3e6149ae4cd5941", "fusion_lon": 0.0}, {"is_reserved": 0, "type": "electric_scooter", "bike_id": "29b9e9366f74789aa75545ed24f94de3", "lat": 38.9057305, "lon": -77.0406855, "rental_uris": {"android": "https://dc.lft.to/lastmile_qr_scan", "ios": "https://dc.lft.to/lastmile_qr_scan"}, "is_disabled": 0, "fusion_lat": 0.0, "name": "29b9e9366f74789aa75545ed24f94de3", "fusion_lon": 0.0}, {"is_reserved": 0, "type": "electric_scooter", "bike_id": "f121c124d1dc70eefb3c02c9ccce8a9b", "lat": 38.907539166666666, "lon": -76.9987325, "rental_uris": {"android": "https://dc.lft.to/lastmile_qr_scan", "ios": "https://dc.lft.to/lastmile_qr_scan"}, "is_disabled": 0, "fusion_lat": 0.0, "name": "f121c124d1dc70eefb3c02c9ccce8a9b", "fusion_lon": 0.0}, {"is_reserved": 0, "type": "electric_scooter", "bike_id": "0c2d81a5adc88fd24557b54d6b6fbc4c", "lat": 38.90424066666667, "lon": -77.02603733333333, "rental_uris": {"android": "https://dc.lft.to/lastmile_qr_scan", "ios": "https://dc.lft.to/lastmile_qr_scan"}, "is_disabled": 0, "fusion_lat": 0.0, "name": "0c2d81a5adc88fd24557b54d6b6fbc4c", "fusion_lon": 0.0}, {"is_reserved": 0, "type": "electric_scooter", "bike_id": "a696e28957ecad445d12c82359120cd0", "lat": 38.9279595, "lon": -77.04058083333334, "rental_uris": {"android": "https://dc.lft.to/lastmile_qr_scan", "ios": "https://dc.lft.to/lastmile_qr_scan"}, "is_disabled": 0, "fusion_lat": 0.0, "name": "a696e28957ecad445d12c82359120cd0", "fusion_lon": 0.0}, {"is_reserved": 0, "type": "electric_scooter", "bike_id": "493ebe971fcd1e6114a9a51c91c083d1", "lat": 38.93869316666667, "lon": -77.02935883333333, "rental_uris": {"android": "https://dc.lft.to/lastmile_qr_scan", "ios": "https://dc.lft.to/lastmile_qr_scan"}, "is_disabled": 0, "fusion_lat": 0.0, "name": "493ebe971fcd1e6114a9a51c91c083d1", "fusion_lon": 0.0}, {"is_reserved": 0, "type": "electric_scooter", "bike_id": "a4409fa2f5eb2dba569637ff0317af63", "lat": 38.956262833333334, "lon": -77.03567266666667, "rental_uris": {"android": "https://dc.lft.to/lastmile_qr_scan", "ios": "https://dc.lft.to/lastmile_qr_scan"}, "is_disabled": 0, "fusion_lat": 0.0, "name": "a4409fa2f5eb2dba569637ff0317af63", "fusion_lon": 0.0}, {"is_reserved": 0, "type": "electric_scooter", "bike_id": "586734254ee8834b2e93310fb1b7af70", "lat": 38.9250745, "lon": -77.02165666666667, "rental_uris": {"android": "https://dc.lft.to/lastmile_qr_scan", "ios": "https://dc.lft.to/lastmile_qr_scan"}, "is_disabled": 0, "fusion_lat": 0.0, "name": "586734254ee8834b2e93310fb1b7af70", "fusion_lon": 0.0}, {"is_reserved": 0, "type": "electric_scooter", "bike_id": "134ade84cd797b6604a5bdd27497f162", "lat": 38.8794045, "lon": -77.01666416666667, "rental_uris": {"android": "https://dc.lft.to/lastmile_qr_scan", "ios": "https://dc.lft.to/lastmile_qr_scan"}, "is_disabled": 0, "fusion_lat": 0.0, "name": "134ade84cd797b6604a5bdd27497f162", "fusion_lon": 0.0}, {"is_reserved": 0, "type": "electric_scooter", "bike_id": "41dba2135e767b7651c0134314922972", "lat": 38.915282833333336, "lon": -77.003381, "rental_uris": {"android": "https://dc.lft.to/lastmile_qr_scan", "ios": "https://dc.lft.to/lastmile_qr_scan"}, "is_disabled": 0, "fusion_lat": 0.0, "name": "41dba2135e767b7651c0134314922972", "fusion_lon": 0.0}, {"is_reserved": 0, "type": "electric_scooter", "bike_id": "a6bc849d4c98479823c3f3b5156d54a4", "lat": 38.8991015, "lon": -76.93369766666666, "rental_uris": {"android": "https://dc.lft.to/lastmile_qr_scan", "ios": "https://dc.lft.to/lastmile_qr_scan"}, "is_disabled": 0, "fusion_lat": 0.0, "name": "a6bc849d4c98479823c3f3b5156d54a4", "fusion_lon": 0.0}, {"is_reserved": 0, "type": "electric_scooter", "bike_id": "9274b0e1c6a4f423dce5a14ea12f8d35", "lat": 38.93219033333333, "lon": -77.03809483333333, "rental_uris": {"android": "https://dc.lft.to/lastmile_qr_scan", "ios": "https://dc.lft.to/lastmile_qr_scan"}, "is_disabled": 0, "fusion_lat": 0.0, "name": "9274b0e1c6a4f423dce5a14ea12f8d35", "fusion_lon": 0.0}, {"is_reserved": 0, "type": "electric_scooter", "bike_id": "8dc293ae5e3675da0df74322a69628a9", "lat": 38.9123115, "lon": -77.0457775, "rental_uris": {"android": "https://dc.lft.to/lastmile_qr_scan", "ios": "https://dc.lft.to/lastmile_qr_scan"}, "is_disabled": 0, "fusion_lat": 0.0, "name": "8dc293ae5e3675da0df74322a69628a9", "fusion_lon": 0.0}, {"is_reserved": 0, "type": "electric_scooter", "bike_id": "7fd29d5fb7fb5718aeb6b8f5219b5f6e", "lat": 38.90852, "lon": -77.06343483333333, "rental_uris": {"android": "https://dc.lft.to/lastmile_qr_scan", "ios": "https://dc.lft.to/lastmile_qr_scan"}, "is_disabled": 0, "fusion_lat": 0.0, "name": "7fd29d5fb7fb5718aeb6b8f5219b5f6e", "fusion_lon": 0.0}, {"is_reserved": 0, "type": "electric_scooter", "bike_id": "8ae7b43fe0b2b75ed866aad85679f853", "lat": 38.921339, "lon": -77.04580283333334, "rental_uris": {"android": "https://dc.lft.to/lastmile_qr_scan", "ios": "https://dc.lft.to/lastmile_qr_scan"}, "is_disabled": 0, "fusion_lat": 0.0, "name": "8ae7b43fe0b2b75ed866aad85679f853", "fusion_lon": 0.0}, {"is_reserved": 0, "type": "electric_scooter", "bike_id": "1202421906ed76fc16ce2163b9464c75", "lat": 38.90040833333333, "lon": -76.9915435, "rental_uris": {"android": "https://dc.lft.to/lastmile_qr_scan", "ios": "https://dc.lft.to/lastmile_qr_scan"}, "is_disabled": 0, "fusion_lat": 0.0, "name": "1202421906ed76fc16ce2163b9464c75", "fusion_lon": 0.0}, {"is_reserved": 0, "type": "electric_scooter", "bike_id": "3cbdff4be532956e30b654cd08ae5f9e", "lat": 38.94660433333333, "lon": -77.0328255, "rental_uris": {"android": "https://dc.lft.to/lastmile_qr_scan", "ios": "https://dc.lft.to/lastmile_qr_scan"}, "is_disabled": 0, "fusion_lat": 0.0, "name": "3cbdff4be532956e30b654cd08ae5f9e", "fusion_lon": 0.0}, {"is_reserved": 0, "type": "electric_scooter", "bike_id": "a24ce3fe6846e735d0623631e4207718", "lat": 38.902965333333334, "lon": -77.00223883333334, "rental_uris": {"android": "https://dc.lft.to/lastmile_qr_scan", "ios": "https://dc.lft.to/lastmile_qr_scan"}, "is_disabled": 0, "fusion_lat": 0.0, "name": "a24ce3fe6846e735d0623631e4207718", "fusion_lon": 0.0}, {"is_reserved": 0, "type": "electric_scooter", "bike_id": "42d67327078fb6735ea817f2835ce8e6", "lat": 38.90611716666667, "lon": -77.0092205, "rental_uris": {"android": "https://dc.lft.to/lastmile_qr_scan", "ios": "https://dc.lft.to/lastmile_qr_scan"}, "is_disabled": 0, "fusion_lat": 0.0, "name": "42d67327078fb6735ea817f2835ce8e6", "fusion_lon": 0.0}, {"is_reserved": 0, "type": "electric_scooter", "bike_id": "8f0c537e0aec0fd020a1c70cf420f2d6", "lat": 38.93288, "lon": -77.0362875, "rental_uris": {"android": "https://dc.lft.to/lastmile_qr_scan", "ios": "https://dc.lft.to/lastmile_qr_scan"}, "is_disabled": 0, "fusion_lat": 0.0, "name": "8f0c537e0aec0fd020a1c70cf420f2d6", "fusion_lon": 0.0}, {"is_reserved": 0, "type": "electric_scooter", "bike_id": "cfce97ca4df9c6c5050a27d60c514f27", "lat": 38.89935933333334, "lon": -77.0322565, "rental_uris": {"android": "https://dc.lft.to/lastmile_qr_scan", "ios": "https://dc.lft.to/lastmile_qr_scan"}, "is_disabled": 0, "fusion_lat": 0.0, "name": "cfce97ca4df9c6c5050a27d60c514f27", "fusion_lon": 0.0}, {"is_reserved": 0, "type": "electric_scooter", "bike_id": "83762e012a942b3bf09d601307215095", "lat": 38.92366366666667, "lon": -77.03662416666667, "rental_uris": {"android": "https://dc.lft.to/lastmile_qr_scan", "ios": "https://dc.lft.to/lastmile_qr_scan"}, "is_disabled": 0, "fusion_lat": 0.0, "name": "83762e012a942b3bf09d601307215095", "fusion_lon": 0.0}, {"is_reserved": 0, "type": "electric_scooter", "bike_id": "9a82daa0532a905dd6809e5030b2e908", "lat": 38.920232166666665, "lon": -77.02717266666667, "rental_uris": {"android": "https://dc.lft.to/lastmile_qr_scan", "ios": "https://dc.lft.to/lastmile_qr_scan"}, "is_disabled": 0, "fusion_lat": 0.0, "name": "9a82daa0532a905dd6809e5030b2e908", "fusion_lon": 0.0}, {"is_reserved": 0, "type": "electric_bike", "bike_id": "126886f9b2eeef8d04205e9dd91271a1", "lat": 38.8405425, "lon": -77.0559955, "rental_uris": {"android": "https://dc.lft.to/lastmile_qr_scan", "ios": "https://dc.lft.to/lastmile_qr_scan"}, "is_disabled": 0, "fusion_lat": 0.0, "name": "126886f9b2eeef8d04205e9dd91271a1", "fusion_lon": 0.0}, {"is_reserved": 0, "type": "electric_scooter", "bike_id": "cbf7e30421f358406df1fde501cdcf9e", "lat": 38.91049666666667, "lon": -77.01513933333334, "rental_uris": {"android": "https://dc.lft.to/lastmile_qr_scan", "ios": "https://dc.lft.to/lastmile_qr_scan"}, "is_disabled": 0, "fusion_lat": 0.0, "name": "cbf7e30421f358406df1fde501cdcf9e", "fusion_lon": 0.0}, {"is_reserved": 0, "type": "electric_scooter", "bike_id": "dc7210ded42f53512c6d17c3b6d9db07", "lat": 38.936441, "lon": -77.03688266666667, "rental_uris": {"android": "https://dc.lft.to/lastmile_qr_scan", "ios": "https://dc.lft.to/lastmile_qr_scan"}, "is_disabled": 0, "fusion_lat": 0.0, "name": "dc7210ded42f53512c6d17c3b6d9db07", "fusion_lon": 0.0}, {"is_reserved": 0, "type": "electric_scooter", "bike_id": "705207ab5c9af6e1035c413c326652f4", "lat": 38.92152083333333, "lon": -77.03508166666667, "rental_uris": {"android": "https://dc.lft.to/lastmile_qr_scan", "ios": "https://dc.lft.to/lastmile_qr_scan"}, "is_disabled": 0, "fusion_lat": 0.0, "name": "705207ab5c9af6e1035c413c326652f4", "fusion_lon": 0.0}, {"is_reserved": 0, "type": "electric_scooter", "bike_id": "038c9798f4e5c9b19e9b504f538c9b00", "lat": 38.900814833333335, "lon": -77.04967033333334, "rental_uris": {"android": "https://dc.lft.to/lastmile_qr_scan", "ios": "https://dc.lft.to/lastmile_qr_scan"}, "is_disabled": 0, "fusion_lat": 0.0, "name": "038c9798f4e5c9b19e9b504f538c9b00", "fusion_lon": 0.0}, {"is_reserved": 0, "type": "electric_scooter", "bike_id": "02caf8f195f60fde69ee3e40df33a5ec", "lat": 38.8999755, "lon": -77.0271555, "rental_uris": {"android": "https://dc.lft.to/lastmile_qr_scan", "ios": "https://dc.lft.to/lastmile_qr_scan"}, "is_disabled": 0, "fusion_lat": 0.0, "name": "02caf8f195f60fde69ee3e40df33a5ec", "fusion_lon": 0.0}, {"is_reserved": 0, "type": "electric_scooter", "bike_id": "93bf2e9e035b107eb6488584c454b527", "lat": 38.930664, "lon": -77.0381735, "rental_uris": {"android": "https://dc.lft.to/lastmile_qr_scan", "ios": "https://dc.lft.to/lastmile_qr_scan"}, "is_disabled": 0, "fusion_lat": 0.0, "name": "93bf2e9e035b107eb6488584c454b527", "fusion_lon": 0.0}, {"is_reserved": 0, "type": "electric_bike", "bike_id": "d746eb04d8e9faa6926b67e9405af521", "lat": 38.88345616666667, "lon": -76.936272, "rental_uris": {"android": "https://dc.lft.to/lastmile_qr_scan", "ios": "https://dc.lft.to/lastmile_qr_scan"}, "is_disabled": 0, "fusion_lat": 0.0, "name": "d746eb04d8e9faa6926b67e9405af521", "fusion_lon": 0.0}, {"is_reserved": 0, "type": "electric_scooter", "bike_id": "19e61236c6fac637096cc63c8430fa50", "lat": 38.90365083333333, "lon": -77.03786116666667, "rental_uris": {"android": "https://dc.lft.to/lastmile_qr_scan", "ios": "https://dc.lft.to/lastmile_qr_scan"}, "is_disabled": 0, "fusion_lat": 0.0, "name": "19e61236c6fac637096cc63c8430fa50", "fusion_lon": 0.0}, {"is_reserved": 0, "type": "electric_scooter", "bike_id": "89ec585105d124f7bd27893c77a28e29", "lat": 38.919138333333336, "lon": -77.03427016666667, "rental_uris": {"android": "https://dc.lft.to/lastmile_qr_scan", "ios": "https://dc.lft.to/lastmile_qr_scan"}, "is_disabled": 0, "fusion_lat": 0.0, "name": "89ec585105d124f7bd27893c77a28e29", "fusion_lon": 0.0}, {"is_reserved": 0, "type": "electric_scooter", "bike_id": "bb82b9e9ae2dd2f12eaacd203f0ce53a", "lat": 38.9345315, "lon": -77.02951116666667, "rental_uris": {"android": "https://dc.lft.to/lastmile_qr_scan", "ios": "https://dc.lft.to/lastmile_qr_scan"}, "is_disabled": 0, "fusion_lat": 0.0, "name": "bb82b9e9ae2dd2f12eaacd203f0ce53a", "fusion_lon": 0.0}, {"is_reserved": 0, "type": "electric_scooter", "bike_id": "4b815e04ae134cc74e7b9d0f455f53c8", "lat": 38.923816, "lon": -77.0295795, "rental_uris": {"android": "https://dc.lft.to/lastmile_qr_scan", "ios": "https://dc.lft.to/lastmile_qr_scan"}, "is_disabled": 0, "fusion_lat": 0.0, "name": "4b815e04ae134cc74e7b9d0f455f53c8", "fusion_lon": 0.0}, {"is_reserved": 0, "type": "electric_scooter", "bike_id": "9b759da0848d9a0dd4ef00fbb2dd7a0a", "lat": 38.92294416666667, "lon": -77.03002716666667, "rental_uris": {"android": "https://dc.lft.to/lastmile_qr_scan", "ios": "https://dc.lft.to/lastmile_qr_scan"}, "is_disabled": 0, "fusion_lat": 0.0, "name": "9b759da0848d9a0dd4ef00fbb2dd7a0a", "fusion_lon": 0.0}, {"is_reserved": 0, "type": "electric_scooter", "bike_id": "7845d87fda94b853909afc47d55a2d72", "lat": 38.92294483333333, "lon": -77.04248683333333, "rental_uris": {"android": "https://dc.lft.to/lastmile_qr_scan", "ios": "https://dc.lft.to/lastmile_qr_scan"}, "is_disabled": 0, "fusion_lat": 0.0, "name": "7845d87fda94b853909afc47d55a2d72", "fusion_lon": 0.0}, {"is_reserved": 0, "type": "electric_scooter", "bike_id": "070fd0d88cf942d9a765d9a4578c0296", "lat": 38.8924795, "lon": -77.03338066666667, "rental_uris": {"android": "https://dc.lft.to/lastmile_qr_scan", "ios": "https://dc.lft.to/lastmile_qr_scan"}, "is_disabled": 0, "fusion_lat": 0.0, "name": "070fd0d88cf942d9a765d9a4578c0296", "fusion_lon": 0.0}, {"is_reserved": 0, "type": "electric_scooter", "bike_id": "82a40817b224f153c62c43e89e1ea13b", "lat": 38.91406333333333, "lon": -77.03168966666667, "rental_uris": {"android": "https://dc.lft.to/lastmile_qr_scan", "ios": "https://dc.lft.to/lastmile_qr_scan"}, "is_disabled": 0, "fusion_lat": 0.0, "name": "82a40817b224f153c62c43e89e1ea13b", "fusion_lon": 0.0}, {"is_reserved": 0, "type": "electric_scooter", "bike_id": "6d04b6ff9c3d98d44fb388619ef72aad", "lat": 38.922317166666666, "lon": -77.01827266666666, "rental_uris": {"android": "https://dc.lft.to/lastmile_qr_scan", "ios": "https://dc.lft.to/lastmile_qr_scan"}, "is_disabled": 0, "fusion_lat": 0.0, "name": "6d04b6ff9c3d98d44fb388619ef72aad", "fusion_lon": 0.0}, {"is_reserved": 0, "type": "electric_scooter", "bike_id": "5c5c69a306acce8605061a9da7b5aea2", "lat": 38.913297, "lon": -77.0479595, "rental_uris": {"android": "https://dc.lft.to/lastmile_qr_scan", "ios": "https://dc.lft.to/lastmile_qr_scan"}, "is_disabled": 0, "fusion_lat": 0.0, "name": "5c5c69a306acce8605061a9da7b5aea2", "fusion_lon": 0.0}, {"is_reserved": 0, "type": "electric_scooter", "bike_id": "abbc67cf94e5fa9d42a592decb60ef1b", "lat": 38.90231283333333, "lon": -77.053344, "rental_uris": {"android": "https://dc.lft.to/lastmile_qr_scan", "ios": "https://dc.lft.to/lastmile_qr_scan"}, "is_disabled": 0, "fusion_lat": 0.0, "name": "abbc67cf94e5fa9d42a592decb60ef1b", "fusion_lon": 0.0}, {"is_reserved": 0, "type": "electric_scooter", "bike_id": "32dbf2c103e7ab82174ac5e41bfac7fd", "lat": 38.9200855, "lon": -77.04188733333334, "rental_uris": {"android": "https://dc.lft.to/lastmile_qr_scan", "ios": "https://dc.lft.to/lastmile_qr_scan"}, "is_disabled": 0, "fusion_lat": 0.0, "name": "32dbf2c103e7ab82174ac5e41bfac7fd", "fusion_lon": 0.0}, {"is_reserved": 0, "type": "electric_scooter", "bike_id": "8ffc3eda6e2ed553aa0a120b05c54569", "lat": 38.914979833333334, "lon": -77.0122535, "rental_uris": {"android": "https://dc.lft.to/lastmile_qr_scan", "ios": "https://dc.lft.to/lastmile_qr_scan"}, "is_disabled": 0, "fusion_lat": 0.0, "name": "8ffc3eda6e2ed553aa0a120b05c54569", "fusion_lon": 0.0}, {"is_reserved": 0, "type": "electric_bike", "bike_id": "97c640515f937c07b2929ccd1a08aa48", "lat": 38.887915166666666, "lon": -76.92341083333334, "rental_uris": {"android": "https://dc.lft.to/lastmile_qr_scan", "ios": "https://dc.lft.to/lastmile_qr_scan"}, "is_disabled": 0, "fusion_lat": 0.0, "name": "97c640515f937c07b2929ccd1a08aa48", "fusion_lon": 0.0}, {"is_reserved": 0, "type": "electric_scooter", "bike_id": "f3c3c7a695d0ed61bfe9ce90cff96039", "lat": 38.92626033333333, "lon": -77.07709716666666, "rental_uris": {"android": "https://dc.lft.to/lastmile_qr_scan", "ios": "https://dc.lft.to/lastmile_qr_scan"}, "is_disabled": 0, "fusion_lat": 0.0, "name": "f3c3c7a695d0ed61bfe9ce90cff96039", "fusion_lon": 0.0}, {"is_reserved": 0, "type": "electric_scooter", "bike_id": "567f15e9462e0302a5e417d003c401aa", "lat": 38.916215666666666, "lon": -77.00203033333334, "rental_uris": {"android": "https://dc.lft.to/lastmile_qr_scan", "ios": "https://dc.lft.to/lastmile_qr_scan"}, "is_disabled": 0, "fusion_lat": 0.0, "name": "567f15e9462e0302a5e417d003c401aa", "fusion_lon": 0.0}, {"is_reserved": 0, "type": "electric_scooter", "bike_id": "f295b866b746f5bfd51d2b7ba4f49f67", "lat": 38.92077333333334, "lon": -77.02504183333333, "rental_uris": {"android": "https://dc.lft.to/lastmile_qr_scan", "ios": "https://dc.lft.to/lastmile_qr_scan"}, "is_disabled": 0, "fusion_lat": 0.0, "name": "f295b866b746f5bfd51d2b7ba4f49f67", "fusion_lon": 0.0}, {"is_reserved": 0, "type": "electric_scooter", "bike_id": "87f967fe01c8a094d3871119d92c5bbb", "lat": 38.89901166666667, "lon": -77.039672, "rental_uris": {"android": "https://dc.lft.to/lastmile_qr_scan", "ios": "https://dc.lft.to/lastmile_qr_scan"}, "is_disabled": 0, "fusion_lat": 0.0, "name": "87f967fe01c8a094d3871119d92c5bbb", "fusion_lon": 0.0}, {"is_reserved": 0, "type": "electric_scooter", "bike_id": "1480794ebc629eca64e24c4a2c3c9c6e", "lat": 38.90979866666667, "lon": -77.022862, "rental_uris": {"android": "https://dc.lft.to/lastmile_qr_scan", "ios": "https://dc.lft.to/lastmile_qr_scan"}, "is_disabled": 0, "fusion_lat": 0.0, "name": "1480794ebc629eca64e24c4a2c3c9c6e", "fusion_lon": 0.0}, {"is_reserved": 0, "type": "electric_scooter", "bike_id": "38d0cfb66b4f98dfaa02d6cd14296e3c", "lat": 38.92354983333333, "lon": -76.99083183333333, "rental_uris": {"android": "https://dc.lft.to/lastmile_qr_scan", "ios": "https://dc.lft.to/lastmile_qr_scan"}, "is_disabled": 0, "fusion_lat": 0.0, "name": "38d0cfb66b4f98dfaa02d6cd14296e3c", "fusion_lon": 0.0}, {"is_reserved": 0, "type": "electric_scooter", "bike_id": "4470e57ba573b88138d76c3daf3a4315", "lat": 38.90011483333333, "lon": -76.99170066666667, "rental_uris": {"android": "https://dc.lft.to/lastmile_qr_scan", "ios": "https://dc.lft.to/lastmile_qr_scan"}, "is_disabled": 0, "fusion_lat": 0.0, "name": "4470e57ba573b88138d76c3daf3a4315", "fusion_lon": 0.0}, {"is_reserved": 0, "type": "electric_scooter", "bike_id": "b574a8ea4bf11f09b3f44a6cc1db3368", "lat": 38.936265666666664, "lon": -77.0590285, "rental_uris": {"android": "https://dc.lft.to/lastmile_qr_scan", "ios": "https://dc.lft.to/lastmile_qr_scan"}, "is_disabled": 0, "fusion_lat": 0.0, "name": "b574a8ea4bf11f09b3f44a6cc1db3368", "fusion_lon": 0.0}, {"is_reserved": 0, "type": "electric_scooter", "bike_id": "c463df88236b8c2ced5bb02775abef82", "lat": 38.90794916666667, "lon": -77.02811683333333, "rental_uris": {"android": "https://dc.lft.to/lastmile_qr_scan", "ios": "https://dc.lft.to/lastmile_qr_scan"}, "is_disabled": 0, "fusion_lat": 0.0, "name": "c463df88236b8c2ced5bb02775abef82", "fusion_lon": 0.0}, {"is_reserved": 0, "type": "electric_bike", "bike_id": "22cac40fc3cd72286397a9147fa1b6b3", "lat": 38.841127166666666, "lon": -77.08953283333334, "rental_uris": {"android": "https://dc.lft.to/lastmile_qr_scan", "ios": "https://dc.lft.to/lastmile_qr_scan"}, "is_disabled": 0, "fusion_lat": 0.0, "name": "22cac40fc3cd72286397a9147fa1b6b3", "fusion_lon": 0.0}, {"is_reserved": 0, "type": "electric_scooter", "bike_id": "88556e7a2aaee9a76f6512d7366e33ab", "lat": 38.897257, "lon": -77.021618, "rental_uris": {"android": "https://dc.lft.to/lastmile_qr_scan", "ios": "https://dc.lft.to/lastmile_qr_scan"}, "is_disabled": 0, "fusion_lat": 0.0, "name": "88556e7a2aaee9a76f6512d7366e33ab", "fusion_lon": 0.0}, {"is_reserved": 0, "type": "electric_scooter", "bike_id": "fda5967b365c7db9f1f110d4ecbab57f", "lat": 38.92024766666667, "lon": -77.03200783333334, "rental_uris": {"android": "https://dc.lft.to/lastmile_qr_scan", "ios": "https://dc.lft.to/lastmile_qr_scan"}, "is_disabled": 0, "fusion_lat": 0.0, "name": "fda5967b365c7db9f1f110d4ecbab57f", "fusion_lon": 0.0}, {"is_reserved": 0, "type": "electric_scooter", "bike_id": "4e622008fc1a2e8d55ee44e709f56736", "lat": 38.93115383333333, "lon": -77.02316933333333, "rental_uris": {"android": "https://dc.lft.to/lastmile_qr_scan", "ios": "https://dc.lft.to/lastmile_qr_scan"}, "is_disabled": 0, "fusion_lat": 0.0, "name": "4e622008fc1a2e8d55ee44e709f56736", "fusion_lon": 0.0}, {"is_reserved": 0, "type": "electric_scooter", "bike_id": "1650b20ba2649239ed99177231d2b9fe", "lat": 38.8794425, "lon": -77.0166435, "rental_uris": {"android": "https://dc.lft.to/lastmile_qr_scan", "ios": "https://dc.lft.to/lastmile_qr_scan"}, "is_disabled": 0, "fusion_lat": 0.0, "name": "1650b20ba2649239ed99177231d2b9fe", "fusion_lon": 0.0}, {"is_reserved": 0, "type": "electric_scooter", "bike_id": "495bbd336f8061b089d1f8ec9b794ce3", "lat": 38.88771233333333, "lon": -76.99163783333333, "rental_uris": {"android": "https://dc.lft.to/lastmile_qr_scan", "ios": "https://dc.lft.to/lastmile_qr_scan"}, "is_disabled": 0, "fusion_lat": 0.0, "name": "495bbd336f8061b089d1f8ec9b794ce3", "fusion_lon": 0.0}, {"is_reserved": 0, "type": "electric_scooter", "bike_id": "106f0f1b926c3ae3794f72b751f533ab", "lat": 38.87470483333333, "lon": -77.0054675, "rental_uris": {"android": "https://dc.lft.to/lastmile_qr_scan", "ios": "https://dc.lft.to/lastmile_qr_scan"}, "is_disabled": 0, "fusion_lat": 0.0, "name": "106f0f1b926c3ae3794f72b751f533ab", "fusion_lon": 0.0}, {"is_reserved": 0, "type": "electric_scooter", "bike_id": "5739371548a95e671aa79e5cf7aa2c2c", "lat": 38.910043333333334, "lon": -76.99409133333333, "rental_uris": {"android": "https://dc.lft.to/lastmile_qr_scan", "ios": "https://dc.lft.to/lastmile_qr_scan"}, "is_disabled": 0, "fusion_lat": 0.0, "name": "5739371548a95e671aa79e5cf7aa2c2c", "fusion_lon": 0.0}, {"is_reserved": 0, "type": "electric_scooter", "bike_id": "9c44e70e5858292cb211aa202ed4e9a6", "lat": 38.883025, "lon": -76.94855116666666, "rental_uris": {"android": "https://dc.lft.to/lastmile_qr_scan", "ios": "https://dc.lft.to/lastmile_qr_scan"}, "is_disabled": 0, "fusion_lat": 0.0, "name": "9c44e70e5858292cb211aa202ed4e9a6", "fusion_lon": 0.0}, {"is_reserved": 0, "type": "electric_scooter", "bike_id": "b17986e9cf7a72d21ba47406c5828f4c", "lat": 38.923946666666666, "lon": -77.050559, "rental_uris": {"android": "https://dc.lft.to/lastmile_qr_scan", "ios": "https://dc.lft.to/lastmile_qr_scan"}, "is_disabled": 0, "fusion_lat": 0.0, "name": "b17986e9cf7a72d21ba47406c5828f4c", "fusion_lon": 0.0}, {"is_reserved": 0, "type": "electric_scooter", "bike_id": "6bd8a5c32a00e89842e8b63e18a26657", "lat": 38.89951933333333, "lon": -77.05393283333333, "rental_uris": {"android": "https://dc.lft.to/lastmile_qr_scan", "ios": "https://dc.lft.to/lastmile_qr_scan"}, "is_disabled": 0, "fusion_lat": 0.0, "name": "6bd8a5c32a00e89842e8b63e18a26657", "fusion_lon": 0.0}, {"is_reserved": 0, "type": "electric_scooter", "bike_id": "097728945777cac2da668f51c06b0076", "lat": 38.919317666666664, "lon": -77.04621033333333, "rental_uris": {"android": "https://dc.lft.to/lastmile_qr_scan", "ios": "https://dc.lft.to/lastmile_qr_scan"}, "is_disabled": 0, "fusion_lat": 0.0, "name": "097728945777cac2da668f51c06b0076", "fusion_lon": 0.0}, {"is_reserved": 0, "type": "electric_scooter", "bike_id": "59e05278c321df19f9e5c181a43d935b", "lat": 38.901028, "lon": -76.98102966666667, "rental_uris": {"android": "https://dc.lft.to/lastmile_qr_scan", "ios": "https://dc.lft.to/lastmile_qr_scan"}, "is_disabled": 0, "fusion_lat": 0.0, "name": "59e05278c321df19f9e5c181a43d935b", "fusion_lon": 0.0}, {"is_reserved": 0, "type": "electric_scooter", "bike_id": "b716fcc60696626ae851401688b80893", "lat": 38.90265616666667, "lon": -77.04141783333333, "rental_uris": {"android": "https://dc.lft.to/lastmile_qr_scan", "ios": "https://dc.lft.to/lastmile_qr_scan"}, "is_disabled": 0, "fusion_lat": 0.0, "name": "b716fcc60696626ae851401688b80893", "fusion_lon": 0.0}, {"is_reserved": 0, "type": "electric_scooter", "bike_id": "6fea6a759d6854c64bcbd2ebae118ebc", "lat": 38.8962345, "lon": -76.99725766666667, "rental_uris": {"android": "https://dc.lft.to/lastmile_qr_scan", "ios": "https://dc.lft.to/lastmile_qr_scan"}, "is_disabled": 0, "fusion_lat": 0.0, "name": "6fea6a759d6854c64bcbd2ebae118ebc", "fusion_lon": 0.0}, {"is_reserved": 0, "type": "electric_scooter", "bike_id": "87c062df02b0d385983dca910ea60c61", "lat": 38.9071735, "lon": -77.04503816666667, "rental_uris": {"android": "https://dc.lft.to/lastmile_qr_scan", "ios": "https://dc.lft.to/lastmile_qr_scan"}, "is_disabled": 0, "fusion_lat": 0.0, "name": "87c062df02b0d385983dca910ea60c61", "fusion_lon": 0.0}, {"is_reserved": 0, "type": "electric_scooter", "bike_id": "5b1c14ac0a1501b4daa127490976ea25", "lat": 38.92383, "lon": -77.02881983333333, "rental_uris": {"android": "https://dc.lft.to/lastmile_qr_scan", "ios": "https://dc.lft.to/lastmile_qr_scan"}, "is_disabled": 0, "fusion_lat": 0.0, "name": "5b1c14ac0a1501b4daa127490976ea25", "fusion_lon": 0.0}, {"is_reserved": 0, "type": "electric_bike", "bike_id": "1e116f11d283d58d02af6641bd81af46", "lat": 38.958712, "lon": -76.970576, "rental_uris": {"android": "https://dc.lft.to/lastmile_qr_scan", "ios": "https://dc.lft.to/lastmile_qr_scan"}, "is_disabled": 0, "fusion_lat": 0.0, "name": "1e116f11d283d58d02af6641bd81af46", "fusion_lon": 0.0}, {"is_reserved": 0, "type": "electric_bike", "bike_id": "3daa9bbe1487641b2b227f3abfa18dbc", "lat": 38.945639666666665, "lon": -76.95839066666667, "rental_uris": {"android": "https://dc.lft.to/lastmile_qr_scan", "ios": "https://dc.lft.to/lastmile_qr_scan"}, "is_disabled": 0, "fusion_lat": 0.0, "name": "3daa9bbe1487641b2b227f3abfa18dbc", "fusion_lon": 0.0}, {"is_reserved": 0, "type": "electric_scooter", "bike_id": "1c7f14bf9bebbd591e021aa54257bb4a", "lat": 38.90095933333333, "lon": -77.018807, "rental_uris": {"android": "https://dc.lft.to/lastmile_qr_scan", "ios": "https://dc.lft.to/lastmile_qr_scan"}, "is_disabled": 0, "fusion_lat": 0.0, "name": "1c7f14bf9bebbd591e021aa54257bb4a", "fusion_lon": 0.0}, {"is_reserved": 0, "type": "electric_scooter", "bike_id": "ad350e1fdf5dbe6bf495d1ebec8187f6", "lat": 38.904162666666664, "lon": -77.026649, "rental_uris": {"android": "https://dc.lft.to/lastmile_qr_scan", "ios": "https://dc.lft.to/lastmile_qr_scan"}, "is_disabled": 0, "fusion_lat": 0.0, "name": "ad350e1fdf5dbe6bf495d1ebec8187f6", "fusion_lon": 0.0}, {"is_reserved": 0, "type": "electric_scooter", "bike_id": "32734a9f2f520103f10b82c0e6a54f7e", "lat": 38.90588283333334, "lon": -77.07281583333334, "rental_uris": {"android": "https://dc.lft.to/lastmile_qr_scan", "ios": "https://dc.lft.to/lastmile_qr_scan"}, "is_disabled": 0, "fusion_lat": 0.0, "name": "32734a9f2f520103f10b82c0e6a54f7e", "fusion_lon": 0.0}, {"is_reserved": 0, "type": "electric_scooter", "bike_id": "eb6244f940a25f0c0e17734209c28fbc", "lat": 38.89476883333333, "lon": -76.99564483333333, "rental_uris": {"android": "https://dc.lft.to/lastmile_qr_scan", "ios": "https://dc.lft.to/lastmile_qr_scan"}, "is_disabled": 0, "fusion_lat": 0.0, "name": "eb6244f940a25f0c0e17734209c28fbc", "fusion_lon": 0.0}, {"is_reserved": 0, "type": "electric_scooter", "bike_id": "bfe4dc22bd648f96b93ec62f402ed73d", "lat": 38.89837583333333, "lon": -77.02815266666667, "rental_uris": {"android": "https://dc.lft.to/lastmile_qr_scan", "ios": "https://dc.lft.to/lastmile_qr_scan"}, "is_disabled": 0, "fusion_lat": 0.0, "name": "bfe4dc22bd648f96b93ec62f402ed73d", "fusion_lon": 0.0}, {"is_reserved": 0, "type": "electric_scooter", "bike_id": "841e63d3128082a4aebd89f544294582", "lat": 38.910017333333336, "lon": -77.04008516666667, "rental_uris": {"android": "https://dc.lft.to/lastmile_qr_scan", "ios": "https://dc.lft.to/lastmile_qr_scan"}, "is_disabled": 0, "fusion_lat": 0.0, "name": "841e63d3128082a4aebd89f544294582", "fusion_lon": 0.0}, {"is_reserved": 0, "type": "electric_scooter", "bike_id": "8997cb4b0d8d4a86ac533093feebd3ce", "lat": 38.90443416666667, "lon": -77.02694833333334, "rental_uris": {"android": "https://dc.lft.to/lastmile_qr_scan", "ios": "https://dc.lft.to/lastmile_qr_scan"}, "is_disabled": 0, "fusion_lat": 0.0, "name": "8997cb4b0d8d4a86ac533093feebd3ce", "fusion_lon": 0.0}, {"is_reserved": 0, "type": "electric_bike", "bike_id": "52ad42dfb5b420927ede33fee1f26bc8", "lat": 38.8990695, "lon": -76.93348933333333, "rental_uris": {"android": "https://dc.lft.to/lastmile_qr_scan", "ios": "https://dc.lft.to/lastmile_qr_scan"}, "is_disabled": 0, "fusion_lat": 0.0, "name": "52ad42dfb5b420927ede33fee1f26bc8", "fusion_lon": 0.0}, {"is_reserved": 0, "type": "electric_scooter", "bike_id": "5d695c4a3d31f79370515390edaf147a", "lat": 38.897611166666664, "lon": -77.0019295, "rental_uris": {"android": "https://dc.lft.to/lastmile_qr_scan", "ios": "https://dc.lft.to/lastmile_qr_scan"}, "is_disabled": 0, "fusion_lat": 0.0, "name": "5d695c4a3d31f79370515390edaf147a", "fusion_lon": 0.0}, {"is_reserved": 0, "type": "electric_scooter", "bike_id": "7da3ab6807c77cfe34bbc602acb4f749", "lat": 38.878448, "lon": -77.0196195, "rental_uris": {"android": "https://dc.lft.to/lastmile_qr_scan", "ios": "https://dc.lft.to/lastmile_qr_scan"}, "is_disabled": 0, "fusion_lat": 0.0, "name": "7da3ab6807c77cfe34bbc602acb4f749", "fusion_lon": 0.0}, {"is_reserved": 0, "type": "electric_bike", "bike_id": "060504d6c3403c30fec3632769d2ac3b", "lat": 38.93763633333333, "lon": -77.03633533333333, "rental_uris": {"android": "https://dc.lft.to/lastmile_qr_scan", "ios": "https://dc.lft.to/lastmile_qr_scan"}, "is_disabled": 0, "fusion_lat": 0.0, "name": "060504d6c3403c30fec3632769d2ac3b", "fusion_lon": 0.0}, {"is_reserved": 0, "type": "electric_scooter", "bike_id": "74da1c5b896a7e35f7750d58a6646530", "lat": 38.89883066666667, "lon": -77.033143, "rental_uris": {"android": "https://dc.lft.to/lastmile_qr_scan", "ios": "https://dc.lft.to/lastmile_qr_scan"}, "is_disabled": 0, "fusion_lat": 0.0, "name": "74da1c5b896a7e35f7750d58a6646530", "fusion_lon": 0.0}, {"is_reserved": 0, "type": "electric_scooter", "bike_id": "6b1d555dd052d1ed3ba0d08401fb980a", "lat": 38.921583, "lon": -77.03378216666667, "rental_uris": {"android": "https://dc.lft.to/lastmile_qr_scan", "ios": "https://dc.lft.to/lastmile_qr_scan"}, "is_disabled": 0, "fusion_lat": 0.0, "name": "6b1d555dd052d1ed3ba0d08401fb980a", "fusion_lon": 0.0}, {"is_reserved": 0, "type": "electric_scooter", "bike_id": "7145c89a24fc1224d2d0d063ecb00afb", "lat": 38.90593366666667, "lon": -77.00611066666667, "rental_uris": {"android": "https://dc.lft.to/lastmile_qr_scan", "ios": "https://dc.lft.to/lastmile_qr_scan"}, "is_disabled": 0, "fusion_lat": 0.0, "name": "7145c89a24fc1224d2d0d063ecb00afb", "fusion_lon": 0.0}, {"is_reserved": 0, "type": "electric_scooter", "bike_id": "a9a9cdf829fc0bae40ec024569879305", "lat": 38.896957666666665, "lon": -77.05036416666667, "rental_uris": {"android": "https://dc.lft.to/lastmile_qr_scan", "ios": "https://dc.lft.to/lastmile_qr_scan"}, "is_disabled": 0, "fusion_lat": 0.0, "name": "a9a9cdf829fc0bae40ec024569879305", "fusion_lon": 0.0}, {"is_reserved": 0, "type": "electric_scooter", "bike_id": "4aff3cb532951d9b56043373e2070599", "lat": 38.900101666666664, "lon": -77.02717766666666, "rental_uris": {"android": "https://dc.lft.to/lastmile_qr_scan", "ios": "https://dc.lft.to/lastmile_qr_scan"}, "is_disabled": 0, "fusion_lat": 0.0, "name": "4aff3cb532951d9b56043373e2070599", "fusion_lon": 0.0}, {"is_reserved": 0, "type": "electric_scooter", "bike_id": "c7741a5e253c0e684ac2155ede9110de", "lat": 38.92937466666667, "lon": -77.037722, "rental_uris": {"android": "https://dc.lft.to/lastmile_qr_scan", "ios": "https://dc.lft.to/lastmile_qr_scan"}, "is_disabled": 0, "fusion_lat": 0.0, "name": "c7741a5e253c0e684ac2155ede9110de", "fusion_lon": 0.0}, {"is_reserved": 0, "type": "electric_scooter", "bike_id": "569cdb5396187ea77bdb8830abfe7c25", "lat": 38.89480833333333, "lon": -76.995851, "rental_uris": {"android": "https://dc.lft.to/lastmile_qr_scan", "ios": "https://dc.lft.to/lastmile_qr_scan"}, "is_disabled": 0, "fusion_lat": 0.0, "name": "569cdb5396187ea77bdb8830abfe7c25", "fusion_lon": 0.0}, {"is_reserved": 0, "type": "electric_scooter", "bike_id": "f1e27c3b2b927c183346beb906b6155f", "lat": 38.934851333333334, "lon": -77.03603666666666, "rental_uris": {"android": "https://dc.lft.to/lastmile_qr_scan", "ios": "https://dc.lft.to/lastmile_qr_scan"}, "is_disabled": 0, "fusion_lat": 0.0, "name": "f1e27c3b2b927c183346beb906b6155f", "fusion_lon": 0.0}, {"is_reserved": 0, "type": "electric_scooter", "bike_id": "5db2a0d24641a10e8ac5ac6953bb2f46", "lat": 38.89355166666667, "lon": -77.01728916666667, "rental_uris": {"android": "https://dc.lft.to/lastmile_qr_scan", "ios": "https://dc.lft.to/lastmile_qr_scan"}, "is_disabled": 0, "fusion_lat": 0.0, "name": "5db2a0d24641a10e8ac5ac6953bb2f46", "fusion_lon": 0.0}, {"is_reserved": 0, "type": "electric_scooter", "bike_id": "26e30e613458544017faf7a1dceef738", "lat": 38.88520833333333, "lon": -76.99713033333333, "rental_uris": {"android": "https://dc.lft.to/lastmile_qr_scan", "ios": "https://dc.lft.to/lastmile_qr_scan"}, "is_disabled": 0, "fusion_lat": 0.0, "name": "26e30e613458544017faf7a1dceef738", "fusion_lon": 0.0}, {"is_reserved": 0, "type": "electric_scooter", "bike_id": "701d0ebb71b786c9af437a6d767304d8", "lat": 38.880117, "lon": -76.99747616666667, "rental_uris": {"android": "https://dc.lft.to/lastmile_qr_scan", "ios": "https://dc.lft.to/lastmile_qr_scan"}, "is_disabled": 0, "fusion_lat": 0.0, "name": "701d0ebb71b786c9af437a6d767304d8", "fusion_lon": 0.0},