{"data": {"bikes": [{"bike_id": "5501e8f30f0dfc2774a953e9a1b90443", "name": "5501e8f30f0dfc2774a953e9a1b90443", "rental_uris": {"ios": "https://dc.lft.to/lastmile_qr_scan", "android": "https://dc.lft.to/lastmile_qr_scan"}, "lon": -77.06292233333333, "is_disabled": 0, "type": "electric_bike", "fusion_lon": 0.0, "fusion_lat": 0.0, "lat": 38.937448333333336, "is_reserved": 0}, {"bike_id": "d0b8aa4ef24bb50a7671ee7ac1edc8cf", "name": "d0b8aa4ef24bb50a7671ee7ac1edc8cf", "rental_uris": {"ios": "https://dc.lft.to/lastmile_qr_scan", "android": "https://dc.lft.to/lastmile_qr_scan"}, "lon": -77.05034883333333, "is_disabled": 0, "type": "electric_scooter", "fusion_lon": 0.0, "fusion_lat": 0.0, "lat": 38.923658, "is_reserved": 0}, {"bike_id": "2b982192259d22d71e8e5b0849925d64", "name": "2b982192259d22d71e8e5b0849925d64", "rental_uris": {"ios": "https://dc.lft.to/lastmile_qr_scan", "android": "https://dc.lft.to/lastmile_qr_scan"}, "lon": -77.031626, "is_disabled": 0, "type": "electric_scooter", "fusion_lon": 0.0, "fusion_lat": 0.0, "lat": 38.90131316666667, "is_reserved": 0}, {"bike_id": "5dd454b9f047b4fc0dd969ab62705286", "name": "5dd454b9f047b4fc0dd969ab62705286", "rental_uris": {"ios": "https://dc.lft.to/lastmile_qr_scan", "android": "https://dc.lft.to/lastmile_qr_scan"}, "lon": -77.01862716666666, "is_disabled": 0, "type": "electric_scooter", "fusion_lon": 0.0, "fusion_lat": 0.0, "lat": 38.90087333333334, "is_reserved": 0}, {"bike_id": "54c8f3014752197782551982614967db", "name": "54c8f3014752197782551982614967db", "rental_uris": {"ios": "https://dc.lft.to/lastmile_qr_scan", "android": "https://dc.lft.to/lastmile_qr_scan"}, "lon": -77.03777066666666, "is_disabled": 0, "type": "electric_scooter", "fusion_lon": 0.0, "fusion_lat": 0.0, "lat": 38.9015905, "is_reserved": 0}, {"bike_id": "72e1eb6fa1ea3a30e049becd125a47e2", "name": "72e1eb6fa1ea3a30e049becd125a47e2", "rental_uris": {"ios": "https://dc.lft.to/lastmile_qr_scan", "android": "https://dc.lft.to/lastmile_qr_scan"}, "lon": -76.981067, "is_disabled": 0, "type": "electric_scooter", "fusion_lon": 0.0, "fusion_lat": 0.0, "lat": 38.9041635, "is_reserved": 0}, {"bike_id": "71caf3c280a9c59a7f7fa5b1c4db68d8", "name": "71caf3c280a9c59a7f7fa5b1c4db68d8", "rental_uris": {"ios": "https://dc.lft.to/lastmile_qr_scan", "android": "https://dc.lft.to/lastmile_qr_scan"}, "lon": -77.01141416666667, "is_disabled": 0, "type": "electric_scooter", "fusion_lon": 0.0, "fusion_lat": 0.0, "lat": 38.900331333333334, "is_reserved": 0}, {"bike_id": "e0b94e0efd0f37f7aeebe188ad74f9d4", "name": "e0b94e0efd0f37f7aeebe188ad74f9d4", "rental_uris": {"ios": "https://dc.lft.to/lastmile_qr_scan", "android": "https://dc.lft.to/lastmile_qr_scan"}, "lon": -77.02141416666667, "is_disabled": 0, "type": "electric_scooter", "fusion_lon": 0.0, "fusion_lat": 0.0, "lat": 38.921459, "is_reserved": 0}, {"bike_id": "a55a60429ccee098000e3db13f947cd2", "name": "a55a60429ccee098000e3db13f947cd2", "rental_uris": {"ios": "https://dc.lft.to/lastmile_qr_scan", "android": "https://dc.lft.to/lastmile_qr_scan"}, "lon": -77.0151485, "is_disabled": 0, "type": "electric_scooter", "fusion_lon": 0.0, "fusion_lat": 0.0, "lat": 38.884869, "is_reserved": 0}, {"bike_id": "92c206dcaefedf69a4ad7e7644303053", "name": "92c206dcaefedf69a4ad7e7644303053", "rental_uris": {"ios": "https://dc.lft.to/lastmile_qr_scan", "android": "https://dc.lft.to/lastmile_qr_scan"}, "lon": -76.94159166666667, "is_disabled": 0, "type": "electric_bike", "fusion_lon": 0.0, "fusion_lat": 0.0, "lat": 38.9083045, "is_reserved": 0}, {"bike_id": "711e6bdcb9f5b5a4e91f54989268d0dd", "name": "711e6bdcb9f5b5a4e91f54989268d0dd", "rental_uris": {"ios": "https://dc.lft.to/lastmile_qr_scan", "android": "https://dc.lft.to/lastmile_qr_scan"}, "lon": -77.02733533333334, "is_disabled": 0, "type": "electric_scooter", "fusion_lon": 0.0, "fusion_lat": 0.0, "lat": 38.898974, "is_reserved": 0}, {"bike_id": "3287d11f10cd14c36ebd4d1407907c6b", "name": "3287d11f10cd14c36ebd4d1407907c6b", "rental_uris": {"ios": "https://dc.lft.to/lastmile_qr_scan", "android": "https://dc.lft.to/lastmile_qr_scan"}, "lon": -77.0307485, "is_disabled": 0, "type": "electric_scooter", "fusion_lon": 0.0, "fusion_lat": 0.0, "lat": 38.899865, "is_reserved": 0}, {"bike_id": "9b2ee05bd8a48c00770c6856d6405b2a", "name": "9b2ee05bd8a48c00770c6856d6405b2a", "rental_uris": {"ios": "https://dc.lft.to/lastmile_qr_scan", "android": "https://dc.lft.to/lastmile_qr_scan"}, "lon": -77.03195616666666, "is_disabled": 0, "type": "electric_scooter", "fusion_lon": 0.0, "fusion_lat": 0.0, "lat": 38.915698666666664, "is_reserved": 0}, {"bike_id": "d7527dfc3459ccbd2c6485f8c686a0b3", "name": "d7527dfc3459ccbd2c6485f8c686a0b3", "rental_uris": {"ios": "https://dc.lft.to/lastmile_qr_scan", "android": "https://dc.lft.to/lastmile_qr_scan"}, "lon": -77.04623583333333, "is_disabled": 0, "type": "electric_scooter", "fusion_lon": 0.0, "fusion_lat": 0.0, "lat": 38.91659283333333, "is_reserved": 0}, {"bike_id": "8cb9e04df5b20d2b3ca5edc5c5674b4c", "name": "8cb9e04df5b20d2b3ca5edc5c5674b4c", "rental_uris": {"ios": "https://dc.lft.to/lastmile_qr_scan", "android": "https://dc.lft.to/lastmile_qr_scan"}, "lon": -77.0338605, "is_disabled": 0, "type": "electric_scooter", "fusion_lon": 0.0, "fusion_lat": 0.0, "lat": 38.896669833333334, "is_reserved": 0}, {"bike_id": "767d0232aaf3ed9ca88ea1192b7f6c14", "name": "767d0232aaf3ed9ca88ea1192b7f6c14", "rental_uris": {"ios": "https://dc.lft.to/lastmile_qr_scan", "android": "https://dc.lft.to/lastmile_qr_scan"}, "lon": -77.02769866666667, "is_disabled": 0, "type": "electric_scooter", "fusion_lon": 0.0, "fusion_lat": 0.0, "lat": 38.9639685, "is_reserved": 0}, {"bike_id": "3835e2bea0081a1dd5099273f7a1addc", "name": "3835e2bea0081a1dd5099273f7a1addc", "rental_uris": {"ios": "https://dc.lft.to/lastmile_qr_scan", "android": "https://dc.lft.to/lastmile_qr_scan"}, "lon": -77.05338816666666, "is_disabled": 0, "type": "electric_scooter", "fusion_lon": 0.0, "fusion_lat": 0.0, "lat": 38.903515666666664, "is_reserved": 0}, {"bike_id": "5ebf0493c4c2c7c67aee4ee21e134948", "name": "5ebf0493c4c2c7c67aee4ee21e134948", "rental_uris": {"ios": "https://dc.lft.to/lastmile_qr_scan", "android": "https://dc.lft.to/lastmile_qr_scan"}, "lon": -77.01607133333333, "is_disabled": 0, "type": "electric_scooter", "fusion_lon": 0.0, "fusion_lat": 0.0, "lat": 38.91757616666666, "is_reserved": 0}, {"bike_id": "13dd5645a245b649311c4a1b3218f9de", "name": "13dd5645a245b649311c4a1b3218f9de", "rental_uris": {"ios": "https://dc.lft.to/lastmile_qr_scan", "android": "https://dc.lft.to/lastmile_qr_scan"}, "lon": -77.02809633333334, "is_disabled": 0, "type": "electric_scooter", "fusion_lon": 0.0, "fusion_lat": 0.0, "lat": 38.90668616666667, "is_reserved": 0}, {"bike_id": "6b9588844256539156c09abf66e04a54", "name": "6b9588844256539156c09abf66e04a54", "rental_uris": {"ios": "https://dc.lft.to/lastmile_qr_scan", "android": "https://dc.lft.to/lastmile_qr_scan"}, "lon": -77.03859883333334, "is_disabled": 0, "type": "electric_scooter", "fusion_lon": 0.0, "fusion_lat": 0.0, "lat": 38.91971866666667, "is_reserved": 0}, {"bike_id": "fd52411e8e1b07f0f75b60ee80b38975", "name": "fd52411e8e1b07f0f75b60ee80b38975", "rental_uris": {"ios": "https://dc.lft.to/lastmile_qr_scan", "android": "https://dc.lft.to/lastmile_qr_scan"}, "lon": -77.01491583333333, "is_disabled": 0, "type": "electric_scooter", "fusion_lon": 0.0, "fusion_lat": 0.0, "lat": 38.943291, "is_reserved": 0}, {"bike_id": "5265ba35786d6bc7f42b7270e5f3bc54", "name": "5265ba35786d6bc7f42b7270e5f3bc54", "rental_uris": {"ios": "https://dc.lft.to/lastmile_qr_scan", "android": "https://dc.lft.to/lastmile_qr_scan"}, "lon": -77.03294783333334, "is_disabled": 0, "type": "electric_scooter", "fusion_lon": 0.0, "fusion_lat": 0.0, "lat": 38.9244905, "is_reserved": 0}, {"bike_id": "9fd758586469acd19a5603b1361baacc", "name": "9fd758586469acd19a5603b1361baacc", "rental_uris": {"ios": "https://dc.lft.to/lastmile_qr_scan", "android": "https://dc.lft.to/lastmile_qr_scan"}, "lon": -77.02507216666666, "is_disabled": 0, "type": "electric_scooter", "fusion_lon": 0.0, "fusion_lat": 0.0, "lat": 38.925866, "is_reserved": 0}, {"bike_id": "f268cdb121649371eaa8719fa6e52db2", "name": "f268cdb121649371eaa8719fa6e52db2", "rental_uris": {"ios": "https://dc.lft.to/lastmile_qr_scan", "android": "https://dc.lft.to/lastmile_qr_scan"}, "lon": -77.0247845, "is_disabled": 0, "type": "electric_scooter", "fusion_lon": 0.0, "fusion_lat": 0.0, "lat": 38.941966, "is_reserved": 0}, {"bike_id": "8a072b2821d5f2415d3e56e11cf62c91", "name": "8a072b2821d5f2415d3e56e11cf62c91", "rental_uris": {"ios": "https://dc.lft.to/lastmile_qr_scan", "android": "https://dc.lft.to/lastmile_qr_scan"}, "lon": -76.991676, "is_disabled": 0, "type": "electric_scooter", "fusion_lon": 0.0, "fusion_lat": 0.0, "lat": 38.880782333333336, "is_reserved": 0}, {"bike_id": "e1fc96a2bf40003fe2713b88d8f2592f", "name": "e1fc96a2bf40003fe2713b88d8f2592f", "rental_uris": {"ios": "https://dc.lft.to/lastmile_qr_scan", "android": "https://dc.lft.to/lastmile_qr_scan"}, "lon": -76.969014, "is_disabled": 0, "type": "electric_scooter", "fusion_lon": 0.0, "fusion_lat": 0.0, "lat": 38.865074166666666, "is_reserved": 0}, {"bike_id": "970723ff4594e819ca53fc1265f64e8a", "name": "970723ff4594e819ca53fc1265f64e8a", "rental_uris": {"ios": "https://dc.lft.to/lastmile_qr_scan", "android": "https://dc.lft.to/lastmile_qr_scan"}, "lon": -77.0059235, "is_disabled": 0, "type": "electric_scooter", "fusion_lon": 0.0, "fusion_lat": 0.0, "lat": 38.87564016666666, "is_reserved": 0}, {"bike_id": "8d755585da3497ec31e977d593ccd29b", "name": "8d755585da3497ec31e977d593ccd29b", "rental_uris": {"ios": "https://dc.lft.to/lastmile_qr_scan", "android": "https://dc.lft.to/lastmile_qr_scan"}, "lon": -77.02352783333333, "is_disabled": 0, "type": "electric_scooter", "fusion_lon": 0.0, "fusion_lat": 0.0, "lat": 38.93534783333333, "is_reserved": 0}, {"bike_id": "0ab7c3d93e5aab0abb64cbb49e258263", "name": "0ab7c3d93e5aab0abb64cbb49e258263", "rental_uris": {"ios": "https://dc.lft.to/lastmile_qr_scan", "android": "https://dc.lft.to/lastmile_qr_scan"}, "lon": -77.0226755, "is_disabled": 0, "type": "electric_scooter", "fusion_lon": 0.0, "fusion_lat": 0.0, "lat": 38.9149695, "is_reserved": 0}, {"bike_id": "fa3b7559fcaf0e0b1edcc738076c59f2", "name": "fa3b7559fcaf0e0b1edcc738076c59f2", "rental_uris": {"ios": "https://dc.lft.to/lastmile_qr_scan", "android": "https://dc.lft.to/lastmile_qr_scan"}, "lon": -77.05807566666667, "is_disabled": 0, "type": "electric_scooter", "fusion_lon": 0.0, "fusion_lat": 0.0, "lat": 38.934538333333336, "is_reserved": 0}, {"bike_id": "f24ec4c8d2379b114d177d277d50ffc1", "name": "f24ec4c8d2379b114d177d277d50ffc1", "rental_uris": {"ios": "https://dc.lft.to/lastmile_qr_scan", "android": "https://dc.lft.to/lastmile_qr_scan"}, "lon": -77.03818166666667, "is_disabled": 0, "type": "electric_scooter", "fusion_lon": 0.0, "fusion_lat": 0.0, "lat": 38.9097805, "is_reserved": 0}, {"bike_id": "00d5029eb6dcb6ecfbca752e5f271b93", "name": "00d5029eb6dcb6ecfbca752e5f271b93", "rental_uris": {"ios": "https://dc.lft.to/lastmile_qr_scan", "android": "https://dc.lft.to/lastmile_qr_scan"}, "lon": -77.02813616666667, "is_disabled": 0, "type": "electric_scooter", "fusion_lon": 0.0, "fusion_lat": 0.0, "lat": 38.898422, "is_reserved": 0}, {"bike_id": "ca04989ea162f851154d9595b052ac89", "name": "ca04989ea162f851154d9595b052ac89", "rental_uris": {"ios": "https://dc.lft.to/lastmile_qr_scan", "android": "https://dc.lft.to/lastmile_qr_scan"}, "lon": -77.02317266666667, "is_disabled": 0, "type": "electric_scooter", "fusion_lon": 0.0, "fusion_lat": 0.0, "lat": 38.92518233333333, "is_reserved": 0}, {"bike_id": "30260ae21dddfe2ca15a991f408e1e17", "name": "30260ae21dddfe2ca15a991f408e1e17", "rental_uris": {"ios": "https://dc.lft.to/lastmile_qr_scan", "android": "https://dc.lft.to/lastmile_qr_scan"}, "lon": -77.041587, "is_disabled": 0, "type": "electric_scooter", "fusion_lon": 0.0, "fusion_lat": 0.0, "lat": 38.90749666666667, "is_reserved": 0}, {"bike_id": "020b611b714be2c8c488d45fd7e9b3b2", "name": "020b611b714be2c8c488d45fd7e9b3b2", "rental_uris": {"ios": "https://dc.lft.to/lastmile_qr_scan", "android": "https://dc.lft.to/lastmile_qr_scan"}, "lon": -77.03201283333334, "is_disabled": 0, "type": "electric_scooter", "fusion_lon": 0.0, "fusion_lat": 0.0, "lat": 38.911355, "is_reserved": 0}, {"bike_id": "ea78f1c0b6df4b30b47f6745a5e471b6", "name": "ea78f1c0b6df4b30b47f6745a5e471b6", "rental_uris": {"ios": "https://dc.lft.to/lastmile_qr_scan", "android": "https://dc.lft.to/lastmile_qr_scan"}, "lon": -77.02156083333334, "is_disabled": 0, "type": "electric_scooter", "fusion_lon": 0.0, "fusion_lat": 0.0, "lat": 38.933078, "is_reserved": 0}, {"bike_id": "06dc54e9f6ba19d0d7f97762294bd424", "name": "06dc54e9f6ba19d0d7f97762294bd424", "rental_uris": {"ios": "https://dc.lft.to/lastmile_qr_scan", "android": "https://dc.lft.to/lastmile_qr_scan"}, "lon": -77.0060745, "is_disabled": 0, "type": "electric_scooter", "fusion_lon": 0.0, "fusion_lat": 0.0, "lat": 38.8756175, "is_reserved": 0}, {"bike_id": "ca66d38da85f96b1f4ba000583a5b391", "name": "ca66d38da85f96b1f4ba000583a5b391", "rental_uris": {"ios": "https://dc.lft.to/lastmile_qr_scan", "android": "https://dc.lft.to/lastmile_qr_scan"}, "lon": -77.032206, "is_disabled": 0, "type": "electric_scooter", "fusion_lon": 0.0, "fusion_lat": 0.0, "lat": 38.91993816666667, "is_reserved": 0}, {"bike_id": "7c1c788a55f1c5be5ae4f1c87ca4a097", "name": "7c1c788a55f1c5be5ae4f1c87ca4a097", "rental_uris": {"ios": "https://dc.lft.to/lastmile_qr_scan", "android": "https://dc.lft.to/lastmile_qr_scan"}, "lon": -77.01313833333333, "is_disabled": 0, "type": "electric_scooter", "fusion_lon": 0.0, "fusion_lat": 0.0, "lat": 38.951107666666665, "is_reserved": 0}, {"bike_id": "6466411e7ca5505ecd3150b2163b15ae", "name": "6466411e7ca5505ecd3150b2163b15ae", "rental_uris": {"ios": "https://dc.lft.to/lastmile_qr_scan", "android": "https://dc.lft.to/lastmile_qr_scan"}, "lon": -77.02359333333334, "is_disabled": 0, "type": "electric_scooter", "fusion_lon": 0.0, "fusion_lat": 0.0, "lat": 38.90854366666667, "is_reserved": 0}, {"bike_id": "6917b42079e19238b04e85e64170157c", "name": "6917b42079e19238b04e85e64170157c", "rental_uris": {"ios": "https://dc.lft.to/lastmile_qr_scan", "android": "https://dc.lft.to/lastmile_qr_scan"}, "lon": -76.995108, "is_disabled": 0, "type": "electric_scooter", "fusion_lon": 0.0, "fusion_lat": 0.0, "lat": 38.87679766666667, "is_reserved": 0}, {"bike_id": "28274f9dd8ec8fddb68ab598c4de8463", "name": "28274f9dd8ec8fddb68ab598c4de8463", "rental_uris": {"ios": "https://dc.lft.to/lastmile_qr_scan", "android": "https://dc.lft.to/lastmile_qr_scan"}, "lon": -76.95637433333333, "is_disabled": 0, "type": "electric_bike", "fusion_lon": 0.0, "fusion_lat": 0.0, "lat": 38.88513316666667, "is_reserved": 0}, {"bike_id": "7e5ec46670082a27ed8449d76cfbc195", "name": "7e5ec46670082a27ed8449d76cfbc195", "rental_uris": {"ios": "https://dc.lft.to/lastmile_qr_scan", "android": "https://dc.lft.to/lastmile_qr_scan"}, "lon": -77.00897116666667, "is_disabled": 0, "type": "electric_scooter", "fusion_lon": 0.0, "fusion_lat": 0.0, "lat": 38.90666266666667, "is_reserved": 0}, {"bike_id": "0813f54192c39d1998eab129085c864d", "name": "0813f54192c39d1998eab129085c864d", "rental_uris": {"ios": "https://dc.lft.to/lastmile_qr_scan", "android": "https://dc.lft.to/lastmile_qr_scan"}, "lon": -76.98024716666667, "is_disabled": 0, "type": "electric_scooter", "fusion_lon": 0.0, "fusion_lat": 0.0, "lat": 38.90665833333333, "is_reserved": 0}, {"bike_id": "df3f1ea52a957838f6c15ca9751e4aeb", "name": "df3f1ea52a957838f6c15ca9751e4aeb", "rental_uris": {"ios": "https://dc.lft.to/lastmile_qr_scan", "android": "https://dc.lft.to/lastmile_qr_scan"}, "lon": -77.022131, "is_disabled": 0, "type": "electric_scooter", "fusion_lon": 0.0, "fusion_lat": 0.0, "lat": 38.907278166666664, "is_reserved": 0}, {"bike_id": "30fc744592dcadb6db2776ec01209a24", "name": "30fc744592dcadb6db2776ec01209a24", "rental_uris": {"ios": "https://dc.lft.to/lastmile_qr_scan", "android": "https://dc.lft.to/lastmile_qr_scan"}, "lon": -77.01238583333334, "is_disabled": 0, "type": "electric_scooter", "fusion_lon": 0.0, "fusion_lat": 0.0, "lat": 38.9158015, "is_reserved": 0}, {"bike_id": "adf7f223df0e401acd0433ba006edad9", "name": "adf7f223df0e401acd0433ba006edad9", "rental_uris": {"ios": "https://dc.lft.to/lastmile_qr_scan", "android": "https://dc.lft.to/lastmile_qr_scan"}, "lon": -77.04051966666667, "is_disabled": 0, "type": "electric_scooter", "fusion_lon": 0.0, "fusion_lat": 0.0, "lat": 38.900109666666665, "is_reserved": 0}, {"bike_id": "0948eaaa196cfe25154090331d6dbcf0", "name": "0948eaaa196cfe25154090331d6dbcf0", "rental_uris": {"ios": "https://dc.lft.to/lastmile_qr_scan", "android": "https://dc.lft.to/lastmile_qr_scan"}, "lon": -77.0335195, "is_disabled": 0, "type": "electric_scooter", "fusion_lon": 0.0, "fusion_lat": 0.0, "lat": 38.8971965, "is_reserved": 0}, {"bike_id": "8524861bb84b02a7425dd598a0fc1da5", "name": "8524861bb84b02a7425dd598a0fc1da5", "rental_uris": {"ios": "https://dc.lft.to/lastmile_qr_scan", "android": "https://dc.lft.to/lastmile_qr_scan"}, "lon": -77.02242966666667, "is_disabled": 0, "type": "electric_scooter", "fusion_lon": 0.0, "fusion_lat": 0.0, "lat": 38.924898, "is_reserved": 0}, {"bike_id": "82e99a2f44663783120a538b89738991", "name": "82e99a2f44663783120a538b89738991", "rental_uris": {"ios": "https://dc.lft.to/lastmile_qr_scan", "android": "https://dc.lft.to/lastmile_qr_scan"}, "lon": -77.0185695, "is_disabled": 0, "type": "electric_scooter", "fusion_lon": 0.0, "fusion_lat": 0.0, "lat": 38.90093666666667, "is_reserved": 0}, {"bike_id": "2080eb9270404e940f42b2fe564e855d", "name": "2080eb9270404e940f42b2fe564e855d", "rental_uris": {"ios": "https://dc.lft.to/lastmile_qr_scan", "android": "https://dc.lft.to/lastmile_qr_scan"}, "lon": -77.02687083333333, "is_disabled": 0, "type": "electric_scooter", "fusion_lon": 0.0, "fusion_lat": 0.0, "lat": 38.94334516666667, "is_reserved": 0}, {"bike_id": "5a7ca542ceae35b60119c57f68584cec", "name": "5a7ca542ceae35b60119c57f68584cec", "rental_uris": {"ios": "https://dc.lft.to/lastmile_qr_scan", "android": "https://dc.lft.to/lastmile_qr_scan"}, "lon": -77.05409866666666, "is_disabled": 0, "type": "electric_scooter", "fusion_lon": 0.0, "fusion_lat": 0.0, "lat": 38.928006833333335, "is_reserved": 0}, {"bike_id": "71ca8cfba59500e893f8a5d73bd18c49", "name": "71ca8cfba59500e893f8a5d73bd18c49", "rental_uris": {"ios": "https://dc.lft.to/lastmile_qr_scan", "android": "https://dc.lft.to/lastmile_qr_scan"}, "lon": -77.04036983333333, "is_disabled": 0, "type": "electric_scooter", "fusion_lon": 0.0, "fusion_lat": 0.0, "lat": 38.91782966666667, "is_reserved": 0}, {"bike_id": "6965faee92e047b219ea5fee8219af72", "name": "6965faee92e047b219ea5fee8219af72", "rental_uris": {"ios": "https://dc.lft.to/lastmile_qr_scan", "android": "https://dc.lft.to/lastmile_qr_scan"}, "lon": -77.01282666666667, "is_disabled": 0, "type": "electric_scooter", "fusion_lon": 0.0, "fusion_lat": 0.0, "lat": 38.9565335, "is_reserved": 0}, {"bike_id": "01adad55afeade2e42f85c76f730fb32", "name": "01adad55afeade2e42f85c76f730fb32", "rental_uris": {"ios": "https://dc.lft.to/lastmile_qr_scan", "android": "https://dc.lft.to/lastmile_qr_scan"}, "lon": -77.04557766666667, "is_disabled": 0, "type": "electric_scooter", "fusion_lon": 0.0, "fusion_lat": 0.0, "lat": 38.92419866666667, "is_reserved": 0}, {"bike_id": "ef11ec6638d5330a6b1ffdba3ce10b5e", "name": "ef11ec6638d5330a6b1ffdba3ce10b5e", "rental_uris": {"ios": "https://dc.lft.to/lastmile_qr_scan", "android": "https://dc.lft.to/lastmile_qr_scan"}, "lon": -77.03023933333333, "is_disabled": 0, "type": "electric_scooter", "fusion_lon": 0.0, "fusion_lat": 0.0, "lat": 38.89224333333333, "is_reserved": 0}, {"bike_id": "8d61587edf1f4092d7ab33354792c636", "name": "8d61587edf1f4092d7ab33354792c636", "rental_uris": {"ios": "https://dc.lft.to/lastmile_qr_scan", "android": "https://dc.lft.to/lastmile_qr_scan"}, "lon": -77.03943283333334, "is_disabled": 0, "type": "electric_scooter", "fusion_lon": 0.0, "fusion_lat": 0.0, "lat": 38.902773833333335, "is_reserved": 0}, {"bike_id": "ef753eae0b1ef743c9408cee5e55156b", "name": "ef753eae0b1ef743c9408cee5e55156b", "rental_uris": {"ios": "https://dc.lft.to/lastmile_qr_scan", "android": "https://dc.lft.to/lastmile_qr_scan"}, "lon": -77.0385175, "is_disabled": 0, "type": "electric_scooter", "fusion_lon": 0.0, "fusion_lat": 0.0, "lat": 38.908276, "is_reserved": 0}, {"bike_id": "d9d6f070d4df1b4d25a4b2704c3d5c0f", "name": "d9d6f070d4df1b4d25a4b2704c3d5c0f", "rental_uris": {"ios": "https://dc.lft.to/lastmile_qr_scan", "android": "https://dc.lft.to/lastmile_qr_scan"}, "lon": -77.036702, "is_disabled": 0, "type": "electric_scooter", "fusion_lon": 0.0, "fusion_lat": 0.0, "lat": 38.90108266666667, "is_reserved": 0}, {"bike_id": "283e379badf50bfbd0838eaa54ae78a3", "name": "283e379badf50bfbd0838eaa54ae78a3", "rental_uris": {"ios": "https://dc.lft.to/lastmile_qr_scan", "android": "https://dc.lft.to/lastmile_qr_scan"}, "lon": -77.01283333333333, "is_disabled": 0, "type": "electric_scooter", "fusion_lon": 0.0, "fusion_lat": 0.0, "lat": 38.90617966666667, "is_reserved": 0}, {"bike_id": "a4fb1eb0dd657d2e886925bf95bf87f0", "name": "a4fb1eb0dd657d2e886925bf95bf87f0", "rental_uris": {"ios": "https://dc.lft.to/lastmile_qr_scan", "android": "https://dc.lft.to/lastmile_qr_scan"}, "lon": -77.02200983333333, "is_disabled": 0, "type": "electric_scooter", "fusion_lon": 0.0, "fusion_lat": 0.0, "lat": 38.92477483333333, "is_reserved": 0}, {"bike_id": "a9175d1ab07311532d3a79c0fc9a0d54", "name": "a9175d1ab07311532d3a79c0fc9a0d54", "rental_uris": {"ios": "https://dc.lft.to/lastmile_qr_scan", "android": "https://dc.lft.to/lastmile_qr_scan"}, "lon": -77.043436, "is_disabled": 0, "type": "electric_scooter", "fusion_lon": 0.0, "fusion_lat": 0.0, "lat": 38.904986, "is_reserved": 0}, {"bike_id": "a41a4bc79c37a9e34edda5939df7964f", "name": "a41a4bc79c37a9e34edda5939df7964f", "rental_uris": {"ios": "https://dc.lft.to/lastmile_qr_scan", "android": "https://dc.lft.to/lastmile_qr_scan"}, "lon": -77.066027, "is_disabled": 0, "type": "electric_scooter", "fusion_lon": 0.0, "fusion_lat": 0.0, "lat": 38.90461083333334, "is_reserved": 0}, {"bike_id": "349b2c7c702443d6db0941953cf242b1", "name": "349b2c7c702443d6db0941953cf242b1", "rental_uris": {"ios": "https://dc.lft.to/lastmile_qr_scan", "android": "https://dc.lft.to/lastmile_qr_scan"}, "lon": -76.926604, "is_disabled": 0, "type": "electric_scooter", "fusion_lon": 0.0, "fusion_lat": 0.0, "lat": 38.8954785, "is_reserved": 0}, {"bike_id": "15a68b7a80220fbe31b02e80b7b3aae8", "name": "15a68b7a80220fbe31b02e80b7b3aae8", "rental_uris": {"ios": "https://dc.lft.to/lastmile_qr_scan", "android": "https://dc.lft.to/lastmile_qr_scan"}, "lon": -77.0322605, "is_disabled": 0, "type": "electric_scooter", "fusion_lon": 0.0, "fusion_lat": 0.0, "lat": 38.90868366666667, "is_reserved": 0}, {"bike_id": "e024adcd8128b623f9fa3bcf06018619", "name": "e024adcd8128b623f9fa3bcf06018619", "rental_uris": {"ios": "https://dc.lft.to/lastmile_qr_scan", "android": "https://dc.lft.to/lastmile_qr_scan"}, "lon": -77.03181466666666, "is_disabled": 0, "type": "electric_scooter", "fusion_lon": 0.0, "fusion_lat": 0.0, "lat": 38.892359166666665, "is_reserved": 0}, {"bike_id": "d912ca1d2b5cfd65eb84afc8af30f9d2", "name": "d912ca1d2b5cfd65eb84afc8af30f9d2", "rental_uris": {"ios": "https://dc.lft.to/lastmile_qr_scan", "android": "https://dc.lft.to/lastmile_qr_scan"}, "lon": -77.0338095, "is_disabled": 0, "type": "electric_scooter", "fusion_lon": 0.0, "fusion_lat": 0.0, "lat": 38.898325, "is_reserved": 0}, {"bike_id": "74496a4d2e54fa92d39c82ae86eb665e", "name": "74496a4d2e54fa92d39c82ae86eb665e", "rental_uris": {"ios": "https://dc.lft.to/lastmile_qr_scan", "android": "https://dc.lft.to/lastmile_qr_scan"}, "lon": -77.03200166666667, "is_disabled": 0, "type": "electric_scooter", "fusion_lon": 0.0, "fusion_lat": 0.0, "lat": 38.9099915, "is_reserved": 0}, {"bike_id": "1fc2e5c1b01daf4d05290baf55f9a409", "name": "1fc2e5c1b01daf4d05290baf55f9a409", "rental_uris": {"ios": "https://dc.lft.to/lastmile_qr_scan", "android": "https://dc.lft.to/lastmile_qr_scan"}, "lon": -77.04176416666667, "is_disabled": 0, "type": "electric_scooter", "fusion_lon": 0.0, "fusion_lat": 0.0, "lat": 38.916889, "is_reserved": 0}, {"bike_id": "41bfe15aeaa3d5bcb6f1dcfba3070135", "name": "41bfe15aeaa3d5bcb6f1dcfba3070135", "rental_uris": {"ios": "https://dc.lft.to/lastmile_qr_scan", "android": "https://dc.lft.to/lastmile_qr_scan"}, "lon": -77.06480133333334, "is_disabled": 0, "type": "electric_scooter", "fusion_lon": 0.0, "fusion_lat": 0.0, "lat": 38.946518, "is_reserved": 0}, {"bike_id": "69423088a8289d05364059bab0cda734", "name": "69423088a8289d05364059bab0cda734", "rental_uris": {"ios": "https://dc.lft.to/lastmile_qr_scan", "android": "https://dc.lft.to/lastmile_qr_scan"}, "lon": -77.04134833333333, "is_disabled": 0, "type": "electric_scooter", "fusion_lon": 0.0, "fusion_lat": 0.0, "lat": 38.90021483333334, "is_reserved": 0}, {"bike_id": "c0e863337c307954a05ff14de2517a2a", "name": "c0e863337c307954a05ff14de2517a2a", "rental_uris": {"ios": "https://dc.lft.to/lastmile_qr_scan", "android": "https://dc.lft.to/lastmile_qr_scan"}, "lon": -77.02563033333334, "is_disabled": 0, "type": "electric_scooter", "fusion_lon": 0.0, "fusion_lat": 0.0, "lat": 38.920684333333334, "is_reserved": 0}, {"bike_id": "3124e42d28dc8ded13abe8141f38766d", "name": "3124e42d28dc8ded13abe8141f38766d", "rental_uris": {"ios": "https://dc.lft.to/lastmile_qr_scan", "android": "https://dc.lft.to/lastmile_qr_scan"}, "lon": -77.03665066666667, "is_disabled": 0, "type": "electric_scooter", "fusion_lon": 0.0, "fusion_lat": 0.0, "lat": 38.90472783333333, "is_reserved": 0}, {"bike_id": "45cc42f12bf8217efaef2724c66c112b", "name": "45cc42f12bf8217efaef2724c66c112b", "rental_uris": {"ios": "https://dc.lft.to/lastmile_qr_scan", "android": "https://dc.lft.to/lastmile_qr_scan"}, "lon": -77.01932683333334, "is_disabled": 0, "type": "electric_scooter", "fusion_lon": 0.0, "fusion_lat": 0.0, "lat": 38.883836333333335, "is_reserved": 0}, {"bike_id": "27b3d816aa5328467c1e19b92c79a2f7", "name": "27b3d816aa5328467c1e19b92c79a2f7", "rental_uris": {"ios": "https://dc.lft.to/lastmile_qr_scan", "android": "https://dc.lft.to/lastmile_qr_scan"}, "lon": -76.98468233333334, "is_disabled": 0, "type": "electric_scooter", "fusion_lon": 0.0, "fusion_lat": 0.0, "lat": 38.89364066666667, "is_reserved": 0}, {"bike_id": "b7db3eee61b31582c415da7e68e465a6", "name": "b7db3eee61b31582c415da7e68e465a6", "rental_uris": {"ios": "https://dc.lft.to/lastmile_qr_scan", "android": "https://dc.lft.to/lastmile_qr_scan"}, "lon": -77.02954616666666, "is_disabled": 0, "type": "electric_scooter", "fusion_lon": 0.0, "fusion_lat": 0.0, "lat": 38.95631066666667, "is_reserved": 0}, {"bike_id": "145a2e002774fb5bcbb9947b48392a23", "name": "145a2e002774fb5bcbb9947b48392a23", "rental_uris": {"ios": "https://dc.lft.to/lastmile_qr_scan", "android": "https://dc.lft.to/lastmile_qr_scan"}, "lon": -77.03444033333334, "is_disabled": 0, "type": "electric_scooter", "fusion_lon": 0.0, "fusion_lat": 0.0, "lat": 38.91799183333333, "is_reserved": 0}, {"bike_id": "e2f5b30843fc2d54eceda1f6e90554cf", "name": "e2f5b30843fc2d54eceda1f6e90554cf", "rental_uris": {"ios": "https://dc.lft.to/lastmile_qr_scan", "android": "https://dc.lft.to/lastmile_qr_scan"}, "lon": -77.03722883333333, "is_disabled": 0, "type": "electric_scooter", "fusion_lon": 0.0, "fusion_lat": 0.0, "lat": 38.880729, "is_reserved": 0}, {"bike_id": "7d15493ad86c63421a0b360c626c06cf", "name": "7d15493ad86c63421a0b360c626c06cf", "rental_uris": {"ios": "https://dc.lft.to/lastmile_qr_scan", "android": "https://dc.lft.to/lastmile_qr_scan"}, "lon": -77.04343866666666, "is_disabled": 0, "type": "electric_scooter", "fusion_lon": 0.0, "fusion_lat": 0.0, "lat": 38.90048433333333, "is_reserved": 0}, {"bike_id": "e9662ca97cff73b8f64486fbb038ec13", "name": "e9662ca97cff73b8f64486fbb038ec13", "rental_uris": {"ios": "https://dc.lft.to/lastmile_qr_scan", "android": "https://dc.lft.to/lastmile_qr_scan"}, "lon": -76.95917, "is_disabled": 0, "type": "electric_bike", "fusion_lon": 0.0, "fusion_lat": 0.0, "lat": 38.94924483333333, "is_reserved": 0}, {"bike_id": "d6265dd8d9a638f3fa725563a0c0ca9b", "name": "d6265dd8d9a638f3fa725563a0c0ca9b", "rental_uris": {"ios": "https://dc.lft.to/lastmile_qr_scan", "android": "https://dc.lft.to/lastmile_qr_scan"}, "lon": -77.03184833333333, "is_disabled": 0, "type": "electric_scooter", "fusion_lon": 0.0, "fusion_lat": 0.0, "lat": 38.91548316666667, "is_reserved": 0}, {"bike_id": "66fd0dbbfaffb57fe646a5b3842c9fa8", "name": "66fd0dbbfaffb57fe646a5b3842c9fa8", "rental_uris": {"ios": "https://dc.lft.to/lastmile_qr_scan", "android": "https://dc.lft.to/lastmile_qr_scan"}, "lon": -77.0319515, "is_disabled": 0, "type": "electric_scooter", "fusion_lon": 0.0, "fusion_lat": 0.0, "lat": 38.915991, "is_reserved": 0}, {"bike_id": "ed80885eb86cb0ba403a88759870014b", "name": "ed80885eb86cb0ba403a88759870014b", "rental_uris": {"ios": "https://dc.lft.to/lastmile_qr_scan", "android": "https://dc.lft.to/lastmile_qr_scan"}, "lon": -77.02297133333333, "is_disabled": 0, "type": "electric_bike", "fusion_lon": 0.0, "fusion_lat": 0.0, "lat": 38.9298405, "is_reserved": 0}, {"bike_id": "a3659812e4370af9a7746381aa8ba686", "name": "a3659812e4370af9a7746381aa8ba686", "rental_uris": {"ios": "https://dc.lft.to/lastmile_qr_scan", "android": "https://dc.lft.to/lastmile_qr_scan"}, "lon": -77.01671116666667, "is_disabled": 0, "type": "electric_scooter", "fusion_lon": 0.0, "fusion_lat": 0.0, "lat": 38.90036766666667, "is_reserved": 0}, {"bike_id": "046094e1d9ff2b0a8f64b426fcc1d5b0", "name": "046094e1d9ff2b0a8f64b426fcc1d5b0", "rental_uris": {"ios": "https://dc.lft.to/lastmile_qr_scan", "android": "https://dc.lft.to/lastmile_qr_scan"}, "lon": -77.033809, "is_disabled": 0, "type": "electric_scooter", "fusion_lon": 0.0, "fusion_lat": 0.0, "lat": 38.921524166666664, "is_reserved": 0}, {"bike_id": "58f6e2279b507626f398dbb7d1f3233a", "name": "58f6e2279b507626f398dbb7d1f3233a", "rental_uris": {"ios": "https://dc.lft.to/lastmile_qr_scan", "android": "https://dc.lft.to/lastmile_qr_scan"}, "lon": -77.00163766666667, "is_disabled": 0, "type": "electric_bike", "fusion_lon": 0.0, "fusion_lat": 0.0, "lat": 38.8993125, "is_reserved": 0}, {"bike_id": "faac93aeda913a516e1e6e36fb797b78", "name": "faac93aeda913a516e1e6e36fb797b78", "rental_uris": {"ios": "https://dc.lft.to/lastmile_qr_scan", "android": "https://dc.lft.to/lastmile_qr_scan"}, "lon": -76.929757, "is_disabled": 0, "type": "electric_scooter", "fusion_lon": 0.0, "fusion_lat": 0.0, "lat": 38.89612433333333, "is_reserved": 0}, {"bike_id": "e61c417d38513cbf1a46f2001d44b5e6", "name": "e61c417d38513cbf1a46f2001d44b5e6", "rental_uris": {"ios": "https://dc.lft.to/lastmile_qr_scan", "android": "https://dc.lft.to/lastmile_qr_scan"}, "lon": -77.031835, "is_disabled": 0, "type": "electric_scooter", "fusion_lon": 0.0, "fusion_lat": 0.0, "lat": 38.90978066666667, "is_reserved": 0}, {"bike_id": "caffb7c82dc5e6608104523b01f73404", "name": "caffb7c82dc5e6608104523b01f73404", "rental_uris": {"ios": "https://dc.lft.to/lastmile_qr_scan", "android": "https://dc.lft.to/lastmile_qr_scan"}, "lon": -77.08060833333333, "is_disabled": 0, "type": "electric_scooter", "fusion_lon": 0.0, "fusion_lat": 0.0, "lat": 38.923714333333336, "is_reserved": 0}, {"bike_id": "623c3391adfc51a5692e9c1796564415", "name": "623c3391adfc51a5692e9c1796564415", "rental_uris": {"ios": "https://dc.lft.to/lastmile_qr_scan", "android": "https://dc.lft.to/lastmile_qr_scan"}, "lon": -76.991606, "is_disabled": 0, "type": "electric_bike", "fusion_lon": 0.0, "fusion_lat": 0.0, "lat": 38.891294, "is_reserved": 0}, {"bike_id": "91bf576f22c0c5fb36f349b5e3066242", "name": "91bf576f22c0c5fb36f349b5e3066242", "rental_uris": {"ios": "https://dc.lft.to/lastmile_qr_scan", "android": "https://dc.lft.to/lastmile_qr_scan"}, "lon": -77.06008616666666, "is_disabled": 0, "type": "electric_scooter", "fusion_lon": 0.0, "fusion_lat": 0.0, "lat": 38.93635616666667, "is_reserved": 0}, {"bike_id": "f27d1fb04a060194b5e0765aa091fbc5", "name": "f27d1fb04a060194b5e0765aa091fbc5", "rental_uris": {"ios": "https://dc.lft.to/lastmile_qr_scan", "android": "https://dc.lft.to/lastmile_qr_scan"}, "lon": -77.13457216666667, "is_disabled": 0, "type": "electric_bike", "fusion_lon": 0.0, "fusion_lat": 0.0, "lat": 39.0943315, "is_reserved": 0}, {"bike_id": "7e2daacd690d5a7e608e4fe03788e27c", "name": "7e2daacd690d5a7e608e4fe03788e27c", "rental_uris": {"ios": "https://dc.lft.to/lastmile_qr_scan", "android": "https://dc.lft.to/lastmile_qr_scan"}, "lon": -77.03205466666667, "is_disabled": 0, "type": "electric_scooter", "fusion_lon": 0.0, "fusion_lat": 0.0, "lat": 38.91568083333333, "is_reserved": 0}, {"bike_id": "1a0c334cc08cc66628cae3c5ec001be8", "name": "1a0c334cc08cc66628cae3c5ec001be8", "rental_uris": {"ios": "https://dc.lft.to/lastmile_qr_scan", "android": "https://dc.lft.to/lastmile_qr_scan"}, "lon": -76.99119933333333, "is_disabled": 0, "type": "electric_scooter", "fusion_lon": 0.0, "fusion_lat": 0.0, "lat": 38.897083333333335, "is_reserved": 0}, {"bike_id": "980836dfcc0e6297b8452466e94b6b69", "name": "980836dfcc0e6297b8452466e94b6b69", "rental_uris": {"ios": "https://dc.lft.to/lastmile_qr_scan", "android": "https://dc.lft.to/lastmile_qr_scan"}, "lon": -77.044711, "is_disabled": 0, "type": "electric_scooter", "fusion_lon": 0.0, "fusion_lat": 0.0, "lat": 38.900167, "is_reserved": 0}, {"bike_id": "7159d2893d9d76930a29abd0f322e945", "name": "7159d2893d9d76930a29abd0f322e945", "rental_uris": {"ios": "https://dc.lft.to/lastmile_qr_scan", "android": "https://dc.lft.to/lastmile_qr_scan"}, "lon": -77.032753, "is_disabled": 0, "type": "electric_scooter", "fusion_lon": 0.0, "fusion_lat": 0.0, "lat": 38.939447333333334, "is_reserved": 0}, {"bike_id": "6c02af94774382b459fdd6a531feb390", "name": "6c02af94774382b459fdd6a531feb390", "rental_uris": {"ios": "https://dc.lft.to/lastmile_qr_scan", "android": "https://dc.lft.to/lastmile_qr_scan"}, "lon": -77.012316, "is_disabled": 0, "type": "electric_scooter", "fusion_lon": 0.0, "fusion_lat": 0.0, "lat": 38.915962666666665, "is_reserved": 0}, {"bike_id": "a037205d3f4c6cc90161b500cccc91b7", "name": "a037205d3f4c6cc90161b500cccc91b7", "rental_uris": {"ios": "https://dc.lft.to/lastmile_qr_scan", "android": "https://dc.lft.to/lastmile_qr_scan"}, "lon": -76.98916266666667, "is_disabled": 0, "type": "electric_scooter", "fusion_lon": 0.0, "fusion_lat": 0.0, "lat": 38.9003025, "is_reserved": 0}, {"bike_id": "6305ccb38a12f807e8378e6ecce4c49e", "name": "6305ccb38a12f807e8378e6ecce4c49e", "rental_uris": {"ios": "https://dc.lft.to/lastmile_qr_scan", "android": "https://dc.lft.to/lastmile_qr_scan"}, "lon": -77.02990916666667, "is_disabled": 0, "type": "electric_scooter", "fusion_lon": 0.0, "fusion_lat": 0.0, "lat": 38.8953475, "is_reserved": 0}, {"bike_id": "4c50809a9e9c4d5126f46f53c71309ee", "name": "4c50809a9e9c4d5126f46f53c71309ee", "rental_uris": {"ios": "https://dc.lft.to/lastmile_qr_scan", "android": "https://dc.lft.to/lastmile_qr_scan"}, "lon": -77.02351633333333, "is_disabled": 0, "type": "electric_scooter", "fusion_lon": 0.0, "fusion_lat": 0.0, "lat": 38.93180566666667, "is_reserved": 0}, {"bike_id": "d6c6c0ac4a464e2c3a9d6060d7a90eaf", "name": "d6c6c0ac4a464e2c3a9d6060d7a90eaf", "rental_uris": {"ios": "https://dc.lft.to/lastmile_qr_scan", "android": "https://dc.lft.to/lastmile_qr_scan"}, "lon": -77.03188383333334, "is_disabled": 0, "type": "electric_scooter", "fusion_lon": 0.0, "fusion_lat": 0.0, "lat": 38.89727666666667, "is_reserved": 0}, {"bike_id": "13b46f86ac45f5eec6f3e7f4e9dbfb17", "name": "13b46f86ac45f5eec6f3e7f4e9dbfb17", "rental_uris": {"ios": "https://dc.lft.to/lastmile_qr_scan", "android": "https://dc.lft.to/lastmile_qr_scan"}, "lon": -77.0239715, "is_disabled": 0, "type": "electric_scooter", "fusion_lon": 0.0, "fusion_lat": 0.0, "lat": 38.916051, "is_reserved": 0}, {"bike_id": "7ff2f49d8c50aa3db330860c8aa22637", "name": "7ff2f49d8c50aa3db330860c8aa22637", "rental_uris": {"ios": "https://dc.lft.to/lastmile_qr_scan", "android": "https://dc.lft.to/lastmile_qr_scan"}, "lon": -77.05542466666667, "is_disabled": 0, "type": "electric_scooter", "fusion_lon": 0.0, "fusion_lat": 0.0, "lat": 38.927969833333336, "is_reserved": 0}, {"bike_id": "7ce03af8c55aa31ea188bb0762fac357", "name": "7ce03af8c55aa31ea188bb0762fac357", "rental_uris": {"ios": "https://dc.lft.to/lastmile_qr_scan", "android": "https://dc.lft.to/lastmile_qr_scan"}, "lon": -77.0304955, "is_disabled": 0, "type": "electric_scooter", "fusion_lon": 0.0, "fusion_lat": 0.0, "lat": 38.924783833333336, "is_reserved": 0}, {"bike_id": "c8e44170dc3c2bfd21cea50b18f58f0d", "name": "c8e44170dc3c2bfd21cea50b18f58f0d", "rental_uris": {"ios": "https://dc.lft.to/lastmile_qr_scan", "android": "https://dc.lft.to/lastmile_qr_scan"}, "lon": -77.02372866666667, "is_disabled": 0, "type": "electric_scooter", "fusion_lon": 0.0, "fusion_lat": 0.0, "lat": 38.90192033333334, "is_reserved": 0}, {"bike_id": "ac2c31f610afd18a72df3a1fb8021a5f", "name": "ac2c31f610afd18a72df3a1fb8021a5f", "rental_uris": {"ios": "https://dc.lft.to/lastmile_qr_scan", "android": "https://dc.lft.to/lastmile_qr_scan"}, "lon": -76.9809625, "is_disabled": 0, "type": "electric_scooter", "fusion_lon": 0.0, "fusion_lat": 0.0, "lat": 38.903913, "is_reserved": 0}, {"bike_id": "2ef49bd553abda2ae30f67181ad67b6d", "name": "2ef49bd553abda2ae30f67181ad67b6d", "rental_uris": {"ios": "https://dc.lft.to/lastmile_qr_scan", "android": "https://dc.lft.to/lastmile_qr_scan"}, "lon": -77.01773483333334, "is_disabled": 0, "type": "electric_scooter", "fusion_lon": 0.0, "fusion_lat": 0.0, "lat": 38.9024735, "is_reserved": 0}, {"bike_id": "dc4770e927103ce1d0870b5418a7a2b4", "name": "dc4770e927103ce1d0870b5418a7a2b4", "rental_uris": {"ios": "https://dc.lft.to/lastmile_qr_scan", "android": "https://dc.lft.to/lastmile_qr_scan"}, "lon": -77.03983466666666, "is_disabled": 0, "type": "electric_scooter", "fusion_lon": 0.0, "fusion_lat": 0.0, "lat": 38.89223633333334, "is_reserved": 0}, {"bike_id": "0e1337e9f643fab983bb6ebf3846911a", "name": "0e1337e9f643fab983bb6ebf3846911a", "rental_uris": {"ios": "https://dc.lft.to/lastmile_qr_scan", "android": "https://dc.lft.to/lastmile_qr_scan"}, "lon": -77.04080916666666, "is_disabled": 0, "type": "electric_scooter", "fusion_lon": 0.0, "fusion_lat": 0.0, "lat": 38.92651133333333, "is_reserved": 0}, {"bike_id": "0872c309a77ea04fc282a71b9342d0a4", "name": "0872c309a77ea04fc282a71b9342d0a4", "rental_uris": {"ios": "https://dc.lft.to/lastmile_qr_scan", "android": "https://dc.lft.to/lastmile_qr_scan"}, "lon": -77.0312195, "is_disabled": 0, "type": "electric_scooter", "fusion_lon": 0.0, "fusion_lat": 0.0, "lat": 38.8952145, "is_reserved": 0}, {"bike_id": "04f81ca548ee715282ebe9bbab43b33d", "name": "04f81ca548ee715282ebe9bbab43b33d", "rental_uris": {"ios": "https://dc.lft.to/lastmile_qr_scan", "android": "https://dc.lft.to/lastmile_qr_scan"}, "lon": -76.868491, "is_disabled": 0, "type": "electric_bike", "fusion_lon": 0.0, "fusion_lat": 0.0, "lat": 38.89388733333333, "is_reserved": 0}, {"bike_id": "1a0ad8efc6cf3c65ab98cef0587b9f31", "name": "1a0ad8efc6cf3c65ab98cef0587b9f31", "rental_uris": {"ios": "https://dc.lft.to/lastmile_qr_scan", "android": "https://dc.lft.to/lastmile_qr_scan"}, "lon": -77.0201965, "is_disabled": 0, "type": "electric_scooter", "fusion_lon": 0.0, "fusion_lat": 0.0, "lat": 38.87660833333333, "is_reserved": 0}, {"bike_id": "69391aa1b8a8865dce61aa8ef96952de", "name": "69391aa1b8a8865dce61aa8ef96952de", "rental_uris": {"ios": "https://dc.lft.to/lastmile_qr_scan", "android": "https://dc.lft.to/lastmile_qr_scan"}, "lon": -77.037975, "is_disabled": 0, "type": "electric_scooter", "fusion_lon": 0.0, "fusion_lat": 0.0, "lat": 38.92495183333333, "is_reserved": 0}, {"bike_id": "5efe158f12c926eb68ee74f6651a855a", "name": "5efe158f12c926eb68ee74f6651a855a", "rental_uris": {"ios": "https://dc.lft.to/lastmile_qr_scan", "android": "https://dc.lft.to/lastmile_qr_scan"}, "lon": -77.02821116666667, "is_disabled": 0, "type": "electric_scooter", "fusion_lon": 0.0, "fusion_lat": 0.0, "lat": 38.90391833333334, "is_reserved": 0}, {"bike_id": "eed983bc732ba796f77c45270816c53e", "name": "eed983bc732ba796f77c45270816c53e", "rental_uris": {"ios": "https://dc.lft.to/lastmile_qr_scan", "android": "https://dc.lft.to/lastmile_qr_scan"}, "lon": -77.0225755, "is_disabled": 0, "type": "electric_scooter", "fusion_lon": 0.0, "fusion_lat": 0.0, "lat": 38.9232995, "is_reserved": 0}, {"bike_id": "a7f6174b224d067d66dafb5f7aaf1cd6", "name": "a7f6174b224d067d66dafb5f7aaf1cd6", "rental_uris": {"ios": "https://dc.lft.to/lastmile_qr_scan", "android": "https://dc.lft.to/lastmile_qr_scan"}, "lon": -77.02141683333333, "is_disabled": 0, "type": "electric_scooter", "fusion_lon": 0.0, "fusion_lat": 0.0, "lat": 38.925028166666664, "is_reserved": 0}, {"bike_id": "ca10f7dd28b979f95d07ec14e22e074f", "name": "ca10f7dd28b979f95d07ec14e22e074f", "rental_uris": {"ios": "https://dc.lft.to/lastmile_qr_scan", "android": "https://dc.lft.to/lastmile_qr_scan"}, "lon": -77.03246533333333, "is_disabled": 0, "type": "electric_scooter", "fusion_lon": 0.0, "fusion_lat": 0.0, "lat": 38.91475033333333, "is_reserved": 0}, {"bike_id": "0a283abced080b925092dd2edf67455f", "name": "0a283abced080b925092dd2edf67455f", "rental_uris": {"ios": "https://dc.lft.to/lastmile_qr_scan", "android": "https://dc.lft.to/lastmile_qr_scan"}, "lon": -77.03932216666666, "is_disabled": 0, "type": "electric_scooter", "fusion_lon": 0.0, "fusion_lat": 0.0, "lat": 38.9126025, "is_reserved": 0}, {"bike_id": "4439dc16947115f6b180e0ba5772b90c", "name": "4439dc16947115f6b180e0ba5772b90c", "rental_uris": {"ios": "https://dc.lft.to/lastmile_qr_scan", "android": "https://dc.lft.to/lastmile_qr_scan"}, "lon": -77.00223683333333, "is_disabled": 0, "type": "electric_scooter", "fusion_lon": 0.0, "fusion_lat": 0.0, "lat": 38.88501766666667, "is_reserved": 0}, {"bike_id": "8fa29719901ccb98341a34828787fe54", "name": "8fa29719901ccb98341a34828787fe54", "rental_uris": {"ios": "https://dc.lft.to/lastmile_qr_scan", "android": "https://dc.lft.to/lastmile_qr_scan"}, "lon": -77.049554, "is_disabled": 0, "type": "electric_bike", "fusion_lon": 0.0, "fusion_lat": 0.0, "lat": 39.010906, "is_reserved": 0}, {"bike_id": "34c970644820d7b3618ace55c00e02f8", "name": "34c970644820d7b3618ace55c00e02f8", "rental_uris": {"ios": "https://dc.lft.to/lastmile_qr_scan", "android": "https://dc.lft.to/lastmile_qr_scan"}, "lon": -77.03985233333333, "is_disabled": 0, "type": "electric_scooter", "fusion_lon": 0.0, "fusion_lat": 0.0, "lat": 38.892227166666665, "is_reserved": 0}, {"bike_id": "6d606e7401ce6092ad023e0375339cd8", "name": "6d606e7401ce6092ad023e0375339cd8", "rental_uris": {"ios": "https://dc.lft.to/lastmile_qr_scan", "android": "https://dc.lft.to/lastmile_qr_scan"}, "lon": -77.02964516666667, "is_disabled": 0, "type": "electric_scooter", "fusion_lon": 0.0, "fusion_lat": 0.0, "lat": 38.9303315, "is_reserved": 0}, {"bike_id": "b68de604be1758134063e8421d711aca", "name": "b68de604be1758134063e8421d711aca", "rental_uris": {"ios": "https://dc.lft.to/lastmile_qr_scan", "android": "https://dc.lft.to/lastmile_qr_scan"}, "lon": -77.02206483333333, "is_disabled": 0, "type": "electric_scooter", "fusion_lon": 0.0, "fusion_lat": 0.0, "lat": 38.92148866666667, "is_reserved": 0}, {"bike_id": "4e15fd4fd7ffb07d610ae3c959c88371", "name": "4e15fd4fd7ffb07d610ae3c959c88371", "rental_uris": {"ios": "https://dc.lft.to/lastmile_qr_scan", "android": "https://dc.lft.to/lastmile_qr_scan"}, "lon": -77.036478, "is_disabled": 0, "type": "electric_scooter", "fusion_lon": 0.0, "fusion_lat": 0.0, "lat": 38.92349083333333, "is_reserved": 0}, {"bike_id": "f446fc50ee4e44188ac2424dc4987709", "name": "f446fc50ee4e44188ac2424dc4987709", "rental_uris": {"ios": "https://dc.lft.to/lastmile_qr_scan", "android": "https://dc.lft.to/lastmile_qr_scan"}, "lon": -77.01685966666666, "is_disabled": 0, "type": "electric_scooter", "fusion_lon": 0.0, "fusion_lat": 0.0, "lat": 38.87934816666667, "is_reserved": 0}, {"bike_id": "2eb8dba45d33916e0de8098713f9fa67", "name": "2eb8dba45d33916e0de8098713f9fa67", "rental_uris": {"ios": "https://dc.lft.to/lastmile_qr_scan", "android": "https://dc.lft.to/lastmile_qr_scan"}, "lon": -77.02511866666667, "is_disabled": 0, "type": "electric_scooter", "fusion_lon": 0.0, "fusion_lat": 0.0, "lat": 38.926376, "is_reserved": 0}, {"bike_id": "54a16364e17c86337a1851846ce111aa", "name": "54a16364e17c86337a1851846ce111aa", "rental_uris": {"ios": "https://dc.lft.to/lastmile_qr_scan", "android": "https://dc.lft.to/lastmile_qr_scan"}, "lon": -77.03843383333333, "is_disabled": 0, "type": "electric_scooter", "fusion_lon": 0.0, "fusion_lat": 0.0, "lat": 38.91008, "is_reserved": 0}, {"bike_id": "d9498c866f3137515d9412ef6585793e", "name": "d9498c866f3137515d9412ef6585793e", "rental_uris": {"ios": "https://dc.lft.to/lastmile_qr_scan", "android": "https://dc.lft.to/lastmile_qr_scan"}, "lon": -77.02983683333333, "is_disabled": 0, "type": "electric_scooter", "fusion_lon": 0.0, "fusion_lat": 0.0, "lat": 38.93445966666667, "is_reserved": 0}, {"bike_id": "529724feb038cfd47ff6e262d4808ab4", "name": "529724feb038cfd47ff6e262d4808ab4", "rental_uris": {"ios": "https://dc.lft.to/lastmile_qr_scan", "android": "https://dc.lft.to/lastmile_qr_scan"}, "lon": -77.02713983333334, "is_disabled": 0, "type": "electric_scooter", "fusion_lon": 0.0, "fusion_lat": 0.0, "lat": 38.927825, "is_reserved": 0}, {"bike_id": "875148ad6424ea52e79cde77c54807b5", "name": "875148ad6424ea52e79cde77c54807b5", "rental_uris": {"ios": "https://dc.lft.to/lastmile_qr_scan", "android": "https://dc.lft.to/lastmile_qr_scan"}, "lon": -77.0295695, "is_disabled": 0, "type": "electric_scooter", "fusion_lon": 0.0, "fusion_lat": 0.0, "lat": 38.923819333333334, "is_reserved": 0}, {"bike_id": "9bc91bee115d59e1e2ca74e5a28fff41", "name": "9bc91bee115d59e1e2ca74e5a28fff41", "rental_uris": {"ios": "https://dc.lft.to/lastmile_qr_scan", "android": "https://dc.lft.to/lastmile_qr_scan"}, "lon": -77.05333783333333, "is_disabled": 0, "type": "electric_scooter", "fusion_lon": 0.0, "fusion_lat": 0.0, "lat": 38.904233166666664, "is_reserved": 0}, {"bike_id": "aba3565b4242d7bf54c29d568465ccd7", "name": "aba3565b4242d7bf54c29d568465ccd7", "rental_uris": {"ios": "https://dc.lft.to/lastmile_qr_scan", "android": "https://dc.lft.to/lastmile_qr_scan"}, "lon": -77.047764, "is_disabled": 0, "type": "electric_scooter", "fusion_lon": 0.0, "fusion_lat": 0.0, "lat": 38.900829, "is_reserved": 0}, {"bike_id": "4f12011783c499eb6f8729bc23bad2f6", "name": "4f12011783c499eb6f8729bc23bad2f6", "rental_uris": {"ios": "https://dc.lft.to/lastmile_qr_scan", "android": "https://dc.lft.to/lastmile_qr_scan"}, "lon": -77.0464145, "is_disabled": 0, "type": "electric_scooter", "fusion_lon": 0.0, "fusion_lat": 0.0, "lat": 38.915624, "is_reserved": 0}, {"bike_id": "caa962d0c13e64aeeaf82164d2baed24", "name": "caa962d0c13e64aeeaf82164d2baed24", "rental_uris": {"ios": "https://dc.lft.to/lastmile_qr_scan", "android": "https://dc.lft.to/lastmile_qr_scan"}, "lon": -77.03516166666667, "is_disabled": 0, "type": "electric_scooter", "fusion_lon": 0.0, "fusion_lat": 0.0, "lat": 38.9311105, "is_reserved": 0}, {"bike_id": "98268d5e7f827d0e66cbcd9993d60800", "name": "98268d5e7f827d0e66cbcd9993d60800", "rental_uris": {"ios": "https://dc.lft.to/lastmile_qr_scan", "android": "https://dc.lft.to/lastmile_qr_scan"}, "lon": -77.1284055, "is_disabled": 0, "type": "electric_bike", "fusion_lon": 0.0, "fusion_lat": 0.0, "lat": 38.800538, "is_reserved": 0}, {"bike_id": "c369e36aae740dd46a6ea89aee11e5e3", "name": "c369e36aae740dd46a6ea89aee11e5e3", "rental_uris": {"ios": "https://dc.lft.to/lastmile_qr_scan", "android": "https://dc.lft.to/lastmile_qr_scan"}, "lon": -76.9977435, "is_disabled": 0, "type": "electric_scooter", "fusion_lon": 0.0, "fusion_lat": 0.0, "lat": 38.89424266666666, "is_reserved": 0}, {"bike_id": "25e0a0def4158d6215810980176e2a52", "name": "25e0a0def4158d6215810980176e2a52", "rental_uris": {"ios": "https://dc.lft.to/lastmile_qr_scan", "android": "https://dc.lft.to/lastmile_qr_scan"}, "lon": -77.00215316666667, "is_disabled": 0, "type": "electric_scooter", "fusion_lon": 0.0, "fusion_lat": 0.0, "lat": 38.91487633333333, "is_reserved": 0}, {"bike_id": "9f6996cf8709c74729831210d56fb3d7", "name": "9f6996cf8709c74729831210d56fb3d7", "rental_uris": {"ios": "https://dc.lft.to/lastmile_qr_scan", "android": "https://dc.lft.to/lastmile_qr_scan"}, "lon": -77.0162925, "is_disabled": 0, "type": "electric_scooter", "fusion_lon": 0.0, "fusion_lat": 0.0, "lat": 38.899517, "is_reserved": 0}, {"bike_id": "ce96b3b5603cb1cc83abb9087842cb8f", "name": "ce96b3b5603cb1cc83abb9087842cb8f", "rental_uris": {"ios": "https://dc.lft.to/lastmile_qr_scan", "android": "https://dc.lft.to/lastmile_qr_scan"}, "lon": -76.9995355, "is_disabled": 0, "type": "electric_scooter", "fusion_lon": 0.0, "fusion_lat": 0.0, "lat": 38.9235055, "is_reserved": 0}, {"bike_id": "40fee7195dac69202a6cd5aadbd5336d", "name": "40fee7195dac69202a6cd5aadbd5336d", "rental_uris": {"ios": "https://dc.lft.to/lastmile_qr_scan", "android": "https://dc.lft.to/lastmile_qr_scan"}, "lon": -76.9985145, "is_disabled": 0, "type": "electric_scooter", "fusion_lon": 0.0, "fusion_lat": 0.0, "lat": 38.89625266666667, "is_reserved": 0}, {"bike_id": "2c4fe3d4463bc268523d0bb354d5bf71", "name": "2c4fe3d4463bc268523d0bb354d5bf71", "rental_uris": {"ios": "https://dc.lft.to/lastmile_qr_scan", "android": "https://dc.lft.to/lastmile_qr_scan"}, "lon": -77.01748383333333, "is_disabled": 0, "type": "electric_scooter", "fusion_lon": 0.0, "fusion_lat": 0.0, "lat": 38.88733716666667, "is_reserved": 0}, {"bike_id": "67e27499aba6c9425777a59d36c9ee14", "name": "67e27499aba6c9425777a59d36c9ee14", "rental_uris": {"ios": "https://dc.lft.to/lastmile_qr_scan", "android": "https://dc.lft.to/lastmile_qr_scan"}, "lon": -76.98660116666667, "is_disabled": 0, "type": "electric_scooter", "fusion_lon": 0.0, "fusion_lat": 0.0, "lat": 38.86867516666667, "is_reserved": 0}, {"bike_id": "307414cfaf70333effd08694da511f92", "name": "307414cfaf70333effd08694da511f92", "rental_uris": {"ios": "https://dc.lft.to/lastmile_qr_scan", "android": "https://dc.lft.to/lastmile_qr_scan"}, "lon": -77.02196116666667, "is_disabled": 0, "type": "electric_scooter", "fusion_lon": 0.0, "fusion_lat": 0.0, "lat": 38.9164545, "is_reserved": 0}, {"bike_id": "2ad37f8dc2a042ac20a875491a2da315", "name": "2ad37f8dc2a042ac20a875491a2da315", "rental_uris": {"ios": "https://dc.lft.to/lastmile_qr_scan", "android": "https://dc.lft.to/lastmile_qr_scan"}, "lon": -77.045362, "is_disabled": 0, "type": "electric_scooter", "fusion_lon": 0.0, "fusion_lat": 0.0, "lat": 38.90560033333333, "is_reserved": 0}, {"bike_id": "9b69773cc21b87aced77efce2b1d0b58", "name": "9b69773cc21b87aced77efce2b1d0b58", "rental_uris": {"ios": "https://dc.lft.to/lastmile_qr_scan", "android": "https://dc.lft.to/lastmile_qr_scan"}, "lon": -77.0242025, "is_disabled": 0, "type": "electric_scooter", "fusion_lon": 0.0, "fusion_lat": 0.0, "lat": 38.879577166666664, "is_reserved": 0}, {"bike_id": "07432594fde2d012c813054753fe8d86", "name": "07432594fde2d012c813054753fe8d86", "rental_uris": {"ios": "https://dc.lft.to/lastmile_qr_scan", "android": "https://dc.lft.to/lastmile_qr_scan"}, "lon": -77.02696133333333, "is_disabled": 0, "type": "electric_scooter", "fusion_lon": 0.0, "fusion_lat": 0.0, "lat": 38.9246765, "is_reserved": 0}, {"bike_id": "54a52fbf81800a866790bb27b281f53a", "name": "54a52fbf81800a866790bb27b281f53a", "rental_uris": {"ios": "https://dc.lft.to/lastmile_qr_scan", "android": "https://dc.lft.to/lastmile_qr_scan"}, "lon": -77.03187533333333, "is_disabled": 0, "type": "electric_scooter", "fusion_lon": 0.0, "fusion_lat": 0.0, "lat": 38.91218633333333, "is_reserved": 0}, {"bike_id": "f71bdc150339a02347e06509993fa7ac", "name": "f71bdc150339a02347e06509993fa7ac", "rental_uris": {"ios": "https://dc.lft.to/lastmile_qr_scan", "android": "https://dc.lft.to/lastmile_qr_scan"}, "lon": -77.00201316666667, "is_disabled": 0, "type": "electric_scooter", "fusion_lon": 0.0, "fusion_lat": 0.0, "lat": 38.88677066666666, "is_reserved": 0}, {"bike_id": "57a8a9488fde4a4941cc161ebd00b5fb", "name": "57a8a9488fde4a4941cc161ebd00b5fb", "rental_uris": {"ios": "https://dc.lft.to/lastmile_qr_scan", "android": "https://dc.lft.to/lastmile_qr_scan"}, "lon": -77.03842166666666, "is_disabled": 0, "type": "electric_scooter", "fusion_lon": 0.0, "fusion_lat": 0.0, "lat": 38.911990333333335, "is_reserved": 0}, {"bike_id": "b22038dfce7b156027b928b907eee179", "name": "b22038dfce7b156027b928b907eee179", "rental_uris": {"ios": "https://dc.lft.to/lastmile_qr_scan", "android": "https://dc.lft.to/lastmile_qr_scan"}, "lon": -77.000243, "is_disabled": 0, "type": "electric_scooter", "fusion_lon": 0.0, "fusion_lat": 0.0, "lat": 38.95904866666667, "is_reserved": 0}, {"bike_id": "57802f1c6001b4e2a6b48b0ee3c9bfa0", "name": "57802f1c6001b4e2a6b48b0ee3c9bfa0", "rental_uris": {"ios": "https://dc.lft.to/lastmile_qr_scan", "android": "https://dc.lft.to/lastmile_qr_scan"}, "lon": -77.04874216666667, "is_disabled": 0, "type": "electric_scooter", "fusion_lon": 0.0, "fusion_lat": 0.0, "lat": 38.91563216666667, "is_reserved": 0}, {"bike_id": "8bf2753d7563e4340395916912a00704", "name": "8bf2753d7563e4340395916912a00704", "rental_uris": {"ios": "https://dc.lft.to/lastmile_qr_scan", "android": "https://dc.lft.to/lastmile_qr_scan"}, "lon": -77.02179816666667, "is_disabled": 0, "type": "electric_scooter", "fusion_lon": 0.0, "fusion_lat": 0.0, "lat": 38.89734466666667, "is_reserved": 0}, {"bike_id": "48e22854acf522f863a9dbc03ee8f463", "name": "48e22854acf522f863a9dbc03ee8f463", "rental_uris": {"ios": "https://dc.lft.to/lastmile_qr_scan", "android": "https://dc.lft.to/lastmile_qr_scan"}, "lon": -77.03728583333333, "is_disabled": 0, "type": "electric_scooter", "fusion_lon": 0.0, "fusion_lat": 0.0, "lat": 38.930713, "is_reserved": 0}, {"bike_id": "abfac71f2a4e1c30308f0abb5f2e2179", "name": "abfac71f2a4e1c30308f0abb5f2e2179", "rental_uris": {"ios": "https://dc.lft.to/lastmile_qr_scan", "android": "https://dc.lft.to/lastmile_qr_scan"}, "lon": -76.98234433333333, "is_disabled": 0, "type": "electric_scooter", "fusion_lon": 0.0, "fusion_lat": 0.0, "lat": 38.90335683333333, "is_reserved": 0}, {"bike_id": "5ec9e58d4cbd066b65e27df6134b07b0", "name": "5ec9e58d4cbd066b65e27df6134b07b0", "rental_uris": {"ios": "https://dc.lft.to/lastmile_qr_scan", "android": "https://dc.lft.to/lastmile_qr_scan"}, "lon": -76.99712216666667, "is_disabled": 0, "type": "electric_scooter", "fusion_lon": 0.0, "fusion_lat": 0.0, "lat": 38.894696333333336, "is_reserved": 0}, {"bike_id": "f55ee39aca8d33fe6606fbc71b1d8cc4", "name": "f55ee39aca8d33fe6606fbc71b1d8cc4", "rental_uris": {"ios": "https://dc.lft.to/lastmile_qr_scan", "android": "https://dc.lft.to/lastmile_qr_scan"}, "lon": -77.01838616666667, "is_disabled": 0, "type": "electric_scooter", "fusion_lon": 0.0, "fusion_lat": 0.0, "lat": 38.9038135, "is_reserved": 0}, {"bike_id": "cc6bd5058e4e4b08a88daa698c49dee7", "name": "cc6bd5058e4e4b08a88daa698c49dee7", "rental_uris": {"ios": "https://dc.lft.to/lastmile_qr_scan", "android": "https://dc.lft.to/lastmile_qr_scan"}, "lon": -77.00733483333333, "is_disabled": 0, "type": "electric_scooter", "fusion_lon": 0.0, "fusion_lat": 0.0, "lat": 38.876507833333335, "is_reserved": 0}, {"bike_id": "1b872fa18fdd4eb97e932e4d10bffb3d", "name": "1b872fa18fdd4eb97e932e4d10bffb3d", "rental_uris": {"ios": "https://dc.lft.to/lastmile_qr_scan", "android": "https://dc.lft.to/lastmile_qr_scan"}, "lon": -77.003441, "is_disabled": 0, "type": "electric_scooter", "fusion_lon": 0.0, "fusion_lat": 0.0, "lat": 38.89354516666667, "is_reserved": 0}, {"bike_id": "a348b84d114fd38d9ad6c663c3607030", "name": "a348b84d114fd38d9ad6c663c3607030", "rental_uris": {"ios": "https://dc.lft.to/lastmile_qr_scan", "android": "https://dc.lft.to/lastmile_qr_scan"}, "lon": -76.94573083333333, "is_disabled": 0, "type": "electric_bike", "fusion_lon": 0.0, "fusion_lat": 0.0, "lat": 38.86621816666667, "is_reserved": 0}, {"bike_id": "84fb8b8035d363a02d748cbc6e5517c1", "name": "84fb8b8035d363a02d748cbc6e5517c1", "rental_uris": {"ios": "https://dc.lft.to/lastmile_qr_scan", "android": "https://dc.lft.to/lastmile_qr_scan"}, "lon": -76.9773975, "is_disabled": 0, "type": "electric_scooter", "fusion_lon": 0.0, "fusion_lat": 0.0, "lat": 38.90493016666667, "is_reserved": 0}, {"bike_id": "6d8f91df197be45589ce16f08365fdc3", "name": "6d8f91df197be45589ce16f08365fdc3", "rental_uris": {"ios": "https://dc.lft.to/lastmile_qr_scan", "android": "https://dc.lft.to/lastmile_qr_scan"}, "lon": -76.99640633333334, "is_disabled": 0, "type": "electric_scooter", "fusion_lon": 0.0, "fusion_lat": 0.0, "lat": 38.88133783333333, "is_reserved": 0}, {"bike_id": "8bfc70271e38368326f9c69289967def", "name": "8bfc70271e38368326f9c69289967def", "rental_uris": {"ios": "https://dc.lft.to/lastmile_qr_scan", "android": "https://dc.lft.to/lastmile_qr_scan"}, "lon": -77.06193216666667, "is_disabled": 0, "type": "electric_scooter", "fusion_lon": 0.0, "fusion_lat": 0.0, "lat": 38.930133833333336, "is_reserved": 0}, {"bike_id": "dd272cfb006f4fa3ee311150d2e41635", "name": "dd272cfb006f4fa3ee311150d2e41635", "rental_uris": {"ios": "https://dc.lft.to/lastmile_qr_scan", "android": "https://dc.lft.to/lastmile_qr_scan"}, "lon": -77.04870883333334, "is_disabled": 0, "type": "electric_scooter", "fusion_lon": 0.0, "fusion_lat": 0.0, "lat": 38.90648733333333, "is_reserved": 0}, {"bike_id": "f8d90cdaa233c57a171dbb63ecbbbe0a", "name": "f8d90cdaa233c57a171dbb63ecbbbe0a", "rental_uris": {"ios": "https://dc.lft.to/lastmile_qr_scan", "android": "https://dc.lft.to/lastmile_qr_scan"}, "lon": -77.02777283333333, "is_disabled": 0, "type": "electric_scooter", "fusion_lon": 0.0, "fusion_lat": 0.0, "lat": 38.961809, "is_reserved": 0}, {"bike_id": "a63b71e6a10d33d26ad6aa55350b30e9", "name": "a63b71e6a10d33d26ad6aa55350b30e9", "rental_uris": {"ios": "https://dc.lft.to/lastmile_qr_scan", "android": "https://dc.lft.to/lastmile_qr_scan"}, "lon": -77.02308566666666, "is_disabled": 0, "type": "electric_scooter", "fusion_lon": 0.0, "fusion_lat": 0.0, "lat": 38.908793, "is_reserved": 0}, {"bike_id": "5a6138f6162b482f9e82a125c7324dad", "name": "5a6138f6162b482f9e82a125c7324dad", "rental_uris": {"ios": "https://dc.lft.to/lastmile_qr_scan", "android": "https://dc.lft.to/lastmile_qr_scan"}, "lon": -76.97834183333333, "is_disabled": 0, "type": "electric_scooter", "fusion_lon": 0.0, "fusion_lat": 0.0, "lat": 38.8991535, "is_reserved": 0}, {"bike_id": "f8ac32fbb1cf693aff99f39e5b1c461a", "name": "f8ac32fbb1cf693aff99f39e5b1c461a", "rental_uris": {"ios": "https://dc.lft.to/lastmile_qr_scan", "android": "https://dc.lft.to/lastmile_qr_scan"}, "lon": -76.98559, "is_disabled": 0, "type": "electric_scooter", "fusion_lon": 0.0, "fusion_lat": 0.0, "lat": 38.897666666666666, "is_reserved": 0}, {"bike_id": "65e22015f7481e772848567cdc41e13f", "name": "65e22015f7481e772848567cdc41e13f", "rental_uris": {"ios": "https://dc.lft.to/lastmile_qr_scan", "android": "https://dc.lft.to/lastmile_qr_scan"}, "lon": -77.04894616666667, "is_disabled": 0, "type": "electric_scooter", "fusion_lon": 0.0, "fusion_lat": 0.0, "lat": 38.9053825, "is_reserved": 0}, {"bike_id": "3657f022e5ad8d21dfc924e0ea1e6e22", "name": "3657f022e5ad8d21dfc924e0ea1e6e22", "rental_uris": {"ios": "https://dc.lft.to/lastmile_qr_scan", "android": "https://dc.lft.to/lastmile_qr_scan"}, "lon": -77.00489883333333, "is_disabled": 0, "type": "electric_scooter", "fusion_lon": 0.0, "fusion_lat": 0.0, "lat": 38.905612, "is_reserved": 0}, {"bike_id": "4a8cf173d1b33cb23d578d41ffbacb8f", "name": "4a8cf173d1b33cb23d578d41ffbacb8f", "rental_uris": {"ios": "https://dc.lft.to/lastmile_qr_scan", "android": "https://dc.lft.to/lastmile_qr_scan"}, "lon": -77.017522, "is_disabled": 0, "type": "electric_scooter", "fusion_lon": 0.0, "fusion_lat": 0.0, "lat": 38.90264833333333, "is_reserved": 0}, {"bike_id": "a713877eef863bf7b77961c4e7f8d4d7", "name": "a713877eef863bf7b77961c4e7f8d4d7", "rental_uris": {"ios": "https://dc.lft.to/lastmile_qr_scan", "android": "https://dc.lft.to/lastmile_qr_scan"}, "lon": -76.97045616666666, "is_disabled": 0, "type": "electric_bike", "fusion_lon": 0.0, "fusion_lat": 0.0, "lat": 38.958905666666666, "is_reserved": 0}, {"bike_id": "fb378c72e9c846d3dc3880e0efa37636", "name": "fb378c72e9c846d3dc3880e0efa37636", "rental_uris": {"ios": "https://dc.lft.to/lastmile_qr_scan", "android": "https://dc.lft.to/lastmile_qr_scan"}, "lon": -76.99574616666666, "is_disabled": 0, "type": "electric_scooter", "fusion_lon": 0.0, "fusion_lat": 0.0, "lat": 38.89483416666667, "is_reserved": 0}, {"bike_id": "ba6e08568a7c0a6f33e5526b023b8ce9", "name": "ba6e08568a7c0a6f33e5526b023b8ce9", "rental_uris": {"ios": "https://dc.lft.to/lastmile_qr_scan", "android": "https://dc.lft.to/lastmile_qr_scan"}, "lon": -77.0322515, "is_disabled": 0, "type": "electric_scooter", "fusion_lon": 0.0, "fusion_lat": 0.0, "lat": 38.908689, "is_reserved": 0}, {"bike_id": "9c38455f6b328c51ded0d82683c8d7f7", "name": "9c38455f6b328c51ded0d82683c8d7f7", "rental_uris": {"ios": "https://dc.lft.to/lastmile_qr_scan", "android": "https://dc.lft.to/lastmile_qr_scan"}, "lon": -77.0478015, "is_disabled": 0, "type": "electric_scooter", "fusion_lon": 0.0, "fusion_lat": 0.0, "lat": 38.90084083333333, "is_reserved": 0}, {"bike_id": "a45470196fddb005584719d9749dac25", "name": "a45470196fddb005584719d9749dac25", "rental_uris": {"ios": "https://dc.lft.to/lastmile_qr_scan", "android": "https://dc.lft.to/lastmile_qr_scan"}, "lon": -77.023014, "is_disabled": 0, "type": "electric_scooter", "fusion_lon": 0.0, "fusion_lat": 0.0, "lat": 38.8964235, "is_reserved": 0}, {"bike_id": "20283277121f7f81a4c38c1461a13040", "name": "20283277121f7f81a4c38c1461a13040", "rental_uris": {"ios": "https://dc.lft.to/lastmile_qr_scan", "android": "https://dc.lft.to/lastmile_qr_scan"}, "lon": -77.033334, "is_disabled": 0, "type": "electric_scooter", "fusion_lon": 0.0, "fusion_lat": 0.0, "lat": 38.898653333333336, "is_reserved": 0}, {"bike_id": "891d748d4ccf3344cddee00f4a1f13e8", "name": "891d748d4ccf3344cddee00f4a1f13e8", "rental_uris": {"ios": "https://dc.lft.to/lastmile_qr_scan", "android": "https://dc.lft.to/lastmile_qr_scan"}, "lon": -77.02237133333334, "is_disabled": 0, "type": "electric_scooter", "fusion_lon": 0.0, "fusion_lat": 0.0, "lat": 38.87852866666667, "is_reserved": 0}, {"bike_id": "3f83b008da2b8f677ae46d4d88fadfa4", "name": "3f83b008da2b8f677ae46d4d88fadfa4", "rental_uris": {"ios": "https://dc.lft.to/lastmile_qr_scan", "android": "https://dc.lft.to/lastmile_qr_scan"}, "lon": -77.0263525, "is_disabled": 0, "type": "electric_scooter", "fusion_lon": 0.0, "fusion_lat": 0.0, "lat": 38.892204666666665, "is_reserved": 0}, {"bike_id": "530729f4ecfea034dd473cc18a6a6f58", "name": "530729f4ecfea034dd473cc18a6a6f58", "rental_uris": {"ios": "https://dc.lft.to/lastmile_qr_scan", "android": "https://dc.lft.to/lastmile_qr_scan"}, "lon": -77.05130216666667, "is_disabled": 0, "type": "electric_scooter", "fusion_lon": 0.0, "fusion_lat": 0.0, "lat": 38.923631, "is_reserved": 0}, {"bike_id": "6b0dc38f99d6cf169aff13db7c3b6c41", "name": "6b0dc38f99d6cf169aff13db7c3b6c41", "rental_uris": {"ios": "https://dc.lft.to/lastmile_qr_scan", "android": "https://dc.lft.to/lastmile_qr_scan"}, "lon": -77.002308, "is_disabled": 0, "type": "electric_scooter", "fusion_lon": 0.0, "fusion_lat": 0.0, "lat": 38.872937, "is_reserved": 0}, {"bike_id": "efe1c7cda9c1eb0648dbf38e8fa16684", "name": "efe1c7cda9c1eb0648dbf38e8fa16684", "rental_uris": {"ios": "https://dc.lft.to/lastmile_qr_scan", "android": "https://dc.lft.to/lastmile_qr_scan"}, "lon": -77.03470516666667, "is_disabled": 0, "type": "electric_scooter", "fusion_lon": 0.0, "fusion_lat": 0.0, "lat": 38.92236333333334, "is_reserved": 0}, {"bike_id": "c8a423d1960d7287a400255098c1473a", "name": "c8a423d1960d7287a400255098c1473a", "rental_uris": {"ios": "https://dc.lft.to/lastmile_qr_scan", "android": "https://dc.lft.to/lastmile_qr_scan"}, "lon": -77.0080975, "is_disabled": 0, "type": "electric_scooter", "fusion_lon": 0.0, "fusion_lat": 0.0, "lat": 38.914071, "is_reserved": 0}, {"bike_id": "24a32b3f95cf6231d6a6219b0f3022f3", "name": "24a32b3f95cf6231d6a6219b0f3022f3", "rental_uris": {"ios": "https://dc.lft.to/lastmile_qr_scan", "android": "https://dc.lft.to/lastmile_qr_scan"}, "lon": -77.0398915, "is_disabled": 0, "type": "electric_scooter", "fusion_lon": 0.0, "fusion_lat": 0.0, "lat": 38.89222816666667, "is_reserved": 0}, {"bike_id": "5597fc53d5bc7fc2448fd242c6409e82", "name": "5597fc53d5bc7fc2448fd242c6409e82", "rental_uris": {"ios": "https://dc.lft.to/lastmile_qr_scan", "android": "https://dc.lft.to/lastmile_qr_scan"}, "lon": -77.037783, "is_disabled": 0, "type": "electric_scooter", "fusion_lon": 0.0, "fusion_lat": 0.0, "lat": 38.92005133333333, "is_reserved": 0}, {"bike_id": "eb55954b3e7717d849862a79497fec38", "name": "eb55954b3e7717d849862a79497fec38", "rental_uris": {"ios": "https://dc.lft.to/lastmile_qr_scan", "android": "https://dc.lft.to/lastmile_qr_scan"}, "lon": -77.063253, "is_disabled": 0, "type": "electric_scooter", "fusion_lon": 0.0, "fusion_lat": 0.0, "lat": 38.94409916666667, "is_reserved": 0}, {"bike_id": "62b17115a107d4c6c0ec2b9798f9a52c", "name": "62b17115a107d4c6c0ec2b9798f9a52c", "rental_uris": {"ios": "https://dc.lft.to/lastmile_qr_scan", "android": "https://dc.lft.to/lastmile_qr_scan"}, "lon": -77.026496, "is_disabled": 0, "type": "electric_scooter", "fusion_lon": 0.0, "fusion_lat": 0.0, "lat": 38.982238833333334, "is_reserved": 0}, {"bike_id": "5993aa4df77dc22fecfd8763aa83c062", "name": "5993aa4df77dc22fecfd8763aa83c062", "rental_uris": {"ios": "https://dc.lft.to/lastmile_qr_scan", "android": "https://dc.lft.to/lastmile_qr_scan"}, "lon": -77.06113533333334, "is_disabled": 0, "type": "electric_scooter", "fusion_lon": 0.0, "fusion_lat": 0.0, "lat": 38.943592333333335, "is_reserved": 0}, {"bike_id": "927a2b89afba25128b8383f08f12026c", "name": "927a2b89afba25128b8383f08f12026c", "rental_uris": {"ios": "https://dc.lft.to/lastmile_qr_scan", "android": "https://dc.lft.to/lastmile_qr_scan"}, "lon": -76.98835183333334, "is_disabled": 0, "type": "electric_scooter", "fusion_lon": 0.0, "fusion_lat": 0.0, "lat": 38.900353833333334, "is_reserved": 0}, {"bike_id": "c41b59a6f91734fc6a95cd6b75708a24", "name": "c41b59a6f91734fc6a95cd6b75708a24", "rental_uris": {"ios": "https://dc.lft.to/lastmile_qr_scan", "android": "https://dc.lft.to/lastmile_qr_scan"}, "lon": -77.02096516666667, "is_disabled": 0, "type": "electric_scooter", "fusion_lon": 0.0, "fusion_lat": 0.0, "lat": 38.9271435, "is_reserved": 0}, {"bike_id": "51815b3090baaabf57b728a207fd7d39", "name": "51815b3090baaabf57b728a207fd7d39", "rental_uris": {"ios": "https://dc.lft.to/lastmile_qr_scan", "android": "https://dc.lft.to/lastmile_qr_scan"}, "lon": -77.042165, "is_disabled": 0, "type": "electric_scooter", "fusion_lon": 0.0, "fusion_lat": 0.0, "lat": 38.90734916666667, "is_reserved": 0}, {"bike_id": "e56d0e58e17ce5fd93d08debd238eac6", "name": "e56d0e58e17ce5fd93d08debd238eac6", "rental_uris": {"ios": "https://dc.lft.to/lastmile_qr_scan", "android": "https://dc.lft.to/lastmile_qr_scan"}, "lon": -77.04589183333333, "is_disabled": 0, "type": "electric_scooter", "fusion_lon": 0.0, "fusion_lat": 0.0, "lat": 38.916092, "is_reserved": 0}, {"bike_id": "2322fcef536579668dd8a71091407a68", "name": "2322fcef536579668dd8a71091407a68", "rental_uris": {"ios": "https://dc.lft.to/lastmile_qr_scan", "android": "https://dc.lft.to/lastmile_qr_scan"}, "lon": -77.00729166666666, "is_disabled": 0, "type": "electric_scooter", "fusion_lon": 0.0, "fusion_lat": 0.0, "lat": 38.9541985, "is_reserved": 0}, {"bike_id": "96c8972435aadfada850f6914e8ed2b4", "name": "96c8972435aadfada850f6914e8ed2b4", "rental_uris": {"ios": "https://dc.lft.to/lastmile_qr_scan", "android": "https://dc.lft.to/lastmile_qr_scan"}, "lon": -77.01899083333333, "is_disabled": 0, "type": "electric_scooter", "fusion_lon": 0.0, "fusion_lat": 0.0, "lat": 38.9234315, "is_reserved": 0}, {"bike_id": "2239e5a878e6bad94f617094cb841c3e", "name": "2239e5a878e6bad94f617094cb841c3e", "rental_uris": {"ios": "https://dc.lft.to/lastmile_qr_scan", "android": "https://dc.lft.to/lastmile_qr_scan"}, "lon": -77.02675983333333, "is_disabled": 0, "type": "electric_scooter", "fusion_lon": 0.0, "fusion_lat": 0.0, "lat": 38.9217085, "is_reserved": 0}, {"bike_id": "51b67d5747499271ec290a25ed1caee9", "name": "51b67d5747499271ec290a25ed1caee9", "rental_uris": {"ios": "https://dc.lft.to/lastmile_qr_scan", "android": "https://dc.lft.to/lastmile_qr_scan"}, "lon": -77.02383683333333, "is_disabled": 0, "type": "electric_scooter", "fusion_lon": 0.0, "fusion_lat": 0.0, "lat": 38.89234966666667, "is_reserved": 0}, {"bike_id": "6b2134762be0b1c6cc219372832d51d6", "name": "6b2134762be0b1c6cc219372832d51d6", "rental_uris": {"ios": "https://dc.lft.to/lastmile_qr_scan", "android": "https://dc.lft.to/lastmile_qr_scan"}, "lon": -76.99677983333333, "is_disabled": 0, "type": "electric_scooter", "fusion_lon": 0.0, "fusion_lat": 0.0, "lat": 38.88513966666667, "is_reserved": 0}, {"bike_id": "9a8eea9c99cd9d84d5ee12188d49b57d", "name": "9a8eea9c99cd9d84d5ee12188d49b57d", "rental_uris": {"ios": "https://dc.lft.to/lastmile_qr_scan", "android": "https://dc.lft.to/lastmile_qr_scan"}, "lon": -77.0091485, "is_disabled": 0, "type": "electric_scooter", "fusion_lon": 0.0, "fusion_lat": 0.0, "lat": 38.957534, "is_reserved": 0}, {"bike_id": "603f2f4ab3e694fb0da3587014c2d535", "name": "603f2f4ab3e694fb0da3587014c2d535", "rental_uris": {"ios": "https://dc.lft.to/lastmile_qr_scan", "android": "https://dc.lft.to/lastmile_qr_scan"}, "lon": -76.99327866666667, "is_disabled": 0, "type": "electric_scooter", "fusion_lon": 0.0, "fusion_lat": 0.0, "lat": 38.876636500000004, "is_reserved": 0}, {"bike_id": "7bc526cc735239892abd74872dc90ce6", "name": "7bc526cc735239892abd74872dc90ce6", "rental_uris": {"ios": "https://dc.lft.to/lastmile_qr_scan", "android": "https://dc.lft.to/lastmile_qr_scan"}, "lon": -77.041294, "is_disabled": 0, "type": "electric_scooter", "fusion_lon": 0.0, "fusion_lat": 0.0, "lat": 38.92349316666667, "is_reserved": 0}, {"bike_id": "d6bcda65d71ffdbe2d6d510ac082d49f", "name": "d6bcda65d71ffdbe2d6d510ac082d49f", "rental_uris": {"ios": "https://dc.lft.to/lastmile_qr_scan", "android": "https://dc.lft.to/lastmile_qr_scan"}, "lon": -77.0348385, "is_disabled": 0, "type": "electric_scooter", "fusion_lon": 0.0, "fusion_lat": 0.0, "lat": 38.92057533333333, "is_reserved": 0}, {"bike_id": "d8a5ff1c97092f4985bba4a02d142cce", "name": "d8a5ff1c97092f4985bba4a02d142cce", "rental_uris": {"ios": "https://dc.lft.to/lastmile_qr_scan", "android": "https://dc.lft.to/lastmile_qr_scan"}, "lon": -77.03843933333333, "is_disabled": 0, "type": "electric_scooter", "fusion_lon": 0.0, "fusion_lat": 0.0, "lat": 38.909938, "is_reserved": 0}, {"bike_id": "5b3fec7589282cea59d2e97b05f2d36e", "name": "5b3fec7589282cea59d2e97b05f2d36e", "rental_uris": {"ios": "https://dc.lft.to/lastmile_qr_scan", "android": "https://dc.lft.to/lastmile_qr_scan"}, "lon": -77.01601933333333, "is_disabled": 0, "type": "electric_scooter", "fusion_lon": 0.0, "fusion_lat": 0.0, "lat": 38.8979065, "is_reserved": 0}, {"bike_id": "274f1afe6ccf0bb95700a5fe022c8b83", "name": "274f1afe6ccf0bb95700a5fe022c8b83", "rental_uris": {"ios": "https://dc.lft.to/lastmile_qr_scan", "android": "https://dc.lft.to/lastmile_qr_scan"}, "lon": -77.034379, "is_disabled": 0, "type": "electric_scooter", "fusion_lon": 0.0, "fusion_lat": 0.0, "lat": 38.91258666666667, "is_reserved": 0}, {"bike_id": "91b7af748aa94e34a774981304a35466", "name": "91b7af748aa94e34a774981304a35466", "rental_uris": {"ios": "https://dc.lft.to/lastmile_qr_scan", "android": "https://dc.lft.to/lastmile_qr_scan"}, "lon": -77.02188933333333, "is_disabled": 0, "type": "electric_scooter", "fusion_lon": 0.0, "fusion_lat": 0.0, "lat": 38.9104435, "is_reserved": 0}, {"bike_id": "c1c947d5be23f3c9de970474d123f43b", "name": "c1c947d5be23f3c9de970474d123f43b", "rental_uris": {"ios": "https://dc.lft.to/lastmile_qr_scan", "android": "https://dc.lft.to/lastmile_qr_scan"}, "lon": -76.98004966666667, "is_disabled": 0, "type": "electric_scooter", "fusion_lon": 0.0, "fusion_lat": 0.0, "lat": 38.9010245, "is_reserved": 0}, {"bike_id": "beef5f4d9c2c8cec31d5ef743b521320", "name": "beef5f4d9c2c8cec31d5ef743b521320", "rental_uris": {"ios": "https://dc.lft.to/lastmile_qr_scan", "android": "https://dc.lft.to/lastmile_qr_scan"}, "lon": -77.04133116666667, "is_disabled": 0, "type": "electric_scooter", "fusion_lon": 0.0, "fusion_lat": 0.0, "lat": 38.9346935, "is_reserved": 0}, {"bike_id": "e71e5869a21f6d96aa4334c39fd5416f", "name": "e71e5869a21f6d96aa4334c39fd5416f", "rental_uris": {"ios": "https://dc.lft.to/lastmile_qr_scan", "android": "https://dc.lft.to/lastmile_qr_scan"}, "lon": -77.02188766666667, "is_disabled": 0, "type": "electric_scooter", "fusion_lon": 0.0, "fusion_lat": 0.0, "lat": 38.8871735, "is_reserved": 0}, {"bike_id": "ba4e96fa4a7f41c7aa938f05bff3070c", "name": "ba4e96fa4a7f41c7aa938f05bff3070c", "rental_uris": {"ios": "https://dc.lft.to/lastmile_qr_scan", "android": "https://dc.lft.to/lastmile_qr_scan"}, "lon": -77.04615233333334, "is_disabled": 0, "type": "electric_scooter", "fusion_lon": 0.0, "fusion_lat": 0.0, "lat": 38.89803933333334, "is_reserved": 0}, {"bike_id": "be386aec1ce742688ebd06c7c44bfdf7", "name": "be386aec1ce742688ebd06c7c44bfdf7", "rental_uris": {"ios": "https://dc.lft.to/lastmile_qr_scan", "android": "https://dc.lft.to/lastmile_qr_scan"}, "lon": -77.0191035, "is_disabled": 0, "type": "electric_scooter", "fusion_lon": 0.0, "fusion_lat": 0.0, "lat": 38.914207833333336, "is_reserved": 0}, {"bike_id": "02c8a028c9dd6ee004a95640a26a94d2", "name": "02c8a028c9dd6ee004a95640a26a94d2", "rental_uris": {"ios": "https://dc.lft.to/lastmile_qr_scan", "android": "https://dc.lft.to/lastmile_qr_scan"}, "lon": -77.02157683333333, "is_disabled": 0, "type": "electric_scooter", "fusion_lon": 0.0, "fusion_lat": 0.0, "lat": 38.9260415, "is_reserved": 0}, {"bike_id": "3ddc6ca377c9bccfc96dd5406663d701", "name": "3ddc6ca377c9bccfc96dd5406663d701", "rental_uris": {"ios": "https://dc.lft.to/lastmile_qr_scan", "android": "https://dc.lft.to/lastmile_qr_scan"}, "lon": -77.03764166666667, "is_disabled": 0, "type": "electric_scooter", "fusion_lon": 0.0, "fusion_lat": 0.0, "lat": 38.907793, "is_reserved": 0}, {"bike_id": "3cb62a701bfe127281b6ef250deb1106", "name": "3cb62a701bfe127281b6ef250deb1106", "rental_uris": {"ios": "https://dc.lft.to/lastmile_qr_scan", "android": "https://dc.lft.to/lastmile_qr_scan"}, "lon": -77.0219565, "is_disabled": 0, "type": "electric_scooter", "fusion_lon": 0.0, "fusion_lat": 0.0, "lat": 38.914896666666664, "is_reserved": 0}, {"bike_id": "e16ab628100e2b46889f5df642b32c47", "name": "e16ab628100e2b46889f5df642b32c47", "rental_uris": {"ios": "https://dc.lft.to/lastmile_qr_scan", "android": "https://dc.lft.to/lastmile_qr_scan"}, "lon": -77.03335116666666, "is_disabled": 0, "type": "electric_scooter", "fusion_lon": 0.0, "fusion_lat": 0.0, "lat": 38.9156495, "is_reserved": 0}, {"bike_id": "96d793431147a39f461cdfdef46fc5c2", "name": "96d793431147a39f461cdfdef46fc5c2", "rental_uris": {"ios": "https://dc.lft.to/lastmile_qr_scan", "android": "https://dc.lft.to/lastmile_qr_scan"}, "lon": -77.0602975, "is_disabled": 0, "type": "electric_scooter", "fusion_lon": 0.0, "fusion_lat": 0.0, "lat": 38.9438415, "is_reserved": 0}, {"bike_id": "7b06ec8764d01ff54481f1948268b685", "name": "7b06ec8764d01ff54481f1948268b685", "rental_uris": {"ios": "https://dc.lft.to/lastmile_qr_scan", "android": "https://dc.lft.to/lastmile_qr_scan"}, "lon": -77.00215383333334, "is_disabled": 0, "type": "electric_scooter", "fusion_lon": 0.0, "fusion_lat": 0.0, "lat": 38.9082035, "is_reserved": 0}, {"bike_id": "54e0ce4d68da547bdc55d8376ecacbe0", "name": "54e0ce4d68da547bdc55d8376ecacbe0", "rental_uris": {"ios": "https://dc.lft.to/lastmile_qr_scan", "android": "https://dc.lft.to/lastmile_qr_scan"}, "lon": -77.03184633333333, "is_disabled": 0, "type": "electric_scooter", "fusion_lon": 0.0, "fusion_lat": 0.0, "lat": 38.89241483333333, "is_reserved": 0}, {"bike_id": "51278d2d783fc9c775d8dd0d852af23b", "name": "51278d2d783fc9c775d8dd0d852af23b", "rental_uris": {"ios": "https://dc.lft.to/lastmile_qr_scan", "android": "https://dc.lft.to/lastmile_qr_scan"}, "lon": -77.0324285, "is_disabled": 0, "type": "electric_scooter", "fusion_lon": 0.0, "fusion_lat": 0.0, "lat": 38.927193, "is_reserved": 0}, {"bike_id": "0dca59f6c4d111ab12d4c2fdea24872a", "name": "0dca59f6c4d111ab12d4c2fdea24872a", "rental_uris": {"ios": "https://dc.lft.to/lastmile_qr_scan", "android": "https://dc.lft.to/lastmile_qr_scan"}, "lon": -77.02958766666667, "is_disabled": 0, "type": "electric_scooter", "fusion_lon": 0.0, "fusion_lat": 0.0, "lat": 38.90469516666667, "is_reserved": 0}, {"bike_id": "f9e162d3305f30c2ca877e69915f0582", "name": "f9e162d3305f30c2ca877e69915f0582", "rental_uris": {"ios": "https://dc.lft.to/lastmile_qr_scan", "android": "https://dc.lft.to/lastmile_qr_scan"}, "lon": -77.04486216666666, "is_disabled": 0, "type": "electric_scooter", "fusion_lon": 0.0, "fusion_lat": 0.0, "lat": 38.91504966666667, "is_reserved": 0}, {"bike_id": "8f7788c963296e250cf30588374890ac", "name": "8f7788c963296e250cf30588374890ac", "rental_uris": {"ios": "https://dc.lft.to/lastmile_qr_scan", "android": "https://dc.lft.to/lastmile_qr_scan"}, "lon": -77.03379366666667, "is_disabled": 0, "type": "electric_scooter", "fusion_lon": 0.0, "fusion_lat": 0.0, "lat": 38.89233733333333, "is_reserved": 0}, {"bike_id": "f3b2db6690ca5afa478bfa2c55027a84", "name": "f3b2db6690ca5afa478bfa2c55027a84", "rental_uris": {"ios": "https://dc.lft.to/lastmile_qr_scan", "android": "https://dc.lft.to/lastmile_qr_scan"}, "lon": -76.99548233333333, "is_disabled": 0, "type": "electric_bike", "fusion_lon": 0.0, "fusion_lat": 0.0, "lat": 38.83157883333333, "is_reserved": 0}, {"bike_id": "291002ff18275f16a463b0f27b2dee82", "name": "291002ff18275f16a463b0f27b2dee82", "rental_uris": {"ios": "https://dc.lft.to/lastmile_qr_scan", "android": "https://dc.lft.to/lastmile_qr_scan"}, "lon": -77.02199966666667, "is_disabled": 0, "type": "electric_scooter", "fusion_lon": 0.0, "fusion_lat": 0.0, "lat": 38.90359816666667, "is_reserved": 0}, {"bike_id": "8eb66a2225170db2e914d20c0a5cd3a2", "name": "8eb66a2225170db2e914d20c0a5cd3a2", "rental_uris": {"ios": "https://dc.lft.to/lastmile_qr_scan", "android": "https://dc.lft.to/lastmile_qr_scan"}, "lon": -77.01366933333334, "is_disabled": 0, "type": "electric_scooter", "fusion_lon": 0.0, "fusion_lat": 0.0, "lat": 38.8870455, "is_reserved": 0}, {"bike_id": "477c41ec9e7facc45846e26c08f94e19", "name": "477c41ec9e7facc45846e26c08f94e19", "rental_uris": {"ios": "https://dc.lft.to/lastmile_qr_scan", "android": "https://dc.lft.to/lastmile_qr_scan"}, "lon": -76.97418416666666, "is_disabled": 0, "type": "electric_scooter", "fusion_lon": 0.0, "fusion_lat": 0.0, "lat": 38.8983465, "is_reserved": 0}, {"bike_id": "6a84dc252bec401f9516035b85f2abd2", "name": "6a84dc252bec401f9516035b85f2abd2", "rental_uris": {"ios": "https://dc.lft.to/lastmile_qr_scan", "android": "https://dc.lft.to/lastmile_qr_scan"}, "lon": -77.0222515, "is_disabled": 0, "type": "electric_scooter", "fusion_lon": 0.0, "fusion_lat": 0.0, "lat": 38.93395316666667, "is_reserved": 0}, {"bike_id": "b023de9ecc8c761467d5f4cd5692ff97", "name": "b023de9ecc8c761467d5f4cd5692ff97", "rental_uris": {"ios": "https://dc.lft.to/lastmile_qr_scan", "android": "https://dc.lft.to/lastmile_qr_scan"}, "lon": -77.02445383333334, "is_disabled": 0, "type": "electric_scooter", "fusion_lon": 0.0, "fusion_lat": 0.0, "lat": 38.92495616666667, "is_reserved": 0}, {"bike_id": "ce35ee8deacb7536e2bc0e9929eea7dd", "name": "ce35ee8deacb7536e2bc0e9929eea7dd", "rental_uris": {"ios": "https://dc.lft.to/lastmile_qr_scan", "android": "https://dc.lft.to/lastmile_qr_scan"}, "lon": -77.0035915, "is_disabled": 0, "type": "electric_scooter", "fusion_lon": 0.0, "fusion_lat": 0.0, "lat": 38.911154333333336, "is_reserved": 0}, {"bike_id": "a3684acfc9a043a04938b3a4a02b7b26", "name": "a3684acfc9a043a04938b3a4a02b7b26", "rental_uris": {"ios": "https://dc.lft.to/lastmile_qr_scan", "android": "https://dc.lft.to/lastmile_qr_scan"}, "lon": -77.01909466666666, "is_disabled": 0, "type": "electric_scooter", "fusion_lon": 0.0, "fusion_lat": 0.0, "lat": 38.91414533333333, "is_reserved": 0}, {"bike_id": "e85d4e0cfb188a32f62a8aa8aa25e128", "name": "e85d4e0cfb188a32f62a8aa8aa25e128", "rental_uris": {"ios": "https://dc.lft.to/lastmile_qr_scan", "android": "https://dc.lft.to/lastmile_qr_scan"}, "lon": -76.98211533333334, "is_disabled": 0, "type": "electric_scooter", "fusion_lon": 0.0, "fusion_lat": 0.0, "lat": 38.9056505, "is_reserved": 0}, {"bike_id": "9b36621c7d9b2a825f6af3244f42389b", "name": "9b36621c7d9b2a825f6af3244f42389b", "rental_uris": {"ios": "https://dc.lft.to/lastmile_qr_scan", "android": "https://dc.lft.to/lastmile_qr_scan"}, "lon": -77.01686533333333, "is_disabled": 0, "type": "electric_scooter", "fusion_lon": 0.0, "fusion_lat": 0.0, "lat": 38.8812285, "is_reserved": 0}, {"bike_id": "b7b76079f1405d26c8e8fe6af2e166f0", "name": "b7b76079f1405d26c8e8fe6af2e166f0", "rental_uris": {"ios": "https://dc.lft.to/lastmile_qr_scan", "android": "https://dc.lft.to/lastmile_qr_scan"}, "lon": -77.00994416666667, "is_disabled": 0, "type": "electric_scooter", "fusion_lon": 0.0, "fusion_lat": 0.0, "lat": 38.919253166666664, "is_reserved": 0}, {"bike_id": "5bc9b2501d33c3443a6142901dbd4fc4", "name": "5bc9b2501d33c3443a6142901dbd4fc4", "rental_uris": {"ios": "https://dc.lft.to/lastmile_qr_scan", "android": "https://dc.lft.to/lastmile_qr_scan"}, "lon": -77.0391725, "is_disabled": 0, "type": "electric_scooter", "fusion_lon": 0.0, "fusion_lat": 0.0, "lat": 38.92312066666667, "is_reserved": 0}, {"bike_id": "27d68d64faabc73f4d8bd82ce3915c0d", "name": "27d68d64faabc73f4d8bd82ce3915c0d", "rental_uris": {"ios": "https://dc.lft.to/lastmile_qr_scan", "android": "https://dc.lft.to/lastmile_qr_scan"}, "lon": -77.04018566666667, "is_disabled": 0, "type": "electric_scooter", "fusion_lon": 0.0, "fusion_lat": 0.0, "lat": 38.905305, "is_reserved": 0}, {"bike_id": "578dfd0be63cc1f22ffca3d738f84672", "name": "578dfd0be63cc1f22ffca3d738f84672", "rental_uris": {"ios": "https://dc.lft.to/lastmile_qr_scan", "android": "https://dc.lft.to/lastmile_qr_scan"}, "lon": -76.951517, "is_disabled": 0, "type": "electric_bike", "fusion_lon": 0.0, "fusion_lat": 0.0, "lat": 39.08431433333333, "is_reserved": 0}, {"bike_id": "7f1cf4f992c6b7ac5718e08ff15d2eae", "name": "7f1cf4f992c6b7ac5718e08ff15d2eae", "rental_uris": {"ios": "https://dc.lft.to/lastmile_qr_scan", "android": "https://dc.lft.to/lastmile_qr_scan"}, "lon": -77.041639, "is_disabled": 0, "type": "electric_scooter", "fusion_lon": 0.0, "fusion_lat": 0.0, "lat": 38.9152235, "is_reserved": 0}, {"bike_id": "dd8e9a325bfab49fd1352b91fabd0a6b", "name": "dd8e9a325bfab49fd1352b91fabd0a6b", "rental_uris": {"ios": "https://dc.lft.to/lastmile_qr_scan", "android": "https://dc.lft.to/lastmile_qr_scan"}, "lon": -77.0217685, "is_disabled": 0, "type": "electric_scooter", "fusion_lon": 0.0, "fusion_lat": 0.0, "lat": 38.9145985, "is_reserved": 0}, {"bike_id": "3ad0cb8eebc0e9b034e82b8c025e274c", "name": "3ad0cb8eebc0e9b034e82b8c025e274c", "rental_uris": {"ios": "https://dc.lft.to/lastmile_qr_scan", "android": "https://dc.lft.to/lastmile_qr_scan"}, "lon": -76.93677633333333, "is_disabled": 0, "type": "electric_scooter", "fusion_lon": 0.0, "fusion_lat": 0.0, "lat": 38.886633833333335, "is_reserved": 0}, {"bike_id": "bf341df921c19608654e6656b4794e2a", "name": "bf341df921c19608654e6656b4794e2a", "rental_uris": {"ios": "https://dc.lft.to/lastmile_qr_scan", "android": "https://dc.lft.to/lastmile_qr_scan"}, "lon": -77.02191866666666, "is_disabled": 0, "type": "electric_bike", "fusion_lon": 0.0, "fusion_lat": 0.0, "lat": 38.9112935, "is_reserved": 0}, {"bike_id": "bb3061568837c3b03c6a0d86c0518d26", "name": "bb3061568837c3b03c6a0d86c0518d26", "rental_uris": {"ios": "https://dc.lft.to/lastmile_qr_scan", "android": "https://dc.lft.to/lastmile_qr_scan"}, "lon": -77.34464416666667, "is_disabled": 0, "type": "electric_bike", "fusion_lon": 0.0, "fusion_lat": 0.0, "lat": 38.94542283333333, "is_reserved": 0}, {"bike_id": "b2d22cad81a22b27aecaf3d6f9707d3d", "name": "b2d22cad81a22b27aecaf3d6f9707d3d", "rental_uris": {"ios": "https://dc.lft.to/lastmile_qr_scan", "android": "https://dc.lft.to/lastmile_qr_scan"}, "lon": -77.021628, "is_disabled": 0, "type": "electric_scooter", "fusion_lon": 0.0, "fusion_lat": 0.0, "lat": 38.924526666666665, "is_reserved": 0}, {"bike_id": "4c13f39a3c8e7a73a39204491512f861", "name": "4c13f39a3c8e7a73a39204491512f861", "rental_uris": {"ios": "https://dc.lft.to/lastmile_qr_scan", "android": "https://dc.lft.to/lastmile_qr_scan"}, "lon": -76.99801166666667, "is_disabled": 0, "type": "electric_scooter", "fusion_lon": 0.0, "fusion_lat": 0.0, "lat": 38.90848183333333, "is_reserved": 0}, {"bike_id": "e27335da74f59855f362a9e3a33cbc3b", "name": "e27335da74f59855f362a9e3a33cbc3b", "rental_uris": {"ios": "https://dc.lft.to/lastmile_qr_scan", "android": "https://dc.lft.to/lastmile_qr_scan"}, "lon": -77.01933366666667, "is_disabled": 0, "type": "electric_scooter", "fusion_lon": 0.0, "fusion_lat": 0.0, "lat": 38.9192945, "is_reserved": 0}, {"bike_id": "6f6b0980b5567740c711a2e1af5570cb", "name": "6f6b0980b5567740c711a2e1af5570cb", "rental_uris": {"ios": "https://dc.lft.to/lastmile_qr_scan", "android": "https://dc.lft.to/lastmile_qr_scan"}, "lon": -77.0420765, "is_disabled": 0, "type": "electric_scooter", "fusion_lon": 0.0, "fusion_lat": 0.0, "lat": 38.8926715, "is_reserved": 0}, {"bike_id": "063df45fb2a9b63b188a36a6f2cbcc08", "name": "063df45fb2a9b63b188a36a6f2cbcc08", "rental_uris": {"ios": "https://dc.lft.to/lastmile_qr_scan", "android": "https://dc.lft.to/lastmile_qr_scan"}, "lon": -77.0318055, "is_disabled": 0, "type": "electric_scooter", "fusion_lon": 0.0, "fusion_lat": 0.0, "lat": 38.88728033333334, "is_reserved": 0}, {"bike_id": "fca07111c3f68af0b93f6f6356f8af9f", "name": "fca07111c3f68af0b93f6f6356f8af9f", "rental_uris": {"ios": "https://dc.lft.to/lastmile_qr_scan", "android": "https://dc.lft.to/lastmile_qr_scan"}, "lon": -77.069854, "is_disabled": 0, "type": "electric_scooter", "fusion_lon": 0.0, "fusion_lat": 0.0, "lat": 38.952654, "is_reserved": 0}, {"bike_id": "82d15934727e0a36cccb5250926858b1", "name": "82d15934727e0a36cccb5250926858b1", "rental_uris": {"ios": "https://dc.lft.to/lastmile_qr_scan", "android": "https://dc.lft.to/lastmile_qr_scan"}, "lon": -77.00344033333333, "is_disabled": 0, "type": "electric_scooter", "fusion_lon": 0.0, "fusion_lat": 0.0, "lat": 38.893631, "is_reserved": 0}, {"bike_id": "115ac9f19b5b4a26164d414c03cda570", "name": "115ac9f19b5b4a26164d414c03cda570", "rental_uris": {"ios": "https://dc.lft.to/lastmile_qr_scan", "android": "https://dc.lft.to/lastmile_qr_scan"}, "lon": -77.08368916666667, "is_disabled": 0, "type": "electric_scooter", "fusion_lon": 0.0, "fusion_lat": 0.0, "lat": 38.95663833333333, "is_reserved": 0}, {"bike_id": "9db278862ecb0f44153eed3a9ee863ec", "name": "9db278862ecb0f44153eed3a9ee863ec", "rental_uris": {"ios": "https://dc.lft.to/lastmile_qr_scan", "android": "https://dc.lft.to/lastmile_qr_scan"}, "lon": -77.02221483333334, "is_disabled": 0, "type": "electric_scooter", "fusion_lon": 0.0, "fusion_lat": 0.0, "lat": 38.87858966666667, "is_reserved": 0}, {"bike_id": "27d2723b7f9ac11635c1df15d91b6712", "name": "27d2723b7f9ac11635c1df15d91b6712", "rental_uris": {"ios": "https://dc.lft.to/lastmile_qr_scan", "android": "https://dc.lft.to/lastmile_qr_scan"}, "lon": -77.03764766666667, "is_disabled": 0, "type": "electric_scooter", "fusion_lon": 0.0, "fusion_lat": 0.0, "lat": 38.9077855, "is_reserved": 0}, {"bike_id": "e5a0851bc493661eafff766fdf429484", "name": "e5a0851bc493661eafff766fdf429484", "rental_uris": {"ios": "https://dc.lft.to/lastmile_qr_scan", "android": "https://dc.lft.to/lastmile_qr_scan"}, "lon": -77.02219083333334, "is_disabled": 0, "type": "electric_scooter", "fusion_lon": 0.0, "fusion_lat": 0.0, "lat": 38.92468216666666, "is_reserved": 0}, {"bike_id": "14ff55152e895932a1eca38704e94e94", "name": "14ff55152e895932a1eca38704e94e94", "rental_uris": {"ios": "https://dc.lft.to/lastmile_qr_scan", "android": "https://dc.lft.to/lastmile_qr_scan"}, "lon": -77.02201916666667, "is_disabled": 0, "type": "electric_scooter", "fusion_lon": 0.0, "fusion_lat": 0.0, "lat": 38.896089333333336, "is_reserved": 0}, {"bike_id": "d0750d7d3f735f8b8cc939c8c7d3b34a", "name": "d0750d7d3f735f8b8cc939c8c7d3b34a", "rental_uris": {"ios": "https://dc.lft.to/lastmile_qr_scan", "android": "https://dc.lft.to/lastmile_qr_scan"}, "lon": -76.98545333333334, "is_disabled": 0, "type": "electric_scooter", "fusion_lon": 0.0, "fusion_lat": 0.0, "lat": 38.91288433333333, "is_reserved": 0}, {"bike_id": "d086acabb25ce50212d8fe8413cd898b", "name": "d086acabb25ce50212d8fe8413cd898b", "rental_uris": {"ios": "https://dc.lft.to/lastmile_qr_scan", "android": "https://dc.lft.to/lastmile_qr_scan"}, "lon": -76.97642833333333, "is_disabled": 0, "type": "electric_scooter", "fusion_lon": 0.0, "fusion_lat": 0.0, "lat": 38.886885166666666, "is_reserved": 0}, {"bike_id": "c4e677e310b090298d616c1e3ef72f04", "name": "c4e677e310b090298d616c1e3ef72f04", "rental_uris": {"ios": "https://dc.lft.to/lastmile_qr_scan", "android": "https://dc.lft.to/lastmile_qr_scan"}, "lon": -76.99227333333333, "is_disabled": 0, "type": "electric_scooter", "fusion_lon": 0.0, "fusion_lat": 0.0, "lat": 38.895014833333335, "is_reserved": 0}, {"bike_id": "269fef64d0c32f93d178b8d18792d93a", "name": "269fef64d0c32f93d178b8d18792d93a", "rental_uris": {"ios": "https://dc.lft.to/lastmile_qr_scan", "android": "https://dc.lft.to/lastmile_qr_scan"}, "lon": -77.02485116666666, "is_disabled": 0, "type": "electric_scooter", "fusion_lon": 0.0, "fusion_lat": 0.0, "lat": 38.94198333333333, "is_reserved": 0}, {"bike_id": "87740bb907b2300849a25443062f93d6", "name": "87740bb907b2300849a25443062f93d6", "rental_uris": {"ios": "https://dc.lft.to/lastmile_qr_scan", "android": "https://dc.lft.to/lastmile_qr_scan"}, "lon": -77.01753783333334, "is_disabled": 0, "type": "electric_bike", "fusion_lon": 0.0, "fusion_lat": 0.0, "lat": 38.952125, "is_reserved": 0}, {"bike_id": "a9cc1f50f6f0d324f5645e4a50f11768", "name": "a9cc1f50f6f0d324f5645e4a50f11768", "rental_uris": {"ios": "https://dc.lft.to/lastmile_qr_scan", "android": "https://dc.lft.to/lastmile_qr_scan"}, "lon": -77.00362116666666, "is_disabled": 0, "type": "electric_scooter", "fusion_lon": 0.0, "fusion_lat": 0.0, "lat": 38.907313, "is_reserved": 0}, {"bike_id": "edbd10af321f8f0a1b4ed4f385fa9881", "name": "edbd10af321f8f0a1b4ed4f385fa9881", "rental_uris": {"ios": "https://dc.lft.to/lastmile_qr_scan", "android": "https://dc.lft.to/lastmile_qr_scan"}, "lon": -77.05005516666667, "is_disabled": 0, "type": "electric_scooter", "fusion_lon": 0.0, "fusion_lat": 0.0, "lat": 38.892346333333336, "is_reserved": 0}, {"bike_id": "b3f01b37a286b1ebd7d98ec4983846ff", "name": "b3f01b37a286b1ebd7d98ec4983846ff", "rental_uris": {"ios": "https://dc.lft.to/lastmile_qr_scan", "android": "https://dc.lft.to/lastmile_qr_scan"}, "lon": -77.04459083333333, "is_disabled": 0, "type": "electric_scooter", "fusion_lon": 0.0, "fusion_lat": 0.0, "lat": 38.915401, "is_reserved": 0}, {"bike_id": "27ad60667b6f41ca75589f7f15289b1f", "name": "27ad60667b6f41ca75589f7f15289b1f", "rental_uris": {"ios": "https://dc.lft.to/lastmile_qr_scan", "android": "https://dc.lft.to/lastmile_qr_scan"}, "lon": -77.02259133333334, "is_disabled": 0, "type": "electric_scooter", "fusion_lon": 0.0, "fusion_lat": 0.0, "lat": 38.91338066666667, "is_reserved": 0}, {"bike_id": "1e34afe48ddcc8eac56cba45e2542f40", "name": "1e34afe48ddcc8eac56cba45e2542f40", "rental_uris": {"ios": "https://dc.lft.to/lastmile_qr_scan", "android": "https://dc.lft.to/lastmile_qr_scan"}, "lon": -77.02816883333334, "is_disabled": 0, "type": "electric_scooter", "fusion_lon": 0.0, "fusion_lat": 0.0, "lat": 38.8994365, "is_reserved": 0}, {"bike_id": "0a2db7786adfec52337a38a7ec74d3ed", "name": "0a2db7786adfec52337a38a7ec74d3ed", "rental_uris": {"ios": "https://dc.lft.to/lastmile_qr_scan", "android": "https://dc.lft.to/lastmile_qr_scan"}, "lon": -77.070102, "is_disabled": 0, "type": "electric_scooter", "fusion_lon": 0.0, "fusion_lat": 0.0, "lat": 38.95576466666667, "is_reserved": 0}, {"bike_id": "30fc9157290ae98e9f2000782c9f7f98", "name": "30fc9157290ae98e9f2000782c9f7f98", "rental_uris": {"ios": "https://dc.lft.to/lastmile_qr_scan", "android": "https://dc.lft.to/lastmile_qr_scan"}, "lon": -77.0308565, "is_disabled": 0, "type": "electric_scooter", "fusion_lon": 0.0, "fusion_lat": 0.0, "lat": 38.92247316666667, "is_reserved": 0}, {"bike_id": "ca8c5897a296b784ef50f8eebe507e49", "name": "ca8c5897a296b784ef50f8eebe507e49", "rental_uris": {"ios": "https://dc.lft.to/lastmile_qr_scan", "android": "https://dc.lft.to/lastmile_qr_scan"}, "lon": -77.036668, "is_disabled": 0, "type": "electric_scooter", "fusion_lon": 0.0, "fusion_lat": 0.0, "lat": 38.903837833333334, "is_reserved": 0}, {"bike_id": "451564b7c3ba5c31abe4a31d1c48cb8e", "name": "451564b7c3ba5c31abe4a31d1c48cb8e", "rental_uris": {"ios": "https://dc.lft.to/lastmile_qr_scan", "android": "https://dc.lft.to/lastmile_qr_scan"}, "lon": -77.03206016666667, "is_disabled": 0, "type": "electric_scooter", "fusion_lon": 0.0, "fusion_lat": 0.0, "lat": 38.902907166666665, "is_reserved": 0}, {"bike_id": "12660659b0830fbc8d21ad0729b4a11c", "name": "12660659b0830fbc8d21ad0729b4a11c", "rental_uris": {"ios": "https://dc.lft.to/lastmile_qr_scan", "android": "https://dc.lft.to/lastmile_qr_scan"}, "lon": -77.05333833333333, "is_disabled": 0, "type": "electric_scooter", "fusion_lon": 0.0, "fusion_lat": 0.0, "lat": 38.92790566666667, "is_reserved": 0}, {"bike_id": "6ec30dbc434cfe2d91cbc63e1a803fb0", "name": "6ec30dbc434cfe2d91cbc63e1a803fb0", "rental_uris": {"ios": "https://dc.lft.to/lastmile_qr_scan", "android": "https://dc.lft.to/lastmile_qr_scan"}, "lon": -77.00383983333333, "is_disabled": 0, "type": "electric_bike", "fusion_lon": 0.0, "fusion_lat": 0.0, "lat": 38.836054833333336, "is_reserved": 0}, {"bike_id": "468071c011dadb1ede6671fa599a70bd", "name": "468071c011dadb1ede6671fa599a70bd", "rental_uris": {"ios": "https://dc.lft.to/lastmile_qr_scan", "android": "https://dc.lft.to/lastmile_qr_scan"}, "lon": -77.07257733333333, "is_disabled": 0, "type": "electric_scooter", "fusion_lon": 0.0, "fusion_lat": 0.0, "lat": 38.90783616666667, "is_reserved": 0}, {"bike_id": "21b9b100bdd2b4421da025b5fd268a04", "name": "21b9b100bdd2b4421da025b5fd268a04", "rental_uris": {"ios": "https://dc.lft.to/lastmile_qr_scan", "android": "https://dc.lft.to/lastmile_qr_scan"}, "lon": -77.0425875, "is_disabled": 0, "type": "electric_scooter", "fusion_lon": 0.0, "fusion_lat": 0.0, "lat": 38.9082315, "is_reserved": 0}, {"bike_id": "06367fc456c62cc2ac7bc18bbc18d4db", "name": "06367fc456c62cc2ac7bc18bbc18d4db", "rental_uris": {"ios": "https://dc.lft.to/lastmile_qr_scan", "android": "https://dc.lft.to/lastmile_qr_scan"}, "lon": -76.9836655, "is_disabled": 0, "type": "electric_scooter", "fusion_lon": 0.0, "fusion_lat": 0.0, "lat": 38.91495716666667, "is_reserved": 0}, {"bike_id": "f653466065ad67ed2b769221a65a1c97", "name": "f653466065ad67ed2b769221a65a1c97", "rental_uris": {"ios": "https://dc.lft.to/lastmile_qr_scan", "android": "https://dc.lft.to/lastmile_qr_scan"}, "lon": -76.98395566666667, "is_disabled": 0, "type": "electric_scooter", "fusion_lon": 0.0, "fusion_lat": 0.0, "lat": 38.919962166666664, "is_reserved": 0}, {"bike_id": "448013fd100c9f4a9b50fe98be3070a2", "name": "448013fd100c9f4a9b50fe98be3070a2", "rental_uris": {"ios": "https://dc.lft.to/lastmile_qr_scan", "android": "https://dc.lft.to/lastmile_qr_scan"}, "lon": -77.07275816666667, "is_disabled": 0, "type": "electric_scooter", "fusion_lon": 0.0, "fusion_lat": 0.0, "lat": 38.90905333333333, "is_reserved": 0}, {"bike_id": "def87a7b2cc7b2d17a687bc01585acad", "name": "def87a7b2cc7b2d17a687bc01585acad", "rental_uris": {"ios": "https://dc.lft.to/lastmile_qr_scan", "android": "https://dc.lft.to/lastmile_qr_scan"}, "lon": -76.99702566666667, "is_disabled": 0, "type": "electric_scooter", "fusion_lon": 0.0, "fusion_lat": 0.0, "lat": 38.90833133333334, "is_reserved": 0}, {"bike_id": "ec01f411c338a34e7309788f04a6a631", "name": "ec01f411c338a34e7309788f04a6a631", "rental_uris": {"ios": "https://dc.lft.to/lastmile_qr_scan", "android": "https://dc.lft.to/lastmile_qr_scan"}, "lon": -77.02121416666667, "is_disabled": 0, "type": "electric_scooter", "fusion_lon": 0.0, "fusion_lat": 0.0, "lat": 38.940627666666664, "is_reserved": 0}, {"bike_id": "a9cfd51ad6b1024e1f7e3e16f068ac7b", "name": "a9cfd51ad6b1024e1f7e3e16f068ac7b", "rental_uris": {"ios": "https://dc.lft.to/lastmile_qr_scan", "android": "https://dc.lft.to/lastmile_qr_scan"}, "lon": -76.9812245, "is_disabled": 0, "type": "electric_scooter", "fusion_lon": 0.0, "fusion_lat": 0.0, "lat": 38.8462965, "is_reserved": 0}, {"bike_id": "60ae1f7ee3e42e9fd7c27475ec9a8059", "name": "60ae1f7ee3e42e9fd7c27475ec9a8059", "rental_uris": {"ios": "https://dc.lft.to/lastmile_qr_scan", "android": "https://dc.lft.to/lastmile_qr_scan"}, "lon": -77.02456183333334, "is_disabled": 0, "type": "electric_scooter", "fusion_lon": 0.0, "fusion_lat": 0.0, "lat": 38.93643816666667, "is_reserved": 0}, {"bike_id": "6249c0233ddd21bb9f5b6298c2e37317", "name": "6249c0233ddd21bb9f5b6298c2e37317", "rental_uris": {"ios": "https://dc.lft.to/lastmile_qr_scan", "android": "https://dc.lft.to/lastmile_qr_scan"}, "lon": -77.01755933333334, "is_disabled": 0, "type": "electric_scooter", "fusion_lon": 0.0, "fusion_lat": 0.0, "lat": 38.87535666666667, "is_reserved": 0}, {"bike_id": "3a4ef4dd6f9db580d1acb4c27c0fbd71", "name": "3a4ef4dd6f9db580d1acb4c27c0fbd71", "rental_uris": {"ios": "https://dc.lft.to/lastmile_qr_scan", "android": "https://dc.lft.to/lastmile_qr_scan"}, "lon": -77.04679366666667, "is_disabled": 0, "type": "electric_scooter", "fusion_lon": 0.0, "fusion_lat": 0.0, "lat": 38.910592666666666, "is_reserved": 0}, {"bike_id": "d5d08a5e48994ed643459839b46c8ab4", "name": "d5d08a5e48994ed643459839b46c8ab4", "rental_uris": {"ios": "https://dc.lft.to/lastmile_qr_scan", "android": "https://dc.lft.to/lastmile_qr_scan"}, "lon": -76.986164, "is_disabled": 0, "type": "electric_scooter", "fusion_lon": 0.0, "fusion_lat": 0.0, "lat": 38.9034645, "is_reserved": 0}, {"bike_id": "a773cf4d7e505f43adb29cb107d472b2", "name": "a773cf4d7e505f43adb29cb107d472b2", "rental_uris": {"ios": "https://dc.lft.to/lastmile_qr_scan", "android": "https://dc.lft.to/lastmile_qr_scan"}, "lon": -77.02160433333333, "is_disabled": 0, "type": "electric_scooter", "fusion_lon": 0.0, "fusion_lat": 0.0, "lat": 38.92434766666667, "is_reserved": 0}, {"bike_id": "685f42ba47ca239e299dc654b30edfbd", "name": "685f42ba47ca239e299dc654b30edfbd", "rental_uris": {"ios": "https://dc.lft.to/lastmile_qr_scan", "android": "https://dc.lft.to/lastmile_qr_scan"}, "lon": -77.0269015, "is_disabled": 0, "type": "electric_scooter", "fusion_lon": 0.0, "fusion_lat": 0.0, "lat": 38.98403583333333, "is_reserved": 0}, {"bike_id": "ab2c34bab4e1dfcec32d8d08fe751302", "name": "ab2c34bab4e1dfcec32d8d08fe751302", "rental_uris": {"ios": "https://dc.lft.to/lastmile_qr_scan", "android": "https://dc.lft.to/lastmile_qr_scan"}, "lon": -77.034231, "is_disabled": 0, "type": "electric_scooter", "fusion_lon": 0.0, "fusion_lat": 0.0, "lat": 38.928666666666665, "is_reserved": 0}, {"bike_id": "3f24f60c7dcecde733ebb0e02e3cf15b", "name": "3f24f60c7dcecde733ebb0e02e3cf15b", "rental_uris": {"ios": "https://dc.lft.to/lastmile_qr_scan", "android": "https://dc.lft.to/lastmile_qr_scan"},