{"data": {"bikes": [{"is_reserved": 0, "type": "electric_scooter", "fusion_lat": 0.0, "is_disabled": 0, "rental_uris": {"ios": "https://dc.lft.to/lastmile_qr_scan", "android": "https://dc.lft.to/lastmile_qr_scan"}, "bike_id": "f28493240777be4e87db0ea19ea5d545", "lat": 38.94834983333333, "name": "f28493240777be4e87db0ea19ea5d545", "lon": -77.02709766666666, "fusion_lon": 0.0}, {"is_reserved": 0, "type": "electric_scooter", "fusion_lat": 0.0, "is_disabled": 0, "rental_uris": {"ios": "https://dc.lft.to/lastmile_qr_scan", "android": "https://dc.lft.to/lastmile_qr_scan"}, "bike_id": "8ae240b5eb7924003ae28ea0c4eb3b61", "lat": 38.901348666666664, "name": "8ae240b5eb7924003ae28ea0c4eb3b61", "lon": -77.01615833333334, "fusion_lon": 0.0}, {"is_reserved": 0, "type": "electric_scooter", "fusion_lat": 0.0, "is_disabled": 0, "rental_uris": {"ios": "https://dc.lft.to/lastmile_qr_scan", "android": "https://dc.lft.to/lastmile_qr_scan"}, "bike_id": "400914da4648001aac500201e76225ea", "lat": 38.91633433333333, "name": "400914da4648001aac500201e76225ea", "lon": -77.04814783333333, "fusion_lon": 0.0}, {"is_reserved": 0, "type": "electric_scooter", "fusion_lat": 0.0, "is_disabled": 0, "rental_uris": {"ios": "https://dc.lft.to/lastmile_qr_scan", "android": "https://dc.lft.to/lastmile_qr_scan"}, "bike_id": "9c58f455b75d959fee5bc0e24f559505", "lat": 38.88241, "name": "9c58f455b75d959fee5bc0e24f559505", "lon": -77.00632833333333, "fusion_lon": 0.0}, {"is_reserved": 0, "type": "electric_scooter", "fusion_lat": 0.0, "is_disabled": 0, "rental_uris": {"ios": "https://dc.lft.to/lastmile_qr_scan", "android": "https://dc.lft.to/lastmile_qr_scan"}, "bike_id": "fa03eeb984df433da85f3d59bdb1c475", "lat": 38.891932, "name": "fa03eeb984df433da85f3d59bdb1c475", "lon": -77.02239816666666, "fusion_lon": 0.0}, {"is_reserved": 0, "type": "electric_scooter", "fusion_lat": 0.0, "is_disabled": 0, "rental_uris": {"ios": "https://dc.lft.to/lastmile_qr_scan", "android": "https://dc.lft.to/lastmile_qr_scan"}, "bike_id": "afc896677e3cc6055d64f6c05a3133f1", "lat": 38.915813666666665, "name": "afc896677e3cc6055d64f6c05a3133f1", "lon": -76.9840855, "fusion_lon": 0.0}, {"is_reserved": 0, "type": "electric_scooter", "fusion_lat": 0.0, "is_disabled": 0, "rental_uris": {"ios": "https://dc.lft.to/lastmile_qr_scan", "android": "https://dc.lft.to/lastmile_qr_scan"}, "bike_id": "fbfda139e42e579f46c7bf9d130e387a", "lat": 38.9125465, "name": "fbfda139e42e579f46c7bf9d130e387a", "lon": -76.98351483333333, "fusion_lon": 0.0}, {"is_reserved": 0, "type": "electric_scooter", "fusion_lat": 0.0, "is_disabled": 0, "rental_uris": {"ios": "https://dc.lft.to/lastmile_qr_scan", "android": "https://dc.lft.to/lastmile_qr_scan"}, "bike_id": "cbde9c525f5daa5a452c482fe532a782", "lat": 38.928658, "name": "cbde9c525f5daa5a452c482fe532a782", "lon": -77.0342395, "fusion_lon": 0.0}, {"is_reserved": 0, "type": "electric_scooter", "fusion_lat": 0.0, "is_disabled": 0, "rental_uris": {"ios": "https://dc.lft.to/lastmile_qr_scan", "android": "https://dc.lft.to/lastmile_qr_scan"}, "bike_id": "61ffb49e27c09a890e8dcd1b1f4dedef", "lat": 38.91500933333333, "name": "61ffb49e27c09a890e8dcd1b1f4dedef", "lon": -77.01841266666666, "fusion_lon": 0.0}, {"is_reserved": 0, "type": "electric_scooter", "fusion_lat": 0.0, "is_disabled": 0, "rental_uris": {"ios": "https://dc.lft.to/lastmile_qr_scan", "android": "https://dc.lft.to/lastmile_qr_scan"}, "bike_id": "c507848bf1858acd1caa3384b29f48c8", "lat": 38.87605666666666, "name": "c507848bf1858acd1caa3384b29f48c8", "lon": -77.0058615, "fusion_lon": 0.0}, {"is_reserved": 0, "type": "electric_bike", "fusion_lat": 0.0, "is_disabled": 0, "rental_uris": {"ios": "https://dc.lft.to/lastmile_qr_scan", "android": "https://dc.lft.to/lastmile_qr_scan"}, "bike_id": "3139adb1cad9f25eeadf32f17d094c4f", "lat": 38.846729, "name": "3139adb1cad9f25eeadf32f17d094c4f", "lon": -77.13930583333334, "fusion_lon": 0.0}, {"is_reserved": 0, "type": "electric_scooter", "fusion_lat": 0.0, "is_disabled": 0, "rental_uris": {"ios": "https://dc.lft.to/lastmile_qr_scan", "android": "https://dc.lft.to/lastmile_qr_scan"}, "bike_id": "9c9b577aecc418a063671db8f9482840", "lat": 38.92096816666667, "name": "9c9b577aecc418a063671db8f9482840", "lon": -77.04115916666667, "fusion_lon": 0.0}, {"is_reserved": 0, "type": "electric_scooter", "fusion_lat": 0.0, "is_disabled": 0, "rental_uris": {"ios": "https://dc.lft.to/lastmile_qr_scan", "android": "https://dc.lft.to/lastmile_qr_scan"}, "bike_id": "6ffe774015dab63da59e3270278ee508", "lat": 38.91293983333333, "name": "6ffe774015dab63da59e3270278ee508", "lon": -77.045528, "fusion_lon": 0.0}, {"is_reserved": 0, "type": "electric_scooter", "fusion_lat": 0.0, "is_disabled": 0, "rental_uris": {"ios": "https://dc.lft.to/lastmile_qr_scan", "android": "https://dc.lft.to/lastmile_qr_scan"}, "bike_id": "caef34d8d2cbc5b2b15d59aa56a72616", "lat": 38.924111333333336, "name": "caef34d8d2cbc5b2b15d59aa56a72616", "lon": -77.03638183333334, "fusion_lon": 0.0}, {"is_reserved": 0, "type": "electric_scooter", "fusion_lat": 0.0, "is_disabled": 0, "rental_uris": {"ios": "https://dc.lft.to/lastmile_qr_scan", "android": "https://dc.lft.to/lastmile_qr_scan"}, "bike_id": "e7d2eab6165858c9ce2e2ce639b299bb", "lat": 38.903812, "name": "e7d2eab6165858c9ce2e2ce639b299bb", "lon": -77.05076733333334, "fusion_lon": 0.0}, {"is_reserved": 0, "type": "electric_scooter", "fusion_lat": 0.0, "is_disabled": 0, "rental_uris": {"ios": "https://dc.lft.to/lastmile_qr_scan", "android": "https://dc.lft.to/lastmile_qr_scan"}, "bike_id": "fb0f490f052d031821f1f1e2540fb684", "lat": 38.931106, "name": "fb0f490f052d031821f1f1e2540fb684", "lon": -77.03808233333334, "fusion_lon": 0.0}, {"is_reserved": 0, "type": "electric_scooter", "fusion_lat": 0.0, "is_disabled": 0, "rental_uris": {"ios": "https://dc.lft.to/lastmile_qr_scan", "android": "https://dc.lft.to/lastmile_qr_scan"}, "bike_id": "c8c7fed14e55443b248f5befc471446f", "lat": 38.9189445, "name": "c8c7fed14e55443b248f5befc471446f", "lon": -77.023023, "fusion_lon": 0.0}, {"is_reserved": 0, "type": "electric_scooter", "fusion_lat": 0.0, "is_disabled": 0, "rental_uris": {"ios": "https://dc.lft.to/lastmile_qr_scan", "android": "https://dc.lft.to/lastmile_qr_scan"}, "bike_id": "927d20c17964d50055a7024d41ef3b7a", "lat": 38.90039783333334, "name": "927d20c17964d50055a7024d41ef3b7a", "lon": -77.01228666666667, "fusion_lon": 0.0}, {"is_reserved": 0, "type": "electric_scooter", "fusion_lat": 0.0, "is_disabled": 0, "rental_uris": {"ios": "https://dc.lft.to/lastmile_qr_scan", "android": "https://dc.lft.to/lastmile_qr_scan"}, "bike_id": "9b5a39e45843e1c34869af1ea9bd4eca", "lat": 38.93582816666667, "name": "9b5a39e45843e1c34869af1ea9bd4eca", "lon": -77.074332, "fusion_lon": 0.0}, {"is_reserved": 0, "type": "electric_scooter", "fusion_lat": 0.0, "is_disabled": 0, "rental_uris": {"ios": "https://dc.lft.to/lastmile_qr_scan", "android": "https://dc.lft.to/lastmile_qr_scan"}, "bike_id": "7e06f2019df308f7861daa0b71d07f94", "lat": 38.893401833333336, "name": "7e06f2019df308f7861daa0b71d07f94", "lon": -76.985554, "fusion_lon": 0.0}, {"is_reserved": 0, "type": "electric_scooter", "fusion_lat": 0.0, "is_disabled": 0, "rental_uris": {"ios": "https://dc.lft.to/lastmile_qr_scan", "android": "https://dc.lft.to/lastmile_qr_scan"}, "bike_id": "d04cdd307499baedcb8f82491cf7b20e", "lat": 38.877394333333335, "name": "d04cdd307499baedcb8f82491cf7b20e", "lon": -77.00587483333334, "fusion_lon": 0.0}, {"is_reserved": 0, "type": "electric_scooter", "fusion_lat": 0.0, "is_disabled": 0, "rental_uris": {"ios": "https://dc.lft.to/lastmile_qr_scan", "android": "https://dc.lft.to/lastmile_qr_scan"}, "bike_id": "314f0b8188a964c8faf690a92b2a0c68", "lat": 38.92796666666667, "name": "314f0b8188a964c8faf690a92b2a0c68", "lon": -77.03694233333333, "fusion_lon": 0.0}, {"is_reserved": 0, "type": "electric_scooter", "fusion_lat": 0.0, "is_disabled": 0, "rental_uris": {"ios": "https://dc.lft.to/lastmile_qr_scan", "android": "https://dc.lft.to/lastmile_qr_scan"}, "bike_id": "4e287780c6f56c6037c83a84eb5c865d", "lat": 38.89881916666667, "name": "4e287780c6f56c6037c83a84eb5c865d", "lon": -77.02166066666666, "fusion_lon": 0.0}, {"is_reserved": 0, "type": "electric_scooter", "fusion_lat": 0.0, "is_disabled": 0, "rental_uris": {"ios": "https://dc.lft.to/lastmile_qr_scan", "android": "https://dc.lft.to/lastmile_qr_scan"}, "bike_id": "ce71370edee813d19e9df343becc7461", "lat": 38.91856333333333, "name": "ce71370edee813d19e9df343becc7461", "lon": -77.03520816666666, "fusion_lon": 0.0}, {"is_reserved": 0, "type": "electric_scooter", "fusion_lat": 0.0, "is_disabled": 0, "rental_uris": {"ios": "https://dc.lft.to/lastmile_qr_scan", "android": "https://dc.lft.to/lastmile_qr_scan"}, "bike_id": "faea7bce85d92bc8fc4cee531b0ad909", "lat": 38.9028645, "name": "faea7bce85d92bc8fc4cee531b0ad909", "lon": -77.0402705, "fusion_lon": 0.0}, {"is_reserved": 0, "type": "electric_scooter", "fusion_lat": 0.0, "is_disabled": 0, "rental_uris": {"ios": "https://dc.lft.to/lastmile_qr_scan", "android": "https://dc.lft.to/lastmile_qr_scan"}, "bike_id": "6423b4e9d2349aa3077656def6d29c31", "lat": 38.883788833333334, "name": "6423b4e9d2349aa3077656def6d29c31", "lon": -77.03022116666666, "fusion_lon": 0.0}, {"is_reserved": 0, "type": "electric_scooter", "fusion_lat": 0.0, "is_disabled": 0, "rental_uris": {"ios": "https://dc.lft.to/lastmile_qr_scan", "android": "https://dc.lft.to/lastmile_qr_scan"}, "bike_id": "eb30e9d10f3a07cb3302e04470b20bb1", "lat": 38.91832133333333, "name": "eb30e9d10f3a07cb3302e04470b20bb1", "lon": -77.03178366666667, "fusion_lon": 0.0}, {"is_reserved": 0, "type": "electric_scooter", "fusion_lat": 0.0, "is_disabled": 0, "rental_uris": {"ios": "https://dc.lft.to/lastmile_qr_scan", "android": "https://dc.lft.to/lastmile_qr_scan"}, "bike_id": "6d2eea487314a5d5b757bd58726dc3e7", "lat": 38.964994, "name": "6d2eea487314a5d5b757bd58726dc3e7", "lon": -77.06283166666667, "fusion_lon": 0.0}, {"is_reserved": 0, "type": "electric_bike", "fusion_lat": 0.0, "is_disabled": 0, "rental_uris": {"ios": "https://dc.lft.to/lastmile_qr_scan", "android": "https://dc.lft.to/lastmile_qr_scan"}, "bike_id": "a8c49500a930e1d3d838192c8c9e88d8", "lat": 38.93842733333334, "name": "a8c49500a930e1d3d838192c8c9e88d8", "lon": -76.943331, "fusion_lon": 0.0}, {"is_reserved": 0, "type": "electric_scooter", "fusion_lat": 0.0, "is_disabled": 0, "rental_uris": {"ios": "https://dc.lft.to/lastmile_qr_scan", "android": "https://dc.lft.to/lastmile_qr_scan"}, "bike_id": "221466964d3daafa61c8e2adb6ccb2e3", "lat": 38.920371833333334, "name": "221466964d3daafa61c8e2adb6ccb2e3", "lon": -77.04182783333333, "fusion_lon": 0.0}, {"is_reserved": 0, "type": "electric_bike", "fusion_lat": 0.0, "is_disabled": 0, "rental_uris": {"ios": "https://dc.lft.to/lastmile_qr_scan", "android": "https://dc.lft.to/lastmile_qr_scan"}, "bike_id": "129f4da998b1b4cb7941cf42dea77f1b", "lat": 38.8827405, "name": "129f4da998b1b4cb7941cf42dea77f1b", "lon": -76.93238583333333, "fusion_lon": 0.0}, {"is_reserved": 0, "type": "electric_scooter", "fusion_lat": 0.0, "is_disabled": 0, "rental_uris": {"ios": "https://dc.lft.to/lastmile_qr_scan", "android": "https://dc.lft.to/lastmile_qr_scan"}, "bike_id": "2a7ffe535bdd8fbbc6f10701203a2f97", "lat": 38.919699, "name": "2a7ffe535bdd8fbbc6f10701203a2f97", "lon": -77.07121466666666, "fusion_lon": 0.0}, {"is_reserved": 0, "type": "electric_scooter", "fusion_lat": 0.0, "is_disabled": 0, "rental_uris": {"ios": "https://dc.lft.to/lastmile_qr_scan", "android": "https://dc.lft.to/lastmile_qr_scan"}, "bike_id": "85ee49f84fb6b4a501ab10cde24fca8f", "lat": 38.91256683333334, "name": "85ee49f84fb6b4a501ab10cde24fca8f", "lon": -77.038776, "fusion_lon": 0.0}, {"is_reserved": 0, "type": "electric_scooter", "fusion_lat": 0.0, "is_disabled": 0, "rental_uris": {"ios": "https://dc.lft.to/lastmile_qr_scan", "android": "https://dc.lft.to/lastmile_qr_scan"}, "bike_id": "a218e75dff2e2c01f385924c303c0bc1", "lat": 38.92825533333333, "name": "a218e75dff2e2c01f385924c303c0bc1", "lon": -77.02160383333333, "fusion_lon": 0.0}, {"is_reserved": 0, "type": "electric_scooter", "fusion_lat": 0.0, "is_disabled": 0, "rental_uris": {"ios": "https://dc.lft.to/lastmile_qr_scan", "android": "https://dc.lft.to/lastmile_qr_scan"}, "bike_id": "6c68e15ffd21c4833a2dd55f2721671d", "lat": 38.907286166666665, "name": "6c68e15ffd21c4833a2dd55f2721671d", "lon": -77.02416533333333, "fusion_lon": 0.0}, {"is_reserved": 0, "type": "electric_scooter", "fusion_lat": 0.0, "is_disabled": 0, "rental_uris": {"ios": "https://dc.lft.to/lastmile_qr_scan", "android": "https://dc.lft.to/lastmile_qr_scan"}, "bike_id": "8208f2ce4703d186cb0ce4b0d574a8fc", "lat": 38.93984183333333, "name": "8208f2ce4703d186cb0ce4b0d574a8fc", "lon": -77.02890033333334, "fusion_lon": 0.0}, {"is_reserved": 0, "type": "electric_scooter", "fusion_lat": 0.0, "is_disabled": 0, "rental_uris": {"ios": "https://dc.lft.to/lastmile_qr_scan", "android": "https://dc.lft.to/lastmile_qr_scan"}, "bike_id": "0aa64dea911c105280432aad3a3cedb0", "lat": 38.930732, "name": "0aa64dea911c105280432aad3a3cedb0", "lon": -77.03188933333334, "fusion_lon": 0.0}, {"is_reserved": 0, "type": "electric_scooter", "fusion_lat": 0.0, "is_disabled": 0, "rental_uris": {"ios": "https://dc.lft.to/lastmile_qr_scan", "android": "https://dc.lft.to/lastmile_qr_scan"}, "bike_id": "921c78a9b05e212a168e236f6ea759c2", "lat": 38.893794666666665, "name": "921c78a9b05e212a168e236f6ea759c2", "lon": -76.92304566666667, "fusion_lon": 0.0}, {"is_reserved": 0, "type": "electric_scooter", "fusion_lat": 0.0, "is_disabled": 0, "rental_uris": {"ios": "https://dc.lft.to/lastmile_qr_scan", "android": "https://dc.lft.to/lastmile_qr_scan"}, "bike_id": "36f0268dba5a2360d8463adf0d0e7212", "lat": 38.8948405, "name": "36f0268dba5a2360d8463adf0d0e7212", "lon": -77.02723866666666, "fusion_lon": 0.0}, {"is_reserved": 0, "type": "electric_scooter", "fusion_lat": 0.0, "is_disabled": 0, "rental_uris": {"ios": "https://dc.lft.to/lastmile_qr_scan", "android": "https://dc.lft.to/lastmile_qr_scan"}, "bike_id": "f23f14e5fd18f42ef13078b12ab9d82b", "lat": 38.89222916666667, "name": "f23f14e5fd18f42ef13078b12ab9d82b", "lon": -77.04484416666666, "fusion_lon": 0.0}, {"is_reserved": 0, "type": "electric_scooter", "fusion_lat": 0.0, "is_disabled": 0, "rental_uris": {"ios": "https://dc.lft.to/lastmile_qr_scan", "android": "https://dc.lft.to/lastmile_qr_scan"}, "bike_id": "1bfabdb6a10ccf32812a143427356874", "lat": 38.9342425, "name": "1bfabdb6a10ccf32812a143427356874", "lon": -77.04410216666666, "fusion_lon": 0.0}, {"is_reserved": 0, "type": "electric_scooter", "fusion_lat": 0.0, "is_disabled": 0, "rental_uris": {"ios": "https://dc.lft.to/lastmile_qr_scan", "android": "https://dc.lft.to/lastmile_qr_scan"}, "bike_id": "722e3c0fc135e2773f6604f0c48f475c", "lat": 38.894726, "name": "722e3c0fc135e2773f6604f0c48f475c", "lon": -76.993558, "fusion_lon": 0.0}, {"is_reserved": 0, "type": "electric_scooter", "fusion_lat": 0.0, "is_disabled": 0, "rental_uris": {"ios": "https://dc.lft.to/lastmile_qr_scan", "android": "https://dc.lft.to/lastmile_qr_scan"}, "bike_id": "f910243f72fe6ffab9d4aae26bc3d64e", "lat": 38.922155000000004, "name": "f910243f72fe6ffab9d4aae26bc3d64e", "lon": -77.0329335, "fusion_lon": 0.0}, {"is_reserved": 0, "type": "electric_scooter", "fusion_lat": 0.0, "is_disabled": 0, "rental_uris": {"ios": "https://dc.lft.to/lastmile_qr_scan", "android": "https://dc.lft.to/lastmile_qr_scan"}, "bike_id": "1a92683754ed953598cc2f2d9c09c385", "lat": 38.907390666666664, "name": "1a92683754ed953598cc2f2d9c09c385", "lon": -77.00301916666666, "fusion_lon": 0.0}, {"is_reserved": 0, "type": "electric_scooter", "fusion_lat": 0.0, "is_disabled": 0, "rental_uris": {"ios": "https://dc.lft.to/lastmile_qr_scan", "android": "https://dc.lft.to/lastmile_qr_scan"}, "bike_id": "62fd0dfad1a6eb410559dfcf255cde10", "lat": 38.8983125, "name": "62fd0dfad1a6eb410559dfcf255cde10", "lon": -76.946318, "fusion_lon": 0.0}, {"is_reserved": 0, "type": "electric_scooter", "fusion_lat": 0.0, "is_disabled": 0, "rental_uris": {"ios": "https://dc.lft.to/lastmile_qr_scan", "android": "https://dc.lft.to/lastmile_qr_scan"}, "bike_id": "81c4ffc1acebbf4d3b686017ac5018ea", "lat": 38.89853566666667, "name": "81c4ffc1acebbf4d3b686017ac5018ea", "lon": -77.03949533333333, "fusion_lon": 0.0}, {"is_reserved": 0, "type": "electric_scooter", "fusion_lat": 0.0, "is_disabled": 0, "rental_uris": {"ios": "https://dc.lft.to/lastmile_qr_scan", "android": "https://dc.lft.to/lastmile_qr_scan"}, "bike_id": "64930cde1fd8be67f0db7f3478c6fc25", "lat": 38.922849, "name": "64930cde1fd8be67f0db7f3478c6fc25", "lon": -77.0199105, "fusion_lon": 0.0}, {"is_reserved": 0, "type": "electric_scooter", "fusion_lat": 0.0, "is_disabled": 0, "rental_uris": {"ios": "https://dc.lft.to/lastmile_qr_scan", "android": "https://dc.lft.to/lastmile_qr_scan"}, "bike_id": "d379e7df9fe689b879446d1b30716678", "lat": 38.904857166666666, "name": "d379e7df9fe689b879446d1b30716678", "lon": -77.02798966666667, "fusion_lon": 0.0}, {"is_reserved": 0, "type": "electric_scooter", "fusion_lat": 0.0, "is_disabled": 0, "rental_uris": {"ios": "https://dc.lft.to/lastmile_qr_scan", "android": "https://dc.lft.to/lastmile_qr_scan"}, "bike_id": "50330f87a42b1d7ec1aa196236ec3582", "lat": 38.92831233333333, "name": "50330f87a42b1d7ec1aa196236ec3582", "lon": -77.03708866666666, "fusion_lon": 0.0}, {"is_reserved": 0, "type": "electric_scooter", "fusion_lat": 0.0, "is_disabled": 0, "rental_uris": {"ios": "https://dc.lft.to/lastmile_qr_scan", "android": "https://dc.lft.to/lastmile_qr_scan"}, "bike_id": "9be0a510b1cd1f1bdfbbdbb94ba37b21", "lat": 38.876314666666666, "name": "9be0a510b1cd1f1bdfbbdbb94ba37b21", "lon": -77.00961083333333, "fusion_lon": 0.0}, {"is_reserved": 0, "type": "electric_scooter", "fusion_lat": 0.0, "is_disabled": 0, "rental_uris": {"ios": "https://dc.lft.to/lastmile_qr_scan", "android": "https://dc.lft.to/lastmile_qr_scan"}, "bike_id": "5b9b076523912e61366b8a71221de910", "lat": 38.902525833333335, "name": "5b9b076523912e61366b8a71221de910", "lon": -77.01793666666667, "fusion_lon": 0.0}, {"is_reserved": 0, "type": "electric_scooter", "fusion_lat": 0.0, "is_disabled": 0, "rental_uris": {"ios": "https://dc.lft.to/lastmile_qr_scan", "android": "https://dc.lft.to/lastmile_qr_scan"}, "bike_id": "d5fb33ffb6d6e8aa2e4d0eb726028e2e", "lat": 38.886587, "name": "d5fb33ffb6d6e8aa2e4d0eb726028e2e", "lon": -76.98559683333333, "fusion_lon": 0.0}, {"is_reserved": 0, "type": "electric_scooter", "fusion_lat": 0.0, "is_disabled": 0, "rental_uris": {"ios": "https://dc.lft.to/lastmile_qr_scan", "android": "https://dc.lft.to/lastmile_qr_scan"}, "bike_id": "00836ec3205817b00ce5b25baed43711", "lat": 38.90612633333333, "name": "00836ec3205817b00ce5b25baed43711", "lon": -77.02101933333333, "fusion_lon": 0.0}, {"is_reserved": 0, "type": "electric_scooter", "fusion_lat": 0.0, "is_disabled": 0, "rental_uris": {"ios": "https://dc.lft.to/lastmile_qr_scan", "android": "https://dc.lft.to/lastmile_qr_scan"}, "bike_id": "233e8a2fcd741f609357f00d0e40ae45", "lat": 38.855146500000004, "name": "233e8a2fcd741f609357f00d0e40ae45", "lon": -76.99139583333333, "fusion_lon": 0.0}, {"is_reserved": 0, "type": "electric_scooter", "fusion_lat": 0.0, "is_disabled": 0, "rental_uris": {"ios": "https://dc.lft.to/lastmile_qr_scan", "android": "https://dc.lft.to/lastmile_qr_scan"}, "bike_id": "8cf0c87b4e0e883fb8ab4ec6f02229e8", "lat": 38.91711033333333, "name": "8cf0c87b4e0e883fb8ab4ec6f02229e8", "lon": -77.03856433333333, "fusion_lon": 0.0}, {"is_reserved": 0, "type": "electric_scooter", "fusion_lat": 0.0, "is_disabled": 0, "rental_uris": {"ios": "https://dc.lft.to/lastmile_qr_scan", "android": "https://dc.lft.to/lastmile_qr_scan"}, "bike_id": "03d51a9662fb52d69b30cd935a043c75", "lat": 38.90204766666667, "name": "03d51a9662fb52d69b30cd935a043c75", "lon": -77.02371666666667, "fusion_lon": 0.0}, {"is_reserved": 0, "type": "electric_scooter", "fusion_lat": 0.0, "is_disabled": 0, "rental_uris": {"ios": "https://dc.lft.to/lastmile_qr_scan", "android": "https://dc.lft.to/lastmile_qr_scan"}, "bike_id": "1e8e9c7d4201c9b4c9ca4e0d42defb0c", "lat": 38.93009716666667, "name": "1e8e9c7d4201c9b4c9ca4e0d42defb0c", "lon": -77.04051, "fusion_lon": 0.0}, {"is_reserved": 0, "type": "electric_scooter", "fusion_lat": 0.0, "is_disabled": 0, "rental_uris": {"ios": "https://dc.lft.to/lastmile_qr_scan", "android": "https://dc.lft.to/lastmile_qr_scan"}, "bike_id": "7007e95bd0d55f0c841e55f076b56688", "lat": 38.876544333333335, "name": "7007e95bd0d55f0c841e55f076b56688", "lon": -77.0157455, "fusion_lon": 0.0}, {"is_reserved": 0, "type": "electric_bike", "fusion_lat": 0.0, "is_disabled": 0, "rental_uris": {"ios": "https://dc.lft.to/lastmile_qr_scan", "android": "https://dc.lft.to/lastmile_qr_scan"}, "bike_id": "a9f1735bfcb54edcea4c68649bd5fe4b", "lat": 38.97341483333334, "name": "a9f1735bfcb54edcea4c68649bd5fe4b", "lon": -77.01794533333333, "fusion_lon": 0.0}, {"is_reserved": 0, "type": "electric_scooter", "fusion_lat": 0.0, "is_disabled": 0, "rental_uris": {"ios": "https://dc.lft.to/lastmile_qr_scan", "android": "https://dc.lft.to/lastmile_qr_scan"}, "bike_id": "0ef5b9c60c57a21f5cf58ba95ef98a79", "lat": 38.916479, "name": "0ef5b9c60c57a21f5cf58ba95ef98a79", "lon": -77.021795, "fusion_lon": 0.0}, {"is_reserved": 0, "type": "electric_scooter", "fusion_lat": 0.0, "is_disabled": 0, "rental_uris": {"ios": "https://dc.lft.to/lastmile_qr_scan", "android": "https://dc.lft.to/lastmile_qr_scan"}, "bike_id": "0b41601b64a3a59fd4e75d2defd6f512", "lat": 38.898426, "name": "0b41601b64a3a59fd4e75d2defd6f512", "lon": -77.050042, "fusion_lon": 0.0}, {"is_reserved": 0, "type": "electric_bike", "fusion_lat": 0.0, "is_disabled": 0, "rental_uris": {"ios": "https://dc.lft.to/lastmile_qr_scan", "android": "https://dc.lft.to/lastmile_qr_scan"}, "bike_id": "f94f22c4f850c3397a24bef34a8f7480", "lat": 38.947326833333335, "name": "f94f22c4f850c3397a24bef34a8f7480", "lon": -76.99583983333333, "fusion_lon": 0.0}, {"is_reserved": 0, "type": "electric_scooter", "fusion_lat": 0.0, "is_disabled": 0, "rental_uris": {"ios": "https://dc.lft.to/lastmile_qr_scan", "android": "https://dc.lft.to/lastmile_qr_scan"}, "bike_id": "517a35a552f653b03cfb54fe81c5d5da", "lat": 38.901879, "name": "517a35a552f653b03cfb54fe81c5d5da", "lon": -76.9346275, "fusion_lon": 0.0}, {"is_reserved": 0, "type": "electric_scooter", "fusion_lat": 0.0, "is_disabled": 0, "rental_uris": {"ios": "https://dc.lft.to/lastmile_qr_scan", "android": "https://dc.lft.to/lastmile_qr_scan"}, "bike_id": "b510dff8edc822f91e47dc8bda33fef0", "lat": 38.930800166666664, "name": "b510dff8edc822f91e47dc8bda33fef0", "lon": -77.07762316666667, "fusion_lon": 0.0}, {"is_reserved": 0, "type": "electric_scooter", "fusion_lat": 0.0, "is_disabled": 0, "rental_uris": {"ios": "https://dc.lft.to/lastmile_qr_scan", "android": "https://dc.lft.to/lastmile_qr_scan"}, "bike_id": "380468c5315b2052e3fef1b895b0ed7b", "lat": 38.924762333333334, "name": "380468c5315b2052e3fef1b895b0ed7b", "lon": -77.02626883333333, "fusion_lon": 0.0}, {"is_reserved": 0, "type": "electric_scooter", "fusion_lat": 0.0, "is_disabled": 0, "rental_uris": {"ios": "https://dc.lft.to/lastmile_qr_scan", "android": "https://dc.lft.to/lastmile_qr_scan"}, "bike_id": "d45fcc3841eacc930092a37c4bfb3d62", "lat": 38.919139666666666, "name": "d45fcc3841eacc930092a37c4bfb3d62", "lon": -77.04802483333333, "fusion_lon": 0.0}, {"is_reserved": 0, "type": "electric_scooter", "fusion_lat": 0.0, "is_disabled": 0, "rental_uris": {"ios": "https://dc.lft.to/lastmile_qr_scan", "android": "https://dc.lft.to/lastmile_qr_scan"}, "bike_id": "7a545f9e896903da4bf15e11e64834ad", "lat": 38.88362333333333, "name": "7a545f9e896903da4bf15e11e64834ad", "lon": -76.92789566666667, "fusion_lon": 0.0}, {"is_reserved": 0, "type": "electric_scooter", "fusion_lat": 0.0, "is_disabled": 0, "rental_uris": {"ios": "https://dc.lft.to/lastmile_qr_scan", "android": "https://dc.lft.to/lastmile_qr_scan"}, "bike_id": "6609e1e8f6abf1c7dc97a27dcdcd391a", "lat": 38.92114383333333, "name": "6609e1e8f6abf1c7dc97a27dcdcd391a", "lon": -77.04575166666666, "fusion_lon": 0.0}, {"is_reserved": 0, "type": "electric_scooter", "fusion_lat": 0.0, "is_disabled": 0, "rental_uris": {"ios": "https://dc.lft.to/lastmile_qr_scan", "android": "https://dc.lft.to/lastmile_qr_scan"}, "bike_id": "82b73ccc70836e3ed92a7abb496764fb", "lat": 38.905697833333335, "name": "82b73ccc70836e3ed92a7abb496764fb", "lon": -77.0250565, "fusion_lon": 0.0}, {"is_reserved": 0, "type": "electric_scooter", "fusion_lat": 0.0, "is_disabled": 0, "rental_uris": {"ios": "https://dc.lft.to/lastmile_qr_scan", "android": "https://dc.lft.to/lastmile_qr_scan"}, "bike_id": "5ea4f963aab45def467c983839082980", "lat": 38.91817066666667, "name": "5ea4f963aab45def467c983839082980", "lon": -77.02484416666667, "fusion_lon": 0.0}, {"is_reserved": 0, "type": "electric_scooter", "fusion_lat": 0.0, "is_disabled": 0, "rental_uris": {"ios": "https://dc.lft.to/lastmile_qr_scan", "android": "https://dc.lft.to/lastmile_qr_scan"}, "bike_id": "81a9dd073e212d3583e41a564fa20bab", "lat": 38.901802333333336, "name": "81a9dd073e212d3583e41a564fa20bab", "lon": -77.05088966666666, "fusion_lon": 0.0}, {"is_reserved": 0, "type": "electric_bike", "fusion_lat": 0.0, "is_disabled": 0, "rental_uris": {"ios": "https://dc.lft.to/lastmile_qr_scan", "android": "https://dc.lft.to/lastmile_qr_scan"}, "bike_id": "2e03ba0e5eff772b1a929b793972369e", "lat": 38.881308, "name": "2e03ba0e5eff772b1a929b793972369e", "lon": -77.01662433333334, "fusion_lon": 0.0}, {"is_reserved": 0, "type": "electric_scooter", "fusion_lat": 0.0, "is_disabled": 0, "rental_uris": {"ios": "https://dc.lft.to/lastmile_qr_scan", "android": "https://dc.lft.to/lastmile_qr_scan"}, "bike_id": "27b326cd20e6c1feec2e7c838e8b3ae6", "lat": 38.905716166666664, "name": "27b326cd20e6c1feec2e7c838e8b3ae6", "lon": -77.00556566666667, "fusion_lon": 0.0}, {"is_reserved": 0, "type": "electric_scooter", "fusion_lat": 0.0, "is_disabled": 0, "rental_uris": {"ios": "https://dc.lft.to/lastmile_qr_scan", "android": "https://dc.lft.to/lastmile_qr_scan"}, "bike_id": "59912ddb00d92e796461f62bfcd5b7d5", "lat": 38.88176133333333, "name": "59912ddb00d92e796461f62bfcd5b7d5", "lon": -76.92540733333334, "fusion_lon": 0.0}, {"is_reserved": 0, "type": "electric_bike", "fusion_lat": 0.0, "is_disabled": 0, "rental_uris": {"ios": "https://dc.lft.to/lastmile_qr_scan", "android": "https://dc.lft.to/lastmile_qr_scan"}, "bike_id": "bec5cb11de74b184cff4924a0236bd52", "lat": 38.8447245, "name": "bec5cb11de74b184cff4924a0236bd52", "lon": -76.99591016666666, "fusion_lon": 0.0}, {"is_reserved": 0, "type": "electric_scooter", "fusion_lat": 0.0, "is_disabled": 0, "rental_uris": {"ios": "https://dc.lft.to/lastmile_qr_scan", "android": "https://dc.lft.to/lastmile_qr_scan"}, "bike_id": "8ccdea49865e52224e9f5019515c73a3", "lat": 38.93874866666667, "name": "8ccdea49865e52224e9f5019515c73a3", "lon": -77.02953733333334, "fusion_lon": 0.0}, {"is_reserved": 0, "type": "electric_scooter", "fusion_lat": 0.0, "is_disabled": 0, "rental_uris": {"ios": "https://dc.lft.to/lastmile_qr_scan", "android": "https://dc.lft.to/lastmile_qr_scan"}, "bike_id": "214edc682027585d06dcc073ade80888", "lat": 38.931037, "name": "214edc682027585d06dcc073ade80888", "lon": -77.02472583333333, "fusion_lon": 0.0}, {"is_reserved": 0, "type": "electric_scooter", "fusion_lat": 0.0, "is_disabled": 0, "rental_uris": {"ios": "https://dc.lft.to/lastmile_qr_scan", "android": "https://dc.lft.to/lastmile_qr_scan"}, "bike_id": "32add81456f7cbaf9cbd53e524318126", "lat": 38.876961, "name": "32add81456f7cbaf9cbd53e524318126", "lon": -76.99621116666667, "fusion_lon": 0.0}, {"is_reserved": 0, "type": "electric_scooter", "fusion_lat": 0.0, "is_disabled": 0, "rental_uris": {"ios": "https://dc.lft.to/lastmile_qr_scan", "android": "https://dc.lft.to/lastmile_qr_scan"}, "bike_id": "d1ba389f1a419725c257066af26032e0", "lat": 38.905365833333335, "name": "d1ba389f1a419725c257066af26032e0", "lon": -77.0570255, "fusion_lon": 0.0}, {"is_reserved": 0, "type": "electric_bike", "fusion_lat": 0.0, "is_disabled": 0, "rental_uris": {"ios": "https://dc.lft.to/lastmile_qr_scan", "android": "https://dc.lft.to/lastmile_qr_scan"}, "bike_id": "6a5d8a4b1227f5853d1e3cd03b075477", "lat": 38.908361166666666, "name": "6a5d8a4b1227f5853d1e3cd03b075477", "lon": -77.03850783333333, "fusion_lon": 0.0}, {"is_reserved": 0, "type": "electric_scooter", "fusion_lat": 0.0, "is_disabled": 0, "rental_uris": {"ios": "https://dc.lft.to/lastmile_qr_scan", "android": "https://dc.lft.to/lastmile_qr_scan"}, "bike_id": "e9b42dcf1ec4b81e3be26cae920adc3f", "lat": 38.91252166666666, "name": "e9b42dcf1ec4b81e3be26cae920adc3f", "lon": -77.04594066666667, "fusion_lon": 0.0}, {"is_reserved": 0, "type": "electric_scooter", "fusion_lat": 0.0, "is_disabled": 0, "rental_uris": {"ios": "https://dc.lft.to/lastmile_qr_scan", "android": "https://dc.lft.to/lastmile_qr_scan"}, "bike_id": "628710bad7773b724d99c0cb2df57392", "lat": 38.917765333333335, "name": "628710bad7773b724d99c0cb2df57392", "lon": -77.040987, "fusion_lon": 0.0}, {"is_reserved": 0, "type": "electric_scooter", "fusion_lat": 0.0, "is_disabled": 0, "rental_uris": {"ios": "https://dc.lft.to/lastmile_qr_scan", "android": "https://dc.lft.to/lastmile_qr_scan"}, "bike_id": "f1d4c6cb15102e5458a9065f789b7036", "lat": 38.918095, "name": "f1d4c6cb15102e5458a9065f789b7036", "lon": -77.03301683333333, "fusion_lon": 0.0}, {"is_reserved": 0, "type": "electric_scooter", "fusion_lat": 0.0, "is_disabled": 0, "rental_uris": {"ios": "https://dc.lft.to/lastmile_qr_scan", "android": "https://dc.lft.to/lastmile_qr_scan"}, "bike_id": "965fed7e52ee91234efae383f55b9858", "lat": 38.919867833333335, "name": "965fed7e52ee91234efae383f55b9858", "lon": -76.97305566666667, "fusion_lon": 0.0}, {"is_reserved": 0, "type": "electric_scooter", "fusion_lat": 0.0, "is_disabled": 0, "rental_uris": {"ios": "https://dc.lft.to/lastmile_qr_scan", "android": "https://dc.lft.to/lastmile_qr_scan"}, "bike_id": "862efc3bdba3b3a4b1df852b9b5cdb6d", "lat": 38.912372833333336, "name": "862efc3bdba3b3a4b1df852b9b5cdb6d", "lon": -77.00916783333334, "fusion_lon": 0.0}, {"is_reserved": 0, "type": "electric_scooter", "fusion_lat": 0.0, "is_disabled": 0, "rental_uris": {"ios": "https://dc.lft.to/lastmile_qr_scan", "android": "https://dc.lft.to/lastmile_qr_scan"}, "bike_id": "cd4d3d00b04fc952ad2012307dec5ce2", "lat": 38.906493, "name": "cd4d3d00b04fc952ad2012307dec5ce2", "lon": -77.04562716666666, "fusion_lon": 0.0}, {"is_reserved": 0, "type": "electric_scooter", "fusion_lat": 0.0, "is_disabled": 0, "rental_uris": {"ios": "https://dc.lft.to/lastmile_qr_scan", "android": "https://dc.lft.to/lastmile_qr_scan"}, "bike_id": "ca5925bc80164c99e970fe4a04a700d2", "lat": 38.8765615, "name": "ca5925bc80164c99e970fe4a04a700d2", "lon": -77.000816, "fusion_lon": 0.0}, {"is_reserved": 0, "type": "electric_scooter", "fusion_lat": 0.0, "is_disabled": 0, "rental_uris": {"ios": "https://dc.lft.to/lastmile_qr_scan", "android": "https://dc.lft.to/lastmile_qr_scan"}, "bike_id": "a07db26f9429e43d9a847f8378d7b301", "lat": 38.902034666666665, "name": "a07db26f9429e43d9a847f8378d7b301", "lon": -77.01586433333334, "fusion_lon": 0.0}, {"is_reserved": 0, "type": "electric_scooter", "fusion_lat": 0.0, "is_disabled": 0, "rental_uris": {"ios": "https://dc.lft.to/lastmile_qr_scan", "android": "https://dc.lft.to/lastmile_qr_scan"}, "bike_id": "0c45581a3df5e398ff45794cc8bc2976", "lat": 38.945928, "name": "0c45581a3df5e398ff45794cc8bc2976", "lon": -77.02028533333333, "fusion_lon": 0.0}, {"is_reserved": 0, "type": "electric_scooter", "fusion_lat": 0.0, "is_disabled": 0, "rental_uris": {"ios": "https://dc.lft.to/lastmile_qr_scan", "android": "https://dc.lft.to/lastmile_qr_scan"}, "bike_id": "cb7ebc02fd62a4ede1c6353b5eb93b05", "lat": 38.916184, "name": "cb7ebc02fd62a4ede1c6353b5eb93b05", "lon": -77.03183066666666, "fusion_lon": 0.0}, {"is_reserved": 0, "type": "electric_bike", "fusion_lat": 0.0, "is_disabled": 0, "rental_uris": {"ios": "https://dc.lft.to/lastmile_qr_scan", "android": "https://dc.lft.to/lastmile_qr_scan"}, "bike_id": "aaf0a45040773c2d171faee8e12a1898", "lat": 38.842996666666664, "name": "aaf0a45040773c2d171faee8e12a1898", "lon": -76.98840416666667, "fusion_lon": 0.0}, {"is_reserved": 0, "type": "electric_scooter", "fusion_lat": 0.0, "is_disabled": 0, "rental_uris": {"ios": "https://dc.lft.to/lastmile_qr_scan", "android": "https://dc.lft.to/lastmile_qr_scan"}, "bike_id": "2531233d2d1f73a80d72d1ea26cc518b", "lat": 38.905802, "name": "2531233d2d1f73a80d72d1ea26cc518b", "lon": -77.00564066666666, "fusion_lon": 0.0}, {"is_reserved": 0, "type": "electric_scooter", "fusion_lat": 0.0, "is_disabled": 0, "rental_uris": {"ios": "https://dc.lft.to/lastmile_qr_scan", "android": "https://dc.lft.to/lastmile_qr_scan"}, "bike_id": "3aac71e480be0be4ca527408dc21d5af", "lat": 38.9020765, "name": "3aac71e480be0be4ca527408dc21d5af", "lon": -76.986978, "fusion_lon": 0.0}, {"is_reserved": 0, "type": "electric_scooter", "fusion_lat": 0.0, "is_disabled": 0, "rental_uris": {"ios": "https://dc.lft.to/lastmile_qr_scan", "android": "https://dc.lft.to/lastmile_qr_scan"}, "bike_id": "a3c6acbf48fc5c542bf50cd83a81b1b0", "lat": 38.90561483333333, "name": "a3c6acbf48fc5c542bf50cd83a81b1b0", "lon": -77.017206, "fusion_lon": 0.0}, {"is_reserved": 0, "type": "electric_scooter", "fusion_lat": 0.0, "is_disabled": 0, "rental_uris": {"ios": "https://dc.lft.to/lastmile_qr_scan", "android": "https://dc.lft.to/lastmile_qr_scan"}, "bike_id": "d1a8eaa4e2bff7591261b5b21f09cff9", "lat": 38.930091166666664, "name": "d1a8eaa4e2bff7591261b5b21f09cff9", "lon": -77.02096566666667, "fusion_lon": 0.0}, {"is_reserved": 0, "type": "electric_bike", "fusion_lat": 0.0, "is_disabled": 0, "rental_uris": {"ios": "https://dc.lft.to/lastmile_qr_scan", "android": "https://dc.lft.to/lastmile_qr_scan"}, "bike_id": "a1b2297d96696ebb299af39144f7aa96", "lat": 38.902226, "name": "a1b2297d96696ebb299af39144f7aa96", "lon": -77.05903483333333, "fusion_lon": 0.0}, {"is_reserved": 0, "type": "electric_scooter", "fusion_lat": 0.0, "is_disabled": 0, "rental_uris": {"ios": "https://dc.lft.to/lastmile_qr_scan", "android": "https://dc.lft.to/lastmile_qr_scan"}, "bike_id": "45a5bc710f96dad0956e57212011090c", "lat": 38.91798333333333, "name": "45a5bc710f96dad0956e57212011090c", "lon": -77.04434416666666, "fusion_lon": 0.0}, {"is_reserved": 0, "type": "electric_scooter", "fusion_lat": 0.0, "is_disabled": 0, "rental_uris": {"ios": "https://dc.lft.to/lastmile_qr_scan", "android": "https://dc.lft.to/lastmile_qr_scan"}, "bike_id": "c6c47f47ea85524c735312c135ae568c", "lat": 38.8761875, "name": "c6c47f47ea85524c735312c135ae568c", "lon": -77.006032, "fusion_lon": 0.0}, {"is_reserved": 0, "type": "electric_scooter", "fusion_lat": 0.0, "is_disabled": 0, "rental_uris": {"ios": "https://dc.lft.to/lastmile_qr_scan", "android": "https://dc.lft.to/lastmile_qr_scan"}, "bike_id": "fc0ce40a705299455637d175dfc17cc6", "lat": 38.89749716666667, "name": "fc0ce40a705299455637d175dfc17cc6", "lon": -77.04798316666667, "fusion_lon": 0.0}, {"is_reserved": 0, "type": "electric_scooter", "fusion_lat": 0.0, "is_disabled": 0, "rental_uris": {"ios": "https://dc.lft.to/lastmile_qr_scan", "android": "https://dc.lft.to/lastmile_qr_scan"}, "bike_id": "0aa9e120104b9b73d6f3accae4885fd7", "lat": 38.8953345, "name": "0aa9e120104b9b73d6f3accae4885fd7", "lon": -77.02678716666667, "fusion_lon": 0.0}, {"is_reserved": 0, "type": "electric_scooter", "fusion_lat": 0.0, "is_disabled": 0, "rental_uris": {"ios": "https://dc.lft.to/lastmile_qr_scan", "android": "https://dc.lft.to/lastmile_qr_scan"}, "bike_id": "7d5acd968818fc141c0fb17727a6c2f7", "lat": 38.905840833333336, "name": "7d5acd968818fc141c0fb17727a6c2f7", "lon": -77.0161105, "fusion_lon": 0.0}, {"is_reserved": 0, "type": "electric_bike", "fusion_lat": 0.0, "is_disabled": 0, "rental_uris": {"ios": "https://dc.lft.to/lastmile_qr_scan", "android": "https://dc.lft.to/lastmile_qr_scan"}, "bike_id": "50d7ca867653bcae7a5bb11f8f7678ee", "lat": 38.846868666666666, "name": "50d7ca867653bcae7a5bb11f8f7678ee", "lon": -76.98063916666666, "fusion_lon": 0.0}, {"is_reserved": 0, "type": "electric_scooter", "fusion_lat": 0.0, "is_disabled": 0, "rental_uris": {"ios": "https://dc.lft.to/lastmile_qr_scan", "android": "https://dc.lft.to/lastmile_qr_scan"}, "bike_id": "f2726908f2fa95d09a396aa43b868f95", "lat": 38.91292816666667, "name": "f2726908f2fa95d09a396aa43b868f95", "lon": -76.98691166666667, "fusion_lon": 0.0}, {"is_reserved": 0, "type": "electric_bike", "fusion_lat": 0.0, "is_disabled": 0, "rental_uris": {"ios": "https://dc.lft.to/lastmile_qr_scan", "android": "https://dc.lft.to/lastmile_qr_scan"}, "bike_id": "e725779be0f591f225478a3e1feafbd1", "lat": 38.887592833333336, "name": "e725779be0f591f225478a3e1feafbd1", "lon": -77.1565015, "fusion_lon": 0.0}, {"is_reserved": 0, "type": "electric_scooter", "fusion_lat": 0.0, "is_disabled": 0, "rental_uris": {"ios": "https://dc.lft.to/lastmile_qr_scan", "android": "https://dc.lft.to/lastmile_qr_scan"}, "bike_id": "393d871b6ed619b750b17e456097327a", "lat": 38.9137755, "name": "393d871b6ed619b750b17e456097327a", "lon": -77.06430566666667, "fusion_lon": 0.0}, {"is_reserved": 0, "type": "electric_scooter", "fusion_lat": 0.0, "is_disabled": 0, "rental_uris": {"ios": "https://dc.lft.to/lastmile_qr_scan", "android": "https://dc.lft.to/lastmile_qr_scan"}, "bike_id": "e1fc6dbd652ab0a5668974c5536101f5", "lat": 38.903818333333334, "name": "e1fc6dbd652ab0a5668974c5536101f5", "lon": -77.04036283333333, "fusion_lon": 0.0}, {"is_reserved": 0, "type": "electric_scooter", "fusion_lat": 0.0, "is_disabled": 0, "rental_uris": {"ios": "https://dc.lft.to/lastmile_qr_scan", "android": "https://dc.lft.to/lastmile_qr_scan"}, "bike_id": "a82a0d9c68ab486eb890d655ffe8851b", "lat": 38.915541, "name": "a82a0d9c68ab486eb890d655ffe8851b", "lon": -76.9849935, "fusion_lon": 0.0}, {"is_reserved": 0, "type": "electric_scooter", "fusion_lat": 0.0, "is_disabled": 0, "rental_uris": {"ios": "https://dc.lft.to/lastmile_qr_scan", "android": "https://dc.lft.to/lastmile_qr_scan"}, "bike_id": "d34d1921cdc9b1b05423f59d2dfbad1a", "lat": 38.90815383333333, "name": "d34d1921cdc9b1b05423f59d2dfbad1a", "lon": -77.08425883333334, "fusion_lon": 0.0}, {"is_reserved": 0, "type": "electric_scooter", "fusion_lat": 0.0, "is_disabled": 0, "rental_uris": {"ios": "https://dc.lft.to/lastmile_qr_scan", "android": "https://dc.lft.to/lastmile_qr_scan"}, "bike_id": "06432f84914e0f8fb75afe211876d869", "lat": 38.90082116666667, "name": "06432f84914e0f8fb75afe211876d869", "lon": -77.02303883333333, "fusion_lon": 0.0}, {"is_reserved": 0, "type": "electric_bike", "fusion_lat": 0.0, "is_disabled": 0, "rental_uris": {"ios": "https://dc.lft.to/lastmile_qr_scan", "android": "https://dc.lft.to/lastmile_qr_scan"}, "bike_id": "c575e159bfd661f3d0badd7b42402f26", "lat": 38.846199, "name": "c575e159bfd661f3d0badd7b42402f26", "lon": -76.97837133333333, "fusion_lon": 0.0}, {"is_reserved": 0, "type": "electric_scooter", "fusion_lat": 0.0, "is_disabled": 0, "rental_uris": {"ios": "https://dc.lft.to/lastmile_qr_scan", "android": "https://dc.lft.to/lastmile_qr_scan"}, "bike_id": "6108279a73cea8f68f2261dc02488d45", "lat": 38.935087333333335, "name": "6108279a73cea8f68f2261dc02488d45", "lon": -77.03671016666667, "fusion_lon": 0.0}, {"is_reserved": 0, "type": "electric_scooter", "fusion_lat": 0.0, "is_disabled": 0, "rental_uris": {"ios": "https://dc.lft.to/lastmile_qr_scan", "android": "https://dc.lft.to/lastmile_qr_scan"}, "bike_id": "c387c750fccdc38640dc364e46b06b00", "lat": 38.908613, "name": "c387c750fccdc38640dc364e46b06b00", "lon": -77.02664933333334, "fusion_lon": 0.0}, {"is_reserved": 0, "type": "electric_scooter", "fusion_lat": 0.0, "is_disabled": 0, "rental_uris": {"ios": "https://dc.lft.to/lastmile_qr_scan", "android": "https://dc.lft.to/lastmile_qr_scan"}, "bike_id": "ad3234b12f14f9cb4ef161c1843431d7", "lat": 38.924703, "name": "ad3234b12f14f9cb4ef161c1843431d7", "lon": -77.02217433333334, "fusion_lon": 0.0}, {"is_reserved": 0, "type": "electric_scooter", "fusion_lat": 0.0, "is_disabled": 0, "rental_uris": {"ios": "https://dc.lft.to/lastmile_qr_scan", "android": "https://dc.lft.to/lastmile_qr_scan"}, "bike_id": "844a204b2fd64a0717c95a4cb1ee0116", "lat": 38.917081, "name": "844a204b2fd64a0717c95a4cb1ee0116", "lon": -77.02289283333333, "fusion_lon": 0.0}, {"is_reserved": 0, "type": "electric_scooter", "fusion_lat": 0.0, "is_disabled": 0, "rental_uris": {"ios": "https://dc.lft.to/lastmile_qr_scan", "android": "https://dc.lft.to/lastmile_qr_scan"}, "bike_id": "ec6130442bc5fdf3114a02cf7cae2d1f", "lat": 38.88705683333333, "name": "ec6130442bc5fdf3114a02cf7cae2d1f", "lon": -76.98339033333333, "fusion_lon": 0.0}, {"is_reserved": 0, "type": "electric_scooter", "fusion_lat": 0.0, "is_disabled": 0, "rental_uris": {"ios": "https://dc.lft.to/lastmile_qr_scan", "android": "https://dc.lft.to/lastmile_qr_scan"}, "bike_id": "e74e880e25a18a6cd10c71583f26ae91", "lat": 38.885731, "name": "e74e880e25a18a6cd10c71583f26ae91", "lon": -77.0120725, "fusion_lon": 0.0}, {"is_reserved": 0, "type": "electric_scooter", "fusion_lat": 0.0, "is_disabled": 0, "rental_uris": {"ios": "https://dc.lft.to/lastmile_qr_scan", "android": "https://dc.lft.to/lastmile_qr_scan"}, "bike_id": "c684b6e08c5c741b7360faa5152ab967", "lat": 38.91782666666667, "name": "c684b6e08c5c741b7360faa5152ab967", "lon": -77.0239775, "fusion_lon": 0.0}, {"is_reserved": 0, "type": "electric_scooter", "fusion_lat": 0.0, "is_disabled": 0, "rental_uris": {"ios": "https://dc.lft.to/lastmile_qr_scan", "android": "https://dc.lft.to/lastmile_qr_scan"}, "bike_id": "65e956fbc2955a341e788a30915d22e4", "lat": 38.919536, "name": "65e956fbc2955a341e788a30915d22e4", "lon": -77.02305433333333, "fusion_lon": 0.0}, {"is_reserved": 0, "type": "electric_bike", "fusion_lat": 0.0, "is_disabled": 0, "rental_uris": {"ios": "https://dc.lft.to/lastmile_qr_scan", "android": "https://dc.lft.to/lastmile_qr_scan"}, "bike_id": "35751c27ddf0842bdb5d0724fdb7fd0a", "lat": 38.868159166666665, "name": "35751c27ddf0842bdb5d0724fdb7fd0a", "lon": -76.9801965, "fusion_lon": 0.0}, {"is_reserved": 0, "type": "electric_scooter", "fusion_lat": 0.0, "is_disabled": 0, "rental_uris": {"ios": "https://dc.lft.to/lastmile_qr_scan", "android": "https://dc.lft.to/lastmile_qr_scan"}, "bike_id": "788db4de40d8d47838924b6796a1b8a7", "lat": 38.905239, "name": "788db4de40d8d47838924b6796a1b8a7", "lon": -77.06502883333333, "fusion_lon": 0.0}, {"is_reserved": 0, "type": "electric_scooter", "fusion_lat": 0.0, "is_disabled": 0, "rental_uris": {"ios": "https://dc.lft.to/lastmile_qr_scan", "android": "https://dc.lft.to/lastmile_qr_scan"}, "bike_id": "b5adb81d3c0a837e710cf8e7f07d7b43", "lat": 38.917648666666665, "name": "b5adb81d3c0a837e710cf8e7f07d7b43", "lon": -77.04761916666666, "fusion_lon": 0.0}, {"is_reserved": 0, "type": "electric_scooter", "fusion_lat": 0.0, "is_disabled": 0, "rental_uris": {"ios": "https://dc.lft.to/lastmile_qr_scan", "android": "https://dc.lft.to/lastmile_qr_scan"}, "bike_id": "a0ae983a86234761ac26218b899d8612", "lat": 38.907536666666665, "name": "a0ae983a86234761ac26218b899d8612", "lon": -77.01905416666666, "fusion_lon": 0.0}, {"is_reserved": 0, "type": "electric_scooter", "fusion_lat": 0.0, "is_disabled": 0, "rental_uris": {"ios": "https://dc.lft.to/lastmile_qr_scan", "android": "https://dc.lft.to/lastmile_qr_scan"}, "bike_id": "5b879662664057a7199b346c8797ecb2", "lat": 38.90231033333333, "name": "5b879662664057a7199b346c8797ecb2", "lon": -76.99028483333333, "fusion_lon": 0.0}, {"is_reserved": 0, "type": "electric_scooter", "fusion_lat": 0.0, "is_disabled": 0, "rental_uris": {"ios": "https://dc.lft.to/lastmile_qr_scan", "android": "https://dc.lft.to/lastmile_qr_scan"}, "bike_id": "461d4a0d3da0362bd226e2722de066fe", "lat": 38.913675166666664, "name": "461d4a0d3da0362bd226e2722de066fe", "lon": -77.0448955, "fusion_lon": 0.0}, {"is_reserved": 0, "type": "electric_scooter", "fusion_lat": 0.0, "is_disabled": 0, "rental_uris": {"ios": "https://dc.lft.to/lastmile_qr_scan", "android": "https://dc.lft.to/lastmile_qr_scan"}, "bike_id": "6188c77c921d7e7eca4dffe80df58c9e", "lat": 38.905752166666666, "name": "6188c77c921d7e7eca4dffe80df58c9e", "lon": -77.0298825, "fusion_lon": 0.0}, {"is_reserved": 0, "type": "electric_scooter", "fusion_lat": 0.0, "is_disabled": 0, "rental_uris": {"ios": "https://dc.lft.to/lastmile_qr_scan", "android": "https://dc.lft.to/lastmile_qr_scan"}, "bike_id": "60dccf5a2162aa1c075bc787ab8070e1", "lat": 38.90275966666667, "name": "60dccf5a2162aa1c075bc787ab8070e1", "lon": -77.04180983333333, "fusion_lon": 0.0}, {"is_reserved": 0, "type": "electric_scooter", "fusion_lat": 0.0, "is_disabled": 0, "rental_uris": {"ios": "https://dc.lft.to/lastmile_qr_scan", "android": "https://dc.lft.to/lastmile_qr_scan"}, "bike_id": "991871fe87d1b7cdca0f905a98e10ffa", "lat": 38.92351633333333, "name": "991871fe87d1b7cdca0f905a98e10ffa", "lon": -77.03306183333333, "fusion_lon": 0.0}, {"is_reserved": 0, "type": "electric_scooter", "fusion_lat": 0.0, "is_disabled": 0, "rental_uris": {"ios": "https://dc.lft.to/lastmile_qr_scan", "android": "https://dc.lft.to/lastmile_qr_scan"}, "bike_id": "a7a51f5ee9d41baf598535cb691a2b03", "lat": 38.953791333333335, "name": "a7a51f5ee9d41baf598535cb691a2b03", "lon": -77.001878, "fusion_lon": 0.0}, {"is_reserved": 0, "type": "electric_scooter", "fusion_lat": 0.0, "is_disabled": 0, "rental_uris": {"ios": "https://dc.lft.to/lastmile_qr_scan", "android": "https://dc.lft.to/lastmile_qr_scan"}, "bike_id": "57688decbec4d0c62a2808bc96fbd2e2", "lat": 38.912657333333335, "name": "57688decbec4d0c62a2808bc96fbd2e2", "lon": -77.014333, "fusion_lon": 0.0}, {"is_reserved": 0, "type": "electric_scooter", "fusion_lat": 0.0, "is_disabled": 0, "rental_uris": {"ios": "https://dc.lft.to/lastmile_qr_scan", "android": "https://dc.lft.to/lastmile_qr_scan"}, "bike_id": "45c936ea951e785843f1877e3075cf6a", "lat": 38.94444566666667, "name": "45c936ea951e785843f1877e3075cf6a", "lon": -77.032819, "fusion_lon": 0.0}, {"is_reserved": 0, "type": "electric_scooter", "fusion_lat": 0.0, "is_disabled": 0, "rental_uris": {"ios": "https://dc.lft.to/lastmile_qr_scan", "android": "https://dc.lft.to/lastmile_qr_scan"}, "bike_id": "9307372dbe91e3cdeaf8c8467b96879e", "lat": 38.92878966666667, "name": "9307372dbe91e3cdeaf8c8467b96879e", "lon": -77.03993933333334, "fusion_lon": 0.0}, {"is_reserved": 0, "type": "electric_scooter", "fusion_lat": 0.0, "is_disabled": 0, "rental_uris": {"ios": "https://dc.lft.to/lastmile_qr_scan", "android": "https://dc.lft.to/lastmile_qr_scan"}, "bike_id": "482c62ef639ac31731acc5e517783564", "lat": 38.95618616666667, "name": "482c62ef639ac31731acc5e517783564", "lon": -77.0330875, "fusion_lon": 0.0}, {"is_reserved": 0, "type": "electric_scooter", "fusion_lat": 0.0, "is_disabled": 0, "rental_uris": {"ios": "https://dc.lft.to/lastmile_qr_scan", "android": "https://dc.lft.to/lastmile_qr_scan"}, "bike_id": "361da21358e21eff828f0c6d72e51313", "lat": 38.89224433333333, "name": "361da21358e21eff828f0c6d72e51313", "lon": -77.0448485, "fusion_lon": 0.0}, {"is_reserved": 0, "type": "electric_scooter", "fusion_lat": 0.0, "is_disabled": 0, "rental_uris": {"ios": "https://dc.lft.to/lastmile_qr_scan", "android": "https://dc.lft.to/lastmile_qr_scan"}, "bike_id": "64d4679284553a7bba64391a45d6aa29", "lat": 38.951497, "name": "64d4679284553a7bba64391a45d6aa29", "lon": -77.018689, "fusion_lon": 0.0}, {"is_reserved": 0, "type": "electric_scooter", "fusion_lat": 0.0, "is_disabled": 0, "rental_uris": {"ios": "https://dc.lft.to/lastmile_qr_scan", "android": "https://dc.lft.to/lastmile_qr_scan"}, "bike_id": "8d7ce5aed695d1aef9c329e9d3df881b", "lat": 38.9103965, "name": "8d7ce5aed695d1aef9c329e9d3df881b", "lon": -77.01024733333334, "fusion_lon": 0.0}, {"is_reserved": 0, "type": "electric_scooter", "fusion_lat": 0.0, "is_disabled": 0, "rental_uris": {"ios": "https://dc.lft.to/lastmile_qr_scan", "android": "https://dc.lft.to/lastmile_qr_scan"}, "bike_id": "aed449229b95148d6e188d4987d539ab", "lat": 38.93056816666667, "name": "aed449229b95148d6e188d4987d539ab", "lon": -77.036662, "fusion_lon": 0.0}, {"is_reserved": 0, "type": "electric_scooter", "fusion_lat": 0.0, "is_disabled": 0, "rental_uris": {"ios": "https://dc.lft.to/lastmile_qr_scan", "android": "https://dc.lft.to/lastmile_qr_scan"}, "bike_id": "a96243db7ed82571e5830eda34d69f87", "lat": 38.876087166666665, "name": "a96243db7ed82571e5830eda34d69f87", "lon": -77.00588033333334, "fusion_lon": 0.0}, {"is_reserved": 0, "type": "electric_scooter", "fusion_lat": 0.0, "is_disabled": 0, "rental_uris": {"ios": "https://dc.lft.to/lastmile_qr_scan", "android": "https://dc.lft.to/lastmile_qr_scan"}, "bike_id": "87f8fdd8ee6020ebbcaf06852b19db54", "lat": 38.911601166666664, "name": "87f8fdd8ee6020ebbcaf06852b19db54", "lon": -77.04479333333333, "fusion_lon": 0.0}, {"is_reserved": 0, "type": "electric_scooter", "fusion_lat": 0.0, "is_disabled": 0, "rental_uris": {"ios": "https://dc.lft.to/lastmile_qr_scan", "android": "https://dc.lft.to/lastmile_qr_scan"}, "bike_id": "9c517f1d556a891e9700108158142d49", "lat": 38.885811, "name": "9c517f1d556a891e9700108158142d49", "lon": -77.0122645, "fusion_lon": 0.0}, {"is_reserved": 0, "type": "electric_bike", "fusion_lat": 0.0, "is_disabled": 0, "rental_uris": {"ios": "https://dc.lft.to/lastmile_qr_scan", "android": "https://dc.lft.to/lastmile_qr_scan"}, "bike_id": "cd392fee631a510910349ea29b4ad77e", "lat": 38.865626, "name": "cd392fee631a510910349ea29b4ad77e", "lon": -76.9747685, "fusion_lon": 0.0}, {"is_reserved": 0, "type": "electric_scooter", "fusion_lat": 0.0, "is_disabled": 0, "rental_uris": {"ios": "https://dc.lft.to/lastmile_qr_scan", "android": "https://dc.lft.to/lastmile_qr_scan"}, "bike_id": "3ccc3fcd73f232a5a82c02299d7df1f0", "lat": 38.8982795, "name": "3ccc3fcd73f232a5a82c02299d7df1f0", "lon": -77.0021375, "fusion_lon": 0.0}, {"is_reserved": 0, "type": "electric_scooter", "fusion_lat": 0.0, "is_disabled": 0, "rental_uris": {"ios": "https://dc.lft.to/lastmile_qr_scan", "android": "https://dc.lft.to/lastmile_qr_scan"}, "bike_id": "9166117e0008a7c73ed003522a2a69e3", "lat": 38.900679, "name": "9166117e0008a7c73ed003522a2a69e3", "lon": -77.01317183333333, "fusion_lon": 0.0}, {"is_reserved": 0, "type": "electric_bike", "fusion_lat": 0.0, "is_disabled": 0, "rental_uris": {"ios": "https://dc.lft.to/lastmile_qr_scan", "android": "https://dc.lft.to/lastmile_qr_scan"}, "bike_id": "ce72a09f2d910e92d74d5fd80e51abce", "lat": 38.824263333333334, "name": "ce72a09f2d910e92d74d5fd80e51abce", "lon": -77.120397, "fusion_lon": 0.0}, {"is_reserved": 0, "type": "electric_scooter", "fusion_lat": 0.0, "is_disabled": 0, "rental_uris": {"ios": "https://dc.lft.to/lastmile_qr_scan", "android": "https://dc.lft.to/lastmile_qr_scan"}, "bike_id": "6f113479ec360208d1ca597594ebfda3", "lat": 38.88573916666667, "name": "6f113479ec360208d1ca597594ebfda3", "lon": -77.000305, "fusion_lon": 0.0}, {"is_reserved": 0, "type": "electric_scooter", "fusion_lat": 0.0, "is_disabled": 0, "rental_uris": {"ios": "https://dc.lft.to/lastmile_qr_scan", "android": "https://dc.lft.to/lastmile_qr_scan"}, "bike_id": "7dda1813324e2ec9dc6d340fbd3a2ec6", "lat": 38.9105695, "name": "7dda1813324e2ec9dc6d340fbd3a2ec6", "lon": -77.02652366666666, "fusion_lon": 0.0}, {"is_reserved": 0, "type": "electric_scooter", "fusion_lat": 0.0, "is_disabled": 0, "rental_uris": {"ios": "https://dc.lft.to/lastmile_qr_scan", "android": "https://dc.lft.to/lastmile_qr_scan"}, "bike_id": "e2f8da35e74e422570b198bd9018f499", "lat": 38.920723833333334, "name": "e2f8da35e74e422570b198bd9018f499", "lon": -77.02508533333334, "fusion_lon": 0.0}, {"is_reserved": 0, "type": "electric_scooter", "fusion_lat": 0.0, "is_disabled": 0, "rental_uris": {"ios": "https://dc.lft.to/lastmile_qr_scan", "android": "https://dc.lft.to/lastmile_qr_scan"}, "bike_id": "963073659d0d2e0d22de20a5efe54159", "lat": 38.93968616666667, "name": "963073659d0d2e0d22de20a5efe54159", "lon": -77.0342915, "fusion_lon": 0.0}, {"is_reserved": 0, "type": "electric_scooter", "fusion_lat": 0.0, "is_disabled": 0, "rental_uris": {"ios": "https://dc.lft.to/lastmile_qr_scan", "android": "https://dc.lft.to/lastmile_qr_scan"}, "bike_id": "3145281ad9fdb7183ae03d1590f15769", "lat": 38.919414, "name": "3145281ad9fdb7183ae03d1590f15769", "lon": -77.00213116666667, "fusion_lon": 0.0}, {"is_reserved": 0, "type": "electric_bike", "fusion_lat": 0.0, "is_disabled": 0, "rental_uris": {"ios": "https://dc.lft.to/lastmile_qr_scan", "android": "https://dc.lft.to/lastmile_qr_scan"}, "bike_id": "7fadbba380f35f51cdf5081c11bd6b6e", "lat": 38.93185233333333, "name": "7fadbba380f35f51cdf5081c11bd6b6e", "lon": -77.02348566666667, "fusion_lon": 0.0}, {"is_reserved": 0, "type": "electric_scooter", "fusion_lat": 0.0, "is_disabled": 0, "rental_uris": {"ios": "https://dc.lft.to/lastmile_qr_scan", "android": "https://dc.lft.to/lastmile_qr_scan"}, "bike_id": "e579616031d5ad079901fcf473c48e2b", "lat": 38.89733283333333, "name": "e579616031d5ad079901fcf473c48e2b", "lon": -77.04368516666666, "fusion_lon": 0.0}, {"is_reserved": 0, "type": "electric_scooter", "fusion_lat": 0.0, "is_disabled": 0, "rental_uris": {"ios": "https://dc.lft.to/lastmile_qr_scan", "android": "https://dc.lft.to/lastmile_qr_scan"}, "bike_id": "07ab59ace72708795c8be18d80e0745d", "lat": 38.917086833333336, "name": "07ab59ace72708795c8be18d80e0745d", "lon": -77.09201, "fusion_lon": 0.0}, {"is_reserved": 0, "type": "electric_bike", "fusion_lat": 0.0, "is_disabled": 0, "rental_uris": {"ios": "https://dc.lft.to/lastmile_qr_scan", "android": "https://dc.lft.to/lastmile_qr_scan"}, "bike_id": "72a6cf89d26a230499a9b49cf322cbf2", "lat": 38.920357833333334, "name": "72a6cf89d26a230499a9b49cf322cbf2", "lon": -76.979539, "fusion_lon": 0.0}, {"is_reserved": 0, "type": "electric_scooter", "fusion_lat": 0.0, "is_disabled": 0, "rental_uris": {"ios": "https://dc.lft.to/lastmile_qr_scan", "android": "https://dc.lft.to/lastmile_qr_scan"}, "bike_id": "fe7728b32a920e60607b7243f1f9a06c", "lat": 38.906651833333335, "name": "fe7728b32a920e60607b7243f1f9a06c", "lon": -77.00914766666666, "fusion_lon": 0.0}, {"is_reserved": 0, "type": "electric_scooter", "fusion_lat": 0.0, "is_disabled": 0, "rental_uris": {"ios": "https://dc.lft.to/lastmile_qr_scan", "android": "https://dc.lft.to/lastmile_qr_scan"}, "bike_id": "8922c5eae5de325cd3b0eb1a69a34dbe", "lat": 38.9387685, "name": "8922c5eae5de325cd3b0eb1a69a34dbe", "lon": -77.028303, "fusion_lon": 0.0}, {"is_reserved": 0, "type": "electric_bike", "fusion_lat": 0.0, "is_disabled": 0, "rental_uris": {"ios": "https://dc.lft.to/lastmile_qr_scan", "android": "https://dc.lft.to/lastmile_qr_scan"}, "bike_id": "e0c3c3ac2feb7c5adda7bd5d07346875", "lat": 39.02625283333333, "name": "e0c3c3ac2feb7c5adda7bd5d07346875", "lon": -77.038766, "fusion_lon": 0.0}, {"is_reserved": 0, "type": "electric_scooter", "fusion_lat": 0.0, "is_disabled": 0, "rental_uris": {"ios": "https://dc.lft.to/lastmile_qr_scan", "android": "https://dc.lft.to/lastmile_qr_scan"}, "bike_id": "a38db07f5917a9469ca22e374ee81715", "lat": 38.890356833333335, "name": "a38db07f5917a9469ca22e374ee81715", "lon": -76.98837533333334, "fusion_lon": 0.0}, {"is_reserved": 0, "type": "electric_scooter", "fusion_lat": 0.0, "is_disabled": 0, "rental_uris": {"ios": "https://dc.lft.to/lastmile_qr_scan", "android": "https://dc.lft.to/lastmile_qr_scan"}, "bike_id": "961766bdf2d22749d054d4724d24b335", "lat": 38.898831666666666, "name": "961766bdf2d22749d054d4724d24b335", "lon": -77.02173033333334, "fusion_lon": 0.0}, {"is_reserved": 0, "type": "electric_scooter", "fusion_lat": 0.0, "is_disabled": 0, "rental_uris": {"ios": "https://dc.lft.to/lastmile_qr_scan", "android": "https://dc.lft.to/lastmile_qr_scan"}, "bike_id": "a31cded6e4b977ba42ddf4a6b57615f4", "lat": 38.89221116666667, "name": "a31cded6e4b977ba42ddf4a6b57615f4", "lon": -77.032364, "fusion_lon": 0.0}, {"is_reserved": 0, "type": "electric_bike", "fusion_lat": 0.0, "is_disabled": 0, "rental_uris": {"ios": "https://dc.lft.to/lastmile_qr_scan", "android": "https://dc.lft.to/lastmile_qr_scan"}, "bike_id": "40c99b60d2ccab0654890ff679529c79", "lat": 38.969839666666665, "name": "40c99b60d2ccab0654890ff679529c79", "lon": -76.93613433333333, "fusion_lon": 0.0}, {"is_reserved": 0, "type": "electric_scooter", "fusion_lat": 0.0, "is_disabled": 0, "rental_uris": {"ios": "https://dc.lft.to/lastmile_qr_scan", "android": "https://dc.lft.to/lastmile_qr_scan"}, "bike_id": "e61a55606f4f951cc4a7494f54aeb2d8", "lat": 38.908809, "name": "e61a55606f4f951cc4a7494f54aeb2d8", "lon": -77.0450055, "fusion_lon": 0.0}, {"is_reserved": 0, "type": "electric_bike", "fusion_lat": 0.0, "is_disabled": 0, "rental_uris": {"ios": "https://dc.lft.to/lastmile_qr_scan", "android": "https://dc.lft.to/lastmile_qr_scan"}, "bike_id": "cee36f6dccf0bf85d95da90c2cfd20ad", "lat": 38.85798833333333, "name": "cee36f6dccf0bf85d95da90c2cfd20ad", "lon": -76.9874535, "fusion_lon": 0.0}, {"is_reserved": 0, "type": "electric_scooter", "fusion_lat": 0.0, "is_disabled": 0, "rental_uris": {"ios": "https://dc.lft.to/lastmile_qr_scan", "android": "https://dc.lft.to/lastmile_qr_scan"}, "bike_id": "c41182cb1025f9e94a06b591528631d4", "lat": 38.894663333333334, "name": "c41182cb1025f9e94a06b591528631d4", "lon": -77.02179883333334, "fusion_lon": 0.0}, {"is_reserved": 0, "type": "electric_scooter", "fusion_lat": 0.0, "is_disabled": 0, "rental_uris": {"ios": "https://dc.lft.to/lastmile_qr_scan", "android": "https://dc.lft.to/lastmile_qr_scan"}, "bike_id": "e514df3981a6dbac8494e6e6c8210e7a", "lat": 38.939591, "name": "e514df3981a6dbac8494e6e6c8210e7a", "lon": -77.0723595, "fusion_lon": 0.0}, {"is_reserved": 0, "type": "electric_scooter", "fusion_lat": 0.0, "is_disabled": 0, "rental_uris": {"ios": "https://dc.lft.to/lastmile_qr_scan", "android": "https://dc.lft.to/lastmile_qr_scan"}, "bike_id": "2e8ae7d1b0ea8a1eb518d3ffd03b2214", "lat": 38.892204666666665, "name": "2e8ae7d1b0ea8a1eb518d3ffd03b2214", "lon": -77.032367, "fusion_lon": 0.0}, {"is_reserved": 0, "type": "electric_scooter", "fusion_lat": 0.0, "is_disabled": 0, "rental_uris": {"ios": "https://dc.lft.to/lastmile_qr_scan", "android": "https://dc.lft.to/lastmile_qr_scan"}, "bike_id": "b1965f83abd3683f9621002598ca93bb", "lat": 38.9190345, "name": "b1965f83abd3683f9621002598ca93bb", "lon": -77.01221083333333, "fusion_lon": 0.0}, {"is_reserved": 0, "type": "electric_scooter", "fusion_lat": 0.0, "is_disabled": 0, "rental_uris": {"ios": "https://dc.lft.to/lastmile_qr_scan", "android": "https://dc.lft.to/lastmile_qr_scan"}, "bike_id": "4bba81c43467fbf655afd52ac2008e54", "lat": 38.8953145, "name": "4bba81c43467fbf655afd52ac2008e54", "lon": -76.948905, "fusion_lon": 0.0}, {"is_reserved": 0, "type": "electric_scooter", "fusion_lat": 0.0, "is_disabled": 0, "rental_uris": {"ios": "https://dc.lft.to/lastmile_qr_scan", "android": "https://dc.lft.to/lastmile_qr_scan"}, "bike_id": "7285a9e338d4ec627519530423cbdd9a", "lat": 38.906314, "name": "7285a9e338d4ec627519530423cbdd9a", "lon": -77.04885316666666, "fusion_lon": 0.0}, {"is_reserved": 0, "type": "electric_scooter", "fusion_lat": 0.0, "is_disabled": 0, "rental_uris": {"ios": "https://dc.lft.to/lastmile_qr_scan", "android": "https://dc.lft.to/lastmile_qr_scan"}, "bike_id": "500ca97a3e4134569abeef5354e10285", "lat": 38.899607, "name": "500ca97a3e4134569abeef5354e10285", "lon": -77.02580783333333, "fusion_lon": 0.0}, {"is_reserved": 0, "type": "electric_scooter", "fusion_lat": 0.0, "is_disabled": 0, "rental_uris": {"ios": "https://dc.lft.to/lastmile_qr_scan", "android": "https://dc.lft.to/lastmile_qr_scan"}, "bike_id": "e55efc6f4875dda8c7024f98b7bd026d", "lat": 38.9148125, "name": "e55efc6f4875dda8c7024f98b7bd026d", "lon": -77.04942383333334, "fusion_lon": 0.0}, {"is_reserved": 0, "type": "electric_scooter", "fusion_lat": 0.0, "is_disabled": 0, "rental_uris": {"ios": "https://dc.lft.to/lastmile_qr_scan", "android": "https://dc.lft.to/lastmile_qr_scan"}, "bike_id": "a8acf0db3afd6e678e7836eb47560385", "lat": 38.916950166666666, "name": "a8acf0db3afd6e678e7836eb47560385", "lon": -77.05298033333334, "fusion_lon": 0.0}, {"is_reserved": 0, "type": "electric_scooter", "fusion_lat": 0.0, "is_disabled": 0, "rental_uris": {"ios": "https://dc.lft.to/lastmile_qr_scan", "android": "https://dc.lft.to/lastmile_qr_scan"}, "bike_id": "2d27ae214023df2808a2902f36b3ba09", "lat": 38.91736133333333, "name": "2d27ae214023df2808a2902f36b3ba09", "lon": -77.068416, "fusion_lon": 0.0}, {"is_reserved": 0, "type": "electric_scooter", "fusion_lat": 0.0, "is_disabled": 0, "rental_uris": {"ios": "https://dc.lft.to/lastmile_qr_scan", "android": "https://dc.lft.to/lastmile_qr_scan"}, "bike_id": "afab7438732f9ab49aad0db07ed18928", "lat": 38.91949316666667, "name": "afab7438732f9ab49aad0db07ed18928", "lon": -77.02359416666667, "fusion_lon": 0.0}, {"is_reserved": 0, "type": "electric_scooter", "fusion_lat": 0.0, "is_disabled": 0, "rental_uris": {"ios": "https://dc.lft.to/lastmile_qr_scan", "android": "https://dc.lft.to/lastmile_qr_scan"}, "bike_id": "e7cbed517dcc3689280963b40d1ac0fb", "lat": 38.89660283333333, "name": "e7cbed517dcc3689280963b40d1ac0fb", "lon": -77.04349983333333, "fusion_lon": 0.0}, {"is_reserved": 0, "type": "electric_scooter", "fusion_lat": 0.0, "is_disabled": 0, "rental_uris": {"ios": "https://dc.lft.to/lastmile_qr_scan", "android": "https://dc.lft.to/lastmile_qr_scan"}, "bike_id": "8236d8fe073c8bcd04444933669c8341", "lat": 38.9172685, "name": "8236d8fe073c8bcd04444933669c8341", "lon": -77.0458455, "fusion_lon": 0.0}, {"is_reserved": 0, "type": "electric_scooter", "fusion_lat": 0.0, "is_disabled": 0, "rental_uris": {"ios": "https://dc.lft.to/lastmile_qr_scan", "android": "https://dc.lft.to/lastmile_qr_scan"}, "bike_id": "22a54789374aadd30bd3f5032ab5f762", "lat": 38.929509333333336, "name": "22a54789374aadd30bd3f5032ab5f762", "lon": -77.032891, "fusion_lon": 0.0}, {"is_reserved": 0, "type": "electric_scooter", "fusion_lat": 0.0, "is_disabled": 0, "rental_uris": {"ios": "https://dc.lft.to/lastmile_qr_scan", "android": "https://dc.lft.to/lastmile_qr_scan"}, "bike_id": "134407a4e8e9b6a78045c2019d6a3557", "lat": 38.91465083333333, "name": "134407a4e8e9b6a78045c2019d6a3557", "lon": -77.00201433333334, "fusion_lon": 0.0}, {"is_reserved": 0, "type": "electric_bike", "fusion_lat": 0.0, "is_disabled": 0, "rental_uris": {"ios": "https://dc.lft.to/lastmile_qr_scan", "android": "https://dc.lft.to/lastmile_qr_scan"}, "bike_id": "050e1b7833cbbce79c04e39f0f48a7d9", "lat": 38.82209366666667, "name": "050e1b7833cbbce79c04e39f0f48a7d9", "lon": -76.9769965, "fusion_lon": 0.0}, {"is_reserved": 0, "type": "electric_bike", "fusion_lat": 0.0, "is_disabled": 0, "rental_uris": {"ios": "https://dc.lft.to/lastmile_qr_scan", "android": "https://dc.lft.to/lastmile_qr_scan"}, "bike_id": "913f87502a8277d7200f5b4de9877189", "lat": 38.95019466666667, "name": "913f87502a8277d7200f5b4de9877189", "lon": -77.0142585, "fusion_lon": 0.0}, {"is_reserved": 0, "type": "electric_bike", "fusion_lat": 0.0, "is_disabled": 0, "rental_uris": {"ios": "https://dc.lft.to/lastmile_qr_scan", "android": "https://dc.lft.to/lastmile_qr_scan"}, "bike_id": "ddb6ff719d9b1e21be260d87cd0d4ebf", "lat": 38.93391666666667, "name": "ddb6ff719d9b1e21be260d87cd0d4ebf", "lon": -77.0238945, "fusion_lon": 0.0}, {"is_reserved": 0, "type": "electric_scooter", "fusion_lat": 0.0, "is_disabled": 0, "rental_uris": {"ios": "https://dc.lft.to/lastmile_qr_scan", "android": "https://dc.lft.to/lastmile_qr_scan"}, "bike_id": "d25e9bbde31ad528f9aca15c055f4181", "lat": 38.917172666666666, "name": "d25e9bbde31ad528f9aca15c055f4181", "lon": -77.02881833333333, "fusion_lon": 0.0}, {"is_reserved": 0, "type": "electric_scooter", "fusion_lat": 0.0, "is_disabled": 0, "rental_uris": {"ios": "https://dc.lft.to/lastmile_qr_scan", "android": "https://dc.lft.to/lastmile_qr_scan"}, "bike_id": "ecfbb8c2a864c8c0640d66107a142c24", "lat": 38.902874, "name": "ecfbb8c2a864c8c0640d66107a142c24", "lon": -77.04879066666666, "fusion_lon": 0.0}, {"is_reserved": 0, "type": "electric_scooter", "fusion_lat": 0.0, "is_disabled": 0, "rental_uris": {"ios": "https://dc.lft.to/lastmile_qr_scan", "android": "https://dc.lft.to/lastmile_qr_scan"}, "bike_id": "790622c931728782d19a0f94fec58d20", "lat": 38.92456383333333, "name": "790622c931728782d19a0f94fec58d20", "lon": -77.05219366666667, "fusion_lon": 0.0}, {"is_reserved": 0, "type": "electric_scooter", "fusion_lat": 0.0, "is_disabled": 0, "rental_uris": {"ios": "https://dc.lft.to/lastmile_qr_scan", "android": "https://dc.lft.to/lastmile_qr_scan"}, "bike_id": "8cbb9a27ea8eea2f69dd2bc31dd132cf", "lat": 38.91984433333333, "name": "8cbb9a27ea8eea2f69dd2bc31dd132cf", "lon": -77.04181566666666, "fusion_lon": 0.0}, {"is_reserved": 0, "type": "electric_scooter", "fusion_lat": 0.0, "is_disabled": 0, "rental_uris": {"ios": "https://dc.lft.to/lastmile_qr_scan", "android": "https://dc.lft.to/lastmile_qr_scan"}, "bike_id": "89a7e055113c6fd4eef4914b6bc0ce16", "lat": 38.903150333333336, "name": "89a7e055113c6fd4eef4914b6bc0ce16", "lon": -77.0281995, "fusion_lon": 0.0}, {"is_reserved": 0, "type": "electric_scooter", "fusion_lat": 0.0, "is_disabled": 0, "rental_uris": {"ios": "https://dc.lft.to/lastmile_qr_scan", "android": "https://dc.lft.to/lastmile_qr_scan"}, "bike_id": "96517b7e65e1b7c6d235da59fb462c40", "lat": 38.903851833333334, "name": "96517b7e65e1b7c6d235da59fb462c40", "lon": -77.05229083333333, "fusion_lon": 0.0}, {"is_reserved": 0, "type": "electric_scooter", "fusion_lat": 0.0, "is_disabled": 0, "rental_uris": {"ios": "https://dc.lft.to/lastmile_qr_scan", "android": "https://dc.lft.to/lastmile_qr_scan"}, "bike_id": "5fc22d564136b6d3aaeff6098f8a3097", "lat": 38.917403666666665, "name": "5fc22d564136b6d3aaeff6098f8a3097", "lon": -77.02116116666667, "fusion_lon": 0.0}, {"is_reserved": 0, "type": "electric_scooter", "fusion_lat": 0.0, "is_disabled": 0, "rental_uris": {"ios": "https://dc.lft.to/lastmile_qr_scan", "android": "https://dc.lft.to/lastmile_qr_scan"}, "bike_id": "0886dd273a16c876885ecfa432da37c7", "lat": 38.907104833333335, "name": "0886dd273a16c876885ecfa432da37c7", "lon": -77.0033855, "fusion_lon": 0.0}, {"is_reserved": 0, "type": "electric_scooter", "fusion_lat": 0.0, "is_disabled": 0, "rental_uris": {"ios": "https://dc.lft.to/lastmile_qr_scan", "android": "https://dc.lft.to/lastmile_qr_scan"}, "bike_id": "e4630499cdd469bd0faae8f0d452a323", "lat": 38.967971166666665, "name": "e4630499cdd469bd0faae8f0d452a323", "lon": -77.02559033333333, "fusion_lon": 0.0}, {"is_reserved": 0, "type": "electric_scooter", "fusion_lat": 0.0, "is_disabled": 0, "rental_uris": {"ios": "https://dc.lft.to/lastmile_qr_scan", "android": "https://dc.lft.to/lastmile_qr_scan"}, "bike_id": "ecea2babdff6695be14e3763167df978", "lat": 38.904801666666664, "name": "ecea2babdff6695be14e3763167df978", "lon": -76.94956366666666, "fusion_lon": 0.0}, {"is_reserved": 0, "type": "electric_scooter", "fusion_lat": 0.0, "is_disabled": 0, "rental_uris": {"ios": "https://dc.lft.to/lastmile_qr_scan", "android": "https://dc.lft.to/lastmile_qr_scan"}, "bike_id": "38efeb36cc82d3801208b5a3152fec5b", "lat": 38.9228885, "name": "38efeb36cc82d3801208b5a3152fec5b", "lon": -77.02067583333333, "fusion_lon": 0.0}, {"is_reserved": 0, "type": "electric_scooter", "fusion_lat": 0.0, "is_disabled": 0, "rental_uris": {"ios": "https://dc.lft.to/lastmile_qr_scan", "android": "https://dc.lft.to/lastmile_qr_scan"}, "bike_id": "0d8de261b5bb30c333703ab009a70100", "lat": 38.88137583333334, "name": "0d8de261b5bb30c333703ab009a70100", "lon": -77.02267033333334, "fusion_lon": 0.0}, {"is_reserved": 0, "type": "electric_bike", "fusion_lat": 0.0, "is_disabled": 0, "rental_uris": {"ios": "https://dc.lft.to/lastmile_qr_scan", "android": "https://dc.lft.to/lastmile_qr_scan"}, "bike_id": "74bcd11b325775d960600256110d152b", "lat": 38.813304333333335, "name": "74bcd11b325775d960600256110d152b", "lon": -77.05090416666667, "fusion_lon": 0.0}, {"is_reserved": 0, "type": "electric_scooter", "fusion_lat": 0.0, "is_disabled": 0, "rental_uris": {"ios": "https://dc.lft.to/lastmile_qr_scan", "android": "https://dc.lft.to/lastmile_qr_scan"}, "bike_id": "888e9bd2d10818d781a97b6131033a85", "lat": 38.8844855, "name": "888e9bd2d10818d781a97b6131033a85", "lon": -76.95094766666666, "fusion_lon": 0.0}, {"is_reserved": 0, "type": "electric_scooter", "fusion_lat": 0.0, "is_disabled": 0, "rental_uris": {"ios": "https://dc.lft.to/lastmile_qr_scan", "android": "https://dc.lft.to/lastmile_qr_scan"}, "bike_id": "7110fdd627ac8279cc9f425890fc1d93", "lat": 38.931957833333335, "name": "7110fdd627ac8279cc9f425890fc1d93", "lon": -77.032654, "fusion_lon": 0.0}, {"is_reserved": 0, "type": "electric_scooter", "fusion_lat": 0.0, "is_disabled": 0, "rental_uris": {"ios": "https://dc.lft.to/lastmile_qr_scan", "android": "https://dc.lft.to/lastmile_qr_scan"}, "bike_id": "7dd2697108ff6587f7a8ac450f3d24a0", "lat": 38.946806333333335, "name": "7dd2697108ff6587f7a8ac450f3d24a0", "lon": -77.03281316666667, "fusion_lon": 0.0}, {"is_reserved": 0, "type": "electric_scooter", "fusion_lat": 0.0, "is_disabled": 0, "rental_uris": {"ios": "https://dc.lft.to/lastmile_qr_scan", "android": "https://dc.lft.to/lastmile_qr_scan"}, "bike_id": "659cd14b77f78ac846a76f0a38a55c01", "lat": 38.93854316666667, "name": "659cd14b77f78ac846a76f0a38a55c01", "lon": -77.02463316666666, "fusion_lon": 0.0}, {"is_reserved": 0, "type": "electric_scooter", "fusion_lat": 0.0, "is_disabled": 0, "rental_uris": {"ios": "https://dc.lft.to/lastmile_qr_scan", "android": "https://dc.lft.to/lastmile_qr_scan"}, "bike_id": "222104a796c1c16e56c9157da70ef7ec", "lat": 38.905147166666666, "name": "222104a796c1c16e56c9157da70ef7ec", "lon": -77.030928, "fusion_lon": 0.0}, {"is_reserved": 0, "type": "electric_bike", "fusion_lat": 0.0, "is_disabled": 0, "rental_uris": {"ios": "https://dc.lft.to/lastmile_qr_scan", "android": "https://dc.lft.to/lastmile_qr_scan"}, "bike_id": "8be63de729b41c62b720c71a8142ff38", "lat": 38.961262, "name": "8be63de729b41c62b720c71a8142ff38", "lon": -77.03270883333333, "fusion_lon": 0.0}, {"is_reserved": 0, "type": "electric_scooter", "fusion_lat": 0.0, "is_disabled": 0, "rental_uris": {"ios": "https://dc.lft.to/lastmile_qr_scan", "android": "https://dc.lft.to/lastmile_qr_scan"}, "bike_id": "c8782a62bb3675475ef1f710bcf7686d", "lat": 38.924338666666664, "name": "c8782a62bb3675475ef1f710bcf7686d", "lon": -77.04238, "fusion_lon": 0.0}, {"is_reserved": 0, "type": "electric_scooter", "fusion_lat": 0.0, "is_disabled": 0, "rental_uris": {"ios": "https://dc.lft.to/lastmile_qr_scan", "android": "https://dc.lft.to/lastmile_qr_scan"}, "bike_id": "a34880ee382b84b123c489c71676c34b", "lat": 38.893251, "name": "a34880ee382b84b123c489c71676c34b", "lon": -76.9393245, "fusion_lon": 0.0}, {"is_reserved": 0, "type": "electric_scooter", "fusion_lat": 0.0, "is_disabled": 0, "rental_uris": {"ios": "https://dc.lft.to/lastmile_qr_scan", "android": "https://dc.lft.to/lastmile_qr_scan"}, "bike_id": "1f97ef022eceb8bc1cfe8e7f1078e259", "lat": 38.915976666666666, "name": "1f97ef022eceb8bc1cfe8e7f1078e259", "lon": -77.02300866666667, "fusion_lon": 0.0}, {"is_reserved": 0, "type": "electric_bike", "fusion_lat": 0.0, "is_disabled": 0, "rental_uris": {"ios": "https://dc.lft.to/lastmile_qr_scan", "android": "https://dc.lft.to/lastmile_qr_scan"}, "bike_id": "8a911fca5531ddf318cc6a29e6a2bd8d", "lat": 38.8766515, "name": "8a911fca5531ddf318cc6a29e6a2bd8d", "lon": -77.02085116666667, "fusion_lon": 0.0}, {"is_reserved": 0, "type": "electric_bike", "fusion_lat": 0.0, "is_disabled": 0, "rental_uris": {"ios": "https://dc.lft.to/lastmile_qr_scan", "android": "https://dc.lft.to/lastmile_qr_scan"}, "bike_id": "3ead56ad437b2abf31017e0e4d39eef4", "lat": 38.8757625, "name": "3ead56ad437b2abf31017e0e4d39eef4", "lon": -77.23406616666666, "fusion_lon": 0.0}, {"is_reserved": 0, "type": "electric_scooter", "fusion_lat": 0.0, "is_disabled": 0, "rental_uris": {"ios": "https://dc.lft.to/lastmile_qr_scan", "android": "https://dc.lft.to/lastmile_qr_scan"}, "bike_id": "d2bc693b2c9289fb55a50f3e42019cac", "lat": 38.87067, "name": "d2bc693b2c9289fb55a50f3e42019cac", "lon": -76.98127983333333, "fusion_lon": 0.0}, {"is_reserved": 0, "type": "electric_scooter", "fusion_lat": 0.0, "is_disabled": 0, "rental_uris": {"ios": "https://dc.lft.to/lastmile_qr_scan", "android": "https://dc.lft.to/lastmile_qr_scan"}, "bike_id": "1feb4817425f53bee1fcd2c26b2b054b", "lat": 38.90271383333334, "name": "1feb4817425f53bee1fcd2c26b2b054b", "lon": -77.01713266666667, "fusion_lon": 0.0}, {"is_reserved": 0, "type": "electric_scooter", "fusion_lat": 0.0, "is_disabled": 0, "rental_uris": {"ios": "https://dc.lft.to/lastmile_qr_scan", "android": "https://dc.lft.to/lastmile_qr_scan"}, "bike_id": "4fedafc315658b9ba453224bbb6c4405", "lat": 38.9084895, "name": "4fedafc315658b9ba453224bbb6c4405", "lon": -77.0246355, "fusion_lon": 0.0}, {"is_reserved": 0, "type": "electric_scooter", "fusion_lat": 0.0, "is_disabled": 0, "rental_uris": {"ios": "https://dc.lft.to/lastmile_qr_scan", "android": "https://dc.lft.to/lastmile_qr_scan"}, "bike_id": "bdd18aa61371d21ba3e6b08b904946e4", "lat": 38.91790366666667, "name": "bdd18aa61371d21ba3e6b08b904946e4", "lon": -77.02298016666667, "fusion_lon": 0.0}, {"is_reserved": 0, "type": "electric_scooter", "fusion_lat": 0.0, "is_disabled": 0, "rental_uris": {"ios": "https://dc.lft.to/lastmile_qr_scan", "android": "https://dc.lft.to/lastmile_qr_scan"}, "bike_id": "0ed5a6b6307eea223bf8c8d80df809d9", "lat": 38.8947975, "name": "0ed5a6b6307eea223bf8c8d80df809d9", "lon": -76.94868583333333, "fusion_lon": 0.0}, {"is_reserved": 0, "type": "electric_scooter", "fusion_lat": 0.0, "is_disabled": 0, "rental_uris": {"ios": "https://dc.lft.to/lastmile_qr_scan", "android": "https://dc.lft.to/lastmile_qr_scan"}, "bike_id": "304792208611cd0b80a176631429c045", "lat": 38.91756566666667, "name": "304792208611cd0b80a176631429c045", "lon": -77.00451083333333, "fusion_lon": 0.0}, {"is_reserved": 0, "type": "electric_scooter", "fusion_lat": 0.0, "is_disabled": 0, "rental_uris": {"ios": "https://dc.lft.to/lastmile_qr_scan", "android": "https://dc.lft.to/lastmile_qr_scan"}, "bike_id": "12efdbc1b2beafb6bd1f40efaa47c6a0", "lat": 38.93514416666667, "name": "12efdbc1b2beafb6bd1f40efaa47c6a0", "lon": -77.05696133333333, "fusion_lon": 0.0}, {"is_reserved": 0, "type": "electric_scooter", "fusion_lat": 0.0, "is_disabled": 0, "rental_uris": {"ios": "https://dc.lft.to/lastmile_qr_scan", "android": "https://dc.lft.to/lastmile_qr_scan"}, "bike_id": "bcc5d0d01203284a7e1786a12a2697ee", "lat": 38.92166616666667, "name": "bcc5d0d01203284a7e1786a12a2697ee", "lon": -77.04029533333333, "fusion_lon": 0.0}, {"is_reserved": 0, "type": "electric_scooter", "fusion_lat": 0.0, "is_disabled": 0, "rental_uris": {"ios": "https://dc.lft.to/lastmile_qr_scan", "android": "https://dc.lft.to/lastmile_qr_scan"}, "bike_id": "4d63712aa30b2cbe23a8f7eb43b10cbb", "lat": 38.874721666666666, "name": "4d63712aa30b2cbe23a8f7eb43b10cbb", "lon": -77.00490883333333, "fusion_lon": 0.0}, {"is_reserved": 0, "type": "electric_scooter", "fusion_lat": 0.0, "is_disabled": 0, "rental_uris": {"ios": "https://dc.lft.to/lastmile_qr_scan", "android": "https://dc.lft.to/lastmile_qr_scan"}, "bike_id": "98cd42cafa9aca1430fd79ccfabbde52", "lat": 38.923405, "name": "98cd42cafa9aca1430fd79ccfabbde52", "lon": -77.057852, "fusion_lon": 0.0}, {"is_reserved": 0, "type": "electric_scooter", "fusion_lat": 0.0, "is_disabled": 0, "rental_uris": {"ios": "https://dc.lft.to/lastmile_qr_scan", "android": "https://dc.lft.to/lastmile_qr_scan"}, "bike_id": "4dcc53ae188e9a77b2f0bb4823aa72ad", "lat": 38.90908366666667, "name": "4dcc53ae188e9a77b2f0bb4823aa72ad", "lon": -77.03514633333333, "fusion_lon": 0.0}, {"is_reserved": 0, "type": "electric_scooter", "fusion_lat": 0.0, "is_disabled": 0, "rental_uris": {"ios": "https://dc.lft.to/lastmile_qr_scan", "android": "https://dc.lft.to/lastmile_qr_scan"}, "bike_id": "59376a036051b47f13ecf11c63e63db9", "lat": 38.91924133333333, "name": "59376a036051b47f13ecf11c63e63db9", "lon": -77.0317635, "fusion_lon": 0.0}, {"is_reserved": 0, "type": "electric_scooter", "fusion_lat": 0.0, "is_disabled": 0, "rental_uris": {"ios": "https://dc.lft.to/lastmile_qr_scan", "android": "https://dc.lft.to/lastmile_qr_scan"}, "bike_id": "ecb47e8edba6aa11d47c1b0355a02120", "lat": 38.87639433333333, "name": "ecb47e8edba6aa11d47c1b0355a02120", "lon": -76.9929305, "fusion_lon": 0.0}, {"is_reserved": 0, "type": "electric_bike", "fusion_lat": 0.0, "is_disabled": 0, "rental_uris": {"ios": "https://dc.lft.to/lastmile_qr_scan", "android": "https://dc.lft.to/lastmile_qr_scan"}, "bike_id": "4f08ddf4979cc53322f5040a1a25faa0", "lat": 38.831581166666666, "name": "4f08ddf4979cc53322f5040a1a25faa0", "lon": -76.99588783333333, "fusion_lon": 0.0}, {"is_reserved": 0, "type": "electric_scooter", "fusion_lat": 0.0, "is_disabled": 0, "rental_uris": {"ios": "https://dc.lft.to/lastmile_qr_scan", "android": "https://dc.lft.to/lastmile_qr_scan"}, "bike_id": "cc7cd4ab38baa773cdf0c36f996d01fa", "lat": 38.91706966666667, "name": "cc7cd4ab38baa773cdf0c36f996d01fa", "lon": -77.02406816666667, "fusion_lon": 0.0}, {"is_reserved": 0, "type": "electric_scooter", "fusion_lat": 0.0, "is_disabled": 0, "rental_uris": {"ios": "https://dc.lft.to/lastmile_qr_scan", "android": "https://dc.lft.to/lastmile_qr_scan"}, "bike_id": "265e1c3626d3a011023f13eb00490f42", "lat": 38.905692333333334, "name": "265e1c3626d3a011023f13eb00490f42", "lon": -76.97621983333333, "fusion_lon": 0.0}, {"is_reserved": 0, "type": "electric_scooter", "fusion_lat": 0.0, "is_disabled": 0, "rental_uris": {"ios": "https://dc.lft.to/lastmile_qr_scan", "android": "https://dc.lft.to/lastmile_qr_scan"}, "bike_id": "b2ef6ff187c950aa162c4a27fc21e9d1", "lat": 38.91813916666667, "name": "b2ef6ff187c950aa162c4a27fc21e9d1", "lon": -77.02481783333333, "fusion_lon": 0.0}, {"is_reserved": 0, "type": "electric_scooter", "fusion_lat": 0.0, "is_disabled": 0, "rental_uris": {"ios": "https://dc.lft.to/lastmile_qr_scan", "android": "https://dc.lft.to/lastmile_qr_scan"}, "bike_id": "d148cab5cb0489413b04a24244c405d8", "lat": 38.921295, "name": "d148cab5cb0489413b04a24244c405d8", "lon": -77.04412783333333, "fusion_lon": 0.0}, {"is_reserved": 0, "type": "electric_scooter", "fusion_lat": 0.0, "is_disabled": 0, "rental_uris": {"ios": "https://dc.lft.to/lastmile_qr_scan", "android": "https://dc.lft.to/lastmile_qr_scan"}, "bike_id": "b407aae774c6782e247f28237440ed99", "lat": 38.9215285, "name": "b407aae774c6782e247f28237440ed99", "lon": -77.03463883333333, "fusion_lon": 0.0}, {"is_reserved": 0, "type": "electric_bike", "fusion_lat": 0.0, "is_disabled": 0, "rental_uris": {"ios": "https://dc.lft.to/lastmile_qr_scan", "android": "https://dc.lft.to/lastmile_qr_scan"}, "bike_id": "5ac03e214eb5a7bc6979cacc7e12f439", "lat": 38.885950333333334, "name": "5ac03e214eb5a7bc6979cacc7e12f439", "lon": -77.00082033333334, "fusion_lon": 0.0}, {"is_reserved": 0, "type": "electric_scooter", "fusion_lat": 0.0, "is_disabled": 0, "rental_uris": {"ios": "https://dc.lft.to/lastmile_qr_scan", "android": "https://dc.lft.to/lastmile_qr_scan"}, "bike_id": "c0d74a47893088ae09f70fd3dde6ced4", "lat": 38.914068, "name": "c0d74a47893088ae09f70fd3dde6ced4", "lon": -77.03330983333333, "fusion_lon": 0.0}, {"is_reserved": 0, "type": "electric_scooter", "fusion_lat": 0.0, "is_disabled": 0, "rental_uris": {"ios": "https://dc.lft.to/lastmile_qr_scan", "android": "https://dc.lft.to/lastmile_qr_scan"}, "bike_id": "5e67dd9b3011031ad4514e3f00aed34c", "lat": 38.892036833333336, "name": "5e67dd9b3011031ad4514e3f00aed34c", "lon": -76.9291935, "fusion_lon": 0.0}, {"is_reserved": 0, "type": "electric_bike", "fusion_lat": 0.0, "is_disabled": 0, "rental_uris": {"ios": "https://dc.lft.to/lastmile_qr_scan", "android": "https://dc.lft.to/lastmile_qr_scan"}, "bike_id": "1fe3eac8cf5a30dd377aa5d3e9b55228", "lat": 38.9223795, "name": "1fe3eac8cf5a30dd377aa5d3e9b55228", "lon": -77.0226455, "fusion_lon": 0.0}, {"is_reserved": 0, "type": "electric_scooter", "fusion_lat": 0.0, "is_disabled": 0, "rental_uris": {"ios": "https://dc.lft.to/lastmile_qr_scan", "android": "https://dc.lft.to/lastmile_qr_scan"}, "bike_id": "ab5a7fd8fe6423655ecaca7a4d25fac7", "lat": 38.89359983333333, "name": "ab5a7fd8fe6423655ecaca7a4d25fac7", "lon": -77.019521, "fusion_lon": 0.0}, {"is_reserved": 0, "type": "electric_scooter", "fusion_lat": 0.0, "is_disabled": 0, "rental_uris": {"ios": "https://dc.lft.to/lastmile_qr_scan", "android": "https://dc.lft.to/lastmile_qr_scan"}, "bike_id": "0396a975eba2c26b17088dedc5b01503", "lat": 38.88989383333333, "name": "0396a975eba2c26b17088dedc5b01503", "lon": -76.98812533333333, "fusion_lon": 0.0}, {"is_reserved": 0, "type": "electric_bike", "fusion_lat": 0.0, "is_disabled": 0, "rental_uris": {"ios": "https://dc.lft.to/lastmile_qr_scan", "android": "https://dc.lft.to/lastmile_qr_scan"}, "bike_id": "30a4bdf4166e1d74b051f3f614ced49b", "lat": 38.9484, "name": "30a4bdf4166e1d74b051f3f614ced49b", "lon": -77.05423366666666, "fusion_lon": 0.0}, {"is_reserved": 0, "type": "electric_scooter", "fusion_lat": 0.0, "is_disabled": 0, "rental_uris": {"ios": "https://dc.lft.to/lastmile_qr_scan", "android": "https://dc.lft.to/lastmile_qr_scan"}, "bike_id": "8003f2ac782072b4bf228ca620a13c8d", "lat": 38.878544, "name": "8003f2ac782072b4bf228ca620a13c8d", "lon": -77.005628, "fusion_lon": 0.0}, {"is_reserved": 0, "type": "electric_scooter", "fusion_lat": 0.0, "is_disabled": 0, "rental_uris": {"ios": "https://dc.lft.to/lastmile_qr_scan", "android": "https://dc.lft.to/lastmile_qr_scan"}, "bike_id": "1add2301a4cf85535fd8f5a9e1e3f276", "lat": 38.917106, "name": "1add2301a4cf85535fd8f5a9e1e3f276", "lon": -77.04672616666667, "fusion_lon": 0.0}, {"is_reserved": 0, "type": "electric_scooter", "fusion_lat": 0.0, "is_disabled": 0, "rental_uris": {"ios": "https://dc.lft.to/lastmile_qr_scan", "android": "https://dc.lft.to/lastmile_qr_scan"}, "bike_id": "aeaea3b899b44c59adbe1fef17779b38", "lat": 38.903909, "name": "aeaea3b899b44c59adbe1fef17779b38", "lon": -76.98937883333333, "fusion_lon": 0.0}, {"is_reserved": 0, "type": "electric_bike", "fusion_lat": 0.0, "is_disabled": 0, "rental_uris": {"ios": "https://dc.lft.to/lastmile_qr_scan", "android": "https://dc.lft.to/lastmile_qr_scan"}, "bike_id": "72ba0accd7e4d49b3a96b132729dcf59", "lat": 38.906101, "name": "72ba0accd7e4d49b3a96b132729dcf59", "lon": -77.0761715, "fusion_lon": 0.0}, {"is_reserved": 0, "type": "electric_scooter", "fusion_lat": 0.0, "is_disabled": 0, "rental_uris": {"ios": "https://dc.lft.to/lastmile_qr_scan", "android": "https://dc.lft.to/lastmile_qr_scan"}, "bike_id": "808d599207f06a70ad86c202a902a8f4", "lat": 38.91733716666667, "name": "808d599207f06a70ad86c202a902a8f4", "lon": -77.06890833333334, "fusion_lon": 0.0}, {"is_reserved": 0, "type": "electric_scooter", "fusion_lat": 0.0, "is_disabled": 0, "rental_uris": {"ios": "https://dc.lft.to/lastmile_qr_scan", "android": "https://dc.lft.to/lastmile_qr_scan"}, "bike_id": "e8c2800b00291ee9d648e52570137d92", "lat": 38.91259433333333, "name": "e8c2800b00291ee9d648e52570137d92", "lon": -77.03873183333333, "fusion_lon": 0.0}, {"is_reserved": 0, "type": "electric_scooter", "fusion_lat": 0.0, "is_disabled": 0, "rental_uris": {"ios": "https://dc.lft.to/lastmile_qr_scan", "android": "https://dc.lft.to/lastmile_qr_scan"}, "bike_id": "cb7dcdcb5be7ea64dc49352df31857a5", "lat": 38.909663333333334, "name": "cb7dcdcb5be7ea64dc49352df31857a5", "lon": -77.04588633333333, "fusion_lon": 0.0}, {"is_reserved": 0, "type": "electric_scooter", "fusion_lat": 0.0, "is_disabled": 0, "rental_uris": {"ios": "https://dc.lft.to/lastmile_qr_scan", "android": "https://dc.lft.to/lastmile_qr_scan"}, "bike_id": "f3722114c60abc560acae42eadfaf66c", "lat": 38.894109, "name": "f3722114c60abc560acae42eadfaf66c", "lon": -77.01081216666667, "fusion_lon": 0.0}, {"is_reserved": 0, "type": "electric_scooter", "fusion_lat": 0.0, "is_disabled": 0, "rental_uris": {"ios": "https://dc.lft.to/lastmile_qr_scan", "android": "https://dc.lft.to/lastmile_qr_scan"}, "bike_id": "463a2da2c519a54808d53bab9d495175", "lat": 38.907843666666665, "name": "463a2da2c519a54808d53bab9d495175", "lon": -77.043317, "fusion_lon": 0.0}, {"is_reserved": 0, "type": "electric_bike", "fusion_lat": 0.0, "is_disabled": 0, "rental_uris": {"ios": "https://dc.lft.to/lastmile_qr_scan", "android": "https://dc.lft.to/lastmile_qr_scan"}, "bike_id": "489007e08a5f8c0dea32ad2c79299ab3", "lat": 38.92948233333333, "name": "489007e08a5f8c0dea32ad2c79299ab3", "lon": -76.975639, "fusion_lon": 0.0}, {"is_reserved": 0, "type": "electric_bike", "fusion_lat": 0.0, "is_disabled": 0, "rental_uris": {"ios": "https://dc.lft.to/lastmile_qr_scan", "android": "https://dc.lft.to/lastmile_qr_scan"}, "bike_id": "2d34681a3e7c940b8b3464f64442c520", "lat": 38.80482333333333, "name": "2d34681a3e7c940b8b3464f64442c520", "lon": -76.9910505, "fusion_lon": 0.0}, {"is_reserved": 0, "type": "electric_bike", "fusion_lat": 0.0, "is_disabled": 0, "rental_uris": {"ios": "https://dc.lft.to/lastmile_qr_scan", "android": "https://dc.lft.to/lastmile_qr_scan"}, "bike_id": "0452ceedf42d5fe0bf57b20563a8593c", "lat": 38.92867783333333, "name": "0452ceedf42d5fe0bf57b20563a8593c", "lon": -76.96101916666667, "fusion_lon": 0.0}, {"is_reserved": 0, "type": "electric_scooter", "fusion_lat": 0.0, "is_disabled": 0, "rental_uris": {"ios": "https://dc.lft.to/lastmile_qr_scan", "android": "https://dc.lft.to/lastmile_qr_scan"}, "bike_id": "f60ee03dd90ab08056483505145fb078", "lat": 38.90267433333333, "name": "f60ee03dd90ab08056483505145fb078", "lon": -77.0276175, "fusion_lon": 0.0}, {"is_reserved": 0, "type": "electric_scooter", "fusion_lat": 0.0, "is_disabled": 0, "rental_uris": {"ios": "https://dc.lft.to/lastmile_qr_scan", "android": "https://dc.lft.to/lastmile_qr_scan"}, "bike_id": "9bdf6cafec296a337d588b03d3a8c16d", "lat": 38.91367416666667, "name": "9bdf6cafec296a337d588b03d3a8c16d", "lon": -77.04477216666666, "fusion_lon": 0.0}, {"is_reserved": 0, "type": "electric_scooter", "fusion_lat": 0.0, "is_disabled": 0, "rental_uris": {"ios": "https://dc.lft.to/lastmile_qr_scan", "android": "https://dc.lft.to/lastmile_qr_scan"}, "bike_id": "2c4e85efc38e8093bd1958d4b35f6524", "lat": 38.895056333333336, "name": "2c4e85efc38e8093bd1958d4b35f6524", "lon": -77.02190166666666, "fusion_lon": 0.0}, {"is_reserved": 0, "type": "electric_scooter", "fusion_lat": 0.0, "is_disabled": 0, "rental_uris": {"ios": "https://dc.lft.to/lastmile_qr_scan", "android": "https://dc.lft.to/lastmile_qr_scan"}, "bike_id": "04dac585e6f71c7d75f22ba1c9e008e8", "lat": 38.922387666666665, "name": "04dac585e6f71c7d75f22ba1c9e008e8", "lon": -77.01843183333334, "fusion_lon": 0.0}, {"is_reserved": 0, "type": "electric_scooter", "fusion_lat": 0.0, "is_disabled": 0, "rental_uris": {"ios": "https://dc.lft.to/lastmile_qr_scan", "android": "https://dc.lft.to/lastmile_qr_scan"}, "bike_id": "d01e2c9d09bd70d49795f2066aa1cd87", "lat": 38.946992, "name": "d01e2c9d09bd70d49795f2066aa1cd87", "lon": -77.03288983333333, "fusion_lon": 0.0}, {"is_reserved": 0, "type": "electric_scooter", "fusion_lat": 0.0, "is_disabled": 0, "rental_uris": {"ios": "https://dc.lft.to/lastmile_qr_scan", "android": "https://dc.lft.to/lastmile_qr_scan"}, "bike_id": "aeb84a2f13847edbece83407c47a564d", "lat": 38.88734066666667, "name": "aeb84a2f13847edbece83407c47a564d", "lon": -77.01393666666667, "fusion_lon": 0.0}, {"is_reserved": 0, "type": "electric_scooter", "fusion_lat": 0.0, "is_disabled": 0, "rental_uris": {"ios": "https://dc.lft.to/lastmile_qr_scan", "android": "https://dc.lft.to/lastmile_qr_scan"}, "bike_id": "2a841463651b3a921a94bed2138330b0", "lat": 38.94091066666667, "name": "2a841463651b3a921a94bed2138330b0", "lon": -77.02304633333334, "fusion_lon": 0.0}, {"is_reserved": 0, "type": "electric_scooter", "fusion_lat": 0.0, "is_disabled": 0, "rental_uris": {"ios": "https://dc.lft.to/lastmile_qr_scan", "android": "https://dc.lft.to/lastmile_qr_scan"}, "bike_id": "c357223bc143cf54af39639a884a8ae2", "lat": 38.90118116666667, "name": "c357223bc143cf54af39639a884a8ae2", "lon": -77.0399665, "fusion_lon": 0.0}, {"is_reserved": 0, "type": "electric_scooter", "fusion_lat": 0.0, "is_disabled": 0, "rental_uris": {"ios": "https://dc.lft.to/lastmile_qr_scan", "android": "https://dc.lft.to/lastmile_qr_scan"}, "bike_id": "26f7517adc4ac4ab2b786537aef0aa3f", "lat": 38.95730366666667, "name": "26f7517adc4ac4ab2b786537aef0aa3f", "lon": -77.0242045, "fusion_lon": 0.0}, {"is_reserved": 0, "type": "electric_scooter", "fusion_lat": 0.0, "is_disabled": 0, "rental_uris": {"ios": "https://dc.lft.to/lastmile_qr_scan", "android": "https://dc.lft.to/lastmile_qr_scan"}, "bike_id": "0a744b78df4ab62d4cff8aa6623898f4", "lat": 38.89290866666666, "name": "0a744b78df4ab62d4cff8aa6623898f4", "lon": -77.01237033333334, "fusion_lon": 0.0}, {"is_reserved": 0, "type": "electric_scooter", "fusion_lat": 0.0, "is_disabled": 0, "rental_uris": {"ios": "https://dc.lft.to/lastmile_qr_scan", "android": "https://dc.lft.to/lastmile_qr_scan"}, "bike_id": "ecbe5cfbbbb22ea85e8869988385da16", "lat": 38.887107666666665, "name": "ecbe5cfbbbb22ea85e8869988385da16", "lon": -76.98382483333333, "fusion_lon": 0.0}, {"is_reserved": 0, "type": "electric_scooter", "fusion_lat": 0.0, "is_disabled": 0, "rental_uris": {"ios": "https://dc.lft.to/lastmile_qr_scan", "android": "https://dc.lft.to/lastmile_qr_scan"}, "bike_id": "0413f90b06cb0cb9714848e9f92d2bbe", "lat": 38.89514916666667, "name": "0413f90b06cb0cb9714848e9f92d2bbe", "lon": -77.02295933333333, "fusion_lon": 0.0}, {"is_reserved": 0, "type": "electric_scooter", "fusion_lat": 0.0, "is_disabled": 0, "rental_uris": {"ios": "https://dc.lft.to/lastmile_qr_scan", "android": "https://dc.lft.to/lastmile_qr_scan"}, "bike_id": "cc3155387f49ce5d3b1a316b1babe449", "lat": 38.927883666666666, "name": "cc3155387f49ce5d3b1a316b1babe449", "lon": -77.03148833333333, "fusion_lon": 0.0}, {"is_reserved": 0, "type": "electric_scooter", "fusion_lat": 0.0, "is_disabled": 0, "rental_uris": {"ios": "https://dc.lft.to/lastmile_qr_scan", "android": "https://dc.lft.to/lastmile_qr_scan"}, "bike_id": "e5303e2e36ccaae87dc3388b4f26c9d6", "lat": 38.870956, "name": "e5303e2e36ccaae87dc3388b4f26c9d6", "lon": -77.01208083333333, "fusion_lon": 0.0}, {"is_reserved": 0, "type": "electric_scooter", "fusion_lat": 0.0, "is_disabled": 0, "rental_uris": {"ios": "https://dc.lft.to/lastmile_qr_scan", "android": "https://dc.lft.to/lastmile_qr_scan"}, "bike_id": "4997c41e7004fd867fb04c1dcf259098", "lat": 38.88610366666666, "name": "4997c41e7004fd867fb04c1dcf259098", "lon": -77.00331283333334, "fusion_lon": 0.0}, {"is_reserved": 0, "type": "electric_scooter", "fusion_lat": 0.0, "is_disabled": 0, "rental_uris": {"ios": "https://dc.lft.to/lastmile_qr_scan", "android": "https://dc.lft.to/lastmile_qr_scan"}, "bike_id": "ceb543e8503ac0af751d839ac727d947", "lat": 38.919118166666664, "name": "ceb543e8503ac0af751d839ac727d947", "lon": -77.01163383333333, "fusion_lon": 0.0}, {"is_reserved": 0, "type": "electric_scooter", "fusion_lat": 0.0, "is_disabled": 0, "rental_uris": {"ios": "https://dc.lft.to/lastmile_qr_scan", "android": "https://dc.lft.to/lastmile_qr_scan"}, "bike_id": "7f073f3017ac5b113e1739487d5826c7", "lat": 38.876776, "name": "7f073f3017ac5b113e1739487d5826c7", "lon": -77.00346616666667, "fusion_lon": 0.0}, {"is_reserved": 0, "type": "electric_scooter", "fusion_lat": 0.0, "is_disabled": 0, "rental_uris": {"ios": "https://dc.lft.to/lastmile_qr_scan", "android": "https://dc.lft.to/lastmile_qr_scan"}, "bike_id": "00363ac58838db660ba2363163a6d3e5", "lat": 38.91051733333333, "name": "00363ac58838db660ba2363163a6d3e5", "lon": -77.04360983333333, "fusion_lon": 0.0}, {"is_reserved": 0, "type": "electric_bike", "fusion_lat": 0.0, "is_disabled": 0, "rental_uris": {"ios": "https://dc.lft.to/lastmile_qr_scan", "android": "https://dc.lft.to/lastmile_qr_scan"}, "bike_id": "c23e1d651cce26ae2e066e35aac613ae", "lat": 38.902348, "name": "c23e1d651cce26ae2e066e35aac613ae", "lon": -77.05906183333333, "fusion_lon": 0.0}, {"is_reserved": 0, "type": "electric_scooter", "fusion_lat": 0.0, "is_disabled": 0, "rental_uris": {"ios": "https://dc.lft.to/lastmile_qr_scan", "android": "https://dc.lft.to/lastmile_qr_scan"}, "bike_id": "8c808e5cd81459fae16e2e9ca02d5e52", "lat": 38.898748166666664, "name": "8c808e5cd81459fae16e2e9ca02d5e52", "lon": -77.0465465, "fusion_lon": 0.0}, {"is_reserved": 0, "type": "electric_scooter", "fusion_lat": 0.0, "is_disabled": 0, "rental_uris": {"ios": "https://dc.lft.to/lastmile_qr_scan", "android": "https://dc.lft.to/lastmile_qr_scan"}, "bike_id": "1a7678c4bc9834fa7c21e77079a86422", "lat": 38.894308333333335, "name": "1a7678c4bc9834fa7c21e77079a86422", "lon": -77.044638, "fusion_lon": 0.0}, {"is_reserved": 0, "type": "electric_scooter", "fusion_lat": 0.0, "is_disabled": 0, "rental_uris": {"ios": "https://dc.lft.to/lastmile_qr_scan", "android": "https://dc.lft.to/lastmile_qr_scan"}, "bike_id": "8c8bc30287f55e45387ce8207582c002", "lat": 38.901763333333335, "name": "8c8bc30287f55e45387ce8207582c002", "lon": -76.9294805, "fusion_lon": 0.0}, {"is_reserved": 0, "type": "electric_scooter", "fusion_lat": 0.0, "is_disabled": 0, "rental_uris": {"ios": "https://dc.lft.to/lastmile_qr_scan", "android": "https://dc.lft.to/lastmile_qr_scan"}, "bike_id": "811e1020c095ef68e50addeba5b33ae9", "lat": 38.899629833333336, "name": "811e1020c095ef68e50addeba5b33ae9", "lon": -77.016003, "fusion_lon": 0.0}, {"is_reserved": 0, "type": "electric_scooter", "fusion_lat": 0.0, "is_disabled": 0, "rental_uris": {"ios": "https://dc.lft.to/lastmile_qr_scan", "android": "https://dc.lft.to/lastmile_qr_scan"}, "bike_id": "02e2f4c494e586c1dda1baca3ec4d1f4", "lat": 38.9220375, "name": "02e2f4c494e586c1dda1baca3ec4d1f4", "lon": -77.01842466666666, "fusion_lon": 0.0}, {"is_reserved": 0, "type": "electric_scooter", "fusion_lat": 0.0, "is_disabled": 0, "rental_uris": {"ios": "https://dc.lft.to/lastmile_qr_scan", "android": "https://dc.lft.to/lastmile_qr_scan"}, "bike_id": "23b8b39f7bc4fe7ccf3aa8d84f20fdd7", "lat": 38.899628166666666, "name": "23b8b39f7bc4fe7ccf3aa8d84f20fdd7", "lon": -77.015982, "fusion_lon": 0.0}, {"is_reserved": 0, "type": "electric_scooter", "fusion_lat": 0.0, "is_disabled": 0, "rental_uris": {"ios": "https://dc.lft.to/lastmile_qr_scan", "android": "https://dc.lft.to/lastmile_qr_scan"}, "bike_id": "dcdb4def89b318d756aaca2aaae50aa6", "lat": 38.9026435, "name": "dcdb4def89b318d756aaca2aaae50aa6", "lon": -77.01755583333333, "fusion_lon": 0.0}, {"is_reserved": 0, "type": "electric_scooter", "fusion_lat": 0.0, "is_disabled": 0, "rental_uris": {"ios": "https://dc.lft.to/lastmile_qr_scan", "android": "https://dc.lft.to/lastmile_qr_scan"}, "bike_id": "cb7268b6a2d0d9f75ec156b6aa646fc3", "lat": 38.90113233333334, "name": "cb7268b6a2d0d9f75ec156b6aa646fc3", "lon": -77.03451533333333, "fusion_lon": 0.0}, {"is_reserved": 0, "type": "electric_scooter", "fusion_lat": 0.0, "is_disabled": 0, "rental_uris": {"ios": "https://dc.lft.to/lastmile_qr_scan", "android": "https://dc.lft.to/lastmile_qr_scan"}, "bike_id": "278f026e28e3b5cdc8db301ed4121ed3", "lat": 38.9332325, "name": "278f026e28e3b5cdc8db301ed4121ed3", "lon": -77.02392933333333, "fusion_lon": 0.0}, {"is_reserved": 0, "type": "electric_scooter", "fusion_lat": 0.0, "is_disabled": 0, "rental_uris": {"ios": "https://dc.lft.to/lastmile_qr_scan", "android": "https://dc.lft.to/lastmile_qr_scan"}, "bike_id": "64680d36cd4619358113b7fed85eb9ef", "lat": 38.94487866666667, "name": "64680d36cd4619358113b7fed85eb9ef", "lon": -77.007406, "fusion_lon": 0.0}, {"is_reserved": 0, "type": "electric_scooter", "fusion_lat": 0.0, "is_disabled": 0, "rental_uris": {"ios": "https://dc.lft.to/lastmile_qr_scan", "android": "https://dc.lft.to/lastmile_qr_scan"}, "bike_id": "b519784ad6aef8e6cf022e6a54daa562", "lat": 38.90958916666666, "name": "b519784ad6aef8e6cf022e6a54daa562", "lon": -77.02378966666667, "fusion_lon": 0.0}, {"is_reserved": 0, "type": "electric_scooter", "fusion_lat": 0.0, "is_disabled": 0, "rental_uris": {"ios": "https://dc.lft.to/lastmile_qr_scan", "android": "https://dc.lft.to/lastmile_qr_scan"}, "bike_id": "bdd2c6e8d2c0eb911f264111b2c47e51", "lat": 38.903329166666666, "name": "bdd2c6e8d2c0eb911f264111b2c47e51", "lon": -76.97587466666667, "fusion_lon": 0.0}, {"is_reserved": 0, "type": "electric_scooter", "fusion_lat": 0.0, "is_disabled": 0, "rental_uris": {"ios": "https://dc.lft.to/lastmile_qr_scan", "android": "https://dc.lft.to/lastmile_qr_scan"}, "bike_id": "da9817fbeb909569e9ea8d99c1eedfd4", "lat": 38.91197433333333, "name": "da9817fbeb909569e9ea8d99c1eedfd4", "lon": -77.00215433333334, "fusion_lon": 0.0}, {"is_reserved": 0, "type": "electric_scooter", "fusion_lat": 0.0, "is_disabled": 0, "rental_uris": {"ios": "https://dc.lft.to/lastmile_qr_scan", "android": "https://dc.lft.to/lastmile_qr_scan"}, "bike_id": "c2e15350198fe21e3a31d6ebb6a81d35", "lat": 38.92073, "name": "c2e15350198fe21e3a31d6ebb6a81d35", "lon": -77.02511666666666, "fusion_lon": 0.0}, {"is_reserved": 0, "type": "electric_scooter", "fusion_lat": 0.0, "is_disabled": 0, "rental_uris": {"ios": "https://dc.lft.to/lastmile_qr_scan", "android": "https://dc.lft.to/lastmile_qr_scan"}, "bike_id": "ed108963e86a29079de8db5bea4e326e", "lat": 38.937776, "name": "ed108963e86a29079de8db5bea4e326e", "lon": -76.993667, "fusion_lon": 0.0}, {"is_reserved": 0, "type": "electric_scooter", "fusion_lat": 0.0, "is_disabled": 0, "rental_uris": {"ios": "https://dc.lft.to/lastmile_qr_scan", "android": "https://dc.lft.to/lastmile_qr_scan"}, "bike_id": "296b38b23300121c7a6d65d2da4b05c1", "lat": 38.89934383333333, "name": "296b38b23300121c7a6d65d2da4b05c1", "lon": -77.04000716666667, "fusion_lon": 0.0}, {"is_reserved": 0, "type": "electric_scooter", "fusion_lat": 0.0, "is_disabled": 0, "rental_uris": {"ios": "https://dc.lft.to/lastmile_qr_scan", "android": "https://dc.lft.to/lastmile_qr_scan"}, "bike_id": "01aa026d95d782ac69812c9653306cbe", "lat": 38.9066455, "name": "01aa026d95d782ac69812c9653306cbe", "lon": -76.99964, "fusion_lon": 0.0}, {"is_reserved": 0, "type": "electric_scooter", "fusion_lat": 0.0, "is_disabled": 0, "rental_uris": {"ios": "https://dc.lft.to/lastmile_qr_scan", "android": "https://dc.lft.to/lastmile_qr_scan"}, "bike_id": "641bb0b01764489692fda2625f92015d", "lat": 38.902431, "name": "641bb0b01764489692fda2625f92015d", "lon": -77.01682016666666, "fusion_lon": 0.0}, {"is_reserved": 0, "type": "electric_scooter", "fusion_lat": 0.0, "is_disabled": 0, "rental_uris": {"ios": "https://dc.lft.to/lastmile_qr_scan", "android": "https://dc.lft.to/lastmile_qr_scan"}, "bike_id": "850b9c5de5031a3842f189dcb2a845b6", "lat": 38.920667333333334, "name": "850b9c5de5031a3842f189dcb2a845b6", "lon": -77.028171, "fusion_lon": 0.0}, {"is_reserved": 0, "type": "electric_scooter", "fusion_lat": 0.0, "is_disabled": 0, "rental_uris": {"ios": "https://dc.lft.to/lastmile_qr_scan", "android": "https://dc.lft.to/lastmile_qr_scan"}, "bike_id": "693322e79b4b980d0db371aa4675271a", "lat": 38.904665666666666, "name": "693322e79b4b980d0db371aa4675271a", "lon": -77.0170135, "fusion_lon": 0.0}, {"is_reserved": 0, "type": "electric_scooter", "fusion_lat": 0.0, "is_disabled": 0, "rental_uris": {"ios": "https://dc.lft.to/lastmile_qr_scan", "android": "https://dc.lft.to/lastmile_qr_scan"}, "bike_id": "43322fe4bd16b4892c27469cf6b28411", "lat": 38.882631833333335, "name": "43322fe4bd16b4892c27469cf6b28411", "lon": -76.99520383333333, "fusion_lon": 0.0}, {"is_reserved": 0, "type": "electric_scooter", "fusion_lat": 0.0, "is_disabled": 0, "rental_uris": {"ios": "https://dc.lft.to/lastmile_qr_scan", "android": "https://dc.lft.to/lastmile_qr_scan"}, "bike_id": "344ac3f4485525e218e3b2740a54c9ad", "lat": 38.9266415, "name": "344ac3f4485525e218e3b2740a54c9ad", "lon": -77.02715, "fusion_lon": 0.0}, {"is_reserved": 0, "type": "electric_scooter", "fusion_lat": 0.0, "is_disabled": 0, "rental_uris": {"ios": "https://dc.lft.to/lastmile_qr_scan", "android": "https://dc.lft.to/lastmile_qr_scan"},