{"data": {"bikes": [{"lon": -77.06446516666666, "bike_id": "f0a780ba8768809eeabd657a6d530821", "lat": 38.90515516666667, "fusion_lon": 0.0, "fusion_lat": 0.0, "type": "electric_bike", "name": "f0a780ba8768809eeabd657a6d530821", "is_disabled": 0, "rental_uris": {"ios": "https://dc.lft.to/lastmile_qr_scan", "android": "https://dc.lft.to/lastmile_qr_scan"}, "is_reserved": 0}, {"lon": -77.03403616666667, "bike_id": "11fd21e83d5e57730962860e5dccf039", "lat": 38.92252216666667, "fusion_lon": 0.0, "fusion_lat": 0.0, "type": "electric_scooter", "name": "11fd21e83d5e57730962860e5dccf039", "is_disabled": 0, "rental_uris": {"ios": "https://dc.lft.to/lastmile_qr_scan", "android": "https://dc.lft.to/lastmile_qr_scan"}, "is_reserved": 0}, {"lon": -77.03844983333333, "bike_id": "8444aac7adf5d803dfb853064b04b129", "lat": 38.902547, "fusion_lon": 0.0, "fusion_lat": 0.0, "type": "electric_scooter", "name": "8444aac7adf5d803dfb853064b04b129", "is_disabled": 0, "rental_uris": {"ios": "https://dc.lft.to/lastmile_qr_scan", "android": "https://dc.lft.to/lastmile_qr_scan"}, "is_reserved": 0}, {"lon": -77.03259766666666, "bike_id": "fa7992b9bb69c260314a37d749f4b6d9", "lat": 38.919922166666666, "fusion_lon": 0.0, "fusion_lat": 0.0, "type": "electric_scooter", "name": "fa7992b9bb69c260314a37d749f4b6d9", "is_disabled": 0, "rental_uris": {"ios": "https://dc.lft.to/lastmile_qr_scan", "android": "https://dc.lft.to/lastmile_qr_scan"}, "is_reserved": 0}, {"lon": -77.0332065, "bike_id": "8c0116f26d248cb33bdc75e33ef5e686", "lat": 38.928723833333336, "fusion_lon": 0.0, "fusion_lat": 0.0, "type": "electric_scooter", "name": "8c0116f26d248cb33bdc75e33ef5e686", "is_disabled": 0, "rental_uris": {"ios": "https://dc.lft.to/lastmile_qr_scan", "android": "https://dc.lft.to/lastmile_qr_scan"}, "is_reserved": 0}, {"lon": -77.01331966666666, "bike_id": "70c78f352c17eebb03b6b49eef365323", "lat": 38.87922416666667, "fusion_lon": 0.0, "fusion_lat": 0.0, "type": "electric_scooter", "name": "70c78f352c17eebb03b6b49eef365323", "is_disabled": 0, "rental_uris": {"ios": "https://dc.lft.to/lastmile_qr_scan", "android": "https://dc.lft.to/lastmile_qr_scan"}, "is_reserved": 0}, {"lon": -77.03499733333334, "bike_id": "4868491a2d73b5562ebe31433388f327", "lat": 38.937517166666666, "fusion_lon": 0.0, "fusion_lat": 0.0, "type": "electric_scooter", "name": "4868491a2d73b5562ebe31433388f327", "is_disabled": 0, "rental_uris": {"ios": "https://dc.lft.to/lastmile_qr_scan", "android": "https://dc.lft.to/lastmile_qr_scan"}, "is_reserved": 0}, {"lon": -77.07153616666666, "bike_id": "6c01acd905b7ffdd7049d81bb42732b5", "lat": 38.90873333333333, "fusion_lon": 0.0, "fusion_lat": 0.0, "type": "electric_scooter", "name": "6c01acd905b7ffdd7049d81bb42732b5", "is_disabled": 0, "rental_uris": {"ios": "https://dc.lft.to/lastmile_qr_scan", "android": "https://dc.lft.to/lastmile_qr_scan"}, "is_reserved": 0}, {"lon": -77.08458416666667, "bike_id": "d72eb83745f030813d8832b157d43c33", "lat": 38.848168, "fusion_lon": 0.0, "fusion_lat": 0.0, "type": "electric_bike", "name": "d72eb83745f030813d8832b157d43c33", "is_disabled": 0, "rental_uris": {"ios": "https://dc.lft.to/lastmile_qr_scan", "android": "https://dc.lft.to/lastmile_qr_scan"}, "is_reserved": 0}, {"lon": -77.05538233333333, "bike_id": "c0e0b68bd77678afa36d810c827423c2", "lat": 38.93431116666667, "fusion_lon": 0.0, "fusion_lat": 0.0, "type": "electric_scooter", "name": "c0e0b68bd77678afa36d810c827423c2", "is_disabled": 0, "rental_uris": {"ios": "https://dc.lft.to/lastmile_qr_scan", "android": "https://dc.lft.to/lastmile_qr_scan"}, "is_reserved": 0}, {"lon": -77.024173, "bike_id": "e8bc421966420d5807c2c9335e08ae02", "lat": 38.90972716666667, "fusion_lon": 0.0, "fusion_lat": 0.0, "type": "electric_scooter", "name": "e8bc421966420d5807c2c9335e08ae02", "is_disabled": 0, "rental_uris": {"ios": "https://dc.lft.to/lastmile_qr_scan", "android": "https://dc.lft.to/lastmile_qr_scan"}, "is_reserved": 0}, {"lon": -76.98838116666667, "bike_id": "f1f4808f121e0ed101039e50585dc6cd", "lat": 38.90064816666667, "fusion_lon": 0.0, "fusion_lat": 0.0, "type": "electric_scooter", "name": "f1f4808f121e0ed101039e50585dc6cd", "is_disabled": 0, "rental_uris": {"ios": "https://dc.lft.to/lastmile_qr_scan", "android": "https://dc.lft.to/lastmile_qr_scan"}, "is_reserved": 0}, {"lon": -77.0035905, "bike_id": "abedd0c5a0d40c1d4e9ba07a6a8d4d09", "lat": 38.92048833333333, "fusion_lon": 0.0, "fusion_lat": 0.0, "type": "electric_scooter", "name": "abedd0c5a0d40c1d4e9ba07a6a8d4d09", "is_disabled": 0, "rental_uris": {"ios": "https://dc.lft.to/lastmile_qr_scan", "android": "https://dc.lft.to/lastmile_qr_scan"}, "is_reserved": 0}, {"lon": -77.02367, "bike_id": "eb6326b78c028cec32f0aeca8f63593f", "lat": 38.937602166666665, "fusion_lon": 0.0, "fusion_lat": 0.0, "type": "electric_scooter", "name": "eb6326b78c028cec32f0aeca8f63593f", "is_disabled": 0, "rental_uris": {"ios": "https://dc.lft.to/lastmile_qr_scan", "android": "https://dc.lft.to/lastmile_qr_scan"}, "is_reserved": 0}, {"lon": -77.03927916666666, "bike_id": "5c979e14d883a54aee9e541c889cc2df", "lat": 38.91541333333333, "fusion_lon": 0.0, "fusion_lat": 0.0, "type": "electric_scooter", "name": "5c979e14d883a54aee9e541c889cc2df", "is_disabled": 0, "rental_uris": {"ios": "https://dc.lft.to/lastmile_qr_scan", "android": "https://dc.lft.to/lastmile_qr_scan"}, "is_reserved": 0}, {"lon": -77.04354633333334, "bike_id": "086ac4312c0c913648aaf2138ab8388a", "lat": 38.907936, "fusion_lon": 0.0, "fusion_lat": 0.0, "type": "electric_scooter", "name": "086ac4312c0c913648aaf2138ab8388a", "is_disabled": 0, "rental_uris": {"ios": "https://dc.lft.to/lastmile_qr_scan", "android": "https://dc.lft.to/lastmile_qr_scan"}, "is_reserved": 0}, {"lon": -77.0358635, "bike_id": "de12bfa63507ad26622494813924c3c8", "lat": 38.91766066666667, "fusion_lon": 0.0, "fusion_lat": 0.0, "type": "electric_scooter", "name": "de12bfa63507ad26622494813924c3c8", "is_disabled": 0, "rental_uris": {"ios": "https://dc.lft.to/lastmile_qr_scan", "android": "https://dc.lft.to/lastmile_qr_scan"}, "is_reserved": 0}, {"lon": -77.03221366666666, "bike_id": "238e4fb8fa5f317e5d4d870b76d67937", "lat": 38.9182255, "fusion_lon": 0.0, "fusion_lat": 0.0, "type": "electric_scooter", "name": "238e4fb8fa5f317e5d4d870b76d67937", "is_disabled": 0, "rental_uris": {"ios": "https://dc.lft.to/lastmile_qr_scan", "android": "https://dc.lft.to/lastmile_qr_scan"}, "is_reserved": 0}, {"lon": -77.01130766666667, "bike_id": "75bf41fbedc5793d040592c970e4d204", "lat": 38.885228166666664, "fusion_lon": 0.0, "fusion_lat": 0.0, "type": "electric_scooter", "name": "75bf41fbedc5793d040592c970e4d204", "is_disabled": 0, "rental_uris": {"ios": "https://dc.lft.to/lastmile_qr_scan", "android": "https://dc.lft.to/lastmile_qr_scan"}, "is_reserved": 0}, {"lon": -77.024066, "bike_id": "58d37fcc424361d840d6a68044b5c793", "lat": 38.90425666666667, "fusion_lon": 0.0, "fusion_lat": 0.0, "type": "electric_scooter", "name": "58d37fcc424361d840d6a68044b5c793", "is_disabled": 0, "rental_uris": {"ios": "https://dc.lft.to/lastmile_qr_scan", "android": "https://dc.lft.to/lastmile_qr_scan"}, "is_reserved": 0}, {"lon": -77.05857866666666, "bike_id": "97a51c251c64e038103001a9d193c801", "lat": 38.936058333333335, "fusion_lon": 0.0, "fusion_lat": 0.0, "type": "electric_scooter", "name": "97a51c251c64e038103001a9d193c801", "is_disabled": 0, "rental_uris": {"ios": "https://dc.lft.to/lastmile_qr_scan", "android": "https://dc.lft.to/lastmile_qr_scan"}, "is_reserved": 0}, {"lon": -77.0344645, "bike_id": "e165256cd50e6185652dc5da283675cb", "lat": 38.90727483333333, "fusion_lon": 0.0, "fusion_lat": 0.0, "type": "electric_scooter", "name": "e165256cd50e6185652dc5da283675cb", "is_disabled": 0, "rental_uris": {"ios": "https://dc.lft.to/lastmile_qr_scan", "android": "https://dc.lft.to/lastmile_qr_scan"}, "is_reserved": 0}, {"lon": -77.04591183333334, "bike_id": "e4de246e2faaddf0316de74cac3fc888", "lat": 38.919289666666664, "fusion_lon": 0.0, "fusion_lat": 0.0, "type": "electric_scooter", "name": "e4de246e2faaddf0316de74cac3fc888", "is_disabled": 0, "rental_uris": {"ios": "https://dc.lft.to/lastmile_qr_scan", "android": "https://dc.lft.to/lastmile_qr_scan"}, "is_reserved": 0}, {"lon": -77.03552316666666, "bike_id": "3f23dd0817ba4f05b12d86ead7dcbfdb", "lat": 38.90841233333333, "fusion_lon": 0.0, "fusion_lat": 0.0, "type": "electric_scooter", "name": "3f23dd0817ba4f05b12d86ead7dcbfdb", "is_disabled": 0, "rental_uris": {"ios": "https://dc.lft.to/lastmile_qr_scan", "android": "https://dc.lft.to/lastmile_qr_scan"}, "is_reserved": 0}, {"lon": -77.03522933333333, "bike_id": "ce97f6529f5be5c84ddfc6d631c705ee", "lat": 38.923366, "fusion_lon": 0.0, "fusion_lat": 0.0, "type": "electric_scooter", "name": "ce97f6529f5be5c84ddfc6d631c705ee", "is_disabled": 0, "rental_uris": {"ios": "https://dc.lft.to/lastmile_qr_scan", "android": "https://dc.lft.to/lastmile_qr_scan"}, "is_reserved": 0}, {"lon": -77.02743833333334, "bike_id": "c273c6b9ffb32c5ab03e146fde7b26b3", "lat": 38.94391266666667, "fusion_lon": 0.0, "fusion_lat": 0.0, "type": "electric_scooter", "name": "c273c6b9ffb32c5ab03e146fde7b26b3", "is_disabled": 0, "rental_uris": {"ios": "https://dc.lft.to/lastmile_qr_scan", "android": "https://dc.lft.to/lastmile_qr_scan"}, "is_reserved": 0}, {"lon": -76.97330616666666, "bike_id": "1bbe4fe1f292c74d4dd979465fb0fe64", "lat": 38.90410816666667, "fusion_lon": 0.0, "fusion_lat": 0.0, "type": "electric_scooter", "name": "1bbe4fe1f292c74d4dd979465fb0fe64", "is_disabled": 0, "rental_uris": {"ios": "https://dc.lft.to/lastmile_qr_scan", "android": "https://dc.lft.to/lastmile_qr_scan"}, "is_reserved": 0}, {"lon": -77.032644, "bike_id": "b33626e6bf906c98bd7a6f0b4e635401", "lat": 38.932339, "fusion_lon": 0.0, "fusion_lat": 0.0, "type": "electric_scooter", "name": "b33626e6bf906c98bd7a6f0b4e635401", "is_disabled": 0, "rental_uris": {"ios": "https://dc.lft.to/lastmile_qr_scan", "android": "https://dc.lft.to/lastmile_qr_scan"}, "is_reserved": 0}, {"lon": -77.0532155, "bike_id": "80159a9d5f5e15ac7de267ea1561d8c5", "lat": 38.9013745, "fusion_lon": 0.0, "fusion_lat": 0.0, "type": "electric_scooter", "name": "80159a9d5f5e15ac7de267ea1561d8c5", "is_disabled": 0, "rental_uris": {"ios": "https://dc.lft.to/lastmile_qr_scan", "android": "https://dc.lft.to/lastmile_qr_scan"}, "is_reserved": 0}, {"lon": -77.04099133333334, "bike_id": "65d3c52d481981d8c118defda2c5c2a0", "lat": 38.91774516666667, "fusion_lon": 0.0, "fusion_lat": 0.0, "type": "electric_scooter", "name": "65d3c52d481981d8c118defda2c5c2a0", "is_disabled": 0, "rental_uris": {"ios": "https://dc.lft.to/lastmile_qr_scan", "android": "https://dc.lft.to/lastmile_qr_scan"}, "is_reserved": 0}, {"lon": -77.03186883333333, "bike_id": "e8c079325263d247124aaea635183e79", "lat": 38.916881000000004, "fusion_lon": 0.0, "fusion_lat": 0.0, "type": "electric_scooter", "name": "e8c079325263d247124aaea635183e79", "is_disabled": 0, "rental_uris": {"ios": "https://dc.lft.to/lastmile_qr_scan", "android": "https://dc.lft.to/lastmile_qr_scan"}, "is_reserved": 0}, {"lon": -77.02598333333333, "bike_id": "dfbe46d3061baf8460aa2acea04f1654", "lat": 38.920361666666665, "fusion_lon": 0.0, "fusion_lat": 0.0, "type": "electric_scooter", "name": "dfbe46d3061baf8460aa2acea04f1654", "is_disabled": 0, "rental_uris": {"ios": "https://dc.lft.to/lastmile_qr_scan", "android": "https://dc.lft.to/lastmile_qr_scan"}, "is_reserved": 0}, {"lon": -77.0365715, "bike_id": "550acfe33c811d62d405b85723e72b3f", "lat": 38.917475833333334, "fusion_lon": 0.0, "fusion_lat": 0.0, "type": "electric_scooter", "name": "550acfe33c811d62d405b85723e72b3f", "is_disabled": 0, "rental_uris": {"ios": "https://dc.lft.to/lastmile_qr_scan", "android": "https://dc.lft.to/lastmile_qr_scan"}, "is_reserved": 0}, {"lon": -77.10595983333333, "bike_id": "99a088e997c9b3e36cbc0ed3c331c30d", "lat": 38.90383766666667, "fusion_lon": 0.0, "fusion_lat": 0.0, "type": "electric_bike", "name": "99a088e997c9b3e36cbc0ed3c331c30d", "is_disabled": 0, "rental_uris": {"ios": "https://dc.lft.to/lastmile_qr_scan", "android": "https://dc.lft.to/lastmile_qr_scan"}, "is_reserved": 0}, {"lon": -77.025824, "bike_id": "7fe8142f3ec2d254706f1759cee5e46c", "lat": 38.89227533333333, "fusion_lon": 0.0, "fusion_lat": 0.0, "type": "electric_scooter", "name": "7fe8142f3ec2d254706f1759cee5e46c", "is_disabled": 0, "rental_uris": {"ios": "https://dc.lft.to/lastmile_qr_scan", "android": "https://dc.lft.to/lastmile_qr_scan"}, "is_reserved": 0}, {"lon": -77.02204116666667, "bike_id": "8d9c45ccd741b9da8d7578f8559fa35b", "lat": 38.900381, "fusion_lon": 0.0, "fusion_lat": 0.0, "type": "electric_scooter", "name": "8d9c45ccd741b9da8d7578f8559fa35b", "is_disabled": 0, "rental_uris": {"ios": "https://dc.lft.to/lastmile_qr_scan", "android": "https://dc.lft.to/lastmile_qr_scan"}, "is_reserved": 0}, {"lon": -77.0412705, "bike_id": "0539fdf461947f82db40c7c12d59b212", "lat": 38.906166, "fusion_lon": 0.0, "fusion_lat": 0.0, "type": "electric_scooter", "name": "0539fdf461947f82db40c7c12d59b212", "is_disabled": 0, "rental_uris": {"ios": "https://dc.lft.to/lastmile_qr_scan", "android": "https://dc.lft.to/lastmile_qr_scan"}, "is_reserved": 0}, {"lon": -77.0386735, "bike_id": "ee92e70b8d2256ba5cad3bae32e2b7d6", "lat": 38.914110666666666, "fusion_lon": 0.0, "fusion_lat": 0.0, "type": "electric_scooter", "name": "ee92e70b8d2256ba5cad3bae32e2b7d6", "is_disabled": 0, "rental_uris": {"ios": "https://dc.lft.to/lastmile_qr_scan", "android": "https://dc.lft.to/lastmile_qr_scan"}, "is_reserved": 0}, {"lon": -77.0267005, "bike_id": "ec0740704425e81788301e8e38106e50", "lat": 38.98455366666666, "fusion_lon": 0.0, "fusion_lat": 0.0, "type": "electric_scooter", "name": "ec0740704425e81788301e8e38106e50", "is_disabled": 0, "rental_uris": {"ios": "https://dc.lft.to/lastmile_qr_scan", "android": "https://dc.lft.to/lastmile_qr_scan"}, "is_reserved": 0}, {"lon": -77.0021125, "bike_id": "ba835f8aeed9b89a835da372a6fbed0a", "lat": 38.89719083333333, "fusion_lon": 0.0, "fusion_lat": 0.0, "type": "electric_scooter", "name": "ba835f8aeed9b89a835da372a6fbed0a", "is_disabled": 0, "rental_uris": {"ios": "https://dc.lft.to/lastmile_qr_scan", "android": "https://dc.lft.to/lastmile_qr_scan"}, "is_reserved": 0}, {"lon": -77.0199955, "bike_id": "5e70b01249fe20c8336147a71327b316", "lat": 38.904475, "fusion_lon": 0.0, "fusion_lat": 0.0, "type": "electric_scooter", "name": "5e70b01249fe20c8336147a71327b316", "is_disabled": 0, "rental_uris": {"ios": "https://dc.lft.to/lastmile_qr_scan", "android": "https://dc.lft.to/lastmile_qr_scan"}, "is_reserved": 0}, {"lon": -77.02973916666667, "bike_id": "074b0e16ad7f74e22e093d1f7c206766", "lat": 38.921935500000004, "fusion_lon": 0.0, "fusion_lat": 0.0, "type": "electric_scooter", "name": "074b0e16ad7f74e22e093d1f7c206766", "is_disabled": 0, "rental_uris": {"ios": "https://dc.lft.to/lastmile_qr_scan", "android": "https://dc.lft.to/lastmile_qr_scan"}, "is_reserved": 0}, {"lon": -77.031397, "bike_id": "abc51fa29137911648915e951a1eee34", "lat": 38.91997633333333, "fusion_lon": 0.0, "fusion_lat": 0.0, "type": "electric_scooter", "name": "abc51fa29137911648915e951a1eee34", "is_disabled": 0, "rental_uris": {"ios": "https://dc.lft.to/lastmile_qr_scan", "android": "https://dc.lft.to/lastmile_qr_scan"}, "is_reserved": 0}, {"lon": -76.9872245, "bike_id": "24a0b090534e6454e1032729942f3a64", "lat": 38.90008233333333, "fusion_lon": 0.0, "fusion_lat": 0.0, "type": "electric_scooter", "name": "24a0b090534e6454e1032729942f3a64", "is_disabled": 0, "rental_uris": {"ios": "https://dc.lft.to/lastmile_qr_scan", "android": "https://dc.lft.to/lastmile_qr_scan"}, "is_reserved": 0}, {"lon": -77.020988, "bike_id": "8a1b5377a69edf0a710ac426481e2d8c", "lat": 38.909707166666664, "fusion_lon": 0.0, "fusion_lat": 0.0, "type": "electric_scooter", "name": "8a1b5377a69edf0a710ac426481e2d8c", "is_disabled": 0, "rental_uris": {"ios": "https://dc.lft.to/lastmile_qr_scan", "android": "https://dc.lft.to/lastmile_qr_scan"}, "is_reserved": 0}, {"lon": -77.0344725, "bike_id": "5e6f9ef21f8f1d6264d8390decc32222", "lat": 38.90286316666667, "fusion_lon": 0.0, "fusion_lat": 0.0, "type": "electric_scooter", "name": "5e6f9ef21f8f1d6264d8390decc32222", "is_disabled": 0, "rental_uris": {"ios": "https://dc.lft.to/lastmile_qr_scan", "android": "https://dc.lft.to/lastmile_qr_scan"}, "is_reserved": 0}, {"lon": -77.023564, "bike_id": "a1a0453d8f1b214d4627331a001d564e", "lat": 38.90403966666667, "fusion_lon": 0.0, "fusion_lat": 0.0, "type": "electric_scooter", "name": "a1a0453d8f1b214d4627331a001d564e", "is_disabled": 0, "rental_uris": {"ios": "https://dc.lft.to/lastmile_qr_scan", "android": "https://dc.lft.to/lastmile_qr_scan"}, "is_reserved": 0}, {"lon": -76.99553766666666, "bike_id": "2d1f663b073a0d167df8d8b5bb1e9939", "lat": 38.862538666666666, "fusion_lon": 0.0, "fusion_lat": 0.0, "type": "electric_scooter", "name": "2d1f663b073a0d167df8d8b5bb1e9939", "is_disabled": 0, "rental_uris": {"ios": "https://dc.lft.to/lastmile_qr_scan", "android": "https://dc.lft.to/lastmile_qr_scan"}, "is_reserved": 0}, {"lon": -77.0243755, "bike_id": "0cdc57d1773ed2038e3eff8e44a23abf", "lat": 38.92495566666667, "fusion_lon": 0.0, "fusion_lat": 0.0, "type": "electric_scooter", "name": "0cdc57d1773ed2038e3eff8e44a23abf", "is_disabled": 0, "rental_uris": {"ios": "https://dc.lft.to/lastmile_qr_scan", "android": "https://dc.lft.to/lastmile_qr_scan"}, "is_reserved": 0}, {"lon": -77.03257566666667, "bike_id": "3529af489e25dae0502f1167f9024cca", "lat": 38.942706666666666, "fusion_lon": 0.0, "fusion_lat": 0.0, "type": "electric_scooter", "name": "3529af489e25dae0502f1167f9024cca", "is_disabled": 0, "rental_uris": {"ios": "https://dc.lft.to/lastmile_qr_scan", "android": "https://dc.lft.to/lastmile_qr_scan"}, "is_reserved": 0}, {"lon": -77.02812966666667, "bike_id": "f5f3753b3813bfb88fd294b2ee0b8c73", "lat": 38.88176566666667, "fusion_lon": 0.0, "fusion_lat": 0.0, "type": "electric_scooter", "name": "f5f3753b3813bfb88fd294b2ee0b8c73", "is_disabled": 0, "rental_uris": {"ios": "https://dc.lft.to/lastmile_qr_scan", "android": "https://dc.lft.to/lastmile_qr_scan"}, "is_reserved": 0}, {"lon": -76.96384183333333, "bike_id": "435299006a9fdee69d9637f35dd43e58", "lat": 38.951817, "fusion_lon": 0.0, "fusion_lat": 0.0, "type": "electric_bike", "name": "435299006a9fdee69d9637f35dd43e58", "is_disabled": 0, "rental_uris": {"ios": "https://dc.lft.to/lastmile_qr_scan", "android": "https://dc.lft.to/lastmile_qr_scan"}, "is_reserved": 0}, {"lon": -77.04805533333334, "bike_id": "c8d0b5a29478f05c71e58df5e5834477", "lat": 38.916245833333335, "fusion_lon": 0.0, "fusion_lat": 0.0, "type": "electric_scooter", "name": "c8d0b5a29478f05c71e58df5e5834477", "is_disabled": 0, "rental_uris": {"ios": "https://dc.lft.to/lastmile_qr_scan", "android": "https://dc.lft.to/lastmile_qr_scan"}, "is_reserved": 0}, {"lon": -76.99124266666666, "bike_id": "62c11802f6953c59dd6e77cf6b094004", "lat": 38.9227135, "fusion_lon": 0.0, "fusion_lat": 0.0, "type": "electric_scooter", "name": "62c11802f6953c59dd6e77cf6b094004", "is_disabled": 0, "rental_uris": {"ios": "https://dc.lft.to/lastmile_qr_scan", "android": "https://dc.lft.to/lastmile_qr_scan"}, "is_reserved": 0}, {"lon": -77.01875716666666, "bike_id": "5b3b5befdaa92870aa427d61da0faa00", "lat": 38.89865183333333, "fusion_lon": 0.0, "fusion_lat": 0.0, "type": "electric_scooter", "name": "5b3b5befdaa92870aa427d61da0faa00", "is_disabled": 0, "rental_uris": {"ios": "https://dc.lft.to/lastmile_qr_scan", "android": "https://dc.lft.to/lastmile_qr_scan"}, "is_reserved": 0}, {"lon": -76.98466, "bike_id": "5fb0aec26dff105254d528bed2c6c1c6", "lat": 38.903987, "fusion_lon": 0.0, "fusion_lat": 0.0, "type": "electric_scooter", "name": "5fb0aec26dff105254d528bed2c6c1c6", "is_disabled": 0, "rental_uris": {"ios": "https://dc.lft.to/lastmile_qr_scan", "android": "https://dc.lft.to/lastmile_qr_scan"}, "is_reserved": 0}, {"lon": -77.03619616666667, "bike_id": "a4ee907d8e5ac48c5370edef18d4a6a8", "lat": 38.93672516666667, "fusion_lon": 0.0, "fusion_lat": 0.0, "type": "electric_scooter", "name": "a4ee907d8e5ac48c5370edef18d4a6a8", "is_disabled": 0, "rental_uris": {"ios": "https://dc.lft.to/lastmile_qr_scan", "android": "https://dc.lft.to/lastmile_qr_scan"}, "is_reserved": 0}, {"lon": -77.03186183333334, "bike_id": "936b1c06f49f0b80f7ce94e3ae220b80", "lat": 38.91331516666666, "fusion_lon": 0.0, "fusion_lat": 0.0, "type": "electric_scooter", "name": "936b1c06f49f0b80f7ce94e3ae220b80", "is_disabled": 0, "rental_uris": {"ios": "https://dc.lft.to/lastmile_qr_scan", "android": "https://dc.lft.to/lastmile_qr_scan"}, "is_reserved": 0}, {"lon": -77.028096, "bike_id": "bd698bea849ea2cab1720ca78e339dce", "lat": 38.881772166666664, "fusion_lon": 0.0, "fusion_lat": 0.0, "type": "electric_scooter", "name": "bd698bea849ea2cab1720ca78e339dce", "is_disabled": 0, "rental_uris": {"ios": "https://dc.lft.to/lastmile_qr_scan", "android": "https://dc.lft.to/lastmile_qr_scan"}, "is_reserved": 0}, {"lon": -77.027648, "bike_id": "cc4fbbf45bef1ee24dc6b76e2dce3ec7", "lat": 38.954229, "fusion_lon": 0.0, "fusion_lat": 0.0, "type": "electric_scooter", "name": "cc4fbbf45bef1ee24dc6b76e2dce3ec7", "is_disabled": 0, "rental_uris": {"ios": "https://dc.lft.to/lastmile_qr_scan", "android": "https://dc.lft.to/lastmile_qr_scan"}, "is_reserved": 0}, {"lon": -77.04867166666666, "bike_id": "64b98afe4529eca20df610398fc7f4a2", "lat": 38.8921955, "fusion_lon": 0.0, "fusion_lat": 0.0, "type": "electric_scooter", "name": "64b98afe4529eca20df610398fc7f4a2", "is_disabled": 0, "rental_uris": {"ios": "https://dc.lft.to/lastmile_qr_scan", "android": "https://dc.lft.to/lastmile_qr_scan"}, "is_reserved": 0}, {"lon": -77.01490116666666, "bike_id": "14a31b47c870f101c4a5f233a36ff429", "lat": 38.926779333333336, "fusion_lon": 0.0, "fusion_lat": 0.0, "type": "electric_scooter", "name": "14a31b47c870f101c4a5f233a36ff429", "is_disabled": 0, "rental_uris": {"ios": "https://dc.lft.to/lastmile_qr_scan", "android": "https://dc.lft.to/lastmile_qr_scan"}, "is_reserved": 0}, {"lon": -77.016562, "bike_id": "b0b6990191d8e346a113555b953307c1", "lat": 38.87701883333333, "fusion_lon": 0.0, "fusion_lat": 0.0, "type": "electric_scooter", "name": "b0b6990191d8e346a113555b953307c1", "is_disabled": 0, "rental_uris": {"ios": "https://dc.lft.to/lastmile_qr_scan", "android": "https://dc.lft.to/lastmile_qr_scan"}, "is_reserved": 0}, {"lon": -77.02000133333334, "bike_id": "c0c191df3ddbadef3e7ca5a0818a7cd6", "lat": 38.96630233333333, "fusion_lon": 0.0, "fusion_lat": 0.0, "type": "electric_scooter", "name": "c0c191df3ddbadef3e7ca5a0818a7cd6", "is_disabled": 0, "rental_uris": {"ios": "https://dc.lft.to/lastmile_qr_scan", "android": "https://dc.lft.to/lastmile_qr_scan"}, "is_reserved": 0}, {"lon": -77.0195725, "bike_id": "680df86770d9f7543ac27d4cee257240", "lat": 38.9007245, "fusion_lon": 0.0, "fusion_lat": 0.0, "type": "electric_scooter", "name": "680df86770d9f7543ac27d4cee257240", "is_disabled": 0, "rental_uris": {"ios": "https://dc.lft.to/lastmile_qr_scan", "android": "https://dc.lft.to/lastmile_qr_scan"}, "is_reserved": 0}, {"lon": -77.03626166666666, "bike_id": "fdfe1ab36e1fbccd9c866750f87d5594", "lat": 38.916891666666665, "fusion_lon": 0.0, "fusion_lat": 0.0, "type": "electric_scooter", "name": "fdfe1ab36e1fbccd9c866750f87d5594", "is_disabled": 0, "rental_uris": {"ios": "https://dc.lft.to/lastmile_qr_scan", "android": "https://dc.lft.to/lastmile_qr_scan"}, "is_reserved": 0}, {"lon": -77.02197283333334, "bike_id": "3b7afa2a0fed9dfa8ca9291a3020c913", "lat": 38.905368833333334, "fusion_lon": 0.0, "fusion_lat": 0.0, "type": "electric_scooter", "name": "3b7afa2a0fed9dfa8ca9291a3020c913", "is_disabled": 0, "rental_uris": {"ios": "https://dc.lft.to/lastmile_qr_scan", "android": "https://dc.lft.to/lastmile_qr_scan"}, "is_reserved": 0}, {"lon": -77.051513, "bike_id": "13a82686c822bca151712902e0acf992", "lat": 38.898618166666665, "fusion_lon": 0.0, "fusion_lat": 0.0, "type": "electric_scooter", "name": "13a82686c822bca151712902e0acf992", "is_disabled": 0, "rental_uris": {"ios": "https://dc.lft.to/lastmile_qr_scan", "android": "https://dc.lft.to/lastmile_qr_scan"}, "is_reserved": 0}, {"lon": -76.99364983333334, "bike_id": "9a9d179a11040c4bd273308fbe4a331c", "lat": 38.94022916666667, "fusion_lon": 0.0, "fusion_lat": 0.0, "type": "electric_scooter", "name": "9a9d179a11040c4bd273308fbe4a331c", "is_disabled": 0, "rental_uris": {"ios": "https://dc.lft.to/lastmile_qr_scan", "android": "https://dc.lft.to/lastmile_qr_scan"}, "is_reserved": 0}, {"lon": -77.03286866666667, "bike_id": "9262af8e05f916936f0ad66358314777", "lat": 38.95649, "fusion_lon": 0.0, "fusion_lat": 0.0, "type": "electric_scooter", "name": "9262af8e05f916936f0ad66358314777", "is_disabled": 0, "rental_uris": {"ios": "https://dc.lft.to/lastmile_qr_scan", "android": "https://dc.lft.to/lastmile_qr_scan"}, "is_reserved": 0}, {"lon": -77.00125183333333, "bike_id": "e7783ef9486912ca61939cb29a48f5f9", "lat": 38.904992666666665, "fusion_lon": 0.0, "fusion_lat": 0.0, "type": "electric_scooter", "name": "e7783ef9486912ca61939cb29a48f5f9", "is_disabled": 0, "rental_uris": {"ios": "https://dc.lft.to/lastmile_qr_scan", "android": "https://dc.lft.to/lastmile_qr_scan"}, "is_reserved": 0}, {"lon": -77.03863133333333, "bike_id": "fac804641f74549fffe5218322ca7d88", "lat": 38.92010883333333, "fusion_lon": 0.0, "fusion_lat": 0.0, "type": "electric_scooter", "name": "fac804641f74549fffe5218322ca7d88", "is_disabled": 0, "rental_uris": {"ios": "https://dc.lft.to/lastmile_qr_scan", "android": "https://dc.lft.to/lastmile_qr_scan"}, "is_reserved": 0}, {"lon": -76.93763733333333, "bike_id": "e72329f665a04d59d01a8412d4da5fee", "lat": 38.87859483333333, "fusion_lon": 0.0, "fusion_lat": 0.0, "type": "electric_scooter", "name": "e72329f665a04d59d01a8412d4da5fee", "is_disabled": 0, "rental_uris": {"ios": "https://dc.lft.to/lastmile_qr_scan", "android": "https://dc.lft.to/lastmile_qr_scan"}, "is_reserved": 0}, {"lon": -76.94504383333333, "bike_id": "b7be726d2d82542e2a19b9c667115b10", "lat": 38.86482083333333, "fusion_lon": 0.0, "fusion_lat": 0.0, "type": "electric_bike", "name": "b7be726d2d82542e2a19b9c667115b10", "is_disabled": 0, "rental_uris": {"ios": "https://dc.lft.to/lastmile_qr_scan", "android": "https://dc.lft.to/lastmile_qr_scan"}, "is_reserved": 0}, {"lon": -77.0230475, "bike_id": "b86c849985a0c53aef7405345a839500", "lat": 38.90891883333333, "fusion_lon": 0.0, "fusion_lat": 0.0, "type": "electric_scooter", "name": "b86c849985a0c53aef7405345a839500", "is_disabled": 0, "rental_uris": {"ios": "https://dc.lft.to/lastmile_qr_scan", "android": "https://dc.lft.to/lastmile_qr_scan"}, "is_reserved": 0}, {"lon": -76.9376995, "bike_id": "298ebf07875af44be42e3aec8d2a16a1", "lat": 38.899643, "fusion_lon": 0.0, "fusion_lat": 0.0, "type": "electric_scooter", "name": "298ebf07875af44be42e3aec8d2a16a1", "is_disabled": 0, "rental_uris": {"ios": "https://dc.lft.to/lastmile_qr_scan", "android": "https://dc.lft.to/lastmile_qr_scan"}, "is_reserved": 0}, {"lon": -76.99858683333333, "bike_id": "581feb230d1ea3788375e32bbbc3a4c3", "lat": 38.894113, "fusion_lon": 0.0, "fusion_lat": 0.0, "type": "electric_scooter", "name": "581feb230d1ea3788375e32bbbc3a4c3", "is_disabled": 0, "rental_uris": {"ios": "https://dc.lft.to/lastmile_qr_scan", "android": "https://dc.lft.to/lastmile_qr_scan"}, "is_reserved": 0}, {"lon": -77.04981433333333, "bike_id": "9b568ddbb7267cad90388c30e1526fb4", "lat": 39.06297383333333, "fusion_lon": 0.0, "fusion_lat": 0.0, "type": "electric_bike", "name": "9b568ddbb7267cad90388c30e1526fb4", "is_disabled": 0, "rental_uris": {"ios": "https://dc.lft.to/lastmile_qr_scan", "android": "https://dc.lft.to/lastmile_qr_scan"}, "is_reserved": 0}, {"lon": -76.990065, "bike_id": "32cb73bb872ae18539619daa7f6635c9", "lat": 38.94588816666667, "fusion_lon": 0.0, "fusion_lat": 0.0, "type": "electric_scooter", "name": "32cb73bb872ae18539619daa7f6635c9", "is_disabled": 0, "rental_uris": {"ios": "https://dc.lft.to/lastmile_qr_scan", "android": "https://dc.lft.to/lastmile_qr_scan"}, "is_reserved": 0}, {"lon": -77.0411815, "bike_id": "3fb8d918987a34d5f6b58f3a38215087", "lat": 38.934659833333335, "fusion_lon": 0.0, "fusion_lat": 0.0, "type": "electric_scooter", "name": "3fb8d918987a34d5f6b58f3a38215087", "is_disabled": 0, "rental_uris": {"ios": "https://dc.lft.to/lastmile_qr_scan", "android": "https://dc.lft.to/lastmile_qr_scan"}, "is_reserved": 0}, {"lon": -77.01359883333333, "bike_id": "1447bb8c9977913484c7d8857c3e5dd4", "lat": 38.89715433333333, "fusion_lon": 0.0, "fusion_lat": 0.0, "type": "electric_scooter", "name": "1447bb8c9977913484c7d8857c3e5dd4", "is_disabled": 0, "rental_uris": {"ios": "https://dc.lft.to/lastmile_qr_scan", "android": "https://dc.lft.to/lastmile_qr_scan"}, "is_reserved": 0}, {"lon": -77.0452925, "bike_id": "438742c0df7a9ebb2d822dd215120b7b", "lat": 38.903515666666664, "fusion_lon": 0.0, "fusion_lat": 0.0, "type": "electric_scooter", "name": "438742c0df7a9ebb2d822dd215120b7b", "is_disabled": 0, "rental_uris": {"ios": "https://dc.lft.to/lastmile_qr_scan", "android": "https://dc.lft.to/lastmile_qr_scan"}, "is_reserved": 0}, {"lon": -77.021943, "bike_id": "c63e5902724b30ef50ceb1f9f62be5af", "lat": 38.911279666666665, "fusion_lon": 0.0, "fusion_lat": 0.0, "type": "electric_scooter", "name": "c63e5902724b30ef50ceb1f9f62be5af", "is_disabled": 0, "rental_uris": {"ios": "https://dc.lft.to/lastmile_qr_scan", "android": "https://dc.lft.to/lastmile_qr_scan"}, "is_reserved": 0}, {"lon": -77.00793483333334, "bike_id": "e33e1296273c4756c277a3157c2685a5", "lat": 38.896402333333334, "fusion_lon": 0.0, "fusion_lat": 0.0, "type": "electric_scooter", "name": "e33e1296273c4756c277a3157c2685a5", "is_disabled": 0, "rental_uris": {"ios": "https://dc.lft.to/lastmile_qr_scan", "android": "https://dc.lft.to/lastmile_qr_scan"}, "is_reserved": 0}, {"lon": -77.028439, "bike_id": "297c347a7886a18cd5cbec4e5e8f42dc", "lat": 38.927566166666665, "fusion_lon": 0.0, "fusion_lat": 0.0, "type": "electric_scooter", "name": "297c347a7886a18cd5cbec4e5e8f42dc", "is_disabled": 0, "rental_uris": {"ios": "https://dc.lft.to/lastmile_qr_scan", "android": "https://dc.lft.to/lastmile_qr_scan"}, "is_reserved": 0}, {"lon": -77.03629783333334, "bike_id": "2a70dc01de7ce2575b36bfe1f22e28f6", "lat": 38.94493333333333, "fusion_lon": 0.0, "fusion_lat": 0.0, "type": "electric_scooter", "name": "2a70dc01de7ce2575b36bfe1f22e28f6", "is_disabled": 0, "rental_uris": {"ios": "https://dc.lft.to/lastmile_qr_scan", "android": "https://dc.lft.to/lastmile_qr_scan"}, "is_reserved": 0}, {"lon": -77.033595, "bike_id": "5ca94f2aebfd2c3f9adb8be13945e1bf", "lat": 38.935751, "fusion_lon": 0.0, "fusion_lat": 0.0, "type": "electric_scooter", "name": "5ca94f2aebfd2c3f9adb8be13945e1bf", "is_disabled": 0, "rental_uris": {"ios": "https://dc.lft.to/lastmile_qr_scan", "android": "https://dc.lft.to/lastmile_qr_scan"}, "is_reserved": 0}, {"lon": -76.98346583333333, "bike_id": "6838a85a196827c14a56b7532c62176a", "lat": 38.9045485, "fusion_lon": 0.0, "fusion_lat": 0.0, "type": "electric_scooter", "name": "6838a85a196827c14a56b7532c62176a", "is_disabled": 0, "rental_uris": {"ios": "https://dc.lft.to/lastmile_qr_scan", "android": "https://dc.lft.to/lastmile_qr_scan"}, "is_reserved": 0}, {"lon": -77.08775583333333, "bike_id": "858e6b8a2d90fb60aebea08790cc592d", "lat": 38.838990333333335, "fusion_lon": 0.0, "fusion_lat": 0.0, "type": "electric_bike", "name": "858e6b8a2d90fb60aebea08790cc592d", "is_disabled": 0, "rental_uris": {"ios": "https://dc.lft.to/lastmile_qr_scan", "android": "https://dc.lft.to/lastmile_qr_scan"}, "is_reserved": 0}, {"lon": -76.99611116666667, "bike_id": "18cb26e21db9cfa4ff75b2ce2ab84960", "lat": 38.88747583333333, "fusion_lon": 0.0, "fusion_lat": 0.0, "type": "electric_scooter", "name": "18cb26e21db9cfa4ff75b2ce2ab84960", "is_disabled": 0, "rental_uris": {"ios": "https://dc.lft.to/lastmile_qr_scan", "android": "https://dc.lft.to/lastmile_qr_scan"}, "is_reserved": 0}, {"lon": -77.02654783333334, "bike_id": "cc6f6e68c01ed80bdcb3fd082ae383bd", "lat": 38.978112333333335, "fusion_lon": 0.0, "fusion_lat": 0.0, "type": "electric_scooter", "name": "cc6f6e68c01ed80bdcb3fd082ae383bd", "is_disabled": 0, "rental_uris": {"ios": "https://dc.lft.to/lastmile_qr_scan", "android": "https://dc.lft.to/lastmile_qr_scan"}, "is_reserved": 0}, {"lon": -76.97710316666667, "bike_id": "cb9e297b8ec2f539addbc51ba583f150", "lat": 38.887735166666666, "fusion_lon": 0.0, "fusion_lat": 0.0, "type": "electric_scooter", "name": "cb9e297b8ec2f539addbc51ba583f150", "is_disabled": 0, "rental_uris": {"ios": "https://dc.lft.to/lastmile_qr_scan", "android": "https://dc.lft.to/lastmile_qr_scan"}, "is_reserved": 0}, {"lon": -76.97866883333333, "bike_id": "7b629959f7610eee43836038d2700090", "lat": 38.883069, "fusion_lon": 0.0, "fusion_lat": 0.0, "type": "electric_scooter", "name": "7b629959f7610eee43836038d2700090", "is_disabled": 0, "rental_uris": {"ios": "https://dc.lft.to/lastmile_qr_scan", "android": "https://dc.lft.to/lastmile_qr_scan"}, "is_reserved": 0}, {"lon": -77.0241225, "bike_id": "448adad2b6fa4b0349b5bb3f146e3e98", "lat": 38.909667166666665, "fusion_lon": 0.0, "fusion_lat": 0.0, "type": "electric_scooter", "name": "448adad2b6fa4b0349b5bb3f146e3e98", "is_disabled": 0, "rental_uris": {"ios": "https://dc.lft.to/lastmile_qr_scan", "android": "https://dc.lft.to/lastmile_qr_scan"}, "is_reserved": 0}, {"lon": -77.0279185, "bike_id": "2f018f8d18fb0d06749aae446aff0199", "lat": 38.95682383333333, "fusion_lon": 0.0, "fusion_lat": 0.0, "type": "electric_scooter", "name": "2f018f8d18fb0d06749aae446aff0199", "is_disabled": 0, "rental_uris": {"ios": "https://dc.lft.to/lastmile_qr_scan", "android": "https://dc.lft.to/lastmile_qr_scan"}, "is_reserved": 0}, {"lon": -77.0230145, "bike_id": "294b9c442163c1843b18c0cc568d9beb", "lat": 38.909137666666666, "fusion_lon": 0.0, "fusion_lat": 0.0, "type": "electric_scooter", "name": "294b9c442163c1843b18c0cc568d9beb", "is_disabled": 0, "rental_uris": {"ios": "https://dc.lft.to/lastmile_qr_scan", "android": "https://dc.lft.to/lastmile_qr_scan"}, "is_reserved": 0}, {"lon": -77.0523645, "bike_id": "0e6a46e3de826a0990cad36ec728b6f3", "lat": 38.924646333333335, "fusion_lon": 0.0, "fusion_lat": 0.0, "type": "electric_scooter", "name": "0e6a46e3de826a0990cad36ec728b6f3", "is_disabled": 0, "rental_uris": {"ios": "https://dc.lft.to/lastmile_qr_scan", "android": "https://dc.lft.to/lastmile_qr_scan"}, "is_reserved": 0}, {"lon": -77.05129316666667, "bike_id": "13cd2f4f59d68e2d665ed1101c44e32b", "lat": 38.923618833333336, "fusion_lon": 0.0, "fusion_lat": 0.0, "type": "electric_scooter", "name": "13cd2f4f59d68e2d665ed1101c44e32b", "is_disabled": 0, "rental_uris": {"ios": "https://dc.lft.to/lastmile_qr_scan", "android": "https://dc.lft.to/lastmile_qr_scan"}, "is_reserved": 0}, {"lon": -77.055571, "bike_id": "31d57d9e665b984472f6ad3cb3647fbb", "lat": 38.93031933333333, "fusion_lon": 0.0, "fusion_lat": 0.0, "type": "electric_bike", "name": "31d57d9e665b984472f6ad3cb3647fbb", "is_disabled": 0, "rental_uris": {"ios": "https://dc.lft.to/lastmile_qr_scan", "android": "https://dc.lft.to/lastmile_qr_scan"}, "is_reserved": 0}, {"lon": -77.02486983333333, "bike_id": "b696ccf8b53fda38ab6d630417875a9c", "lat": 38.938637166666666, "fusion_lon": 0.0, "fusion_lat": 0.0, "type": "electric_scooter", "name": "b696ccf8b53fda38ab6d630417875a9c", "is_disabled": 0, "rental_uris": {"ios": "https://dc.lft.to/lastmile_qr_scan", "android": "https://dc.lft.to/lastmile_qr_scan"}, "is_reserved": 0}, {"lon": -77.01276033333333, "bike_id": "9ed9fe6387788adda70cdfbbdecfd476", "lat": 38.9126785, "fusion_lon": 0.0, "fusion_lat": 0.0, "type": "electric_scooter", "name": "9ed9fe6387788adda70cdfbbdecfd476", "is_disabled": 0, "rental_uris": {"ios": "https://dc.lft.to/lastmile_qr_scan", "android": "https://dc.lft.to/lastmile_qr_scan"}, "is_reserved": 0}, {"lon": -77.00785266666666, "bike_id": "3492b2838ee575a0f9e6f9587d3e8d8a", "lat": 38.90648, "fusion_lon": 0.0, "fusion_lat": 0.0, "type": "electric_scooter", "name": "3492b2838ee575a0f9e6f9587d3e8d8a", "is_disabled": 0, "rental_uris": {"ios": "https://dc.lft.to/lastmile_qr_scan", "android": "https://dc.lft.to/lastmile_qr_scan"}, "is_reserved": 0}, {"lon": -77.04398183333333, "bike_id": "0e1b2774e7f6f432724b015a7b0a4301", "lat": 38.9332565, "fusion_lon": 0.0, "fusion_lat": 0.0, "type": "electric_scooter", "name": "0e1b2774e7f6f432724b015a7b0a4301", "is_disabled": 0, "rental_uris": {"ios": "https://dc.lft.to/lastmile_qr_scan", "android": "https://dc.lft.to/lastmile_qr_scan"}, "is_reserved": 0}, {"lon": -76.92751566666666, "bike_id": "f414e59c66db6f2ffe00e672df0dcf95", "lat": 38.880582833333335, "fusion_lon": 0.0, "fusion_lat": 0.0, "type": "electric_scooter", "name": "f414e59c66db6f2ffe00e672df0dcf95", "is_disabled": 0, "rental_uris": {"ios": "https://dc.lft.to/lastmile_qr_scan", "android": "https://dc.lft.to/lastmile_qr_scan"}, "is_reserved": 0}, {"lon": -77.05278166666666, "bike_id": "2a5b0013eb9b179838d1cb3a70fca8de", "lat": 38.910216, "fusion_lon": 0.0, "fusion_lat": 0.0, "type": "electric_scooter", "name": "2a5b0013eb9b179838d1cb3a70fca8de", "is_disabled": 0, "rental_uris": {"ios": "https://dc.lft.to/lastmile_qr_scan", "android": "https://dc.lft.to/lastmile_qr_scan"}, "is_reserved": 0}, {"lon": -77.05348816666667, "bike_id": "687f96355781be430aaf555d0992fdd7", "lat": 38.92708533333333, "fusion_lon": 0.0, "fusion_lat": 0.0, "type": "electric_scooter", "name": "687f96355781be430aaf555d0992fdd7", "is_disabled": 0, "rental_uris": {"ios": "https://dc.lft.to/lastmile_qr_scan", "android": "https://dc.lft.to/lastmile_qr_scan"}, "is_reserved": 0}, {"lon": -77.00597, "bike_id": "3701c3dbe19187b123d5db3c97981c6f", "lat": 38.9063245, "fusion_lon": 0.0, "fusion_lat": 0.0, "type": "electric_scooter", "name": "3701c3dbe19187b123d5db3c97981c6f", "is_disabled": 0, "rental_uris": {"ios": "https://dc.lft.to/lastmile_qr_scan", "android": "https://dc.lft.to/lastmile_qr_scan"}, "is_reserved": 0}, {"lon": -77.04219933333333, "bike_id": "e3cd48eebf2ccc4c94d29f5ac2141f0d", "lat": 38.911164666666664, "fusion_lon": 0.0, "fusion_lat": 0.0, "type": "electric_scooter", "name": "e3cd48eebf2ccc4c94d29f5ac2141f0d", "is_disabled": 0, "rental_uris": {"ios": "https://dc.lft.to/lastmile_qr_scan", "android": "https://dc.lft.to/lastmile_qr_scan"}, "is_reserved": 0}, {"lon": -76.98411616666667, "bike_id": "d6cf1bede828aa3e0f50f973cdda1869", "lat": 38.86647516666667, "fusion_lon": 0.0, "fusion_lat": 0.0, "type": "electric_bike", "name": "d6cf1bede828aa3e0f50f973cdda1869", "is_disabled": 0, "rental_uris": {"ios": "https://dc.lft.to/lastmile_qr_scan", "android": "https://dc.lft.to/lastmile_qr_scan"}, "is_reserved": 0}, {"lon": -77.04613633333334, "bike_id": "7f4a9cad1506f36135606104e7bf32da", "lat": 38.9055915, "fusion_lon": 0.0, "fusion_lat": 0.0, "type": "electric_scooter", "name": "7f4a9cad1506f36135606104e7bf32da", "is_disabled": 0, "rental_uris": {"ios": "https://dc.lft.to/lastmile_qr_scan", "android": "https://dc.lft.to/lastmile_qr_scan"}, "is_reserved": 0}, {"lon": -77.0241685, "bike_id": "acde67dd219a5205a56c46e333a8b021", "lat": 38.917796833333334, "fusion_lon": 0.0, "fusion_lat": 0.0, "type": "electric_scooter", "name": "acde67dd219a5205a56c46e333a8b021", "is_disabled": 0, "rental_uris": {"ios": "https://dc.lft.to/lastmile_qr_scan", "android": "https://dc.lft.to/lastmile_qr_scan"}, "is_reserved": 0}, {"lon": -77.02955966666667, "bike_id": "2ab87319c4490f004c8fd27825ec213d", "lat": 38.9124705, "fusion_lon": 0.0, "fusion_lat": 0.0, "type": "electric_scooter", "name": "2ab87319c4490f004c8fd27825ec213d", "is_disabled": 0, "rental_uris": {"ios": "https://dc.lft.to/lastmile_qr_scan", "android": "https://dc.lft.to/lastmile_qr_scan"}, "is_reserved": 0}, {"lon": -77.04601916666667, "bike_id": "51edac775f965d2d22a8905e03db8bc8", "lat": 38.853097166666664, "fusion_lon": 0.0, "fusion_lat": 0.0, "type": "electric_bike", "name": "51edac775f965d2d22a8905e03db8bc8", "is_disabled": 0, "rental_uris": {"ios": "https://dc.lft.to/lastmile_qr_scan", "android": "https://dc.lft.to/lastmile_qr_scan"}, "is_reserved": 0}, {"lon": -77.02671716666667, "bike_id": "a9818f3ef5beb876e6c15dc5c4a3fb43", "lat": 38.92769066666666, "fusion_lon": 0.0, "fusion_lat": 0.0, "type": "electric_scooter", "name": "a9818f3ef5beb876e6c15dc5c4a3fb43", "is_disabled": 0, "rental_uris": {"ios": "https://dc.lft.to/lastmile_qr_scan", "android": "https://dc.lft.to/lastmile_qr_scan"}, "is_reserved": 0}, {"lon": -77.03480366666666, "bike_id": "351ac599467ce7605bd0ae08abba9985", "lat": 38.9191795, "fusion_lon": 0.0, "fusion_lat": 0.0, "type": "electric_scooter", "name": "351ac599467ce7605bd0ae08abba9985", "is_disabled": 0, "rental_uris": {"ios": "https://dc.lft.to/lastmile_qr_scan", "android": "https://dc.lft.to/lastmile_qr_scan"}, "is_reserved": 0}, {"lon": -77.024864, "bike_id": "7afc39d462dd0d8e94672a7154dde5ae", "lat": 38.9016795, "fusion_lon": 0.0, "fusion_lat": 0.0, "type": "electric_scooter", "name": "7afc39d462dd0d8e94672a7154dde5ae", "is_disabled": 0, "rental_uris": {"ios": "https://dc.lft.to/lastmile_qr_scan", "android": "https://dc.lft.to/lastmile_qr_scan"}, "is_reserved": 0}, {"lon": -77.02284, "bike_id": "18c2261886bfb316e286f7ac19d090a3", "lat": 38.91646333333333, "fusion_lon": 0.0, "fusion_lat": 0.0, "type": "electric_scooter", "name": "18c2261886bfb316e286f7ac19d090a3", "is_disabled": 0, "rental_uris": {"ios": "https://dc.lft.to/lastmile_qr_scan", "android": "https://dc.lft.to/lastmile_qr_scan"}, "is_reserved": 0}, {"lon": -77.02360533333334, "bike_id": "4fba24f45d403bd6fc1f1131fb858b75", "lat": 38.8922005, "fusion_lon": 0.0, "fusion_lat": 0.0, "type": "electric_scooter", "name": "4fba24f45d403bd6fc1f1131fb858b75", "is_disabled": 0, "rental_uris": {"ios": "https://dc.lft.to/lastmile_qr_scan", "android": "https://dc.lft.to/lastmile_qr_scan"}, "is_reserved": 0}, {"lon": -77.05723233333333, "bike_id": "603a131cbd3856756931660d0344c092", "lat": 38.93363383333333, "fusion_lon": 0.0, "fusion_lat": 0.0, "type": "electric_scooter", "name": "603a131cbd3856756931660d0344c092", "is_disabled": 0, "rental_uris": {"ios": "https://dc.lft.to/lastmile_qr_scan", "android": "https://dc.lft.to/lastmile_qr_scan"}, "is_reserved": 0}, {"lon": -77.02595566666666, "bike_id": "e25fd66f4f9549b910f63a04dac34727", "lat": 38.92034683333333, "fusion_lon": 0.0, "fusion_lat": 0.0, "type": "electric_scooter", "name": "e25fd66f4f9549b910f63a04dac34727", "is_disabled": 0, "rental_uris": {"ios": "https://dc.lft.to/lastmile_qr_scan", "android": "https://dc.lft.to/lastmile_qr_scan"}, "is_reserved": 0}, {"lon": -76.998269, "bike_id": "c7bfd4622fb36b60f9d59e223c861746", "lat": 38.885306666666665, "fusion_lon": 0.0, "fusion_lat": 0.0, "type": "electric_scooter", "name": "c7bfd4622fb36b60f9d59e223c861746", "is_disabled": 0, "rental_uris": {"ios": "https://dc.lft.to/lastmile_qr_scan", "android": "https://dc.lft.to/lastmile_qr_scan"}, "is_reserved": 0}, {"lon": -76.9705365, "bike_id": "f0c639cc194f1a99895fc58e291084da", "lat": 38.897701, "fusion_lon": 0.0, "fusion_lat": 0.0, "type": "electric_scooter", "name": "f0c639cc194f1a99895fc58e291084da", "is_disabled": 0, "rental_uris": {"ios": "https://dc.lft.to/lastmile_qr_scan", "android": "https://dc.lft.to/lastmile_qr_scan"}, "is_reserved": 0}, {"lon": -77.0004575, "bike_id": "029d6cbd0437d06f1acde3333e775a89", "lat": 38.923929, "fusion_lon": 0.0, "fusion_lat": 0.0, "type": "electric_scooter", "name": "029d6cbd0437d06f1acde3333e775a89", "is_disabled": 0, "rental_uris": {"ios": "https://dc.lft.to/lastmile_qr_scan", "android": "https://dc.lft.to/lastmile_qr_scan"}, "is_reserved": 0}, {"lon": -76.99530183333333, "bike_id": "fe67175024eb0f8f364ea17c73fb7538", "lat": 38.8620505, "fusion_lon": 0.0, "fusion_lat": 0.0, "type": "electric_scooter", "name": "fe67175024eb0f8f364ea17c73fb7538", "is_disabled": 0, "rental_uris": {"ios": "https://dc.lft.to/lastmile_qr_scan", "android": "https://dc.lft.to/lastmile_qr_scan"}, "is_reserved": 0}, {"lon": -77.055676, "bike_id": "7743617273da6e99f11b0295387649d1", "lat": 38.89731316666666, "fusion_lon": 0.0, "fusion_lat": 0.0, "type": "electric_scooter", "name": "7743617273da6e99f11b0295387649d1", "is_disabled": 0, "rental_uris": {"ios": "https://dc.lft.to/lastmile_qr_scan", "android": "https://dc.lft.to/lastmile_qr_scan"}, "is_reserved": 0}, {"lon": -76.9465285, "bike_id": "055af6b54ee0f27597fd932b78c56be4", "lat": 38.898220333333335, "fusion_lon": 0.0, "fusion_lat": 0.0, "type": "electric_scooter", "name": "055af6b54ee0f27597fd932b78c56be4", "is_disabled": 0, "rental_uris": {"ios": "https://dc.lft.to/lastmile_qr_scan", "android": "https://dc.lft.to/lastmile_qr_scan"}, "is_reserved": 0}, {"lon": -76.99031666666667, "bike_id": "dcdfc8a6989ac5a7d4dc7e1ec63cc534", "lat": 38.896020166666666, "fusion_lon": 0.0, "fusion_lat": 0.0, "type": "electric_scooter", "name": "dcdfc8a6989ac5a7d4dc7e1ec63cc534", "is_disabled": 0, "rental_uris": {"ios": "https://dc.lft.to/lastmile_qr_scan", "android": "https://dc.lft.to/lastmile_qr_scan"}, "is_reserved": 0}, {"lon": -77.01767466666666, "bike_id": "832c7c0b18f2a33189cc715585c6479d", "lat": 38.900368666666665, "fusion_lon": 0.0, "fusion_lat": 0.0, "type": "electric_scooter", "name": "832c7c0b18f2a33189cc715585c6479d", "is_disabled": 0, "rental_uris": {"ios": "https://dc.lft.to/lastmile_qr_scan", "android": "https://dc.lft.to/lastmile_qr_scan"}, "is_reserved": 0}, {"lon": -76.98227283333334, "bike_id": "0697b90875cb8e71b96847da776b6f56", "lat": 38.864709500000004, "fusion_lon": 0.0, "fusion_lat": 0.0, "type": "electric_scooter", "name": "0697b90875cb8e71b96847da776b6f56", "is_disabled": 0, "rental_uris": {"ios": "https://dc.lft.to/lastmile_qr_scan", "android": "https://dc.lft.to/lastmile_qr_scan"}, "is_reserved": 0}, {"lon": -77.049053, "bike_id": "1871a8228be438a5ec9424df3b7c712f", "lat": 38.91601133333333, "fusion_lon": 0.0, "fusion_lat": 0.0, "type": "electric_scooter", "name": "1871a8228be438a5ec9424df3b7c712f", "is_disabled": 0, "rental_uris": {"ios": "https://dc.lft.to/lastmile_qr_scan", "android": "https://dc.lft.to/lastmile_qr_scan"}, "is_reserved": 0}, {"lon": -77.03265016666667, "bike_id": "5d291c33d5f3d9ca79a9347e226cca39", "lat": 38.93236683333333, "fusion_lon": 0.0, "fusion_lat": 0.0, "type": "electric_scooter", "name": "5d291c33d5f3d9ca79a9347e226cca39", "is_disabled": 0, "rental_uris": {"ios": "https://dc.lft.to/lastmile_qr_scan", "android": "https://dc.lft.to/lastmile_qr_scan"}, "is_reserved": 0}, {"lon": -77.025828, "bike_id": "32dae0acb543e1cab8eb0fca9bd633c5", "lat": 38.914038166666664, "fusion_lon": 0.0, "fusion_lat": 0.0, "type": "electric_scooter", "name": "32dae0acb543e1cab8eb0fca9bd633c5", "is_disabled": 0, "rental_uris": {"ios": "https://dc.lft.to/lastmile_qr_scan", "android": "https://dc.lft.to/lastmile_qr_scan"}, "is_reserved": 0}, {"lon": -77.01585766666666, "bike_id": "51f472c861203d9e8ed8b8a42a5fda1b", "lat": 38.916435, "fusion_lon": 0.0, "fusion_lat": 0.0, "type": "electric_scooter", "name": "51f472c861203d9e8ed8b8a42a5fda1b", "is_disabled": 0, "rental_uris": {"ios": "https://dc.lft.to/lastmile_qr_scan", "android": "https://dc.lft.to/lastmile_qr_scan"}, "is_reserved": 0}, {"lon": -77.05310583333333, "bike_id": "8c90aef6ca400a498c88ab70681015e1", "lat": 38.9007435, "fusion_lon": 0.0, "fusion_lat": 0.0, "type": "electric_scooter", "name": "8c90aef6ca400a498c88ab70681015e1", "is_disabled": 0, "rental_uris": {"ios": "https://dc.lft.to/lastmile_qr_scan", "android": "https://dc.lft.to/lastmile_qr_scan"}, "is_reserved": 0}, {"lon": -77.139235, "bike_id": "e8fa3627da2bb5109c461a366ec8b70f", "lat": 38.872988666666664, "fusion_lon": 0.0, "fusion_lat": 0.0, "type": "electric_bike", "name": "e8fa3627da2bb5109c461a366ec8b70f", "is_disabled": 0, "rental_uris": {"ios": "https://dc.lft.to/lastmile_qr_scan", "android": "https://dc.lft.to/lastmile_qr_scan"}, "is_reserved": 0}, {"lon": -77.034284, "bike_id": "85d3671d71f2074ea739102de889b579", "lat": 38.965346833333335, "fusion_lon": 0.0, "fusion_lat": 0.0, "type": "electric_bike", "name": "85d3671d71f2074ea739102de889b579", "is_disabled": 0, "rental_uris": {"ios": "https://dc.lft.to/lastmile_qr_scan", "android": "https://dc.lft.to/lastmile_qr_scan"}, "is_reserved": 0}, {"lon": -77.047033, "bike_id": "ab2b6da19f7e0cc5ca107018b04ad9ff", "lat": 38.92236116666667, "fusion_lon": 0.0, "fusion_lat": 0.0, "type": "electric_scooter", "name": "ab2b6da19f7e0cc5ca107018b04ad9ff", "is_disabled": 0, "rental_uris": {"ios": "https://dc.lft.to/lastmile_qr_scan", "android": "https://dc.lft.to/lastmile_qr_scan"}, "is_reserved": 0}, {"lon": -76.95473716666666, "bike_id": "df79802219878ef621726dea0b9c3537", "lat": 38.88655683333333, "fusion_lon": 0.0, "fusion_lat": 0.0, "type": "electric_scooter", "name": "df79802219878ef621726dea0b9c3537", "is_disabled": 0, "rental_uris": {"ios": "https://dc.lft.to/lastmile_qr_scan", "android": "https://dc.lft.to/lastmile_qr_scan"}, "is_reserved": 0}, {"lon": -77.02497116666666, "bike_id": "e566b290417c3a9e20d05e36f446aae4", "lat": 38.9259185, "fusion_lon": 0.0, "fusion_lat": 0.0, "type": "electric_scooter", "name": "e566b290417c3a9e20d05e36f446aae4", "is_disabled": 0, "rental_uris": {"ios": "https://dc.lft.to/lastmile_qr_scan", "android": "https://dc.lft.to/lastmile_qr_scan"}, "is_reserved": 0}, {"lon": -77.00555016666667, "bike_id": "874891a6e7e5105c302c9aa788f1b02e", "lat": 38.874696666666665, "fusion_lon": 0.0, "fusion_lat": 0.0, "type": "electric_scooter", "name": "874891a6e7e5105c302c9aa788f1b02e", "is_disabled": 0, "rental_uris": {"ios": "https://dc.lft.to/lastmile_qr_scan", "android": "https://dc.lft.to/lastmile_qr_scan"}, "is_reserved": 0}, {"lon": -77.013179, "bike_id": "aea92ab04a3d36219c7ce695da6c12a6", "lat": 38.907334, "fusion_lon": 0.0, "fusion_lat": 0.0, "type": "electric_scooter", "name": "aea92ab04a3d36219c7ce695da6c12a6", "is_disabled": 0, "rental_uris": {"ios": "https://dc.lft.to/lastmile_qr_scan", "android": "https://dc.lft.to/lastmile_qr_scan"}, "is_reserved": 0}, {"lon": -76.9987955, "bike_id": "e6f3ac6517dcce4ff193a6d80cdb0f4f", "lat": 38.9205555, "fusion_lon": 0.0, "fusion_lat": 0.0, "type": "electric_scooter", "name": "e6f3ac6517dcce4ff193a6d80cdb0f4f", "is_disabled": 0, "rental_uris": {"ios": "https://dc.lft.to/lastmile_qr_scan", "android": "https://dc.lft.to/lastmile_qr_scan"}, "is_reserved": 0}, {"lon": -77.03204633333333, "bike_id": "76ab64f7014a95930f74b6276d04eb3c", "lat": 38.92293, "fusion_lon": 0.0, "fusion_lat": 0.0, "type": "electric_scooter", "name": "76ab64f7014a95930f74b6276d04eb3c", "is_disabled": 0, "rental_uris": {"ios": "https://dc.lft.to/lastmile_qr_scan", "android": "https://dc.lft.to/lastmile_qr_scan"}, "is_reserved": 0}, {"lon": -77.0114885, "bike_id": "a17187fc0cdcd69b605e8d77aaca1757", "lat": 38.89586883333333, "fusion_lon": 0.0, "fusion_lat": 0.0, "type": "electric_scooter", "name": "a17187fc0cdcd69b605e8d77aaca1757", "is_disabled": 0, "rental_uris": {"ios": "https://dc.lft.to/lastmile_qr_scan", "android": "https://dc.lft.to/lastmile_qr_scan"}, "is_reserved": 0}, {"lon": -77.045991, "bike_id": "9e54464406d82b3cdf9c4fa1004d6d53", "lat": 38.90768833333333, "fusion_lon": 0.0, "fusion_lat": 0.0, "type": "electric_scooter", "name": "9e54464406d82b3cdf9c4fa1004d6d53", "is_disabled": 0, "rental_uris": {"ios": "https://dc.lft.to/lastmile_qr_scan", "android": "https://dc.lft.to/lastmile_qr_scan"}, "is_reserved": 0}, {"lon": -77.04896516666666, "bike_id": "364a1d2b443b8bf99f76bb2fc4ea0cb0", "lat": 38.89233383333333, "fusion_lon": 0.0, "fusion_lat": 0.0, "type": "electric_scooter", "name": "364a1d2b443b8bf99f76bb2fc4ea0cb0", "is_disabled": 0, "rental_uris": {"ios": "https://dc.lft.to/lastmile_qr_scan", "android": "https://dc.lft.to/lastmile_qr_scan"}, "is_reserved": 0}, {"lon": -77.03440483333334, "bike_id": "3a1415a9330e64ad58a2360bcfa7a7e7", "lat": 38.93438066666667, "fusion_lon": 0.0, "fusion_lat": 0.0, "type": "electric_scooter", "name": "3a1415a9330e64ad58a2360bcfa7a7e7", "is_disabled": 0, "rental_uris": {"ios": "https://dc.lft.to/lastmile_qr_scan", "android": "https://dc.lft.to/lastmile_qr_scan"}, "is_reserved": 0}, {"lon": -76.98661683333333, "bike_id": "1188691c0c242fca7ab03426a98e85cc", "lat": 38.867345, "fusion_lon": 0.0, "fusion_lat": 0.0, "type": "electric_scooter", "name": "1188691c0c242fca7ab03426a98e85cc", "is_disabled": 0, "rental_uris": {"ios": "https://dc.lft.to/lastmile_qr_scan", "android": "https://dc.lft.to/lastmile_qr_scan"}, "is_reserved": 0}, {"lon": -77.03656866666667, "bike_id": "7cd81b299537507f8a94b2cf306392b6", "lat": 38.9175025, "fusion_lon": 0.0, "fusion_lat": 0.0, "type": "electric_scooter", "name": "7cd81b299537507f8a94b2cf306392b6", "is_disabled": 0, "rental_uris": {"ios": "https://dc.lft.to/lastmile_qr_scan", "android": "https://dc.lft.to/lastmile_qr_scan"}, "is_reserved": 0}, {"lon": -77.0327265, "bike_id": "a612a3bb4f3e183b039703de133023a8", "lat": 38.93455566666667, "fusion_lon": 0.0, "fusion_lat": 0.0, "type": "electric_scooter", "name": "a612a3bb4f3e183b039703de133023a8", "is_disabled": 0, "rental_uris": {"ios": "https://dc.lft.to/lastmile_qr_scan", "android": "https://dc.lft.to/lastmile_qr_scan"}, "is_reserved": 0}, {"lon": -77.02298433333333, "bike_id": "4d6f004627e443b164ecb9f1aeec3911", "lat": 38.916711666666664, "fusion_lon": 0.0, "fusion_lat": 0.0, "type": "electric_scooter", "name": "4d6f004627e443b164ecb9f1aeec3911", "is_disabled": 0, "rental_uris": {"ios": "https://dc.lft.to/lastmile_qr_scan", "android": "https://dc.lft.to/lastmile_qr_scan"}, "is_reserved": 0}, {"lon": -76.99878433333333, "bike_id": "9207054e5d53a01eee0378f1f637f8ee", "lat": 38.90130166666667, "fusion_lon": 0.0, "fusion_lat": 0.0, "type": "electric_scooter", "name": "9207054e5d53a01eee0378f1f637f8ee", "is_disabled": 0, "rental_uris": {"ios": "https://dc.lft.to/lastmile_qr_scan", "android": "https://dc.lft.to/lastmile_qr_scan"}, "is_reserved": 0}, {"lon": -77.03475783333333, "bike_id": "b6431b66b768f20917b809778292c4ff", "lat": 38.935323333333336, "fusion_lon": 0.0, "fusion_lat": 0.0, "type": "electric_scooter", "name": "b6431b66b768f20917b809778292c4ff", "is_disabled": 0, "rental_uris": {"ios": "https://dc.lft.to/lastmile_qr_scan", "android": "https://dc.lft.to/lastmile_qr_scan"}, "is_reserved": 0}, {"lon": -76.980165, "bike_id": "ee27f53001a78eee68bb56590be0e5f0", "lat": 38.90283933333333, "fusion_lon": 0.0, "fusion_lat": 0.0, "type": "electric_scooter", "name": "ee27f53001a78eee68bb56590be0e5f0", "is_disabled": 0, "rental_uris": {"ios": "https://dc.lft.to/lastmile_qr_scan", "android": "https://dc.lft.to/lastmile_qr_scan"}, "is_reserved": 0}, {"lon": -77.001984, "bike_id": "06336e7395ecb9356b5fa9817c957870", "lat": 38.915876, "fusion_lon": 0.0, "fusion_lat": 0.0, "type": "electric_scooter", "name": "06336e7395ecb9356b5fa9817c957870", "is_disabled": 0, "rental_uris": {"ios": "https://dc.lft.to/lastmile_qr_scan", "android": "https://dc.lft.to/lastmile_qr_scan"}, "is_reserved": 0}, {"lon": -77.0217915, "bike_id": "6d3e8173d7bab1894421869bae5b3919", "lat": 38.9198435, "fusion_lon": 0.0, "fusion_lat": 0.0, "type": "electric_scooter", "name": "6d3e8173d7bab1894421869bae5b3919", "is_disabled": 0, "rental_uris": {"ios": "https://dc.lft.to/lastmile_qr_scan", "android": "https://dc.lft.to/lastmile_qr_scan"}, "is_reserved": 0}, {"lon": -77.05500316666667, "bike_id": "18494da49672ec758395c2c7fda9f66f", "lat": 38.92975666666667, "fusion_lon": 0.0, "fusion_lat": 0.0, "type": "electric_scooter", "name": "18494da49672ec758395c2c7fda9f66f", "is_disabled": 0, "rental_uris": {"ios": "https://dc.lft.to/lastmile_qr_scan", "android": "https://dc.lft.to/lastmile_qr_scan"}, "is_reserved": 0}, {"lon": -77.02896616666666, "bike_id": "3fa07f87b7740e654fd22acee6547170", "lat": 38.928158833333335, "fusion_lon": 0.0, "fusion_lat": 0.0, "type": "electric_scooter", "name": "3fa07f87b7740e654fd22acee6547170", "is_disabled": 0, "rental_uris": {"ios": "https://dc.lft.to/lastmile_qr_scan", "android": "https://dc.lft.to/lastmile_qr_scan"}, "is_reserved": 0}, {"lon": -77.02043316666666, "bike_id": "413b22d5a6a1c38990d9078c90068d7c", "lat": 38.93289683333333, "fusion_lon": 0.0, "fusion_lat": 0.0, "type": "electric_scooter", "name": "413b22d5a6a1c38990d9078c90068d7c", "is_disabled": 0, "rental_uris": {"ios": "https://dc.lft.to/lastmile_qr_scan", "android": "https://dc.lft.to/lastmile_qr_scan"}, "is_reserved": 0}, {"lon": -77.07591733333334, "bike_id": "a0660206bdab179d34aa2eb7dd76e8a5", "lat": 38.91218166666667, "fusion_lon": 0.0, "fusion_lat": 0.0, "type": "electric_scooter", "name": "a0660206bdab179d34aa2eb7dd76e8a5", "is_disabled": 0, "rental_uris": {"ios": "https://dc.lft.to/lastmile_qr_scan", "android": "https://dc.lft.to/lastmile_qr_scan"}, "is_reserved": 0}, {"lon": -77.040849, "bike_id": "3a99da26a61fa18d43a653a37bdce91b", "lat": 38.90574133333333, "fusion_lon": 0.0, "fusion_lat": 0.0, "type": "electric_scooter", "name": "3a99da26a61fa18d43a653a37bdce91b", "is_disabled": 0, "rental_uris": {"ios": "https://dc.lft.to/lastmile_qr_scan", "android": "https://dc.lft.to/lastmile_qr_scan"}, "is_reserved": 0}, {"lon": -77.02764216666667, "bike_id": "b30e8838cb36fe0cec790f59dbcf1ed7", "lat": 38.954244, "fusion_lon": 0.0, "fusion_lat": 0.0, "type": "electric_scooter", "name": "b30e8838cb36fe0cec790f59dbcf1ed7", "is_disabled": 0, "rental_uris": {"ios": "https://dc.lft.to/lastmile_qr_scan", "android": "https://dc.lft.to/lastmile_qr_scan"}, "is_reserved": 0}, {"lon": -77.01542516666666, "bike_id": "4b12e02ecc76b8306f49b3d41db3e0ec", "lat": 38.885063333333335, "fusion_lon": 0.0, "fusion_lat": 0.0, "type": "electric_scooter", "name": "4b12e02ecc76b8306f49b3d41db3e0ec", "is_disabled": 0, "rental_uris": {"ios": "https://dc.lft.to/lastmile_qr_scan", "android": "https://dc.lft.to/lastmile_qr_scan"}, "is_reserved": 0}, {"lon": -77.03757483333334, "bike_id": "18a644e9e69083a8614199595b6ca3f7", "lat": 38.911881666666666, "fusion_lon": 0.0, "fusion_lat": 0.0, "type": "electric_scooter", "name": "18a644e9e69083a8614199595b6ca3f7", "is_disabled": 0, "rental_uris": {"ios": "https://dc.lft.to/lastmile_qr_scan", "android": "https://dc.lft.to/lastmile_qr_scan"}, "is_reserved": 0}, {"lon": -77.024596, "bike_id": "dd54db6b70a23fde3632a4d4d3ff31fc", "lat": 38.90392, "fusion_lon": 0.0, "fusion_lat": 0.0, "type": "electric_scooter", "name": "dd54db6b70a23fde3632a4d4d3ff31fc", "is_disabled": 0, "rental_uris": {"ios": "https://dc.lft.to/lastmile_qr_scan", "android": "https://dc.lft.to/lastmile_qr_scan"}, "is_reserved": 0}, {"lon": -77.03841383333334, "bike_id": "644d3e81cd0a13281942d8f694243c00", "lat": 38.915620833333335, "fusion_lon": 0.0, "fusion_lat": 0.0, "type": "electric_scooter", "name": "644d3e81cd0a13281942d8f694243c00", "is_disabled": 0, "rental_uris": {"ios": "https://dc.lft.to/lastmile_qr_scan", "android": "https://dc.lft.to/lastmile_qr_scan"}, "is_reserved": 0}, {"lon": -77.00738416666667, "bike_id": "cd632d4a656889c375d8a435a91a50ef", "lat": 38.89847916666667, "fusion_lon": 0.0, "fusion_lat": 0.0, "type": "electric_scooter", "name": "cd632d4a656889c375d8a435a91a50ef", "is_disabled": 0, "rental_uris": {"ios": "https://dc.lft.to/lastmile_qr_scan", "android": "https://dc.lft.to/lastmile_qr_scan"}, "is_reserved": 0}, {"lon": -77.03774083333333, "bike_id": "54fa521c1818ffa75a5209c06dadf794", "lat": 38.916862, "fusion_lon": 0.0, "fusion_lat": 0.0, "type": "electric_scooter", "name": "54fa521c1818ffa75a5209c06dadf794", "is_disabled": 0, "rental_uris": {"ios": "https://dc.lft.to/lastmile_qr_scan", "android": "https://dc.lft.to/lastmile_qr_scan"}, "is_reserved": 0}, {"lon": -76.94991733333333, "bike_id": "c4dd2c9205c32e3597aaa7b535c71583", "lat": 38.89383183333333, "fusion_lon": 0.0, "fusion_lat": 0.0, "type": "electric_scooter", "name": "c4dd2c9205c32e3597aaa7b535c71583", "is_disabled": 0, "rental_uris": {"ios": "https://dc.lft.to/lastmile_qr_scan", "android": "https://dc.lft.to/lastmile_qr_scan"}, "is_reserved": 0}, {"lon": -77.0225565, "bike_id": "ac727f8aa74ced1336919ff38871d2c4", "lat": 38.925258, "fusion_lon": 0.0, "fusion_lat": 0.0, "type": "electric_scooter", "name": "ac727f8aa74ced1336919ff38871d2c4", "is_disabled": 0, "rental_uris": {"ios": "https://dc.lft.to/lastmile_qr_scan", "android": "https://dc.lft.to/lastmile_qr_scan"}, "is_reserved": 0}, {"lon": -77.025464, "bike_id": "a390f49144fcbe4d8179e90395743c68", "lat": 38.92078133333333, "fusion_lon": 0.0, "fusion_lat": 0.0, "type": "electric_scooter", "name": "a390f49144fcbe4d8179e90395743c68", "is_disabled": 0, "rental_uris": {"ios": "https://dc.lft.to/lastmile_qr_scan", "android": "https://dc.lft.to/lastmile_qr_scan"}, "is_reserved": 0}, {"lon": -77.0078195, "bike_id": "ed89d0cd2b0b2c8c2b13f7a0c25f319c", "lat": 38.915304, "fusion_lon": 0.0, "fusion_lat": 0.0, "type": "electric_bike", "name": "ed89d0cd2b0b2c8c2b13f7a0c25f319c", "is_disabled": 0, "rental_uris": {"ios": "https://dc.lft.to/lastmile_qr_scan", "android": "https://dc.lft.to/lastmile_qr_scan"}, "is_reserved": 0}, {"lon": -77.01965233333334, "bike_id": "d2b501f95201d5e4bec000b597691a1c", "lat": 38.95230933333333, "fusion_lon": 0.0, "fusion_lat": 0.0, "type": "electric_scooter", "name": "d2b501f95201d5e4bec000b597691a1c", "is_disabled": 0, "rental_uris": {"ios": "https://dc.lft.to/lastmile_qr_scan", "android": "https://dc.lft.to/lastmile_qr_scan"}, "is_reserved": 0}, {"lon": -77.029175, "bike_id": "0b00b18f0480e89a916f481a65e5944e", "lat": 38.89805916666667, "fusion_lon": 0.0, "fusion_lat": 0.0, "type": "electric_scooter", "name": "0b00b18f0480e89a916f481a65e5944e", "is_disabled": 0, "rental_uris": {"ios": "https://dc.lft.to/lastmile_qr_scan", "android": "https://dc.lft.to/lastmile_qr_scan"}, "is_reserved": 0}, {"lon": -77.00744333333333, "bike_id": "1a0c91189a80bacabdf2fabb59607581", "lat": 38.876464, "fusion_lon": 0.0, "fusion_lat": 0.0, "type": "electric_scooter", "name": "1a0c91189a80bacabdf2fabb59607581", "is_disabled": 0, "rental_uris": {"ios": "https://dc.lft.to/lastmile_qr_scan", "android": "https://dc.lft.to/lastmile_qr_scan"}, "is_reserved": 0}, {"lon": -76.9913945, "bike_id": "fda17f429a6eb9553825904f1cde8e88", "lat": 38.882465833333335, "fusion_lon": 0.0, "fusion_lat": 0.0, "type": "electric_scooter", "name": "fda17f429a6eb9553825904f1cde8e88", "is_disabled": 0, "rental_uris": {"ios": "https://dc.lft.to/lastmile_qr_scan", "android": "https://dc.lft.to/lastmile_qr_scan"}, "is_reserved": 0}, {"lon": -77.053649, "bike_id": "2d979863d112e6a6f16b103b575582c7", "lat": 38.927346166666666, "fusion_lon": 0.0, "fusion_lat": 0.0, "type": "electric_scooter", "name": "2d979863d112e6a6f16b103b575582c7", "is_disabled": 0, "rental_uris": {"ios": "https://dc.lft.to/lastmile_qr_scan", "android": "https://dc.lft.to/lastmile_qr_scan"}, "is_reserved": 0}, {"lon": -77.046037, "bike_id": "a3b2a653724988cf8f4e1144979af7ae", "lat": 38.91609366666667, "fusion_lon": 0.0, "fusion_lat": 0.0, "type": "electric_scooter", "name": "a3b2a653724988cf8f4e1144979af7ae", "is_disabled": 0, "rental_uris": {"ios": "https://dc.lft.to/lastmile_qr_scan", "android": "https://dc.lft.to/lastmile_qr_scan"}, "is_reserved": 0}, {"lon": -77.03036216666666, "bike_id": "787f131f375aa125ab710b35a13d5573", "lat": 38.8982425, "fusion_lon": 0.0, "fusion_lat": 0.0, "type": "electric_scooter", "name": "787f131f375aa125ab710b35a13d5573", "is_disabled": 0, "rental_uris": {"ios": "https://dc.lft.to/lastmile_qr_scan", "android": "https://dc.lft.to/lastmile_qr_scan"}, "is_reserved": 0}, {"lon": -77.013673, "bike_id": "5ec34305e716f5a6171aff8974b80989", "lat": 38.88703983333333, "fusion_lon": 0.0, "fusion_lat": 0.0, "type": "electric_scooter", "name": "5ec34305e716f5a6171aff8974b80989", "is_disabled": 0, "rental_uris": {"ios": "https://dc.lft.to/lastmile_qr_scan", "android": "https://dc.lft.to/lastmile_qr_scan"}, "is_reserved": 0}, {"lon": -77.023975, "bike_id": "2ebca0b2d9a861e1d53033a3f1d189f0", "lat": 38.91991083333333, "fusion_lon": 0.0, "fusion_lat": 0.0, "type": "electric_scooter", "name": "2ebca0b2d9a861e1d53033a3f1d189f0", "is_disabled": 0, "rental_uris": {"ios": "https://dc.lft.to/lastmile_qr_scan", "android": "https://dc.lft.to/lastmile_qr_scan"}, "is_reserved": 0}, {"lon": -77.025782, "bike_id": "8ba12136bc11895e5992dd3a36d8c605", "lat": 38.92738333333333, "fusion_lon": 0.0, "fusion_lat": 0.0, "type": "electric_scooter", "name": "8ba12136bc11895e5992dd3a36d8c605", "is_disabled": 0, "rental_uris": {"ios": "https://dc.lft.to/lastmile_qr_scan", "android": "https://dc.lft.to/lastmile_qr_scan"}, "is_reserved": 0}, {"lon": -76.98823766666666, "bike_id": "dee5e26779e8c08847ee42313d30e22c", "lat": 38.890747, "fusion_lon": 0.0, "fusion_lat": 0.0, "type": "electric_scooter", "name": "dee5e26779e8c08847ee42313d30e22c", "is_disabled": 0, "rental_uris": {"ios": "https://dc.lft.to/lastmile_qr_scan", "android": "https://dc.lft.to/lastmile_qr_scan"}, "is_reserved": 0}, {"lon": -77.067242, "bike_id": "bdd4d678b3f999fba293015ff81c5232", "lat": 38.914928833333335, "fusion_lon": 0.0, "fusion_lat": 0.0, "type": "electric_scooter", "name": "bdd4d678b3f999fba293015ff81c5232", "is_disabled": 0, "rental_uris": {"ios": "https://dc.lft.to/lastmile_qr_scan", "android": "https://dc.lft.to/lastmile_qr_scan"}, "is_reserved": 0}, {"lon": -77.00333816666667, "bike_id": "03b6131c2a19e824393d70ad51699018", "lat": 38.89729283333333, "fusion_lon": 0.0, "fusion_lat": 0.0, "type": "electric_scooter", "name": "03b6131c2a19e824393d70ad51699018", "is_disabled": 0, "rental_uris": {"ios": "https://dc.lft.to/lastmile_qr_scan", "android": "https://dc.lft.to/lastmile_qr_scan"}, "is_reserved": 0}, {"lon": -77.03867116666666, "bike_id": "3184a108d995181aaf49d2a39eb72850", "lat": 38.91414916666667, "fusion_lon": 0.0, "fusion_lat": 0.0, "type": "electric_scooter", "name": "3184a108d995181aaf49d2a39eb72850", "is_disabled": 0, "rental_uris": {"ios": "https://dc.lft.to/lastmile_qr_scan", "android": "https://dc.lft.to/lastmile_qr_scan"}, "is_reserved": 0}, {"lon": -76.980822, "bike_id": "bef7423b35e417231f9263df68b9a2ef", "lat": 38.907032666666666, "fusion_lon": 0.0, "fusion_lat": 0.0, "type": "electric_scooter", "name": "bef7423b35e417231f9263df68b9a2ef", "is_disabled": 0, "rental_uris": {"ios": "https://dc.lft.to/lastmile_qr_scan", "android": "https://dc.lft.to/lastmile_qr_scan"}, "is_reserved": 0}, {"lon": -77.03282633333333, "bike_id": "06025bd5e26d1fcca6e9932bfaee8b3b", "lat": 38.941711166666664, "fusion_lon": 0.0, "fusion_lat": 0.0, "type": "electric_scooter", "name": "06025bd5e26d1fcca6e9932bfaee8b3b", "is_disabled": 0, "rental_uris": {"ios": "https://dc.lft.to/lastmile_qr_scan", "android": "https://dc.lft.to/lastmile_qr_scan"}, "is_reserved": 0}, {"lon": -77.033188, "bike_id": "cdcef0c61373e71637ae0df1d9a452fb", "lat": 38.9156585, "fusion_lon": 0.0, "fusion_lat": 0.0, "type": "electric_scooter", "name": "cdcef0c61373e71637ae0df1d9a452fb", "is_disabled": 0, "rental_uris": {"ios": "https://dc.lft.to/lastmile_qr_scan", "android": "https://dc.lft.to/lastmile_qr_scan"}, "is_reserved": 0}, {"lon": -77.0683255, "bike_id": "af5e5d9c5b9455cce95233807c07bc79", "lat": 38.80566066666667, "fusion_lon": 0.0, "fusion_lat": 0.0, "type": "electric_bike", "name": "af5e5d9c5b9455cce95233807c07bc79", "is_disabled": 0, "rental_uris": {"ios": "https://dc.lft.to/lastmile_qr_scan", "android": "https://dc.lft.to/lastmile_qr_scan"}, "is_reserved": 0}, {"lon": -77.01772466666667, "bike_id": "69efe575092cbaf09691cfefc897df4c", "lat": 38.900763833333336, "fusion_lon": 0.0, "fusion_lat": 0.0, "type": "electric_scooter", "name": "69efe575092cbaf09691cfefc897df4c", "is_disabled": 0, "rental_uris": {"ios": "https://dc.lft.to/lastmile_qr_scan", "android": "https://dc.lft.to/lastmile_qr_scan"}, "is_reserved": 0}, {"lon": -77.04355783333334, "bike_id": "1d6ffcbd9931cf23e29335607be0ab9c", "lat": 38.907962166666664, "fusion_lon": 0.0, "fusion_lat": 0.0, "type": "electric_scooter", "name": "1d6ffcbd9931cf23e29335607be0ab9c", "is_disabled": 0, "rental_uris": {"ios": "https://dc.lft.to/lastmile_qr_scan", "android": "https://dc.lft.to/lastmile_qr_scan"}, "is_reserved": 0}, {"lon": -77.032591, "bike_id": "4c1067d9e158f9e18ee0fcf470e7e4f9", "lat": 38.93727666666667, "fusion_lon": 0.0, "fusion_lat": 0.0, "type": "electric_scooter", "name": "4c1067d9e158f9e18ee0fcf470e7e4f9", "is_disabled": 0, "rental_uris": {"ios": "https://dc.lft.to/lastmile_qr_scan", "android": "https://dc.lft.to/lastmile_qr_scan"}, "is_reserved": 0}, {"lon": -76.98763483333333, "bike_id": "d404ac8147b0f83c2d1c98c2d58e202f", "lat": 38.8576815, "fusion_lon": 0.0, "fusion_lat": 0.0, "type": "electric_bike", "name": "d404ac8147b0f83c2d1c98c2d58e202f", "is_disabled": 0, "rental_uris": {"ios": "https://dc.lft.to/lastmile_qr_scan", "android": "https://dc.lft.to/lastmile_qr_scan"}, "is_reserved": 0}, {"lon": -77.0277045, "bike_id": "4ed86b58c15edb190326fbcef5e6e19f", "lat": 38.95428116666667, "fusion_lon": 0.0, "fusion_lat": 0.0, "type": "electric_scooter", "name": "4ed86b58c15edb190326fbcef5e6e19f", "is_disabled": 0, "rental_uris": {"ios": "https://dc.lft.to/lastmile_qr_scan", "android": "https://dc.lft.to/lastmile_qr_scan"}, "is_reserved": 0}, {"lon": -77.03185633333334, "bike_id": "6690417713c11cafc3e8025680c46d26", "lat": 38.913309, "fusion_lon": 0.0, "fusion_lat": 0.0, "type": "electric_scooter", "name": "6690417713c11cafc3e8025680c46d26", "is_disabled": 0, "rental_uris": {"ios": "https://dc.lft.to/lastmile_qr_scan", "android": "https://dc.lft.to/lastmile_qr_scan"}, "is_reserved": 0}, {"lon": -77.01631566666667, "bike_id": "cf48a736516deecfad4905bebf9a19da", "lat": 38.92894, "fusion_lon": 0.0, "fusion_lat": 0.0, "type": "electric_scooter", "name": "cf48a736516deecfad4905bebf9a19da", "is_disabled": 0, "rental_uris": {"ios": "https://dc.lft.to/lastmile_qr_scan", "android": "https://dc.lft.to/lastmile_qr_scan"}, "is_reserved": 0}, {"lon": -77.04900233333333, "bike_id": "fc06cb9b63e73f90ae2fa784c6154ee7", "lat": 38.9034945, "fusion_lon": 0.0, "fusion_lat": 0.0, "type": "electric_scooter", "name": "fc06cb9b63e73f90ae2fa784c6154ee7", "is_disabled": 0, "rental_uris": {"ios": "https://dc.lft.to/lastmile_qr_scan", "android": "https://dc.lft.to/lastmile_qr_scan"}, "is_reserved": 0}, {"lon": -76.9954885, "bike_id": "9bc7bf3064da6f5592a971c71a43579b", "lat": 38.8625445, "fusion_lon": 0.0, "fusion_lat": 0.0, "type": "electric_scooter", "name": "9bc7bf3064da6f5592a971c71a43579b", "is_disabled": 0, "rental_uris": {"ios": "https://dc.lft.to/lastmile_qr_scan", "android": "https://dc.lft.to/lastmile_qr_scan"}, "is_reserved": 0}, {"lon": -76.9954415, "bike_id": "59ab9a78e2d82d14384255a39e32c3e5", "lat": 38.926690666666666, "fusion_lon": 0.0, "fusion_lat": 0.0, "type": "electric_scooter", "name": "59ab9a78e2d82d14384255a39e32c3e5", "is_disabled": 0, "rental_uris": {"ios": "https://dc.lft.to/lastmile_qr_scan", "android": "https://dc.lft.to/lastmile_qr_scan"}, "is_reserved": 0}, {"lon": -77.02621083333334, "bike_id": "e98fd9e2f3a79fa62ea1b871e8d90be2", "lat": 38.896220166666666, "fusion_lon": 0.0, "fusion_lat": 0.0, "type": "electric_scooter", "name": "e98fd9e2f3a79fa62ea1b871e8d90be2", "is_disabled": 0, "rental_uris": {"ios": "https://dc.lft.to/lastmile_qr_scan", "android": "https://dc.lft.to/lastmile_qr_scan"}, "is_reserved": 0}, {"lon": -77.0385345, "bike_id": "cc5ec740ede5deb55267bd09120b828f", "lat": 38.931301833333336, "fusion_lon": 0.0, "fusion_lat": 0.0, "type": "electric_scooter", "name": "cc5ec740ede5deb55267bd09120b828f", "is_disabled": 0, "rental_uris": {"ios": "https://dc.lft.to/lastmile_qr_scan", "android": "https://dc.lft.to/lastmile_qr_scan"}, "is_reserved": 0}, {"lon": -76.93733883333333, "bike_id": "190e44db574c24e0267e4e28abe71876", "lat": 38.8900345, "fusion_lon": 0.0, "fusion_lat": 0.0, "type": "electric_scooter", "name": "190e44db574c24e0267e4e28abe71876", "is_disabled": 0, "rental_uris": {"ios": "https://dc.lft.to/lastmile_qr_scan", "android": "https://dc.lft.to/lastmile_qr_scan"}, "is_reserved": 0}, {"lon": -77.029952, "bike_id": "8581ea747034715d876a5ae1fb0e487d", "lat": 38.92468066666667, "fusion_lon": 0.0, "fusion_lat": 0.0, "type": "electric_scooter", "name": "8581ea747034715d876a5ae1fb0e487d", "is_disabled": 0, "rental_uris": {"ios": "https://dc.lft.to/lastmile_qr_scan", "android": "https://dc.lft.to/lastmile_qr_scan"}, "is_reserved": 0}, {"lon": -76.93129716666667, "bike_id": "3a40fae13e77161af99a445f90ba046a", "lat": 38.876104833333336, "fusion_lon": 0.0, "fusion_lat": 0.0, "type": "electric_scooter", "name": "3a40fae13e77161af99a445f90ba046a", "is_disabled": 0, "rental_uris": {"ios": "https://dc.lft.to/lastmile_qr_scan", "android": "https://dc.lft.to/lastmile_qr_scan"}, "is_reserved": 0}, {"lon": -77.03161416666667, "bike_id": "d883f0aebc1dea3b198b3fe0b7f3ee0f", "lat": 38.892196, "fusion_lon": 0.0, "fusion_lat": 0.0, "type": "electric_scooter", "name": "d883f0aebc1dea3b198b3fe0b7f3ee0f", "is_disabled": 0, "rental_uris": {"ios": "https://dc.lft.to/lastmile_qr_scan", "android": "https://dc.lft.to/lastmile_qr_scan"}, "is_reserved": 0}, {"lon": -77.05804516666667, "bike_id": "82481921fad3be70a81c958cfefc59b4", "lat": 38.9345135, "fusion_lon": 0.0, "fusion_lat": 0.0, "type": "electric_scooter", "name": "82481921fad3be70a81c958cfefc59b4", "is_disabled": 0, "rental_uris": {"ios": "https://dc.lft.to/lastmile_qr_scan", "android": "https://dc.lft.to/lastmile_qr_scan"}, "is_reserved": 0}, {"lon": -77.02403366666667, "bike_id": "8e5e5a05e2dafe25e41b97c6cd41c146", "lat": 38.937092666666665, "fusion_lon": 0.0, "fusion_lat": 0.0, "type": "electric_scooter", "name": "8e5e5a05e2dafe25e41b97c6cd41c146", "is_disabled": 0, "rental_uris": {"ios": "https://dc.lft.to/lastmile_qr_scan", "android": "https://dc.lft.to/lastmile_qr_scan"}, "is_reserved": 0}, {"lon": -77.02182716666667, "bike_id": "5294b02b7bcb87ab20c16e64d0deefbd", "lat": 38.901975166666666, "fusion_lon": 0.0, "fusion_lat": 0.0, "type": "electric_scooter", "name": "5294b02b7bcb87ab20c16e64d0deefbd", "is_disabled": 0, "rental_uris": {"ios": "https://dc.lft.to/lastmile_qr_scan", "android": "https://dc.lft.to/lastmile_qr_scan"}, "is_reserved": 0}, {"lon": -77.0019265, "bike_id": "480e67018755496a9719bbabbe914c7e", "lat": 38.90041033333333, "fusion_lon": 0.0, "fusion_lat": 0.0, "type": "electric_scooter", "name": "480e67018755496a9719bbabbe914c7e", "is_disabled": 0, "rental_uris": {"ios": "https://dc.lft.to/lastmile_qr_scan", "android": "https://dc.lft.to/lastmile_qr_scan"}, "is_reserved": 0}, {"lon": -77.00355933333333, "bike_id": "b2570956f78905b8fe6a63d8eb9f00e0", "lat": 38.899272333333336, "fusion_lon": 0.0, "fusion_lat": 0.0, "type": "electric_scooter", "name": "b2570956f78905b8fe6a63d8eb9f00e0", "is_disabled": 0, "rental_uris": {"ios": "https://dc.lft.to/lastmile_qr_scan", "android": "https://dc.lft.to/lastmile_qr_scan"}, "is_reserved": 0}, {"lon": -77.032966, "bike_id": "3218c6f259167aaec53a3f693f091beb", "lat": 38.91119333333333, "fusion_lon": 0.0, "fusion_lat": 0.0, "type": "electric_scooter", "name": "3218c6f259167aaec53a3f693f091beb", "is_disabled": 0, "rental_uris": {"ios": "https://dc.lft.to/lastmile_qr_scan", "android": "https://dc.lft.to/lastmile_qr_scan"}, "is_reserved": 0}, {"lon": -76.98139083333334, "bike_id": "744f00cb87d20daa1a359d47690540ab", "lat": 38.9056005, "fusion_lon": 0.0, "fusion_lat": 0.0, "type": "electric_scooter", "name": "744f00cb87d20daa1a359d47690540ab", "is_disabled": 0, "rental_uris": {"ios": "https://dc.lft.to/lastmile_qr_scan", "android": "https://dc.lft.to/lastmile_qr_scan"}, "is_reserved": 0}, {"lon": -77.03237933333334, "bike_id": "7d164c773f52c562d76f907c15616cd1", "lat": 38.90726016666667, "fusion_lon": 0.0, "fusion_lat": 0.0, "type": "electric_scooter", "name": "7d164c773f52c562d76f907c15616cd1", "is_disabled": 0, "rental_uris": {"ios": "https://dc.lft.to/lastmile_qr_scan", "android": "https://dc.lft.to/lastmile_qr_scan"}, "is_reserved": 0}, {"lon": -77.03678483333333, "bike_id": "d598a18a0f0d445bc785babcc567af6f", "lat": 38.93925633333333, "fusion_lon": 0.0, "fusion_lat": 0.0, "type": "electric_scooter", "name": "d598a18a0f0d445bc785babcc567af6f", "is_disabled": 0, "rental_uris": {"ios": "https://dc.lft.to/lastmile_qr_scan", "android": "https://dc.lft.to/lastmile_qr_scan"}, "is_reserved": 0}, {"lon": -77.05826216666667, "bike_id": "2db3715e0ef6bfec5b645eac2bf4abe2", "lat": 38.93534266666666, "fusion_lon": 0.0, "fusion_lat": 0.0, "type": "electric_scooter", "name": "2db3715e0ef6bfec5b645eac2bf4abe2", "is_disabled": 0, "rental_uris": {"ios": "https://dc.lft.to/lastmile_qr_scan", "android": "https://dc.lft.to/lastmile_qr_scan"}, "is_reserved": 0}, {"lon": -76.997794, "bike_id": "6d037a342089e3ccf1bd777669357400", "lat": 38.84430416666667, "fusion_lon": 0.0, "fusion_lat": 0.0, "type": "electric_scooter", "name": "6d037a342089e3ccf1bd777669357400", "is_disabled": 0, "rental_uris": {"ios": "https://dc.lft.to/lastmile_qr_scan", "android": "https://dc.lft.to/lastmile_qr_scan"}, "is_reserved": 0}, {"lon": -77.0255195, "bike_id": "d8f4a86e28937f85f3510eccd1d711d4", "lat": 38.91406933333333, "fusion_lon": 0.0, "fusion_lat": 0.0, "type": "electric_scooter", "name": "d8f4a86e28937f85f3510eccd1d711d4", "is_disabled": 0, "rental_uris": {"ios": "https://dc.lft.to/lastmile_qr_scan", "android": "https://dc.lft.to/lastmile_qr_scan"}, "is_reserved": 0}, {"lon": -76.98517783333334, "bike_id": "09317dfbf7ce05de1ed0f4786b654c0d", "lat": 38.87949416666667, "fusion_lon": 0.0, "fusion_lat": 0.0, "type": "electric_bike", "name": "09317dfbf7ce05de1ed0f4786b654c0d", "is_disabled": 0, "rental_uris": {"ios": "https://dc.lft.to/lastmile_qr_scan", "android": "https://dc.lft.to/lastmile_qr_scan"}, "is_reserved": 0}, {"lon": -77.04455183333333, "bike_id": "24b9d61e234be4cd0f4ff42c04bb04ec", "lat": 38.908297166666664, "fusion_lon": 0.0, "fusion_lat": 0.0, "type": "electric_scooter", "name": "24b9d61e234be4cd0f4ff42c04bb04ec", "is_disabled": 0, "rental_uris": {"ios": "https://dc.lft.to/lastmile_qr_scan", "android": "https://dc.lft.to/lastmile_qr_scan"}, "is_reserved": 0}, {"lon": -77.02524916666667, "bike_id": "ccf89651050ba500b6f79499eae3a7dd", "lat": 38.93284033333333, "fusion_lon": 0.0, "fusion_lat": 0.0, "type": "electric_scooter", "name": "ccf89651050ba500b6f79499eae3a7dd", "is_disabled": 0, "rental_uris": {"ios": "https://dc.lft.to/lastmile_qr_scan", "android": "https://dc.lft.to/lastmile_qr_scan"}, "is_reserved": 0}, {"lon": -77.04032916666667, "bike_id": "1d40767748b78d6d38330a005235eafb", "lat": 38.918817, "fusion_lon": 0.0, "fusion_lat": 0.0, "type": "electric_scooter", "name": "1d40767748b78d6d38330a005235eafb", "is_disabled": 0, "rental_uris": {"ios": "https://dc.lft.to/lastmile_qr_scan", "android": "https://dc.lft.to/lastmile_qr_scan"}, "is_reserved": 0}, {"lon": -76.991946, "bike_id": "ba583bd7ef99d473ba01cd034875d0b5", "lat": 38.882643333333334, "fusion_lon": 0.0, "fusion_lat": 0.0, "type": "electric_scooter", "name": "ba583bd7ef99d473ba01cd034875d0b5", "is_disabled": 0, "rental_uris": {"ios": "https://dc.lft.to/lastmile_qr_scan", "android": "https://dc.lft.to/lastmile_qr_scan"}, "is_reserved": 0}, {"lon": -77.03217883333333, "bike_id": "af6bbd419d6c9f4f2df0b0f16e1d878c", "lat": 38.91401716666667, "fusion_lon": 0.0, "fusion_lat": 0.0, "type": "electric_scooter", "name": "af6bbd419d6c9f4f2df0b0f16e1d878c", "is_disabled": 0, "rental_uris": {"ios": "https://dc.lft.to/lastmile_qr_scan", "android": "https://dc.lft.to/lastmile_qr_scan"}, "is_reserved": 0}, {"lon": -77.03820533333334, "bike_id": "852931276377f52ba88f85c06ac8ae05", "lat": 38.9056205, "fusion_lon": 0.0, "fusion_lat": 0.0, "type": "electric_scooter", "name": "852931276377f52ba88f85c06ac8ae05", "is_disabled": 0, "rental_uris": {"ios": "https://dc.lft.to/lastmile_qr_scan", "android": "https://dc.lft.to/lastmile_qr_scan"}, "is_reserved": 0}, {"lon": -77.029503, "bike_id": "f3d8042810fad4fc7ccf0b99b709cba8", "lat": 38.907130333333335, "fusion_lon": 0.0, "fusion_lat": 0.0, "type": "electric_scooter", "name": "f3d8042810fad4fc7ccf0b99b709cba8", "is_disabled": 0, "rental_uris": {"ios": "https://dc.lft.to/lastmile_qr_scan", "android": "https://dc.lft.to/lastmile_qr_scan"}, "is_reserved": 0}, {"lon": -77.02300133333334, "bike_id": "7e1117fac66d35607a9ae7b19afba118", "lat": 38.89870633333334, "fusion_lon": 0.0, "fusion_lat": 0.0, "type": "electric_scooter", "name": "7e1117fac66d35607a9ae7b19afba118", "is_disabled": 0, "rental_uris": {"ios": "https://dc.lft.to/lastmile_qr_scan", "android": "https://dc.lft.to/lastmile_qr_scan"}, "is_reserved": 0}, {"lon": -76.9827085, "bike_id": "22307d817de53ff540d180dbebd387c9", "lat": 38.88529333333334, "fusion_lon": 0.0, "fusion_lat": 0.0, "type": "electric_scooter", "name": "22307d817de53ff540d180dbebd387c9", "is_disabled": 0, "rental_uris": {"ios": "https://dc.lft.to/lastmile_qr_scan", "android": "https://dc.lft.to/lastmile_qr_scan"}, "is_reserved": 0}, {"lon": -77.01506233333333, "bike_id": "da385ef3d4809acad7bdb4fcfc811e49", "lat": 38.918576333333334, "fusion_lon": 0.0, "fusion_lat": 0.0, "type": "electric_scooter", "name": "da385ef3d4809acad7bdb4fcfc811e49", "is_disabled": 0, "rental_uris": {"ios": "https://dc.lft.to/lastmile_qr_scan", "android": "https://dc.lft.to/lastmile_qr_scan"}, "is_reserved": 0}, {"lon": -77.073172, "bike_id": "bf13dded3e4043d8bb4325514f1d30c2", "lat": 38.8961775, "fusion_lon": 0.0, "fusion_lat": 0.0, "type": "electric_bike", "name": "bf13dded3e4043d8bb4325514f1d30c2", "is_disabled": 0, "rental_uris": {"ios": "https://dc.lft.to/lastmile_qr_scan", "android": "https://dc.lft.to/lastmile_qr_scan"}, "is_reserved": 0}, {"lon": -77.026555, "bike_id": "7c9666d223c260aa8d8e3e8701ead949", "lat": 38.910571166666664, "fusion_lon": 0.0, "fusion_lat": 0.0, "type": "electric_scooter", "name": "7c9666d223c260aa8d8e3e8701ead949", "is_disabled": 0, "rental_uris": {"ios": "https://dc.lft.to/lastmile_qr_scan", "android": "https://dc.lft.to/lastmile_qr_scan"}, "is_reserved": 0}, {"lon": -77.0261175, "bike_id": "527a7f64789ac5847dc74d3c8fad5521", "lat": 38.91687783333333, "fusion_lon": 0.0, "fusion_lat": 0.0, "type": "electric_scooter", "name": "527a7f64789ac5847dc74d3c8fad5521", "is_disabled": 0, "rental_uris": {"ios": "https://dc.lft.to/lastmile_qr_scan", "android": "https://dc.lft.to/lastmile_qr_scan"}, "is_reserved": 0}, {"lon": -77.02363966666667, "bike_id": "0012df7b0a4312477989a4615b9d43f5", "lat": 38.892207666666664, "fusion_lon": 0.0, "fusion_lat": 0.0, "type": "electric_scooter", "name": "0012df7b0a4312477989a4615b9d43f5", "is_disabled": 0, "rental_uris": {"ios": "https://dc.lft.to/lastmile_qr_scan", "android": "https://dc.lft.to/lastmile_qr_scan"}, "is_reserved": 0}, {"lon": -77.0322515, "bike_id": "d35864b05e01c9c235418f6ac2846227", "lat": 38.92653466666667, "fusion_lon": 0.0, "fusion_lat": 0.0, "type": "electric_scooter", "name": "d35864b05e01c9c235418f6ac2846227", "is_disabled": 0, "rental_uris": {"ios": "https://dc.lft.to/lastmile_qr_scan", "android": "https://dc.lft.to/lastmile_qr_scan"}, "is_reserved": 0}, {"lon": -77.03161083333333, "bike_id": "d39974f38f9cb912d4c48ef1eb169a65", "lat": 38.892197333333336, "fusion_lon": 0.0, "fusion_lat": 0.0, "type": "electric_scooter", "name": "d39974f38f9cb912d4c48ef1eb169a65", "is_disabled": 0, "rental_uris": {"ios": "https://dc.lft.to/lastmile_qr_scan", "android": "https://dc.lft.to/lastmile_qr_scan"}, "is_reserved": 0}, {"lon": -76.9819645, "bike_id": "baf86003a541078556650c7a99bfff5d", "lat": 38.8994235, "fusion_lon": 0.0, "fusion_lat": 0.0, "type": "electric_scooter", "name": "baf86003a541078556650c7a99bfff5d", "is_disabled": 0, "rental_uris": {"ios": "https://dc.lft.to/lastmile_qr_scan", "android": "https://dc.lft.to/lastmile_qr_scan"}, "is_reserved": 0}, {"lon": -76.9518465, "bike_id": "04f7ed1ebbadca43e00cee7e322f2ebd", "lat": 38.90739166666667, "fusion_lon": 0.0, "fusion_lat": 0.0, "type": "electric_scooter", "name": "04f7ed1ebbadca43e00cee7e322f2ebd", "is_disabled": 0, "rental_uris": {"ios": "https://dc.lft.to/lastmile_qr_scan", "android": "https://dc.lft.to/lastmile_qr_scan"}, "is_reserved": 0}, {"lon": -76.98715533333333, "bike_id": "03184fb9bc1aebfbb4baaa6ea0102cf3", "lat": 38.86626016666666, "fusion_lon": 0.0, "fusion_lat": 0.0, "type": "electric_scooter", "name": "03184fb9bc1aebfbb4baaa6ea0102cf3", "is_disabled": 0, "rental_uris": {"ios": "https://dc.lft.to/lastmile_qr_scan", "android": "https://dc.lft.to/lastmile_qr_scan"}, "is_reserved": 0}, {"lon": -76.979955, "bike_id": "80befcbe39bd253b28f69e647388fc8e", "lat": 38.906738, "fusion_lon": 0.0, "fusion_lat": 0.0, "type": "electric_scooter", "name": "80befcbe39bd253b28f69e647388fc8e", "is_disabled": 0, "rental_uris": {"ios": "https://dc.lft.to/lastmile_qr_scan", "android": "https://dc.lft.to/lastmile_qr_scan"}, "is_reserved": 0}, {"lon": -77.0367245, "bike_id": "c7c8429a168a0d4ea20d98404e25c8e1", "lat": 38.90960183333333, "fusion_lon": 0.0, "fusion_lat": 0.0, "type": "electric_scooter", "name": "c7c8429a168a0d4ea20d98404e25c8e1", "is_disabled": 0, "rental_uris": {"ios": "https://dc.lft.to/lastmile_qr_scan", "android": "https://dc.lft.to/lastmile_qr_scan"}, "is_reserved": 0}, {"lon": -77.02839383333334, "bike_id": "a7aa67dea84010d9ed2f1fba1b821bbe", "lat": 38.89220133333333, "fusion_lon": 0.0, "fusion_lat": 0.0, "type": "electric_scooter", "name": "a7aa67dea84010d9ed2f1fba1b821bbe", "is_disabled": 0, "rental_uris": {"ios": "https://dc.lft.to/lastmile_qr_scan", "android": "https://dc.lft.to/lastmile_qr_scan"}, "is_reserved": 0}, {"lon": -76.98936783333333, "bike_id": "4ae38a45484173761ef2d3a143842fc1", "lat": 38.85688566666666, "fusion_lon": 0.0, "fusion_lat": 0.0, "type": "electric_scooter", "name": "4ae38a45484173761ef2d3a143842fc1", "is_disabled": 0, "rental_uris": {"ios": "https://dc.lft.to/lastmile_qr_scan", "android": "https://dc.lft.to/lastmile_qr_scan"}, "is_reserved": 0}, {"lon": -77.00916983333333, "bike_id": "c8f43f305482b97f53027f3fa0426edf", "lat": 38.896459166666666, "fusion_lon": 0.0, "fusion_lat": 0.0, "type": "electric_scooter", "name": "c8f43f305482b97f53027f3fa0426edf", "is_disabled": 0, "rental_uris": {"ios": "https://dc.lft.to/lastmile_qr_scan", "android": "https://dc.lft.to/lastmile_qr_scan"}, "is_reserved": 0}, {"lon": -77.04922683333334, "bike_id": "61a65ab40db60127a6e099dc41fddf1f", "lat": 38.9036865, "fusion_lon": 0.0, "fusion_lat": 0.0, "type": "electric_scooter", "name": "61a65ab40db60127a6e099dc41fddf1f", "is_disabled": 0, "rental_uris": {"ios": "https://dc.lft.to/lastmile_qr_scan", "android": "https://dc.lft.to/lastmile_qr_scan"}, "is_reserved": 0}, {"lon": -76.98259033333333, "bike_id": "6fb13a8869bf8af270e87b7e0e8fc0ca", "lat": 38.908529333333334, "fusion_lon": 0.0, "fusion_lat": 0.0, "type": "electric_scooter", "name": "6fb13a8869bf8af270e87b7e0e8fc0ca", "is_disabled": 0, "rental_uris": {"ios": "https://dc.lft.to/lastmile_qr_scan", "android": "https://dc.lft.to/lastmile_qr_scan"}, "is_reserved": 0}, {"lon": -76.93178, "bike_id": "0c2c9b5ca6a26a55e678d6f32f23b7b6", "lat": 38.89881483333333, "fusion_lon": 0.0, "fusion_lat": 0.0, "type": "electric_scooter", "name": "0c2c9b5ca6a26a55e678d6f32f23b7b6", "is_disabled": 0, "rental_uris": {"ios": "https://dc.lft.to/lastmile_qr_scan", "android": "https://dc.lft.to/lastmile_qr_scan"}, "is_reserved": 0}, {"lon": -77.043697, "bike_id": "41bfa98fcfdfbddc1a4486d97baa5fda", "lat": 38.90277966666667, "fusion_lon": 0.0, "fusion_lat": 0.0, "type": "electric_scooter", "name": "41bfa98fcfdfbddc1a4486d97baa5fda", "is_disabled": 0, "rental_uris": {"ios": "https://dc.lft.to/lastmile_qr_scan", "android": "https://dc.lft.to/lastmile_qr_scan"}, "is_reserved": 0}, {"lon": -77.00837416666667, "bike_id": "dd7339d98414b4c64deae9f6d95d3753", "lat": 38.87797116666667, "fusion_lon": 0.0, "fusion_lat": 0.0, "type": "electric_bike", "name": "dd7339d98414b4c64deae9f6d95d3753", "is_disabled": 0, "rental_uris": {"ios": "https://dc.lft.to/lastmile_qr_scan", "android": "https://dc.lft.to/lastmile_qr_scan"}, "is_reserved": 0}, {"lon": -77.03288883333333, "bike_id": "c09e5153ebc634867f66058a5d181a5e", "lat": 38.956522666666665, "fusion_lon": 0.0, "fusion_lat": 0.0, "type": "electric_scooter", "name": "c09e5153ebc634867f66058a5d181a5e", "is_disabled": 0, "rental_uris": {"ios": "https://dc.lft.to/lastmile_qr_scan", "android": "https://dc.lft.to/lastmile_qr_scan"}, "is_reserved": 0}, {"lon": -77.0381665, "bike_id": "882b8bc93e8d0f8f6512cb32653c2093", "lat": 38.920626666666664, "fusion_lon": 0.0, "fusion_lat": 0.0, "type": "electric_scooter", "name": "882b8bc93e8d0f8f6512cb32653c2093", "is_disabled": 0, "rental_uris": {"ios": "https://dc.lft.to/lastmile_qr_scan", "android": "https://dc.lft.to/lastmile_qr_scan"}, "is_reserved": 0}, {"lon": -77.02350566666667, "bike_id": "b33a91e5a5e3d0beb838636ff6e6506f", "lat": 38.93534316666667, "fusion_lon": 0.0, "fusion_lat": 0.0, "type": "electric_scooter", "name": "b33a91e5a5e3d0beb838636ff6e6506f", "is_disabled": 0, "rental_uris": {"ios": "https://dc.lft.to/lastmile_qr_scan", "android": "https://dc.lft.to/lastmile_qr_scan"}, "is_reserved": 0}, {"lon": -76.93641533333333, "bike_id": "1c27d7d091585c2de70dc49364343642", "lat": 38.900586833333335, "fusion_lon": 0.0, "fusion_lat": 0.0, "type": "electric_scooter", "name": "1c27d7d091585c2de70dc49364343642", "is_disabled": 0, "rental_uris": {"ios": "https://dc.lft.to/lastmile_qr_scan", "android": "https://dc.lft.to/lastmile_qr_scan"}, "is_reserved": 0}, {"lon": -77.01324216666667, "bike_id": "99770f9eed957631e320b9ceb8fba92e", "lat": 38.90070633333333, "fusion_lon": 0.0, "fusion_lat": 0.0, "type": "electric_scooter", "name": "99770f9eed957631e320b9ceb8fba92e", "is_disabled": 0, "rental_uris": {"ios": "https://dc.lft.to/lastmile_qr_scan", "android": "https://dc.lft.to/lastmile_qr_scan"}, "is_reserved": 0}, {"lon": -76.930101, "bike_id": "3fc1377f57465dbe7a79145bc39efc02", "lat": 38.89648916666667, "fusion_lon": 0.0, "fusion_lat": 0.0, "type": "electric_bike", "name": "3fc1377f57465dbe7a79145bc39efc02", "is_disabled": 0, "rental_uris": {"ios": "https://dc.lft.to/lastmile_qr_scan", "android": "https://dc.lft.to/lastmile_qr_scan"}, "is_reserved": 0}, {"lon": -77.01731183333334, "bike_id": "cb8a70c115291dfcd9a13690574b7b36", "lat": 38.9430895, "fusion_lon": 0.0, "fusion_lat": 0.0, "type": "electric_scooter", "name": "cb8a70c115291dfcd9a13690574b7b36", "is_disabled": 0, "rental_uris": {"ios": "https://dc.lft.to/lastmile_qr_scan", "android": "https://dc.lft.to/lastmile_qr_scan"}, "is_reserved": 0}, {"lon": -77.03182933333333, "bike_id": "6ea8ab0162104043fd355ce582912444", "lat": 38.913310333333335, "fusion_lon": 0.0, "fusion_lat": 0.0, "type": "electric_scooter", "name": "6ea8ab0162104043fd355ce582912444", "is_disabled": 0, "rental_uris": {"ios": "https://dc.lft.to/lastmile_qr_scan", "android": "https://dc.lft.to/lastmile_qr_scan"}, "is_reserved": 0}, {"lon": -77.0432065, "bike_id": "c13125f217de8275e5f5985f48e366fb", "lat": 38.90559833333333, "fusion_lon": 0.0, "fusion_lat": 0.0, "type": "electric_scooter", "name": "c13125f217de8275e5f5985f48e366fb", "is_disabled": 0, "rental_uris": {"ios": "https://dc.lft.to/lastmile_qr_scan", "android": "https://dc.lft.to/lastmile_qr_scan"}, "is_reserved": 0}, {"lon": -77.02281066666667, "bike_id": "fca2ef06fd712062ebb0e27fb9293603", "lat": 38.909553, "fusion_lon": 0.0, "fusion_lat": 0.0, "type": "electric_scooter", "name": "fca2ef06fd712062ebb0e27fb9293603", "is_disabled": 0, "rental_uris": {"ios": "https://dc.lft.to/lastmile_qr_scan", "android": "https://dc.lft.to/lastmile_qr_scan"}, "is_reserved": 0}, {"lon": -77.02164816666667, "bike_id": "70dbde2b0536b52a674db088f1455009", "lat": 38.8921795, "fusion_lon": 0.0, "fusion_lat": 0.0, "type": "electric_scooter", "name": "70dbde2b0536b52a674db088f1455009", "is_disabled": 0, "rental_uris": {"ios": "https://dc.lft.to/lastmile_qr_scan", "android": "https://dc.lft.to/lastmile_qr_scan"}, "is_reserved": 0}, {"lon": -77.02387133333333, "bike_id": "e57d98fb0fcb1dc55ceda9a1548fe00f", "lat": 38.907360833333335, "fusion_lon": 0.0, "fusion_lat": 0.0, "type": "electric_scooter", "name": "e57d98fb0fcb1dc55ceda9a1548fe00f", "is_disabled": 0, "rental_uris": {"ios": "https://dc.lft.to/lastmile_qr_scan", "android": "https://dc.lft.to/lastmile_qr_scan"}, "is_reserved": 0}, {"lon": -77.04097983333334, "bike_id": "d89b9fbefcedc858e612cef20f77e4d9", "lat": 38.92366166666667, "fusion_lon": 0.0, "fusion_lat": 0.0, "type": "electric_scooter", "name": "d89b9fbefcedc858e612cef20f77e4d9", "is_disabled": 0, "rental_uris": {"ios": "https://dc.lft.to/lastmile_qr_scan", "android": "https://dc.lft.to/lastmile_qr_scan"}, "is_reserved": 0}, {"lon": -76.9336415, "bike_id": "101797aaffc7b5500d2a6794510044fa", "lat": 38.899136166666665, "fusion_lon": 0.0, "fusion_lat": 0.0, "type": "electric_scooter", "name": "101797aaffc7b5500d2a6794510044fa", "is_disabled": 0, "rental_uris": {"ios": "https://dc.lft.to/lastmile_qr_scan", "android": "https://dc.lft.to/lastmile_qr_scan"}, "is_reserved": 0}, {"lon": -76.98180516666666, "bike_id": "e9d349966cdff54e6f3c40f905e0b37f", "lat": 38.895776, "fusion_lon": 0.0, "fusion_lat": 0.0, "type": "electric_scooter", "name": "e9d349966cdff54e6f3c40f905e0b37f", "is_disabled": 0, "rental_uris": {"ios": "https://dc.lft.to/lastmile_qr_scan", "android": "https://dc.lft.to/lastmile_qr_scan"}, "is_reserved": 0}, {"lon": -77.022934, "bike_id": "722419129cb2f75fe2bce45cd58500d1", "lat": 38.909740166666666, "fusion_lon": 0.0, "fusion_lat": 0.0, "type": "electric_scooter", "name": "722419129cb2f75fe2bce45cd58500d1", "is_disabled": 0, "rental_uris": {"ios": "https://dc.lft.to/lastmile_qr_scan", "android": "https://dc.lft.to/lastmile_qr_scan"}, "is_reserved": 0}, {"lon": -77.04340733333333, "bike_id": "3b929fe414a9161b05d249dc5f44d508", "lat": 38.929663166666664, "fusion_lon": 0.0, "fusion_lat": 0.0, "type": "electric_scooter", "name": "3b929fe414a9161b05d249dc5f44d508", "is_disabled": 0, "rental_uris": {"ios": "https://dc.lft.to/lastmile_qr_scan", "android": "https://dc.lft.to/lastmile_qr_scan"}, "is_reserved": 0}, {"lon": -77.0268335, "bike_id": "1db303c2a4d86c80198f13968cacfc0a", "lat": 38.9135105, "fusion_lon": 0.0, "fusion_lat": 0.0, "type": "electric_scooter", "name": "1db303c2a4d86c80198f13968cacfc0a", "is_disabled": 0, "rental_uris": {"ios": "https://dc.lft.to/lastmile_qr_scan", "android": "https://dc.lft.to/lastmile_qr_scan"}, "is_reserved": 0}, {"lon": -77.048715, "bike_id": "025e9f00db2951f53247e86aecf57a9b", "lat": 38.90974116666667, "fusion_lon": 0.0, "fusion_lat": 0.0, "type": "electric_scooter", "name": "025e9f00db2951f53247e86aecf57a9b", "is_disabled": 0, "rental_uris": {"ios": "https://dc.lft.to/lastmile_qr_scan", "android": "https://dc.lft.to/lastmile_qr_scan"}, "is_reserved": 0}, {"lon": -76.99163916666667, "bike_id": "4155221b347760952bce899f471edf80", "lat": 38.889662, "fusion_lon": 0.0, "fusion_lat": 0.0, "type": "electric_scooter", "name": "4155221b347760952bce899f471edf80", "is_disabled": 0, "rental_uris": {"ios": "https://dc.lft.to/lastmile_qr_scan", "android": "https://dc.lft.to/lastmile_qr_scan"}, "is_reserved": 0}, {"lon": -77.02506233333334, "bike_id": "2aef35b9d9baafb08f5032ec8114c8a6", "lat": 38.919200333333336, "fusion_lon": 0.0, "fusion_lat": 0.0, "type": "electric_scooter", "name": "2aef35b9d9baafb08f5032ec8114c8a6", "is_disabled": 0, "rental_uris": {"ios": "https://dc.lft.to/lastmile_qr_scan", "android": "https://dc.lft.to/lastmile_qr_scan"}, "is_reserved": 0}, {"lon": -76.98668833333333, "bike_id": "221e780fe62c1fb3eff1ad236574b0b6", "lat": 38.902477166666664, "fusion_lon": 0.0, "fusion_lat": 0.0, "type": "electric_scooter", "name": "221e780fe62c1fb3eff1ad236574b0b6", "is_disabled": 0, "rental_uris": {"ios": "https://dc.lft.to/lastmile_qr_scan", "android": "https://dc.lft.to/lastmile_qr_scan"}, "is_reserved": 0}, {"lon": -77.038598, "bike_id": "ca78a14420dff898f6dc2b9ac60b5242", "lat": 38.90679033333333, "fusion_lon": 0.0, "fusion_lat": 0.0, "type": "electric_scooter", "name": "ca78a14420dff898f6dc2b9ac60b5242", "is_disabled": 0, "rental_uris": {"ios": "https://dc.lft.to/lastmile_qr_scan", "android": "https://dc.lft.to/lastmile_qr_scan"}, "is_reserved": 0}, {"lon": -77.04717483333333, "bike_id": "565af60c41623410300528ccd23da6f2", "lat": 38.92233383333333, "fusion_lon": 0.0, "fusion_lat": 0.0, "type": "electric_scooter", "name": "565af60c41623410300528ccd23da6f2", "is_disabled": 0, "rental_uris": {"ios": "https://dc.lft.to/lastmile_qr_scan", "android": "https://dc.lft.to/lastmile_qr_scan"}, "is_reserved": 0}, {"lon": -77.02793883333334, "bike_id": "d6113efc233b9f4a1ec2ee9f84a50622", "lat": 38.920136166666666, "fusion_lon": 0.0, "fusion_lat": 0.0, "type": "electric_scooter", "name": "d6113efc233b9f4a1ec2ee9f84a50622", "is_disabled": 0, "rental_uris": {"ios": "https://dc.lft.to/lastmile_qr_scan", "android": "https://dc.lft.to/lastmile_qr_scan"}, "is_reserved": 0}, {"lon": -77.04266266666667, "bike_id": "2c1aa406863181edce20270f9d7c6d08", "lat": 38.91776266666667, "fusion_lon": 0.0, "fusion_lat": 0.0, "type": "electric_scooter", "name": "2c1aa406863181edce20270f9d7c6d08", "is_disabled": 0, "rental_uris": {"ios": "https://dc.lft.to/lastmile_qr_scan", "android": "https://dc.lft.to/lastmile_qr_scan"}, "is_reserved": 0}, {"lon": -76.982249, "bike_id": "686a641fd6f01b513c37a1ec62c8e90c", "lat": 38.91624766666666, "fusion_lon": 0.0, "fusion_lat": 0.0, "type": "electric_scooter", "name": "686a641fd6f01b513c37a1ec62c8e90c", "is_disabled": 0, "rental_uris": {"ios": "https://dc.lft.to/lastmile_qr_scan", "android": "https://dc.lft.to/lastmile_qr_scan"}, "is_reserved": 0}, {"lon": -77.00062866666667, "bike_id": "55d865cfba920194f39c6022f9e9f43d", "lat": 38.924324, "fusion_lon": 0.0, "fusion_lat": 0.0, "type": "electric_scooter", "name": "55d865cfba920194f39c6022f9e9f43d", "is_disabled": 0, "rental_uris": {"ios": "https://dc.lft.to/lastmile_qr_scan", "android": "https://dc.lft.to/lastmile_qr_scan"}, "is_reserved": 0}, {"lon": -77.0521245, "bike_id": "4baf26eb9e89be1c02656cc6c76f6f30", "lat": 38.900115666666665, "fusion_lon": 0.0, "fusion_lat": 0.0, "type": "electric_scooter", "name": "4baf26eb9e89be1c02656cc6c76f6f30", "is_disabled": 0, "rental_uris": {"ios": "https://dc.lft.to/lastmile_qr_scan", "android": "https://dc.lft.to/lastmile_qr_scan"}, "is_reserved": 0}, {"lon": -76.93608333333333, "bike_id": "bf79e01bfffe7a3b6922e54224803b66", "lat": 38.89682333333333, "fusion_lon": 0.0, "fusion_lat": 0.0, "type": "electric_scooter", "name": "bf79e01bfffe7a3b6922e54224803b66", "is_disabled": 0, "rental_uris": {"ios": "https://dc.lft.to/lastmile_qr_scan", "android": "https://dc.lft.to/lastmile_qr_scan"}, "is_reserved": 0}, {"lon": -77.02395816666667, "bike_id": "b8eff9083fb9ba92d73942caa899420f", "lat": 38.91758883333333, "fusion_lon": 0.0, "fusion_lat": 0.0, "type": "electric_scooter", "name": "b8eff9083fb9ba92d73942caa899420f", "is_disabled": 0, "rental_uris": {"ios": "https://dc.lft.to/lastmile_qr_scan", "android": "https://dc.lft.to/lastmile_qr_scan"}, "is_reserved": 0}, {"lon": -77.0290025, "bike_id": "b02cfa0656652bdb36ae2d4bfa830bed", "lat": 38.903907833333335, "fusion_lon": 0.0, "fusion_lat": 0.0, "type": "electric_scooter", "name": "b02cfa0656652bdb36ae2d4bfa830bed", "is_disabled": 0, "rental_uris": {"ios": "https://dc.lft.to/lastmile_qr_scan", "android": "https://dc.lft.to/lastmile_qr_scan"}, "is_reserved": 0}, {"lon": -76.97617083333333, "bike_id": "06a3e27c37703e104ca884d948f21fc5", "lat": 38.9038225, "fusion_lon": 0.0, "fusion_lat": 0.0, "type": "electric_scooter", "name": "06a3e27c37703e104ca884d948f21fc5", "is_disabled": 0, "rental_uris": {"ios": "https://dc.lft.to/lastmile_qr_scan", "android": "https://dc.lft.to/lastmile_qr_scan"}, "is_reserved": 0}, {"lon": -77.02179733333334, "bike_id": "eb9aa11f030b11360807002e94d9f2f4", "lat": 38.91993183333334, "fusion_lon": 0.0, "fusion_lat": 0.0, "type": "electric_scooter", "name": "eb9aa11f030b11360807002e94d9f2f4", "is_disabled": 0, "rental_uris": {"ios": "https://dc.lft.to/lastmile_qr_scan", "android": "https://dc.lft.to/lastmile_qr_scan"}, "is_reserved": 0},