{"data": {"bikes": [{"bike_id": "dc6a425da692c94ee578f3b4c370e72f", "lat": 38.91894766666667, "is_disabled": 0, "lon": -77.02104216666666, "fusion_lon": 0.0, "is_reserved": 0, "fusion_lat": 0.0, "rental_uris": {"android": "https://dc.lft.to/lastmile_qr_scan", "ios": "https://dc.lft.to/lastmile_qr_scan"}, "type": "electric_scooter", "name": "dc6a425da692c94ee578f3b4c370e72f"}, {"bike_id": "c6f9466009eac47fa0293c84da1e8094", "lat": 38.87912016666667, "is_disabled": 0, "lon": -76.9845925, "fusion_lon": 0.0, "is_reserved": 0, "fusion_lat": 0.0, "rental_uris": {"android": "https://dc.lft.to/lastmile_qr_scan", "ios": "https://dc.lft.to/lastmile_qr_scan"}, "type": "electric_bike", "name": "c6f9466009eac47fa0293c84da1e8094"}, {"bike_id": "54f9bc3212497931d785b9a822ce6a9c", "lat": 38.911917333333335, "is_disabled": 0, "lon": -76.98737466666667, "fusion_lon": 0.0, "is_reserved": 0, "fusion_lat": 0.0, "rental_uris": {"android": "https://dc.lft.to/lastmile_qr_scan", "ios": "https://dc.lft.to/lastmile_qr_scan"}, "type": "electric_scooter", "name": "54f9bc3212497931d785b9a822ce6a9c"}, {"bike_id": "b78980e0ffa51351e5d9a4771a5eec40", "lat": 38.934253, "is_disabled": 0, "lon": -77.039897, "fusion_lon": 0.0, "is_reserved": 0, "fusion_lat": 0.0, "rental_uris": {"android": "https://dc.lft.to/lastmile_qr_scan", "ios": "https://dc.lft.to/lastmile_qr_scan"}, "type": "electric_scooter", "name": "b78980e0ffa51351e5d9a4771a5eec40"}, {"bike_id": "228d784ed086f3ce1c6b429c0a016679", "lat": 38.86501166666667, "is_disabled": 0, "lon": -76.989865, "fusion_lon": 0.0, "is_reserved": 0, "fusion_lat": 0.0, "rental_uris": {"android": "https://dc.lft.to/lastmile_qr_scan", "ios": "https://dc.lft.to/lastmile_qr_scan"}, "type": "electric_scooter", "name": "228d784ed086f3ce1c6b429c0a016679"}, {"bike_id": "4b8e3e317b265533ab2f4e00fcf91b60", "lat": 38.90094, "is_disabled": 0, "lon": -77.0252855, "fusion_lon": 0.0, "is_reserved": 0, "fusion_lat": 0.0, "rental_uris": {"android": "https://dc.lft.to/lastmile_qr_scan", "ios": "https://dc.lft.to/lastmile_qr_scan"}, "type": "electric_scooter", "name": "4b8e3e317b265533ab2f4e00fcf91b60"}, {"bike_id": "636159a02fa05220251403576fdde153", "lat": 38.920254166666666, "is_disabled": 0, "lon": -77.01221766666667, "fusion_lon": 0.0, "is_reserved": 0, "fusion_lat": 0.0, "rental_uris": {"android": "https://dc.lft.to/lastmile_qr_scan", "ios": "https://dc.lft.to/lastmile_qr_scan"}, "type": "electric_scooter", "name": "636159a02fa05220251403576fdde153"}, {"bike_id": "7c33ceec204b11fdf496da20e75ffc69", "lat": 38.8922205, "is_disabled": 0, "lon": -77.048588, "fusion_lon": 0.0, "is_reserved": 0, "fusion_lat": 0.0, "rental_uris": {"android": "https://dc.lft.to/lastmile_qr_scan", "ios": "https://dc.lft.to/lastmile_qr_scan"}, "type": "electric_scooter", "name": "7c33ceec204b11fdf496da20e75ffc69"}, {"bike_id": "a68d0520fb936f1e51faf094fc31db59", "lat": 38.90390266666667, "is_disabled": 0, "lon": -77.04759566666667, "fusion_lon": 0.0, "is_reserved": 0, "fusion_lat": 0.0, "rental_uris": {"android": "https://dc.lft.to/lastmile_qr_scan", "ios": "https://dc.lft.to/lastmile_qr_scan"}, "type": "electric_scooter", "name": "a68d0520fb936f1e51faf094fc31db59"}, {"bike_id": "d3699d185f24b159e915c4e0ee57000d", "lat": 38.900033, "is_disabled": 0, "lon": -77.00576583333333, "fusion_lon": 0.0, "is_reserved": 0, "fusion_lat": 0.0, "rental_uris": {"android": "https://dc.lft.to/lastmile_qr_scan", "ios": "https://dc.lft.to/lastmile_qr_scan"}, "type": "electric_scooter", "name": "d3699d185f24b159e915c4e0ee57000d"}, {"bike_id": "1d0dc1c37480a14c1a815fee7a327109", "lat": 38.909475666666665, "is_disabled": 0, "lon": -77.0466755, "fusion_lon": 0.0, "is_reserved": 0, "fusion_lat": 0.0, "rental_uris": {"android": "https://dc.lft.to/lastmile_qr_scan", "ios": "https://dc.lft.to/lastmile_qr_scan"}, "type": "electric_scooter", "name": "1d0dc1c37480a14c1a815fee7a327109"}, {"bike_id": "3681c4c1c8e81b585c9365248d070994", "lat": 38.89214466666667, "is_disabled": 0, "lon": -77.02375616666667, "fusion_lon": 0.0, "is_reserved": 0, "fusion_lat": 0.0, "rental_uris": {"android": "https://dc.lft.to/lastmile_qr_scan", "ios": "https://dc.lft.to/lastmile_qr_scan"}, "type": "electric_scooter", "name": "3681c4c1c8e81b585c9365248d070994"}, {"bike_id": "a72ea53551df56461ae68c4a00a4f883", "lat": 38.900283333333334, "is_disabled": 0, "lon": -77.01171716666667, "fusion_lon": 0.0, "is_reserved": 0, "fusion_lat": 0.0, "rental_uris": {"android": "https://dc.lft.to/lastmile_qr_scan", "ios": "https://dc.lft.to/lastmile_qr_scan"}, "type": "electric_scooter", "name": "a72ea53551df56461ae68c4a00a4f883"}, {"bike_id": "af713de6d421ce1cbe3934ef5efe0d39", "lat": 38.926609166666665, "is_disabled": 0, "lon": -77.02406866666666, "fusion_lon": 0.0, "is_reserved": 0, "fusion_lat": 0.0, "rental_uris": {"android": "https://dc.lft.to/lastmile_qr_scan", "ios": "https://dc.lft.to/lastmile_qr_scan"}, "type": "electric_scooter", "name": "af713de6d421ce1cbe3934ef5efe0d39"}, {"bike_id": "93d16bb2cff6f714817d3c333399ce63", "lat": 38.9161955, "is_disabled": 0, "lon": -76.97144583333333, "fusion_lon": 0.0, "is_reserved": 0, "fusion_lat": 0.0, "rental_uris": {"android": "https://dc.lft.to/lastmile_qr_scan", "ios": "https://dc.lft.to/lastmile_qr_scan"}, "type": "electric_scooter", "name": "93d16bb2cff6f714817d3c333399ce63"}, {"bike_id": "646eeefb2290b67a5a5d6dc12d4913b6", "lat": 38.8922475, "is_disabled": 0, "lon": -77.0303525, "fusion_lon": 0.0, "is_reserved": 0, "fusion_lat": 0.0, "rental_uris": {"android": "https://dc.lft.to/lastmile_qr_scan", "ios": "https://dc.lft.to/lastmile_qr_scan"}, "type": "electric_scooter", "name": "646eeefb2290b67a5a5d6dc12d4913b6"}, {"bike_id": "26d4c2dbbfd8cb30ef726c8f608cc5cf", "lat": 38.937233166666665, "is_disabled": 0, "lon": -77.019115, "fusion_lon": 0.0, "is_reserved": 0, "fusion_lat": 0.0, "rental_uris": {"android": "https://dc.lft.to/lastmile_qr_scan", "ios": "https://dc.lft.to/lastmile_qr_scan"}, "type": "electric_scooter", "name": "26d4c2dbbfd8cb30ef726c8f608cc5cf"}, {"bike_id": "f70952180fc7c55e57a442687e883796", "lat": 38.9198625, "is_disabled": 0, "lon": -76.973061, "fusion_lon": 0.0, "is_reserved": 0, "fusion_lat": 0.0, "rental_uris": {"android": "https://dc.lft.to/lastmile_qr_scan", "ios": "https://dc.lft.to/lastmile_qr_scan"}, "type": "electric_scooter", "name": "f70952180fc7c55e57a442687e883796"}, {"bike_id": "bf05f005c9ddc61f9c30517af8d26021", "lat": 38.904643166666666, "is_disabled": 0, "lon": -77.04627166666667, "fusion_lon": 0.0, "is_reserved": 0, "fusion_lat": 0.0, "rental_uris": {"android": "https://dc.lft.to/lastmile_qr_scan", "ios": "https://dc.lft.to/lastmile_qr_scan"}, "type": "electric_scooter", "name": "bf05f005c9ddc61f9c30517af8d26021"}, {"bike_id": "f45ad121865abb0d4165c2e0c89a6bf6", "lat": 38.9019605, "is_disabled": 0, "lon": -77.04701866666667, "fusion_lon": 0.0, "is_reserved": 0, "fusion_lat": 0.0, "rental_uris": {"android": "https://dc.lft.to/lastmile_qr_scan", "ios": "https://dc.lft.to/lastmile_qr_scan"}, "type": "electric_scooter", "name": "f45ad121865abb0d4165c2e0c89a6bf6"}, {"bike_id": "8112adb9c5c360d067b85944473f9fae", "lat": 38.90397183333333, "is_disabled": 0, "lon": -77.06794466666666, "fusion_lon": 0.0, "is_reserved": 0, "fusion_lat": 0.0, "rental_uris": {"android": "https://dc.lft.to/lastmile_qr_scan", "ios": "https://dc.lft.to/lastmile_qr_scan"}, "type": "electric_scooter", "name": "8112adb9c5c360d067b85944473f9fae"}, {"bike_id": "a84800a278aaaa74a7783bf094ca399b", "lat": 38.920861333333335, "is_disabled": 0, "lon": -77.0422365, "fusion_lon": 0.0, "is_reserved": 0, "fusion_lat": 0.0, "rental_uris": {"android": "https://dc.lft.to/lastmile_qr_scan", "ios": "https://dc.lft.to/lastmile_qr_scan"}, "type": "electric_scooter", "name": "a84800a278aaaa74a7783bf094ca399b"}, {"bike_id": "814dc5c61245f2dd4e9331828a40a109", "lat": 38.88369983333333, "is_disabled": 0, "lon": -76.99521116666666, "fusion_lon": 0.0, "is_reserved": 0, "fusion_lat": 0.0, "rental_uris": {"android": "https://dc.lft.to/lastmile_qr_scan", "ios": "https://dc.lft.to/lastmile_qr_scan"}, "type": "electric_scooter", "name": "814dc5c61245f2dd4e9331828a40a109"}, {"bike_id": "34ef41f914e6837f36653990b500ebc1", "lat": 38.900333, "is_disabled": 0, "lon": -76.9722515, "fusion_lon": 0.0, "is_reserved": 0, "fusion_lat": 0.0, "rental_uris": {"android": "https://dc.lft.to/lastmile_qr_scan", "ios": "https://dc.lft.to/lastmile_qr_scan"}, "type": "electric_bike", "name": "34ef41f914e6837f36653990b500ebc1"}, {"bike_id": "ebad0c578a965af14dee2aba6ee2fa68", "lat": 38.924393333333335, "is_disabled": 0, "lon": -77.03910816666667, "fusion_lon": 0.0, "is_reserved": 0, "fusion_lat": 0.0, "rental_uris": {"android": "https://dc.lft.to/lastmile_qr_scan", "ios": "https://dc.lft.to/lastmile_qr_scan"}, "type": "electric_scooter", "name": "ebad0c578a965af14dee2aba6ee2fa68"}, {"bike_id": "59e45f61849e159cba17cbc9cbfdbe15", "lat": 38.892273, "is_disabled": 0, "lon": -77.0333775, "fusion_lon": 0.0, "is_reserved": 0, "fusion_lat": 0.0, "rental_uris": {"android": "https://dc.lft.to/lastmile_qr_scan", "ios": "https://dc.lft.to/lastmile_qr_scan"}, "type": "electric_scooter", "name": "59e45f61849e159cba17cbc9cbfdbe15"}, {"bike_id": "b1bcadce44119deb6b45b6dd6b2db6c9", "lat": 38.92203, "is_disabled": 0, "lon": -77.04192466666667, "fusion_lon": 0.0, "is_reserved": 0, "fusion_lat": 0.0, "rental_uris": {"android": "https://dc.lft.to/lastmile_qr_scan", "ios": "https://dc.lft.to/lastmile_qr_scan"}, "type": "electric_scooter", "name": "b1bcadce44119deb6b45b6dd6b2db6c9"}, {"bike_id": "d70714abae88fe43e59237beba0ead3a", "lat": 38.9016695, "is_disabled": 0, "lon": -77.02474716666667, "fusion_lon": 0.0, "is_reserved": 0, "fusion_lat": 0.0, "rental_uris": {"android": "https://dc.lft.to/lastmile_qr_scan", "ios": "https://dc.lft.to/lastmile_qr_scan"}, "type": "electric_scooter", "name": "d70714abae88fe43e59237beba0ead3a"}, {"bike_id": "afdf3c469425679fe83e9cc90de05d81", "lat": 38.93510633333333, "is_disabled": 0, "lon": -77.05436766666666, "fusion_lon": 0.0, "is_reserved": 0, "fusion_lat": 0.0, "rental_uris": {"android": "https://dc.lft.to/lastmile_qr_scan", "ios": "https://dc.lft.to/lastmile_qr_scan"}, "type": "electric_scooter", "name": "afdf3c469425679fe83e9cc90de05d81"}, {"bike_id": "cbdb84e4e0cc2be686de2ff454d80582", "lat": 38.87764716666667, "is_disabled": 0, "lon": -76.99608466666666, "fusion_lon": 0.0, "is_reserved": 0, "fusion_lat": 0.0, "rental_uris": {"android": "https://dc.lft.to/lastmile_qr_scan", "ios": "https://dc.lft.to/lastmile_qr_scan"}, "type": "electric_scooter", "name": "cbdb84e4e0cc2be686de2ff454d80582"}, {"bike_id": "a95b573b8486c48900de3a62de98aee5", "lat": 38.87663283333333, "is_disabled": 0, "lon": -76.931127, "fusion_lon": 0.0, "is_reserved": 0, "fusion_lat": 0.0, "rental_uris": {"android": "https://dc.lft.to/lastmile_qr_scan", "ios": "https://dc.lft.to/lastmile_qr_scan"}, "type": "electric_scooter", "name": "a95b573b8486c48900de3a62de98aee5"}, {"bike_id": "5038755e5d0a6e826782fc357f4c59c9", "lat": 38.92660733333334, "is_disabled": 0, "lon": -77.02430383333333, "fusion_lon": 0.0, "is_reserved": 0, "fusion_lat": 0.0, "rental_uris": {"android": "https://dc.lft.to/lastmile_qr_scan", "ios": "https://dc.lft.to/lastmile_qr_scan"}, "type": "electric_scooter", "name": "5038755e5d0a6e826782fc357f4c59c9"}, {"bike_id": "a2f834008eff462e5b0d891f7ba6bf4b", "lat": 38.942372, "is_disabled": 0, "lon": -77.05871116666667, "fusion_lon": 0.0, "is_reserved": 0, "fusion_lat": 0.0, "rental_uris": {"android": "https://dc.lft.to/lastmile_qr_scan", "ios": "https://dc.lft.to/lastmile_qr_scan"}, "type": "electric_scooter", "name": "a2f834008eff462e5b0d891f7ba6bf4b"}, {"bike_id": "51cf9c1fc22801de9fe1401594d6c79b", "lat": 38.9211185, "is_disabled": 0, "lon": -77.03122233333333, "fusion_lon": 0.0, "is_reserved": 0, "fusion_lat": 0.0, "rental_uris": {"android": "https://dc.lft.to/lastmile_qr_scan", "ios": "https://dc.lft.to/lastmile_qr_scan"}, "type": "electric_scooter", "name": "51cf9c1fc22801de9fe1401594d6c79b"}, {"bike_id": "c98d1fab0eea8d6dac883b7cf8eb752d", "lat": 38.957719, "is_disabled": 0, "lon": -77.01498166666667, "fusion_lon": 0.0, "is_reserved": 0, "fusion_lat": 0.0, "rental_uris": {"android": "https://dc.lft.to/lastmile_qr_scan", "ios": "https://dc.lft.to/lastmile_qr_scan"}, "type": "electric_scooter", "name": "c98d1fab0eea8d6dac883b7cf8eb752d"}, {"bike_id": "3e48622f8732334b9c93cc168e43f67c", "lat": 38.9209365, "is_disabled": 0, "lon": -77.02507733333333, "fusion_lon": 0.0, "is_reserved": 0, "fusion_lat": 0.0, "rental_uris": {"android": "https://dc.lft.to/lastmile_qr_scan", "ios": "https://dc.lft.to/lastmile_qr_scan"}, "type": "electric_scooter", "name": "3e48622f8732334b9c93cc168e43f67c"}, {"bike_id": "20df58570cd1a00c9890c63aa7baf819", "lat": 38.904091333333334, "is_disabled": 0, "lon": -77.0677795, "fusion_lon": 0.0, "is_reserved": 0, "fusion_lat": 0.0, "rental_uris": {"android": "https://dc.lft.to/lastmile_qr_scan", "ios": "https://dc.lft.to/lastmile_qr_scan"}, "type": "electric_scooter", "name": "20df58570cd1a00c9890c63aa7baf819"}, {"bike_id": "588e78a155149b4f517741a2fa0e2f95", "lat": 38.906592833333335, "is_disabled": 0, "lon": -76.97937383333333, "fusion_lon": 0.0, "is_reserved": 0, "fusion_lat": 0.0, "rental_uris": {"android": "https://dc.lft.to/lastmile_qr_scan", "ios": "https://dc.lft.to/lastmile_qr_scan"}, "type": "electric_scooter", "name": "588e78a155149b4f517741a2fa0e2f95"}, {"bike_id": "deae127061e06705d7be4698f0815771", "lat": 38.88209633333334, "is_disabled": 0, "lon": -77.017699, "fusion_lon": 0.0, "is_reserved": 0, "fusion_lat": 0.0, "rental_uris": {"android": "https://dc.lft.to/lastmile_qr_scan", "ios": "https://dc.lft.to/lastmile_qr_scan"}, "type": "electric_scooter", "name": "deae127061e06705d7be4698f0815771"}, {"bike_id": "815807346b37305c09e12909547c3da5", "lat": 38.9132205, "is_disabled": 0, "lon": -77.03324433333333, "fusion_lon": 0.0, "is_reserved": 0, "fusion_lat": 0.0, "rental_uris": {"android": "https://dc.lft.to/lastmile_qr_scan", "ios": "https://dc.lft.to/lastmile_qr_scan"}, "type": "electric_scooter", "name": "815807346b37305c09e12909547c3da5"}, {"bike_id": "7982a57118bdfee674fe71f05240f4cb", "lat": 38.83989716666667, "is_disabled": 0, "lon": -76.97692383333333, "fusion_lon": 0.0, "is_reserved": 0, "fusion_lat": 0.0, "rental_uris": {"android": "https://dc.lft.to/lastmile_qr_scan", "ios": "https://dc.lft.to/lastmile_qr_scan"}, "type": "electric_bike", "name": "7982a57118bdfee674fe71f05240f4cb"}, {"bike_id": "f15da20b403bd442d01bb3448a6d5db5", "lat": 38.9037695, "is_disabled": 0, "lon": -77.048174, "fusion_lon": 0.0, "is_reserved": 0, "fusion_lat": 0.0, "rental_uris": {"android": "https://dc.lft.to/lastmile_qr_scan", "ios": "https://dc.lft.to/lastmile_qr_scan"}, "type": "electric_scooter", "name": "f15da20b403bd442d01bb3448a6d5db5"}, {"bike_id": "2816c90fca309992ab16d36cb82f051a", "lat": 38.8905875, "is_disabled": 0, "lon": -77.02546716666667, "fusion_lon": 0.0, "is_reserved": 0, "fusion_lat": 0.0, "rental_uris": {"android": "https://dc.lft.to/lastmile_qr_scan", "ios": "https://dc.lft.to/lastmile_qr_scan"}, "type": "electric_scooter", "name": "2816c90fca309992ab16d36cb82f051a"}, {"bike_id": "583f33d6bc2054e7994b7fe7fd02e4e9", "lat": 38.89879416666667, "is_disabled": 0, "lon": -77.00923316666666, "fusion_lon": 0.0, "is_reserved": 0, "fusion_lat": 0.0, "rental_uris": {"android": "https://dc.lft.to/lastmile_qr_scan", "ios": "https://dc.lft.to/lastmile_qr_scan"}, "type": "electric_scooter", "name": "583f33d6bc2054e7994b7fe7fd02e4e9"}, {"bike_id": "de394be34543ce598e2827cb2882d328", "lat": 38.90508333333333, "is_disabled": 0, "lon": -77.04899, "fusion_lon": 0.0, "is_reserved": 0, "fusion_lat": 0.0, "rental_uris": {"android": "https://dc.lft.to/lastmile_qr_scan", "ios": "https://dc.lft.to/lastmile_qr_scan"}, "type": "electric_scooter", "name": "de394be34543ce598e2827cb2882d328"}, {"bike_id": "1d57c889e6ada33eb7e1939b8a9a3045", "lat": 38.93307383333333, "is_disabled": 0, "lon": -77.03266866666667, "fusion_lon": 0.0, "is_reserved": 0, "fusion_lat": 0.0, "rental_uris": {"android": "https://dc.lft.to/lastmile_qr_scan", "ios": "https://dc.lft.to/lastmile_qr_scan"}, "type": "electric_scooter", "name": "1d57c889e6ada33eb7e1939b8a9a3045"}, {"bike_id": "6364912d522196bbdf5d90b5632146c3", "lat": 38.910511166666666, "is_disabled": 0, "lon": -77.05020333333333, "fusion_lon": 0.0, "is_reserved": 0, "fusion_lat": 0.0, "rental_uris": {"android": "https://dc.lft.to/lastmile_qr_scan", "ios": "https://dc.lft.to/lastmile_qr_scan"}, "type": "electric_scooter", "name": "6364912d522196bbdf5d90b5632146c3"}, {"bike_id": "b240fbd44095e4d09488ed9139b1dfef", "lat": 38.9014135, "is_disabled": 0, "lon": -77.02297516666667, "fusion_lon": 0.0, "is_reserved": 0, "fusion_lat": 0.0, "rental_uris": {"android": "https://dc.lft.to/lastmile_qr_scan", "ios": "https://dc.lft.to/lastmile_qr_scan"}, "type": "electric_scooter", "name": "b240fbd44095e4d09488ed9139b1dfef"}, {"bike_id": "725a991fdfc5798f3b8601944a0f9097", "lat": 38.921370833333334, "is_disabled": 0, "lon": -77.02533116666666, "fusion_lon": 0.0, "is_reserved": 0, "fusion_lat": 0.0, "rental_uris": {"android": "https://dc.lft.to/lastmile_qr_scan", "ios": "https://dc.lft.to/lastmile_qr_scan"}, "type": "electric_scooter", "name": "725a991fdfc5798f3b8601944a0f9097"}, {"bike_id": "6b897f2def564f3ee5b02e3810a1fcf3", "lat": 38.892364666666666, "is_disabled": 0, "lon": -77.04669666666666, "fusion_lon": 0.0, "is_reserved": 0, "fusion_lat": 0.0, "rental_uris": {"android": "https://dc.lft.to/lastmile_qr_scan", "ios": "https://dc.lft.to/lastmile_qr_scan"}, "type": "electric_scooter", "name": "6b897f2def564f3ee5b02e3810a1fcf3"}, {"bike_id": "6ab7a072aa1fde394791853ade1c2f82", "lat": 38.952122333333335, "is_disabled": 0, "lon": -77.01979466666667, "fusion_lon": 0.0, "is_reserved": 0, "fusion_lat": 0.0, "rental_uris": {"android": "https://dc.lft.to/lastmile_qr_scan", "ios": "https://dc.lft.to/lastmile_qr_scan"}, "type": "electric_scooter", "name": "6ab7a072aa1fde394791853ade1c2f82"}, {"bike_id": "4f67300994c8699c790f1f0c98f7fb7b", "lat": 38.897951666666664, "is_disabled": 0, "lon": -77.04179683333334, "fusion_lon": 0.0, "is_reserved": 0, "fusion_lat": 0.0, "rental_uris": {"android": "https://dc.lft.to/lastmile_qr_scan", "ios": "https://dc.lft.to/lastmile_qr_scan"}, "type": "electric_scooter", "name": "4f67300994c8699c790f1f0c98f7fb7b"}, {"bike_id": "6d2eaf55bd1957c635606ecd8d42b7bd", "lat": 38.915758333333336, "is_disabled": 0, "lon": -76.99339566666667, "fusion_lon": 0.0, "is_reserved": 0, "fusion_lat": 0.0, "rental_uris": {"android": "https://dc.lft.to/lastmile_qr_scan", "ios": "https://dc.lft.to/lastmile_qr_scan"}, "type": "electric_scooter", "name": "6d2eaf55bd1957c635606ecd8d42b7bd"}, {"bike_id": "088dadd1e1fe36966ea13052ed079c59", "lat": 38.8756935, "is_disabled": 0, "lon": -77.00595016666666, "fusion_lon": 0.0, "is_reserved": 0, "fusion_lat": 0.0, "rental_uris": {"android": "https://dc.lft.to/lastmile_qr_scan", "ios": "https://dc.lft.to/lastmile_qr_scan"}, "type": "electric_scooter", "name": "088dadd1e1fe36966ea13052ed079c59"}, {"bike_id": "31c2d65d2e4f01ddc12e280e707282e3", "lat": 38.890090666666666, "is_disabled": 0, "lon": -76.9374455, "fusion_lon": 0.0, "is_reserved": 0, "fusion_lat": 0.0, "rental_uris": {"android": "https://dc.lft.to/lastmile_qr_scan", "ios": "https://dc.lft.to/lastmile_qr_scan"}, "type": "electric_scooter", "name": "31c2d65d2e4f01ddc12e280e707282e3"}, {"bike_id": "04ed158f0db472df8fd3dda4e110f142", "lat": 38.90728266666667, "is_disabled": 0, "lon": -77.04145516666667, "fusion_lon": 0.0, "is_reserved": 0, "fusion_lat": 0.0, "rental_uris": {"android": "https://dc.lft.to/lastmile_qr_scan", "ios": "https://dc.lft.to/lastmile_qr_scan"}, "type": "electric_scooter", "name": "04ed158f0db472df8fd3dda4e110f142"}, {"bike_id": "0fdb098c495e6af306be1034cc230fe0", "lat": 38.8922415, "is_disabled": 0, "lon": -77.0451185, "fusion_lon": 0.0, "is_reserved": 0, "fusion_lat": 0.0, "rental_uris": {"android": "https://dc.lft.to/lastmile_qr_scan", "ios": "https://dc.lft.to/lastmile_qr_scan"}, "type": "electric_scooter", "name": "0fdb098c495e6af306be1034cc230fe0"}, {"bike_id": "6a69e5937e8db07dc39252e7e262a623", "lat": 38.92972833333334, "is_disabled": 0, "lon": -77.03775566666667, "fusion_lon": 0.0, "is_reserved": 0, "fusion_lat": 0.0, "rental_uris": {"android": "https://dc.lft.to/lastmile_qr_scan", "ios": "https://dc.lft.to/lastmile_qr_scan"}, "type": "electric_scooter", "name": "6a69e5937e8db07dc39252e7e262a623"}, {"bike_id": "bbbebca24b8bf24ab00b7fe8ad8e48f9", "lat": 38.90059083333333, "is_disabled": 0, "lon": -77.02614516666667, "fusion_lon": 0.0, "is_reserved": 0, "fusion_lat": 0.0, "rental_uris": {"android": "https://dc.lft.to/lastmile_qr_scan", "ios": "https://dc.lft.to/lastmile_qr_scan"}, "type": "electric_scooter", "name": "bbbebca24b8bf24ab00b7fe8ad8e48f9"}, {"bike_id": "5ed48f328cebd6f46bc9dc65ac9af6a3", "lat": 38.93848166666667, "is_disabled": 0, "lon": -77.02839466666667, "fusion_lon": 0.0, "is_reserved": 0, "fusion_lat": 0.0, "rental_uris": {"android": "https://dc.lft.to/lastmile_qr_scan", "ios": "https://dc.lft.to/lastmile_qr_scan"}, "type": "electric_scooter", "name": "5ed48f328cebd6f46bc9dc65ac9af6a3"}, {"bike_id": "f0a745b37932cb9ceb1f4c0745a0ae32", "lat": 38.908111, "is_disabled": 0, "lon": -76.99711866666667, "fusion_lon": 0.0, "is_reserved": 0, "fusion_lat": 0.0, "rental_uris": {"android": "https://dc.lft.to/lastmile_qr_scan", "ios": "https://dc.lft.to/lastmile_qr_scan"}, "type": "electric_scooter", "name": "f0a745b37932cb9ceb1f4c0745a0ae32"}, {"bike_id": "da714288537deeb4f637728c63d01848", "lat": 38.8922655, "is_disabled": 0, "lon": -77.02821933333334, "fusion_lon": 0.0, "is_reserved": 0, "fusion_lat": 0.0, "rental_uris": {"android": "https://dc.lft.to/lastmile_qr_scan", "ios": "https://dc.lft.to/lastmile_qr_scan"}, "type": "electric_scooter", "name": "da714288537deeb4f637728c63d01848"}, {"bike_id": "386ea583e379a379c06ef75ecdb9e96d", "lat": 38.93559116666667, "is_disabled": 0, "lon": -77.07462183333334, "fusion_lon": 0.0, "is_reserved": 0, "fusion_lat": 0.0, "rental_uris": {"android": "https://dc.lft.to/lastmile_qr_scan", "ios": "https://dc.lft.to/lastmile_qr_scan"}, "type": "electric_scooter", "name": "386ea583e379a379c06ef75ecdb9e96d"}, {"bike_id": "1acc0886591b3bd7fe00c9d6ea2d36f0", "lat": 38.8922675, "is_disabled": 0, "lon": -77.04183266666666, "fusion_lon": 0.0, "is_reserved": 0, "fusion_lat": 0.0, "rental_uris": {"android": "https://dc.lft.to/lastmile_qr_scan", "ios": "https://dc.lft.to/lastmile_qr_scan"}, "type": "electric_scooter", "name": "1acc0886591b3bd7fe00c9d6ea2d36f0"}, {"bike_id": "0cf233992d074d3e08e3ba637531972d", "lat": 38.911089, "is_disabled": 0, "lon": -77.04455833333333, "fusion_lon": 0.0, "is_reserved": 0, "fusion_lat": 0.0, "rental_uris": {"android": "https://dc.lft.to/lastmile_qr_scan", "ios": "https://dc.lft.to/lastmile_qr_scan"}, "type": "electric_scooter", "name": "0cf233992d074d3e08e3ba637531972d"}, {"bike_id": "8208e9ea174450b73a5e80e12c70afcd", "lat": 38.873824166666665, "is_disabled": 0, "lon": -76.96982333333334, "fusion_lon": 0.0, "is_reserved": 0, "fusion_lat": 0.0, "rental_uris": {"android": "https://dc.lft.to/lastmile_qr_scan", "ios": "https://dc.lft.to/lastmile_qr_scan"}, "type": "electric_scooter", "name": "8208e9ea174450b73a5e80e12c70afcd"}, {"bike_id": "5ebe4028086cb126ac8087a6cd6a3c8e", "lat": 38.8410735, "is_disabled": 0, "lon": -77.07016916666667, "fusion_lon": 0.0, "is_reserved": 0, "fusion_lat": 0.0, "rental_uris": {"android": "https://dc.lft.to/lastmile_qr_scan", "ios": "https://dc.lft.to/lastmile_qr_scan"}, "type": "electric_bike", "name": "5ebe4028086cb126ac8087a6cd6a3c8e"}, {"bike_id": "0c3afd38171c6c460027a61edccf98de", "lat": 38.892160833333335, "is_disabled": 0, "lon": -77.04500366666667, "fusion_lon": 0.0, "is_reserved": 0, "fusion_lat": 0.0, "rental_uris": {"android": "https://dc.lft.to/lastmile_qr_scan", "ios": "https://dc.lft.to/lastmile_qr_scan"}, "type": "electric_scooter", "name": "0c3afd38171c6c460027a61edccf98de"}, {"bike_id": "9f55af112510e19d5588b50aecc6070d", "lat": 38.87644983333333, "is_disabled": 0, "lon": -76.96507333333334, "fusion_lon": 0.0, "is_reserved": 0, "fusion_lat": 0.0, "rental_uris": {"android": "https://dc.lft.to/lastmile_qr_scan", "ios": "https://dc.lft.to/lastmile_qr_scan"}, "type": "electric_scooter", "name": "9f55af112510e19d5588b50aecc6070d"}, {"bike_id": "33278626f43921104867c66d021d6faf", "lat": 38.8988855, "is_disabled": 0, "lon": -77.04872566666667, "fusion_lon": 0.0, "is_reserved": 0, "fusion_lat": 0.0, "rental_uris": {"android": "https://dc.lft.to/lastmile_qr_scan", "ios": "https://dc.lft.to/lastmile_qr_scan"}, "type": "electric_scooter", "name": "33278626f43921104867c66d021d6faf"}, {"bike_id": "0d3c8ec37df2dca1aad35680fbed4fac", "lat": 38.916101166666664, "is_disabled": 0, "lon": -77.022825, "fusion_lon": 0.0, "is_reserved": 0, "fusion_lat": 0.0, "rental_uris": {"android": "https://dc.lft.to/lastmile_qr_scan", "ios": "https://dc.lft.to/lastmile_qr_scan"}, "type": "electric_scooter", "name": "0d3c8ec37df2dca1aad35680fbed4fac"}, {"bike_id": "db8587f6a97e7b2b11ce6cc2e3f29ca5", "lat": 38.93895833333333, "is_disabled": 0, "lon": -77.0176065, "fusion_lon": 0.0, "is_reserved": 0, "fusion_lat": 0.0, "rental_uris": {"android": "https://dc.lft.to/lastmile_qr_scan", "ios": "https://dc.lft.to/lastmile_qr_scan"}, "type": "electric_scooter", "name": "db8587f6a97e7b2b11ce6cc2e3f29ca5"}, {"bike_id": "6a6686b3fd7a8bc0e8a0873e4624d375", "lat": 38.929503833333335, "is_disabled": 0, "lon": -77.044098, "fusion_lon": 0.0, "is_reserved": 0, "fusion_lat": 0.0, "rental_uris": {"android": "https://dc.lft.to/lastmile_qr_scan", "ios": "https://dc.lft.to/lastmile_qr_scan"}, "type": "electric_scooter", "name": "6a6686b3fd7a8bc0e8a0873e4624d375"}, {"bike_id": "5e6ecf1cf7b043e790944aece577441f", "lat": 38.9342035, "is_disabled": 0, "lon": -77.04428, "fusion_lon": 0.0, "is_reserved": 0, "fusion_lat": 0.0, "rental_uris": {"android": "https://dc.lft.to/lastmile_qr_scan", "ios": "https://dc.lft.to/lastmile_qr_scan"}, "type": "electric_scooter", "name": "5e6ecf1cf7b043e790944aece577441f"}, {"bike_id": "c00eb733ea992788a9c96d6dcc1873d3", "lat": 38.9215945, "is_disabled": 0, "lon": -77.02203416666667, "fusion_lon": 0.0, "is_reserved": 0, "fusion_lat": 0.0, "rental_uris": {"android": "https://dc.lft.to/lastmile_qr_scan", "ios": "https://dc.lft.to/lastmile_qr_scan"}, "type": "electric_scooter", "name": "c00eb733ea992788a9c96d6dcc1873d3"}, {"bike_id": "76eff6f602fa22013061feaee72df71d", "lat": 38.88702283333333, "is_disabled": 0, "lon": -77.02814166666667, "fusion_lon": 0.0, "is_reserved": 0, "fusion_lat": 0.0, "rental_uris": {"android": "https://dc.lft.to/lastmile_qr_scan", "ios": "https://dc.lft.to/lastmile_qr_scan"}, "type": "electric_scooter", "name": "76eff6f602fa22013061feaee72df71d"}, {"bike_id": "36f0d95b33a7410fa1be2e02b53bcef4", "lat": 38.910389, "is_disabled": 0, "lon": -77.03855966666667, "fusion_lon": 0.0, "is_reserved": 0, "fusion_lat": 0.0, "rental_uris": {"android": "https://dc.lft.to/lastmile_qr_scan", "ios": "https://dc.lft.to/lastmile_qr_scan"}, "type": "electric_scooter", "name": "36f0d95b33a7410fa1be2e02b53bcef4"}, {"bike_id": "c5523c0ab1f529b7b3528c08da321f61", "lat": 38.923383666666666, "is_disabled": 0, "lon": -77.01905883333333, "fusion_lon": 0.0, "is_reserved": 0, "fusion_lat": 0.0, "rental_uris": {"android": "https://dc.lft.to/lastmile_qr_scan", "ios": "https://dc.lft.to/lastmile_qr_scan"}, "type": "electric_scooter", "name": "c5523c0ab1f529b7b3528c08da321f61"}, {"bike_id": "f69a0e97dfea02f9f96618d0da0237f4", "lat": 38.934598, "is_disabled": 0, "lon": -77.0325135, "fusion_lon": 0.0, "is_reserved": 0, "fusion_lat": 0.0, "rental_uris": {"android": "https://dc.lft.to/lastmile_qr_scan", "ios": "https://dc.lft.to/lastmile_qr_scan"}, "type": "electric_scooter", "name": "f69a0e97dfea02f9f96618d0da0237f4"}, {"bike_id": "cd3f4e2da230579911174fbc60370d86", "lat": 38.90900533333333, "is_disabled": 0, "lon": -77.04899166666667, "fusion_lon": 0.0, "is_reserved": 0, "fusion_lat": 0.0, "rental_uris": {"android": "https://dc.lft.to/lastmile_qr_scan", "ios": "https://dc.lft.to/lastmile_qr_scan"}, "type": "electric_scooter", "name": "cd3f4e2da230579911174fbc60370d86"}, {"bike_id": "27e50cdd487d2d42255b4a1355fe9b78", "lat": 38.857758, "is_disabled": 0, "lon": -76.97326916666667, "fusion_lon": 0.0, "is_reserved": 0, "fusion_lat": 0.0, "rental_uris": {"android": "https://dc.lft.to/lastmile_qr_scan", "ios": "https://dc.lft.to/lastmile_qr_scan"}, "type": "electric_bike", "name": "27e50cdd487d2d42255b4a1355fe9b78"}, {"bike_id": "7107c418fce4abb0dc74f1b2bec25517", "lat": 38.908356833333336, "is_disabled": 0, "lon": -77.03905266666666, "fusion_lon": 0.0, "is_reserved": 0, "fusion_lat": 0.0, "rental_uris": {"android": "https://dc.lft.to/lastmile_qr_scan", "ios": "https://dc.lft.to/lastmile_qr_scan"}, "type": "electric_scooter", "name": "7107c418fce4abb0dc74f1b2bec25517"}, {"bike_id": "29795336f29ccbbb2405bb8620aa575f", "lat": 38.917999, "is_disabled": 0, "lon": -77.039284, "fusion_lon": 0.0, "is_reserved": 0, "fusion_lat": 0.0, "rental_uris": {"android": "https://dc.lft.to/lastmile_qr_scan", "ios": "https://dc.lft.to/lastmile_qr_scan"}, "type": "electric_scooter", "name": "29795336f29ccbbb2405bb8620aa575f"}, {"bike_id": "43226194bcdbf1cb88e9997671c528b4", "lat": 38.88670666666667, "is_disabled": 0, "lon": -77.01358966666666, "fusion_lon": 0.0, "is_reserved": 0, "fusion_lat": 0.0, "rental_uris": {"android": "https://dc.lft.to/lastmile_qr_scan", "ios": "https://dc.lft.to/lastmile_qr_scan"}, "type": "electric_scooter", "name": "43226194bcdbf1cb88e9997671c528b4"}, {"bike_id": "166097abdfdc6e685b04a2b6a63ed22e", "lat": 38.91815883333334, "is_disabled": 0, "lon": -77.027078, "fusion_lon": 0.0, "is_reserved": 0, "fusion_lat": 0.0, "rental_uris": {"android": "https://dc.lft.to/lastmile_qr_scan", "ios": "https://dc.lft.to/lastmile_qr_scan"}, "type": "electric_scooter", "name": "166097abdfdc6e685b04a2b6a63ed22e"}, {"bike_id": "cbff9dca0c844440d9f0a86b9c371bb7", "lat": 38.9118805, "is_disabled": 0, "lon": -77.04237866666666, "fusion_lon": 0.0, "is_reserved": 0, "fusion_lat": 0.0, "rental_uris": {"android": "https://dc.lft.to/lastmile_qr_scan", "ios": "https://dc.lft.to/lastmile_qr_scan"}, "type": "electric_scooter", "name": "cbff9dca0c844440d9f0a86b9c371bb7"}, {"bike_id": "f7a011169cf0d48eb4b200e4c70fb922", "lat": 38.90721166666667, "is_disabled": 0, "lon": -77.00342333333333, "fusion_lon": 0.0, "is_reserved": 0, "fusion_lat": 0.0, "rental_uris": {"android": "https://dc.lft.to/lastmile_qr_scan", "ios": "https://dc.lft.to/lastmile_qr_scan"}, "type": "electric_scooter", "name": "f7a011169cf0d48eb4b200e4c70fb922"}, {"bike_id": "41345c11b53e0600343b492743fc717d", "lat": 38.89713716666667, "is_disabled": 0, "lon": -77.02717833333334, "fusion_lon": 0.0, "is_reserved": 0, "fusion_lat": 0.0, "rental_uris": {"android": "https://dc.lft.to/lastmile_qr_scan", "ios": "https://dc.lft.to/lastmile_qr_scan"}, "type": "electric_scooter", "name": "41345c11b53e0600343b492743fc717d"}, {"bike_id": "5e264ae297cda4b32297726aa63ae3c0", "lat": 38.857216666666666, "is_disabled": 0, "lon": -76.977722, "fusion_lon": 0.0, "is_reserved": 0, "fusion_lat": 0.0, "rental_uris": {"android": "https://dc.lft.to/lastmile_qr_scan", "ios": "https://dc.lft.to/lastmile_qr_scan"}, "type": "electric_bike", "name": "5e264ae297cda4b32297726aa63ae3c0"}, {"bike_id": "564874b2553adfc17aef6336b95fac4e", "lat": 38.913025166666664, "is_disabled": 0, "lon": -77.03666283333334, "fusion_lon": 0.0, "is_reserved": 0, "fusion_lat": 0.0, "rental_uris": {"android": "https://dc.lft.to/lastmile_qr_scan", "ios": "https://dc.lft.to/lastmile_qr_scan"}, "type": "electric_scooter", "name": "564874b2553adfc17aef6336b95fac4e"}, {"bike_id": "1db96c2fd933080004e44ee924656153", "lat": 38.92112683333333, "is_disabled": 0, "lon": -77.0318505, "fusion_lon": 0.0, "is_reserved": 0, "fusion_lat": 0.0, "rental_uris": {"android": "https://dc.lft.to/lastmile_qr_scan", "ios": "https://dc.lft.to/lastmile_qr_scan"}, "type": "electric_scooter", "name": "1db96c2fd933080004e44ee924656153"}, {"bike_id": "58cb6bef3b1555f54daa603ca4f26a46", "lat": 38.898057333333334, "is_disabled": 0, "lon": -77.029312, "fusion_lon": 0.0, "is_reserved": 0, "fusion_lat": 0.0, "rental_uris": {"android": "https://dc.lft.to/lastmile_qr_scan", "ios": "https://dc.lft.to/lastmile_qr_scan"}, "type": "electric_scooter", "name": "58cb6bef3b1555f54daa603ca4f26a46"}, {"bike_id": "45f02f052d42ec2eddc2a4b16d23018a", "lat": 38.946053, "is_disabled": 0, "lon": -77.0787855, "fusion_lon": 0.0, "is_reserved": 0, "fusion_lat": 0.0, "rental_uris": {"android": "https://dc.lft.to/lastmile_qr_scan", "ios": "https://dc.lft.to/lastmile_qr_scan"}, "type": "electric_scooter", "name": "45f02f052d42ec2eddc2a4b16d23018a"}, {"bike_id": "76c54070f4510ebc0de3a800dee5007a", "lat": 38.80751166666667, "is_disabled": 0, "lon": -77.09453833333333, "fusion_lon": 0.0, "is_reserved": 0, "fusion_lat": 0.0, "rental_uris": {"android": "https://dc.lft.to/lastmile_qr_scan", "ios": "https://dc.lft.to/lastmile_qr_scan"}, "type": "electric_bike", "name": "76c54070f4510ebc0de3a800dee5007a"}, {"bike_id": "05d9960a36b380cc38462c7bc8d2fd2d", "lat": 38.911030833333335, "is_disabled": 0, "lon": -77.0209735, "fusion_lon": 0.0, "is_reserved": 0, "fusion_lat": 0.0, "rental_uris": {"android": "https://dc.lft.to/lastmile_qr_scan", "ios": "https://dc.lft.to/lastmile_qr_scan"}, "type": "electric_scooter", "name": "05d9960a36b380cc38462c7bc8d2fd2d"}, {"bike_id": "3b06e738cabb0c0adfbde4fe4344448c", "lat": 38.89219516666667, "is_disabled": 0, "lon": -77.03164783333334, "fusion_lon": 0.0, "is_reserved": 0, "fusion_lat": 0.0, "rental_uris": {"android": "https://dc.lft.to/lastmile_qr_scan", "ios": "https://dc.lft.to/lastmile_qr_scan"}, "type": "electric_scooter", "name": "3b06e738cabb0c0adfbde4fe4344448c"}, {"bike_id": "895d97df8d1870d86c215fab24d625a6", "lat": 38.9231755, "is_disabled": 0, "lon": -77.0199655, "fusion_lon": 0.0, "is_reserved": 0, "fusion_lat": 0.0, "rental_uris": {"android": "https://dc.lft.to/lastmile_qr_scan", "ios": "https://dc.lft.to/lastmile_qr_scan"}, "type": "electric_scooter", "name": "895d97df8d1870d86c215fab24d625a6"}, {"bike_id": "29f29acea3068ffc008b608eb9721764", "lat": 38.874227, "is_disabled": 0, "lon": -77.08568533333333, "fusion_lon": 0.0, "is_reserved": 0, "fusion_lat": 0.0, "rental_uris": {"android": "https://dc.lft.to/lastmile_qr_scan", "ios": "https://dc.lft.to/lastmile_qr_scan"}, "type": "electric_bike", "name": "29f29acea3068ffc008b608eb9721764"}, {"bike_id": "ffed688a103ab0ce8ca77613b2588e31", "lat": 38.87655383333333, "is_disabled": 0, "lon": -77.00063883333333, "fusion_lon": 0.0, "is_reserved": 0, "fusion_lat": 0.0, "rental_uris": {"android": "https://dc.lft.to/lastmile_qr_scan", "ios": "https://dc.lft.to/lastmile_qr_scan"}, "type": "electric_scooter", "name": "ffed688a103ab0ce8ca77613b2588e31"}, {"bike_id": "06807f06313b73b041b79d994133f087", "lat": 38.95108666666667, "is_disabled": 0, "lon": -77.03355983333333, "fusion_lon": 0.0, "is_reserved": 0, "fusion_lat": 0.0, "rental_uris": {"android": "https://dc.lft.to/lastmile_qr_scan", "ios": "https://dc.lft.to/lastmile_qr_scan"}, "type": "electric_scooter", "name": "06807f06313b73b041b79d994133f087"}, {"bike_id": "90672bc624c3cd83e43125ec6aef6730", "lat": 38.9570895, "is_disabled": 0, "lon": -77.02415416666666, "fusion_lon": 0.0, "is_reserved": 0, "fusion_lat": 0.0, "rental_uris": {"android": "https://dc.lft.to/lastmile_qr_scan", "ios": "https://dc.lft.to/lastmile_qr_scan"}, "type": "electric_scooter", "name": "90672bc624c3cd83e43125ec6aef6730"}, {"bike_id": "d608f4231e0bfbc2e74c2bebfbfd743f", "lat": 38.92793066666667, "is_disabled": 0, "lon": -77.03697166666667, "fusion_lon": 0.0, "is_reserved": 0, "fusion_lat": 0.0, "rental_uris": {"android": "https://dc.lft.to/lastmile_qr_scan", "ios": "https://dc.lft.to/lastmile_qr_scan"}, "type": "electric_scooter", "name": "d608f4231e0bfbc2e74c2bebfbfd743f"}, {"bike_id": "9f2f5427dc91fecc7947cc3b08560ef1", "lat": 38.9359025, "is_disabled": 0, "lon": -77.0380535, "fusion_lon": 0.0, "is_reserved": 0, "fusion_lat": 0.0, "rental_uris": {"android": "https://dc.lft.to/lastmile_qr_scan", "ios": "https://dc.lft.to/lastmile_qr_scan"}, "type": "electric_scooter", "name": "9f2f5427dc91fecc7947cc3b08560ef1"}, {"bike_id": "aef72121bcec4c1bd73820f4a4c07455", "lat": 38.8992835, "is_disabled": 0, "lon": -76.99733116666667, "fusion_lon": 0.0, "is_reserved": 0, "fusion_lat": 0.0, "rental_uris": {"android": "https://dc.lft.to/lastmile_qr_scan", "ios": "https://dc.lft.to/lastmile_qr_scan"}, "type": "electric_scooter", "name": "aef72121bcec4c1bd73820f4a4c07455"}, {"bike_id": "30673de09f11558774bd6cbbb25ffd1e", "lat": 38.91632416666667, "is_disabled": 0, "lon": -77.02172366666667, "fusion_lon": 0.0, "is_reserved": 0, "fusion_lat": 0.0, "rental_uris": {"android": "https://dc.lft.to/lastmile_qr_scan", "ios": "https://dc.lft.to/lastmile_qr_scan"}, "type": "electric_scooter", "name": "30673de09f11558774bd6cbbb25ffd1e"}, {"bike_id": "548c34dfda1ba8d43b0415666c41e241", "lat": 38.9678335, "is_disabled": 0, "lon": -76.96261666666666, "fusion_lon": 0.0, "is_reserved": 0, "fusion_lat": 0.0, "rental_uris": {"android": "https://dc.lft.to/lastmile_qr_scan", "ios": "https://dc.lft.to/lastmile_qr_scan"}, "type": "electric_bike", "name": "548c34dfda1ba8d43b0415666c41e241"}, {"bike_id": "12e7c1857daf6e2214a9c926d53f0d1f", "lat": 38.891009833333335, "is_disabled": 0, "lon": -76.934826, "fusion_lon": 0.0, "is_reserved": 0, "fusion_lat": 0.0, "rental_uris": {"android": "https://dc.lft.to/lastmile_qr_scan", "ios": "https://dc.lft.to/lastmile_qr_scan"}, "type": "electric_bike", "name": "12e7c1857daf6e2214a9c926d53f0d1f"}, {"bike_id": "9811af298422d69077ea5df8c5ad1e8e", "lat": 38.89590666666667, "is_disabled": 0, "lon": -77.02972516666667, "fusion_lon": 0.0, "is_reserved": 0, "fusion_lat": 0.0, "rental_uris": {"android": "https://dc.lft.to/lastmile_qr_scan", "ios": "https://dc.lft.to/lastmile_qr_scan"}, "type": "electric_scooter", "name": "9811af298422d69077ea5df8c5ad1e8e"}, {"bike_id": "e5e3909c025cd11186d9de45f1d0cf3d", "lat": 38.92297816666667, "is_disabled": 0, "lon": -76.99376733333334, "fusion_lon": 0.0, "is_reserved": 0, "fusion_lat": 0.0, "rental_uris": {"android": "https://dc.lft.to/lastmile_qr_scan", "ios": "https://dc.lft.to/lastmile_qr_scan"}, "type": "electric_bike", "name": "e5e3909c025cd11186d9de45f1d0cf3d"}, {"bike_id": "45f31113fc181ff0d037e9b89ecbc222", "lat": 38.89956733333333, "is_disabled": 0, "lon": -77.04655216666667, "fusion_lon": 0.0, "is_reserved": 0, "fusion_lat": 0.0, "rental_uris": {"android": "https://dc.lft.to/lastmile_qr_scan", "ios": "https://dc.lft.to/lastmile_qr_scan"}, "type": "electric_scooter", "name": "45f31113fc181ff0d037e9b89ecbc222"}, {"bike_id": "d69aaff8b7bafac83595b2a901283f57", "lat": 38.86023683333333, "is_disabled": 0, "lon": -76.9700275, "fusion_lon": 0.0, "is_reserved": 0, "fusion_lat": 0.0, "rental_uris": {"android": "https://dc.lft.to/lastmile_qr_scan", "ios": "https://dc.lft.to/lastmile_qr_scan"}, "type": "electric_scooter", "name": "d69aaff8b7bafac83595b2a901283f57"}, {"bike_id": "da7796bf65024b9bd06dcbb70c381120", "lat": 38.944759833333336, "is_disabled": 0, "lon": -76.9867925, "fusion_lon": 0.0, "is_reserved": 0, "fusion_lat": 0.0, "rental_uris": {"android": "https://dc.lft.to/lastmile_qr_scan", "ios": "https://dc.lft.to/lastmile_qr_scan"}, "type": "electric_bike", "name": "da7796bf65024b9bd06dcbb70c381120"}, {"bike_id": "4e59b3322938062ffa062f7e7e7edb6c", "lat": 38.90252783333333, "is_disabled": 0, "lon": -77.0388745, "fusion_lon": 0.0, "is_reserved": 0, "fusion_lat": 0.0, "rental_uris": {"android": "https://dc.lft.to/lastmile_qr_scan", "ios": "https://dc.lft.to/lastmile_qr_scan"}, "type": "electric_scooter", "name": "4e59b3322938062ffa062f7e7e7edb6c"}, {"bike_id": "3e175591958cf59c3181090a71399162", "lat": 38.9014975, "is_disabled": 0, "lon": -77.05124933333333, "fusion_lon": 0.0, "is_reserved": 0, "fusion_lat": 0.0, "rental_uris": {"android": "https://dc.lft.to/lastmile_qr_scan", "ios": "https://dc.lft.to/lastmile_qr_scan"}, "type": "electric_scooter", "name": "3e175591958cf59c3181090a71399162"}, {"bike_id": "9085471166ebb17bb7b7ac8d6e29b29c", "lat": 38.8385855, "is_disabled": 0, "lon": -76.9969925, "fusion_lon": 0.0, "is_reserved": 0, "fusion_lat": 0.0, "rental_uris": {"android": "https://dc.lft.to/lastmile_qr_scan", "ios": "https://dc.lft.to/lastmile_qr_scan"}, "type": "electric_bike", "name": "9085471166ebb17bb7b7ac8d6e29b29c"}, {"bike_id": "8feec0dcfc482fa995ad2f0968747cf7", "lat": 38.892269666666664, "is_disabled": 0, "lon": -77.02622766666667, "fusion_lon": 0.0, "is_reserved": 0, "fusion_lat": 0.0, "rental_uris": {"android": "https://dc.lft.to/lastmile_qr_scan", "ios": "https://dc.lft.to/lastmile_qr_scan"}, "type": "electric_scooter", "name": "8feec0dcfc482fa995ad2f0968747cf7"}, {"bike_id": "357e0b60575fcb04a8bacbae893b08c9", "lat": 38.97254483333333, "is_disabled": 0, "lon": -76.99276616666667, "fusion_lon": 0.0, "is_reserved": 0, "fusion_lat": 0.0, "rental_uris": {"android": "https://dc.lft.to/lastmile_qr_scan", "ios": "https://dc.lft.to/lastmile_qr_scan"}, "type": "electric_bike", "name": "357e0b60575fcb04a8bacbae893b08c9"}, {"bike_id": "7f91598bdad5549cb2192338ac28f942", "lat": 38.9199325, "is_disabled": 0, "lon": -77.03883366666666, "fusion_lon": 0.0, "is_reserved": 0, "fusion_lat": 0.0, "rental_uris": {"android": "https://dc.lft.to/lastmile_qr_scan", "ios": "https://dc.lft.to/lastmile_qr_scan"}, "type": "electric_scooter", "name": "7f91598bdad5549cb2192338ac28f942"}, {"bike_id": "57aedcd703fc878ff341ffba858b0b7a", "lat": 38.8922165, "is_disabled": 0, "lon": -77.02775933333334, "fusion_lon": 0.0, "is_reserved": 0, "fusion_lat": 0.0, "rental_uris": {"android": "https://dc.lft.to/lastmile_qr_scan", "ios": "https://dc.lft.to/lastmile_qr_scan"}, "type": "electric_scooter", "name": "57aedcd703fc878ff341ffba858b0b7a"}, {"bike_id": "628c4194f88cf3648030f1e60431ecc7", "lat": 38.895452, "is_disabled": 0, "lon": -76.98337016666666, "fusion_lon": 0.0, "is_reserved": 0, "fusion_lat": 0.0, "rental_uris": {"android": "https://dc.lft.to/lastmile_qr_scan", "ios": "https://dc.lft.to/lastmile_qr_scan"}, "type": "electric_scooter", "name": "628c4194f88cf3648030f1e60431ecc7"}, {"bike_id": "c5ae2c43c302a6bcd2e02307f044727c", "lat": 38.88800916666667, "is_disabled": 0, "lon": -77.093042, "fusion_lon": 0.0, "is_reserved": 0, "fusion_lat": 0.0, "rental_uris": {"android": "https://dc.lft.to/lastmile_qr_scan", "ios": "https://dc.lft.to/lastmile_qr_scan"}, "type": "electric_bike", "name": "c5ae2c43c302a6bcd2e02307f044727c"}, {"bike_id": "3edc4ddf132eca38f00ce28a37ccac18", "lat": 38.93879666666667, "is_disabled": 0, "lon": -77.03284083333334, "fusion_lon": 0.0, "is_reserved": 0, "fusion_lat": 0.0, "rental_uris": {"android": "https://dc.lft.to/lastmile_qr_scan", "ios": "https://dc.lft.to/lastmile_qr_scan"}, "type": "electric_scooter", "name": "3edc4ddf132eca38f00ce28a37ccac18"}, {"bike_id": "905cd264dc664ea35479b808753a0c45", "lat": 38.9323805, "is_disabled": 0, "lon": -77.03855033333333, "fusion_lon": 0.0, "is_reserved": 0, "fusion_lat": 0.0, "rental_uris": {"android": "https://dc.lft.to/lastmile_qr_scan", "ios": "https://dc.lft.to/lastmile_qr_scan"}, "type": "electric_scooter", "name": "905cd264dc664ea35479b808753a0c45"}, {"bike_id": "7c2054016d184d545f237b59c2ce3561", "lat": 38.955621, "is_disabled": 0, "lon": -77.07451083333333, "fusion_lon": 0.0, "is_reserved": 0, "fusion_lat": 0.0, "rental_uris": {"android": "https://dc.lft.to/lastmile_qr_scan", "ios": "https://dc.lft.to/lastmile_qr_scan"}, "type": "electric_scooter", "name": "7c2054016d184d545f237b59c2ce3561"}, {"bike_id": "68dc3bde4af2d37b5c85cd95d9c54b46", "lat": 38.920443, "is_disabled": 0, "lon": -77.04189966666667, "fusion_lon": 0.0, "is_reserved": 0, "fusion_lat": 0.0, "rental_uris": {"android": "https://dc.lft.to/lastmile_qr_scan", "ios": "https://dc.lft.to/lastmile_qr_scan"}, "type": "electric_scooter", "name": "68dc3bde4af2d37b5c85cd95d9c54b46"}, {"bike_id": "9834545d794b8a70383848e9bf36d841", "lat": 38.8998935, "is_disabled": 0, "lon": -77.031667, "fusion_lon": 0.0, "is_reserved": 0, "fusion_lat": 0.0, "rental_uris": {"android": "https://dc.lft.to/lastmile_qr_scan", "ios": "https://dc.lft.to/lastmile_qr_scan"}, "type": "electric_scooter", "name": "9834545d794b8a70383848e9bf36d841"}, {"bike_id": "a9a2066632ee6af1dd1dd25d1545c917", "lat": 38.918035333333336, "is_disabled": 0, "lon": -77.03434283333333, "fusion_lon": 0.0, "is_reserved": 0, "fusion_lat": 0.0, "rental_uris": {"android": "https://dc.lft.to/lastmile_qr_scan", "ios": "https://dc.lft.to/lastmile_qr_scan"}, "type": "electric_scooter", "name": "a9a2066632ee6af1dd1dd25d1545c917"}, {"bike_id": "4f44817c902f3c4305b80b6475aa0ca8", "lat": 38.86492966666667, "is_disabled": 0, "lon": -76.989866, "fusion_lon": 0.0, "is_reserved": 0, "fusion_lat": 0.0, "rental_uris": {"android": "https://dc.lft.to/lastmile_qr_scan", "ios": "https://dc.lft.to/lastmile_qr_scan"}, "type": "electric_scooter", "name": "4f44817c902f3c4305b80b6475aa0ca8"}, {"bike_id": "d60c473abe56e4567689b3d30dc99951", "lat": 38.916459, "is_disabled": 0, "lon": -77.04770483333333, "fusion_lon": 0.0, "is_reserved": 0, "fusion_lat": 0.0, "rental_uris": {"android": "https://dc.lft.to/lastmile_qr_scan", "ios": "https://dc.lft.to/lastmile_qr_scan"}, "type": "electric_scooter", "name": "d60c473abe56e4567689b3d30dc99951"}, {"bike_id": "63e0942c064f53426096ccb0ed90b6c5", "lat": 38.88713883333333, "is_disabled": 0, "lon": -77.0220565, "fusion_lon": 0.0, "is_reserved": 0, "fusion_lat": 0.0, "rental_uris": {"android": "https://dc.lft.to/lastmile_qr_scan", "ios": "https://dc.lft.to/lastmile_qr_scan"}, "type": "electric_scooter", "name": "63e0942c064f53426096ccb0ed90b6c5"}, {"bike_id": "afb469231f8257cba82a308f724370ed", "lat": 38.920532, "is_disabled": 0, "lon": -77.04199366666667, "fusion_lon": 0.0, "is_reserved": 0, "fusion_lat": 0.0, "rental_uris": {"android": "https://dc.lft.to/lastmile_qr_scan", "ios": "https://dc.lft.to/lastmile_qr_scan"}, "type": "electric_scooter", "name": "afb469231f8257cba82a308f724370ed"}, {"bike_id": "dd824d010af9e1d991626f0fdc886006", "lat": 38.916341333333335, "is_disabled": 0, "lon": -77.0320445, "fusion_lon": 0.0, "is_reserved": 0, "fusion_lat": 0.0, "rental_uris": {"android": "https://dc.lft.to/lastmile_qr_scan", "ios": "https://dc.lft.to/lastmile_qr_scan"}, "type": "electric_scooter", "name": "dd824d010af9e1d991626f0fdc886006"}, {"bike_id": "aaa5a7ec2f358656ddfb40a9fa200f7c", "lat": 38.9002055, "is_disabled": 0, "lon": -77.0118195, "fusion_lon": 0.0, "is_reserved": 0, "fusion_lat": 0.0, "rental_uris": {"android": "https://dc.lft.to/lastmile_qr_scan", "ios": "https://dc.lft.to/lastmile_qr_scan"}, "type": "electric_scooter", "name": "aaa5a7ec2f358656ddfb40a9fa200f7c"}, {"bike_id": "67b867762286f2b71bfc24c243f5520c", "lat": 38.886418666666664, "is_disabled": 0, "lon": -76.9821, "fusion_lon": 0.0, "is_reserved": 0, "fusion_lat": 0.0, "rental_uris": {"android": "https://dc.lft.to/lastmile_qr_scan", "ios": "https://dc.lft.to/lastmile_qr_scan"}, "type": "electric_scooter", "name": "67b867762286f2b71bfc24c243f5520c"}, {"bike_id": "b010123269ada3d60c20c13d447065d3", "lat": 38.895346833333335, "is_disabled": 0, "lon": -76.9492195, "fusion_lon": 0.0, "is_reserved": 0, "fusion_lat": 0.0, "rental_uris": {"android": "https://dc.lft.to/lastmile_qr_scan", "ios": "https://dc.lft.to/lastmile_qr_scan"}, "type": "electric_scooter", "name": "b010123269ada3d60c20c13d447065d3"}, {"bike_id": "19c42018462ec244f20ed94a233b3d0a", "lat": 38.926774333333334, "is_disabled": 0, "lon": -77.02299233333333, "fusion_lon": 0.0, "is_reserved": 0, "fusion_lat": 0.0, "rental_uris": {"android": "https://dc.lft.to/lastmile_qr_scan", "ios": "https://dc.lft.to/lastmile_qr_scan"}, "type": "electric_scooter", "name": "19c42018462ec244f20ed94a233b3d0a"}, {"bike_id": "8fa4989ecdef924c569cbd2c5920f28f", "lat": 38.905930833333336, "is_disabled": 0, "lon": -77.07062866666666, "fusion_lon": 0.0, "is_reserved": 0, "fusion_lat": 0.0, "rental_uris": {"android": "https://dc.lft.to/lastmile_qr_scan", "ios": "https://dc.lft.to/lastmile_qr_scan"}, "type": "electric_bike", "name": "8fa4989ecdef924c569cbd2c5920f28f"}, {"bike_id": "b4d7a6478d2f1513cfd01a0a1b86abd6", "lat": 38.92180333333334, "is_disabled": 0, "lon": -77.02104116666666, "fusion_lon": 0.0, "is_reserved": 0, "fusion_lat": 0.0, "rental_uris": {"android": "https://dc.lft.to/lastmile_qr_scan", "ios": "https://dc.lft.to/lastmile_qr_scan"}, "type": "electric_scooter", "name": "b4d7a6478d2f1513cfd01a0a1b86abd6"}, {"bike_id": "042560d510377321dbca14effc6e4304", "lat": 38.9199565, "is_disabled": 0, "lon": -76.95818533333333, "fusion_lon": 0.0, "is_reserved": 0, "fusion_lat": 0.0, "rental_uris": {"android": "https://dc.lft.to/lastmile_qr_scan", "ios": "https://dc.lft.to/lastmile_qr_scan"}, "type": "electric_bike", "name": "042560d510377321dbca14effc6e4304"}, {"bike_id": "04f8a0dfe0f4e4525465447b78bd92dc", "lat": 38.94633833333333, "is_disabled": 0, "lon": -76.99311433333334, "fusion_lon": 0.0, "is_reserved": 0, "fusion_lat": 0.0, "rental_uris": {"android": "https://dc.lft.to/lastmile_qr_scan", "ios": "https://dc.lft.to/lastmile_qr_scan"}, "type": "electric_bike", "name": "04f8a0dfe0f4e4525465447b78bd92dc"}, {"bike_id": "69bcd20be8289d4d177ac553f3374f90", "lat": 38.921375833333336, "is_disabled": 0, "lon": -77.01861016666666, "fusion_lon": 0.0, "is_reserved": 0, "fusion_lat": 0.0, "rental_uris": {"android": "https://dc.lft.to/lastmile_qr_scan", "ios": "https://dc.lft.to/lastmile_qr_scan"}, "type": "electric_scooter", "name": "69bcd20be8289d4d177ac553f3374f90"}, {"bike_id": "dfc0dc462a58fbbcab7ff25d49b4c6c6", "lat": 38.892604166666665, "is_disabled": 0, "lon": -77.003728, "fusion_lon": 0.0, "is_reserved": 0, "fusion_lat": 0.0, "rental_uris": {"android": "https://dc.lft.to/lastmile_qr_scan", "ios": "https://dc.lft.to/lastmile_qr_scan"}, "type": "electric_scooter", "name": "dfc0dc462a58fbbcab7ff25d49b4c6c6"}, {"bike_id": "32ebbfed821ccc6395a25f25d4075526", "lat": 38.90727916666667, "is_disabled": 0, "lon": -76.979839, "fusion_lon": 0.0, "is_reserved": 0, "fusion_lat": 0.0, "rental_uris": {"android": "https://dc.lft.to/lastmile_qr_scan", "ios": "https://dc.lft.to/lastmile_qr_scan"}, "type": "electric_scooter", "name": "32ebbfed821ccc6395a25f25d4075526"}, {"bike_id": "97418e828c9877af9235d31d962f0178", "lat": 38.927142333333336, "is_disabled": 0, "lon": -77.02095833333334, "fusion_lon": 0.0, "is_reserved": 0, "fusion_lat": 0.0, "rental_uris": {"android": "https://dc.lft.to/lastmile_qr_scan", "ios": "https://dc.lft.to/lastmile_qr_scan"}, "type": "electric_scooter", "name": "97418e828c9877af9235d31d962f0178"}, {"bike_id": "d9b183f3ee74eeb89b8a0471a416ae6f", "lat": 38.914063, "is_disabled": 0, "lon": -77.03911466666666, "fusion_lon": 0.0, "is_reserved": 0, "fusion_lat": 0.0, "rental_uris": {"android": "https://dc.lft.to/lastmile_qr_scan", "ios": "https://dc.lft.to/lastmile_qr_scan"}, "type": "electric_scooter", "name": "d9b183f3ee74eeb89b8a0471a416ae6f"}, {"bike_id": "11906cbf2b7212d402db61011eb3c653", "lat": 38.92364366666666, "is_disabled": 0, "lon": -77.0209865, "fusion_lon": 0.0, "is_reserved": 0, "fusion_lat": 0.0, "rental_uris": {"android": "https://dc.lft.to/lastmile_qr_scan", "ios": "https://dc.lft.to/lastmile_qr_scan"}, "type": "electric_scooter", "name": "11906cbf2b7212d402db61011eb3c653"}, {"bike_id": "4063ffc9349e0a4253e9b3732d32c6d5", "lat": 38.923345166666664, "is_disabled": 0, "lon": -77.03514416666667, "fusion_lon": 0.0, "is_reserved": 0, "fusion_lat": 0.0, "rental_uris": {"android": "https://dc.lft.to/lastmile_qr_scan", "ios": "https://dc.lft.to/lastmile_qr_scan"}, "type": "electric_scooter", "name": "4063ffc9349e0a4253e9b3732d32c6d5"}, {"bike_id": "270fcc8bb5e133b284f51019e6a36a4c", "lat": 38.9140275, "is_disabled": 0, "lon": -77.03228383333334, "fusion_lon": 0.0, "is_reserved": 0, "fusion_lat": 0.0, "rental_uris": {"android": "https://dc.lft.to/lastmile_qr_scan", "ios": "https://dc.lft.to/lastmile_qr_scan"}, "type": "electric_scooter", "name": "270fcc8bb5e133b284f51019e6a36a4c"}, {"bike_id": "b6a501f7cebfc34d558eb0aef24692c8", "lat": 38.92232466666667, "is_disabled": 0, "lon": -77.04272683333333, "fusion_lon": 0.0, "is_reserved": 0, "fusion_lat": 0.0, "rental_uris": {"android": "https://dc.lft.to/lastmile_qr_scan", "ios": "https://dc.lft.to/lastmile_qr_scan"}, "type": "electric_bike", "name": "b6a501f7cebfc34d558eb0aef24692c8"}, {"bike_id": "af7c8228f81cf9d04fe3b36e6920afd9", "lat": 38.8947895, "is_disabled": 0, "lon": -77.0190375, "fusion_lon": 0.0, "is_reserved": 0, "fusion_lat": 0.0, "rental_uris": {"android": "https://dc.lft.to/lastmile_qr_scan", "ios": "https://dc.lft.to/lastmile_qr_scan"}, "type": "electric_scooter", "name": "af7c8228f81cf9d04fe3b36e6920afd9"}, {"bike_id": "98c13229035228d9c6819946c1528c2b", "lat": 38.886931833333335, "is_disabled": 0, "lon": -76.94033, "fusion_lon": 0.0, "is_reserved": 0, "fusion_lat": 0.0, "rental_uris": {"android": "https://dc.lft.to/lastmile_qr_scan", "ios": "https://dc.lft.to/lastmile_qr_scan"}, "type": "electric_scooter", "name": "98c13229035228d9c6819946c1528c2b"}, {"bike_id": "0df8f736b526633b516548afe1e36b22", "lat": 38.917245, "is_disabled": 0, "lon": -77.04166683333334, "fusion_lon": 0.0, "is_reserved": 0, "fusion_lat": 0.0, "rental_uris": {"android": "https://dc.lft.to/lastmile_qr_scan", "ios": "https://dc.lft.to/lastmile_qr_scan"}, "type": "electric_scooter", "name": "0df8f736b526633b516548afe1e36b22"}, {"bike_id": "6f19cfbf8a1a503b2cac4ea18be5863f", "lat": 38.876615, "is_disabled": 0, "lon": -77.0094345, "fusion_lon": 0.0, "is_reserved": 0, "fusion_lat": 0.0, "rental_uris": {"android": "https://dc.lft.to/lastmile_qr_scan", "ios": "https://dc.lft.to/lastmile_qr_scan"}, "type": "electric_scooter", "name": "6f19cfbf8a1a503b2cac4ea18be5863f"}, {"bike_id": "87878e4396120d04b6504d235d2a713c", "lat": 38.90410633333333, "is_disabled": 0, "lon": -77.02967066666666, "fusion_lon": 0.0, "is_reserved": 0, "fusion_lat": 0.0, "rental_uris": {"android": "https://dc.lft.to/lastmile_qr_scan", "ios": "https://dc.lft.to/lastmile_qr_scan"}, "type": "electric_scooter", "name": "87878e4396120d04b6504d235d2a713c"}, {"bike_id": "2e3729432ad886297ff5fd8678027c3c", "lat": 38.90498783333334, "is_disabled": 0, "lon": -77.04343433333334, "fusion_lon": 0.0, "is_reserved": 0, "fusion_lat": 0.0, "rental_uris": {"android": "https://dc.lft.to/lastmile_qr_scan", "ios": "https://dc.lft.to/lastmile_qr_scan"}, "type": "electric_scooter", "name": "2e3729432ad886297ff5fd8678027c3c"}, {"bike_id": "0cfbe034f8addc208bd3e68552a8980d", "lat": 38.909774666666664, "is_disabled": 0, "lon": -77.00683766666667, "fusion_lon": 0.0, "is_reserved": 0, "fusion_lat": 0.0, "rental_uris": {"android": "https://dc.lft.to/lastmile_qr_scan", "ios": "https://dc.lft.to/lastmile_qr_scan"}, "type": "electric_scooter", "name": "0cfbe034f8addc208bd3e68552a8980d"}, {"bike_id": "6f7b39a037d5989b2175f3a67419cf95", "lat": 38.892237333333334, "is_disabled": 0, "lon": -77.026174, "fusion_lon": 0.0, "is_reserved": 0, "fusion_lat": 0.0, "rental_uris": {"android": "https://dc.lft.to/lastmile_qr_scan", "ios": "https://dc.lft.to/lastmile_qr_scan"}, "type": "electric_scooter", "name": "6f7b39a037d5989b2175f3a67419cf95"}, {"bike_id": "ad5ec316c119d08c8faf6b5b1578ff5c", "lat": 38.87383916666667, "is_disabled": 0, "lon": -77.00130266666666, "fusion_lon": 0.0, "is_reserved": 0, "fusion_lat": 0.0, "rental_uris": {"android": "https://dc.lft.to/lastmile_qr_scan", "ios": "https://dc.lft.to/lastmile_qr_scan"}, "type": "electric_scooter", "name": "ad5ec316c119d08c8faf6b5b1578ff5c"}, {"bike_id": "ca218aeb2eb98ff0e3b861eca354c21d", "lat": 38.9339425, "is_disabled": 0, "lon": -77.05742966666666, "fusion_lon": 0.0, "is_reserved": 0, "fusion_lat": 0.0, "rental_uris": {"android": "https://dc.lft.to/lastmile_qr_scan", "ios": "https://dc.lft.to/lastmile_qr_scan"}, "type": "electric_scooter", "name": "ca218aeb2eb98ff0e3b861eca354c21d"}, {"bike_id": "00c092d8f6bc6d54349b46295c4183c0", "lat": 38.898060666666666, "is_disabled": 0, "lon": -76.97952233333334, "fusion_lon": 0.0, "is_reserved": 0, "fusion_lat": 0.0, "rental_uris": {"android": "https://dc.lft.to/lastmile_qr_scan", "ios": "https://dc.lft.to/lastmile_qr_scan"}, "type": "electric_scooter", "name": "00c092d8f6bc6d54349b46295c4183c0"}, {"bike_id": "771459d20931f9a67caff81ad458178e", "lat": 38.89961, "is_disabled": 0, "lon": -77.02097266666667, "fusion_lon": 0.0, "is_reserved": 0, "fusion_lat": 0.0, "rental_uris": {"android": "https://dc.lft.to/lastmile_qr_scan", "ios": "https://dc.lft.to/lastmile_qr_scan"}, "type": "electric_scooter", "name": "771459d20931f9a67caff81ad458178e"}, {"bike_id": "ad2a8f96ae3dc7402e32d43db9ff6814", "lat": 38.910611333333335, "is_disabled": 0, "lon": -77.0438485, "fusion_lon": 0.0, "is_reserved": 0, "fusion_lat": 0.0, "rental_uris": {"android": "https://dc.lft.to/lastmile_qr_scan", "ios": "https://dc.lft.to/lastmile_qr_scan"}, "type": "electric_scooter", "name": "ad2a8f96ae3dc7402e32d43db9ff6814"}, {"bike_id": "3e3a98620734089823a0727d99f3c50c", "lat": 38.873829, "is_disabled": 0, "lon": -77.001289, "fusion_lon": 0.0, "is_reserved": 0, "fusion_lat": 0.0, "rental_uris": {"android": "https://dc.lft.to/lastmile_qr_scan", "ios": "https://dc.lft.to/lastmile_qr_scan"}, "type": "electric_scooter", "name": "3e3a98620734089823a0727d99f3c50c"}, {"bike_id": "58261624defe113732118d5a3528c895", "lat": 38.90960233333333, "is_disabled": 0, "lon": -77.00745383333333, "fusion_lon": 0.0, "is_reserved": 0, "fusion_lat": 0.0, "rental_uris": {"android": "https://dc.lft.to/lastmile_qr_scan", "ios": "https://dc.lft.to/lastmile_qr_scan"}, "type": "electric_scooter", "name": "58261624defe113732118d5a3528c895"}, {"bike_id": "395f295af44fc2ec33059625edbf058c", "lat": 38.90645583333333, "is_disabled": 0, "lon": -77.0467685, "fusion_lon": 0.0, "is_reserved": 0, "fusion_lat": 0.0, "rental_uris": {"android": "https://dc.lft.to/lastmile_qr_scan", "ios": "https://dc.lft.to/lastmile_qr_scan"}, "type": "electric_scooter", "name": "395f295af44fc2ec33059625edbf058c"}, {"bike_id": "85b841c02283678f954195be1210e122", "lat": 38.9199065, "is_disabled": 0, "lon": -77.03202916666666, "fusion_lon": 0.0, "is_reserved": 0, "fusion_lat": 0.0, "rental_uris": {"android": "https://dc.lft.to/lastmile_qr_scan", "ios": "https://dc.lft.to/lastmile_qr_scan"}, "type": "electric_scooter", "name": "85b841c02283678f954195be1210e122"}, {"bike_id": "ea47574ebe77079720bc5774590b64de", "lat": 38.89229566666667, "is_disabled": 0, "lon": -77.04160716666667, "fusion_lon": 0.0, "is_reserved": 0, "fusion_lat": 0.0, "rental_uris": {"android": "https://dc.lft.to/lastmile_qr_scan", "ios": "https://dc.lft.to/lastmile_qr_scan"}, "type": "electric_scooter", "name": "ea47574ebe77079720bc5774590b64de"}, {"bike_id": "f00e1008ff1d75eb381cf18d4931d661", "lat": 38.922500166666666, "is_disabled": 0, "lon": -77.01951366666667, "fusion_lon": 0.0, "is_reserved": 0, "fusion_lat": 0.0, "rental_uris": {"android": "https://dc.lft.to/lastmile_qr_scan", "ios": "https://dc.lft.to/lastmile_qr_scan"}, "type": "electric_scooter", "name": "f00e1008ff1d75eb381cf18d4931d661"}, {"bike_id": "420463b8057b3935aec6512414625277", "lat": 38.928737, "is_disabled": 0, "lon": -77.03230566666667, "fusion_lon": 0.0, "is_reserved": 0, "fusion_lat": 0.0, "rental_uris": {"android": "https://dc.lft.to/lastmile_qr_scan", "ios": "https://dc.lft.to/lastmile_qr_scan"}, "type": "electric_scooter", "name": "420463b8057b3935aec6512414625277"}, {"bike_id": "a036e159fb612cb01a035b6a0d1d91b4", "lat": 38.9008315, "is_disabled": 0, "lon": -77.04776216666667, "fusion_lon": 0.0, "is_reserved": 0, "fusion_lat": 0.0, "rental_uris": {"android": "https://dc.lft.to/lastmile_qr_scan", "ios": "https://dc.lft.to/lastmile_qr_scan"}, "type": "electric_scooter", "name": "a036e159fb612cb01a035b6a0d1d91b4"}, {"bike_id": "5145b26dc44f266d9ddb3f6471b4832f", "lat": 38.90296883333333, "is_disabled": 0, "lon": -77.02887083333333, "fusion_lon": 0.0, "is_reserved": 0, "fusion_lat": 0.0, "rental_uris": {"android": "https://dc.lft.to/lastmile_qr_scan", "ios": "https://dc.lft.to/lastmile_qr_scan"}, "type": "electric_scooter", "name": "5145b26dc44f266d9ddb3f6471b4832f"}, {"bike_id": "26640734a6b3890cb91613f0e8cb6aff", "lat": 38.89362666666667, "is_disabled": 0, "lon": -77.02201433333333, "fusion_lon": 0.0, "is_reserved": 0, "fusion_lat": 0.0, "rental_uris": {"android": "https://dc.lft.to/lastmile_qr_scan", "ios": "https://dc.lft.to/lastmile_qr_scan"}, "type": "electric_scooter", "name": "26640734a6b3890cb91613f0e8cb6aff"}, {"bike_id": "14107ad4a2b4712503c408951924a70a", "lat": 38.90517916666667, "is_disabled": 0, "lon": -77.04573283333333, "fusion_lon": 0.0, "is_reserved": 0, "fusion_lat": 0.0, "rental_uris": {"android": "https://dc.lft.to/lastmile_qr_scan", "ios": "https://dc.lft.to/lastmile_qr_scan"}, "type": "electric_scooter", "name": "14107ad4a2b4712503c408951924a70a"}, {"bike_id": "752e0918b9f9ca3c42ac6e61171842c5", "lat": 38.92717016666667, "is_disabled": 0, "lon": -77.0209405, "fusion_lon": 0.0, "is_reserved": 0, "fusion_lat": 0.0, "rental_uris": {"android": "https://dc.lft.to/lastmile_qr_scan", "ios": "https://dc.lft.to/lastmile_qr_scan"}, "type": "electric_scooter", "name": "752e0918b9f9ca3c42ac6e61171842c5"}, {"bike_id": "c2f7a17bd023da773f48cf2a9559de7c", "lat": 38.831587, "is_disabled": 0, "lon": -76.9957025, "fusion_lon": 0.0, "is_reserved": 0, "fusion_lat": 0.0, "rental_uris": {"android": "https://dc.lft.to/lastmile_qr_scan", "ios": "https://dc.lft.to/lastmile_qr_scan"}, "type": "electric_bike", "name": "c2f7a17bd023da773f48cf2a9559de7c"}, {"bike_id": "edbd6c2533c9b28b4e2c0cbdb3b767bc", "lat": 38.897397, "is_disabled": 0, "lon": -77.0553505, "fusion_lon": 0.0, "is_reserved": 0, "fusion_lat": 0.0, "rental_uris": {"android": "https://dc.lft.to/lastmile_qr_scan", "ios": "https://dc.lft.to/lastmile_qr_scan"}, "type": "electric_scooter", "name": "edbd6c2533c9b28b4e2c0cbdb3b767bc"}, {"bike_id": "3a5f362536a67dd4258cf24853775266", "lat": 38.907038, "is_disabled": 0, "lon": -77.04012416666667, "fusion_lon": 0.0, "is_reserved": 0, "fusion_lat": 0.0, "rental_uris": {"android": "https://dc.lft.to/lastmile_qr_scan", "ios": "https://dc.lft.to/lastmile_qr_scan"}, "type": "electric_scooter", "name": "3a5f362536a67dd4258cf24853775266"}, {"bike_id": "34bfc81bce7ecbae98fe7a4b8b1d81ef", "lat": 38.87835883333333, "is_disabled": 0, "lon": -77.00036216666666, "fusion_lon": 0.0, "is_reserved": 0, "fusion_lat": 0.0, "rental_uris": {"android": "https://dc.lft.to/lastmile_qr_scan", "ios": "https://dc.lft.to/lastmile_qr_scan"}, "type": "electric_scooter", "name": "34bfc81bce7ecbae98fe7a4b8b1d81ef"}, {"bike_id": "ab0bd21f474227509a05551907eef034", "lat": 38.932172333333334, "is_disabled": 0, "lon": -77.03885933333333, "fusion_lon": 0.0, "is_reserved": 0, "fusion_lat": 0.0, "rental_uris": {"android": "https://dc.lft.to/lastmile_qr_scan", "ios": "https://dc.lft.to/lastmile_qr_scan"}, "type": "electric_scooter", "name": "ab0bd21f474227509a05551907eef034"}, {"bike_id": "0034e45442ffdc66bd8f286cf8d8ce5f", "lat": 38.8757615, "is_disabled": 0, "lon": -77.23409316666667, "fusion_lon": 0.0, "is_reserved": 0, "fusion_lat": 0.0, "rental_uris": {"android": "https://dc.lft.to/lastmile_qr_scan", "ios": "https://dc.lft.to/lastmile_qr_scan"}, "type": "electric_bike", "name": "0034e45442ffdc66bd8f286cf8d8ce5f"}, {"bike_id": "8673cc3e8c3828726b4f7306050d17b5", "lat": 38.909074833333335, "is_disabled": 0, "lon": -77.0438885, "fusion_lon": 0.0, "is_reserved": 0, "fusion_lat": 0.0, "rental_uris": {"android": "https://dc.lft.to/lastmile_qr_scan", "ios": "https://dc.lft.to/lastmile_qr_scan"}, "type": "electric_scooter", "name": "8673cc3e8c3828726b4f7306050d17b5"}, {"bike_id": "ead3c83bddcde8fe0d4d04d7a6cb66f9", "lat": 38.92103216666667, "is_disabled": 0, "lon": -77.0470075, "fusion_lon": 0.0, "is_reserved": 0, "fusion_lat": 0.0, "rental_uris": {"android": "https://dc.lft.to/lastmile_qr_scan", "ios": "https://dc.lft.to/lastmile_qr_scan"}, "type": "electric_scooter", "name": "ead3c83bddcde8fe0d4d04d7a6cb66f9"}, {"bike_id": "ab492ac75c19255450670a6b64777547", "lat": 38.90046133333333, "is_disabled": 0, "lon": -76.99839483333334, "fusion_lon": 0.0, "is_reserved": 0, "fusion_lat": 0.0, "rental_uris": {"android": "https://dc.lft.to/lastmile_qr_scan", "ios": "https://dc.lft.to/lastmile_qr_scan"}, "type": "electric_scooter", "name": "ab492ac75c19255450670a6b64777547"}, {"bike_id": "0b62dbfe8c07ecc4e3679182db5a6bc1", "lat": 38.9237905, "is_disabled": 0, "lon": -77.03785033333334, "fusion_lon": 0.0, "is_reserved": 0, "fusion_lat": 0.0, "rental_uris": {"android": "https://dc.lft.to/lastmile_qr_scan", "ios": "https://dc.lft.to/lastmile_qr_scan"}, "type": "electric_scooter", "name": "0b62dbfe8c07ecc4e3679182db5a6bc1"}, {"bike_id": "9e7898b4506054e60aa4c431b6abab0c", "lat": 38.9181615, "is_disabled": 0, "lon": -77.02890783333334, "fusion_lon": 0.0, "is_reserved": 0, "fusion_lat": 0.0, "rental_uris": {"android": "https://dc.lft.to/lastmile_qr_scan", "ios": "https://dc.lft.to/lastmile_qr_scan"}, "type": "electric_scooter", "name": "9e7898b4506054e60aa4c431b6abab0c"}, {"bike_id": "877a0588b1e447b102b85dbbaf70d18c", "lat": 38.95236833333333, "is_disabled": 0, "lon": -77.00276116666667, "fusion_lon": 0.0, "is_reserved": 0, "fusion_lat": 0.0, "rental_uris": {"android": "https://dc.lft.to/lastmile_qr_scan", "ios": "https://dc.lft.to/lastmile_qr_scan"}, "type": "electric_scooter", "name": "877a0588b1e447b102b85dbbaf70d18c"}, {"bike_id": "4815927e1154e5cd2645d85e78fdb937", "lat": 38.917016333333336, "is_disabled": 0, "lon": -77.03336533333334, "fusion_lon": 0.0, "is_reserved": 0, "fusion_lat": 0.0, "rental_uris": {"android": "https://dc.lft.to/lastmile_qr_scan", "ios": "https://dc.lft.to/lastmile_qr_scan"}, "type": "electric_scooter", "name": "4815927e1154e5cd2645d85e78fdb937"}, {"bike_id": "fa1c0c015e10e07838d094c68f441a15", "lat": 38.9203095, "is_disabled": 0, "lon": -77.07163016666667, "fusion_lon": 0.0, "is_reserved": 0, "fusion_lat": 0.0, "rental_uris": {"android": "https://dc.lft.to/lastmile_qr_scan", "ios": "https://dc.lft.to/lastmile_qr_scan"}, "type": "electric_bike", "name": "fa1c0c015e10e07838d094c68f441a15"}, {"bike_id": "50200e063d59c138dc66e858d7b6ff5d", "lat": 38.920579333333336, "is_disabled": 0, "lon": -77.02354183333334, "fusion_lon": 0.0, "is_reserved": 0, "fusion_lat": 0.0, "rental_uris": {"android": "https://dc.lft.to/lastmile_qr_scan", "ios": "https://dc.lft.to/lastmile_qr_scan"}, "type": "electric_scooter", "name": "50200e063d59c138dc66e858d7b6ff5d"}, {"bike_id": "ad9126d189eb64714c11045712b93645", "lat": 38.9156385, "is_disabled": 0, "lon": -77.0200485, "fusion_lon": 0.0, "is_reserved": 0, "fusion_lat": 0.0, "rental_uris": {"android": "https://dc.lft.to/lastmile_qr_scan", "ios": "https://dc.lft.to/lastmile_qr_scan"}, "type": "electric_scooter", "name": "ad9126d189eb64714c11045712b93645"}, {"bike_id": "87ffe77eceaf5bf9a0ac8e31b6e4c41e", "lat": 38.921565666666666, "is_disabled": 0, "lon": -77.03388783333334, "fusion_lon": 0.0, "is_reserved": 0, "fusion_lat": 0.0, "rental_uris": {"android": "https://dc.lft.to/lastmile_qr_scan", "ios": "https://dc.lft.to/lastmile_qr_scan"}, "type": "electric_scooter", "name": "87ffe77eceaf5bf9a0ac8e31b6e4c41e"}, {"bike_id": "50940e0fc95fc3799144f5f5605fd27e", "lat": 38.910628333333335, "is_disabled": 0, "lon": -77.009084, "fusion_lon": 0.0, "is_reserved": 0, "fusion_lat": 0.0, "rental_uris": {"android": "https://dc.lft.to/lastmile_qr_scan", "ios": "https://dc.lft.to/lastmile_qr_scan"}, "type": "electric_scooter", "name": "50940e0fc95fc3799144f5f5605fd27e"}, {"bike_id": "fab60185281ac659b3f43ccbbce639f0", "lat": 38.886993333333336, "is_disabled": 0, "lon": -77.02814516666666, "fusion_lon": 0.0, "is_reserved": 0, "fusion_lat": 0.0, "rental_uris": {"android": "https://dc.lft.to/lastmile_qr_scan", "ios": "https://dc.lft.to/lastmile_qr_scan"}, "type": "electric_scooter", "name": "fab60185281ac659b3f43ccbbce639f0"}, {"bike_id": "96cc9bf33425430ee650f5cd20c3e887", "lat": 38.89222866666667, "is_disabled": 0, "lon": -77.04335266666666, "fusion_lon": 0.0, "is_reserved": 0, "fusion_lat": 0.0, "rental_uris": {"android": "https://dc.lft.to/lastmile_qr_scan", "ios": "https://dc.lft.to/lastmile_qr_scan"}, "type": "electric_scooter", "name": "96cc9bf33425430ee650f5cd20c3e887"}, {"bike_id": "d3b68fcb3df844896fcfbe06e4d80f40", "lat": 38.9206255, "is_disabled": 0, "lon": -77.03248633333334, "fusion_lon": 0.0, "is_reserved": 0, "fusion_lat": 0.0, "rental_uris": {"android": "https://dc.lft.to/lastmile_qr_scan", "ios": "https://dc.lft.to/lastmile_qr_scan"}, "type": "electric_scooter", "name": "d3b68fcb3df844896fcfbe06e4d80f40"}, {"bike_id": "fb7a70da712a8ac68dd9ddb417dd5bad", "lat": 38.89619866666666, "is_disabled": 0, "lon": -76.9073995, "fusion_lon": 0.0, "is_reserved": 0, "fusion_lat": 0.0, "rental_uris": {"android": "https://dc.lft.to/lastmile_qr_scan", "ios": "https://dc.lft.to/lastmile_qr_scan"}, "type": "electric_bike", "name": "fb7a70da712a8ac68dd9ddb417dd5bad"}, {"bike_id": "c7c0ce88d98296c4d5662335fd30854c", "lat": 38.925058166666666, "is_disabled": 0, "lon": -77.038849, "fusion_lon": 0.0, "is_reserved": 0, "fusion_lat": 0.0, "rental_uris": {"android": "https://dc.lft.to/lastmile_qr_scan", "ios": "https://dc.lft.to/lastmile_qr_scan"}, "type": "electric_scooter", "name": "c7c0ce88d98296c4d5662335fd30854c"}, {"bike_id": "a3acf12c87dad576dbbbbf7dc4166d3b", "lat": 38.916624, "is_disabled": 0, "lon": -77.02279966666667, "fusion_lon": 0.0, "is_reserved": 0, "fusion_lat": 0.0, "rental_uris": {"android": "https://dc.lft.to/lastmile_qr_scan", "ios": "https://dc.lft.to/lastmile_qr_scan"}, "type": "electric_scooter", "name": "a3acf12c87dad576dbbbbf7dc4166d3b"}, {"bike_id": "f68c0b0f4a7e42b9f6bda8820f5bfa48", "lat": 38.920832, "is_disabled": 0, "lon": -77.0239685, "fusion_lon": 0.0, "is_reserved": 0, "fusion_lat": 0.0, "rental_uris": {"android": "https://dc.lft.to/lastmile_qr_scan", "ios": "https://dc.lft.to/lastmile_qr_scan"}, "type": "electric_scooter", "name": "f68c0b0f4a7e42b9f6bda8820f5bfa48"}, {"bike_id": "8f14a22486aace33f4cda93fff6beefa", "lat": 38.92297816666667, "is_disabled": 0, "lon": -77.0415225, "fusion_lon": 0.0, "is_reserved": 0, "fusion_lat": 0.0, "rental_uris": {"android": "https://dc.lft.to/lastmile_qr_scan", "ios": "https://dc.lft.to/lastmile_qr_scan"}, "type": "electric_scooter", "name": "8f14a22486aace33f4cda93fff6beefa"}, {"bike_id": "5bc92a7ab8e299599bea39857646250c", "lat": 38.89208566666667, "is_disabled": 0, "lon": -77.03173633333333, "fusion_lon": 0.0, "is_reserved": 0, "fusion_lat": 0.0, "rental_uris": {"android": "https://dc.lft.to/lastmile_qr_scan", "ios": "https://dc.lft.to/lastmile_qr_scan"}, "type": "electric_scooter", "name": "5bc92a7ab8e299599bea39857646250c"}, {"bike_id": "2980ea9918acbf36e8583dbe2ccb45b7", "lat": 38.89826883333333, "is_disabled": 0, "lon": -77.04958016666667, "fusion_lon": 0.0, "is_reserved": 0, "fusion_lat": 0.0, "rental_uris": {"android": "https://dc.lft.to/lastmile_qr_scan", "ios": "https://dc.lft.to/lastmile_qr_scan"}, "type": "electric_scooter", "name": "2980ea9918acbf36e8583dbe2ccb45b7"}, {"bike_id": "1de5801158fb13e5663015db39914248", "lat": 38.8921785, "is_disabled": 0, "lon": -77.04681866666667, "fusion_lon": 0.0, "is_reserved": 0, "fusion_lat": 0.0, "rental_uris": {"android": "https://dc.lft.to/lastmile_qr_scan", "ios": "https://dc.lft.to/lastmile_qr_scan"}, "type": "electric_scooter", "name": "1de5801158fb13e5663015db39914248"}, {"bike_id": "1e29e835e022d6bd2a67601cc937fff6", "lat": 38.830979, "is_disabled": 0, "lon": -76.99403483333333, "fusion_lon": 0.0, "is_reserved": 0, "fusion_lat": 0.0, "rental_uris": {"android": "https://dc.lft.to/lastmile_qr_scan", "ios": "https://dc.lft.to/lastmile_qr_scan"}, "type": "electric_bike", "name": "1e29e835e022d6bd2a67601cc937fff6"}, {"bike_id": "fba42221a5e6cff76e43a6cbae1f0341", "lat": 38.89221233333333, "is_disabled": 0, "lon": -77.032198, "fusion_lon": 0.0, "is_reserved": 0, "fusion_lat": 0.0, "rental_uris": {"android": "https://dc.lft.to/lastmile_qr_scan", "ios": "https://dc.lft.to/lastmile_qr_scan"}, "type": "electric_scooter", "name": "fba42221a5e6cff76e43a6cbae1f0341"}, {"bike_id": "0971434b8230bd742c8843c63db933b7", "lat": 38.8808675, "is_disabled": 0, "lon": -76.98516883333333, "fusion_lon": 0.0, "is_reserved": 0, "fusion_lat": 0.0, "rental_uris": {"android": "https://dc.lft.to/lastmile_qr_scan", "ios": "https://dc.lft.to/lastmile_qr_scan"}, "type": "electric_scooter", "name": "0971434b8230bd742c8843c63db933b7"}, {"bike_id": "0b623798b3116e19f4f0d19a10b5cc44", "lat": 38.924172666666664, "is_disabled": 0, "lon": -77.0355545, "fusion_lon": 0.0, "is_reserved": 0, "fusion_lat": 0.0, "rental_uris": {"android": "https://dc.lft.to/lastmile_qr_scan", "ios": "https://dc.lft.to/lastmile_qr_scan"}, "type": "electric_scooter", "name": "0b623798b3116e19f4f0d19a10b5cc44"}, {"bike_id": "34ede0f1d6c58b020fe0060cb1cddd23", "lat": 38.885258, "is_disabled": 0, "lon": -77.00596883333333, "fusion_lon": 0.0, "is_reserved": 0, "fusion_lat": 0.0, "rental_uris": {"android": "https://dc.lft.to/lastmile_qr_scan", "ios": "https://dc.lft.to/lastmile_qr_scan"}, "type": "electric_scooter", "name": "34ede0f1d6c58b020fe0060cb1cddd23"}, {"bike_id": "dfb8dd20e332a967bf760374e7d70906", "lat": 38.90569166666667, "is_disabled": 0, "lon": -77.0242035, "fusion_lon": 0.0, "is_reserved": 0, "fusion_lat": 0.0, "rental_uris": {"android": "https://dc.lft.to/lastmile_qr_scan", "ios": "https://dc.lft.to/lastmile_qr_scan"}, "type": "electric_scooter", "name": "dfb8dd20e332a967bf760374e7d70906"}, {"bike_id": "ae9ff1969e562dff20511f0dddb63a2e", "lat": 38.905422333333334, "is_disabled": 0, "lon": -77.03252883333333, "fusion_lon": 0.0, "is_reserved": 0, "fusion_lat": 0.0, "rental_uris": {"android": "https://dc.lft.to/lastmile_qr_scan", "ios": "https://dc.lft.to/lastmile_qr_scan"}, "type": "electric_scooter", "name": "ae9ff1969e562dff20511f0dddb63a2e"}, {"bike_id": "9e4d9cd88807ac7a58365387746f074e", "lat": 38.88617883333333, "is_disabled": 0, "lon": -77.0179635, "fusion_lon": 0.0, "is_reserved": 0, "fusion_lat": 0.0, "rental_uris": {"android": "https://dc.lft.to/lastmile_qr_scan", "ios": "https://dc.lft.to/lastmile_qr_scan"}, "type": "electric_scooter", "name": "9e4d9cd88807ac7a58365387746f074e"}, {"bike_id": "c7efeb6c6fca3831c7d0d9856989110c", "lat": 38.9161305, "is_disabled": 0, "lon": -77.03208116666667, "fusion_lon": 0.0, "is_reserved": 0, "fusion_lat": 0.0, "rental_uris": {"android": "https://dc.lft.to/lastmile_qr_scan", "ios": "https://dc.lft.to/lastmile_qr_scan"}, "type": "electric_scooter", "name": "c7efeb6c6fca3831c7d0d9856989110c"}, {"bike_id": "0aa7d01182a78cb576fb6858b279ed4e", "lat": 38.79984416666667, "is_disabled": 0, "lon": -77.1297735, "fusion_lon": 0.0, "is_reserved": 0, "fusion_lat": 0.0, "rental_uris": {"android": "https://dc.lft.to/lastmile_qr_scan", "ios": "https://dc.lft.to/lastmile_qr_scan"}, "type": "electric_bike", "name": "0aa7d01182a78cb576fb6858b279ed4e"}, {"bike_id": "bc9a41566f17d6b0eb9261dd3db4c7ed", "lat": 38.94508783333333, "is_disabled": 0, "lon": -77.0336615, "fusion_lon": 0.0, "is_reserved": 0, "fusion_lat": 0.0, "rental_uris": {"android": "https://dc.lft.to/lastmile_qr_scan", "ios": "https://dc.lft.to/lastmile_qr_scan"}, "type": "electric_scooter", "name": "bc9a41566f17d6b0eb9261dd3db4c7ed"}, {"bike_id": "bf2ddbbe091033aedf264c63ab8a2619", "lat": 38.89419933333333, "is_disabled": 0, "lon": -76.99957283333333, "fusion_lon": 0.0, "is_reserved": 0, "fusion_lat": 0.0, "rental_uris": {"android": "https://dc.lft.to/lastmile_qr_scan", "ios": "https://dc.lft.to/lastmile_qr_scan"}, "type": "electric_scooter", "name": "bf2ddbbe091033aedf264c63ab8a2619"}, {"bike_id": "981b666de6ac2d087a3204b8bcc018ce", "lat": 38.86659433333333, "is_disabled": 0, "lon": -76.988883, "fusion_lon": 0.0, "is_reserved": 0, "fusion_lat": 0.0, "rental_uris": {"android": "https://dc.lft.to/lastmile_qr_scan", "ios": "https://dc.lft.to/lastmile_qr_scan"}, "type": "electric_scooter", "name": "981b666de6ac2d087a3204b8bcc018ce"}, {"bike_id": "8191323d927aef933173adc25b71c42a", "lat": 38.944059833333334, "is_disabled": 0, "lon": -77.05519, "fusion_lon": 0.0, "is_reserved": 0, "fusion_lat": 0.0, "rental_uris": {"android": "https://dc.lft.to/lastmile_qr_scan", "ios": "https://dc.lft.to/lastmile_qr_scan"}, "type": "electric_bike", "name": "8191323d927aef933173adc25b71c42a"}, {"bike_id": "e9aa806973972bed58511bc26dae24e9", "lat": 38.93431833333333, "is_disabled": 0, "lon": -77.04004433333333, "fusion_lon": 0.0, "is_reserved": 0, "fusion_lat": 0.0, "rental_uris": {"android": "https://dc.lft.to/lastmile_qr_scan", "ios": "https://dc.lft.to/lastmile_qr_scan"}, "type": "electric_scooter", "name": "e9aa806973972bed58511bc26dae24e9"}, {"bike_id": "dccd79b6a552a7c69d2ff96a5e654c63", "lat": 39.01076166666667, "is_disabled": 0, "lon": -76.910589, "fusion_lon": 0.0, "is_reserved": 0, "fusion_lat": 0.0, "rental_uris": {"android": "https://dc.lft.to/lastmile_qr_scan", "ios": "https://dc.lft.to/lastmile_qr_scan"}, "type": "electric_bike", "name": "dccd79b6a552a7c69d2ff96a5e654c63"}, {"bike_id": "226b2a602b4b0753c6c13306e189061b", "lat": 38.94185016666667, "is_disabled": 0, "lon": -77.02386283333334, "fusion_lon": 0.0, "is_reserved": 0, "fusion_lat": 0.0, "rental_uris": {"android": "https://dc.lft.to/lastmile_qr_scan", "ios": "https://dc.lft.to/lastmile_qr_scan"}, "type": "electric_scooter", "name": "226b2a602b4b0753c6c13306e189061b"}, {"bike_id": "a45bebe3ad9d303e4b7b2dcd4d9bb60a", "lat": 38.8966295, "is_disabled": 0, "lon": -76.93343916666667, "fusion_lon": 0.0, "is_reserved": 0, "fusion_lat": 0.0, "rental_uris": {"android": "https://dc.lft.to/lastmile_qr_scan", "ios": "https://dc.lft.to/lastmile_qr_scan"}, "type": "electric_scooter", "name": "a45bebe3ad9d303e4b7b2dcd4d9bb60a"}, {"bike_id": "86d42ceb3a0839bb425f789ab21faae2", "lat": 38.905841, "is_disabled": 0, "lon": -77.04730433333333, "fusion_lon": 0.0, "is_reserved": 0, "fusion_lat": 0.0, "rental_uris": {"android": "https://dc.lft.to/lastmile_qr_scan", "ios": "https://dc.lft.to/lastmile_qr_scan"}, "type": "electric_scooter", "name": "86d42ceb3a0839bb425f789ab21faae2"}, {"bike_id": "b328bdb9ffe60735173f31e3464768c6", "lat": 38.79984233333333, "is_disabled": 0, "lon": -77.12978416666667, "fusion_lon": 0.0, "is_reserved": 0, "fusion_lat": 0.0, "rental_uris": {"android": "https://dc.lft.to/lastmile_qr_scan", "ios": "https://dc.lft.to/lastmile_qr_scan"}, "type": "electric_bike", "name": "b328bdb9ffe60735173f31e3464768c6"}, {"bike_id": "0671c399ca0b05dccb54e2d99dc23539", "lat": 38.87680016666667, "is_disabled": 0, "lon": -77.01788266666667, "fusion_lon": 0.0, "is_reserved": 0, "fusion_lat": 0.0, "rental_uris": {"android": "https://dc.lft.to/lastmile_qr_scan", "ios": "https://dc.lft.to/lastmile_qr_scan"}, "type": "electric_scooter", "name": "0671c399ca0b05dccb54e2d99dc23539"}, {"bike_id": "7060539c3344b66ce7c7e86b19245119", "lat": 38.9242405, "is_disabled": 0, "lon": -77.0203025, "fusion_lon": 0.0, "is_reserved": 0, "fusion_lat": 0.0, "rental_uris": {"android": "https://dc.lft.to/lastmile_qr_scan", "ios": "https://dc.lft.to/lastmile_qr_scan"}, "type": "electric_scooter", "name": "7060539c3344b66ce7c7e86b19245119"}, {"bike_id": "3888d72f2cfe431456b7816a8a7d2810", "lat": 38.9199915, "is_disabled": 0, "lon": -77.03215033333333, "fusion_lon": 0.0, "is_reserved": 0, "fusion_lat": 0.0, "rental_uris": {"android": "https://dc.lft.to/lastmile_qr_scan", "ios": "https://dc.lft.to/lastmile_qr_scan"}, "type": "electric_scooter", "name": "3888d72f2cfe431456b7816a8a7d2810"}, {"bike_id": "a1cd02f4994e894cf68141081ca71dbd", "lat": 38.84275983333333, "is_disabled": 0, "lon": -76.9883945, "fusion_lon": 0.0, "is_reserved": 0, "fusion_lat": 0.0, "rental_uris": {"android": "https://dc.lft.to/lastmile_qr_scan", "ios": "https://dc.lft.to/lastmile_qr_scan"}, "type": "electric_bike", "name": "a1cd02f4994e894cf68141081ca71dbd"}, {"bike_id": "6774be011b69cd704f1f82c01096c17c", "lat": 38.9174475, "is_disabled": 0, "lon": -77.02816666666666, "fusion_lon": 0.0, "is_reserved": 0, "fusion_lat": 0.0, "rental_uris": {"android": "https://dc.lft.to/lastmile_qr_scan", "ios": "https://dc.lft.to/lastmile_qr_scan"}, "type": "electric_scooter", "name": "6774be011b69cd704f1f82c01096c17c"}, {"bike_id": "07ddb2d3014ad078216e25ee6e36f1d8", "lat": 38.93736666666667, "is_disabled": 0, "lon": -77.03273533333333, "fusion_lon": 0.0, "is_reserved": 0, "fusion_lat": 0.0, "rental_uris": {"android": "https://dc.lft.to/lastmile_qr_scan", "ios": "https://dc.lft.to/lastmile_qr_scan"}, "type": "electric_scooter", "name": "07ddb2d3014ad078216e25ee6e36f1d8"}, {"bike_id": "f5278d1290e60bcfc5d7dde4e9163f00", "lat": 38.9273525, "is_disabled": 0, "lon": -77.0525685, "fusion_lon": 0.0, "is_reserved": 0, "fusion_lat": 0.0, "rental_uris": {"android": "https://dc.lft.to/lastmile_qr_scan", "ios": "https://dc.lft.to/lastmile_qr_scan"}, "type": "electric_scooter", "name": "f5278d1290e60bcfc5d7dde4e9163f00"}, {"bike_id": "d5317a73b1fd35e359de02eaabb0270a", "lat": 38.915594666666664, "is_disabled": 0, "lon": -77.0373275, "fusion_lon": 0.0, "is_reserved": 0, "fusion_lat": 0.0, "rental_uris": {"android": "https://dc.lft.to/lastmile_qr_scan", "ios": "https://dc.lft.to/lastmile_qr_scan"}, "type": "electric_scooter", "name": "d5317a73b1fd35e359de02eaabb0270a"}, {"bike_id": "c22e419d2009df85fbb2ecd1323fc3ac", "lat": 38.921126, "is_disabled": 0, "lon": -77.03174966666667, "fusion_lon": 0.0, "is_reserved": 0, "fusion_lat": 0.0, "rental_uris": {"android": "https://dc.lft.to/lastmile_qr_scan", "ios": "https://dc.lft.to/lastmile_qr_scan"}, "type": "electric_scooter", "name": "c22e419d2009df85fbb2ecd1323fc3ac"}, {"bike_id": "b658e213c1d685acacf6ff1a0ca1caa6", "lat": 38.8984375, "is_disabled": 0, "lon": -77.03915233333333, "fusion_lon": 0.0, "is_reserved": 0, "fusion_lat": 0.0, "rental_uris": {"android": "https://dc.lft.to/lastmile_qr_scan", "ios": "https://dc.lft.to/lastmile_qr_scan"}, "type": "electric_scooter", "name": "b658e213c1d685acacf6ff1a0ca1caa6"}, {"bike_id": "90e0f5a73d1d0841d9bacd61eb589e00", "lat": 38.892190666666664, "is_disabled": 0, "lon": -77.02371533333333, "fusion_lon": 0.0, "is_reserved": 0, "fusion_lat": 0.0, "rental_uris": {"android": "https://dc.lft.to/lastmile_qr_scan", "ios": "https://dc.lft.to/lastmile_qr_scan"}, "type": "electric_scooter", "name": "90e0f5a73d1d0841d9bacd61eb589e00"}, {"bike_id": "0ae4e333b6a4f24ff52882dd115fb8c4", "lat": 38.90352716666666, "is_disabled": 0, "lon": -77.032113, "fusion_lon": 0.0, "is_reserved": 0, "fusion_lat": 0.0, "rental_uris": {"android": "https://dc.lft.to/lastmile_qr_scan", "ios": "https://dc.lft.to/lastmile_qr_scan"}, "type": "electric_scooter", "name": "0ae4e333b6a4f24ff52882dd115fb8c4"}, {"bike_id": "af8ab05f743c70508128ececc001d0ed", "lat": 38.879156333333334, "is_disabled": 0, "lon": -76.94323083333333, "fusion_lon": 0.0, "is_reserved": 0, "fusion_lat": 0.0, "rental_uris": {"android": "https://dc.lft.to/lastmile_qr_scan", "ios": "https://dc.lft.to/lastmile_qr_scan"}, "type": "electric_scooter", "name": "af8ab05f743c70508128ececc001d0ed"}, {"bike_id": "b3410f10676118ee3253f050e6cdd74d", "lat": 38.900489666666665, "is_disabled": 0, "lon": -76.99854366666666, "fusion_lon": 0.0, "is_reserved": 0, "fusion_lat": 0.0, "rental_uris": {"android": "https://dc.lft.to/lastmile_qr_scan", "ios": "https://dc.lft.to/lastmile_qr_scan"}, "type": "electric_scooter", "name": "b3410f10676118ee3253f050e6cdd74d"}, {"bike_id": "1501f6548b4f9e897087a1023336ac69", "lat": 38.89012116666667, "is_disabled": 0, "lon": -77.03327966666667, "fusion_lon": 0.0, "is_reserved": 0, "fusion_lat": 0.0, "rental_uris": {"android": "https://dc.lft.to/lastmile_qr_scan", "ios": "https://dc.lft.to/lastmile_qr_scan"}, "type": "electric_scooter", "name": "1501f6548b4f9e897087a1023336ac69"}, {"bike_id": "13f2a6dc8511e4ba0cd277d670b78d8a", "lat": 38.92455833333333, "is_disabled": 0, "lon": -77.04052816666666, "fusion_lon": 0.0, "is_reserved": 0, "fusion_lat": 0.0, "rental_uris": {"android": "https://dc.lft.to/lastmile_qr_scan", "ios": "https://dc.lft.to/lastmile_qr_scan"}, "type": "electric_scooter", "name": "13f2a6dc8511e4ba0cd277d670b78d8a"}, {"bike_id": "93891610348b5cb47b32bc99993f0e21", "lat": 38.8064105, "is_disabled": 0, "lon": -77.06253666666667, "fusion_lon": 0.0, "is_reserved": 0, "fusion_lat": 0.0, "rental_uris": {"android": "https://dc.lft.to/lastmile_qr_scan", "ios": "https://dc.lft.to/lastmile_qr_scan"}, "type": "electric_bike", "name": "93891610348b5cb47b32bc99993f0e21"}, {"bike_id": "9f394185dca2671c2f8c94431c46c2b9", "lat": 38.900331666666666, "is_disabled": 0, "lon": -77.01172166666667, "fusion_lon": 0.0, "is_reserved": 0, "fusion_lat": 0.0, "rental_uris": {"android": "https://dc.lft.to/lastmile_qr_scan", "ios": "https://dc.lft.to/lastmile_qr_scan"}, "type": "electric_scooter", "name": "9f394185dca2671c2f8c94431c46c2b9"}, {"bike_id": "0b9cc49b9995e7051c8a98663e525baa", "lat": 38.929687333333334, "is_disabled": 0, "lon": -77.02528166666667, "fusion_lon": 0.0, "is_reserved": 0, "fusion_lat": 0.0, "rental_uris": {"android": "https://dc.lft.to/lastmile_qr_scan", "ios": "https://dc.lft.to/lastmile_qr_scan"}, "type": "electric_scooter", "name": "0b9cc49b9995e7051c8a98663e525baa"}, {"bike_id": "ee490f6669e8a87b3fc7c453b2d0dd04", "lat": 38.91840916666666, "is_disabled": 0, "lon": -77.04031833333333, "fusion_lon": 0.0, "is_reserved": 0, "fusion_lat": 0.0, "rental_uris": {"android": "https://dc.lft.to/lastmile_qr_scan", "ios": "https://dc.lft.to/lastmile_qr_scan"}, "type": "electric_scooter", "name": "ee490f6669e8a87b3fc7c453b2d0dd04"}, {"bike_id": "7b6ea5f94484398a2c2557f1ddb14645", "lat": 38.916919, "is_disabled": 0, "lon": -77.02595533333333, "fusion_lon": 0.0, "is_reserved": 0, "fusion_lat": 0.0, "rental_uris": {"android": "https://dc.lft.to/lastmile_qr_scan", "ios": "https://dc.lft.to/lastmile_qr_scan"}, "type": "electric_scooter", "name": "7b6ea5f94484398a2c2557f1ddb14645"}, {"bike_id": "c4292308a602b692519df1fd3d426773", "lat": 38.8949205, "is_disabled": 0, "lon": -77.00209683333334, "fusion_lon": 0.0, "is_reserved": 0, "fusion_lat": 0.0, "rental_uris": {"android": "https://dc.lft.to/lastmile_qr_scan", "ios": "https://dc.lft.to/lastmile_qr_scan"}, "type": "electric_scooter", "name": "c4292308a602b692519df1fd3d426773"}, {"bike_id": "e52eb02261e582745b1e9e6c01b44420", "lat": 38.91937266666667, "is_disabled": 0, "lon": -77.07065983333334, "fusion_lon": 0.0, "is_reserved": 0, "fusion_lat": 0.0, "rental_uris": {"android": "https://dc.lft.to/lastmile_qr_scan", "ios": "https://dc.lft.to/lastmile_qr_scan"}, "type": "electric_scooter", "name": "e52eb02261e582745b1e9e6c01b44420"}, {"bike_id": "c7ca09be9cf43c7e0cf9ece471578e20", "lat": 38.914562, "is_disabled": 0, "lon": -77.022051, "fusion_lon": 0.0, "is_reserved": 0, "fusion_lat": 0.0, "rental_uris": {"android": "https://dc.lft.to/lastmile_qr_scan", "ios": "https://dc.lft.to/lastmile_qr_scan"}, "type": "electric_scooter", "name": "c7ca09be9cf43c7e0cf9ece471578e20"}, {"bike_id": "a07ee7dec36dab3f52092dc5e0b3a30e", "lat": 38.896508, "is_disabled": 0, "lon": -77.033751, "fusion_lon": 0.0, "is_reserved": 0, "fusion_lat": 0.0, "rental_uris": {"android": "https://dc.lft.to/lastmile_qr_scan", "ios": "https://dc.lft.to/lastmile_qr_scan"}, "type": "electric_scooter", "name": "a07ee7dec36dab3f52092dc5e0b3a30e"}, {"bike_id": "4f4e74225decfe613430376c4d98b2ab", "lat": 38.9224265, "is_disabled": 0, "lon": -77.0729605, "fusion_lon": 0.0, "is_reserved": 0, "fusion_lat": 0.0, "rental_uris": {"android": "https://dc.lft.to/lastmile_qr_scan", "ios": "https://dc.lft.to/lastmile_qr_scan"}, "type": "electric_scooter", "name": "4f4e74225decfe613430376c4d98b2ab"}, {"bike_id": "5f20b163864ca481e66baa2c90c38508", "lat": 38.900355833333336, "is_disabled": 0, "lon": -77.02414616666667, "fusion_lon": 0.0, "is_reserved": 0, "fusion_lat": 0.0, "rental_uris": {"android": "https://dc.lft.to/lastmile_qr_scan", "ios": "https://dc.lft.to/lastmile_qr_scan"}, "type": "electric_scooter", "name": "5f20b163864ca481e66baa2c90c38508"}, {"bike_id": "46cea159375212be6e19df2bcb0c840a", "lat": 38.92244433333333, "is_disabled": 0, "lon": -77.02056916666666, "fusion_lon": 0.0, "is_reserved": 0, "fusion_lat": 0.0, "rental_uris": {"android": "https://dc.lft.to/lastmile_qr_scan", "ios": "https://dc.lft.to/lastmile_qr_scan"}, "type": "electric_scooter", "name": "46cea159375212be6e19df2bcb0c840a"}, {"bike_id": "1c63d9f37c17a088ceeb4c14d0fa1dff", "lat": 38.92760883333333, "is_disabled": 0, "lon": -77.0293595, "fusion_lon": 0.0, "is_reserved": 0, "fusion_lat": 0.0, "rental_uris": {"android": "https://dc.lft.to/lastmile_qr_scan", "ios": "https://dc.lft.to/lastmile_qr_scan"}, "type": "electric_scooter", "name": "1c63d9f37c17a088ceeb4c14d0fa1dff"}, {"bike_id": "072a8d6362f1696599d4a0ecfb103c2e", "lat": 38.905785333333334, "is_disabled": 0, "lon": -77.046091, "fusion_lon": 0.0, "is_reserved": 0, "fusion_lat": 0.0, "rental_uris": {"android": "https://dc.lft.to/lastmile_qr_scan", "ios": "https://dc.lft.to/lastmile_qr_scan"}, "type": "electric_scooter", "name": "072a8d6362f1696599d4a0ecfb103c2e"}, {"bike_id": "f8c8ce4d90771192c56c99822a8acd6d", "lat": 38.89731, "is_disabled": 0, "lon": -77.03973, "fusion_lon": 0.0, "is_reserved": 0, "fusion_lat": 0.0, "rental_uris": {"android": "https://dc.lft.to/lastmile_qr_scan", "ios": "https://dc.lft.to/lastmile_qr_scan"}, "type": "electric_scooter", "name": "f8c8ce4d90771192c56c99822a8acd6d"}, {"bike_id": "0c3404e4e6d5409b23746b98b34be42e", "lat": 38.877874166666665, "is_disabled": 0, "lon": -76.99412483333333, "fusion_lon": 0.0, "is_reserved": 0, "fusion_lat": 0.0, "rental_uris": {"android": "https://dc.lft.to/lastmile_qr_scan", "ios": "https://dc.lft.to/lastmile_qr_scan"}, "type": "electric_scooter", "name": "0c3404e4e6d5409b23746b98b34be42e"}, {"bike_id": "da94c2de37f36e8fda5854b11476f8b9", "lat": 38.911831666666664, "is_disabled": 0, "lon": -77.04488566666667, "fusion_lon": 0.0, "is_reserved": 0, "fusion_lat": 0.0, "rental_uris": {"android": "https://dc.lft.to/lastmile_qr_scan", "ios": "https://dc.lft.to/lastmile_qr_scan"}, "type": "electric_scooter", "name": "da94c2de37f36e8fda5854b11476f8b9"}, {"bike_id": "eda3d953fabc39508318576bff5bd975", "lat": 38.86234416666667, "is_disabled": 0, "lon": -76.99591033333333, "fusion_lon": 0.0, "is_reserved": 0, "fusion_lat": 0.0, "rental_uris": {"android": "https://dc.lft.to/lastmile_qr_scan", "ios": "https://dc.lft.to/lastmile_qr_scan"}, "type": "electric_bike", "name": "eda3d953fabc39508318576bff5bd975"}, {"bike_id": "5bca8928165753475a6a14c9a5bc375e", "lat": 38.885613, "is_disabled": 0, "lon": -76.99792566666666, "fusion_lon": 0.0, "is_reserved": 0, "fusion_lat": 0.0, "rental_uris": {"android": "https://dc.lft.to/lastmile_qr_scan", "ios": "https://dc.lft.to/lastmile_qr_scan"}, "type": "electric_scooter", "name": "5bca8928165753475a6a14c9a5bc375e"}, {"bike_id": "12069c940548eaee6652a912d095ec41", "lat": 38.909720666666665, "is_disabled": 0, "lon": -76.99729716666667, "fusion_lon": 0.0, "is_reserved": 0, "fusion_lat": 0.0, "rental_uris": {"android": "https://dc.lft.to/lastmile_qr_scan", "ios": "https://dc.lft.to/lastmile_qr_scan"}, "type": "electric_scooter", "name": "12069c940548eaee6652a912d095ec41"}, {"bike_id": "dcd5c7eca5d152223a639266b2cb1445", "lat": 38.89163466666667, "is_disabled": 0, "lon": -77.01540933333334, "fusion_lon": 0.0, "is_reserved": 0, "fusion_lat": 0.0, "rental_uris": {"android": "https://dc.lft.to/lastmile_qr_scan", "ios": "https://dc.lft.to/lastmile_qr_scan"}, "type": "electric_scooter", "name": "dcd5c7eca5d152223a639266b2cb1445"}, {"bike_id": "0f1478fd5aa71a35e33dfc64d9cc9ba4", "lat": 38.91766633333334, "is_disabled": 0, "lon": -77.02343383333333, "fusion_lon": 0.0, "is_reserved": 0, "fusion_lat": 0.0, "rental_uris": {"android": "https://dc.lft.to/lastmile_qr_scan", "ios": "https://dc.lft.to/lastmile_qr_scan"}, "type": "electric_scooter", "name": "0f1478fd5aa71a35e33dfc64d9cc9ba4"}, {"bike_id": "7b35af03b3a9ad44692dc22862bd483b", "lat": 38.876664833333336, "is_disabled": 0, "lon": -77.00937233333333, "fusion_lon": 0.0, "is_reserved": 0, "fusion_lat": 0.0, "rental_uris": {"android": "https://dc.lft.to/lastmile_qr_scan", "ios": "https://dc.lft.to/lastmile_qr_scan"}, "type": "electric_scooter", "name": "7b35af03b3a9ad44692dc22862bd483b"}, {"bike_id": "3a71362c3445a20c44f0c793e2087ec9", "lat": 38.937633, "is_disabled": 0, "lon": -77.03283166666667, "fusion_lon": 0.0, "is_reserved": 0, "fusion_lat": 0.0, "rental_uris": {"android": "https://dc.lft.to/lastmile_qr_scan", "ios": "https://dc.lft.to/lastmile_qr_scan"}, "type": "electric_scooter", "name": "3a71362c3445a20c44f0c793e2087ec9"}, {"bike_id": "e855fb15d2035bc7fa00260daf64ff19", "lat": 38.89733483333333, "is_disabled": 0, "lon": -77.0075365, "fusion_lon": 0.0, "is_reserved": 0, "fusion_lat": 0.0, "rental_uris": {"android": "https://dc.lft.to/lastmile_qr_scan", "ios": "https://dc.lft.to/lastmile_qr_scan"}, "type": "electric_scooter", "name": "e855fb15d2035bc7fa00260daf64ff19"}, {"bike_id": "58ce90abf8c7572118593289ce99422e", "lat": 38.88737016666666, "is_disabled": 0, "lon": -77.02209933333333, "fusion_lon": 0.0, "is_reserved": 0, "fusion_lat": 0.0, "rental_uris": {"android": "https://dc.lft.to/lastmile_qr_scan", "ios": "https://dc.lft.to/lastmile_qr_scan"}, "type": "electric_scooter", "name": "58ce90abf8c7572118593289ce99422e"}, {"bike_id": "11c0dd0727acaf4d879c08a6d0102974", "lat": 38.93385083333333, "is_disabled": 0, "lon": -77.05676966666667, "fusion_lon": 0.0, "is_reserved": 0, "fusion_lat": 0.0, "rental_uris": {"android": "https://dc.lft.to/lastmile_qr_scan", "ios": "https://dc.lft.to/lastmile_qr_scan"}, "type": "electric_scooter", "name": "11c0dd0727acaf4d879c08a6d0102974"}, {"bike_id": "7e1b207e1b183d97fa0cc609d3a078af", "lat": 38.932816, "is_disabled": 0, "lon": -76.991052, "fusion_lon": 0.0, "is_reserved": 0, "fusion_lat": 0.0, "rental_uris": {"android": "https://dc.lft.to/lastmile_qr_scan", "ios": "https://dc.lft.to/lastmile_qr_scan"}, "type": "electric_bike", "name": "7e1b207e1b183d97fa0cc609d3a078af"}, {"bike_id": "33740281abf99475ec78ad67b9b224c5", "lat": 38.91016033333333, "is_disabled": 0, "lon": -76.99390566666666, "fusion_lon": 0.0, "is_reserved": 0, "fusion_lat": 0.0, "rental_uris": {"android": "https://dc.lft.to/lastmile_qr_scan", "ios": "https://dc.lft.to/lastmile_qr_scan"}, "type": "electric_scooter", "name": "33740281abf99475ec78ad67b9b224c5"}, {"bike_id": "4eec6f306c6c3e2492b7f3910816b5f9", "lat": 38.892193, "is_disabled": 0, "lon": -77.02217966666667, "fusion_lon": 0.0, "is_reserved": 0, "fusion_lat": 0.0, "rental_uris": {"android": "https://dc.lft.to/lastmile_qr_scan", "ios": "https://dc.lft.to/lastmile_qr_scan"}, "type": "electric_scooter", "name": "4eec6f306c6c3e2492b7f3910816b5f9"}, {"bike_id": "e157101b35bdb787af2e547ae7c94694", "lat": 38.90884416666667, "is_disabled": 0, "lon": -77.02294866666666, "fusion_lon": 0.0, "is_reserved": 0, "fusion_lat": 0.0, "rental_uris": {"android": "https://dc.lft.to/lastmile_qr_scan", "ios": "https://dc.lft.to/lastmile_qr_scan"}, "type": "electric_scooter", "name": "e157101b35bdb787af2e547ae7c94694"}, {"bike_id": "5f21fd58515401b9d311d0e477aecff4", "lat": 38.898960333333335, "is_disabled": 0, "lon": -77.04871416666667, "fusion_lon": 0.0, "is_reserved": 0, "fusion_lat": 0.0, "rental_uris": {"android": "https://dc.lft.to/lastmile_qr_scan", "ios": "https://dc.lft.to/lastmile_qr_scan"}, "type": "electric_scooter", "name": "5f21fd58515401b9d311d0e477aecff4"}, {"bike_id": "5697ab0a8b116cf710d69f38c7e2d754", "lat": 38.91875366666667, "is_disabled": 0, "lon": -76.96543866666667, "fusion_lon": 0.0, "is_reserved": 0, "fusion_lat": 0.0, "rental_uris": {"android": "https://dc.lft.to/lastmile_qr_scan", "ios": "https://dc.lft.to/lastmile_qr_scan"}, "type": "electric_scooter", "name": "5697ab0a8b116cf710d69f38c7e2d754"}, {"bike_id": "784382b9e87a79c041f63ec836a9e129", "lat": 38.9208205, "is_disabled": 0, "lon": -77.07563883333333, "fusion_lon": 0.0, "is_reserved": 0, "fusion_lat": 0.0, "rental_uris": {"android": "https://dc.lft.to/lastmile_qr_scan", "ios": "https://dc.lft.to/lastmile_qr_scan"}, "type": "electric_scooter", "name": "784382b9e87a79c041f63ec836a9e129"}, {"bike_id": "2575cb33d96b9b6094a4ab941da3c166", "lat": 38.901684, "is_disabled": 0, "lon": -77.02513066666667, "fusion_lon": 0.0, "is_reserved": 0, "fusion_lat": 0.0, "rental_uris": {"android": "https://dc.lft.to/lastmile_qr_scan", "ios": "https://dc.lft.to/lastmile_qr_scan"}, "type": "electric_scooter", "name": "2575cb33d96b9b6094a4ab941da3c166"}, {"bike_id": "b96b6a0011005da29626edc3a8044047", "lat": 38.902617, "is_disabled": 0, "lon": -77.038803, "fusion_lon": 0.0, "is_reserved": 0, "fusion_lat": 0.0, "rental_uris": {"android": "https://dc.lft.to/lastmile_qr_scan", "ios": "https://dc.lft.to/lastmile_qr_scan"}, "type": "electric_scooter", "name": "b96b6a0011005da29626edc3a8044047"}, {"bike_id": "787c20061de67ba9eb478063ceb91a95", "lat": 38.902196, "is_disabled": 0, "lon": -76.94193516666667, "fusion_lon": 0.0, "is_reserved": 0, "fusion_lat": 0.0, "rental_uris": {"android": "https://dc.lft.to/lastmile_qr_scan", "ios": "https://dc.lft.to/lastmile_qr_scan"}, "type": "electric_scooter", "name": "787c20061de67ba9eb478063ceb91a95"}, {"bike_id": "dfeac04e35a60783229662745dc8c2fb", "lat": 38.896126, "is_disabled": 0, "lon": -77.045995, "fusion_lon": 0.0, "is_reserved": 0, "fusion_lat": 0.0, "rental_uris": {"android": "https://dc.lft.to/lastmile_qr_scan", "ios": "https://dc.lft.to/lastmile_qr_scan"}, "type": "electric_scooter", "name": "dfeac04e35a60783229662745dc8c2fb"}, {"bike_id": "813d35a3113680acdac043793a653072", "lat": 38.905503333333336, "is_disabled": 0, "lon": -76.99479566666666, "fusion_lon": 0.0, "is_reserved": 0, "fusion_lat": 0.0, "rental_uris": {"android": "https://dc.lft.to/lastmile_qr_scan", "ios": "https://dc.lft.to/lastmile_qr_scan"}, "type": "electric_scooter", "name": "813d35a3113680acdac043793a653072"}, {"bike_id": "33f818ebc663370e0f7da082b084d223", "lat": 38.919576, "is_disabled": 0, "lon": -77.02495233333333, "fusion_lon": 0.0, "is_reserved": 0, "fusion_lat": 0.0, "rental_uris": {"android": "https://dc.lft.to/lastmile_qr_scan", "ios": "https://dc.lft.to/lastmile_qr_scan"}, "type": "electric_scooter", "name": "33f818ebc663370e0f7da082b084d223"}, {"bike_id": "de91aed62bbed91c15e33e3a89c0ba52", "lat": 38.91431383333333, "is_disabled": 0, "lon": -77.04176483333333, "fusion_lon": 0.0, "is_reserved": 0, "fusion_lat": 0.0, "rental_uris": {"android": "https://dc.lft.to/lastmile_qr_scan", "ios": "https://dc.lft.to/lastmile_qr_scan"}, "type": "electric_scooter", "name": "de91aed62bbed91c15e33e3a89c0ba52"}, {"bike_id": "a39305c4e7524234207de193acb053e2", "lat": 38.90510716666667, "is_disabled": 0, "lon": -77.03447033333333, "fusion_lon": 0.0, "is_reserved": 0, "fusion_lat": 0.0, "rental_uris": {"android": "https://dc.lft.to/lastmile_qr_scan", "ios": "https://dc.lft.to/lastmile_qr_scan"}, "type": "electric_scooter", "name": "a39305c4e7524234207de193acb053e2"}, {"bike_id": "3d84d4a414b2ea25af6304af457cf896", "lat": 38.90758066666667, "is_disabled": 0, "lon": -77.0230485, "fusion_lon": 0.0, "is_reserved": 0, "fusion_lat": 0.0, "rental_uris": {"android": "https://dc.lft.to/lastmile_qr_scan", "ios": "https://dc.lft.to/lastmile_qr_scan"}, "type": "electric_scooter", "name": "3d84d4a414b2ea25af6304af457cf896"},