{"data": {"bikes": [{"rental_uris": {"ios": "https://dc.lft.to/lastmile_qr_scan", "android": "https://dc.lft.to/lastmile_qr_scan"}, "lat": 38.941974333333334, "lon": -77.02433183333333, "fusion_lat": 0.0, "name": "7826637c5781a9b9812f1bfda93b8ad5", "is_disabled": 0, "is_reserved": 0, "bike_id": "7826637c5781a9b9812f1bfda93b8ad5", "fusion_lon": 0.0, "type": "electric_scooter"}, {"rental_uris": {"ios": "https://dc.lft.to/lastmile_qr_scan", "android": "https://dc.lft.to/lastmile_qr_scan"}, "lat": 38.98452783333333, "lon": -77.02643016666667, "fusion_lat": 0.0, "name": "ec4fc2f9357fff426762de4c8986e0c9", "is_disabled": 0, "is_reserved": 0, "bike_id": "ec4fc2f9357fff426762de4c8986e0c9", "fusion_lon": 0.0, "type": "electric_scooter"}, {"rental_uris": {"ios": "https://dc.lft.to/lastmile_qr_scan", "android": "https://dc.lft.to/lastmile_qr_scan"}, "lat": 38.926441, "lon": -76.98422633333334, "fusion_lat": 0.0, "name": "7aa0735f227486b84f1a8dad3440b27f", "is_disabled": 0, "is_reserved": 0, "bike_id": "7aa0735f227486b84f1a8dad3440b27f", "fusion_lon": 0.0, "type": "electric_bike"}, {"rental_uris": {"ios": "https://dc.lft.to/lastmile_qr_scan", "android": "https://dc.lft.to/lastmile_qr_scan"}, "lat": 38.906907833333335, "lon": -77.02379666666667, "fusion_lat": 0.0, "name": "f2ffd71b97b58043907ddbb7358ca7e2", "is_disabled": 0, "is_reserved": 0, "bike_id": "f2ffd71b97b58043907ddbb7358ca7e2", "fusion_lon": 0.0, "type": "electric_scooter"}, {"rental_uris": {"ios": "https://dc.lft.to/lastmile_qr_scan", "android": "https://dc.lft.to/lastmile_qr_scan"}, "lat": 38.902067, "lon": -76.97409999999999, "fusion_lat": 0.0, "name": "57e463d2fece54170ebba7cbf1d934f7", "is_disabled": 0, "is_reserved": 0, "bike_id": "57e463d2fece54170ebba7cbf1d934f7", "fusion_lon": 0.0, "type": "electric_bike"}, {"rental_uris": {"ios": "https://dc.lft.to/lastmile_qr_scan", "android": "https://dc.lft.to/lastmile_qr_scan"}, "lat": 38.924577166666666, "lon": -77.22554016666666, "fusion_lat": 0.0, "name": "5163e0e5bbe060776327391c4cd7c364", "is_disabled": 0, "is_reserved": 0, "bike_id": "5163e0e5bbe060776327391c4cd7c364", "fusion_lon": 0.0, "type": "electric_bike"}, {"rental_uris": {"ios": "https://dc.lft.to/lastmile_qr_scan", "android": "https://dc.lft.to/lastmile_qr_scan"}, "lat": 38.901978166666666, "lon": -77.0129555, "fusion_lat": 0.0, "name": "590228d96acd52562191d3a3c6752576", "is_disabled": 0, "is_reserved": 0, "bike_id": "590228d96acd52562191d3a3c6752576", "fusion_lon": 0.0, "type": "electric_scooter"}, {"rental_uris": {"ios": "https://dc.lft.to/lastmile_qr_scan", "android": "https://dc.lft.to/lastmile_qr_scan"}, "lat": 38.9053575, "lon": -77.0417575, "fusion_lat": 0.0, "name": "ad16ab1e38ffdef662f3f3758fe2014b", "is_disabled": 0, "is_reserved": 0, "bike_id": "ad16ab1e38ffdef662f3f3758fe2014b", "fusion_lon": 0.0, "type": "electric_scooter"}, {"rental_uris": {"ios": "https://dc.lft.to/lastmile_qr_scan", "android": "https://dc.lft.to/lastmile_qr_scan"}, "lat": 38.903849666666666, "lon": -77.0313665, "fusion_lat": 0.0, "name": "2678b8628789d31dab5bac0ea06613de", "is_disabled": 0, "is_reserved": 0, "bike_id": "2678b8628789d31dab5bac0ea06613de", "fusion_lon": 0.0, "type": "electric_scooter"}, {"rental_uris": {"ios": "https://dc.lft.to/lastmile_qr_scan", "android": "https://dc.lft.to/lastmile_qr_scan"}, "lat": 38.92727166666667, "lon": -77.0056385, "fusion_lat": 0.0, "name": "1695fddfe40e106e53e70e99e08b23a2", "is_disabled": 0, "is_reserved": 0, "bike_id": "1695fddfe40e106e53e70e99e08b23a2", "fusion_lon": 0.0, "type": "electric_scooter"}, {"rental_uris": {"ios": "https://dc.lft.to/lastmile_qr_scan", "android": "https://dc.lft.to/lastmile_qr_scan"}, "lat": 38.916864, "lon": -77.02953116666667, "fusion_lat": 0.0, "name": "7e62f788623889915b99acd7c916ad46", "is_disabled": 0, "is_reserved": 0, "bike_id": "7e62f788623889915b99acd7c916ad46", "fusion_lon": 0.0, "type": "electric_scooter"}, {"rental_uris": {"ios": "https://dc.lft.to/lastmile_qr_scan", "android": "https://dc.lft.to/lastmile_qr_scan"}, "lat": 38.91478933333333, "lon": -77.04347833333334, "fusion_lat": 0.0, "name": "37f0aa1bee88dbea11338da1155c044b", "is_disabled": 0, "is_reserved": 0, "bike_id": "37f0aa1bee88dbea11338da1155c044b", "fusion_lon": 0.0, "type": "electric_scooter"}, {"rental_uris": {"ios": "https://dc.lft.to/lastmile_qr_scan", "android": "https://dc.lft.to/lastmile_qr_scan"}, "lat": 38.93672333333333, "lon": -76.95205883333334, "fusion_lat": 0.0, "name": "fa4a7f1abf92e00f8a566628cae98f91", "is_disabled": 0, "is_reserved": 0, "bike_id": "fa4a7f1abf92e00f8a566628cae98f91", "fusion_lon": 0.0, "type": "electric_bike"}, {"rental_uris": {"ios": "https://dc.lft.to/lastmile_qr_scan", "android": "https://dc.lft.to/lastmile_qr_scan"}, "lat": 38.90823416666667, "lon": -77.00072416666667, "fusion_lat": 0.0, "name": "7c82262badd1cb2f4b73eeb3e01091e0", "is_disabled": 0, "is_reserved": 0, "bike_id": "7c82262badd1cb2f4b73eeb3e01091e0", "fusion_lon": 0.0, "type": "electric_scooter"}, {"rental_uris": {"ios": "https://dc.lft.to/lastmile_qr_scan", "android": "https://dc.lft.to/lastmile_qr_scan"}, "lat": 38.896484666666666, "lon": -77.07063833333333, "fusion_lat": 0.0, "name": "b0fd47b3b420717850cfd168048be1d1", "is_disabled": 0, "is_reserved": 0, "bike_id": "b0fd47b3b420717850cfd168048be1d1", "fusion_lon": 0.0, "type": "electric_scooter"}, {"rental_uris": {"ios": "https://dc.lft.to/lastmile_qr_scan", "android": "https://dc.lft.to/lastmile_qr_scan"}, "lat": 38.887817166666665, "lon": -76.95524833333333, "fusion_lat": 0.0, "name": "2c6a741023bd84ce85b02a70cc0559da", "is_disabled": 0, "is_reserved": 0, "bike_id": "2c6a741023bd84ce85b02a70cc0559da", "fusion_lon": 0.0, "type": "electric_scooter"}, {"rental_uris": {"ios": "https://dc.lft.to/lastmile_qr_scan", "android": "https://dc.lft.to/lastmile_qr_scan"}, "lat": 38.8972235, "lon": -77.02712583333333, "fusion_lat": 0.0, "name": "c390849f1037806cdf683a38f5dcec93", "is_disabled": 0, "is_reserved": 0, "bike_id": "c390849f1037806cdf683a38f5dcec93", "fusion_lon": 0.0, "type": "electric_scooter"}, {"rental_uris": {"ios": "https://dc.lft.to/lastmile_qr_scan", "android": "https://dc.lft.to/lastmile_qr_scan"}, "lat": 38.931242, "lon": -77.022638, "fusion_lat": 0.0, "name": "8290fc5ff726b1c124c05c1c454c5e3d", "is_disabled": 0, "is_reserved": 0, "bike_id": "8290fc5ff726b1c124c05c1c454c5e3d", "fusion_lon": 0.0, "type": "electric_scooter"}, {"rental_uris": {"ios": "https://dc.lft.to/lastmile_qr_scan", "android": "https://dc.lft.to/lastmile_qr_scan"}, "lat": 38.89885833333334, "lon": -76.9317515, "fusion_lat": 0.0, "name": "a9762ef7c4f7d584b8f157614f3b6b35", "is_disabled": 0, "is_reserved": 0, "bike_id": "a9762ef7c4f7d584b8f157614f3b6b35", "fusion_lon": 0.0, "type": "electric_scooter"}, {"rental_uris": {"ios": "https://dc.lft.to/lastmile_qr_scan", "android": "https://dc.lft.to/lastmile_qr_scan"}, "lat": 38.920769166666666, "lon": -77.02313833333334, "fusion_lat": 0.0, "name": "6bf62a995f12e20c7b42c3937116ae21", "is_disabled": 0, "is_reserved": 0, "bike_id": "6bf62a995f12e20c7b42c3937116ae21", "fusion_lon": 0.0, "type": "electric_scooter"}, {"rental_uris": {"ios": "https://dc.lft.to/lastmile_qr_scan", "android": "https://dc.lft.to/lastmile_qr_scan"}, "lat": 38.909563, "lon": -77.03355, "fusion_lat": 0.0, "name": "9bd76e22b0f82e0ad4c3c00ad65596d9", "is_disabled": 0, "is_reserved": 0, "bike_id": "9bd76e22b0f82e0ad4c3c00ad65596d9", "fusion_lon": 0.0, "type": "electric_scooter"}, {"rental_uris": {"ios": "https://dc.lft.to/lastmile_qr_scan", "android": "https://dc.lft.to/lastmile_qr_scan"}, "lat": 38.928795, "lon": -77.04045083333334, "fusion_lat": 0.0, "name": "98cc322efbafd5a65bf83c2df04a46a7", "is_disabled": 0, "is_reserved": 0, "bike_id": "98cc322efbafd5a65bf83c2df04a46a7", "fusion_lon": 0.0, "type": "electric_scooter"}, {"rental_uris": {"ios": "https://dc.lft.to/lastmile_qr_scan", "android": "https://dc.lft.to/lastmile_qr_scan"}, "lat": 38.900530333333336, "lon": -77.03233633333333, "fusion_lat": 0.0, "name": "c6c3dc09cd573f9f8a2d14f8192bc03e", "is_disabled": 0, "is_reserved": 0, "bike_id": "c6c3dc09cd573f9f8a2d14f8192bc03e", "fusion_lon": 0.0, "type": "electric_scooter"}, {"rental_uris": {"ios": "https://dc.lft.to/lastmile_qr_scan", "android": "https://dc.lft.to/lastmile_qr_scan"}, "lat": 38.944868166666666, "lon": -77.02262583333334, "fusion_lat": 0.0, "name": "9b7952887d7737cb139cc13ea44a1e5f", "is_disabled": 0, "is_reserved": 0, "bike_id": "9b7952887d7737cb139cc13ea44a1e5f", "fusion_lon": 0.0, "type": "electric_bike"}, {"rental_uris": {"ios": "https://dc.lft.to/lastmile_qr_scan", "android": "https://dc.lft.to/lastmile_qr_scan"}, "lat": 38.86627083333333, "lon": -76.98716333333333, "fusion_lat": 0.0, "name": "8fcfc8d7beeb7ebadd37da8316a91e0e", "is_disabled": 0, "is_reserved": 0, "bike_id": "8fcfc8d7beeb7ebadd37da8316a91e0e", "fusion_lon": 0.0, "type": "electric_scooter"}, {"rental_uris": {"ios": "https://dc.lft.to/lastmile_qr_scan", "android": "https://dc.lft.to/lastmile_qr_scan"}, "lat": 38.9028575, "lon": -77.01877733333333, "fusion_lat": 0.0, "name": "ef0d43793daf942cfe5a3657a845b354", "is_disabled": 0, "is_reserved": 0, "bike_id": "ef0d43793daf942cfe5a3657a845b354", "fusion_lon": 0.0, "type": "electric_scooter"}, {"rental_uris": {"ios": "https://dc.lft.to/lastmile_qr_scan", "android": "https://dc.lft.to/lastmile_qr_scan"}, "lat": 38.928754833333336, "lon": -77.0392345, "fusion_lat": 0.0, "name": "fbb799618ca8bd54a4826b934ab4e3e0", "is_disabled": 0, "is_reserved": 0, "bike_id": "fbb799618ca8bd54a4826b934ab4e3e0", "fusion_lon": 0.0, "type": "electric_scooter"}, {"rental_uris": {"ios": "https://dc.lft.to/lastmile_qr_scan", "android": "https://dc.lft.to/lastmile_qr_scan"}, "lat": 38.91970283333333, "lon": -77.01225533333333, "fusion_lat": 0.0, "name": "f3ef149f9fd4ab20e98b709693499bfc", "is_disabled": 0, "is_reserved": 0, "bike_id": "f3ef149f9fd4ab20e98b709693499bfc", "fusion_lon": 0.0, "type": "electric_scooter"}, {"rental_uris": {"ios": "https://dc.lft.to/lastmile_qr_scan", "android": "https://dc.lft.to/lastmile_qr_scan"}, "lat": 38.9052245, "lon": -77.04089033333334, "fusion_lat": 0.0, "name": "f49eff841e6410c87a453abc2b64b20b", "is_disabled": 0, "is_reserved": 0, "bike_id": "f49eff841e6410c87a453abc2b64b20b", "fusion_lon": 0.0, "type": "electric_scooter"}, {"rental_uris": {"ios": "https://dc.lft.to/lastmile_qr_scan", "android": "https://dc.lft.to/lastmile_qr_scan"}, "lat": 38.917061333333336, "lon": -77.0957855, "fusion_lat": 0.0, "name": "2c7d924f44dbad34f782913a1b8d564a", "is_disabled": 0, "is_reserved": 0, "bike_id": "2c7d924f44dbad34f782913a1b8d564a", "fusion_lon": 0.0, "type": "electric_scooter"}, {"rental_uris": {"ios": "https://dc.lft.to/lastmile_qr_scan", "android": "https://dc.lft.to/lastmile_qr_scan"}, "lat": 38.904149333333336, "lon": -76.97331416666667, "fusion_lat": 0.0, "name": "d5e791db6e47d3323add9a1cae4d91c6", "is_disabled": 0, "is_reserved": 0, "bike_id": "d5e791db6e47d3323add9a1cae4d91c6", "fusion_lon": 0.0, "type": "electric_scooter"}, {"rental_uris": {"ios": "https://dc.lft.to/lastmile_qr_scan", "android": "https://dc.lft.to/lastmile_qr_scan"}, "lat": 38.88379183333333, "lon": -77.01764133333333, "fusion_lat": 0.0, "name": "99be12edf5c030fcab294b8a66d4caa0", "is_disabled": 0, "is_reserved": 0, "bike_id": "99be12edf5c030fcab294b8a66d4caa0", "fusion_lon": 0.0, "type": "electric_scooter"}, {"rental_uris": {"ios": "https://dc.lft.to/lastmile_qr_scan", "android": "https://dc.lft.to/lastmile_qr_scan"}, "lat": 38.902449833333336, "lon": -77.05903816666667, "fusion_lat": 0.0, "name": "87adf46538baa355d0c26e363bf6950f", "is_disabled": 0, "is_reserved": 0, "bike_id": "87adf46538baa355d0c26e363bf6950f", "fusion_lon": 0.0, "type": "electric_scooter"}, {"rental_uris": {"ios": "https://dc.lft.to/lastmile_qr_scan", "android": "https://dc.lft.to/lastmile_qr_scan"}, "lat": 38.9434835, "lon": -77.0376395, "fusion_lat": 0.0, "name": "f57b27dc1f938580a6ead2b519393c5d", "is_disabled": 0, "is_reserved": 0, "bike_id": "f57b27dc1f938580a6ead2b519393c5d", "fusion_lon": 0.0, "type": "electric_scooter"}, {"rental_uris": {"ios": "https://dc.lft.to/lastmile_qr_scan", "android": "https://dc.lft.to/lastmile_qr_scan"}, "lat": 38.86685516666667, "lon": -76.985747, "fusion_lat": 0.0, "name": "04e52838b90dac871e13247bf3c5eb01", "is_disabled": 0, "is_reserved": 0, "bike_id": "04e52838b90dac871e13247bf3c5eb01", "fusion_lon": 0.0, "type": "electric_scooter"}, {"rental_uris": {"ios": "https://dc.lft.to/lastmile_qr_scan", "android": "https://dc.lft.to/lastmile_qr_scan"}, "lat": 38.929708833333336, "lon": -77.02790533333334, "fusion_lat": 0.0, "name": "d519b059556a10631b0f39e6ca7ebe92", "is_disabled": 0, "is_reserved": 0, "bike_id": "d519b059556a10631b0f39e6ca7ebe92", "fusion_lon": 0.0, "type": "electric_scooter"}, {"rental_uris": {"ios": "https://dc.lft.to/lastmile_qr_scan", "android": "https://dc.lft.to/lastmile_qr_scan"}, "lat": 38.9167805, "lon": -77.023123, "fusion_lat": 0.0, "name": "bf6debe03c505770e5fa3b9604496273", "is_disabled": 0, "is_reserved": 0, "bike_id": "bf6debe03c505770e5fa3b9604496273", "fusion_lon": 0.0, "type": "electric_scooter"}, {"rental_uris": {"ios": "https://dc.lft.to/lastmile_qr_scan", "android": "https://dc.lft.to/lastmile_qr_scan"}, "lat": 38.905342833333336, "lon": -77.04154216666667, "fusion_lat": 0.0, "name": "68f4a28170868762c93d4f4e077594d7", "is_disabled": 0, "is_reserved": 0, "bike_id": "68f4a28170868762c93d4f4e077594d7", "fusion_lon": 0.0, "type": "electric_scooter"}, {"rental_uris": {"ios": "https://dc.lft.to/lastmile_qr_scan", "android": "https://dc.lft.to/lastmile_qr_scan"}, "lat": 38.86507616666667, "lon": -76.99006, "fusion_lat": 0.0, "name": "1364d46729089968feb421e8805ad2a5", "is_disabled": 0, "is_reserved": 0, "bike_id": "1364d46729089968feb421e8805ad2a5", "fusion_lon": 0.0, "type": "electric_scooter"}, {"rental_uris": {"ios": "https://dc.lft.to/lastmile_qr_scan", "android": "https://dc.lft.to/lastmile_qr_scan"}, "lat": 38.906387, "lon": -77.07021266666666, "fusion_lat": 0.0, "name": "3f1fdde816b210de69ba2b4cd1f61df7", "is_disabled": 0, "is_reserved": 0, "bike_id": "3f1fdde816b210de69ba2b4cd1f61df7", "fusion_lon": 0.0, "type": "electric_scooter"}, {"rental_uris": {"ios": "https://dc.lft.to/lastmile_qr_scan", "android": "https://dc.lft.to/lastmile_qr_scan"}, "lat": 38.898353, "lon": -76.919508, "fusion_lat": 0.0, "name": "177cacf445f918fd1efbe204566fd35c", "is_disabled": 0, "is_reserved": 0, "bike_id": "177cacf445f918fd1efbe204566fd35c", "fusion_lon": 0.0, "type": "electric_scooter"}, {"rental_uris": {"ios": "https://dc.lft.to/lastmile_qr_scan", "android": "https://dc.lft.to/lastmile_qr_scan"}, "lat": 38.91550466666666, "lon": -77.044473, "fusion_lat": 0.0, "name": "8efdd15564ae461dc64bc451b598b85f", "is_disabled": 0, "is_reserved": 0, "bike_id": "8efdd15564ae461dc64bc451b598b85f", "fusion_lon": 0.0, "type": "electric_scooter"}, {"rental_uris": {"ios": "https://dc.lft.to/lastmile_qr_scan", "android": "https://dc.lft.to/lastmile_qr_scan"}, "lat": 38.917121, "lon": -77.02612516666667, "fusion_lat": 0.0, "name": "2afd33b0505d8b25a162b431775e127a", "is_disabled": 0, "is_reserved": 0, "bike_id": "2afd33b0505d8b25a162b431775e127a", "fusion_lon": 0.0, "type": "electric_scooter"}, {"rental_uris": {"ios": "https://dc.lft.to/lastmile_qr_scan", "android": "https://dc.lft.to/lastmile_qr_scan"}, "lat": 38.900314, "lon": -76.9722535, "fusion_lat": 0.0, "name": "8588d4d4e9225ebc427db11979c30215", "is_disabled": 0, "is_reserved": 0, "bike_id": "8588d4d4e9225ebc427db11979c30215", "fusion_lon": 0.0, "type": "electric_bike"}, {"rental_uris": {"ios": "https://dc.lft.to/lastmile_qr_scan", "android": "https://dc.lft.to/lastmile_qr_scan"}, "lat": 38.91635933333333, "lon": -77.0317825, "fusion_lat": 0.0, "name": "ab4f912190b5372508011bd6a87f1084", "is_disabled": 0, "is_reserved": 0, "bike_id": "ab4f912190b5372508011bd6a87f1084", "fusion_lon": 0.0, "type": "electric_scooter"}, {"rental_uris": {"ios": "https://dc.lft.to/lastmile_qr_scan", "android": "https://dc.lft.to/lastmile_qr_scan"}, "lat": 38.88069816666667, "lon": -77.0258635, "fusion_lat": 0.0, "name": "8d69b529aedd2c07c735384ff5a4f26d", "is_disabled": 0, "is_reserved": 0, "bike_id": "8d69b529aedd2c07c735384ff5a4f26d", "fusion_lon": 0.0, "type": "electric_scooter"}, {"rental_uris": {"ios": "https://dc.lft.to/lastmile_qr_scan", "android": "https://dc.lft.to/lastmile_qr_scan"}, "lat": 38.8933375, "lon": -76.950559, "fusion_lat": 0.0, "name": "27c51f7bdf86c858fc165b5369e37921", "is_disabled": 0, "is_reserved": 0, "bike_id": "27c51f7bdf86c858fc165b5369e37921", "fusion_lon": 0.0, "type": "electric_scooter"}, {"rental_uris": {"ios": "https://dc.lft.to/lastmile_qr_scan", "android": "https://dc.lft.to/lastmile_qr_scan"}, "lat": 38.923636, "lon": -77.05132716666667, "fusion_lat": 0.0, "name": "e7a21e91082e99f322be608dd961af94", "is_disabled": 0, "is_reserved": 0, "bike_id": "e7a21e91082e99f322be608dd961af94", "fusion_lon": 0.0, "type": "electric_scooter"}, {"rental_uris": {"ios": "https://dc.lft.to/lastmile_qr_scan", "android": "https://dc.lft.to/lastmile_qr_scan"}, "lat": 38.92330666666667, "lon": -77.02432766666666, "fusion_lat": 0.0, "name": "bd084d3476a4398ec0f573354d4e77db", "is_disabled": 0, "is_reserved": 0, "bike_id": "bd084d3476a4398ec0f573354d4e77db", "fusion_lon": 0.0, "type": "electric_scooter"}, {"rental_uris": {"ios": "https://dc.lft.to/lastmile_qr_scan", "android": "https://dc.lft.to/lastmile_qr_scan"}, "lat": 38.873841, "lon": -77.04335016666667, "fusion_lat": 0.0, "name": "9baac43f58a03766d291ed49f996b9f9", "is_disabled": 0, "is_reserved": 0, "bike_id": "9baac43f58a03766d291ed49f996b9f9", "fusion_lon": 0.0, "type": "electric_scooter"}, {"rental_uris": {"ios": "https://dc.lft.to/lastmile_qr_scan", "android": "https://dc.lft.to/lastmile_qr_scan"}, "lat": 38.89425033333333, "lon": -77.02095666666666, "fusion_lat": 0.0, "name": "6642c4544a33f3055d8a2272b2bf10d6", "is_disabled": 0, "is_reserved": 0, "bike_id": "6642c4544a33f3055d8a2272b2bf10d6", "fusion_lon": 0.0, "type": "electric_scooter"}, {"rental_uris": {"ios": "https://dc.lft.to/lastmile_qr_scan", "android": "https://dc.lft.to/lastmile_qr_scan"}, "lat": 38.877181666666665, "lon": -77.0032235, "fusion_lat": 0.0, "name": "bf62fdf0e19238cedf34cd630d47bd99", "is_disabled": 0, "is_reserved": 0, "bike_id": "bf62fdf0e19238cedf34cd630d47bd99", "fusion_lon": 0.0, "type": "electric_scooter"}, {"rental_uris": {"ios": "https://dc.lft.to/lastmile_qr_scan", "android": "https://dc.lft.to/lastmile_qr_scan"}, "lat": 38.91480766666667, "lon": -77.04346516666666, "fusion_lat": 0.0, "name": "42472a9e9c6de03a86cf52b461519138", "is_disabled": 0, "is_reserved": 0, "bike_id": "42472a9e9c6de03a86cf52b461519138", "fusion_lon": 0.0, "type": "electric_scooter"}, {"rental_uris": {"ios": "https://dc.lft.to/lastmile_qr_scan", "android": "https://dc.lft.to/lastmile_qr_scan"}, "lat": 38.92873783333334, "lon": -77.02774566666666, "fusion_lat": 0.0, "name": "b2784695fc5cd883e490da9a17a56bdf", "is_disabled": 0, "is_reserved": 0, "bike_id": "b2784695fc5cd883e490da9a17a56bdf", "fusion_lon": 0.0, "type": "electric_scooter"}, {"rental_uris": {"ios": "https://dc.lft.to/lastmile_qr_scan", "android": "https://dc.lft.to/lastmile_qr_scan"}, "lat": 38.90252383333333, "lon": -77.0248205, "fusion_lat": 0.0, "name": "df9f0b2b74fced3c67272fe4a2c20cc6", "is_disabled": 0, "is_reserved": 0, "bike_id": "df9f0b2b74fced3c67272fe4a2c20cc6", "fusion_lon": 0.0, "type": "electric_scooter"}, {"rental_uris": {"ios": "https://dc.lft.to/lastmile_qr_scan", "android": "https://dc.lft.to/lastmile_qr_scan"}, "lat": 38.899985666666666, "lon": -76.98557633333333, "fusion_lat": 0.0, "name": "8e006dc7348faa55ebf01a09889869cf", "is_disabled": 0, "is_reserved": 0, "bike_id": "8e006dc7348faa55ebf01a09889869cf", "fusion_lon": 0.0, "type": "electric_scooter"}, {"rental_uris": {"ios": "https://dc.lft.to/lastmile_qr_scan", "android": "https://dc.lft.to/lastmile_qr_scan"}, "lat": 38.9067845, "lon": -76.97999516666667, "fusion_lat": 0.0, "name": "21688b713356ac9308bdc5391776a5ac", "is_disabled": 0, "is_reserved": 0, "bike_id": "21688b713356ac9308bdc5391776a5ac", "fusion_lon": 0.0, "type": "electric_scooter"}, {"rental_uris": {"ios": "https://dc.lft.to/lastmile_qr_scan", "android": "https://dc.lft.to/lastmile_qr_scan"}, "lat": 38.916131666666665, "lon": -77.04880933333334, "fusion_lat": 0.0, "name": "44352d642fea85b41455b7e167e15c58", "is_disabled": 0, "is_reserved": 0, "bike_id": "44352d642fea85b41455b7e167e15c58", "fusion_lon": 0.0, "type": "electric_scooter"}, {"rental_uris": {"ios": "https://dc.lft.to/lastmile_qr_scan", "android": "https://dc.lft.to/lastmile_qr_scan"}, "lat": 38.91689983333333, "lon": -77.023757, "fusion_lat": 0.0, "name": "1a75355247a09983bae342af84bc3ee6", "is_disabled": 0, "is_reserved": 0, "bike_id": "1a75355247a09983bae342af84bc3ee6", "fusion_lon": 0.0, "type": "electric_scooter"}, {"rental_uris": {"ios": "https://dc.lft.to/lastmile_qr_scan", "android": "https://dc.lft.to/lastmile_qr_scan"}, "lat": 38.874676, "lon": -77.00915516666667, "fusion_lat": 0.0, "name": "d14aea1d56713bb7a0a7e79679b63a41", "is_disabled": 0, "is_reserved": 0, "bike_id": "d14aea1d56713bb7a0a7e79679b63a41", "fusion_lon": 0.0, "type": "electric_scooter"}, {"rental_uris": {"ios": "https://dc.lft.to/lastmile_qr_scan", "android": "https://dc.lft.to/lastmile_qr_scan"}, "lat": 38.9120995, "lon": -77.044653, "fusion_lat": 0.0, "name": "5af1b6cedfdc13d76e0c3aea0334e727", "is_disabled": 0, "is_reserved": 0, "bike_id": "5af1b6cedfdc13d76e0c3aea0334e727", "fusion_lon": 0.0, "type": "electric_scooter"}, {"rental_uris": {"ios": "https://dc.lft.to/lastmile_qr_scan", "android": "https://dc.lft.to/lastmile_qr_scan"}, "lat": 38.907737833333336, "lon": -77.04001933333333, "fusion_lat": 0.0, "name": "1ceeb57b63d81cfbfaf3c6faa54eb2bd", "is_disabled": 0, "is_reserved": 0, "bike_id": "1ceeb57b63d81cfbfaf3c6faa54eb2bd", "fusion_lon": 0.0, "type": "electric_scooter"}, {"rental_uris": {"ios": "https://dc.lft.to/lastmile_qr_scan", "android": "https://dc.lft.to/lastmile_qr_scan"}, "lat": 38.904653833333334, "lon": -76.97610816666666, "fusion_lat": 0.0, "name": "af48986fd6ff8bd4a707d03079de9e42", "is_disabled": 0, "is_reserved": 0, "bike_id": "af48986fd6ff8bd4a707d03079de9e42", "fusion_lon": 0.0, "type": "electric_scooter"}, {"rental_uris": {"ios": "https://dc.lft.to/lastmile_qr_scan", "android": "https://dc.lft.to/lastmile_qr_scan"}, "lat": 38.881227833333334, "lon": -77.02360566666667, "fusion_lat": 0.0, "name": "1fa85eb3dff318ee38157e7bfcd2f660", "is_disabled": 0, "is_reserved": 0, "bike_id": "1fa85eb3dff318ee38157e7bfcd2f660", "fusion_lon": 0.0, "type": "electric_scooter"}, {"rental_uris": {"ios": "https://dc.lft.to/lastmile_qr_scan", "android": "https://dc.lft.to/lastmile_qr_scan"}, "lat": 38.90471, "lon": -77.04354116666667, "fusion_lat": 0.0, "name": "f8563dc8f619a16f6d9340be855ea217", "is_disabled": 0, "is_reserved": 0, "bike_id": "f8563dc8f619a16f6d9340be855ea217", "fusion_lon": 0.0, "type": "electric_scooter"}, {"rental_uris": {"ios": "https://dc.lft.to/lastmile_qr_scan", "android": "https://dc.lft.to/lastmile_qr_scan"}, "lat": 38.87373916666667, "lon": -77.00107783333333, "fusion_lat": 0.0, "name": "4925dd9e0087764e2a029585919e4482", "is_disabled": 0, "is_reserved": 0, "bike_id": "4925dd9e0087764e2a029585919e4482", "fusion_lon": 0.0, "type": "electric_scooter"}, {"rental_uris": {"ios": "https://dc.lft.to/lastmile_qr_scan", "android": "https://dc.lft.to/lastmile_qr_scan"}, "lat": 38.90782983333333, "lon": -77.07155833333333, "fusion_lat": 0.0, "name": "899b5d60b3b1263f342546aa55b91973", "is_disabled": 0, "is_reserved": 0, "bike_id": "899b5d60b3b1263f342546aa55b91973", "fusion_lon": 0.0, "type": "electric_scooter"}, {"rental_uris": {"ios": "https://dc.lft.to/lastmile_qr_scan", "android": "https://dc.lft.to/lastmile_qr_scan"}, "lat": 38.90515, "lon": -77.001331, "fusion_lat": 0.0, "name": "ef1c46333cc2a75afbfd5dcc71fe5336", "is_disabled": 0, "is_reserved": 0, "bike_id": "ef1c46333cc2a75afbfd5dcc71fe5336", "fusion_lon": 0.0, "type": "electric_scooter"}, {"rental_uris": {"ios": "https://dc.lft.to/lastmile_qr_scan", "android": "https://dc.lft.to/lastmile_qr_scan"}, "lat": 38.90539316666667, "lon": -77.02213116666667, "fusion_lat": 0.0, "name": "fa4be511477561a3bcb954762636e605", "is_disabled": 0, "is_reserved": 0, "bike_id": "fa4be511477561a3bcb954762636e605", "fusion_lon": 0.0, "type": "electric_scooter"}, {"rental_uris": {"ios": "https://dc.lft.to/lastmile_qr_scan", "android": "https://dc.lft.to/lastmile_qr_scan"}, "lat": 38.92179133333333, "lon": -77.01909333333333, "fusion_lat": 0.0, "name": "44f689ae9df7197719eef0138d23a01b", "is_disabled": 0, "is_reserved": 0, "bike_id": "44f689ae9df7197719eef0138d23a01b", "fusion_lon": 0.0, "type": "electric_scooter"}, {"rental_uris": {"ios": "https://dc.lft.to/lastmile_qr_scan", "android": "https://dc.lft.to/lastmile_qr_scan"}, "lat": 38.9322685, "lon": -77.18120933333333, "fusion_lat": 0.0, "name": "b467627b420348e0c7660b628a37b371", "is_disabled": 0, "is_reserved": 0, "bike_id": "b467627b420348e0c7660b628a37b371", "fusion_lon": 0.0, "type": "electric_bike"}, {"rental_uris": {"ios": "https://dc.lft.to/lastmile_qr_scan", "android": "https://dc.lft.to/lastmile_qr_scan"}, "lat": 38.88520716666667, "lon": -76.9563515, "fusion_lat": 0.0, "name": "5c5dcb317f894712d1b8fd62dd4b7f8f", "is_disabled": 0, "is_reserved": 0, "bike_id": "5c5dcb317f894712d1b8fd62dd4b7f8f", "fusion_lon": 0.0, "type": "electric_bike"}, {"rental_uris": {"ios": "https://dc.lft.to/lastmile_qr_scan", "android": "https://dc.lft.to/lastmile_qr_scan"}, "lat": 38.87648133333333, "lon": -76.96507816666667, "fusion_lat": 0.0, "name": "ae56a1bf539360a5aa93f6b3c476d96d", "is_disabled": 0, "is_reserved": 0, "bike_id": "ae56a1bf539360a5aa93f6b3c476d96d", "fusion_lon": 0.0, "type": "electric_scooter"}, {"rental_uris": {"ios": "https://dc.lft.to/lastmile_qr_scan", "android": "https://dc.lft.to/lastmile_qr_scan"}, "lat": 38.927382, "lon": -77.03428233333334, "fusion_lat": 0.0, "name": "8467263e413431b7455b0efa8e281e46", "is_disabled": 0, "is_reserved": 0, "bike_id": "8467263e413431b7455b0efa8e281e46", "fusion_lon": 0.0, "type": "electric_scooter"}, {"rental_uris": {"ios": "https://dc.lft.to/lastmile_qr_scan", "android": "https://dc.lft.to/lastmile_qr_scan"}, "lat": 38.90872233333333, "lon": -76.99127633333333, "fusion_lat": 0.0, "name": "1abd0988d3bf56bd0bb6787a481b54f7", "is_disabled": 0, "is_reserved": 0, "bike_id": "1abd0988d3bf56bd0bb6787a481b54f7", "fusion_lon": 0.0, "type": "electric_bike"}, {"rental_uris": {"ios": "https://dc.lft.to/lastmile_qr_scan", "android": "https://dc.lft.to/lastmile_qr_scan"}, "lat": 38.90729533333333, "lon": -77.0237455, "fusion_lat": 0.0, "name": "585e97445911296be44ab726a2dad6b5", "is_disabled": 0, "is_reserved": 0, "bike_id": "585e97445911296be44ab726a2dad6b5", "fusion_lon": 0.0, "type": "electric_scooter"}, {"rental_uris": {"ios": "https://dc.lft.to/lastmile_qr_scan", "android": "https://dc.lft.to/lastmile_qr_scan"}, "lat": 38.9162435, "lon": -77.032083, "fusion_lat": 0.0, "name": "393891eb42b5b0915a9e7ae8bc631a95", "is_disabled": 0, "is_reserved": 0, "bike_id": "393891eb42b5b0915a9e7ae8bc631a95", "fusion_lon": 0.0, "type": "electric_scooter"}, {"rental_uris": {"ios": "https://dc.lft.to/lastmile_qr_scan", "android": "https://dc.lft.to/lastmile_qr_scan"}, "lat": 38.90769983333333, "lon": -77.03468216666667, "fusion_lat": 0.0, "name": "84e3a3d0e8667fb8d5286ba3cb97d3b8", "is_disabled": 0, "is_reserved": 0, "bike_id": "84e3a3d0e8667fb8d5286ba3cb97d3b8", "fusion_lon": 0.0, "type": "electric_scooter"}, {"rental_uris": {"ios": "https://dc.lft.to/lastmile_qr_scan", "android": "https://dc.lft.to/lastmile_qr_scan"}, "lat": 38.9283985, "lon": -77.0140835, "fusion_lat": 0.0, "name": "e0b6fcc116911c064a16cd2ff6f0930b", "is_disabled": 0, "is_reserved": 0, "bike_id": "e0b6fcc116911c064a16cd2ff6f0930b", "fusion_lon": 0.0, "type": "electric_scooter"}, {"rental_uris": {"ios": "https://dc.lft.to/lastmile_qr_scan", "android": "https://dc.lft.to/lastmile_qr_scan"}, "lat": 38.90142633333333, "lon": -76.99160733333333, "fusion_lat": 0.0, "name": "7db8cc6cad3579ffe9c5127c20beddac", "is_disabled": 0, "is_reserved": 0, "bike_id": "7db8cc6cad3579ffe9c5127c20beddac", "fusion_lon": 0.0, "type": "electric_scooter"}, {"rental_uris": {"ios": "https://dc.lft.to/lastmile_qr_scan", "android": "https://dc.lft.to/lastmile_qr_scan"}, "lat": 38.915598833333334, "lon": -77.033295, "fusion_lat": 0.0, "name": "c5c8509ac0e3375da2da267022f083fe", "is_disabled": 0, "is_reserved": 0, "bike_id": "c5c8509ac0e3375da2da267022f083fe", "fusion_lon": 0.0, "type": "electric_scooter"}, {"rental_uris": {"ios": "https://dc.lft.to/lastmile_qr_scan", "android": "https://dc.lft.to/lastmile_qr_scan"}, "lat": 38.89852283333333, "lon": -77.02720283333333, "fusion_lat": 0.0, "name": "11d4c47bbac5af36687049223b554c01", "is_disabled": 0, "is_reserved": 0, "bike_id": "11d4c47bbac5af36687049223b554c01", "fusion_lon": 0.0, "type": "electric_scooter"}, {"rental_uris": {"ios": "https://dc.lft.to/lastmile_qr_scan", "android": "https://dc.lft.to/lastmile_qr_scan"}, "lat": 38.922798666666665, "lon": -77.042387, "fusion_lat": 0.0, "name": "59b95aa3c5378e151e03128b2a2c35f1", "is_disabled": 0, "is_reserved": 0, "bike_id": "59b95aa3c5378e151e03128b2a2c35f1", "fusion_lon": 0.0, "type": "electric_scooter"}, {"rental_uris": {"ios": "https://dc.lft.to/lastmile_qr_scan", "android": "https://dc.lft.to/lastmile_qr_scan"}, "lat": 38.86501116666667, "lon": -76.99006616666667, "fusion_lat": 0.0, "name": "3dc952cc608e3b3ce26087f773f60f86", "is_disabled": 0, "is_reserved": 0, "bike_id": "3dc952cc608e3b3ce26087f773f60f86", "fusion_lon": 0.0, "type": "electric_scooter"}, {"rental_uris": {"ios": "https://dc.lft.to/lastmile_qr_scan", "android": "https://dc.lft.to/lastmile_qr_scan"}, "lat": 38.923312, "lon": -77.036764, "fusion_lat": 0.0, "name": "e00eda762bf797eddd95f9bef51c6138", "is_disabled": 0, "is_reserved": 0, "bike_id": "e00eda762bf797eddd95f9bef51c6138", "fusion_lon": 0.0, "type": "electric_scooter"}, {"rental_uris": {"ios": "https://dc.lft.to/lastmile_qr_scan", "android": "https://dc.lft.to/lastmile_qr_scan"}, "lat": 38.85355166666667, "lon": -77.08685483333333, "fusion_lat": 0.0, "name": "4b1bb34d8ad2deb31a96a1fc7bd2eeae", "is_disabled": 0, "is_reserved": 0, "bike_id": "4b1bb34d8ad2deb31a96a1fc7bd2eeae", "fusion_lon": 0.0, "type": "electric_bike"}, {"rental_uris": {"ios": "https://dc.lft.to/lastmile_qr_scan", "android": "https://dc.lft.to/lastmile_qr_scan"}, "lat": 38.955665833333335, "lon": -77.02719033333334, "fusion_lat": 0.0, "name": "ecad9cf9444644504b935c0d86c1deae", "is_disabled": 0, "is_reserved": 0, "bike_id": "ecad9cf9444644504b935c0d86c1deae", "fusion_lon": 0.0, "type": "electric_scooter"}, {"rental_uris": {"ios": "https://dc.lft.to/lastmile_qr_scan", "android": "https://dc.lft.to/lastmile_qr_scan"}, "lat": 38.91416016666667, "lon": -77.0261225, "fusion_lat": 0.0, "name": "8b168f357abecf90f33d4ac6c8f12f8f", "is_disabled": 0, "is_reserved": 0, "bike_id": "8b168f357abecf90f33d4ac6c8f12f8f", "fusion_lon": 0.0, "type": "electric_scooter"}, {"rental_uris": {"ios": "https://dc.lft.to/lastmile_qr_scan", "android": "https://dc.lft.to/lastmile_qr_scan"}, "lat": 38.9155715, "lon": -77.02563916666666, "fusion_lat": 0.0, "name": "5597b51a61e71c33d4dcf605c7405b06", "is_disabled": 0, "is_reserved": 0, "bike_id": "5597b51a61e71c33d4dcf605c7405b06", "fusion_lon": 0.0, "type": "electric_scooter"}, {"rental_uris": {"ios": "https://dc.lft.to/lastmile_qr_scan", "android": "https://dc.lft.to/lastmile_qr_scan"}, "lat": 38.912439166666665, "lon": -76.99000366666667, "fusion_lat": 0.0, "name": "2248ceff588ceb9507ae41b4528f4c2e", "is_disabled": 0, "is_reserved": 0, "bike_id": "2248ceff588ceb9507ae41b4528f4c2e", "fusion_lon": 0.0, "type": "electric_bike"}, {"rental_uris": {"ios": "https://dc.lft.to/lastmile_qr_scan", "android": "https://dc.lft.to/lastmile_qr_scan"}, "lat": 38.900077333333336, "lon": -77.04459116666666, "fusion_lat": 0.0, "name": "1a1334141795e184e46534c8db8ca233", "is_disabled": 0, "is_reserved": 0, "bike_id": "1a1334141795e184e46534c8db8ca233", "fusion_lon": 0.0, "type": "electric_scooter"}, {"rental_uris": {"ios": "https://dc.lft.to/lastmile_qr_scan", "android": "https://dc.lft.to/lastmile_qr_scan"}, "lat": 38.874698333333335, "lon": -77.004838, "fusion_lat": 0.0, "name": "7d822be34cff1d549ebcd3f8eb0b98e7", "is_disabled": 0, "is_reserved": 0, "bike_id": "7d822be34cff1d549ebcd3f8eb0b98e7", "fusion_lon": 0.0, "type": "electric_scooter"}, {"rental_uris": {"ios": "https://dc.lft.to/lastmile_qr_scan", "android": "https://dc.lft.to/lastmile_qr_scan"}, "lat": 38.8929325, "lon": -77.04873933333333, "fusion_lat": 0.0, "name": "81cb1c24345916357c9aa3c79241c01a", "is_disabled": 0, "is_reserved": 0, "bike_id": "81cb1c24345916357c9aa3c79241c01a", "fusion_lon": 0.0, "type": "electric_scooter"}, {"rental_uris": {"ios": "https://dc.lft.to/lastmile_qr_scan", "android": "https://dc.lft.to/lastmile_qr_scan"}, "lat": 38.87160866666667, "lon": -77.0135315, "fusion_lat": 0.0, "name": "2a32f89e37216670e824a1d10d36dcaa", "is_disabled": 0, "is_reserved": 0, "bike_id": "2a32f89e37216670e824a1d10d36dcaa", "fusion_lon": 0.0, "type": "electric_scooter"}, {"rental_uris": {"ios": "https://dc.lft.to/lastmile_qr_scan", "android": "https://dc.lft.to/lastmile_qr_scan"}, "lat": 38.901044166666665, "lon": -77.0515605, "fusion_lat": 0.0, "name": "2bf4ad678a0ab1a04095ecb521244a28", "is_disabled": 0, "is_reserved": 0, "bike_id": "2bf4ad678a0ab1a04095ecb521244a28", "fusion_lon": 0.0, "type": "electric_scooter"}, {"rental_uris": {"ios": "https://dc.lft.to/lastmile_qr_scan", "android": "https://dc.lft.to/lastmile_qr_scan"}, "lat": 38.906401333333335, "lon": -77.01830166666667, "fusion_lat": 0.0, "name": "ef50ca18e8e91de0af5949b0ab59348a", "is_disabled": 0, "is_reserved": 0, "bike_id": "ef50ca18e8e91de0af5949b0ab59348a", "fusion_lon": 0.0, "type": "electric_scooter"}, {"rental_uris": {"ios": "https://dc.lft.to/lastmile_qr_scan", "android": "https://dc.lft.to/lastmile_qr_scan"}, "lat": 38.909832333333334, "lon": -77.03303733333334, "fusion_lat": 0.0, "name": "f6564e9277f70ff875f062f94359f154", "is_disabled": 0, "is_reserved": 0, "bike_id": "f6564e9277f70ff875f062f94359f154", "fusion_lon": 0.0, "type": "electric_scooter"}, {"rental_uris": {"ios": "https://dc.lft.to/lastmile_qr_scan", "android": "https://dc.lft.to/lastmile_qr_scan"}, "lat": 38.895542166666665, "lon": -77.02928966666667, "fusion_lat": 0.0, "name": "44ed9bc6310d56872a1a58e105e8803b", "is_disabled": 0, "is_reserved": 0, "bike_id": "44ed9bc6310d56872a1a58e105e8803b", "fusion_lon": 0.0, "type": "electric_scooter"}, {"rental_uris": {"ios": "https://dc.lft.to/lastmile_qr_scan", "android": "https://dc.lft.to/lastmile_qr_scan"}, "lat": 38.90550316666667, "lon": -77.0324325, "fusion_lat": 0.0, "name": "ef203e754ee59ba179cc34b616fe508c", "is_disabled": 0, "is_reserved": 0, "bike_id": "ef203e754ee59ba179cc34b616fe508c", "fusion_lon": 0.0, "type": "electric_scooter"}, {"rental_uris": {"ios": "https://dc.lft.to/lastmile_qr_scan", "android": "https://dc.lft.to/lastmile_qr_scan"}, "lat": 38.90390466666667, "lon": -76.9894335, "fusion_lat": 0.0, "name": "714a4984cde772d163dff6eb6b30f89a", "is_disabled": 0, "is_reserved": 0, "bike_id": "714a4984cde772d163dff6eb6b30f89a", "fusion_lon": 0.0, "type": "electric_scooter"}, {"rental_uris": {"ios": "https://dc.lft.to/lastmile_qr_scan", "android": "https://dc.lft.to/lastmile_qr_scan"}, "lat": 38.9013925, "lon": -77.04771733333334, "fusion_lat": 0.0, "name": "2bd755cc606853fa668798235a9ccd0b", "is_disabled": 0, "is_reserved": 0, "bike_id": "2bd755cc606853fa668798235a9ccd0b", "fusion_lon": 0.0, "type": "electric_scooter"}, {"rental_uris": {"ios": "https://dc.lft.to/lastmile_qr_scan", "android": "https://dc.lft.to/lastmile_qr_scan"}, "lat": 38.961991166666664, "lon": -77.028012, "fusion_lat": 0.0, "name": "eac6faaf3af0accc26741d7054bf21f7", "is_disabled": 0, "is_reserved": 0, "bike_id": "eac6faaf3af0accc26741d7054bf21f7", "fusion_lon": 0.0, "type": "electric_bike"}, {"rental_uris": {"ios": "https://dc.lft.to/lastmile_qr_scan", "android": "https://dc.lft.to/lastmile_qr_scan"}, "lat": 38.8925765, "lon": -76.9256855, "fusion_lat": 0.0, "name": "c791213f3c68f0b1b6a47217683dc7c6", "is_disabled": 0, "is_reserved": 0, "bike_id": "c791213f3c68f0b1b6a47217683dc7c6", "fusion_lon": 0.0, "type": "electric_scooter"}, {"rental_uris": {"ios": "https://dc.lft.to/lastmile_qr_scan", "android": "https://dc.lft.to/lastmile_qr_scan"}, "lat": 38.90020633333334, "lon": -77.0456625, "fusion_lat": 0.0, "name": "fad9ab8f204f5cc4e16a13563f4f4b42", "is_disabled": 0, "is_reserved": 0, "bike_id": "fad9ab8f204f5cc4e16a13563f4f4b42", "fusion_lon": 0.0, "type": "electric_scooter"}, {"rental_uris": {"ios": "https://dc.lft.to/lastmile_qr_scan", "android": "https://dc.lft.to/lastmile_qr_scan"}, "lat": 38.876674666666666, "lon": -77.00686566666667, "fusion_lat": 0.0, "name": "389458aead6257500652d33639227e4e", "is_disabled": 0, "is_reserved": 0, "bike_id": "389458aead6257500652d33639227e4e", "fusion_lon": 0.0, "type": "electric_scooter"}, {"rental_uris": {"ios": "https://dc.lft.to/lastmile_qr_scan", "android": "https://dc.lft.to/lastmile_qr_scan"}, "lat": 38.892298333333336, "lon": -77.04999416666666, "fusion_lat": 0.0, "name": "9cc90cab3ff8a69f87f6331d9770d445", "is_disabled": 0, "is_reserved": 0, "bike_id": "9cc90cab3ff8a69f87f6331d9770d445", "fusion_lon": 0.0, "type": "electric_scooter"}, {"rental_uris": {"ios": "https://dc.lft.to/lastmile_qr_scan", "android": "https://dc.lft.to/lastmile_qr_scan"}, "lat": 38.89732266666667, "lon": -77.026968, "fusion_lat": 0.0, "name": "68cfba9a7bd7d81ea138af1114e782e3", "is_disabled": 0, "is_reserved": 0, "bike_id": "68cfba9a7bd7d81ea138af1114e782e3", "fusion_lon": 0.0, "type": "electric_scooter"}, {"rental_uris": {"ios": "https://dc.lft.to/lastmile_qr_scan", "android": "https://dc.lft.to/lastmile_qr_scan"}, "lat": 38.93201716666667, "lon": -77.03856983333333, "fusion_lat": 0.0, "name": "2dc873c258ac76448fbcd5d0645d54bc", "is_disabled": 0, "is_reserved": 0, "bike_id": "2dc873c258ac76448fbcd5d0645d54bc", "fusion_lon": 0.0, "type": "electric_scooter"}, {"rental_uris": {"ios": "https://dc.lft.to/lastmile_qr_scan", "android": "https://dc.lft.to/lastmile_qr_scan"}, "lat": 38.916756666666664, "lon": -77.02393, "fusion_lat": 0.0, "name": "21c86925ab1414bc36dee0b59c43bc63", "is_disabled": 0, "is_reserved": 0, "bike_id": "21c86925ab1414bc36dee0b59c43bc63", "fusion_lon": 0.0, "type": "electric_scooter"}, {"rental_uris": {"ios": "https://dc.lft.to/lastmile_qr_scan", "android": "https://dc.lft.to/lastmile_qr_scan"}, "lat": 38.884316166666665, "lon": -77.0004525, "fusion_lat": 0.0, "name": "067375e914317383501e1785d08525a8", "is_disabled": 0, "is_reserved": 0, "bike_id": "067375e914317383501e1785d08525a8", "fusion_lon": 0.0, "type": "electric_scooter"}, {"rental_uris": {"ios": "https://dc.lft.to/lastmile_qr_scan", "android": "https://dc.lft.to/lastmile_qr_scan"}, "lat": 38.93472883333333, "lon": -77.02230816666666, "fusion_lat": 0.0, "name": "8c236b45c6fad68de5e9e5e39399dbf2", "is_disabled": 0, "is_reserved": 0, "bike_id": "8c236b45c6fad68de5e9e5e39399dbf2", "fusion_lon": 0.0, "type": "electric_scooter"}, {"rental_uris": {"ios": "https://dc.lft.to/lastmile_qr_scan", "android": "https://dc.lft.to/lastmile_qr_scan"}, "lat": 38.93224583333333, "lon": -77.03867966666667, "fusion_lat": 0.0, "name": "2713988c8b9fdd33f09e3fb7cac80ef9", "is_disabled": 0, "is_reserved": 0, "bike_id": "2713988c8b9fdd33f09e3fb7cac80ef9", "fusion_lon": 0.0, "type": "electric_scooter"}, {"rental_uris": {"ios": "https://dc.lft.to/lastmile_qr_scan", "android": "https://dc.lft.to/lastmile_qr_scan"}, "lat": 38.898669166666664, "lon": -76.9463585, "fusion_lat": 0.0, "name": "07cb4a317c3d1a181865cd455d343191", "is_disabled": 0, "is_reserved": 0, "bike_id": "07cb4a317c3d1a181865cd455d343191", "fusion_lon": 0.0, "type": "electric_scooter"}, {"rental_uris": {"ios": "https://dc.lft.to/lastmile_qr_scan", "android": "https://dc.lft.to/lastmile_qr_scan"}, "lat": 38.92220783333333, "lon": -77.2013735, "fusion_lat": 0.0, "name": "b0339a7b4474f2c5a50fcba0630d83c3", "is_disabled": 0, "is_reserved": 0, "bike_id": "b0339a7b4474f2c5a50fcba0630d83c3", "fusion_lon": 0.0, "type": "electric_bike"}, {"rental_uris": {"ios": "https://dc.lft.to/lastmile_qr_scan", "android": "https://dc.lft.to/lastmile_qr_scan"}, "lat": 38.915648166666664, "lon": -77.02209283333333, "fusion_lat": 0.0, "name": "f25575960a95be7ee49e4fbbc3c6ed7d", "is_disabled": 0, "is_reserved": 0, "bike_id": "f25575960a95be7ee49e4fbbc3c6ed7d", "fusion_lon": 0.0, "type": "electric_scooter"}, {"rental_uris": {"ios": "https://dc.lft.to/lastmile_qr_scan", "android": "https://dc.lft.to/lastmile_qr_scan"}, "lat": 38.88840966666667, "lon": -77.0490305, "fusion_lat": 0.0, "name": "b0e3177493b05a7d9c139a02f0a8e195", "is_disabled": 0, "is_reserved": 0, "bike_id": "b0e3177493b05a7d9c139a02f0a8e195", "fusion_lon": 0.0, "type": "electric_scooter"}, {"rental_uris": {"ios": "https://dc.lft.to/lastmile_qr_scan", "android": "https://dc.lft.to/lastmile_qr_scan"}, "lat": 38.93391416666667, "lon": -77.05740733333333, "fusion_lat": 0.0, "name": "2e53de08787f3907cd7abad04599ba8c", "is_disabled": 0, "is_reserved": 0, "bike_id": "2e53de08787f3907cd7abad04599ba8c", "fusion_lon": 0.0, "type": "electric_scooter"}, {"rental_uris": {"ios": "https://dc.lft.to/lastmile_qr_scan", "android": "https://dc.lft.to/lastmile_qr_scan"}, "lat": 38.8615115, "lon": -77.09143, "fusion_lat": 0.0, "name": "23ecd222f446603a94b98adf07856bc1", "is_disabled": 0, "is_reserved": 0, "bike_id": "23ecd222f446603a94b98adf07856bc1", "fusion_lon": 0.0, "type": "electric_bike"}, {"rental_uris": {"ios": "https://dc.lft.to/lastmile_qr_scan", "android": "https://dc.lft.to/lastmile_qr_scan"}, "lat": 38.922803333333334, "lon": -77.03664366666666, "fusion_lat": 0.0, "name": "ff468126baf2fbbb010095b2ffe20d7e", "is_disabled": 0, "is_reserved": 0, "bike_id": "ff468126baf2fbbb010095b2ffe20d7e", "fusion_lon": 0.0, "type": "electric_scooter"}, {"rental_uris": {"ios": "https://dc.lft.to/lastmile_qr_scan", "android": "https://dc.lft.to/lastmile_qr_scan"}, "lat": 38.90731366666667, "lon": -77.02375166666667, "fusion_lat": 0.0, "name": "5edc9cbeccc4f03e866f9cad5172cc5e", "is_disabled": 0, "is_reserved": 0, "bike_id": "5edc9cbeccc4f03e866f9cad5172cc5e", "fusion_lon": 0.0, "type": "electric_scooter"}, {"rental_uris": {"ios": "https://dc.lft.to/lastmile_qr_scan", "android": "https://dc.lft.to/lastmile_qr_scan"}, "lat": 38.945613, "lon": -76.96687266666666, "fusion_lat": 0.0, "name": "fa8272c8a68688842af5800cac97de83", "is_disabled": 0, "is_reserved": 0, "bike_id": "fa8272c8a68688842af5800cac97de83", "fusion_lon": 0.0, "type": "electric_bike"}, {"rental_uris": {"ios": "https://dc.lft.to/lastmile_qr_scan", "android": "https://dc.lft.to/lastmile_qr_scan"}, "lat": 38.89330283333334, "lon": -77.046722, "fusion_lat": 0.0, "name": "4a032b67aa57df3c26b07a1045799518", "is_disabled": 0, "is_reserved": 0, "bike_id": "4a032b67aa57df3c26b07a1045799518", "fusion_lon": 0.0, "type": "electric_scooter"}, {"rental_uris": {"ios": "https://dc.lft.to/lastmile_qr_scan", "android": "https://dc.lft.to/lastmile_qr_scan"}, "lat": 38.902887, "lon": -77.05812516666667, "fusion_lat": 0.0, "name": "fab2ce7df23d41ec5b6d78618a09e1fd", "is_disabled": 0, "is_reserved": 0, "bike_id": "fab2ce7df23d41ec5b6d78618a09e1fd", "fusion_lon": 0.0, "type": "electric_scooter"}, {"rental_uris": {"ios": "https://dc.lft.to/lastmile_qr_scan", "android": "https://dc.lft.to/lastmile_qr_scan"}, "lat": 38.870638666666665, "lon": -76.97097583333333, "fusion_lat": 0.0, "name": "8244405e186a5a94b6a81d969ac3fb19", "is_disabled": 0, "is_reserved": 0, "bike_id": "8244405e186a5a94b6a81d969ac3fb19", "fusion_lon": 0.0, "type": "electric_scooter"}, {"rental_uris": {"ios": "https://dc.lft.to/lastmile_qr_scan", "android": "https://dc.lft.to/lastmile_qr_scan"}, "lat": 38.908021, "lon": -77.030557, "fusion_lat": 0.0, "name": "dee9650221c8c3ad4b344247d017d00d", "is_disabled": 0, "is_reserved": 0, "bike_id": "dee9650221c8c3ad4b344247d017d00d", "fusion_lon": 0.0, "type": "electric_scooter"}, {"rental_uris": {"ios": "https://dc.lft.to/lastmile_qr_scan", "android": "https://dc.lft.to/lastmile_qr_scan"}, "lat": 38.89737983333333, "lon": -77.02708416666667, "fusion_lat": 0.0, "name": "9a87e0535d18e49fbcd0aaf6ab842f71", "is_disabled": 0, "is_reserved": 0, "bike_id": "9a87e0535d18e49fbcd0aaf6ab842f71", "fusion_lon": 0.0, "type": "electric_scooter"}, {"rental_uris": {"ios": "https://dc.lft.to/lastmile_qr_scan", "android": "https://dc.lft.to/lastmile_qr_scan"}, "lat": 38.88511533333333, "lon": -77.01564, "fusion_lat": 0.0, "name": "6807a9f8ed98d24a01af27638fbe672d", "is_disabled": 0, "is_reserved": 0, "bike_id": "6807a9f8ed98d24a01af27638fbe672d", "fusion_lon": 0.0, "type": "electric_scooter"}, {"rental_uris": {"ios": "https://dc.lft.to/lastmile_qr_scan", "android": "https://dc.lft.to/lastmile_qr_scan"}, "lat": 38.90983466666667, "lon": -77.0217115, "fusion_lat": 0.0, "name": "86a2e1f3f65dcb777bda6bf572922868", "is_disabled": 0, "is_reserved": 0, "bike_id": "86a2e1f3f65dcb777bda6bf572922868", "fusion_lon": 0.0, "type": "electric_scooter"}, {"rental_uris": {"ios": "https://dc.lft.to/lastmile_qr_scan", "android": "https://dc.lft.to/lastmile_qr_scan"}, "lat": 38.9169815, "lon": -77.0265635, "fusion_lat": 0.0, "name": "db831c0ced3f1017cf453e64d6408ded", "is_disabled": 0, "is_reserved": 0, "bike_id": "db831c0ced3f1017cf453e64d6408ded", "fusion_lon": 0.0, "type": "electric_scooter"}, {"rental_uris": {"ios": "https://dc.lft.to/lastmile_qr_scan", "android": "https://dc.lft.to/lastmile_qr_scan"}, "lat": 38.90634466666667, "lon": -77.04873616666667, "fusion_lat": 0.0, "name": "5cdfb6feabe61215171e8a0036443661", "is_disabled": 0, "is_reserved": 0, "bike_id": "5cdfb6feabe61215171e8a0036443661", "fusion_lon": 0.0, "type": "electric_scooter"}, {"rental_uris": {"ios": "https://dc.lft.to/lastmile_qr_scan", "android": "https://dc.lft.to/lastmile_qr_scan"}, "lat": 38.89310183333333, "lon": -76.939707, "fusion_lat": 0.0, "name": "ea79169c75f7395364677cad93c78cfa", "is_disabled": 0, "is_reserved": 0, "bike_id": "ea79169c75f7395364677cad93c78cfa", "fusion_lon": 0.0, "type": "electric_scooter"}, {"rental_uris": {"ios": "https://dc.lft.to/lastmile_qr_scan", "android": "https://dc.lft.to/lastmile_qr_scan"}, "lat": 38.903837, "lon": -77.0160095, "fusion_lat": 0.0, "name": "f92fd0b352f4bce3f100d6f9ccc9e573", "is_disabled": 0, "is_reserved": 0, "bike_id": "f92fd0b352f4bce3f100d6f9ccc9e573", "fusion_lon": 0.0, "type": "electric_scooter"}, {"rental_uris": {"ios": "https://dc.lft.to/lastmile_qr_scan", "android": "https://dc.lft.to/lastmile_qr_scan"}, "lat": 38.92609083333333, "lon": -77.0419815, "fusion_lat": 0.0, "name": "f28461f913b613dd8cb031a13de17c5c", "is_disabled": 0, "is_reserved": 0, "bike_id": "f28461f913b613dd8cb031a13de17c5c", "fusion_lon": 0.0, "type": "electric_scooter"}, {"rental_uris": {"ios": "https://dc.lft.to/lastmile_qr_scan", "android": "https://dc.lft.to/lastmile_qr_scan"}, "lat": 38.89917333333333, "lon": -76.93367516666666, "fusion_lat": 0.0, "name": "4c3238c64ac9c344db5dd5e2ea88dd40", "is_disabled": 0, "is_reserved": 0, "bike_id": "4c3238c64ac9c344db5dd5e2ea88dd40", "fusion_lon": 0.0, "type": "electric_scooter"}, {"rental_uris": {"ios": "https://dc.lft.to/lastmile_qr_scan", "android": "https://dc.lft.to/lastmile_qr_scan"}, "lat": 38.936494, "lon": -77.0334565, "fusion_lat": 0.0, "name": "41c1b75ee2dfe65ea0f600fef0aad3e4", "is_disabled": 0, "is_reserved": 0, "bike_id": "41c1b75ee2dfe65ea0f600fef0aad3e4", "fusion_lon": 0.0, "type": "electric_scooter"}, {"rental_uris": {"ios": "https://dc.lft.to/lastmile_qr_scan", "android": "https://dc.lft.to/lastmile_qr_scan"}, "lat": 38.902795166666664, "lon": -77.033806, "fusion_lat": 0.0, "name": "6130aafadd68021fefbf71fefe4f8395", "is_disabled": 0, "is_reserved": 0, "bike_id": "6130aafadd68021fefbf71fefe4f8395", "fusion_lon": 0.0, "type": "electric_scooter"}, {"rental_uris": {"ios": "https://dc.lft.to/lastmile_qr_scan", "android": "https://dc.lft.to/lastmile_qr_scan"}, "lat": 38.9066165, "lon": -77.04847066666666, "fusion_lat": 0.0, "name": "0eb51884ad406a958cd98c4e17ea636b", "is_disabled": 0, "is_reserved": 0, "bike_id": "0eb51884ad406a958cd98c4e17ea636b", "fusion_lon": 0.0, "type": "electric_scooter"}, {"rental_uris": {"ios": "https://dc.lft.to/lastmile_qr_scan", "android": "https://dc.lft.to/lastmile_qr_scan"}, "lat": 38.892201166666666, "lon": -77.04367033333334, "fusion_lat": 0.0, "name": "1bf08099a8e0e7942e0ac50049c7cea1", "is_disabled": 0, "is_reserved": 0, "bike_id": "1bf08099a8e0e7942e0ac50049c7cea1", "fusion_lon": 0.0, "type": "electric_scooter"}, {"rental_uris": {"ios": "https://dc.lft.to/lastmile_qr_scan", "android": "https://dc.lft.to/lastmile_qr_scan"}, "lat": 38.91116433333333, "lon": -77.04475383333333, "fusion_lat": 0.0, "name": "20ec286979dede92864ff569dff171b6", "is_disabled": 0, "is_reserved": 0, "bike_id": "20ec286979dede92864ff569dff171b6", "fusion_lon": 0.0, "type": "electric_scooter"}, {"rental_uris": {"ios": "https://dc.lft.to/lastmile_qr_scan", "android": "https://dc.lft.to/lastmile_qr_scan"}, "lat": 38.862483833333336, "lon": -76.99500566666667, "fusion_lat": 0.0, "name": "60b61acbf491dd6d46d238eb90af62f1", "is_disabled": 0, "is_reserved": 0, "bike_id": "60b61acbf491dd6d46d238eb90af62f1", "fusion_lon": 0.0, "type": "electric_scooter"}, {"rental_uris": {"ios": "https://dc.lft.to/lastmile_qr_scan", "android": "https://dc.lft.to/lastmile_qr_scan"}, "lat": 38.866851833333335, "lon": -76.98575116666666, "fusion_lat": 0.0, "name": "c43892bdd694545c9882c3038ae9db1c", "is_disabled": 0, "is_reserved": 0, "bike_id": "c43892bdd694545c9882c3038ae9db1c", "fusion_lon": 0.0, "type": "electric_scooter"}, {"rental_uris": {"ios": "https://dc.lft.to/lastmile_qr_scan", "android": "https://dc.lft.to/lastmile_qr_scan"}, "lat": 38.954276, "lon": -76.9813515, "fusion_lat": 0.0, "name": "6f32911061d89cffef8e5279f089e333", "is_disabled": 0, "is_reserved": 0, "bike_id": "6f32911061d89cffef8e5279f089e333", "fusion_lon": 0.0, "type": "electric_bike"}, {"rental_uris": {"ios": "https://dc.lft.to/lastmile_qr_scan", "android": "https://dc.lft.to/lastmile_qr_scan"}, "lat": 38.92539383333333, "lon": -77.02136616666667, "fusion_lat": 0.0, "name": "71304b2be035ab24df0866441b1d1608", "is_disabled": 0, "is_reserved": 0, "bike_id": "71304b2be035ab24df0866441b1d1608", "fusion_lon": 0.0, "type": "electric_scooter"}, {"rental_uris": {"ios": "https://dc.lft.to/lastmile_qr_scan", "android": "https://dc.lft.to/lastmile_qr_scan"}, "lat": 38.9003015, "lon": -77.01183433333334, "fusion_lat": 0.0, "name": "b15faf7e9bbb1fa7eec544c3a3f1f502", "is_disabled": 0, "is_reserved": 0, "bike_id": "b15faf7e9bbb1fa7eec544c3a3f1f502", "fusion_lon": 0.0, "type": "electric_scooter"}, {"rental_uris": {"ios": "https://dc.lft.to/lastmile_qr_scan", "android": "https://dc.lft.to/lastmile_qr_scan"}, "lat": 38.9068745, "lon": -77.023859, "fusion_lat": 0.0, "name": "2f65f3cd94579635be0306325ba98c9e", "is_disabled": 0, "is_reserved": 0, "bike_id": "2f65f3cd94579635be0306325ba98c9e", "fusion_lon": 0.0, "type": "electric_scooter"}, {"rental_uris": {"ios": "https://dc.lft.to/lastmile_qr_scan", "android": "https://dc.lft.to/lastmile_qr_scan"}, "lat": 38.932243666666665, "lon": -77.03872, "fusion_lat": 0.0, "name": "77a2601d22fe21d55fcb008786171c8f", "is_disabled": 0, "is_reserved": 0, "bike_id": "77a2601d22fe21d55fcb008786171c8f", "fusion_lon": 0.0, "type": "electric_scooter"}, {"rental_uris": {"ios": "https://dc.lft.to/lastmile_qr_scan", "android": "https://dc.lft.to/lastmile_qr_scan"}, "lat": 38.9226825, "lon": -77.036767, "fusion_lat": 0.0, "name": "2f4ed6274122e62013bb83e003b7b879", "is_disabled": 0, "is_reserved": 0, "bike_id": "2f4ed6274122e62013bb83e003b7b879", "fusion_lon": 0.0, "type": "electric_scooter"}, {"rental_uris": {"ios": "https://dc.lft.to/lastmile_qr_scan", "android": "https://dc.lft.to/lastmile_qr_scan"}, "lat": 38.900948, "lon": -77.02723566666667, "fusion_lat": 0.0, "name": "f1fe7e64b468bbd39daa3390e999a6b9", "is_disabled": 0, "is_reserved": 0, "bike_id": "f1fe7e64b468bbd39daa3390e999a6b9", "fusion_lon": 0.0, "type": "electric_scooter"}, {"rental_uris": {"ios": "https://dc.lft.to/lastmile_qr_scan", "android": "https://dc.lft.to/lastmile_qr_scan"}, "lat": 38.933499, "lon": -77.06205666666666, "fusion_lat": 0.0, "name": "a0a22c9ba517b39c93e2367f222bc64d", "is_disabled": 0, "is_reserved": 0, "bike_id": "a0a22c9ba517b39c93e2367f222bc64d", "fusion_lon": 0.0, "type": "electric_scooter"}, {"rental_uris": {"ios": "https://dc.lft.to/lastmile_qr_scan", "android": "https://dc.lft.to/lastmile_qr_scan"}, "lat": 38.91689916666667, "lon": -77.04083216666666, "fusion_lat": 0.0, "name": "d1cf4b54e0d217df6e3c4bfa1cc383b7", "is_disabled": 0, "is_reserved": 0, "bike_id": "d1cf4b54e0d217df6e3c4bfa1cc383b7", "fusion_lon": 0.0, "type": "electric_scooter"}, {"rental_uris": {"ios": "https://dc.lft.to/lastmile_qr_scan", "android": "https://dc.lft.to/lastmile_qr_scan"}, "lat": 38.8717365, "lon": -77.0067975, "fusion_lat": 0.0, "name": "b49405f494d0875ad19390bc302b8429", "is_disabled": 0, "is_reserved": 0, "bike_id": "b49405f494d0875ad19390bc302b8429", "fusion_lon": 0.0, "type": "electric_scooter"}, {"rental_uris": {"ios": "https://dc.lft.to/lastmile_qr_scan", "android": "https://dc.lft.to/lastmile_qr_scan"}, "lat": 38.92873766666666, "lon": -77.03217433333333, "fusion_lat": 0.0, "name": "1aa655be6f3e2d3d26ce4c7e81adad07", "is_disabled": 0, "is_reserved": 0, "bike_id": "1aa655be6f3e2d3d26ce4c7e81adad07", "fusion_lon": 0.0, "type": "electric_scooter"}, {"rental_uris": {"ios": "https://dc.lft.to/lastmile_qr_scan", "android": "https://dc.lft.to/lastmile_qr_scan"}, "lat": 38.93160116666667, "lon": -77.0012135, "fusion_lat": 0.0, "name": "b622244c6f58aef2d3a5460a4cb34d55", "is_disabled": 0, "is_reserved": 0, "bike_id": "b622244c6f58aef2d3a5460a4cb34d55", "fusion_lon": 0.0, "type": "electric_bike"}, {"rental_uris": {"ios": "https://dc.lft.to/lastmile_qr_scan", "android": "https://dc.lft.to/lastmile_qr_scan"}, "lat": 38.89968183333333, "lon": -77.05565916666667, "fusion_lat": 0.0, "name": "e3e81b12e95413505f4a3360524b7976", "is_disabled": 0, "is_reserved": 0, "bike_id": "e3e81b12e95413505f4a3360524b7976", "fusion_lon": 0.0, "type": "electric_scooter"}, {"rental_uris": {"ios": "https://dc.lft.to/lastmile_qr_scan", "android": "https://dc.lft.to/lastmile_qr_scan"}, "lat": 38.924372, "lon": -77.03403216666666, "fusion_lat": 0.0, "name": "bc171ac75513e09723b7936a7bb3982c", "is_disabled": 0, "is_reserved": 0, "bike_id": "bc171ac75513e09723b7936a7bb3982c", "fusion_lon": 0.0, "type": "electric_scooter"}, {"rental_uris": {"ios": "https://dc.lft.to/lastmile_qr_scan", "android": "https://dc.lft.to/lastmile_qr_scan"}, "lat": 38.89840266666667, "lon": -77.0483145, "fusion_lat": 0.0, "name": "0eaea8bd1b8c4a3343b9568b0036a9e1", "is_disabled": 0, "is_reserved": 0, "bike_id": "0eaea8bd1b8c4a3343b9568b0036a9e1", "fusion_lon": 0.0, "type": "electric_scooter"}, {"rental_uris": {"ios": "https://dc.lft.to/lastmile_qr_scan", "android": "https://dc.lft.to/lastmile_qr_scan"}, "lat": 38.91174516666667, "lon": -77.00188016666667, "fusion_lat": 0.0, "name": "57b60834c7a5e783a3739129f4c3a69a", "is_disabled": 0, "is_reserved": 0, "bike_id": "57b60834c7a5e783a3739129f4c3a69a", "fusion_lon": 0.0, "type": "electric_scooter"}, {"rental_uris": {"ios": "https://dc.lft.to/lastmile_qr_scan", "android": "https://dc.lft.to/lastmile_qr_scan"}, "lat": 38.92854283333333, "lon": -77.032625, "fusion_lat": 0.0, "name": "7862960eb51682f9bb7b6d70e9473bcf", "is_disabled": 0, "is_reserved": 0, "bike_id": "7862960eb51682f9bb7b6d70e9473bcf", "fusion_lon": 0.0, "type": "electric_scooter"}, {"rental_uris": {"ios": "https://dc.lft.to/lastmile_qr_scan", "android": "https://dc.lft.to/lastmile_qr_scan"}, "lat": 38.9114005, "lon": -76.990123, "fusion_lat": 0.0, "name": "cbc604968348d064a859e2aa1b8f780c", "is_disabled": 0, "is_reserved": 0, "bike_id": "cbc604968348d064a859e2aa1b8f780c", "fusion_lon": 0.0, "type": "electric_scooter"}, {"rental_uris": {"ios": "https://dc.lft.to/lastmile_qr_scan", "android": "https://dc.lft.to/lastmile_qr_scan"}, "lat": 38.87170883333334, "lon": -77.006326, "fusion_lat": 0.0, "name": "5f0e0c611b7be27e560ef68c697dfb2a", "is_disabled": 0, "is_reserved": 0, "bike_id": "5f0e0c611b7be27e560ef68c697dfb2a", "fusion_lon": 0.0, "type": "electric_scooter"}, {"rental_uris": {"ios": "https://dc.lft.to/lastmile_qr_scan", "android": "https://dc.lft.to/lastmile_qr_scan"}, "lat": 38.892271, "lon": -77.025405, "fusion_lat": 0.0, "name": "5a8e7d41d9bf6a651946931d92a7545b", "is_disabled": 0, "is_reserved": 0, "bike_id": "5a8e7d41d9bf6a651946931d92a7545b", "fusion_lon": 0.0, "type": "electric_scooter"}, {"rental_uris": {"ios": "https://dc.lft.to/lastmile_qr_scan", "android": "https://dc.lft.to/lastmile_qr_scan"}, "lat": 38.87291883333333, "lon": -77.1392755, "fusion_lat": 0.0, "name": "5439add1a84afeb8a98cc52d6044c1e6", "is_disabled": 0, "is_reserved": 0, "bike_id": "5439add1a84afeb8a98cc52d6044c1e6", "fusion_lon": 0.0, "type": "electric_bike"}, {"rental_uris": {"ios": "https://dc.lft.to/lastmile_qr_scan", "android": "https://dc.lft.to/lastmile_qr_scan"}, "lat": 38.91446716666667, "lon": -77.04156916666666, "fusion_lat": 0.0, "name": "90457842dc768c74169efa8adae5c72f", "is_disabled": 0, "is_reserved": 0, "bike_id": "90457842dc768c74169efa8adae5c72f", "fusion_lon": 0.0, "type": "electric_scooter"}, {"rental_uris": {"ios": "https://dc.lft.to/lastmile_qr_scan", "android": "https://dc.lft.to/lastmile_qr_scan"}, "lat": 38.90054266666667, "lon": -77.0006705, "fusion_lat": 0.0, "name": "7a91e1aacb02314ec02e7bc59dc18657", "is_disabled": 0, "is_reserved": 0, "bike_id": "7a91e1aacb02314ec02e7bc59dc18657", "fusion_lon": 0.0, "type": "electric_scooter"}, {"rental_uris": {"ios": "https://dc.lft.to/lastmile_qr_scan", "android": "https://dc.lft.to/lastmile_qr_scan"}, "lat": 38.89613383333333, "lon": -77.0220045, "fusion_lat": 0.0, "name": "5359eca6165023620dbc37a075edd675", "is_disabled": 0, "is_reserved": 0, "bike_id": "5359eca6165023620dbc37a075edd675", "fusion_lon": 0.0, "type": "electric_scooter"}, {"rental_uris": {"ios": "https://dc.lft.to/lastmile_qr_scan", "android": "https://dc.lft.to/lastmile_qr_scan"}, "lat": 38.91774783333334, "lon": -77.02318316666667, "fusion_lat": 0.0, "name": "aeddd9eb3d727d28358a5a3b189f062a", "is_disabled": 0, "is_reserved": 0, "bike_id": "aeddd9eb3d727d28358a5a3b189f062a", "fusion_lon": 0.0, "type": "electric_scooter"}, {"rental_uris": {"ios": "https://dc.lft.to/lastmile_qr_scan", "android": "https://dc.lft.to/lastmile_qr_scan"}, "lat": 38.91798083333333, "lon": -77.02950066666666, "fusion_lat": 0.0, "name": "7fcb9601f04dd74a60298e4834b5fdf2", "is_disabled": 0, "is_reserved": 0, "bike_id": "7fcb9601f04dd74a60298e4834b5fdf2", "fusion_lon": 0.0, "type": "electric_scooter"}, {"rental_uris": {"ios": "https://dc.lft.to/lastmile_qr_scan", "android": "https://dc.lft.to/lastmile_qr_scan"}, "lat": 38.9224185, "lon": -77.04010616666666, "fusion_lat": 0.0, "name": "f1fab3cb37bd17e704b39967d16bae30", "is_disabled": 0, "is_reserved": 0, "bike_id": "f1fab3cb37bd17e704b39967d16bae30", "fusion_lon": 0.0, "type": "electric_scooter"}, {"rental_uris": {"ios": "https://dc.lft.to/lastmile_qr_scan", "android": "https://dc.lft.to/lastmile_qr_scan"}, "lat": 38.92160883333333, "lon": -77.03375483333333, "fusion_lat": 0.0, "name": "ef6d0043618bf924d7d099b6054bf497", "is_disabled": 0, "is_reserved": 0, "bike_id": "ef6d0043618bf924d7d099b6054bf497", "fusion_lon": 0.0, "type": "electric_scooter"}, {"rental_uris": {"ios": "https://dc.lft.to/lastmile_qr_scan", "android": "https://dc.lft.to/lastmile_qr_scan"}, "lat": 38.93623733333333, "lon": -76.97970216666667, "fusion_lat": 0.0, "name": "dccdc884cc74e3a670e5ee625ac079bd", "is_disabled": 0, "is_reserved": 0, "bike_id": "dccdc884cc74e3a670e5ee625ac079bd", "fusion_lon": 0.0, "type": "electric_scooter"}, {"rental_uris": {"ios": "https://dc.lft.to/lastmile_qr_scan", "android": "https://dc.lft.to/lastmile_qr_scan"}, "lat": 38.90645166666667, "lon": -77.042922, "fusion_lat": 0.0, "name": "685fead9d5f4314a7847dcf627b40a01", "is_disabled": 0, "is_reserved": 0, "bike_id": "685fead9d5f4314a7847dcf627b40a01", "fusion_lon": 0.0, "type": "electric_scooter"}, {"rental_uris": {"ios": "https://dc.lft.to/lastmile_qr_scan", "android": "https://dc.lft.to/lastmile_qr_scan"}, "lat": 38.896023, "lon": -77.01039716666666, "fusion_lat": 0.0, "name": "6cc87223f280840527c0595201fd95b3", "is_disabled": 0, "is_reserved": 0, "bike_id": "6cc87223f280840527c0595201fd95b3", "fusion_lon": 0.0, "type": "electric_scooter"}, {"rental_uris": {"ios": "https://dc.lft.to/lastmile_qr_scan", "android": "https://dc.lft.to/lastmile_qr_scan"}, "lat": 38.917029166666666, "lon": -77.0284065, "fusion_lat": 0.0, "name": "ad44259796d4d7a5090388196305fae3", "is_disabled": 0, "is_reserved": 0, "bike_id": "ad44259796d4d7a5090388196305fae3", "fusion_lon": 0.0, "type": "electric_scooter"}, {"rental_uris": {"ios": "https://dc.lft.to/lastmile_qr_scan", "android": "https://dc.lft.to/lastmile_qr_scan"}, "lat": 38.923188833333334, "lon": -77.04620333333334, "fusion_lat": 0.0, "name": "341d068febd5fc5637ffa79a6f1ae8cb", "is_disabled": 0, "is_reserved": 0, "bike_id": "341d068febd5fc5637ffa79a6f1ae8cb", "fusion_lon": 0.0, "type": "electric_scooter"}, {"rental_uris": {"ios": "https://dc.lft.to/lastmile_qr_scan", "android": "https://dc.lft.to/lastmile_qr_scan"}, "lat": 38.918176, "lon": -77.04001983333333, "fusion_lat": 0.0, "name": "b1fafe50ff985ce5719e464d0cb94e3b", "is_disabled": 0, "is_reserved": 0, "bike_id": "b1fafe50ff985ce5719e464d0cb94e3b", "fusion_lon": 0.0, "type": "electric_scooter"}, {"rental_uris": {"ios": "https://dc.lft.to/lastmile_qr_scan", "android": "https://dc.lft.to/lastmile_qr_scan"}, "lat": 38.90888666666667, "lon": -76.98235083333333, "fusion_lat": 0.0, "name": "885e01adaeac4126daa154e059607ebe", "is_disabled": 0, "is_reserved": 0, "bike_id": "885e01adaeac4126daa154e059607ebe", "fusion_lon": 0.0, "type": "electric_scooter"}, {"rental_uris": {"ios": "https://dc.lft.to/lastmile_qr_scan", "android": "https://dc.lft.to/lastmile_qr_scan"}, "lat": 38.911433333333335, "lon": -77.023853, "fusion_lat": 0.0, "name": "3946f946c0a9ca127742baa631974ab2", "is_disabled": 0, "is_reserved": 0, "bike_id": "3946f946c0a9ca127742baa631974ab2", "fusion_lon": 0.0, "type": "electric_scooter"}, {"rental_uris": {"ios": "https://dc.lft.to/lastmile_qr_scan", "android": "https://dc.lft.to/lastmile_qr_scan"}, "lat": 38.89132133333333, "lon": -76.95185833333333, "fusion_lat": 0.0, "name": "beb223b5e6cc74e3aee62e6a44c3c0eb", "is_disabled": 0, "is_reserved": 0, "bike_id": "beb223b5e6cc74e3aee62e6a44c3c0eb", "fusion_lon": 0.0, "type": "electric_scooter"}, {"rental_uris": {"ios": "https://dc.lft.to/lastmile_qr_scan", "android": "https://dc.lft.to/lastmile_qr_scan"}, "lat": 38.91397933333333, "lon": -77.0240775, "fusion_lat": 0.0, "name": "55c47a9c651e6b7c62de639fccc6dd8f", "is_disabled": 0, "is_reserved": 0, "bike_id": "55c47a9c651e6b7c62de639fccc6dd8f", "fusion_lon": 0.0, "type": "electric_scooter"}, {"rental_uris": {"ios": "https://dc.lft.to/lastmile_qr_scan", "android": "https://dc.lft.to/lastmile_qr_scan"}, "lat": 38.91232483333334, "lon": -77.01238466666666, "fusion_lat": 0.0, "name": "825f80ff035d0c2f6b9609f076bb3a26", "is_disabled": 0, "is_reserved": 0, "bike_id": "825f80ff035d0c2f6b9609f076bb3a26", "fusion_lon": 0.0, "type": "electric_scooter"}, {"rental_uris": {"ios": "https://dc.lft.to/lastmile_qr_scan", "android": "https://dc.lft.to/lastmile_qr_scan"}, "lat": 38.92759516666667, "lon": -77.05652816666667, "fusion_lat": 0.0, "name": "aa38a260a35505cc668e09dda765002e", "is_disabled": 0, "is_reserved": 0, "bike_id": "aa38a260a35505cc668e09dda765002e", "fusion_lon": 0.0, "type": "electric_scooter"}, {"rental_uris": {"ios": "https://dc.lft.to/lastmile_qr_scan", "android": "https://dc.lft.to/lastmile_qr_scan"}, "lat": 38.9178695, "lon": -77.0231145, "fusion_lat": 0.0, "name": "48baa373026472a91d1f5fcb73b4acf9", "is_disabled": 0, "is_reserved": 0, "bike_id": "48baa373026472a91d1f5fcb73b4acf9", "fusion_lon": 0.0, "type": "electric_scooter"}, {"rental_uris": {"ios": "https://dc.lft.to/lastmile_qr_scan", "android": "https://dc.lft.to/lastmile_qr_scan"}, "lat": 38.871762333333336, "lon": -77.006259, "fusion_lat": 0.0, "name": "0a5cac25637b44c6e15e51d862231d22", "is_disabled": 0, "is_reserved": 0, "bike_id": "0a5cac25637b44c6e15e51d862231d22", "fusion_lon": 0.0, "type": "electric_scooter"}, {"rental_uris": {"ios": "https://dc.lft.to/lastmile_qr_scan", "android": "https://dc.lft.to/lastmile_qr_scan"}, "lat": 38.897385166666666, "lon": -77.04444483333333, "fusion_lat": 0.0, "name": "1340e4cef7a57235330183b5c6d1c45d", "is_disabled": 0, "is_reserved": 0, "bike_id": "1340e4cef7a57235330183b5c6d1c45d", "fusion_lon": 0.0, "type": "electric_scooter"}, {"rental_uris": {"ios": "https://dc.lft.to/lastmile_qr_scan", "android": "https://dc.lft.to/lastmile_qr_scan"}, "lat": 38.9004095, "lon": -76.99827616666667, "fusion_lat": 0.0, "name": "0c3c04916809b68f66f40e089c494cd7", "is_disabled": 0, "is_reserved": 0, "bike_id": "0c3c04916809b68f66f40e089c494cd7", "fusion_lon": 0.0, "type": "electric_scooter"}, {"rental_uris": {"ios": "https://dc.lft.to/lastmile_qr_scan", "android": "https://dc.lft.to/lastmile_qr_scan"}, "lat": 39.03699666666667, "lon": -77.02862083333333, "fusion_lat": 0.0, "name": "85bfbdfcb8c9bafdbceab9674f4107c7", "is_disabled": 0, "is_reserved": 0, "bike_id": "85bfbdfcb8c9bafdbceab9674f4107c7", "fusion_lon": 0.0, "type": "electric_bike"}, {"rental_uris": {"ios": "https://dc.lft.to/lastmile_qr_scan", "android": "https://dc.lft.to/lastmile_qr_scan"}, "lat": 38.915305833333335, "lon": -77.018468, "fusion_lat": 0.0, "name": "1d2c147ee0cfd11bd68a1a193349d5e1", "is_disabled": 0, "is_reserved": 0, "bike_id": "1d2c147ee0cfd11bd68a1a193349d5e1", "fusion_lon": 0.0, "type": "electric_scooter"}, {"rental_uris": {"ios": "https://dc.lft.to/lastmile_qr_scan", "android": "https://dc.lft.to/lastmile_qr_scan"}, "lat": 38.87175, "lon": -77.006251, "fusion_lat": 0.0, "name": "ddb32d0b31bf8d73a2005225d9c15397", "is_disabled": 0, "is_reserved": 0, "bike_id": "ddb32d0b31bf8d73a2005225d9c15397", "fusion_lon": 0.0, "type": "electric_scooter"}, {"rental_uris": {"ios": "https://dc.lft.to/lastmile_qr_scan", "android": "https://dc.lft.to/lastmile_qr_scan"}, "lat": 38.915774, "lon": -77.01958716666667, "fusion_lat": 0.0, "name": "7b2b2c487517190bab1f0eb65581f97b", "is_disabled": 0, "is_reserved": 0, "bike_id": "7b2b2c487517190bab1f0eb65581f97b", "fusion_lon": 0.0, "type": "electric_scooter"}, {"rental_uris": {"ios": "https://dc.lft.to/lastmile_qr_scan", "android": "https://dc.lft.to/lastmile_qr_scan"}, "lat": 38.948972166666664, "lon": -76.9637525, "fusion_lat": 0.0, "name": "93ac04995f88dbf6dd4cb468559b8f21", "is_disabled": 0, "is_reserved": 0, "bike_id": "93ac04995f88dbf6dd4cb468559b8f21", "fusion_lon": 0.0, "type": "electric_bike"}, {"rental_uris": {"ios": "https://dc.lft.to/lastmile_qr_scan", "android": "https://dc.lft.to/lastmile_qr_scan"}, "lat": 38.939203, "lon": -77.0604915, "fusion_lat": 0.0, "name": "4de3a4e772186c63fceb8dcac0ff9496", "is_disabled": 0, "is_reserved": 0, "bike_id": "4de3a4e772186c63fceb8dcac0ff9496", "fusion_lon": 0.0, "type": "electric_scooter"}, {"rental_uris": {"ios": "https://dc.lft.to/lastmile_qr_scan", "android": "https://dc.lft.to/lastmile_qr_scan"}, "lat": 38.91592583333333, "lon": -77.02299483333333, "fusion_lat": 0.0, "name": "6b5a15c5986172d374f0b7530661bcfc", "is_disabled": 0, "is_reserved": 0, "bike_id": "6b5a15c5986172d374f0b7530661bcfc", "fusion_lon": 0.0, "type": "electric_scooter"}, {"rental_uris": {"ios": "https://dc.lft.to/lastmile_qr_scan", "android": "https://dc.lft.to/lastmile_qr_scan"}, "lat": 38.91418816666667, "lon": -77.026136, "fusion_lat": 0.0, "name": "3fa1f491419c0d3c536ab514756db9e5", "is_disabled": 0, "is_reserved": 0, "bike_id": "3fa1f491419c0d3c536ab514756db9e5", "fusion_lon": 0.0, "type": "electric_scooter"}, {"rental_uris": {"ios": "https://dc.lft.to/lastmile_qr_scan", "android": "https://dc.lft.to/lastmile_qr_scan"}, "lat": 38.8756225, "lon": -76.95867916666667, "fusion_lat": 0.0, "name": "44e559f6bfa57fdda00eae7784fd94b6", "is_disabled": 0, "is_reserved": 0, "bike_id": "44e559f6bfa57fdda00eae7784fd94b6", "fusion_lon": 0.0, "type": "electric_scooter"}, {"rental_uris": {"ios": "https://dc.lft.to/lastmile_qr_scan", "android": "https://dc.lft.to/lastmile_qr_scan"}, "lat": 38.919468, "lon": -77.01389466666667, "fusion_lat": 0.0, "name": "4f7dc289bbdce525d0a0dbee643e1a1e", "is_disabled": 0, "is_reserved": 0, "bike_id": "4f7dc289bbdce525d0a0dbee643e1a1e", "fusion_lon": 0.0, "type": "electric_scooter"}, {"rental_uris": {"ios": "https://dc.lft.to/lastmile_qr_scan", "android": "https://dc.lft.to/lastmile_qr_scan"}, "lat": 38.91443016666667, "lon": -77.04160433333334, "fusion_lat": 0.0, "name": "3194eb2cab31adb0d3908c29b4ce34f4", "is_disabled": 0, "is_reserved": 0, "bike_id": "3194eb2cab31adb0d3908c29b4ce34f4", "fusion_lon": 0.0, "type": "electric_scooter"}, {"rental_uris": {"ios": "https://dc.lft.to/lastmile_qr_scan", "android": "https://dc.lft.to/lastmile_qr_scan"}, "lat": 38.89836616666667, "lon": -77.01747616666667, "fusion_lat": 0.0, "name": "31fde1c6013b8584f0e0b6db62cc618a", "is_disabled": 0, "is_reserved": 0, "bike_id": "31fde1c6013b8584f0e0b6db62cc618a", "fusion_lon": 0.0, "type": "electric_scooter"}, {"rental_uris": {"ios": "https://dc.lft.to/lastmile_qr_scan", "android": "https://dc.lft.to/lastmile_qr_scan"}, "lat": 38.89721083333333, "lon": -76.98356233333334, "fusion_lat": 0.0, "name": "abc15ddcac4b8699baccd96ab955c898", "is_disabled": 0, "is_reserved": 0, "bike_id": "abc15ddcac4b8699baccd96ab955c898", "fusion_lon": 0.0, "type": "electric_scooter"}, {"rental_uris": {"ios": "https://dc.lft.to/lastmile_qr_scan", "android": "https://dc.lft.to/lastmile_qr_scan"}, "lat": 38.898424166666665, "lon": -77.04831216666666, "fusion_lat": 0.0, "name": "c7849d35a2c8b18429f614ae347d6520", "is_disabled": 0, "is_reserved": 0, "bike_id": "c7849d35a2c8b18429f614ae347d6520", "fusion_lon": 0.0, "type": "electric_scooter"}, {"rental_uris": {"ios": "https://dc.lft.to/lastmile_qr_scan", "android": "https://dc.lft.to/lastmile_qr_scan"}, "lat": 38.91488316666667, "lon": -77.02578383333334, "fusion_lat": 0.0, "name": "fe9d4bb8a900833347c7d18b747c39f5", "is_disabled": 0, "is_reserved": 0, "bike_id": "fe9d4bb8a900833347c7d18b747c39f5", "fusion_lon": 0.0, "type": "electric_scooter"}, {"rental_uris": {"ios": "https://dc.lft.to/lastmile_qr_scan", "android": "https://dc.lft.to/lastmile_qr_scan"}, "lat": 38.950980333333334, "lon": -77.08081266666667, "fusion_lat": 0.0, "name": "7b0b9f2cc5f34987ac4e447f2dc86c2b", "is_disabled": 0, "is_reserved": 0, "bike_id": "7b0b9f2cc5f34987ac4e447f2dc86c2b", "fusion_lon": 0.0, "type": "electric_bike"}, {"rental_uris": {"ios": "https://dc.lft.to/lastmile_qr_scan", "android": "https://dc.lft.to/lastmile_qr_scan"}, "lat": 38.919849, "lon": -77.02495683333333, "fusion_lat": 0.0, "name": "8f4ca43e3e8d1b012b86985c0a27f3c2", "is_disabled": 0, "is_reserved": 0, "bike_id": "8f4ca43e3e8d1b012b86985c0a27f3c2", "fusion_lon": 0.0, "type": "electric_scooter"}, {"rental_uris": {"ios": "https://dc.lft.to/lastmile_qr_scan", "android": "https://dc.lft.to/lastmile_qr_scan"}, "lat": 38.92422033333333, "lon": -77.01960516666666, "fusion_lat": 0.0, "name": "4d89e73eb857cfbfffe7da99e0209452", "is_disabled": 0, "is_reserved": 0, "bike_id": "4d89e73eb857cfbfffe7da99e0209452", "fusion_lon": 0.0, "type": "electric_scooter"}, {"rental_uris": {"ios": "https://dc.lft.to/lastmile_qr_scan", "android": "https://dc.lft.to/lastmile_qr_scan"}, "lat": 38.93970766666666, "lon": -77.02728066666667, "fusion_lat": 0.0, "name": "5db3169bd4b332689b2c7eaebaccce76", "is_disabled": 0, "is_reserved": 0, "bike_id": "5db3169bd4b332689b2c7eaebaccce76", "fusion_lon": 0.0, "type": "electric_scooter"}, {"rental_uris": {"ios": "https://dc.lft.to/lastmile_qr_scan", "android": "https://dc.lft.to/lastmile_qr_scan"}, "lat": 38.90026266666667, "lon": -77.0270535, "fusion_lat": 0.0, "name": "b23f8ca5262afed53626dbfb8da5d9c7", "is_disabled": 0, "is_reserved": 0, "bike_id": "b23f8ca5262afed53626dbfb8da5d9c7", "fusion_lon": 0.0, "type": "electric_scooter"}, {"rental_uris": {"ios": "https://dc.lft.to/lastmile_qr_scan", "android": "https://dc.lft.to/lastmile_qr_scan"}, "lat": 38.916656, "lon": -77.03204583333333, "fusion_lat": 0.0, "name": "7cc6dbe3aea63b9516d675ac73bd5d50", "is_disabled": 0, "is_reserved": 0, "bike_id": "7cc6dbe3aea63b9516d675ac73bd5d50", "fusion_lon": 0.0, "type": "electric_scooter"}, {"rental_uris": {"ios": "https://dc.lft.to/lastmile_qr_scan", "android": "https://dc.lft.to/lastmile_qr_scan"}, "lat": 38.896678333333334, "lon": -76.93209833333333, "fusion_lat": 0.0, "name": "b340197a51dce78d66bb60a9f95c26de", "is_disabled": 0, "is_reserved": 0, "bike_id": "b340197a51dce78d66bb60a9f95c26de", "fusion_lon": 0.0, "type": "electric_scooter"}, {"rental_uris": {"ios": "https://dc.lft.to/lastmile_qr_scan", "android": "https://dc.lft.to/lastmile_qr_scan"}, "lat": 38.90725366666667, "lon": -77.02374283333333, "fusion_lat": 0.0, "name": "41c3be1b5bc933e26d8abbaf1d6802ab", "is_disabled": 0, "is_reserved": 0, "bike_id": "41c3be1b5bc933e26d8abbaf1d6802ab", "fusion_lon": 0.0, "type": "electric_scooter"}, {"rental_uris": {"ios": "https://dc.lft.to/lastmile_qr_scan", "android": "https://dc.lft.to/lastmile_qr_scan"}, "lat": 38.903639, "lon": -77.046774, "fusion_lat": 0.0, "name": "4ab84e1720b80d46742d0f5332760d73", "is_disabled": 0, "is_reserved": 0, "bike_id": "4ab84e1720b80d46742d0f5332760d73", "fusion_lon": 0.0, "type": "electric_scooter"}, {"rental_uris": {"ios": "https://dc.lft.to/lastmile_qr_scan", "android": "https://dc.lft.to/lastmile_qr_scan"}, "lat": 38.898432666666665, "lon": -77.0443675, "fusion_lat": 0.0, "name": "a4214e13e1bb0dff93323b4116870eab", "is_disabled": 0, "is_reserved": 0, "bike_id": "a4214e13e1bb0dff93323b4116870eab", "fusion_lon": 0.0, "type": "electric_scooter"}, {"rental_uris": {"ios": "https://dc.lft.to/lastmile_qr_scan", "android": "https://dc.lft.to/lastmile_qr_scan"}, "lat": 38.911199333333336, "lon": -77.03280283333334, "fusion_lat": 0.0, "name": "780aa9d6faf0142eb57b1d294cb175c3", "is_disabled": 0, "is_reserved": 0, "bike_id": "780aa9d6faf0142eb57b1d294cb175c3", "fusion_lon": 0.0, "type": "electric_scooter"}, {"rental_uris": {"ios": "https://dc.lft.to/lastmile_qr_scan", "android": "https://dc.lft.to/lastmile_qr_scan"}, "lat": 38.91406416666667, "lon": -77.02380483333333, "fusion_lat": 0.0, "name": "bfffa3d4809e769ff2270a8ff89fcef2", "is_disabled": 0, "is_reserved": 0, "bike_id": "bfffa3d4809e769ff2270a8ff89fcef2", "fusion_lon": 0.0, "type": "electric_scooter"}, {"rental_uris": {"ios": "https://dc.lft.to/lastmile_qr_scan", "android": "https://dc.lft.to/lastmile_qr_scan"}, "lat": 38.896093, "lon": -77.02634216666667, "fusion_lat": 0.0, "name": "8b16d438dd9674681c7189e6de4cf5c4", "is_disabled": 0, "is_reserved": 0, "bike_id": "8b16d438dd9674681c7189e6de4cf5c4", "fusion_lon": 0.0, "type": "electric_scooter"}, {"rental_uris": {"ios": "https://dc.lft.to/lastmile_qr_scan", "android": "https://dc.lft.to/lastmile_qr_scan"}, "lat": 38.94290566666667, "lon": -77.021718, "fusion_lat": 0.0, "name": "944f926c6e65eac04f87c817b1d111a3", "is_disabled": 0, "is_reserved": 0, "bike_id": "944f926c6e65eac04f87c817b1d111a3", "fusion_lon": 0.0, "type": "electric_scooter"}, {"rental_uris": {"ios": "https://dc.lft.to/lastmile_qr_scan", "android": "https://dc.lft.to/lastmile_qr_scan"}, "lat": 38.911132333333335, "lon": -77.04361816666666, "fusion_lat": 0.0, "name": "edf16aa28532efa2b342853f6ab08053", "is_disabled": 0, "is_reserved": 0, "bike_id": "edf16aa28532efa2b342853f6ab08053", "fusion_lon": 0.0, "type": "electric_scooter"}, {"rental_uris": {"ios": "https://dc.lft.to/lastmile_qr_scan", "android": "https://dc.lft.to/lastmile_qr_scan"}, "lat": 38.941719166666665, "lon": -76.99264233333334, "fusion_lat": 0.0, "name": "a197abb5a294a90c16fd284b48407523", "is_disabled": 0, "is_reserved": 0, "bike_id": "a197abb5a294a90c16fd284b48407523", "fusion_lon": 0.0, "type": "electric_bike"}, {"rental_uris": {"ios": "https://dc.lft.to/lastmile_qr_scan", "android": "https://dc.lft.to/lastmile_qr_scan"}, "lat": 38.92625133333333, "lon": -77.042209, "fusion_lat": 0.0, "name": "318c8b35836317312238fda41e7f53f4", "is_disabled": 0, "is_reserved": 0, "bike_id": "318c8b35836317312238fda41e7f53f4", "fusion_lon": 0.0, "type": "electric_scooter"}, {"rental_uris": {"ios": "https://dc.lft.to/lastmile_qr_scan", "android": "https://dc.lft.to/lastmile_qr_scan"}, "lat": 38.8966875, "lon": -76.9883275, "fusion_lat": 0.0, "name": "24fe3921f5e6b25bf87d1bab595acbff", "is_disabled": 0, "is_reserved": 0, "bike_id": "24fe3921f5e6b25bf87d1bab595acbff", "fusion_lon": 0.0, "type": "electric_scooter"}, {"rental_uris": {"ios": "https://dc.lft.to/lastmile_qr_scan", "android": "https://dc.lft.to/lastmile_qr_scan"}, "lat": 38.87421716666667, "lon": -77.08570983333334, "fusion_lat": 0.0, "name": "e308e4a8e9b26a2c14010214f97836e2", "is_disabled": 0, "is_reserved": 0, "bike_id": "e308e4a8e9b26a2c14010214f97836e2", "fusion_lon": 0.0, "type": "electric_bike"}, {"rental_uris": {"ios": "https://dc.lft.to/lastmile_qr_scan", "android": "https://dc.lft.to/lastmile_qr_scan"}, "lat": 38.894983833333335, "lon": -77.01084283333333, "fusion_lat": 0.0, "name": "7782d2c1bc956fc3cb2bd082e6a9cdc5", "is_disabled": 0, "is_reserved": 0, "bike_id": "7782d2c1bc956fc3cb2bd082e6a9cdc5", "fusion_lon": 0.0, "type": "electric_scooter"}, {"rental_uris": {"ios": "https://dc.lft.to/lastmile_qr_scan", "android": "https://dc.lft.to/lastmile_qr_scan"}, "lat": 38.92308083333333, "lon": -77.04460766666666, "fusion_lat": 0.0, "name": "57a53e3bc606cb994e4e33aacb937bfc", "is_disabled": 0, "is_reserved": 0, "bike_id": "57a53e3bc606cb994e4e33aacb937bfc", "fusion_lon": 0.0, "type": "electric_scooter"}, {"rental_uris": {"ios": "https://dc.lft.to/lastmile_qr_scan", "android": "https://dc.lft.to/lastmile_qr_scan"}, "lat": 38.887175, "lon": -76.99628566666667, "fusion_lat": 0.0, "name": "d435a8dd468dcb7f3ce63459a200d79e", "is_disabled": 0, "is_reserved": 0, "bike_id": "d435a8dd468dcb7f3ce63459a200d79e", "fusion_lon": 0.0, "type": "electric_scooter"}, {"rental_uris": {"ios": "https://dc.lft.to/lastmile_qr_scan", "android": "https://dc.lft.to/lastmile_qr_scan"}, "lat": 38.89609016666667, "lon": -77.02334, "fusion_lat": 0.0, "name": "6e9f78b6d529ebded1159ca7398fbb7e", "is_disabled": 0, "is_reserved": 0, "bike_id": "6e9f78b6d529ebded1159ca7398fbb7e", "fusion_lon": 0.0, "type": "electric_scooter"}, {"rental_uris": {"ios": "https://dc.lft.to/lastmile_qr_scan", "android": "https://dc.lft.to/lastmile_qr_scan"}, "lat": 38.90730633333333, "lon": -77.04075066666667, "fusion_lat": 0.0, "name": "4465efd53b10a70a8b1f9719438b1955", "is_disabled": 0, "is_reserved": 0, "bike_id": "4465efd53b10a70a8b1f9719438b1955", "fusion_lon": 0.0, "type": "electric_scooter"}, {"rental_uris": {"ios": "https://dc.lft.to/lastmile_qr_scan", "android": "https://dc.lft.to/lastmile_qr_scan"}, "lat": 38.899904166666666, "lon": -77.006771, "fusion_lat": 0.0, "name": "8a042ce44f6c09a07c0e743e01e35b02", "is_disabled": 0, "is_reserved": 0, "bike_id": "8a042ce44f6c09a07c0e743e01e35b02", "fusion_lon": 0.0, "type": "electric_scooter"}, {"rental_uris": {"ios": "https://dc.lft.to/lastmile_qr_scan", "android": "https://dc.lft.to/lastmile_qr_scan"}, "lat": 38.896747833333336, "lon": -77.0280255, "fusion_lat": 0.0, "name": "ae6f3eb55799c6b54de9584d4f54366a", "is_disabled": 0, "is_reserved": 0, "bike_id": "ae6f3eb55799c6b54de9584d4f54366a", "fusion_lon": 0.0, "type": "electric_scooter"}, {"rental_uris": {"ios": "https://dc.lft.to/lastmile_qr_scan", "android": "https://dc.lft.to/lastmile_qr_scan"}, "lat": 38.90107316666667, "lon": -77.00897166666667, "fusion_lat": 0.0, "name": "313d08ae07bfeb5ea6cf16a8c94d2ea3", "is_disabled": 0, "is_reserved": 0, "bike_id": "313d08ae07bfeb5ea6cf16a8c94d2ea3", "fusion_lon": 0.0, "type": "electric_scooter"}, {"rental_uris": {"ios": "https://dc.lft.to/lastmile_qr_scan", "android": "https://dc.lft.to/lastmile_qr_scan"}, "lat": 38.9013215, "lon": -77.04627533333333, "fusion_lat": 0.0, "name": "7cad9bf040b0e90c90d352f93f4b25ba", "is_disabled": 0, "is_reserved": 0, "bike_id": "7cad9bf040b0e90c90d352f93f4b25ba", "fusion_lon": 0.0, "type": "electric_scooter"}, {"rental_uris": {"ios": "https://dc.lft.to/lastmile_qr_scan", "android": "https://dc.lft.to/lastmile_qr_scan"}, "lat": 38.88405916666667, "lon": -76.9605905, "fusion_lat": 0.0, "name": "c1083f33d38c164d39324175560e6174", "is_disabled": 0, "is_reserved": 0, "bike_id": "c1083f33d38c164d39324175560e6174", "fusion_lon": 0.0, "type": "electric_bike"}, {"rental_uris": {"ios": "https://dc.lft.to/lastmile_qr_scan", "android": "https://dc.lft.to/lastmile_qr_scan"}, "lat": 38.91548433333333, "lon": -77.031971, "fusion_lat": 0.0, "name": "91c421333fb04e6a8ce5bf6511ae7c79", "is_disabled": 0, "is_reserved": 0, "bike_id": "91c421333fb04e6a8ce5bf6511ae7c79", "fusion_lon": 0.0, "type": "electric_scooter"}, {"rental_uris": {"ios": "https://dc.lft.to/lastmile_qr_scan", "android": "https://dc.lft.to/lastmile_qr_scan"}, "lat": 38.9289245, "lon": -77.03261433333333, "fusion_lat": 0.0, "name": "1494c91c2064452f0d957cb2b6764bad", "is_disabled": 0, "is_reserved": 0, "bike_id": "1494c91c2064452f0d957cb2b6764bad", "fusion_lon": 0.0, "type": "electric_scooter"}, {"rental_uris": {"ios": "https://dc.lft.to/lastmile_qr_scan", "android": "https://dc.lft.to/lastmile_qr_scan"}, "lat": 38.90080366666667, "lon": -77.05042216666666, "fusion_lat": 0.0, "name": "6af5fb26edbf37f9df353de41cd5371a", "is_disabled": 0, "is_reserved": 0, "bike_id": "6af5fb26edbf37f9df353de41cd5371a", "fusion_lon": 0.0, "type": "electric_scooter"}, {"rental_uris": {"ios": "https://dc.lft.to/lastmile_qr_scan", "android": "https://dc.lft.to/lastmile_qr_scan"}, "lat": 38.8747665, "lon": -77.00253716666667, "fusion_lat": 0.0, "name": "54a030fc0eec3be6bcb69340a0ee0ec9", "is_disabled": 0, "is_reserved": 0, "bike_id": "54a030fc0eec3be6bcb69340a0ee0ec9", "fusion_lon": 0.0, "type": "electric_scooter"}, {"rental_uris": {"ios": "https://dc.lft.to/lastmile_qr_scan", "android": "https://dc.lft.to/lastmile_qr_scan"}, "lat": 38.924719, "lon": -77.039149, "fusion_lat": 0.0, "name": "f59a4b43eaa10ff15fa466f2a3cfd10a", "is_disabled": 0, "is_reserved": 0, "bike_id": "f59a4b43eaa10ff15fa466f2a3cfd10a", "fusion_lon": 0.0, "type": "electric_scooter"}, {"rental_uris": {"ios": "https://dc.lft.to/lastmile_qr_scan", "android": "https://dc.lft.to/lastmile_qr_scan"}, "lat": 38.90090283333333, "lon": -77.01215533333334, "fusion_lat": 0.0, "name": "1f82b9040eb5379622791137567e0978", "is_disabled": 0, "is_reserved": 0, "bike_id": "1f82b9040eb5379622791137567e0978", "fusion_lon": 0.0, "type": "electric_scooter"}, {"rental_uris": {"ios": "https://dc.lft.to/lastmile_qr_scan", "android": "https://dc.lft.to/lastmile_qr_scan"}, "lat": 38.877022, "lon": -77.0177225, "fusion_lat": 0.0, "name": "869d588975d48b22dfccd182f5a07059", "is_disabled": 0, "is_reserved": 0, "bike_id": "869d588975d48b22dfccd182f5a07059", "fusion_lon": 0.0, "type": "electric_scooter"}, {"rental_uris": {"ios": "https://dc.lft.to/lastmile_qr_scan", "android": "https://dc.lft.to/lastmile_qr_scan"}, "lat": 38.924796666666666, "lon": -77.03783966666667, "fusion_lat": 0.0, "name": "6ba71f2fe1a4cda6dc39bd5dea520d12", "is_disabled": 0, "is_reserved": 0, "bike_id": "6ba71f2fe1a4cda6dc39bd5dea520d12", "fusion_lon": 0.0, "type": "electric_scooter"}, {"rental_uris": {"ios": "https://dc.lft.to/lastmile_qr_scan", "android": "https://dc.lft.to/lastmile_qr_scan"}, "lat": 38.914657166666665, "lon": -77.00202283333333, "fusion_lat": 0.0, "name": "d9c003ac44bb9ce9e18cfd23c34c3395", "is_disabled": 0, "is_reserved": 0, "bike_id": "d9c003ac44bb9ce9e18cfd23c34c3395", "fusion_lon": 0.0, "type": "electric_scooter"}, {"rental_uris": {"ios": "https://dc.lft.to/lastmile_qr_scan", "android": "https://dc.lft.to/lastmile_qr_scan"}, "lat": 38.93532966666667, "lon": -77.02345266666667, "fusion_lat": 0.0, "name": "9505fedb3903e376f1e5c94802d54377", "is_disabled": 0, "is_reserved": 0, "bike_id": "9505fedb3903e376f1e5c94802d54377", "fusion_lon": 0.0, "type": "electric_scooter"}, {"rental_uris": {"ios": "https://dc.lft.to/lastmile_qr_scan", "android": "https://dc.lft.to/lastmile_qr_scan"}, "lat": 38.906415833333334, "lon": -77.017932, "fusion_lat": 0.0, "name": "a245ab926056c174abe8bbd93808dfac", "is_disabled": 0, "is_reserved": 0, "bike_id": "a245ab926056c174abe8bbd93808dfac", "fusion_lon": 0.0, "type": "electric_scooter"}, {"rental_uris": {"ios": "https://dc.lft.to/lastmile_qr_scan", "android": "https://dc.lft.to/lastmile_qr_scan"}, "lat": 38.905499, "lon": -77.04562833333334, "fusion_lat": 0.0, "name": "c2a1394185aa527ac281729051e30776", "is_disabled": 0, "is_reserved": 0, "bike_id": "c2a1394185aa527ac281729051e30776", "fusion_lon": 0.0, "type": "electric_scooter"}, {"rental_uris": {"ios": "https://dc.lft.to/lastmile_qr_scan", "android": "https://dc.lft.to/lastmile_qr_scan"}, "lat": 38.8922345, "lon": -77.0486465, "fusion_lat": 0.0, "name": "c2c873a79f2b9617ecd608d6588413b5", "is_disabled": 0, "is_reserved": 0, "bike_id": "c2c873a79f2b9617ecd608d6588413b5", "fusion_lon": 0.0, "type": "electric_scooter"}, {"rental_uris": {"ios": "https://dc.lft.to/lastmile_qr_scan", "android": "https://dc.lft.to/lastmile_qr_scan"}, "lat": 38.90670266666667, "lon": -77.0269175, "fusion_lat": 0.0, "name": "7297645f73c1bf3668c8a0d630cd2c78", "is_disabled": 0, "is_reserved": 0, "bike_id": "7297645f73c1bf3668c8a0d630cd2c78", "fusion_lon": 0.0, "type": "electric_scooter"}, {"rental_uris": {"ios": "https://dc.lft.to/lastmile_qr_scan", "android": "https://dc.lft.to/lastmile_qr_scan"}, "lat": 38.905095, "lon": -76.982149, "fusion_lat": 0.0, "name": "1b401c300e5ed5cbb0f78d8410825a5f", "is_disabled": 0, "is_reserved": 0, "bike_id": "1b401c300e5ed5cbb0f78d8410825a5f", "fusion_lon": 0.0, "type": "electric_bike"}, {"rental_uris": {"ios": "https://dc.lft.to/lastmile_qr_scan", "android": "https://dc.lft.to/lastmile_qr_scan"}, "lat": 38.909737166666666, "lon": -77.03399433333334, "fusion_lat": 0.0, "name": "44ba295d2367ae37dc5a5764e53e1872", "is_disabled": 0, "is_reserved": 0, "bike_id": "44ba295d2367ae37dc5a5764e53e1872", "fusion_lon": 0.0, "type": "electric_scooter"}, {"rental_uris": {"ios": "https://dc.lft.to/lastmile_qr_scan", "android": "https://dc.lft.to/lastmile_qr_scan"}, "lat": 38.935407, "lon": -77.02346116666666, "fusion_lat": 0.0, "name": "71722b3b731fe87d0758a2d329bf6c3d", "is_disabled": 0, "is_reserved": 0, "bike_id": "71722b3b731fe87d0758a2d329bf6c3d", "fusion_lon": 0.0, "type": "electric_scooter"}, {"rental_uris": {"ios": "https://dc.lft.to/lastmile_qr_scan", "android": "https://dc.lft.to/lastmile_qr_scan"}, "lat": 38.893742833333334, "lon": -77.02255733333334, "fusion_lat": 0.0, "name": "f9c71ae52e783d6ec3980bc1dcfe85ff", "is_disabled": 0, "is_reserved": 0, "bike_id": "f9c71ae52e783d6ec3980bc1dcfe85ff", "fusion_lon": 0.0, "type": "electric_scooter"}, {"rental_uris": {"ios": "https://dc.lft.to/lastmile_qr_scan", "android": "https://dc.lft.to/lastmile_qr_scan"}, "lat": 38.91544783333333, "lon": -77.03192216666666, "fusion_lat": 0.0, "name": "0ea30d99aca48a36ca8af08764893f51", "is_disabled": 0, "is_reserved": 0, "bike_id": "0ea30d99aca48a36ca8af08764893f51", "fusion_lon": 0.0, "type": "electric_scooter"}, {"rental_uris": {"ios": "https://dc.lft.to/lastmile_qr_scan", "android": "https://dc.lft.to/lastmile_qr_scan"}, "lat": 38.9180375, "lon": -77.024942, "fusion_lat": 0.0, "name": "dbd4c4421696f6f9779c6afd27a8338a", "is_disabled": 0, "is_reserved": 0, "bike_id": "dbd4c4421696f6f9779c6afd27a8338a", "fusion_lon": 0.0, "type": "electric_scooter"}, {"rental_uris": {"ios": "https://dc.lft.to/lastmile_qr_scan", "android": "https://dc.lft.to/lastmile_qr_scan"}, "lat": 38.90925933333333, "lon": -77.01890933333334, "fusion_lat": 0.0, "name": "c273a6ad35c41706eff12f0ee2835caf", "is_disabled": 0, "is_reserved": 0, "bike_id": "c273a6ad35c41706eff12f0ee2835caf", "fusion_lon": 0.0, "type": "electric_scooter"}, {"rental_uris": {"ios": "https://dc.lft.to/lastmile_qr_scan", "android": "https://dc.lft.to/lastmile_qr_scan"}, "lat": 38.926088666666665, "lon": -77.05699166666666, "fusion_lat": 0.0, "name": "e071268af6c1dafe06176edfa0672908", "is_disabled": 0, "is_reserved": 0, "bike_id": "e071268af6c1dafe06176edfa0672908", "fusion_lon": 0.0, "type": "electric_scooter"}, {"rental_uris": {"ios": "https://dc.lft.to/lastmile_qr_scan", "android": "https://dc.lft.to/lastmile_qr_scan"}, "lat": 38.913978, "lon": -77.02408366666667, "fusion_lat": 0.0, "name": "b1529875eb8df4889e1b1b972179e8a8", "is_disabled": 0, "is_reserved": 0, "bike_id": "b1529875eb8df4889e1b1b972179e8a8", "fusion_lon": 0.0, "type": "electric_scooter"}, {"rental_uris": {"ios": "https://dc.lft.to/lastmile_qr_scan", "android": "https://dc.lft.to/lastmile_qr_scan"}, "lat": 38.908495333333335, "lon": -76.99803716666666, "fusion_lat": 0.0, "name": "e93a56c5a06a8fd6754a6ce921fb925f", "is_disabled": 0, "is_reserved": 0, "bike_id": "e93a56c5a06a8fd6754a6ce921fb925f", "fusion_lon": 0.0, "type": "electric_scooter"}, {"rental_uris": {"ios": "https://dc.lft.to/lastmile_qr_scan", "android": "https://dc.lft.to/lastmile_qr_scan"}, "lat": 38.9181205, "lon": -77.02478033333334, "fusion_lat": 0.0, "name": "ac539fb53d3ec3b612b4d8b8a0d02edd", "is_disabled": 0, "is_reserved": 0, "bike_id": "ac539fb53d3ec3b612b4d8b8a0d02edd", "fusion_lon": 0.0, "type": "electric_scooter"}, {"rental_uris": {"ios": "https://dc.lft.to/lastmile_qr_scan", "android": "https://dc.lft.to/lastmile_qr_scan"}, "lat": 38.836086333333334, "lon": -77.003814, "fusion_lat": 0.0, "name": "4001b147f2d93865ea1bbc5396d6f789", "is_disabled": 0, "is_reserved": 0, "bike_id": "4001b147f2d93865ea1bbc5396d6f789", "fusion_lon": 0.0, "type": "electric_bike"}, {"rental_uris": {"ios": "https://dc.lft.to/lastmile_qr_scan", "android": "https://dc.lft.to/lastmile_qr_scan"}, "lat": 38.91422566666667, "lon": -77.019877, "fusion_lat": 0.0, "name": "bc289dd89eb89ebeb880ae5beddaf39f", "is_disabled": 0, "is_reserved": 0, "bike_id": "bc289dd89eb89ebeb880ae5beddaf39f", "fusion_lon": 0.0, "type": "electric_scooter"}, {"rental_uris": {"ios": "https://dc.lft.to/lastmile_qr_scan", "android": "https://dc.lft.to/lastmile_qr_scan"}, "lat": 38.921945, "lon": -77.03921433333333, "fusion_lat": 0.0, "name": "82d60f4f926984df4616a08e7a749e71", "is_disabled": 0, "is_reserved": 0, "bike_id": "82d60f4f926984df4616a08e7a749e71", "fusion_lon": 0.0, "type": "electric_scooter"}, {"rental_uris": {"ios": "https://dc.lft.to/lastmile_qr_scan", "android": "https://dc.lft.to/lastmile_qr_scan"}, "lat": 38.89221516666667, "lon": -77.00345866666666, "fusion_lat": 0.0, "name": "0ec117df8d0e109163f878a4ae9fa774", "is_disabled": 0, "is_reserved": 0, "bike_id": "0ec117df8d0e109163f878a4ae9fa774", "fusion_lon": 0.0, "type": "electric_scooter"}, {"rental_uris": {"ios": "https://dc.lft.to/lastmile_qr_scan", "android": "https://dc.lft.to/lastmile_qr_scan"}, "lat": 38.9448925, "lon": -77.09440116666667, "fusion_lat": 0.0, "name": "d98c56861667eb7226ace18a6f12ad42", "is_disabled": 0, "is_reserved": 0, "bike_id": "d98c56861667eb7226ace18a6f12ad42", "fusion_lon": 0.0, "type": "electric_scooter"}, {"rental_uris": {"ios": "https://dc.lft.to/lastmile_qr_scan", "android": "https://dc.lft.to/lastmile_qr_scan"}, "lat": 38.96317633333334, "lon": -76.973664, "fusion_lat": 0.0, "name": "cd875033e8ef966408d8f7937e221c93", "is_disabled": 0, "is_reserved": 0, "bike_id": "cd875033e8ef966408d8f7937e221c93", "fusion_lon": 0.0, "type": "electric_bike"}, {"rental_uris": {"ios": "https://dc.lft.to/lastmile_qr_scan", "android": "https://dc.lft.to/lastmile_qr_scan"}, "lat": 38.955245166666664, "lon": -77.02318816666667, "fusion_lat": 0.0, "name": "7577a1f5f457a4810229d50d6509ccf6", "is_disabled": 0, "is_reserved": 0, "bike_id": "7577a1f5f457a4810229d50d6509ccf6", "fusion_lon": 0.0, "type": "electric_scooter"}, {"rental_uris": {"ios": "https://dc.lft.to/lastmile_qr_scan", "android": "https://dc.lft.to/lastmile_qr_scan"}, "lat": 38.89926483333333, "lon": -76.93156083333334, "fusion_lat": 0.0, "name": "23279c67d65b79d50fa37117f811071a", "is_disabled": 0, "is_reserved": 0, "bike_id": "23279c67d65b79d50fa37117f811071a", "fusion_lon": 0.0, "type": "electric_scooter"}, {"rental_uris": {"ios": "https://dc.lft.to/lastmile_qr_scan", "android": "https://dc.lft.to/lastmile_qr_scan"}, "lat": 38.878871333333336, "lon": -77.02256516666667, "fusion_lat": 0.0, "name": "8fd47276081553989c60cc41b4910013", "is_disabled": 0, "is_reserved": 0, "bike_id": "8fd47276081553989c60cc41b4910013", "fusion_lon": 0.0, "type": "electric_scooter"}, {"rental_uris": {"ios": "https://dc.lft.to/lastmile_qr_scan", "android": "https://dc.lft.to/lastmile_qr_scan"}, "lat": 38.86236816666667, "lon": -76.95277516666667, "fusion_lat": 0.0, "name": "43b8494c8d11aeef32068e06ebcd11ee", "is_disabled": 0, "is_reserved": 0, "bike_id": "43b8494c8d11aeef32068e06ebcd11ee", "fusion_lon": 0.0, "type": "electric_bike"}, {"rental_uris": {"ios": "https://dc.lft.to/lastmile_qr_scan", "android": "https://dc.lft.to/lastmile_qr_scan"}, "lat": 38.920553166666664, "lon": -77.03299666666666, "fusion_lat": 0.0, "name": "44686cd6b32c6068b190c89426ac20f2", "is_disabled": 0, "is_reserved": 0, "bike_id": "44686cd6b32c6068b190c89426ac20f2", "fusion_lon": 0.0, "type": "electric_scooter"}, {"rental_uris": {"ios": "https://dc.lft.to/lastmile_qr_scan", "android": "https://dc.lft.to/lastmile_qr_scan"}, "lat": 38.873101166666665, "lon": -77.00147916666667, "fusion_lat": 0.0, "name": "5044be095d7fc87a27ba406bab1dd9ca", "is_disabled": 0, "is_reserved": 0, "bike_id": "5044be095d7fc87a27ba406bab1dd9ca", "fusion_lon": 0.0, "type": "electric_scooter"}, {"rental_uris": {"ios": "https://dc.lft.to/lastmile_qr_scan", "android": "https://dc.lft.to/lastmile_qr_scan"}, "lat": 38.917029166666666, "lon": -77.03473916666667, "fusion_lat": 0.0, "name": "f4327a04a78e621cbefdbcfb4825c49d", "is_disabled": 0, "is_reserved": 0, "bike_id": "f4327a04a78e621cbefdbcfb4825c49d", "fusion_lon": 0.0, "type": "electric_scooter"}, {"rental_uris": {"ios": "https://dc.lft.to/lastmile_qr_scan", "android": "https://dc.lft.to/lastmile_qr_scan"}, "lat": 38.909643833333334, "lon": -77.0107375, "fusion_lat": 0.0, "name": "f44cab4ed64adcb5d5ce3ddf1b54e39a", "is_disabled": 0, "is_reserved": 0, "bike_id": "f44cab4ed64adcb5d5ce3ddf1b54e39a", "fusion_lon": 0.0, "type": "electric_scooter"}, {"rental_uris": {"ios": "https://dc.lft.to/lastmile_qr_scan", "android": "https://dc.lft.to/lastmile_qr_scan"}, "lat": 38.916342, "lon": -77.03219683333333, "fusion_lat": 0.0, "name": "ef4e5c2bb19e62975faa9092a7515dbf", "is_disabled": 0, "is_reserved": 0, "bike_id": "ef4e5c2bb19e62975faa9092a7515dbf", "fusion_lon": 0.0, "type": "electric_scooter"}, {"rental_uris": {"ios": "https://dc.lft.to/lastmile_qr_scan", "android": "https://dc.lft.to/lastmile_qr_scan"}, "lat": 38.9053045, "lon": -77.07025483333334, "fusion_lat": 0.0, "name": "a90aaf1a5698f8472857eade525cec02", "is_disabled": 0, "is_reserved": 0, "bike_id": "a90aaf1a5698f8472857eade525cec02", "fusion_lon": 0.0, "type": "electric_scooter"}, {"rental_uris": {"ios": "https://dc.lft.to/lastmile_qr_scan", "android": "https://dc.lft.to/lastmile_qr_scan"}, "lat": 38.966662166666666, "lon": -76.974469, "fusion_lat": 0.0, "name": "1d4e026c138618ae6cb4e9e9ee623b3b", "is_disabled": 0, "is_reserved": 0, "bike_id": "1d4e026c138618ae6cb4e9e9ee623b3b", "fusion_lon": 0.0, "type": "electric_bike"}, {"rental_uris": {"ios": "https://dc.lft.to/lastmile_qr_scan", "android": "https://dc.lft.to/lastmile_qr_scan"}, "lat": 38.90441033333333, "lon": -77.034421, "fusion_lat": 0.0, "name": "687411c718d410711a07d0d493ef8276", "is_disabled": 0, "is_reserved": 0, "bike_id": "687411c718d410711a07d0d493ef8276", "fusion_lon": 0.0, "type": "electric_scooter"}, {"rental_uris": {"ios": "https://dc.lft.to/lastmile_qr_scan", "android": "https://dc.lft.to/lastmile_qr_scan"}, "lat": 38.89716633333333, "lon": -77.02399933333334, "fusion_lat": 0.0, "name": "fe4f455f5455f2059323cba3afa295f9", "is_disabled": 0, "is_reserved": 0, "bike_id": "fe4f455f5455f2059323cba3afa295f9", "fusion_lon": 0.0, "type": "electric_scooter"}, {"rental_uris": {"ios": "https://dc.lft.to/lastmile_qr_scan", "android": "https://dc.lft.to/lastmile_qr_scan"}, "lat": 38.916724, "lon": -76.98179683333333, "fusion_lat": 0.0, "name": "1bfdc1cb801733a18926febe07058883", "is_disabled": 0, "is_reserved": 0, "bike_id": "1bfdc1cb801733a18926febe07058883", "fusion_lon": 0.0, "type": "electric_scooter"}, {"rental_uris": {"ios": "https://dc.lft.to/lastmile_qr_scan", "android": "https://dc.lft.to/lastmile_qr_scan"}, "lat": 38.937779, "lon": -77.02399066666666, "fusion_lat": 0.0, "name": "f215dbee80729e44899db62ccd17823a", "is_disabled": 0, "is_reserved": 0, "bike_id": "f215dbee80729e44899db62ccd17823a", "fusion_lon": 0.0, "type": "electric_scooter"}, {"rental_uris": {"ios": "https://dc.lft.to/lastmile_qr_scan", "android": "https://dc.lft.to/lastmile_qr_scan"}, "lat": 38.90996466666667, "lon": -77.04006916666667, "fusion_lat": 0.0, "name": "99070c6b877c924ace78bf0a96273e78", "is_disabled": 0, "is_reserved": 0, "bike_id": "99070c6b877c924ace78bf0a96273e78", "fusion_lon": 0.0, "type": "electric_scooter"}, {"rental_uris": {"ios": "https://dc.lft.to/lastmile_qr_scan", "android": "https://dc.lft.to/lastmile_qr_scan"}, "lat": 38.91681533333333, "lon": -77.0231395, "fusion_lat": 0.0, "name": "20021c9d69be91fc6e6618576b1fdff6", "is_disabled": 0, "is_reserved": 0, "bike_id": "20021c9d69be91fc6e6618576b1fdff6", "fusion_lon": 0.0, "type": "electric_scooter"}, {"rental_uris": {"ios": "https://dc.lft.to/lastmile_qr_scan", "android": "https://dc.lft.to/lastmile_qr_scan"}, "lat": 38.906842166666664, "lon": -77.0269595, "fusion_lat": 0.0, "name": "2c6f2c0c09aee971208cf0ad2ca841b6", "is_disabled": 0, "is_reserved": 0, "bike_id": "2c6f2c0c09aee971208cf0ad2ca841b6", "fusion_lon": 0.0, "type": "electric_scooter"}, {"rental_uris": {"ios": "https://dc.lft.to/lastmile_qr_scan", "android": "https://dc.lft.to/lastmile_qr_scan"}, "lat": 38.89913583333333, "lon": -76.93371083333334, "fusion_lat": 0.0, "name": "ee5f0f4d6a6e771d80246d8283437526", "is_disabled": 0, "is_reserved": 0, "bike_id": "ee5f0f4d6a6e771d80246d8283437526", "fusion_lon": 0.0, "type": "electric_scooter"}, {"rental_uris": {"ios": "https://dc.lft.to/lastmile_qr_scan", "android": "https://dc.lft.to/lastmile_qr_scan"}, "lat": 38.911053, "lon": -77.02232916666667, "fusion_lat": 0.0, "name": "e85d67f7f052e47f8c69ffc6b189e86b", "is_disabled": 0, "is_reserved": 0, "bike_id": "e85d67f7f052e47f8c69ffc6b189e86b", "fusion_lon": 0.0, "type": "electric_scooter"}, {"rental_uris": {"ios": "https://dc.lft.to/lastmile_qr_scan", "android": "https://dc.lft.to/lastmile_qr_scan"}, "lat": 38.899828166666666, "lon": -77.0219975, "fusion_lat": 0.0, "name": "26fb14d88806dd767137d91bcc7c0258", "is_disabled": 0, "is_reserved": 0, "bike_id": "26fb14d88806dd767137d91bcc7c0258", "fusion_lon": 0.0, "type": "electric_scooter"}, {"rental_uris": {"ios": "https://dc.lft.to/lastmile_qr_scan", "android": "https://dc.lft.to/lastmile_qr_scan"}, "lat": 38.91541316666667, "lon": -77.03788383333334, "fusion_lat": 0.0, "name": "310d1cd3d4e07c9cb574310450f3973f", "is_disabled": 0, "is_reserved": 0, "bike_id": "310d1cd3d4e07c9cb574310450f3973f", "fusion_lon": 0.0, "type": "electric_scooter"}, {"rental_uris": {"ios": "https://dc.lft.to/lastmile_qr_scan", "android": "https://dc.lft.to/lastmile_qr_scan"},