{"data": {"bikes": [{"name": "581e60dc736edab001197ffe38c87b88", "type": "electric_scooter", "lat": 38.941811666666666, "is_reserved": 0, "lon": -77.04137266666666, "fusion_lon": 0.0, "is_disabled": 0, "fusion_lat": 0.0, "bike_id": "581e60dc736edab001197ffe38c87b88", "rental_uris": {"ios": "https://dc.lft.to/lastmile_qr_scan", "android": "https://dc.lft.to/lastmile_qr_scan"}}, {"name": "fadc560b6ed04d3b3808c83d8fbab32a", "type": "electric_scooter", "lat": 38.9037085, "is_reserved": 0, "lon": -77.0110215, "fusion_lon": 0.0, "is_disabled": 0, "fusion_lat": 0.0, "bike_id": "fadc560b6ed04d3b3808c83d8fbab32a", "rental_uris": {"ios": "https://dc.lft.to/lastmile_qr_scan", "android": "https://dc.lft.to/lastmile_qr_scan"}}, {"name": "5250de6c8a25b8e6fb0864203aff7d2c", "type": "electric_scooter", "lat": 38.92901066666667, "is_reserved": 0, "lon": -77.05456683333334, "fusion_lon": 0.0, "is_disabled": 0, "fusion_lat": 0.0, "bike_id": "5250de6c8a25b8e6fb0864203aff7d2c", "rental_uris": {"ios": "https://dc.lft.to/lastmile_qr_scan", "android": "https://dc.lft.to/lastmile_qr_scan"}}, {"name": "85f1c6818804924bcf9a8c07b30e9a58", "type": "electric_scooter", "lat": 38.91995166666667, "is_reserved": 0, "lon": -77.039698, "fusion_lon": 0.0, "is_disabled": 0, "fusion_lat": 0.0, "bike_id": "85f1c6818804924bcf9a8c07b30e9a58", "rental_uris": {"ios": "https://dc.lft.to/lastmile_qr_scan", "android": "https://dc.lft.to/lastmile_qr_scan"}}, {"name": "be41cb6e43e09dd3e8044883b6ae66ab", "type": "electric_scooter", "lat": 38.9023885, "is_reserved": 0, "lon": -77.002013, "fusion_lon": 0.0, "is_disabled": 0, "fusion_lat": 0.0, "bike_id": "be41cb6e43e09dd3e8044883b6ae66ab", "rental_uris": {"ios": "https://dc.lft.to/lastmile_qr_scan", "android": "https://dc.lft.to/lastmile_qr_scan"}}, {"name": "81e41ff3674c548dc6c945254f0d4f53", "type": "electric_scooter", "lat": 38.903367, "is_reserved": 0, "lon": -77.06648066666666, "fusion_lon": 0.0, "is_disabled": 0, "fusion_lat": 0.0, "bike_id": "81e41ff3674c548dc6c945254f0d4f53", "rental_uris": {"ios": "https://dc.lft.to/lastmile_qr_scan", "android": "https://dc.lft.to/lastmile_qr_scan"}}, {"name": "4e72c57a44cbbf6272884c8cc4276bd7", "type": "electric_scooter", "lat": 38.910292, "is_reserved": 0, "lon": -77.04809333333333, "fusion_lon": 0.0, "is_disabled": 0, "fusion_lat": 0.0, "bike_id": "4e72c57a44cbbf6272884c8cc4276bd7", "rental_uris": {"ios": "https://dc.lft.to/lastmile_qr_scan", "android": "https://dc.lft.to/lastmile_qr_scan"}}, {"name": "edd67efa6bb6f1eb4d39291b337875f1", "type": "electric_scooter", "lat": 38.92636916666667, "is_reserved": 0, "lon": -77.03400583333334, "fusion_lon": 0.0, "is_disabled": 0, "fusion_lat": 0.0, "bike_id": "edd67efa6bb6f1eb4d39291b337875f1", "rental_uris": {"ios": "https://dc.lft.to/lastmile_qr_scan", "android": "https://dc.lft.to/lastmile_qr_scan"}}, {"name": "f12e644cbbf7e6347371ef305c965ecc", "type": "electric_scooter", "lat": 38.85631033333333, "is_reserved": 0, "lon": -76.97450733333334, "fusion_lon": 0.0, "is_disabled": 0, "fusion_lat": 0.0, "bike_id": "f12e644cbbf7e6347371ef305c965ecc", "rental_uris": {"ios": "https://dc.lft.to/lastmile_qr_scan", "android": "https://dc.lft.to/lastmile_qr_scan"}}, {"name": "49946be5c84d05204b7f0193e05574b4", "type": "electric_scooter", "lat": 38.8987695, "is_reserved": 0, "lon": -76.9316075, "fusion_lon": 0.0, "is_disabled": 0, "fusion_lat": 0.0, "bike_id": "49946be5c84d05204b7f0193e05574b4", "rental_uris": {"ios": "https://dc.lft.to/lastmile_qr_scan", "android": "https://dc.lft.to/lastmile_qr_scan"}}, {"name": "dbb858cfaf14b553326c824a942bfa8c", "type": "electric_bike", "lat": 38.9490085, "is_reserved": 0, "lon": -76.96381283333334, "fusion_lon": 0.0, "is_disabled": 0, "fusion_lat": 0.0, "bike_id": "dbb858cfaf14b553326c824a942bfa8c", "rental_uris": {"ios": "https://dc.lft.to/lastmile_qr_scan", "android": "https://dc.lft.to/lastmile_qr_scan"}}, {"name": "77e3b10a9f6cf0f26471a26d2f536f08", "type": "electric_scooter", "lat": 38.90961033333333, "is_reserved": 0, "lon": -77.04867483333334, "fusion_lon": 0.0, "is_disabled": 0, "fusion_lat": 0.0, "bike_id": "77e3b10a9f6cf0f26471a26d2f536f08", "rental_uris": {"ios": "https://dc.lft.to/lastmile_qr_scan", "android": "https://dc.lft.to/lastmile_qr_scan"}}, {"name": "8321ef83be6c600ff3051b2c977b1332", "type": "electric_scooter", "lat": 38.93357183333333, "is_reserved": 0, "lon": -77.06935066666667, "fusion_lon": 0.0, "is_disabled": 0, "fusion_lat": 0.0, "bike_id": "8321ef83be6c600ff3051b2c977b1332", "rental_uris": {"ios": "https://dc.lft.to/lastmile_qr_scan", "android": "https://dc.lft.to/lastmile_qr_scan"}}, {"name": "c383a46a18a4d415540e7f6320cb0557", "type": "electric_scooter", "lat": 38.9027415, "is_reserved": 0, "lon": -77.03826566666666, "fusion_lon": 0.0, "is_disabled": 0, "fusion_lat": 0.0, "bike_id": "c383a46a18a4d415540e7f6320cb0557", "rental_uris": {"ios": "https://dc.lft.to/lastmile_qr_scan", "android": "https://dc.lft.to/lastmile_qr_scan"}}, {"name": "ca47f8208fa3d4907d438e8aa53035a0", "type": "electric_scooter", "lat": 38.8997595, "is_reserved": 0, "lon": -76.92634916666667, "fusion_lon": 0.0, "is_disabled": 0, "fusion_lat": 0.0, "bike_id": "ca47f8208fa3d4907d438e8aa53035a0", "rental_uris": {"ios": "https://dc.lft.to/lastmile_qr_scan", "android": "https://dc.lft.to/lastmile_qr_scan"}}, {"name": "da01587b1100d2c1c713c8637b1427f5", "type": "electric_scooter", "lat": 38.9199715, "is_reserved": 0, "lon": -77.0346485, "fusion_lon": 0.0, "is_disabled": 0, "fusion_lat": 0.0, "bike_id": "da01587b1100d2c1c713c8637b1427f5", "rental_uris": {"ios": "https://dc.lft.to/lastmile_qr_scan", "android": "https://dc.lft.to/lastmile_qr_scan"}}, {"name": "f0b6623de30514f89cc38d56f412f0b3", "type": "electric_scooter", "lat": 38.91190233333333, "is_reserved": 0, "lon": -77.04536366666666, "fusion_lon": 0.0, "is_disabled": 0, "fusion_lat": 0.0, "bike_id": "f0b6623de30514f89cc38d56f412f0b3", "rental_uris": {"ios": "https://dc.lft.to/lastmile_qr_scan", "android": "https://dc.lft.to/lastmile_qr_scan"}}, {"name": "2e8ac216654288bef85965fea88712ee", "type": "electric_scooter", "lat": 38.899109333333335, "is_reserved": 0, "lon": -77.0392705, "fusion_lon": 0.0, "is_disabled": 0, "fusion_lat": 0.0, "bike_id": "2e8ac216654288bef85965fea88712ee", "rental_uris": {"ios": "https://dc.lft.to/lastmile_qr_scan", "android": "https://dc.lft.to/lastmile_qr_scan"}}, {"name": "be538a73541ecd25b384436c84daf393", "type": "electric_scooter", "lat": 38.891984666666666, "is_reserved": 0, "lon": -77.00239416666666, "fusion_lon": 0.0, "is_disabled": 0, "fusion_lat": 0.0, "bike_id": "be538a73541ecd25b384436c84daf393", "rental_uris": {"ios": "https://dc.lft.to/lastmile_qr_scan", "android": "https://dc.lft.to/lastmile_qr_scan"}}, {"name": "ecbd861e9c753c220af05fee8cf6a980", "type": "electric_scooter", "lat": 38.952837, "is_reserved": 0, "lon": -77.068239, "fusion_lon": 0.0, "is_disabled": 0, "fusion_lat": 0.0, "bike_id": "ecbd861e9c753c220af05fee8cf6a980", "rental_uris": {"ios": "https://dc.lft.to/lastmile_qr_scan", "android": "https://dc.lft.to/lastmile_qr_scan"}}, {"name": "5cd6a83f34131cf09e567dbfe0f50bda", "type": "electric_scooter", "lat": 38.915553333333335, "is_reserved": 0, "lon": -77.0727675, "fusion_lon": 0.0, "is_disabled": 0, "fusion_lat": 0.0, "bike_id": "5cd6a83f34131cf09e567dbfe0f50bda", "rental_uris": {"ios": "https://dc.lft.to/lastmile_qr_scan", "android": "https://dc.lft.to/lastmile_qr_scan"}}, {"name": "e114085b17ce74a04ec4ce31fb49ae10", "type": "electric_scooter", "lat": 38.8977845, "is_reserved": 0, "lon": -77.0515095, "fusion_lon": 0.0, "is_disabled": 0, "fusion_lat": 0.0, "bike_id": "e114085b17ce74a04ec4ce31fb49ae10", "rental_uris": {"ios": "https://dc.lft.to/lastmile_qr_scan", "android": "https://dc.lft.to/lastmile_qr_scan"}}, {"name": "36e91066585c2e2c9974e06f4bc17ee6", "type": "electric_scooter", "lat": 38.91824483333333, "is_reserved": 0, "lon": -77.0344005, "fusion_lon": 0.0, "is_disabled": 0, "fusion_lat": 0.0, "bike_id": "36e91066585c2e2c9974e06f4bc17ee6", "rental_uris": {"ios": "https://dc.lft.to/lastmile_qr_scan", "android": "https://dc.lft.to/lastmile_qr_scan"}}, {"name": "a82af65f65ec66a57e7cb4b12f5538c4", "type": "electric_scooter", "lat": 38.9202935, "is_reserved": 0, "lon": -77.01115483333334, "fusion_lon": 0.0, "is_disabled": 0, "fusion_lat": 0.0, "bike_id": "a82af65f65ec66a57e7cb4b12f5538c4", "rental_uris": {"ios": "https://dc.lft.to/lastmile_qr_scan", "android": "https://dc.lft.to/lastmile_qr_scan"}}, {"name": "6c6598af3ee534e82d8a98d531820190", "type": "electric_scooter", "lat": 38.933033333333334, "is_reserved": 0, "lon": -77.02801283333334, "fusion_lon": 0.0, "is_disabled": 0, "fusion_lat": 0.0, "bike_id": "6c6598af3ee534e82d8a98d531820190", "rental_uris": {"ios": "https://dc.lft.to/lastmile_qr_scan", "android": "https://dc.lft.to/lastmile_qr_scan"}}, {"name": "07168657a9d1514fc89e1d42326614ca", "type": "electric_scooter", "lat": 38.90391433333333, "is_reserved": 0, "lon": -77.04037166666667, "fusion_lon": 0.0, "is_disabled": 0, "fusion_lat": 0.0, "bike_id": "07168657a9d1514fc89e1d42326614ca", "rental_uris": {"ios": "https://dc.lft.to/lastmile_qr_scan", "android": "https://dc.lft.to/lastmile_qr_scan"}}, {"name": "e3efac011ecd645b82e8757e26afba95", "type": "electric_scooter", "lat": 38.84296666666667, "is_reserved": 0, "lon": -76.999465, "fusion_lon": 0.0, "is_disabled": 0, "fusion_lat": 0.0, "bike_id": "e3efac011ecd645b82e8757e26afba95", "rental_uris": {"ios": "https://dc.lft.to/lastmile_qr_scan", "android": "https://dc.lft.to/lastmile_qr_scan"}}, {"name": "d985f61ec0ac858363d398d4a5a634b0", "type": "electric_scooter", "lat": 38.97477766666667, "is_reserved": 0, "lon": -77.01902533333333, "fusion_lon": 0.0, "is_disabled": 0, "fusion_lat": 0.0, "bike_id": "d985f61ec0ac858363d398d4a5a634b0", "rental_uris": {"ios": "https://dc.lft.to/lastmile_qr_scan", "android": "https://dc.lft.to/lastmile_qr_scan"}}, {"name": "6124173fbe4e9f4c1f02d81e7c4a868d", "type": "electric_bike", "lat": 38.85800366666667, "is_reserved": 0, "lon": -76.9874865, "fusion_lon": 0.0, "is_disabled": 0, "fusion_lat": 0.0, "bike_id": "6124173fbe4e9f4c1f02d81e7c4a868d", "rental_uris": {"ios": "https://dc.lft.to/lastmile_qr_scan", "android": "https://dc.lft.to/lastmile_qr_scan"}}, {"name": "0c59e5bf46a4bd224a396ede6328ea67", "type": "electric_scooter", "lat": 38.901371833333336, "is_reserved": 0, "lon": -77.04446783333333, "fusion_lon": 0.0, "is_disabled": 0, "fusion_lat": 0.0, "bike_id": "0c59e5bf46a4bd224a396ede6328ea67", "rental_uris": {"ios": "https://dc.lft.to/lastmile_qr_scan", "android": "https://dc.lft.to/lastmile_qr_scan"}}, {"name": "5d429cab070b6f970f858b2d081b8eb1", "type": "electric_scooter", "lat": 38.8712765, "is_reserved": 0, "lon": -77.00599566666666, "fusion_lon": 0.0, "is_disabled": 0, "fusion_lat": 0.0, "bike_id": "5d429cab070b6f970f858b2d081b8eb1", "rental_uris": {"ios": "https://dc.lft.to/lastmile_qr_scan", "android": "https://dc.lft.to/lastmile_qr_scan"}}, {"name": "24dcf7eb882ab7fbc39f3a9750e80da0", "type": "electric_scooter", "lat": 38.95908766666667, "is_reserved": 0, "lon": -77.08080116666666, "fusion_lon": 0.0, "is_disabled": 0, "fusion_lat": 0.0, "bike_id": "24dcf7eb882ab7fbc39f3a9750e80da0", "rental_uris": {"ios": "https://dc.lft.to/lastmile_qr_scan", "android": "https://dc.lft.to/lastmile_qr_scan"}}, {"name": "f860704b5ed80abd0f6e4a4f3a2eb7c1", "type": "electric_scooter", "lat": 38.91496016666667, "is_reserved": 0, "lon": -77.01849916666667, "fusion_lon": 0.0, "is_disabled": 0, "fusion_lat": 0.0, "bike_id": "f860704b5ed80abd0f6e4a4f3a2eb7c1", "rental_uris": {"ios": "https://dc.lft.to/lastmile_qr_scan", "android": "https://dc.lft.to/lastmile_qr_scan"}}, {"name": "fbafd0a15635086fd4314e7f4e31e6fb", "type": "electric_scooter", "lat": 38.892334166666664, "is_reserved": 0, "lon": -77.01272666666667, "fusion_lon": 0.0, "is_disabled": 0, "fusion_lat": 0.0, "bike_id": "fbafd0a15635086fd4314e7f4e31e6fb", "rental_uris": {"ios": "https://dc.lft.to/lastmile_qr_scan", "android": "https://dc.lft.to/lastmile_qr_scan"}}, {"name": "975775d0e513922c6dbf5e2e73706c0e", "type": "electric_scooter", "lat": 38.880256, "is_reserved": 0, "lon": -76.988414, "fusion_lon": 0.0, "is_disabled": 0, "fusion_lat": 0.0, "bike_id": "975775d0e513922c6dbf5e2e73706c0e", "rental_uris": {"ios": "https://dc.lft.to/lastmile_qr_scan", "android": "https://dc.lft.to/lastmile_qr_scan"}}, {"name": "2f65d235d5f2a5f1fe325edb22a4427e", "type": "electric_scooter", "lat": 38.93398366666667, "is_reserved": 0, "lon": -77.0388465, "fusion_lon": 0.0, "is_disabled": 0, "fusion_lat": 0.0, "bike_id": "2f65d235d5f2a5f1fe325edb22a4427e", "rental_uris": {"ios": "https://dc.lft.to/lastmile_qr_scan", "android": "https://dc.lft.to/lastmile_qr_scan"}}, {"name": "90e050cbcc78600a846413bbd0523550", "type": "electric_scooter", "lat": 38.877384666666664, "is_reserved": 0, "lon": -77.00572766666667, "fusion_lon": 0.0, "is_disabled": 0, "fusion_lat": 0.0, "bike_id": "90e050cbcc78600a846413bbd0523550", "rental_uris": {"ios": "https://dc.lft.to/lastmile_qr_scan", "android": "https://dc.lft.to/lastmile_qr_scan"}}, {"name": "ed064c500fe51e4aa69003fb8ef2ded5", "type": "electric_scooter", "lat": 38.908085666666665, "is_reserved": 0, "lon": -77.03870483333333, "fusion_lon": 0.0, "is_disabled": 0, "fusion_lat": 0.0, "bike_id": "ed064c500fe51e4aa69003fb8ef2ded5", "rental_uris": {"ios": "https://dc.lft.to/lastmile_qr_scan", "android": "https://dc.lft.to/lastmile_qr_scan"}}, {"name": "36e79386b3402afb2a9198d09409459b", "type": "electric_scooter", "lat": 38.90495833333333, "is_reserved": 0, "lon": -77.05313116666666, "fusion_lon": 0.0, "is_disabled": 0, "fusion_lat": 0.0, "bike_id": "36e79386b3402afb2a9198d09409459b", "rental_uris": {"ios": "https://dc.lft.to/lastmile_qr_scan", "android": "https://dc.lft.to/lastmile_qr_scan"}}, {"name": "b45453537010a7990d327d5a55b776a3", "type": "electric_scooter", "lat": 38.8924115, "is_reserved": 0, "lon": -77.03179616666667, "fusion_lon": 0.0, "is_disabled": 0, "fusion_lat": 0.0, "bike_id": "b45453537010a7990d327d5a55b776a3", "rental_uris": {"ios": "https://dc.lft.to/lastmile_qr_scan", "android": "https://dc.lft.to/lastmile_qr_scan"}}, {"name": "cf39203687a871f20f034e869c318baa", "type": "electric_scooter", "lat": 38.93120366666667, "is_reserved": 0, "lon": -77.03603133333333, "fusion_lon": 0.0, "is_disabled": 0, "fusion_lat": 0.0, "bike_id": "cf39203687a871f20f034e869c318baa", "rental_uris": {"ios": "https://dc.lft.to/lastmile_qr_scan", "android": "https://dc.lft.to/lastmile_qr_scan"}}, {"name": "6128288fcbd6ddf594484791f706e6d9", "type": "electric_scooter", "lat": 38.929373, "is_reserved": 0, "lon": -77.03279866666666, "fusion_lon": 0.0, "is_disabled": 0, "fusion_lat": 0.0, "bike_id": "6128288fcbd6ddf594484791f706e6d9", "rental_uris": {"ios": "https://dc.lft.to/lastmile_qr_scan", "android": "https://dc.lft.to/lastmile_qr_scan"}}, {"name": "21d0ea9a27893e0eaf6ac0bf69fa22d0", "type": "electric_scooter", "lat": 38.867007666666666, "is_reserved": 0, "lon": -76.98714866666667, "fusion_lon": 0.0, "is_disabled": 0, "fusion_lat": 0.0, "bike_id": "21d0ea9a27893e0eaf6ac0bf69fa22d0", "rental_uris": {"ios": "https://dc.lft.to/lastmile_qr_scan", "android": "https://dc.lft.to/lastmile_qr_scan"}}, {"name": "608078d5852b3653643b9d921acef088", "type": "electric_scooter", "lat": 38.90282633333333, "is_reserved": 0, "lon": -77.036431, "fusion_lon": 0.0, "is_disabled": 0, "fusion_lat": 0.0, "bike_id": "608078d5852b3653643b9d921acef088", "rental_uris": {"ios": "https://dc.lft.to/lastmile_qr_scan", "android": "https://dc.lft.to/lastmile_qr_scan"}}, {"name": "7419a8538b7846053762c84a56297b75", "type": "electric_scooter", "lat": 38.84425816666667, "is_reserved": 0, "lon": -76.997761, "fusion_lon": 0.0, "is_disabled": 0, "fusion_lat": 0.0, "bike_id": "7419a8538b7846053762c84a56297b75", "rental_uris": {"ios": "https://dc.lft.to/lastmile_qr_scan", "android": "https://dc.lft.to/lastmile_qr_scan"}}, {"name": "9252f2e183b17d5f7171b8234993aa24", "type": "electric_scooter", "lat": 38.925715, "is_reserved": 0, "lon": -77.02719716666667, "fusion_lon": 0.0, "is_disabled": 0, "fusion_lat": 0.0, "bike_id": "9252f2e183b17d5f7171b8234993aa24", "rental_uris": {"ios": "https://dc.lft.to/lastmile_qr_scan", "android": "https://dc.lft.to/lastmile_qr_scan"}}, {"name": "3efb6bcd02f273bc31733936372428ff", "type": "electric_scooter", "lat": 38.883921666666666, "is_reserved": 0, "lon": -76.9304395, "fusion_lon": 0.0, "is_disabled": 0, "fusion_lat": 0.0, "bike_id": "3efb6bcd02f273bc31733936372428ff", "rental_uris": {"ios": "https://dc.lft.to/lastmile_qr_scan", "android": "https://dc.lft.to/lastmile_qr_scan"}}, {"name": "2dd1c2b0e401f3462f63cb49217a1ee7", "type": "electric_scooter", "lat": 38.93257466666667, "is_reserved": 0, "lon": -77.04006733333334, "fusion_lon": 0.0, "is_disabled": 0, "fusion_lat": 0.0, "bike_id": "2dd1c2b0e401f3462f63cb49217a1ee7", "rental_uris": {"ios": "https://dc.lft.to/lastmile_qr_scan", "android": "https://dc.lft.to/lastmile_qr_scan"}}, {"name": "b5c81c86ef52390485fd24ac44621b75", "type": "electric_bike", "lat": 38.97328066666667, "is_reserved": 0, "lon": -77.02149533333333, "fusion_lon": 0.0, "is_disabled": 0, "fusion_lat": 0.0, "bike_id": "b5c81c86ef52390485fd24ac44621b75", "rental_uris": {"ios": "https://dc.lft.to/lastmile_qr_scan", "android": "https://dc.lft.to/lastmile_qr_scan"}}, {"name": "9a69c00590108ae65dacb211832cb776", "type": "electric_scooter", "lat": 38.91278116666667, "is_reserved": 0, "lon": -77.02693233333333, "fusion_lon": 0.0, "is_disabled": 0, "fusion_lat": 0.0, "bike_id": "9a69c00590108ae65dacb211832cb776", "rental_uris": {"ios": "https://dc.lft.to/lastmile_qr_scan", "android": "https://dc.lft.to/lastmile_qr_scan"}}, {"name": "a131c8e6452db9c2986b54afde6ae4e9", "type": "electric_scooter", "lat": 38.917028, "is_reserved": 0, "lon": -77.02252733333333, "fusion_lon": 0.0, "is_disabled": 0, "fusion_lat": 0.0, "bike_id": "a131c8e6452db9c2986b54afde6ae4e9", "rental_uris": {"ios": "https://dc.lft.to/lastmile_qr_scan", "android": "https://dc.lft.to/lastmile_qr_scan"}}, {"name": "b3574f720850e62339065437bc3d3659", "type": "electric_scooter", "lat": 38.93239416666667, "is_reserved": 0, "lon": -77.03088416666667, "fusion_lon": 0.0, "is_disabled": 0, "fusion_lat": 0.0, "bike_id": "b3574f720850e62339065437bc3d3659", "rental_uris": {"ios": "https://dc.lft.to/lastmile_qr_scan", "android": "https://dc.lft.to/lastmile_qr_scan"}}, {"name": "c3572b1889602c92931cd95cd0fea3f0", "type": "electric_bike", "lat": 38.94553633333334, "is_reserved": 0, "lon": -76.895378, "fusion_lon": 0.0, "is_disabled": 0, "fusion_lat": 0.0, "bike_id": "c3572b1889602c92931cd95cd0fea3f0", "rental_uris": {"ios": "https://dc.lft.to/lastmile_qr_scan", "android": "https://dc.lft.to/lastmile_qr_scan"}}, {"name": "204c8a74f169993686bcc72087245f2a", "type": "electric_scooter", "lat": 38.927224333333335, "is_reserved": 0, "lon": -77.02074266666666, "fusion_lon": 0.0, "is_disabled": 0, "fusion_lat": 0.0, "bike_id": "204c8a74f169993686bcc72087245f2a", "rental_uris": {"ios": "https://dc.lft.to/lastmile_qr_scan", "android": "https://dc.lft.to/lastmile_qr_scan"}}, {"name": "fca83d701f1fddde842993ebfa6f4cf9", "type": "electric_scooter", "lat": 38.922543833333336, "is_reserved": 0, "lon": -77.03069333333333, "fusion_lon": 0.0, "is_disabled": 0, "fusion_lat": 0.0, "bike_id": "fca83d701f1fddde842993ebfa6f4cf9", "rental_uris": {"ios": "https://dc.lft.to/lastmile_qr_scan", "android": "https://dc.lft.to/lastmile_qr_scan"}}, {"name": "cd0b11e3352146f5b2c15fb7e35322ef", "type": "electric_scooter", "lat": 38.893784333333336, "is_reserved": 0, "lon": -76.94979783333334, "fusion_lon": 0.0, "is_disabled": 0, "fusion_lat": 0.0, "bike_id": "cd0b11e3352146f5b2c15fb7e35322ef", "rental_uris": {"ios": "https://dc.lft.to/lastmile_qr_scan", "android": "https://dc.lft.to/lastmile_qr_scan"}}, {"name": "6b1a3765e4f785580dbfa94a30ea80da", "type": "electric_scooter", "lat": 38.895064166666664, "is_reserved": 0, "lon": -77.01611983333333, "fusion_lon": 0.0, "is_disabled": 0, "fusion_lat": 0.0, "bike_id": "6b1a3765e4f785580dbfa94a30ea80da", "rental_uris": {"ios": "https://dc.lft.to/lastmile_qr_scan", "android": "https://dc.lft.to/lastmile_qr_scan"}}, {"name": "4a3d33cea36f06d99830ec6c7fff538b", "type": "electric_scooter", "lat": 38.920557333333335, "is_reserved": 0, "lon": -76.9988335, "fusion_lon": 0.0, "is_disabled": 0, "fusion_lat": 0.0, "bike_id": "4a3d33cea36f06d99830ec6c7fff538b", "rental_uris": {"ios": "https://dc.lft.to/lastmile_qr_scan", "android": "https://dc.lft.to/lastmile_qr_scan"}}, {"name": "26c6796ec25bd1bc90d9466121f728ce", "type": "electric_scooter", "lat": 38.8983255, "is_reserved": 0, "lon": -76.9463015, "fusion_lon": 0.0, "is_disabled": 0, "fusion_lat": 0.0, "bike_id": "26c6796ec25bd1bc90d9466121f728ce", "rental_uris": {"ios": "https://dc.lft.to/lastmile_qr_scan", "android": "https://dc.lft.to/lastmile_qr_scan"}}, {"name": "e794b609d594580103be4a438389ee32", "type": "electric_scooter", "lat": 38.899708333333336, "is_reserved": 0, "lon": -76.937691, "fusion_lon": 0.0, "is_disabled": 0, "fusion_lat": 0.0, "bike_id": "e794b609d594580103be4a438389ee32", "rental_uris": {"ios": "https://dc.lft.to/lastmile_qr_scan", "android": "https://dc.lft.to/lastmile_qr_scan"}}, {"name": "27474aa54ee18a1588aede9cfa412ff1", "type": "electric_scooter", "lat": 38.918808, "is_reserved": 0, "lon": -77.03506666666667, "fusion_lon": 0.0, "is_disabled": 0, "fusion_lat": 0.0, "bike_id": "27474aa54ee18a1588aede9cfa412ff1", "rental_uris": {"ios": "https://dc.lft.to/lastmile_qr_scan", "android": "https://dc.lft.to/lastmile_qr_scan"}}, {"name": "f666ee160b9a82a321e6a44753938e6d", "type": "electric_scooter", "lat": 38.91437633333334, "is_reserved": 0, "lon": -77.00346683333333, "fusion_lon": 0.0, "is_disabled": 0, "fusion_lat": 0.0, "bike_id": "f666ee160b9a82a321e6a44753938e6d", "rental_uris": {"ios": "https://dc.lft.to/lastmile_qr_scan", "android": "https://dc.lft.to/lastmile_qr_scan"}}, {"name": "5baa7b3dce30aa18683e9e46a4d39234", "type": "electric_scooter", "lat": 38.87683633333333, "is_reserved": 0, "lon": -77.000686, "fusion_lon": 0.0, "is_disabled": 0, "fusion_lat": 0.0, "bike_id": "5baa7b3dce30aa18683e9e46a4d39234", "rental_uris": {"ios": "https://dc.lft.to/lastmile_qr_scan", "android": "https://dc.lft.to/lastmile_qr_scan"}}, {"name": "df0b135a11eb842cf6afb9cb82233434", "type": "electric_scooter", "lat": 38.90029916666667, "is_reserved": 0, "lon": -76.99859166666667, "fusion_lon": 0.0, "is_disabled": 0, "fusion_lat": 0.0, "bike_id": "df0b135a11eb842cf6afb9cb82233434", "rental_uris": {"ios": "https://dc.lft.to/lastmile_qr_scan", "android": "https://dc.lft.to/lastmile_qr_scan"}}, {"name": "b59863ca22f436e17d66265a2ff5459c", "type": "electric_scooter", "lat": 38.92889916666667, "is_reserved": 0, "lon": -77.05445966666667, "fusion_lon": 0.0, "is_disabled": 0, "fusion_lat": 0.0, "bike_id": "b59863ca22f436e17d66265a2ff5459c", "rental_uris": {"ios": "https://dc.lft.to/lastmile_qr_scan", "android": "https://dc.lft.to/lastmile_qr_scan"}}, {"name": "f45bffbf04944ec64d435a37379da4a2", "type": "electric_scooter", "lat": 38.9428075, "is_reserved": 0, "lon": -77.0250605, "fusion_lon": 0.0, "is_disabled": 0, "fusion_lat": 0.0, "bike_id": "f45bffbf04944ec64d435a37379da4a2", "rental_uris": {"ios": "https://dc.lft.to/lastmile_qr_scan", "android": "https://dc.lft.to/lastmile_qr_scan"}}, {"name": "4ebab7d6f845659d8a84478a4aa53804", "type": "electric_scooter", "lat": 38.906743, "is_reserved": 0, "lon": -77.02719633333334, "fusion_lon": 0.0, "is_disabled": 0, "fusion_lat": 0.0, "bike_id": "4ebab7d6f845659d8a84478a4aa53804", "rental_uris": {"ios": "https://dc.lft.to/lastmile_qr_scan", "android": "https://dc.lft.to/lastmile_qr_scan"}}, {"name": "048e23c0101a828f8b23bb33733a4dd3", "type": "electric_scooter", "lat": 38.90566716666667, "is_reserved": 0, "lon": -76.98141983333333, "fusion_lon": 0.0, "is_disabled": 0, "fusion_lat": 0.0, "bike_id": "048e23c0101a828f8b23bb33733a4dd3", "rental_uris": {"ios": "https://dc.lft.to/lastmile_qr_scan", "android": "https://dc.lft.to/lastmile_qr_scan"}}, {"name": "dc7ada5302335b535492585ef3445932", "type": "electric_scooter", "lat": 38.90846483333333, "is_reserved": 0, "lon": -77.08530316666666, "fusion_lon": 0.0, "is_disabled": 0, "fusion_lat": 0.0, "bike_id": "dc7ada5302335b535492585ef3445932", "rental_uris": {"ios": "https://dc.lft.to/lastmile_qr_scan", "android": "https://dc.lft.to/lastmile_qr_scan"}}, {"name": "ec782a9df51a95b14927387a6e3ac169", "type": "electric_scooter", "lat": 38.89763583333333, "is_reserved": 0, "lon": -77.02939666666667, "fusion_lon": 0.0, "is_disabled": 0, "fusion_lat": 0.0, "bike_id": "ec782a9df51a95b14927387a6e3ac169", "rental_uris": {"ios": "https://dc.lft.to/lastmile_qr_scan", "android": "https://dc.lft.to/lastmile_qr_scan"}}, {"name": "68e6b16d8e95dc7a66b3a6fab98dafc1", "type": "electric_scooter", "lat": 38.9187365, "is_reserved": 0, "lon": -77.04200733333333, "fusion_lon": 0.0, "is_disabled": 0, "fusion_lat": 0.0, "bike_id": "68e6b16d8e95dc7a66b3a6fab98dafc1", "rental_uris": {"ios": "https://dc.lft.to/lastmile_qr_scan", "android": "https://dc.lft.to/lastmile_qr_scan"}}, {"name": "6d97c68788285e4f9ab65fa4823ad87d", "type": "electric_scooter", "lat": 38.90271933333333, "is_reserved": 0, "lon": -77.054095, "fusion_lon": 0.0, "is_disabled": 0, "fusion_lat": 0.0, "bike_id": "6d97c68788285e4f9ab65fa4823ad87d", "rental_uris": {"ios": "https://dc.lft.to/lastmile_qr_scan", "android": "https://dc.lft.to/lastmile_qr_scan"}}, {"name": "546d3a417365ab8da273238836a17cef", "type": "electric_scooter", "lat": 38.8948185, "is_reserved": 0, "lon": -76.9954105, "fusion_lon": 0.0, "is_disabled": 0, "fusion_lat": 0.0, "bike_id": "546d3a417365ab8da273238836a17cef", "rental_uris": {"ios": "https://dc.lft.to/lastmile_qr_scan", "android": "https://dc.lft.to/lastmile_qr_scan"}}, {"name": "a6eac93352488bd9707ad2538ecdc2e1", "type": "electric_scooter", "lat": 38.8858615, "is_reserved": 0, "lon": -77.01979033333333, "fusion_lon": 0.0, "is_disabled": 0, "fusion_lat": 0.0, "bike_id": "a6eac93352488bd9707ad2538ecdc2e1", "rental_uris": {"ios": "https://dc.lft.to/lastmile_qr_scan", "android": "https://dc.lft.to/lastmile_qr_scan"}}, {"name": "33011ac6503fca15f4fe26861ed4546f", "type": "electric_scooter", "lat": 38.8791465, "is_reserved": 0, "lon": -77.01738533333334, "fusion_lon": 0.0, "is_disabled": 0, "fusion_lat": 0.0, "bike_id": "33011ac6503fca15f4fe26861ed4546f", "rental_uris": {"ios": "https://dc.lft.to/lastmile_qr_scan", "android": "https://dc.lft.to/lastmile_qr_scan"}}, {"name": "b4d5d603cb4316552cca329a8cc13074", "type": "electric_scooter", "lat": 38.91736066666667, "is_reserved": 0, "lon": -77.0230565, "fusion_lon": 0.0, "is_disabled": 0, "fusion_lat": 0.0, "bike_id": "b4d5d603cb4316552cca329a8cc13074", "rental_uris": {"ios": "https://dc.lft.to/lastmile_qr_scan", "android": "https://dc.lft.to/lastmile_qr_scan"}}, {"name": "8153f744412c67bae3832d38653f8edf", "type": "electric_scooter", "lat": 38.922861, "is_reserved": 0, "lon": -77.04252633333333, "fusion_lon": 0.0, "is_disabled": 0, "fusion_lat": 0.0, "bike_id": "8153f744412c67bae3832d38653f8edf", "rental_uris": {"ios": "https://dc.lft.to/lastmile_qr_scan", "android": "https://dc.lft.to/lastmile_qr_scan"}}, {"name": "74ebf692361af004035e14639a82cb96", "type": "electric_scooter", "lat": 38.900408666666664, "is_reserved": 0, "lon": -77.00192133333333, "fusion_lon": 0.0, "is_disabled": 0, "fusion_lat": 0.0, "bike_id": "74ebf692361af004035e14639a82cb96", "rental_uris": {"ios": "https://dc.lft.to/lastmile_qr_scan", "android": "https://dc.lft.to/lastmile_qr_scan"}}, {"name": "27bf4ef44dc720f1aa2b16ca81147a96", "type": "electric_scooter", "lat": 38.8983365, "is_reserved": 0, "lon": -77.03331066666667, "fusion_lon": 0.0, "is_disabled": 0, "fusion_lat": 0.0, "bike_id": "27bf4ef44dc720f1aa2b16ca81147a96", "rental_uris": {"ios": "https://dc.lft.to/lastmile_qr_scan", "android": "https://dc.lft.to/lastmile_qr_scan"}}, {"name": "6023d148921cc85f21b2847fde12f663", "type": "electric_scooter", "lat": 38.89348316666667, "is_reserved": 0, "lon": -76.991472, "fusion_lon": 0.0, "is_disabled": 0, "fusion_lat": 0.0, "bike_id": "6023d148921cc85f21b2847fde12f663", "rental_uris": {"ios": "https://dc.lft.to/lastmile_qr_scan", "android": "https://dc.lft.to/lastmile_qr_scan"}}, {"name": "b40ab85ed321eeeb044a1e98e7aa3e36", "type": "electric_scooter", "lat": 38.90364366666667, "is_reserved": 0, "lon": -77.03857283333333, "fusion_lon": 0.0, "is_disabled": 0, "fusion_lat": 0.0, "bike_id": "b40ab85ed321eeeb044a1e98e7aa3e36", "rental_uris": {"ios": "https://dc.lft.to/lastmile_qr_scan", "android": "https://dc.lft.to/lastmile_qr_scan"}}, {"name": "de70dcee09599c9a59e0cc113e99009a", "type": "electric_scooter", "lat": 38.9320225, "is_reserved": 0, "lon": -77.03850566666667, "fusion_lon": 0.0, "is_disabled": 0, "fusion_lat": 0.0, "bike_id": "de70dcee09599c9a59e0cc113e99009a", "rental_uris": {"ios": "https://dc.lft.to/lastmile_qr_scan", "android": "https://dc.lft.to/lastmile_qr_scan"}}, {"name": "9af74e29b6e9d5ef906e9cf39b91757c", "type": "electric_scooter", "lat": 38.92469233333333, "is_reserved": 0, "lon": -77.02829316666667, "fusion_lon": 0.0, "is_disabled": 0, "fusion_lat": 0.0, "bike_id": "9af74e29b6e9d5ef906e9cf39b91757c", "rental_uris": {"ios": "https://dc.lft.to/lastmile_qr_scan", "android": "https://dc.lft.to/lastmile_qr_scan"}}, {"name": "86d072a63f7e612551e02ac2f6303a6f", "type": "electric_scooter", "lat": 38.928734166666665, "is_reserved": 0, "lon": -77.03480966666666, "fusion_lon": 0.0, "is_disabled": 0, "fusion_lat": 0.0, "bike_id": "86d072a63f7e612551e02ac2f6303a6f", "rental_uris": {"ios": "https://dc.lft.to/lastmile_qr_scan", "android": "https://dc.lft.to/lastmile_qr_scan"}}, {"name": "43b14eb12592e48716d99e3264a3d1ab", "type": "electric_scooter", "lat": 38.920937333333335, "is_reserved": 0, "lon": -77.03750566666666, "fusion_lon": 0.0, "is_disabled": 0, "fusion_lat": 0.0, "bike_id": "43b14eb12592e48716d99e3264a3d1ab", "rental_uris": {"ios": "https://dc.lft.to/lastmile_qr_scan", "android": "https://dc.lft.to/lastmile_qr_scan"}}, {"name": "57a31c8469479ef03ec86d782bc17d87", "type": "electric_scooter", "lat": 38.90549516666667, "is_reserved": 0, "lon": -77.04651666666666, "fusion_lon": 0.0, "is_disabled": 0, "fusion_lat": 0.0, "bike_id": "57a31c8469479ef03ec86d782bc17d87", "rental_uris": {"ios": "https://dc.lft.to/lastmile_qr_scan", "android": "https://dc.lft.to/lastmile_qr_scan"}}, {"name": "8ddc7e430a38374e0b3d09efbe390156", "type": "electric_scooter", "lat": 38.893617, "is_reserved": 0, "lon": -77.01989, "fusion_lon": 0.0, "is_disabled": 0, "fusion_lat": 0.0, "bike_id": "8ddc7e430a38374e0b3d09efbe390156", "rental_uris": {"ios": "https://dc.lft.to/lastmile_qr_scan", "android": "https://dc.lft.to/lastmile_qr_scan"}}, {"name": "633b840b30e06f072b6bb6fe8b2ebc4a", "type": "electric_bike", "lat": 38.892261500000004, "is_reserved": 0, "lon": -76.97024466666667, "fusion_lon": 0.0, "is_disabled": 0, "fusion_lat": 0.0, "bike_id": "633b840b30e06f072b6bb6fe8b2ebc4a", "rental_uris": {"ios": "https://dc.lft.to/lastmile_qr_scan", "android": "https://dc.lft.to/lastmile_qr_scan"}}, {"name": "1ceb46f0b81b06b34e35d98d29b02303", "type": "electric_scooter", "lat": 38.897736, "is_reserved": 0, "lon": -76.977298, "fusion_lon": 0.0, "is_disabled": 0, "fusion_lat": 0.0, "bike_id": "1ceb46f0b81b06b34e35d98d29b02303", "rental_uris": {"ios": "https://dc.lft.to/lastmile_qr_scan", "android": "https://dc.lft.to/lastmile_qr_scan"}}, {"name": "26b32612f544b67246003c6eb44e1eb6", "type": "electric_scooter", "lat": 38.940528, "is_reserved": 0, "lon": -77.03289033333333, "fusion_lon": 0.0, "is_disabled": 0, "fusion_lat": 0.0, "bike_id": "26b32612f544b67246003c6eb44e1eb6", "rental_uris": {"ios": "https://dc.lft.to/lastmile_qr_scan", "android": "https://dc.lft.to/lastmile_qr_scan"}}, {"name": "8a0269512927a08e8777e627d6234bbd", "type": "electric_scooter", "lat": 38.9277545, "is_reserved": 0, "lon": -77.02782916666666, "fusion_lon": 0.0, "is_disabled": 0, "fusion_lat": 0.0, "bike_id": "8a0269512927a08e8777e627d6234bbd", "rental_uris": {"ios": "https://dc.lft.to/lastmile_qr_scan", "android": "https://dc.lft.to/lastmile_qr_scan"}}, {"name": "529f840b29d3dc2697fb9fdb3e74a520", "type": "electric_scooter", "lat": 38.86370766666667, "is_reserved": 0, "lon": -76.99057166666667, "fusion_lon": 0.0, "is_disabled": 0, "fusion_lat": 0.0, "bike_id": "529f840b29d3dc2697fb9fdb3e74a520", "rental_uris": {"ios": "https://dc.lft.to/lastmile_qr_scan", "android": "https://dc.lft.to/lastmile_qr_scan"}}, {"name": "70117c25fa69a2f8c2ec44c29bbb5394", "type": "electric_bike", "lat": 38.8699375, "is_reserved": 0, "lon": -76.95982816666667, "fusion_lon": 0.0, "is_disabled": 0, "fusion_lat": 0.0, "bike_id": "70117c25fa69a2f8c2ec44c29bbb5394", "rental_uris": {"ios": "https://dc.lft.to/lastmile_qr_scan", "android": "https://dc.lft.to/lastmile_qr_scan"}}, {"name": "410e6a09c64b30703ac753043b8f0774", "type": "electric_scooter", "lat": 38.873417333333336, "is_reserved": 0, "lon": -77.018602, "fusion_lon": 0.0, "is_disabled": 0, "fusion_lat": 0.0, "bike_id": "410e6a09c64b30703ac753043b8f0774", "rental_uris": {"ios": "https://dc.lft.to/lastmile_qr_scan", "android": "https://dc.lft.to/lastmile_qr_scan"}}, {"name": "8df5b52e7d7a478b1fc5537837aab7a0", "type": "electric_bike", "lat": 38.985032, "is_reserved": 0, "lon": -76.9819565, "fusion_lon": 0.0, "is_disabled": 0, "fusion_lat": 0.0, "bike_id": "8df5b52e7d7a478b1fc5537837aab7a0", "rental_uris": {"ios": "https://dc.lft.to/lastmile_qr_scan", "android": "https://dc.lft.to/lastmile_qr_scan"}}, {"name": "2a3e3931749f239044b612ec74a9b22c", "type": "electric_scooter", "lat": 38.8624195, "is_reserved": 0, "lon": -76.994946, "fusion_lon": 0.0, "is_disabled": 0, "fusion_lat": 0.0, "bike_id": "2a3e3931749f239044b612ec74a9b22c", "rental_uris": {"ios": "https://dc.lft.to/lastmile_qr_scan", "android": "https://dc.lft.to/lastmile_qr_scan"}}, {"name": "db61340ca0b286a13b1d753eca7f0e76", "type": "electric_scooter", "lat": 38.870056, "is_reserved": 0, "lon": -77.0122965, "fusion_lon": 0.0, "is_disabled": 0, "fusion_lat": 0.0, "bike_id": "db61340ca0b286a13b1d753eca7f0e76", "rental_uris": {"ios": "https://dc.lft.to/lastmile_qr_scan", "android": "https://dc.lft.to/lastmile_qr_scan"}}, {"name": "7aab021ed57ad2a44dca424cfb251325", "type": "electric_scooter", "lat": 38.87945583333333, "is_reserved": 0, "lon": -77.003811, "fusion_lon": 0.0, "is_disabled": 0, "fusion_lat": 0.0, "bike_id": "7aab021ed57ad2a44dca424cfb251325", "rental_uris": {"ios": "https://dc.lft.to/lastmile_qr_scan", "android": "https://dc.lft.to/lastmile_qr_scan"}}, {"name": "9b8b0fa698e85b2abec485e129c8e0df", "type": "electric_scooter", "lat": 38.9323995, "is_reserved": 0, "lon": -77.03833466666667, "fusion_lon": 0.0, "is_disabled": 0, "fusion_lat": 0.0, "bike_id": "9b8b0fa698e85b2abec485e129c8e0df", "rental_uris": {"ios": "https://dc.lft.to/lastmile_qr_scan", "android": "https://dc.lft.to/lastmile_qr_scan"}}, {"name": "3111bdb9b6a452109ce6576b955c0d29", "type": "electric_scooter", "lat": 38.903200166666664, "is_reserved": 0, "lon": -77.03205716666666, "fusion_lon": 0.0, "is_disabled": 0, "fusion_lat": 0.0, "bike_id": "3111bdb9b6a452109ce6576b955c0d29", "rental_uris": {"ios": "https://dc.lft.to/lastmile_qr_scan", "android": "https://dc.lft.to/lastmile_qr_scan"}}, {"name": "7aa518fa7c9f7baabe1ab3c45b14a9b5", "type": "electric_bike", "lat": 38.82047333333333, "is_reserved": 0, "lon": -77.05316283333333, "fusion_lon": 0.0, "is_disabled": 0, "fusion_lat": 0.0, "bike_id": "7aa518fa7c9f7baabe1ab3c45b14a9b5", "rental_uris": {"ios": "https://dc.lft.to/lastmile_qr_scan", "android": "https://dc.lft.to/lastmile_qr_scan"}}, {"name": "bfa389b0b915407bdfe10c439e2fe573", "type": "electric_scooter", "lat": 38.9361355, "is_reserved": 0, "lon": -77.02245716666667, "fusion_lon": 0.0, "is_disabled": 0, "fusion_lat": 0.0, "bike_id": "bfa389b0b915407bdfe10c439e2fe573", "rental_uris": {"ios": "https://dc.lft.to/lastmile_qr_scan", "android": "https://dc.lft.to/lastmile_qr_scan"}}, {"name": "6c172c7859e2b6c413b2911dd5cbefa6", "type": "electric_scooter", "lat": 38.93273516666667, "is_reserved": 0, "lon": -77.03492383333334, "fusion_lon": 0.0, "is_disabled": 0, "fusion_lat": 0.0, "bike_id": "6c172c7859e2b6c413b2911dd5cbefa6", "rental_uris": {"ios": "https://dc.lft.to/lastmile_qr_scan", "android": "https://dc.lft.to/lastmile_qr_scan"}}, {"name": "bf54f3f42fdeb91942e14c1a41c44cc7", "type": "electric_scooter", "lat": 38.94461533333333, "is_reserved": 0, "lon": -77.00657333333334, "fusion_lon": 0.0, "is_disabled": 0, "fusion_lat": 0.0, "bike_id": "bf54f3f42fdeb91942e14c1a41c44cc7", "rental_uris": {"ios": "https://dc.lft.to/lastmile_qr_scan", "android": "https://dc.lft.to/lastmile_qr_scan"}}, {"name": "ee8f688583c5673550dbcaf58cb9778c", "type": "electric_scooter", "lat": 38.909390333333334, "is_reserved": 0, "lon": -76.99970933333333, "fusion_lon": 0.0, "is_disabled": 0, "fusion_lat": 0.0, "bike_id": "ee8f688583c5673550dbcaf58cb9778c", "rental_uris": {"ios": "https://dc.lft.to/lastmile_qr_scan", "android": "https://dc.lft.to/lastmile_qr_scan"}}, {"name": "4efa9ac0fcce7378d76de7ea81226e67", "type": "electric_scooter", "lat": 38.86563616666667, "is_reserved": 0, "lon": -76.98552433333333, "fusion_lon": 0.0, "is_disabled": 0, "fusion_lat": 0.0, "bike_id": "4efa9ac0fcce7378d76de7ea81226e67", "rental_uris": {"ios": "https://dc.lft.to/lastmile_qr_scan", "android": "https://dc.lft.to/lastmile_qr_scan"}}, {"name": "24eb8f8458fcb68f8727773b94cc3a6a", "type": "electric_scooter", "lat": 38.93075316666667, "is_reserved": 0, "lon": -77.03401233333334, "fusion_lon": 0.0, "is_disabled": 0, "fusion_lat": 0.0, "bike_id": "24eb8f8458fcb68f8727773b94cc3a6a", "rental_uris": {"ios": "https://dc.lft.to/lastmile_qr_scan", "android": "https://dc.lft.to/lastmile_qr_scan"}}, {"name": "d107ad04b6cc2cd37d99af2e3524a678", "type": "electric_scooter", "lat": 38.94438233333333, "is_reserved": 0, "lon": -77.06353283333333, "fusion_lon": 0.0, "is_disabled": 0, "fusion_lat": 0.0, "bike_id": "d107ad04b6cc2cd37d99af2e3524a678", "rental_uris": {"ios": "https://dc.lft.to/lastmile_qr_scan", "android": "https://dc.lft.to/lastmile_qr_scan"}}, {"name": "f49f5494a63d34abadcebbd00a8519fb", "type": "electric_scooter", "lat": 38.900671, "is_reserved": 0, "lon": -76.98711566666667, "fusion_lon": 0.0, "is_disabled": 0, "fusion_lat": 0.0, "bike_id": "f49f5494a63d34abadcebbd00a8519fb", "rental_uris": {"ios": "https://dc.lft.to/lastmile_qr_scan", "android": "https://dc.lft.to/lastmile_qr_scan"}}, {"name": "b28ed0340e24d1313c90d7b365962b37", "type": "electric_scooter", "lat": 38.903709166666665, "is_reserved": 0, "lon": -77.0337885, "fusion_lon": 0.0, "is_disabled": 0, "fusion_lat": 0.0, "bike_id": "b28ed0340e24d1313c90d7b365962b37", "rental_uris": {"ios": "https://dc.lft.to/lastmile_qr_scan", "android": "https://dc.lft.to/lastmile_qr_scan"}}, {"name": "f37e3bef9e71fba0193278467acb35d5", "type": "electric_scooter", "lat": 38.87548833333334, "is_reserved": 0, "lon": -76.96490916666667, "fusion_lon": 0.0, "is_disabled": 0, "fusion_lat": 0.0, "bike_id": "f37e3bef9e71fba0193278467acb35d5", "rental_uris": {"ios": "https://dc.lft.to/lastmile_qr_scan", "android": "https://dc.lft.to/lastmile_qr_scan"}}, {"name": "8a18e17e3a219f5b0186c21b4808208b", "type": "electric_scooter", "lat": 38.91496466666667, "is_reserved": 0, "lon": -77.01849683333333, "fusion_lon": 0.0, "is_disabled": 0, "fusion_lat": 0.0, "bike_id": "8a18e17e3a219f5b0186c21b4808208b", "rental_uris": {"ios": "https://dc.lft.to/lastmile_qr_scan", "android": "https://dc.lft.to/lastmile_qr_scan"}}, {"name": "ae667407fa6483a7c817d75a9cf21f41", "type": "electric_scooter", "lat": 38.915359333333335, "is_reserved": 0, "lon": -77.046145, "fusion_lon": 0.0, "is_disabled": 0, "fusion_lat": 0.0, "bike_id": "ae667407fa6483a7c817d75a9cf21f41", "rental_uris": {"ios": "https://dc.lft.to/lastmile_qr_scan", "android": "https://dc.lft.to/lastmile_qr_scan"}}, {"name": "74fb3fe6062d19111d76dc4335a66e3b", "type": "electric_scooter", "lat": 38.8999425, "is_reserved": 0, "lon": -76.98568933333334, "fusion_lon": 0.0, "is_disabled": 0, "fusion_lat": 0.0, "bike_id": "74fb3fe6062d19111d76dc4335a66e3b", "rental_uris": {"ios": "https://dc.lft.to/lastmile_qr_scan", "android": "https://dc.lft.to/lastmile_qr_scan"}}, {"name": "247b188204c38d6bddc365a0eddb5115", "type": "electric_scooter", "lat": 38.9126635, "is_reserved": 0, "lon": -77.00369033333334, "fusion_lon": 0.0, "is_disabled": 0, "fusion_lat": 0.0, "bike_id": "247b188204c38d6bddc365a0eddb5115", "rental_uris": {"ios": "https://dc.lft.to/lastmile_qr_scan", "android": "https://dc.lft.to/lastmile_qr_scan"}}, {"name": "b4fcff3f7db33d3b30c72b6d07dc7671", "type": "electric_scooter", "lat": 38.8948345, "is_reserved": 0, "lon": -76.94873416666667, "fusion_lon": 0.0, "is_disabled": 0, "fusion_lat": 0.0, "bike_id": "b4fcff3f7db33d3b30c72b6d07dc7671", "rental_uris": {"ios": "https://dc.lft.to/lastmile_qr_scan", "android": "https://dc.lft.to/lastmile_qr_scan"}}, {"name": "8cab83d130c58c1baee36486736830a5", "type": "electric_scooter", "lat": 38.9307145, "is_reserved": 0, "lon": -77.04130483333333, "fusion_lon": 0.0, "is_disabled": 0, "fusion_lat": 0.0, "bike_id": "8cab83d130c58c1baee36486736830a5", "rental_uris": {"ios": "https://dc.lft.to/lastmile_qr_scan", "android": "https://dc.lft.to/lastmile_qr_scan"}}, {"name": "d4e0394718925f1e52700f7e0cee1384", "type": "electric_bike", "lat": 38.92349383333333, "is_reserved": 0, "lon": -76.9925425, "fusion_lon": 0.0, "is_disabled": 0, "fusion_lat": 0.0, "bike_id": "d4e0394718925f1e52700f7e0cee1384", "rental_uris": {"ios": "https://dc.lft.to/lastmile_qr_scan", "android": "https://dc.lft.to/lastmile_qr_scan"}}, {"name": "7dc2fa43f131d98d71c4815ae41943a3", "type": "electric_bike", "lat": 38.90475683333333, "is_reserved": 0, "lon": -76.9294505, "fusion_lon": 0.0, "is_disabled": 0, "fusion_lat": 0.0, "bike_id": "7dc2fa43f131d98d71c4815ae41943a3", "rental_uris": {"ios": "https://dc.lft.to/lastmile_qr_scan", "android": "https://dc.lft.to/lastmile_qr_scan"}}, {"name": "d633025ed1208b33acd0f6378bda0107", "type": "electric_scooter", "lat": 38.911047833333335, "is_reserved": 0, "lon": -77.00758433333333, "fusion_lon": 0.0, "is_disabled": 0, "fusion_lat": 0.0, "bike_id": "d633025ed1208b33acd0f6378bda0107", "rental_uris": {"ios": "https://dc.lft.to/lastmile_qr_scan", "android": "https://dc.lft.to/lastmile_qr_scan"}}, {"name": "79cdf726dac9b1fa8ad88ecf994a4619", "type": "electric_scooter", "lat": 38.8921965, "is_reserved": 0, "lon": -77.04368, "fusion_lon": 0.0, "is_disabled": 0, "fusion_lat": 0.0, "bike_id": "79cdf726dac9b1fa8ad88ecf994a4619", "rental_uris": {"ios": "https://dc.lft.to/lastmile_qr_scan", "android": "https://dc.lft.to/lastmile_qr_scan"}}, {"name": "6edc478dcd2bd9b5b7893a2010c55cdc", "type": "electric_scooter", "lat": 38.89533616666667, "is_reserved": 0, "lon": -77.04855766666667, "fusion_lon": 0.0, "is_disabled": 0, "fusion_lat": 0.0, "bike_id": "6edc478dcd2bd9b5b7893a2010c55cdc", "rental_uris": {"ios": "https://dc.lft.to/lastmile_qr_scan", "android": "https://dc.lft.to/lastmile_qr_scan"}}, {"name": "94220816dc18514eac734fbcaeed8178", "type": "electric_scooter", "lat": 38.912669666666666, "is_reserved": 0, "lon": -77.03149066666667, "fusion_lon": 0.0, "is_disabled": 0, "fusion_lat": 0.0, "bike_id": "94220816dc18514eac734fbcaeed8178", "rental_uris": {"ios": "https://dc.lft.to/lastmile_qr_scan", "android": "https://dc.lft.to/lastmile_qr_scan"}}, {"name": "3c571cc29800a65dd4fb4f5c56436dbf", "type": "electric_scooter", "lat": 38.89997983333333, "is_reserved": 0, "lon": -77.052347, "fusion_lon": 0.0, "is_disabled": 0, "fusion_lat": 0.0, "bike_id": "3c571cc29800a65dd4fb4f5c56436dbf", "rental_uris": {"ios": "https://dc.lft.to/lastmile_qr_scan", "android": "https://dc.lft.to/lastmile_qr_scan"}}, {"name": "6a45bd4f61485c780b6a435debd0a1f4", "type": "electric_scooter", "lat": 38.91414666666667, "is_reserved": 0, "lon": -77.03908166666666, "fusion_lon": 0.0, "is_disabled": 0, "fusion_lat": 0.0, "bike_id": "6a45bd4f61485c780b6a435debd0a1f4", "rental_uris": {"ios": "https://dc.lft.to/lastmile_qr_scan", "android": "https://dc.lft.to/lastmile_qr_scan"}}, {"name": "a4fa7af744970ab843a5ac9748e40b8c", "type": "electric_bike", "lat": 38.938797666666666, "is_reserved": 0, "lon": -76.95409533333333, "fusion_lon": 0.0, "is_disabled": 0, "fusion_lat": 0.0, "bike_id": "a4fa7af744970ab843a5ac9748e40b8c", "rental_uris": {"ios": "https://dc.lft.to/lastmile_qr_scan", "android": "https://dc.lft.to/lastmile_qr_scan"}}, {"name": "d181db0f59e00e822772d14e11561936", "type": "electric_scooter", "lat": 38.86538316666667, "is_reserved": 0, "lon": -76.98707183333333, "fusion_lon": 0.0, "is_disabled": 0, "fusion_lat": 0.0, "bike_id": "d181db0f59e00e822772d14e11561936", "rental_uris": {"ios": "https://dc.lft.to/lastmile_qr_scan", "android": "https://dc.lft.to/lastmile_qr_scan"}}, {"name": "8d59e1400219b6d9507a0031532577cd", "type": "electric_scooter", "lat": 38.91018716666667, "is_reserved": 0, "lon": -77.04401283333333, "fusion_lon": 0.0, "is_disabled": 0, "fusion_lat": 0.0, "bike_id": "8d59e1400219b6d9507a0031532577cd", "rental_uris": {"ios": "https://dc.lft.to/lastmile_qr_scan", "android": "https://dc.lft.to/lastmile_qr_scan"}}, {"name": "b46b982a5a132589ef508b05fc1758f3", "type": "electric_scooter", "lat": 38.915561, "is_reserved": 0, "lon": -77.0226215, "fusion_lon": 0.0, "is_disabled": 0, "fusion_lat": 0.0, "bike_id": "b46b982a5a132589ef508b05fc1758f3", "rental_uris": {"ios": "https://dc.lft.to/lastmile_qr_scan", "android": "https://dc.lft.to/lastmile_qr_scan"}}, {"name": "b3c4ad91d0f18807710ede327389487c", "type": "electric_bike", "lat": 39.088563, "is_reserved": 0, "lon": -77.1784245, "fusion_lon": 0.0, "is_disabled": 0, "fusion_lat": 0.0, "bike_id": "b3c4ad91d0f18807710ede327389487c", "rental_uris": {"ios": "https://dc.lft.to/lastmile_qr_scan", "android": "https://dc.lft.to/lastmile_qr_scan"}}, {"name": "2e1c667eed7fc8fd9a472dc6b8927fc7", "type": "electric_bike", "lat": 38.928598666666666, "is_reserved": 0, "lon": -77.22220916666667, "fusion_lon": 0.0, "is_disabled": 0, "fusion_lat": 0.0, "bike_id": "2e1c667eed7fc8fd9a472dc6b8927fc7", "rental_uris": {"ios": "https://dc.lft.to/lastmile_qr_scan", "android": "https://dc.lft.to/lastmile_qr_scan"}}, {"name": "8d5778d31f18ea1e93087c7a6e39ddfe", "type": "electric_bike", "lat": 38.9508315, "is_reserved": 0, "lon": -77.01226683333333, "fusion_lon": 0.0, "is_disabled": 0, "fusion_lat": 0.0, "bike_id": "8d5778d31f18ea1e93087c7a6e39ddfe", "rental_uris": {"ios": "https://dc.lft.to/lastmile_qr_scan", "android": "https://dc.lft.to/lastmile_qr_scan"}}, {"name": "8a334a7fba62732e3037bf2cac0a1054", "type": "electric_scooter", "lat": 38.93051166666667, "is_reserved": 0, "lon": -77.02791783333333, "fusion_lon": 0.0, "is_disabled": 0, "fusion_lat": 0.0, "bike_id": "8a334a7fba62732e3037bf2cac0a1054", "rental_uris": {"ios": "https://dc.lft.to/lastmile_qr_scan", "android": "https://dc.lft.to/lastmile_qr_scan"}}, {"name": "0f930992fa870919182401e941054a29", "type": "electric_scooter", "lat": 38.903911, "is_reserved": 0, "lon": -77.01852483333333, "fusion_lon": 0.0, "is_disabled": 0, "fusion_lat": 0.0, "bike_id": "0f930992fa870919182401e941054a29", "rental_uris": {"ios": "https://dc.lft.to/lastmile_qr_scan", "android": "https://dc.lft.to/lastmile_qr_scan"}}, {"name": "b0310d3f4ccb2c71cb6364e9efb28827", "type": "electric_bike", "lat": 38.924807, "is_reserved": 0, "lon": -77.073263, "fusion_lon": 0.0, "is_disabled": 0, "fusion_lat": 0.0, "bike_id": "b0310d3f4ccb2c71cb6364e9efb28827", "rental_uris": {"ios": "https://dc.lft.to/lastmile_qr_scan", "android": "https://dc.lft.to/lastmile_qr_scan"}}, {"name": "7548967ec0005b90489270ef03edfbe0", "type": "electric_scooter", "lat": 38.9565135, "is_reserved": 0, "lon": -77.03290583333333, "fusion_lon": 0.0, "is_disabled": 0, "fusion_lat": 0.0, "bike_id": "7548967ec0005b90489270ef03edfbe0", "rental_uris": {"ios": "https://dc.lft.to/lastmile_qr_scan", "android": "https://dc.lft.to/lastmile_qr_scan"}}, {"name": "c9ff7259311a919adee7a24ac8eb8be8", "type": "electric_scooter", "lat": 38.9354185, "is_reserved": 0, "lon": -77.03413533333334, "fusion_lon": 0.0, "is_disabled": 0, "fusion_lat": 0.0, "bike_id": "c9ff7259311a919adee7a24ac8eb8be8", "rental_uris": {"ios": "https://dc.lft.to/lastmile_qr_scan", "android": "https://dc.lft.to/lastmile_qr_scan"}}, {"name": "4acabb66d7218c4f4c34a1bee46df656", "type": "electric_scooter", "lat": 38.957496666666664, "is_reserved": 0, "lon": -77.02418016666667, "fusion_lon": 0.0, "is_disabled": 0, "fusion_lat": 0.0, "bike_id": "4acabb66d7218c4f4c34a1bee46df656", "rental_uris": {"ios": "https://dc.lft.to/lastmile_qr_scan", "android": "https://dc.lft.to/lastmile_qr_scan"}}, {"name": "3d23a559dcc450b22d4d2d42daad329e", "type": "electric_bike", "lat": 38.89887683333333, "is_reserved": 0, "lon": -76.98387183333334, "fusion_lon": 0.0, "is_disabled": 0, "fusion_lat": 0.0, "bike_id": "3d23a559dcc450b22d4d2d42daad329e", "rental_uris": {"ios": "https://dc.lft.to/lastmile_qr_scan", "android": "https://dc.lft.to/lastmile_qr_scan"}}, {"name": "6becdf57399ac5a091c74d5225bbbc33", "type": "electric_scooter", "lat": 38.89632566666667, "is_reserved": 0, "lon": -77.01032033333334, "fusion_lon": 0.0, "is_disabled": 0, "fusion_lat": 0.0, "bike_id": "6becdf57399ac5a091c74d5225bbbc33", "rental_uris": {"ios": "https://dc.lft.to/lastmile_qr_scan", "android": "https://dc.lft.to/lastmile_qr_scan"}}, {"name": "6ba45cca5ea128c0b260346f1917c016", "type": "electric_scooter", "lat": 38.8666265, "is_reserved": 0, "lon": -76.98888166666667, "fusion_lon": 0.0, "is_disabled": 0, "fusion_lat": 0.0, "bike_id": "6ba45cca5ea128c0b260346f1917c016", "rental_uris": {"ios": "https://dc.lft.to/lastmile_qr_scan", "android": "https://dc.lft.to/lastmile_qr_scan"}}, {"name": "fe3c7c5378b3e914899bce9a03d881bc", "type": "electric_scooter", "lat": 38.88446833333333, "is_reserved": 0, "lon": -77.00572766666667, "fusion_lon": 0.0, "is_disabled": 0, "fusion_lat": 0.0, "bike_id": "fe3c7c5378b3e914899bce9a03d881bc", "rental_uris": {"ios": "https://dc.lft.to/lastmile_qr_scan", "android": "https://dc.lft.to/lastmile_qr_scan"}}, {"name": "6f77f47e4f1906fc396888f48dca7bdc", "type": "electric_scooter", "lat": 38.9275825, "is_reserved": 0, "lon": -77.02418366666667, "fusion_lon": 0.0, "is_disabled": 0, "fusion_lat": 0.0, "bike_id": "6f77f47e4f1906fc396888f48dca7bdc", "rental_uris": {"ios": "https://dc.lft.to/lastmile_qr_scan", "android": "https://dc.lft.to/lastmile_qr_scan"}}, {"name": "23f320c106756dd85c3c0f2c5b27c477", "type": "electric_scooter", "lat": 38.898852, "is_reserved": 0, "lon": -76.93174133333333, "fusion_lon": 0.0, "is_disabled": 0, "fusion_lat": 0.0, "bike_id": "23f320c106756dd85c3c0f2c5b27c477", "rental_uris": {"ios": "https://dc.lft.to/lastmile_qr_scan", "android": "https://dc.lft.to/lastmile_qr_scan"}}, {"name": "638c373f22d71babd74fff53c42dc725", "type": "electric_scooter", "lat": 38.9288445, "is_reserved": 0, "lon": -77.03733033333333, "fusion_lon": 0.0, "is_disabled": 0, "fusion_lat": 0.0, "bike_id": "638c373f22d71babd74fff53c42dc725", "rental_uris": {"ios": "https://dc.lft.to/lastmile_qr_scan", "android": "https://dc.lft.to/lastmile_qr_scan"}}, {"name": "02f76ffb4962c72ce51bd7ddbd80aaed", "type": "electric_scooter", "lat": 38.894066333333335, "is_reserved": 0, "lon": -76.99356366666666, "fusion_lon": 0.0, "is_disabled": 0, "fusion_lat": 0.0, "bike_id": "02f76ffb4962c72ce51bd7ddbd80aaed", "rental_uris": {"ios": "https://dc.lft.to/lastmile_qr_scan", "android": "https://dc.lft.to/lastmile_qr_scan"}}, {"name": "95b0230d7dee2c95f2022b7a04b8628f", "type": "electric_scooter", "lat": 38.91647116666667, "is_reserved": 0, "lon": -77.04623083333334, "fusion_lon": 0.0, "is_disabled": 0, "fusion_lat": 0.0, "bike_id": "95b0230d7dee2c95f2022b7a04b8628f", "rental_uris": {"ios": "https://dc.lft.to/lastmile_qr_scan", "android": "https://dc.lft.to/lastmile_qr_scan"}}, {"name": "ee191ef498eca1f9b61a291140050ab7", "type": "electric_bike", "lat": 38.942706333333334, "is_reserved": 0, "lon": -76.980665, "fusion_lon": 0.0, "is_disabled": 0, "fusion_lat": 0.0, "bike_id": "ee191ef498eca1f9b61a291140050ab7", "rental_uris": {"ios": "https://dc.lft.to/lastmile_qr_scan", "android": "https://dc.lft.to/lastmile_qr_scan"}}, {"name": "cb6b0016e617f83beb189332834f793a", "type": "electric_scooter", "lat": 38.90518383333333, "is_reserved": 0, "lon": -77.0662255, "fusion_lon": 0.0, "is_disabled": 0, "fusion_lat": 0.0, "bike_id": "cb6b0016e617f83beb189332834f793a", "rental_uris": {"ios": "https://dc.lft.to/lastmile_qr_scan", "android": "https://dc.lft.to/lastmile_qr_scan"}}, {"name": "3c96322892a237d2522c8045dc15dcbd", "type": "electric_scooter", "lat": 38.946416, "is_reserved": 0, "lon": -77.01928983333333, "fusion_lon": 0.0, "is_disabled": 0, "fusion_lat": 0.0, "bike_id": "3c96322892a237d2522c8045dc15dcbd", "rental_uris": {"ios": "https://dc.lft.to/lastmile_qr_scan", "android": "https://dc.lft.to/lastmile_qr_scan"}}, {"name": "837cb24d1a95d01a6ec29e5098560764", "type": "electric_scooter", "lat": 38.92735, "is_reserved": 0, "lon": -77.0298875, "fusion_lon": 0.0, "is_disabled": 0, "fusion_lat": 0.0, "bike_id": "837cb24d1a95d01a6ec29e5098560764", "rental_uris": {"ios": "https://dc.lft.to/lastmile_qr_scan", "android": "https://dc.lft.to/lastmile_qr_scan"}}, {"name": "2ba0e35de96ca99990603aac6f345915", "type": "electric_scooter", "lat": 38.9053475, "is_reserved": 0, "lon": -77.05026633333334, "fusion_lon": 0.0, "is_disabled": 0, "fusion_lat": 0.0, "bike_id": "2ba0e35de96ca99990603aac6f345915", "rental_uris": {"ios": "https://dc.lft.to/lastmile_qr_scan", "android": "https://dc.lft.to/lastmile_qr_scan"}}, {"name": "079368837307f5e08e6c89e01e33d18e", "type": "electric_scooter", "lat": 38.939380666666665, "is_reserved": 0, "lon": -77.01705216666667, "fusion_lon": 0.0, "is_disabled": 0, "fusion_lat": 0.0, "bike_id": "079368837307f5e08e6c89e01e33d18e", "rental_uris": {"ios": "https://dc.lft.to/lastmile_qr_scan", "android": "https://dc.lft.to/lastmile_qr_scan"}}, {"name": "10ce46c44ae599cb5efdb1e3eaf9ab4c", "type": "electric_scooter", "lat": 38.900751666666665, "is_reserved": 0, "lon": -77.01287316666667, "fusion_lon": 0.0, "is_disabled": 0, "fusion_lat": 0.0, "bike_id": "10ce46c44ae599cb5efdb1e3eaf9ab4c", "rental_uris": {"ios": "https://dc.lft.to/lastmile_qr_scan", "android": "https://dc.lft.to/lastmile_qr_scan"}}, {"name": "eda213c25b38fc4cf679399656940469", "type": "electric_scooter", "lat": 38.934492666666664, "is_reserved": 0, "lon": -77.07237233333333, "fusion_lon": 0.0, "is_disabled": 0, "fusion_lat": 0.0, "bike_id": "eda213c25b38fc4cf679399656940469", "rental_uris": {"ios": "https://dc.lft.to/lastmile_qr_scan", "android": "https://dc.lft.to/lastmile_qr_scan"}}, {"name": "9a1274d9f39e7acdf8da9586de05bff1", "type": "electric_scooter", "lat": 38.896037, "is_reserved": 0, "lon": -77.0450365, "fusion_lon": 0.0, "is_disabled": 0, "fusion_lat": 0.0, "bike_id": "9a1274d9f39e7acdf8da9586de05bff1", "rental_uris": {"ios": "https://dc.lft.to/lastmile_qr_scan", "android": "https://dc.lft.to/lastmile_qr_scan"}}, {"name": "8315d962d31e83db33df15e698e93458", "type": "electric_scooter", "lat": 38.883153, "is_reserved": 0, "lon": -77.0093965, "fusion_lon": 0.0, "is_disabled": 0, "fusion_lat": 0.0, "bike_id": "8315d962d31e83db33df15e698e93458", "rental_uris": {"ios": "https://dc.lft.to/lastmile_qr_scan", "android": "https://dc.lft.to/lastmile_qr_scan"}}, {"name": "c7a61793b4f3831dbbd76cc63aeb5536", "type": "electric_bike", "lat": 38.874810833333335, "is_reserved": 0, "lon": -76.96531316666666, "fusion_lon": 0.0, "is_disabled": 0, "fusion_lat": 0.0, "bike_id": "c7a61793b4f3831dbbd76cc63aeb5536", "rental_uris": {"ios": "https://dc.lft.to/lastmile_qr_scan", "android": "https://dc.lft.to/lastmile_qr_scan"}}, {"name": "0e7260a1ae28df0dc2a51c983b82dca5", "type": "electric_scooter", "lat": 38.8949615, "is_reserved": 0, "lon": -77.02285183333333, "fusion_lon": 0.0, "is_disabled": 0, "fusion_lat": 0.0, "bike_id": "0e7260a1ae28df0dc2a51c983b82dca5", "rental_uris": {"ios": "https://dc.lft.to/lastmile_qr_scan", "android": "https://dc.lft.to/lastmile_qr_scan"}}, {"name": "840f088a371d654bff27341ee3014d8d", "type": "electric_scooter", "lat": 38.883454666666665, "is_reserved": 0, "lon": -76.94938, "fusion_lon": 0.0, "is_disabled": 0, "fusion_lat": 0.0, "bike_id": "840f088a371d654bff27341ee3014d8d", "rental_uris": {"ios": "https://dc.lft.to/lastmile_qr_scan", "android": "https://dc.lft.to/lastmile_qr_scan"}}, {"name": "4990ffa457ca4f39a5c22a184ecc8c10", "type": "electric_scooter", "lat": 38.92490466666667, "is_reserved": 0, "lon": -77.0271855, "fusion_lon": 0.0, "is_disabled": 0, "fusion_lat": 0.0, "bike_id": "4990ffa457ca4f39a5c22a184ecc8c10", "rental_uris": {"ios": "https://dc.lft.to/lastmile_qr_scan", "android": "https://dc.lft.to/lastmile_qr_scan"}}, {"name": "528f6c04a71206a7b0ce88a1bfd465cc", "type": "electric_scooter", "lat": 38.92171616666667, "is_reserved": 0, "lon": -77.04013633333334, "fusion_lon": 0.0, "is_disabled": 0, "fusion_lat": 0.0, "bike_id": "528f6c04a71206a7b0ce88a1bfd465cc", "rental_uris": {"ios": "https://dc.lft.to/lastmile_qr_scan", "android": "https://dc.lft.to/lastmile_qr_scan"}}, {"name": "aa6f1026601f0f97518f5a114323a45e", "type": "electric_scooter", "lat": 38.9240695, "is_reserved": 0, "lon": -77.05250916666667, "fusion_lon": 0.0, "is_disabled": 0, "fusion_lat": 0.0, "bike_id": "aa6f1026601f0f97518f5a114323a45e", "rental_uris": {"ios": "https://dc.lft.to/lastmile_qr_scan", "android": "https://dc.lft.to/lastmile_qr_scan"}}, {"name": "0604c9f546afeaa84d564172ea036966", "type": "electric_scooter", "lat": 38.907300666666664, "is_reserved": 0, "lon": -77.04166233333333, "fusion_lon": 0.0, "is_disabled": 0, "fusion_lat": 0.0, "bike_id": "0604c9f546afeaa84d564172ea036966", "rental_uris": {"ios": "https://dc.lft.to/lastmile_qr_scan", "android": "https://dc.lft.to/lastmile_qr_scan"}}, {"name": "8680f042652675053dbe8ff0171e5c3a", "type": "electric_scooter", "lat": 38.9126975, "is_reserved": 0, "lon": -77.0354775, "fusion_lon": 0.0, "is_disabled": 0, "fusion_lat": 0.0, "bike_id": "8680f042652675053dbe8ff0171e5c3a", "rental_uris": {"ios": "https://dc.lft.to/lastmile_qr_scan", "android": "https://dc.lft.to/lastmile_qr_scan"}}, {"name": "ae594e313462bd867a512004511efb6f", "type": "electric_scooter", "lat": 38.892222833333335, "is_reserved": 0, "lon": -77.04639066666667, "fusion_lon": 0.0, "is_disabled": 0, "fusion_lat": 0.0, "bike_id": "ae594e313462bd867a512004511efb6f", "rental_uris": {"ios": "https://dc.lft.to/lastmile_qr_scan", "android": "https://dc.lft.to/lastmile_qr_scan"}}, {"name": "eae29aebf1adee1adbbd5079e8e26e42", "type": "electric_scooter", "lat": 38.93545616666667, "is_reserved": 0, "lon": -77.0345775, "fusion_lon": 0.0, "is_disabled": 0, "fusion_lat": 0.0, "bike_id": "eae29aebf1adee1adbbd5079e8e26e42", "rental_uris": {"ios": "https://dc.lft.to/lastmile_qr_scan", "android": "https://dc.lft.to/lastmile_qr_scan"}}, {"name": "142350efe8754858b7d4f0c622770373", "type": "electric_scooter", "lat": 38.9020505, "is_reserved": 0, "lon": -77.02170983333333, "fusion_lon": 0.0, "is_disabled": 0, "fusion_lat": 0.0, "bike_id": "142350efe8754858b7d4f0c622770373", "rental_uris": {"ios": "https://dc.lft.to/lastmile_qr_scan", "android": "https://dc.lft.to/lastmile_qr_scan"}}, {"name": "75810ff86f7eb253d402fb951581bab9", "type": "electric_scooter", "lat": 38.894801666666666, "is_reserved": 0, "lon": -77.0107415, "fusion_lon": 0.0, "is_disabled": 0, "fusion_lat": 0.0, "bike_id": "75810ff86f7eb253d402fb951581bab9", "rental_uris": {"ios": "https://dc.lft.to/lastmile_qr_scan", "android": "https://dc.lft.to/lastmile_qr_scan"}}, {"name": "62dde52bc706c0948bd7779901e0d7bc", "type": "electric_scooter", "lat": 38.8922325, "is_reserved": 0, "lon": -77.042627, "fusion_lon": 0.0, "is_disabled": 0, "fusion_lat": 0.0, "bike_id": "62dde52bc706c0948bd7779901e0d7bc", "rental_uris": {"ios": "https://dc.lft.to/lastmile_qr_scan", "android": "https://dc.lft.to/lastmile_qr_scan"}}, {"name": "593b898664ea60b8adb60dd16ee8bf9a", "type": "electric_bike", "lat": 38.92855083333333, "is_reserved": 0, "lon": -77.10679133333333, "fusion_lon": 0.0, "is_disabled": 0, "fusion_lat": 0.0, "bike_id": "593b898664ea60b8adb60dd16ee8bf9a", "rental_uris": {"ios": "https://dc.lft.to/lastmile_qr_scan", "android": "https://dc.lft.to/lastmile_qr_scan"}}, {"name": "a7a5c379897157aee5752e548663b418", "type": "electric_scooter", "lat": 38.9256195, "is_reserved": 0, "lon": -77.062883, "fusion_lon": 0.0, "is_disabled": 0, "fusion_lat": 0.0, "bike_id": "a7a5c379897157aee5752e548663b418", "rental_uris": {"ios": "https://dc.lft.to/lastmile_qr_scan", "android": "https://dc.lft.to/lastmile_qr_scan"}}, {"name": "073bec5f9b518b69543b395f1c6d9fb8", "type": "electric_scooter", "lat": 38.8636975, "is_reserved": 0, "lon": -77.013567, "fusion_lon": 0.0, "is_disabled": 0, "fusion_lat": 0.0, "bike_id": "073bec5f9b518b69543b395f1c6d9fb8", "rental_uris": {"ios": "https://dc.lft.to/lastmile_qr_scan", "android": "https://dc.lft.to/lastmile_qr_scan"}}, {"name": "4d7333e44e0f51d1a41993b54b0d92d2", "type": "electric_scooter", "lat": 38.93070733333333, "is_reserved": 0, "lon": -77.0231985, "fusion_lon": 0.0, "is_disabled": 0, "fusion_lat": 0.0, "bike_id": "4d7333e44e0f51d1a41993b54b0d92d2", "rental_uris": {"ios": "https://dc.lft.to/lastmile_qr_scan", "android": "https://dc.lft.to/lastmile_qr_scan"}}, {"name": "c5f78d32fb6d20352a12631c407b8f2c", "type": "electric_scooter", "lat": 38.93536266666667, "is_reserved": 0, "lon": -77.0369755, "fusion_lon": 0.0, "is_disabled": 0, "fusion_lat": 0.0, "bike_id": "c5f78d32fb6d20352a12631c407b8f2c", "rental_uris": {"ios": "https://dc.lft.to/lastmile_qr_scan", "android": "https://dc.lft.to/lastmile_qr_scan"}}, {"name": "c01d79a39fd5ddbd85274c5c7feb3e80", "type": "electric_scooter", "lat": 38.9187435, "is_reserved": 0, "lon": -77.04379966666667, "fusion_lon": 0.0, "is_disabled": 0, "fusion_lat": 0.0, "bike_id": "c01d79a39fd5ddbd85274c5c7feb3e80", "rental_uris": {"ios": "https://dc.lft.to/lastmile_qr_scan", "android": "https://dc.lft.to/lastmile_qr_scan"}}, {"name": "b9190fd6fe0d14c2eb817a9651499e34", "type": "electric_scooter", "lat": 38.925293833333335, "is_reserved": 0, "lon": -77.05550433333333, "fusion_lon": 0.0, "is_disabled": 0, "fusion_lat": 0.0, "bike_id": "b9190fd6fe0d14c2eb817a9651499e34", "rental_uris": {"ios": "https://dc.lft.to/lastmile_qr_scan", "android": "https://dc.lft.to/lastmile_qr_scan"}}, {"name": "4ac47dc8ccc33074d218ab257d79eb1f", "type": "electric_scooter", "lat": 38.915843, "is_reserved": 0, "lon": -77.04470666666667, "fusion_lon": 0.0, "is_disabled": 0, "fusion_lat": 0.0, "bike_id": "4ac47dc8ccc33074d218ab257d79eb1f", "rental_uris": {"ios": "https://dc.lft.to/lastmile_qr_scan", "android": "https://dc.lft.to/lastmile_qr_scan"}}, {"name": "93a5e45b4e1c468a1e078c61781db840", "type": "electric_scooter", "lat": 38.90151683333333, "is_reserved": 0, "lon": -76.93063366666667, "fusion_lon": 0.0, "is_disabled": 0, "fusion_lat": 0.0, "bike_id": "93a5e45b4e1c468a1e078c61781db840", "rental_uris": {"ios": "https://dc.lft.to/lastmile_qr_scan", "android": "https://dc.lft.to/lastmile_qr_scan"}}, {"name": "a1edcbf1258640898498a6ff08be8586", "type": "electric_scooter", "lat": 38.9358305, "is_reserved": 0, "lon": -76.99109233333333, "fusion_lon": 0.0, "is_disabled": 0, "fusion_lat": 0.0, "bike_id": "a1edcbf1258640898498a6ff08be8586", "rental_uris": {"ios": "https://dc.lft.to/lastmile_qr_scan", "android": "https://dc.lft.to/lastmile_qr_scan"}}, {"name": "c8cb52d5f6f9d0e08217b99d713c641e", "type": "electric_scooter", "lat": 38.922328, "is_reserved": 0, "lon": -77.03350983333333, "fusion_lon": 0.0, "is_disabled": 0, "fusion_lat": 0.0, "bike_id": "c8cb52d5f6f9d0e08217b99d713c641e", "rental_uris": {"ios": "https://dc.lft.to/lastmile_qr_scan", "android": "https://dc.lft.to/lastmile_qr_scan"}}, {"name": "34890991ffb73ca4176a4c9bc5151cf3", "type": "electric_bike", "lat": 38.87980816666666, "is_reserved": 0, "lon": -76.9160245, "fusion_lon": 0.0, "is_disabled": 0, "fusion_lat": 0.0, "bike_id": "34890991ffb73ca4176a4c9bc5151cf3", "rental_uris": {"ios": "https://dc.lft.to/lastmile_qr_scan", "android": "https://dc.lft.to/lastmile_qr_scan"}}, {"name": "d82927ae5a7b0885d50fb00477c4cf55", "type": "electric_scooter", "lat": 38.924763, "is_reserved": 0, "lon": -77.0376865, "fusion_lon": 0.0, "is_disabled": 0, "fusion_lat": 0.0, "bike_id": "d82927ae5a7b0885d50fb00477c4cf55", "rental_uris": {"ios": "https://dc.lft.to/lastmile_qr_scan", "android": "https://dc.lft.to/lastmile_qr_scan"}}, {"name": "4270dddac22d5c64fe6cbc55b61b6396", "type": "electric_scooter", "lat": 38.92480416666667, "is_reserved": 0, "lon": -77.02839983333334, "fusion_lon": 0.0, "is_disabled": 0, "fusion_lat": 0.0, "bike_id": "4270dddac22d5c64fe6cbc55b61b6396", "rental_uris": {"ios": "https://dc.lft.to/lastmile_qr_scan", "android": "https://dc.lft.to/lastmile_qr_scan"}}, {"name": "6755f2c021b9fc2a4b0bda4ccc84b4b2", "type": "electric_scooter", "lat": 38.90842933333333, "is_reserved": 0, "lon": -77.02693783333333, "fusion_lon": 0.0, "is_disabled": 0, "fusion_lat": 0.0, "bike_id": "6755f2c021b9fc2a4b0bda4ccc84b4b2", "rental_uris": {"ios": "https://dc.lft.to/lastmile_qr_scan", "android": "https://dc.lft.to/lastmile_qr_scan"}}, {"name": "8d29b8e6b618c1a8ba489ed559ee7a01", "type": "electric_scooter", "lat": 38.910898, "is_reserved": 0, "lon": -77.03842166666666, "fusion_lon": 0.0, "is_disabled": 0, "fusion_lat": 0.0, "bike_id": "8d29b8e6b618c1a8ba489ed559ee7a01", "rental_uris": {"ios": "https://dc.lft.to/lastmile_qr_scan", "android": "https://dc.lft.to/lastmile_qr_scan"}}, {"name": "5952ba2d37ac67e1415057cd55054066", "type": "electric_scooter", "lat": 38.926843833333336, "is_reserved": 0, "lon": -77.09558183333333, "fusion_lon": 0.0, "is_disabled": 0, "fusion_lat": 0.0, "bike_id": "5952ba2d37ac67e1415057cd55054066", "rental_uris": {"ios": "https://dc.lft.to/lastmile_qr_scan", "android": "https://dc.lft.to/lastmile_qr_scan"}}, {"name": "572313047a00333cfa156fdff142ac6f", "type": "electric_scooter", "lat": 38.894043833333335, "is_reserved": 0, "lon": -76.94802133333333, "fusion_lon": 0.0, "is_disabled": 0, "fusion_lat": 0.0, "bike_id": "572313047a00333cfa156fdff142ac6f", "rental_uris": {"ios": "https://dc.lft.to/lastmile_qr_scan", "android": "https://dc.lft.to/lastmile_qr_scan"}}, {"name": "d7d417184b5009ca4c72f816facd16e3", "type": "electric_scooter", "lat": 38.90273766666667, "is_reserved": 0, "lon": -77.03175116666667, "fusion_lon": 0.0, "is_disabled": 0, "fusion_lat": 0.0, "bike_id": "d7d417184b5009ca4c72f816facd16e3", "rental_uris": {"ios": "https://dc.lft.to/lastmile_qr_scan", "android": "https://dc.lft.to/lastmile_qr_scan"}}, {"name": "6640bcf10ec45e409737aebe84fe15c9", "type": "electric_scooter", "lat": 38.906592333333336, "is_reserved": 0, "lon": -77.03849083333333, "fusion_lon": 0.0, "is_disabled": 0, "fusion_lat": 0.0, "bike_id": "6640bcf10ec45e409737aebe84fe15c9", "rental_uris": {"ios": "https://dc.lft.to/lastmile_qr_scan", "android": "https://dc.lft.to/lastmile_qr_scan"}}, {"name": "4aa534dd5e06682c0879fef1158be9dc", "type": "electric_scooter", "lat": 38.90646866666667, "is_reserved": 0, "lon": -77.01145383333333, "fusion_lon": 0.0, "is_disabled": 0, "fusion_lat": 0.0, "bike_id": "4aa534dd5e06682c0879fef1158be9dc", "rental_uris": {"ios": "https://dc.lft.to/lastmile_qr_scan", "android": "https://dc.lft.to/lastmile_qr_scan"}}, {"name": "3e2d7f742da26f8648bc7c2186829b4b", "type": "electric_scooter", "lat": 38.892266666666664, "is_reserved": 0, "lon": -77.0426715, "fusion_lon": 0.0, "is_disabled": 0, "fusion_lat": 0.0, "bike_id": "3e2d7f742da26f8648bc7c2186829b4b", "rental_uris": {"ios": "https://dc.lft.to/lastmile_qr_scan", "android": "https://dc.lft.to/lastmile_qr_scan"}}, {"name": "6c8d134fc2f9870c7df10c5fbb048bd8", "type": "electric_scooter", "lat": 38.908623166666665, "is_reserved": 0, "lon": -77.04445833333334, "fusion_lon": 0.0, "is_disabled": 0, "fusion_lat": 0.0, "bike_id": "6c8d134fc2f9870c7df10c5fbb048bd8", "rental_uris": {"ios": "https://dc.lft.to/lastmile_qr_scan", "android": "https://dc.lft.to/lastmile_qr_scan"}}, {"name": "ccc880fb26837d43295408e3b5abafc6", "type": "electric_scooter", "lat": 38.907217, "is_reserved": 0, "lon": -77.0435505, "fusion_lon": 0.0, "is_disabled": 0, "fusion_lat": 0.0, "bike_id": "ccc880fb26837d43295408e3b5abafc6", "rental_uris": {"ios": "https://dc.lft.to/lastmile_qr_scan", "android": "https://dc.lft.to/lastmile_qr_scan"}}, {"name": "35fe999a2621bd18583dba54427ec849", "type": "electric_scooter", "lat": 38.90682316666667, "is_reserved": 0, "lon": -77.01340216666667, "fusion_lon": 0.0, "is_disabled": 0, "fusion_lat": 0.0, "bike_id": "35fe999a2621bd18583dba54427ec849", "rental_uris": {"ios": "https://dc.lft.to/lastmile_qr_scan", "android": "https://dc.lft.to/lastmile_qr_scan"}}, {"name": "4dcb928a4c22acb671cf85f3c3cba7ca", "type": "electric_bike", "lat": 38.86907433333333, "is_reserved": 0, "lon": -77.13173833333333, "fusion_lon": 0.0, "is_disabled": 0, "fusion_lat": 0.0, "bike_id": "4dcb928a4c22acb671cf85f3c3cba7ca", "rental_uris": {"ios": "https://dc.lft.to/lastmile_qr_scan", "android": "https://dc.lft.to/lastmile_qr_scan"}}, {"name": "59e1875a23df64d2b14b1d6c2311cba8", "type": "electric_scooter", "lat": 38.9326005, "is_reserved": 0, "lon": -77.032894, "fusion_lon": 0.0, "is_disabled": 0, "fusion_lat": 0.0, "bike_id": "59e1875a23df64d2b14b1d6c2311cba8", "rental_uris": {"ios": "https://dc.lft.to/lastmile_qr_scan", "android": "https://dc.lft.to/lastmile_qr_scan"}}, {"name": "3457cbc6c8fce18da779620c1d75476a", "type": "electric_scooter", "lat": 38.906416, "is_reserved": 0, "lon": -76.985728, "fusion_lon": 0.0, "is_disabled": 0, "fusion_lat": 0.0, "bike_id": "3457cbc6c8fce18da779620c1d75476a", "rental_uris": {"ios": "https://dc.lft.to/lastmile_qr_scan", "android": "https://dc.lft.to/lastmile_qr_scan"}}, {"name": "eddfb9ec6984fb6111aa57d41f61d840", "type": "electric_scooter", "lat": 38.927259166666666, "is_reserved": 0, "lon": -77.03077816666666, "fusion_lon": 0.0, "is_disabled": 0, "fusion_lat": 0.0, "bike_id": "eddfb9ec6984fb6111aa57d41f61d840", "rental_uris": {"ios": "https://dc.lft.to/lastmile_qr_scan", "android": "https://dc.lft.to/lastmile_qr_scan"}}, {"name": "dc33847d31d913b69cb885ca686702b0", "type": "electric_scooter", "lat": 38.9218015, "is_reserved": 0, "lon": -77.04015983333333, "fusion_lon": 0.0, "is_disabled": 0, "fusion_lat": 0.0, "bike_id": "dc33847d31d913b69cb885ca686702b0", "rental_uris": {"ios": "https://dc.lft.to/lastmile_qr_scan", "android": "https://dc.lft.to/lastmile_qr_scan"}}, {"name": "beb92afebe472609d6f6c002be9af157", "type": "electric_scooter", "lat": 38.91821, "is_reserved": 0, "lon": -77.03445616666667, "fusion_lon": 0.0, "is_disabled": 0, "fusion_lat": 0.0, "bike_id": "beb92afebe472609d6f6c002be9af157", "rental_uris": {"ios": "https://dc.lft.to/lastmile_qr_scan", "android": "https://dc.lft.to/lastmile_qr_scan"}}, {"name": "06528a16ec1c2b5b9507a3093b1765cf", "type": "electric_scooter", "lat": 38.932552, "is_reserved": 0, "lon": -77.03275816666667, "fusion_lon": 0.0, "is_disabled": 0, "fusion_lat": 0.0, "bike_id": "06528a16ec1c2b5b9507a3093b1765cf", "rental_uris": {"ios": "https://dc.lft.to/lastmile_qr_scan", "android": "https://dc.lft.to/lastmile_qr_scan"}}, {"name": "802ef443bd5abca87a30b3da9fab7720", "type": "electric_scooter", "lat": 38.91109933333333, "is_reserved": 0, "lon": -77.03618516666667, "fusion_lon": 0.0, "is_disabled": 0, "fusion_lat": 0.0, "bike_id": "802ef443bd5abca87a30b3da9fab7720", "rental_uris": {"ios": "https://dc.lft.to/lastmile_qr_scan", "android": "https://dc.lft.to/lastmile_qr_scan"}}, {"name": "0f1c0b2e99fe3a70502e41c5c6dd8cfb", "type": "electric_scooter", "lat": 38.92243366666667, "is_reserved": 0, "lon": -77.0101225, "fusion_lon": 0.0, "is_disabled": 0, "fusion_lat": 0.0, "bike_id": "0f1c0b2e99fe3a70502e41c5c6dd8cfb", "rental_uris": {"ios": "https://dc.lft.to/lastmile_qr_scan", "android": "https://dc.lft.to/lastmile_qr_scan"}}, {"name": "612cd844f78807b7f031ebdd21ab6c77", "type": "electric_scooter", "lat": 38.91548233333333, "is_reserved": 0, "lon": -77.03854983333333, "fusion_lon": 0.0, "is_disabled": 0, "fusion_lat": 0.0, "bike_id": "612cd844f78807b7f031ebdd21ab6c77", "rental_uris": {"ios": "https://dc.lft.to/lastmile_qr_scan", "android": "https://dc.lft.to/lastmile_qr_scan"}}, {"name": "e1aa677f7dfd2b52f15ea5ffd6429b1a", "type": "electric_scooter", "lat": 38.8961305, "is_reserved": 0, "lon": -77.02844416666667, "fusion_lon": 0.0, "is_disabled": 0, "fusion_lat": 0.0, "bike_id": "e1aa677f7dfd2b52f15ea5ffd6429b1a", "rental_uris": {"ios": "https://dc.lft.to/lastmile_qr_scan", "android": "https://dc.lft.to/lastmile_qr_scan"}}, {"name": "67755d1268a950b24e17d743cd381160", "type": "electric_scooter", "lat": 38.902752666666665, "is_reserved": 0, "lon": -77.05919266666666, "fusion_lon": 0.0, "is_disabled": 0, "fusion_lat": 0.0, "bike_id": "67755d1268a950b24e17d743cd381160", "rental_uris": {"ios": "https://dc.lft.to/lastmile_qr_scan", "android": "https://dc.lft.to/lastmile_qr_scan"}}, {"name": "c171f6fee5de8354abec548cad1a65ad", "type": "electric_bike", "lat": 38.863722, "is_reserved": 0, "lon": -76.970085, "fusion_lon": 0.0, "is_disabled": 0, "fusion_lat": 0.0, "bike_id": "c171f6fee5de8354abec548cad1a65ad", "rental_uris": {"ios": "https://dc.lft.to/lastmile_qr_scan", "android": "https://dc.lft.to/lastmile_qr_scan"}}, {"name": "0d601f8a03a405864375b3240de24baf", "type": "electric_scooter", "lat": 38.91239783333333, "is_reserved": 0, "lon": -77.0012035, "fusion_lon": 0.0, "is_disabled": 0, "fusion_lat": 0.0, "bike_id": "0d601f8a03a405864375b3240de24baf", "rental_uris": {"ios": "https://dc.lft.to/lastmile_qr_scan", "android": "https://dc.lft.to/lastmile_qr_scan"}}, {"name": "513b0027f21cf0ff1fec696e13bd4088", "type": "electric_scooter", "lat": 38.919726833333335, "is_reserved": 0, "lon": -77.001066, "fusion_lon": 0.0, "is_disabled": 0, "fusion_lat": 0.0, "bike_id": "513b0027f21cf0ff1fec696e13bd4088", "rental_uris": {"ios": "https://dc.lft.to/lastmile_qr_scan", "android": "https://dc.lft.to/lastmile_qr_scan"}}, {"name": "0c1e6052d5ec61b9ffeb827e2ec444b9", "type": "electric_scooter", "lat": 38.905908833333335, "is_reserved": 0, "lon": -77.065221, "fusion_lon": 0.0, "is_disabled": 0, "fusion_lat": 0.0, "bike_id": "0c1e6052d5ec61b9ffeb827e2ec444b9", "rental_uris": {"ios": "https://dc.lft.to/lastmile_qr_scan", "android": "https://dc.lft.to/lastmile_qr_scan"}}, {"name": "8872ef30d9673ce85fcfb8e96b8d3ebd", "type": "electric_bike", "lat": 38.9553485, "is_reserved": 0, "lon": -77.02293983333334, "fusion_lon": 0.0, "is_disabled": 0, "fusion_lat": 0.0, "bike_id": "8872ef30d9673ce85fcfb8e96b8d3ebd", "rental_uris": {"ios": "https://dc.lft.to/lastmile_qr_scan", "android": "https://dc.lft.to/lastmile_qr_scan"}}, {"name": "7d8c1c9bd5f0fdc08818faffe089239c", "type": "electric_scooter", "lat": 38.92344816666667, "is_reserved": 0, "lon": -77.01907083333333, "fusion_lon": 0.0, "is_disabled": 0, "fusion_lat": 0.0, "bike_id": "7d8c1c9bd5f0fdc08818faffe089239c", "rental_uris": {"ios": "https://dc.lft.to/lastmile_qr_scan", "android": "https://dc.lft.to/lastmile_qr_scan"}}, {"name": "102ff30f0e90112c98eeb5f2b82ef655", "type": "electric_scooter", "lat": 38.905083, "is_reserved": 0, "lon": -77.06384866666667, "fusion_lon": 0.0, "is_disabled": 0, "fusion_lat": 0.0, "bike_id": "102ff30f0e90112c98eeb5f2b82ef655", "rental_uris": {"ios": "https://dc.lft.to/lastmile_qr_scan", "android": "https://dc.lft.to/lastmile_qr_scan"}}, {"name": "793bb071c2c9d5211fd33ed14f6810c0", "type": "electric_scooter", "lat": 38.909723666666665, "is_reserved": 0, "lon": -77.01124316666667, "fusion_lon": 0.0, "is_disabled": 0, "fusion_lat": 0.0, "bike_id": "793bb071c2c9d5211fd33ed14f6810c0", "rental_uris": {"ios": "https://dc.lft.to/lastmile_qr_scan", "android": "https://dc.lft.to/lastmile_qr_scan"}}, {"name": "e318eb61cdb2c29fecce42116a198af6", "type": "electric_scooter", "lat": 38.90590266666667, "is_reserved": 0, "lon": -77.065181, "fusion_lon": 0.0, "is_disabled": 0, "fusion_lat": 0.0, "bike_id": "e318eb61cdb2c29fecce42116a198af6", "rental_uris": {"ios": "https://dc.lft.to/lastmile_qr_scan", "android": "https://dc.lft.to/lastmile_qr_scan"}}, {"name": "e329a0e0d44687924c08649df5708a5c", "type": "electric_scooter", "lat": 38.9185525, "is_reserved": 0, "lon": -76.96550183333333, "fusion_lon": 0.0, "is_disabled": 0, "fusion_lat": 0.0, "bike_id": "e329a0e0d44687924c08649df5708a5c", "rental_uris": {"ios": "https://dc.lft.to/lastmile_qr_scan", "android": "https://dc.lft.to/lastmile_qr_scan"}}, {"name": "7de9f497a58e586e44c0312f921a1a58", "type": "electric_scooter", "lat": 38.9263305, "is_reserved": 0, "lon": -77.035091, "fusion_lon": 0.0, "is_disabled": 0, "fusion_lat": 0.0, "bike_id": "7de9f497a58e586e44c0312f921a1a58", "rental_uris": {"ios": "https://dc.lft.to/lastmile_qr_scan", "android": "https://dc.lft.to/lastmile_qr_scan"}}, {"name": "74be1d3c4354442d1a9101e35350cecb", "type": "electric_scooter", "lat": 38.920549666666666, "is_reserved": 0, "lon": -77.0297805, "fusion_lon": 0.0, "is_disabled": 0, "fusion_lat": 0.0, "bike_id": "74be1d3c4354442d1a9101e35350cecb", "rental_uris": {"ios": "https://dc.lft.to/lastmile_qr_scan", "android": "https://dc.lft.to/lastmile_qr_scan"}}, {"name": "f5c91e73c6bb138711fc1f7fbe4168c3", "type": "electric_scooter", "lat": 38.9097405, "is_reserved": 0, "lon": -77.0171745, "fusion_lon": 0.0, "is_disabled": 0, "fusion_lat": 0.0, "bike_id": "f5c91e73c6bb138711fc1f7fbe4168c3", "rental_uris": {"ios": "https://dc.lft.to/lastmile_qr_scan", "android": "https://dc.lft.to/lastmile_qr_scan"}}, {"name": "841030714e08a6679ab3fa8b84ba45f0", "type": "electric_bike", "lat": 38.8398855, "is_reserved": 0, "lon": -77.00566066666667, "fusion_lon": 0.0, "is_disabled": 0, "fusion_lat": 0.0, "bike_id": "841030714e08a6679ab3fa8b84ba45f0", "rental_uris": {"ios": "https://dc.lft.to/lastmile_qr_scan", "android": "https://dc.lft.to/lastmile_qr_scan"}}, {"name": "a7181343af422c6be03ef7a8cc8077d1", "type": "electric_bike", "lat": 38.922225166666664, "is_reserved": 0, "lon": -77.08192233333334, "fusion_lon": 0.0, "is_disabled": 0, "fusion_lat": 0.0, "bike_id": "a7181343af422c6be03ef7a8cc8077d1", "rental_uris": {"ios": "https://dc.lft.to/lastmile_qr_scan", "android": "https://dc.lft.to/lastmile_qr_scan"}}, {"name": "7ea41b91b73dcae9de5c0c97e590a6ee", "type": "electric_scooter", "lat": 38.92484783333333, "is_reserved": 0, "lon": -77.02887466666667, "fusion_lon": 0.0, "is_disabled": 0, "fusion_lat": 0.0, "bike_id": "7ea41b91b73dcae9de5c0c97e590a6ee", "rental_uris": {"ios": "https://dc.lft.to/lastmile_qr_scan", "android": "https://dc.lft.to/lastmile_qr_scan"}}, {"name": "440696e731cea8280eab273500ab7f43", "type": "electric_scooter", "lat": 38.905643, "is_reserved": 0, "lon": -77.0217285, "fusion_lon": 0.0, "is_disabled": 0, "fusion_lat": 0.0, "bike_id": "440696e731cea8280eab273500ab7f43", "rental_uris": {"ios": "https://dc.lft.to/lastmile_qr_scan", "android": "https://dc.lft.to/lastmile_qr_scan"}}, {"name": "d7078839dd52378e8dc115d1ea5a9d36", "type": "electric_scooter", "lat": 38.89958383333333, "is_reserved": 0, "lon": -76.98575, "fusion_lon": 0.0, "is_disabled": 0, "fusion_lat": 0.0, "bike_id": "d7078839dd52378e8dc115d1ea5a9d36", "rental_uris": {"ios": "https://dc.lft.to/lastmile_qr_scan", "android": "https://dc.lft.to/lastmile_qr_scan"}}, {"name": "832f8fc62358e6777e7de5e35fa2202a", "type": "electric_scooter", "lat": 38.86656516666667, "is_reserved": 0, "lon": -76.99012216666667, "fusion_lon": 0.0, "is_disabled": 0, "fusion_lat": 0.0, "bike_id": "832f8fc62358e6777e7de5e35fa2202a", "rental_uris": {"ios": "https://dc.lft.to/lastmile_qr_scan", "android": "https://dc.lft.to/lastmile_qr_scan"}}, {"name": "a8a7747fe249344343fd11ae096978f7", "type": "electric_scooter", "lat": 38.914169666666666, "is_reserved": 0, "lon": -77.02280316666666, "fusion_lon": 0.0, "is_disabled": 0, "fusion_lat": 0.0, "bike_id": "a8a7747fe249344343fd11ae096978f7", "rental_uris": {"ios": "https://dc.lft.to/lastmile_qr_scan", "android": "https://dc.lft.to/lastmile_qr_scan"}}, {"name": "b8d458f94314b4d8623dbcd1b037fb89", "type": "electric_scooter", "lat": 38.90072416666667, "is_reserved": 0, "lon": -77.05073083333333, "fusion_lon": 0.0, "is_disabled": 0, "fusion_lat": 0.0, "bike_id": "b8d458f94314b4d8623dbcd1b037fb89", "rental_uris": {"ios": "https://dc.lft.to/lastmile_qr_scan", "android": "https://dc.lft.to/lastmile_qr_scan"}}, {"name": "2b4e2f7c10d564737e630499f9bacf59", "type": "electric_scooter", "lat": 38.898278, "is_reserved": 0, "lon": -76.94654416666667, "fusion_lon": 0.0, "is_disabled": 0, "fusion_lat": 0.0, "bike_id": "2b4e2f7c10d564737e630499f9bacf59", "rental_uris": {"ios": "https://dc.lft.to/lastmile_qr_scan", "android": "https://dc.lft.to/lastmile_qr_scan"}}, {"name": "ce0fdafb9666a4f5a976feae9565d1ac", "type": "electric_scooter", "lat": 38.930649833333334, "is_reserved": 0, "lon": -77.02983466666667, "fusion_lon": 0.0, "is_disabled": 0, "fusion_lat": 0.0, "bike_id": "ce0fdafb9666a4f5a976feae9565d1ac", "rental_uris": {"ios": "https://dc.lft.to/lastmile_qr_scan", "android": "https://dc.lft.to/lastmile_qr_scan"}}, {"name": "3620be731128d55079680e00ec53937b", "type": "electric_scooter", "lat": 38.913350333333334, "is_reserved": 0, "lon": -77.03167316666666, "fusion_lon": 0.0, "is_disabled": 0, "fusion_lat": 0.0, "bike_id": "3620be731128d55079680e00ec53937b", "rental_uris": {"ios": "https://dc.lft.to/lastmile_qr_scan", "android": "https://dc.lft.to/lastmile_qr_scan"}}, {"name": "9acd9ccf5b12941d9b4dcfbee542b3eb", "type": "electric_scooter", "lat": 38.919147333333335, "is_reserved": 0, "lon": -77.0341855, "fusion_lon": 0.0, "is_disabled": 0, "fusion_lat": 0.0, "bike_id": "9acd9ccf5b12941d9b4dcfbee542b3eb", "rental_uris": {"ios": "https://dc.lft.to/lastmile_qr_scan", "android": "https://dc.lft.to/lastmile_qr_scan"}}, {"name": "325a45efd62bd58c281d05e3e8daa7d2", "type": "electric_scooter", "lat": 38.93767183333333, "is_reserved": 0, "lon": -77.02270583333333, "fusion_lon": 0.0, "is_disabled": 0, "fusion_lat": 0.0, "bike_id": "325a45efd62bd58c281d05e3e8daa7d2", "rental_uris": {"ios": "https://dc.lft.to/lastmile_qr_scan", "android": "https://dc.lft.to/lastmile_qr_scan"}}, {"name": "f9cf5628a653f7f64bce661d96c3275e", "type": "electric_scooter", "lat": 38.930726666666665, "is_reserved": 0, "lon": -77.029186, "fusion_lon": 0.0, "is_disabled": 0, "fusion_lat": 0.0, "bike_id": "f9cf5628a653f7f64bce661d96c3275e", "rental_uris": {"ios": "https://dc.lft.to/lastmile_qr_scan", "android": "https://dc.lft.to/lastmile_qr_scan"}}, {"name": "44ce7829bcb8f602b55e68cfe05421d6", "type": "electric_scooter", "lat": 38.92866983333333, "is_reserved": 0, "lon": -77.026124, "fusion_lon": 0.0, "is_disabled": 0, "fusion_lat": 0.0, "bike_id": "44ce7829bcb8f602b55e68cfe05421d6", "rental_uris": {"ios": "https://dc.lft.to/lastmile_qr_scan", "android": "https://dc.lft.to/lastmile_qr_scan"}}, {"name": "eb78852b8627ae8a378b2826f46ed30c", "type": "electric_scooter", "lat": 38.88714933333333, "is_reserved": 0, "lon": -77.01776316666667, "fusion_lon": 0.0, "is_disabled": 0, "fusion_lat": 0.0, "bike_id": "eb78852b8627ae8a378b2826f46ed30c", "rental_uris": {"ios": "https://dc.lft.to/lastmile_qr_scan", "android": "https://dc.lft.to/lastmile_qr_scan"}}, {"name": "8539df6b3952f4e47457baf9c65707b1", "type": "electric_scooter", "lat": 38.904758333333334, "is_reserved": 0, "lon": -77.041619, "fusion_lon": 0.0, "is_disabled": 0, "fusion_lat": 0.0, "bike_id": "8539df6b3952f4e47457baf9c65707b1", "rental_uris": {"ios": "https://dc.lft.to/lastmile_qr_scan", "android": "https://dc.lft.to/lastmile_qr_scan"}}, {"name": "d6b08f52f1194c295da9f602a034438b", "type": "electric_scooter", "lat": 38.935419333333336, "is_reserved": 0, "lon": -77.033208, "fusion_lon": 0.0, "is_disabled": 0, "fusion_lat": 0.0, "bike_id": "d6b08f52f1194c295da9f602a034438b", "rental_uris": {"ios": "https://dc.lft.to/lastmile_qr_scan", "android": "https://dc.lft.to/lastmile_qr_scan"}}, {"name": "5958cea7b35210afb2303b847e8e7f5b", "type": "electric_scooter", "lat": 38.90277783333333, "is_reserved": 0, "lon": -77.03832616666666, "fusion_lon": 0.0, "is_disabled": 0, "fusion_lat": 0.0, "bike_id": "5958cea7b35210afb2303b847e8e7f5b", "rental_uris": {"ios": "https://dc.lft.to/lastmile_qr_scan", "android": "https://dc.lft.to/lastmile_qr_scan"}}, {"name": "9900839d99773493abd78a88cf514f5a", "type": "electric_scooter", "lat": 38.9212005, "is_reserved": 0, "lon": -77.036606, "fusion_lon": 0.0, "is_disabled": 0, "fusion_lat": 0.0, "bike_id": "9900839d99773493abd78a88cf514f5a", "rental_uris": {"ios": "https://dc.lft.to/lastmile_qr_scan", "android": "https://dc.lft.to/lastmile_qr_scan"}}, {"name": "4aaf4c03dd6ec33e1dafff7aa37e0b81", "type": "electric_scooter", "lat": 38.90109666666667, "is_reserved": 0, "lon": -77.04981933333333, "fusion_lon": 0.0, "is_disabled": 0, "fusion_lat": 0.0, "bike_id": "4aaf4c03dd6ec33e1dafff7aa37e0b81", "rental_uris": {"ios": "https://dc.lft.to/lastmile_qr_scan", "android": "https://dc.lft.to/lastmile_qr_scan"}}, {"name": "379f8bbec778b85747c18597bd990d45", "type": "electric_scooter", "lat": 38.89940883333333, "is_reserved": 0, "lon": -77.02973633333333, "fusion_lon": 0.0, "is_disabled": 0, "fusion_lat": 0.0, "bike_id": "379f8bbec778b85747c18597bd990d45", "rental_uris": {"ios": "https://dc.lft.to/lastmile_qr_scan", "android": "https://dc.lft.to/lastmile_qr_scan"}}, {"name": "531025403082110dcea75db8f99047f4", "type": "electric_scooter", "lat": 38.9191895, "is_reserved": 0, "lon": -77.03016333333333, "fusion_lon": 0.0, "is_disabled": 0, "fusion_lat": 0.0, "bike_id": "531025403082110dcea75db8f99047f4", "rental_uris": {"ios": "https://dc.lft.to/lastmile_qr_scan", "android": "https://dc.lft.to/lastmile_qr_scan"}}, {"name": "8eaac06eddf6ee12c9b77a090ea7a6d9", "type": "electric_scooter", "lat": 38.842963, "is_reserved": 0, "lon": -76.999461, "fusion_lon": 0.0, "is_disabled": 0, "fusion_lat": 0.0, "bike_id": "8eaac06eddf6ee12c9b77a090ea7a6d9", "rental_uris": {"ios": "https://dc.lft.to/lastmile_qr_scan", "android": "https://dc.lft.to/lastmile_qr_scan"}}, {"name": "d06d407eef1be260a0128ad27f0957a1", "type": "electric_bike", "lat": 38.852504, "is_reserved": 0, "lon": -77.11426333333333, "fusion_lon": 0.0, "is_disabled": 0, "fusion_lat": 0.0, "bike_id": "d06d407eef1be260a0128ad27f0957a1", "rental_uris": {"ios": "https://dc.lft.to/lastmile_qr_scan", "android": "https://dc.lft.to/lastmile_qr_scan"}}, {"name": "8f0e6c7a73854da121d14c387be0590f", "type": "electric_scooter", "lat": 38.92748916666667, "is_reserved": 0, "lon": -77.05364783333333, "fusion_lon": 0.0, "is_disabled": 0, "fusion_lat": 0.0, "bike_id": "8f0e6c7a73854da121d14c387be0590f", "rental_uris": {"ios": "https://dc.lft.to/lastmile_qr_scan", "android": "https://dc.lft.to/lastmile_qr_scan"}}, {"name": "acbca5a940b73a7a6fa925355ea100d7", "type": "electric_scooter", "lat": 38.967261666666666, "is_reserved": 0, "lon": -77.02348016666667, "fusion_lon": 0.0, "is_disabled": 0, "fusion_lat": 0.0, "bike_id": "acbca5a940b73a7a6fa925355ea100d7", "rental_uris": {"ios": "https://dc.lft.to/lastmile_qr_scan", "android": "https://dc.lft.to/lastmile_qr_scan"}}, {"name": "5a9bd82024fa438712c0e43b0aee55bd", "type": "electric_scooter", "lat": 38.916007666666665, "is_reserved": 0, "lon": -76.98371633333333, "fusion_lon": 0.0, "is_disabled": 0, "fusion_lat": 0.0, "bike_id": "5a9bd82024fa438712c0e43b0aee55bd", "rental_uris": {"ios": "https://dc.lft.to/lastmile_qr_scan", "android": "https://dc.lft.to/lastmile_qr_scan"}}, {"name": "c994a39a2cb2bd91ca9945a967f363df", "type": "electric_scooter", "lat": 38.898931166666664, "is_reserved": 0, "lon": -77.03291633333333, "fusion_lon": 0.0, "is_disabled": 0, "fusion_lat": 0.0, "bike_id": "c994a39a2cb2bd91ca9945a967f363df", "rental_uris": {"ios": "https://dc.lft.to/lastmile_qr_scan", "android": "https://dc.lft.to/lastmile_qr_scan"}}, {"name": "fe0e71870ddf7e9bbf3e97dd22ae467f", "type": "electric_scooter", "lat": 38.93462616666667, "is_reserved": 0, "lon": -77.03051616666667, "fusion_lon": 0.0, "is_disabled": 0, "fusion_lat": 0.0, "bike_id": "fe0e71870ddf7e9bbf3e97dd22ae467f", "rental_uris": {"ios": "https://dc.lft.to/lastmile_qr_scan", "android": "https://dc.lft.to/lastmile_qr_scan"}}, {"name": "86b0c66ab990bce0fc10f456ef5a673a", "type": "electric_scooter", "lat": 38.89014233333333, "is_reserved": 0, "lon": -76.93731466666667, "fusion_lon": 0.0, "is_disabled": 0, "fusion_lat": 0.0, "bike_id": "86b0c66ab990bce0fc10f456ef5a673a", "rental_uris": {"ios": "https://dc.lft.to/lastmile_qr_scan", "android": "https://dc.lft.to/lastmile_qr_scan"}}, {"name": "958ea329e008d13706c975105d273166", "type": "electric_bike", "lat": 38.8461315, "is_reserved": 0, "lon": -76.978347, "fusion_lon": 0.0, "is_disabled": 0, "fusion_lat": 0.0, "bike_id": "958ea329e008d13706c975105d273166", "rental_uris": {"ios": "https://dc.lft.to/lastmile_qr_scan", "android": "https://dc.lft.to/lastmile_qr_scan"}}, {"name": "3895608f69ae878e81357ba36e2e224a", "type": "electric_scooter", "lat": 38.914855, "is_reserved": 0, "lon": -77.00841783333334, "fusion_lon": 0.0, "is_disabled": 0, "fusion_lat": 0.0, "bike_id": "3895608f69ae878e81357ba36e2e224a", "rental_uris": {"ios": "https://dc.lft.to/lastmile_qr_scan", "android": "https://dc.lft.to/lastmile_qr_scan"}}, {"name": "032be3ca3b6f65ef300de1f026aeab3d", "type": "electric_scooter", "lat": 38.923310666666666, "is_reserved": 0, "lon": -77.04027333333333, "fusion_lon": 0.0, "is_disabled": 0, "fusion_lat": 0.0, "bike_id": "032be3ca3b6f65ef300de1f026aeab3d", "rental_uris": {"ios": "https://dc.lft.to/lastmile_qr_scan", "android": "https://dc.lft.to/lastmile_qr_scan"}}, {"name": "76d604bad59d835fd9035b037a4fd8d3", "type": "electric_bike", "lat": 38.952861666666664, "is_reserved": 0, "lon": -76.97806916666667, "fusion_lon": 0.0, "is_disabled": 0, "fusion_lat": 0.0, "bike_id": "76d604bad59d835fd9035b037a4fd8d3", "rental_uris": {"ios": "https://dc.lft.to/lastmile_qr_scan", "android": "https://dc.lft.to/lastmile_qr_scan"}}, {"name": "6435388cf59162e71c7cc955da2ffb6b", "type": "electric_bike", "lat": 38.84607716666667, "is_reserved": 0, "lon": -76.96891316666667, "fusion_lon": 0.0, "is_disabled": 0, "fusion_lat": 0.0, "bike_id": "6435388cf59162e71c7cc955da2ffb6b", "rental_uris": {"ios": "https://dc.lft.to/lastmile_qr_scan", "android": "https://dc.lft.to/lastmile_qr_scan"}}, {"name": "2ed05dd02b1ab075c5b8bf4604b6d071", "type": "electric_scooter", "lat": 38.885032333333335, "is_reserved": 0, "lon": -76.9983545, "fusion_lon": 0.0, "is_disabled": 0, "fusion_lat": 0.0, "bike_id": "2ed05dd02b1ab075c5b8bf4604b6d071", "rental_uris": {"ios": "https://dc.lft.to/lastmile_qr_scan", "android": "https://dc.lft.to/lastmile_qr_scan"}}, {"name": "5f445d2af57359150eb7cb191f6be055", "type": "electric_scooter", "lat": 38.94191433333334, "is_reserved": 0, "lon": -77.03031666666666, "fusion_lon": 0.0, "is_disabled": 0, "fusion_lat": 0.0, "bike_id": "5f445d2af57359150eb7cb191f6be055", "rental_uris": {"ios": "https://dc.lft.to/lastmile_qr_scan", "android": "https://dc.lft.to/lastmile_qr_scan"}}, {"name": "f516711548ab72a5a2b4b08a528ac270", "type": "electric_bike", "lat": 39.058111, "is_reserved": 0, "lon": -77.1262505, "fusion_lon": 0.0, "is_disabled": 0, "fusion_lat": 0.0, "bike_id": "f516711548ab72a5a2b4b08a528ac270", "rental_uris": {"ios": "https://dc.lft.to/lastmile_qr_scan", "android": "https://dc.lft.to/lastmile_qr_scan"}}, {"name": "c3d4861e509cdcbe158036462b1cb6bd", "type": "electric_scooter", "lat": 38.8990445, "is_reserved": 0, "lon": -77.01498316666667, "fusion_lon": 0.0, "is_disabled": 0, "fusion_lat": 0.0, "bike_id": "c3d4861e509cdcbe158036462b1cb6bd", "rental_uris": {"ios": "https://dc.lft.to/lastmile_qr_scan", "android": "https://dc.lft.to/lastmile_qr_scan"}}, {"name": "27f337c98a0827d2e49974f6c2594c05", "type": "electric_scooter", "lat": 38.902796333333335, "is_reserved": 0, "lon": -77.03172166666667, "fusion_lon": 0.0, "is_disabled": 0, "fusion_lat": 0.0, "bike_id": "27f337c98a0827d2e49974f6c2594c05", "rental_uris": {"ios": "https://dc.lft.to/lastmile_qr_scan", "android": "https://dc.lft.to/lastmile_qr_scan"}}, {"name": "9fea45fab35a817348fe05730b34478f", "type": "electric_scooter", "lat": 38.9024185, "is_reserved": 0, "lon": -77.00205566666666, "fusion_lon": 0.0, "is_disabled": 0, "fusion_lat": 0.0, "bike_id": "9fea45fab35a817348fe05730b34478f", "rental_uris": {"ios": "https://dc.lft.to/lastmile_qr_scan", "android": "https://dc.lft.to/lastmile_qr_scan"}}, {"name": "20f469143666d5223e775e590b1b7471", "type": "electric_scooter", "lat": 38.89107633333333, "is_reserved": 0, "lon": -76.98705916666667, "fusion_lon": 0.0, "is_disabled": 0, "fusion_lat": 0.0, "bike_id": "20f469143666d5223e775e590b1b7471", "rental_uris": {"ios": "https://dc.lft.to/lastmile_qr_scan", "android": "https://dc.lft.to/lastmile_qr_scan"}}, {"name": "2d139cc7f43079fcee9afbb12fe5db7b", "type": "electric_scooter", "lat": 38.89499816666667, "is_reserved": 0, "lon": -77.02299733333334, "fusion_lon": 0.0, "is_disabled": 0, "fusion_lat": 0.0, "bike_id": "2d139cc7f43079fcee9afbb12fe5db7b", "rental_uris": {"ios": "https://dc.lft.to/lastmile_qr_scan", "android": "https://dc.lft.to/lastmile_qr_scan"}}, {"name": "454a73c38ba41da4364866fb88b8b9c9", "type": "electric_bike", "lat": 38.87086, "is_reserved": 0, "lon": -77.01211516666666, "fusion_lon": 0.0, "is_disabled": 0, "fusion_lat": 0.0, "bike_id": "454a73c38ba41da4364866fb88b8b9c9", "rental_uris": {"ios": "https://dc.lft.to/lastmile_qr_scan", "android": "https://dc.lft.to/lastmile_qr_scan"}}, {"name": "0ea80d3d3853bec9bdd66e7c611a4174", "type": "electric_bike", "lat": 38.936914, "is_reserved": 0, "lon": -77.056441, "fusion_lon": 0.0, "is_disabled": 0, "fusion_lat": 0.0, "bike_id": "0ea80d3d3853bec9bdd66e7c611a4174", "rental_uris": {"ios": "https://dc.lft.to/lastmile_qr_scan", "android": "https://dc.lft.to/lastmile_qr_scan"}}, {"name": "752785014b13a828488ec7a4ff0eaf13", "type": "electric_scooter", "lat": 38.91107433333333, "is_reserved": 0, "lon": -77.0422865, "fusion_lon": 0.0, "is_disabled": 0, "fusion_lat": 0.0, "bike_id": "752785014b13a828488ec7a4ff0eaf13", "rental_uris": {"ios": "https://dc.lft.to/lastmile_qr_scan", "android": "https://dc.lft.to/lastmile_qr_scan"}}, {"name": "2fdab9281cc44bb5f55c03b18ba122d0", "type": "electric_bike", "lat": 38.937012333333335, "is_reserved": 0, "lon": -77.02980283333333, "fusion_lon": 0.0, "is_disabled": 0, "fusion_lat": 0.0, "bike_id": "2fdab9281cc44bb5f55c03b18ba122d0", "rental_uris": {"ios": "https://dc.lft.to/lastmile_qr_scan", "android": "https://dc.lft.to/lastmile_qr_scan"}}, {"name": "88120b356bb786635176422803950eef", "type": "electric_scooter", "lat": 38.906239666666664, "is_reserved": 0, "lon": -76.98314016666667, "fusion_lon": 0.0, "is_disabled": 0, "fusion_lat": 0.0, "bike_id": "88120b356bb786635176422803950eef", "rental_uris": {"ios": "https://dc.lft.to/lastmile_qr_scan", "android": "https://dc.lft.to/lastmile_qr_scan"}}, {"name": "03d8cb5b5baa43701632fe1c00f40096", "type": "electric_scooter", "lat": 38.89606916666666, "is_reserved": 0, "lon": -77.045096, "fusion_lon": 0.0, "is_disabled": 0, "fusion_lat": 0.0, "bike_id": "03d8cb5b5baa43701632fe1c00f40096", "rental_uris": {"ios": "https://dc.lft.to/lastmile_qr_scan", "android": "https://dc.lft.to/lastmile_qr_scan"}}, {"name": "a4809b4a9a2c9367159b0cdde5c182af", "type": "electric_scooter", "lat": 38.860949, "is_reserved": 0, "lon": -76.983776, "fusion_lon": 0.0, "is_disabled": 0, "fusion_lat": 0.0, "bike_id": "a4809b4a9a2c9367159b0cdde5c182af", "rental_uris": {"ios": "https://dc.lft.to/lastmile_qr_scan", "android": "https://dc.lft.to/lastmile_qr_scan"}}, {"name": "8b7e6cf7dcf7f38e9ab1ef59aa02790d", "type": "electric_scooter", "lat": 38.961118166666665, "is_reserved": 0, "lon": -77.02814383333333, "fusion_lon": 0.0, "is_disabled": 0, "fusion_lat": 0.0, "bike_id": "8b7e6cf7dcf7f38e9ab1ef59aa02790d", "rental_uris": {"ios": "https://dc.lft.to/lastmile_qr_scan", "android": "https://dc.lft.to/lastmile_qr_scan"}}, {"name": "bc232328d659fb2ad1615f35406313ce", "type": "electric_scooter", "lat": 38.9072755, "is_reserved": 0, "lon": -77.04361983333334, "fusion_lon": 0.0, "is_disabled": 0, "fusion_lat": 0.0, "bike_id": "bc232328d659fb2ad1615f35406313ce", "rental_uris": {"ios": "https://dc.lft.to/lastmile_qr_scan", "android": "https://dc.lft.to/lastmile_qr_scan"}}, {"name": "be5f47fee364df97f18da5b234266cc3", "type": "electric_bike", "lat": 38.908646166666664, "is_reserved": 0, "lon": -76.93161733333334, "fusion_lon": 0.0, "is_disabled": 0, "fusion_lat": 0.0, "bike_id": "be5f47fee364df97f18da5b234266cc3", "rental_uris": {"ios": "https://dc.lft.to/lastmile_qr_scan", "android": "https://dc.lft.to/lastmile_qr_scan"}}, {"name": "aa3ef231cf5d9f97cfb4193286cfa0d8", "type": "electric_scooter", "lat": 38.9193635, "is_reserved": 0, "lon": -77.0447975, "fusion_lon": 0.0, "is_disabled": 0, "fusion_lat": 0.0, "bike_id": "aa3ef231cf5d9f97cfb4193286cfa0d8", "rental_uris": {"ios": "https://dc.lft.to/lastmile_qr_scan", "android": "https://dc.lft.to/lastmile_qr_scan"}}, {"name": "73a1844d3ec33ebdd892f02d0f3ee85b", "type": "electric_scooter", "lat": 38.91336366666667, "is_reserved": 0, "lon": -77.01623966666666, "fusion_lon": 0.0, "is_disabled": 0, "fusion_lat": 0.0, "bike_id": "73a1844d3ec33ebdd892f02d0f3ee85b", "rental_uris": {"ios": "https://dc.lft.to/lastmile_qr_scan", "android": "https://dc.lft.to/lastmile_qr_scan"}}, {"name": "ae201eba5d1815d57ab38d7c181907fc", "type": "electric_scooter", "lat": 38.90689916666667, "is_reserved": 0, "lon": -77.02505933333333, "fusion_lon": 0.0, "is_disabled": 0, "fusion_lat": 0.0, "bike_id": "ae201eba5d1815d57ab38d7c181907fc", "rental_uris": {"ios": "https://dc.lft.to/lastmile_qr_scan", "android": "https://dc.lft.to/lastmile_qr_scan"}}, {"name": "0c4fc6ddbf6f259f51a96e458e032827", "type": "electric_scooter", "lat": 38.893444833333334, "is_reserved": 0, "lon": -76.99379683333333, "fusion_lon": 0.0, "is_disabled": 0, "fusion_lat": 0.0, "bike_id": "0c4fc6ddbf6f259f51a96e458e032827", "rental_uris": {"ios": "https://dc.lft.to/lastmile_qr_scan", "android": "https://dc.lft.to/lastmile_qr_scan"}}, {"name": "c7f9dbd406d3caf30cef733ce9e5f201", "type": "electric_scooter", "lat": 38.863673166666665, "is_reserved": 0, "lon": -77.01356016666666, "fusion_lon": 0.0, "is_disabled": 0, "fusion_lat": 0.0, "bike_id": "c7f9dbd406d3caf30cef733ce9e5f201", "rental_uris": {"ios": "https://dc.lft.to/lastmile_qr_scan", "android": "https://dc.lft.to/lastmile_qr_scan"}}, {"name": "e9e2a65823e1b1bccee5c72ac92446b5", "type": "electric_bike", "lat": 38.84573683333333, "is_reserved": 0, "lon": -77.09623716666667, "fusion_lon": 0.0, "is_disabled": 0, "fusion_lat": 0.0, "bike_id": "e9e2a65823e1b1bccee5c72ac92446b5", "rental_uris": {"ios": "https://dc.lft.to/lastmile_qr_scan", "android": "https://dc.lft.to/lastmile_qr_scan"}}, {"name": "570ee6b39425644c545e05dc2f025bcf", "type": "electric_scooter", "lat": 38.92305916666667, "is_reserved": 0, "lon": -77.01209216666666, "fusion_lon": 0.0, "is_disabled": 0, "fusion_lat": 0.0, "bike_id": "570ee6b39425644c545e05dc2f025bcf", "rental_uris": {"ios": "https://dc.lft.to/lastmile_qr_scan", "android": "https://dc.lft.to/lastmile_qr_scan"}}, {"name": "ac1634c6c3a6d3d57e38ff6f98757bf6", "type": "electric_scooter", "lat": 38.90279133333333, "is_reserved": 0, "lon": -77.01776233333334, "fusion_lon": 0.0, "is_disabled": 0, "fusion_lat": 0.0, "bike_id": "ac1634c6c3a6d3d57e38ff6f98757bf6", "rental_uris": {"ios": "https://dc.lft.to/lastmile_qr_scan", "android": "https://dc.lft.to/lastmile_qr_scan"}},