{"data": {"bikes": [{"lat": 38.924290666666664, "lon": -77.040434, "is_disabled": 0, "bike_id": "96c552981f126ebf53bc79cb93c040af", "name": "96c552981f126ebf53bc79cb93c040af", "is_reserved": 0, "rental_uris": {"android": "https://dc.lft.to/lastmile_qr_scan", "ios": "https://dc.lft.to/lastmile_qr_scan"}, "type": "electric_scooter", "fusion_lon": 0.0, "fusion_lat": 0.0}, {"lat": 38.90957183333333, "lon": -77.0127995, "is_disabled": 0, "bike_id": "13561e47910d466892ddec5f823cf18a", "name": "13561e47910d466892ddec5f823cf18a", "is_reserved": 0, "rental_uris": {"android": "https://dc.lft.to/lastmile_qr_scan", "ios": "https://dc.lft.to/lastmile_qr_scan"}, "type": "electric_scooter", "fusion_lon": 0.0, "fusion_lat": 0.0}, {"lat": 38.9310165, "lon": -77.026682, "is_disabled": 0, "bike_id": "3a9b3834c5d90da5c101fefd940ea9f8", "name": "3a9b3834c5d90da5c101fefd940ea9f8", "is_reserved": 0, "rental_uris": {"android": "https://dc.lft.to/lastmile_qr_scan", "ios": "https://dc.lft.to/lastmile_qr_scan"}, "type": "electric_scooter", "fusion_lon": 0.0, "fusion_lat": 0.0}, {"lat": 38.892319, "lon": -77.049994, "is_disabled": 0, "bike_id": "72ed85a826a0ac41f6007669fde7de7d", "name": "72ed85a826a0ac41f6007669fde7de7d", "is_reserved": 0, "rental_uris": {"android": "https://dc.lft.to/lastmile_qr_scan", "ios": "https://dc.lft.to/lastmile_qr_scan"}, "type": "electric_scooter", "fusion_lon": 0.0, "fusion_lat": 0.0}, {"lat": 38.8381145, "lon": -77.09525233333333, "is_disabled": 0, "bike_id": "90a6c3e41ee3ea20c834334862a6b3f3", "name": "90a6c3e41ee3ea20c834334862a6b3f3", "is_reserved": 0, "rental_uris": {"android": "https://dc.lft.to/lastmile_qr_scan", "ios": "https://dc.lft.to/lastmile_qr_scan"}, "type": "electric_bike", "fusion_lon": 0.0, "fusion_lat": 0.0}, {"lat": 38.89968483333333, "lon": -77.03213616666666, "is_disabled": 0, "bike_id": "0f2d443e9b6e1896f25ef4f6a2e5eb56", "name": "0f2d443e9b6e1896f25ef4f6a2e5eb56", "is_reserved": 0, "rental_uris": {"android": "https://dc.lft.to/lastmile_qr_scan", "ios": "https://dc.lft.to/lastmile_qr_scan"}, "type": "electric_scooter", "fusion_lon": 0.0, "fusion_lat": 0.0}, {"lat": 38.907369333333335, "lon": -77.045012, "is_disabled": 0, "bike_id": "aa55fed69aad455503758875bfd8d940", "name": "aa55fed69aad455503758875bfd8d940", "is_reserved": 0, "rental_uris": {"android": "https://dc.lft.to/lastmile_qr_scan", "ios": "https://dc.lft.to/lastmile_qr_scan"}, "type": "electric_scooter", "fusion_lon": 0.0, "fusion_lat": 0.0}, {"lat": 38.92424883333333, "lon": -77.01950616666667, "is_disabled": 0, "bike_id": "876fb2e166eb34adfdd15ad8bd5a36df", "name": "876fb2e166eb34adfdd15ad8bd5a36df", "is_reserved": 0, "rental_uris": {"android": "https://dc.lft.to/lastmile_qr_scan", "ios": "https://dc.lft.to/lastmile_qr_scan"}, "type": "electric_scooter", "fusion_lon": 0.0, "fusion_lat": 0.0}, {"lat": 38.90730416666667, "lon": -77.0632925, "is_disabled": 0, "bike_id": "3f29b3cdeb33bd0e10e4a815c0552de3", "name": "3f29b3cdeb33bd0e10e4a815c0552de3", "is_reserved": 0, "rental_uris": {"android": "https://dc.lft.to/lastmile_qr_scan", "ios": "https://dc.lft.to/lastmile_qr_scan"}, "type": "electric_scooter", "fusion_lon": 0.0, "fusion_lat": 0.0}, {"lat": 38.888821, "lon": -77.00179383333334, "is_disabled": 0, "bike_id": "022f97f6338bcf49a5fdb4ae79317606", "name": "022f97f6338bcf49a5fdb4ae79317606", "is_reserved": 0, "rental_uris": {"android": "https://dc.lft.to/lastmile_qr_scan", "ios": "https://dc.lft.to/lastmile_qr_scan"}, "type": "electric_scooter", "fusion_lon": 0.0, "fusion_lat": 0.0}, {"lat": 38.91181783333333, "lon": -77.02949866666667, "is_disabled": 0, "bike_id": "97e6e349a632366a85428c82863d5a11", "name": "97e6e349a632366a85428c82863d5a11", "is_reserved": 0, "rental_uris": {"android": "https://dc.lft.to/lastmile_qr_scan", "ios": "https://dc.lft.to/lastmile_qr_scan"}, "type": "electric_scooter", "fusion_lon": 0.0, "fusion_lat": 0.0}, {"lat": 38.885224666666666, "lon": -76.97710483333333, "is_disabled": 0, "bike_id": "be6d7564290e91f9d0c4317229bfc45f", "name": "be6d7564290e91f9d0c4317229bfc45f", "is_reserved": 0, "rental_uris": {"android": "https://dc.lft.to/lastmile_qr_scan", "ios": "https://dc.lft.to/lastmile_qr_scan"}, "type": "electric_scooter", "fusion_lon": 0.0, "fusion_lat": 0.0}, {"lat": 38.911299666666665, "lon": -77.03208016666666, "is_disabled": 0, "bike_id": "d386f04b53dabe4fa19df78a190e03cb", "name": "d386f04b53dabe4fa19df78a190e03cb", "is_reserved": 0, "rental_uris": {"android": "https://dc.lft.to/lastmile_qr_scan", "ios": "https://dc.lft.to/lastmile_qr_scan"}, "type": "electric_scooter", "fusion_lon": 0.0, "fusion_lat": 0.0}, {"lat": 38.91044383333333, "lon": -77.013754, "is_disabled": 0, "bike_id": "72b853caf8c79c516faf88e696e8deb6", "name": "72b853caf8c79c516faf88e696e8deb6", "is_reserved": 0, "rental_uris": {"android": "https://dc.lft.to/lastmile_qr_scan", "ios": "https://dc.lft.to/lastmile_qr_scan"}, "type": "electric_scooter", "fusion_lon": 0.0, "fusion_lat": 0.0}, {"lat": 38.91564116666667, "lon": -77.042868, "is_disabled": 0, "bike_id": "57ab82054deb3f0d22a9782e1f9abf13", "name": "57ab82054deb3f0d22a9782e1f9abf13", "is_reserved": 0, "rental_uris": {"android": "https://dc.lft.to/lastmile_qr_scan", "ios": "https://dc.lft.to/lastmile_qr_scan"}, "type": "electric_scooter", "fusion_lon": 0.0, "fusion_lat": 0.0}, {"lat": 38.878989833333335, "lon": -76.93524466666666, "is_disabled": 0, "bike_id": "58d8b3084a3c437c578fd6d853239ba3", "name": "58d8b3084a3c437c578fd6d853239ba3", "is_reserved": 0, "rental_uris": {"android": "https://dc.lft.to/lastmile_qr_scan", "ios": "https://dc.lft.to/lastmile_qr_scan"}, "type": "electric_scooter", "fusion_lon": 0.0, "fusion_lat": 0.0}, {"lat": 38.919307833333335, "lon": -77.04180566666666, "is_disabled": 0, "bike_id": "568296be6db57bd7d67367bc213bbed7", "name": "568296be6db57bd7d67367bc213bbed7", "is_reserved": 0, "rental_uris": {"android": "https://dc.lft.to/lastmile_qr_scan", "ios": "https://dc.lft.to/lastmile_qr_scan"}, "type": "electric_scooter", "fusion_lon": 0.0, "fusion_lat": 0.0}, {"lat": 38.96738766666667, "lon": -77.02534083333333, "is_disabled": 0, "bike_id": "51d96d989ce69c9dcef39fa320cc8d0e", "name": "51d96d989ce69c9dcef39fa320cc8d0e", "is_reserved": 0, "rental_uris": {"android": "https://dc.lft.to/lastmile_qr_scan", "ios": "https://dc.lft.to/lastmile_qr_scan"}, "type": "electric_scooter", "fusion_lon": 0.0, "fusion_lat": 0.0}, {"lat": 38.914435, "lon": -77.0178095, "is_disabled": 0, "bike_id": "e70cae3d48ac16c501465815564795cc", "name": "e70cae3d48ac16c501465815564795cc", "is_reserved": 0, "rental_uris": {"android": "https://dc.lft.to/lastmile_qr_scan", "ios": "https://dc.lft.to/lastmile_qr_scan"}, "type": "electric_scooter", "fusion_lon": 0.0, "fusion_lat": 0.0}, {"lat": 38.82216283333333, "lon": -76.97696783333333, "is_disabled": 0, "bike_id": "ce5b84e8c17695c9295891ee0dff4741", "name": "ce5b84e8c17695c9295891ee0dff4741", "is_reserved": 0, "rental_uris": {"android": "https://dc.lft.to/lastmile_qr_scan", "ios": "https://dc.lft.to/lastmile_qr_scan"}, "type": "electric_bike", "fusion_lon": 0.0, "fusion_lat": 0.0}, {"lat": 38.905168, "lon": -76.98401516666667, "is_disabled": 0, "bike_id": "5b20ef563912a3073397b2695f1eb40d", "name": "5b20ef563912a3073397b2695f1eb40d", "is_reserved": 0, "rental_uris": {"android": "https://dc.lft.to/lastmile_qr_scan", "ios": "https://dc.lft.to/lastmile_qr_scan"}, "type": "electric_scooter", "fusion_lon": 0.0, "fusion_lat": 0.0}, {"lat": 38.88184116666667, "lon": -77.02222283333333, "is_disabled": 0, "bike_id": "a2bb27e3baad01b238d0e1c19cd6b2fa", "name": "a2bb27e3baad01b238d0e1c19cd6b2fa", "is_reserved": 0, "rental_uris": {"android": "https://dc.lft.to/lastmile_qr_scan", "ios": "https://dc.lft.to/lastmile_qr_scan"}, "type": "electric_scooter", "fusion_lon": 0.0, "fusion_lat": 0.0}, {"lat": 38.854408, "lon": -77.0831745, "is_disabled": 0, "bike_id": "784320bd050ac62c16485da33b298af9", "name": "784320bd050ac62c16485da33b298af9", "is_reserved": 0, "rental_uris": {"android": "https://dc.lft.to/lastmile_qr_scan", "ios": "https://dc.lft.to/lastmile_qr_scan"}, "type": "electric_bike", "fusion_lon": 0.0, "fusion_lat": 0.0}, {"lat": 38.94456233333333, "lon": -77.06352016666666, "is_disabled": 0, "bike_id": "541ad025dd4f6516f723f40bd86f4f35", "name": "541ad025dd4f6516f723f40bd86f4f35", "is_reserved": 0, "rental_uris": {"android": "https://dc.lft.to/lastmile_qr_scan", "ios": "https://dc.lft.to/lastmile_qr_scan"}, "type": "electric_scooter", "fusion_lon": 0.0, "fusion_lat": 0.0}, {"lat": 38.908287666666666, "lon": -77.0358045, "is_disabled": 0, "bike_id": "261cb8c1284873def7737acdcbad7b58", "name": "261cb8c1284873def7737acdcbad7b58", "is_reserved": 0, "rental_uris": {"android": "https://dc.lft.to/lastmile_qr_scan", "ios": "https://dc.lft.to/lastmile_qr_scan"}, "type": "electric_scooter", "fusion_lon": 0.0, "fusion_lat": 0.0}, {"lat": 38.9287535, "lon": -77.0329785, "is_disabled": 0, "bike_id": "f6f30cc3a3fe4141f7df40afea1fbfc0", "name": "f6f30cc3a3fe4141f7df40afea1fbfc0", "is_reserved": 0, "rental_uris": {"android": "https://dc.lft.to/lastmile_qr_scan", "ios": "https://dc.lft.to/lastmile_qr_scan"}, "type": "electric_scooter", "fusion_lon": 0.0, "fusion_lat": 0.0}, {"lat": 38.89236183333333, "lon": -77.05002983333334, "is_disabled": 0, "bike_id": "7ff0bacb2897cd1744b47e4f494f9fdb", "name": "7ff0bacb2897cd1744b47e4f494f9fdb", "is_reserved": 0, "rental_uris": {"android": "https://dc.lft.to/lastmile_qr_scan", "ios": "https://dc.lft.to/lastmile_qr_scan"}, "type": "electric_scooter", "fusion_lon": 0.0, "fusion_lat": 0.0}, {"lat": 38.89476916666667, "lon": -77.0223895, "is_disabled": 0, "bike_id": "b82cbe034839ee5678525f44f6f7e522", "name": "b82cbe034839ee5678525f44f6f7e522", "is_reserved": 0, "rental_uris": {"android": "https://dc.lft.to/lastmile_qr_scan", "ios": "https://dc.lft.to/lastmile_qr_scan"}, "type": "electric_scooter", "fusion_lon": 0.0, "fusion_lat": 0.0}, {"lat": 38.905633, "lon": -76.9978785, "is_disabled": 0, "bike_id": "58aaa106f8855603051fc3c7cb556f7a", "name": "58aaa106f8855603051fc3c7cb556f7a", "is_reserved": 0, "rental_uris": {"android": "https://dc.lft.to/lastmile_qr_scan", "ios": "https://dc.lft.to/lastmile_qr_scan"}, "type": "electric_scooter", "fusion_lon": 0.0, "fusion_lat": 0.0}, {"lat": 38.90814783333333, "lon": -77.00039333333334, "is_disabled": 0, "bike_id": "88f37aa108cfaa5c8cc18be9ab816545", "name": "88f37aa108cfaa5c8cc18be9ab816545", "is_reserved": 0, "rental_uris": {"android": "https://dc.lft.to/lastmile_qr_scan", "ios": "https://dc.lft.to/lastmile_qr_scan"}, "type": "electric_scooter", "fusion_lon": 0.0, "fusion_lat": 0.0}, {"lat": 38.919593666666664, "lon": -77.02596116666666, "is_disabled": 0, "bike_id": "16a320cc0f644c3dc4c00691bef8a58e", "name": "16a320cc0f644c3dc4c00691bef8a58e", "is_reserved": 0, "rental_uris": {"android": "https://dc.lft.to/lastmile_qr_scan", "ios": "https://dc.lft.to/lastmile_qr_scan"}, "type": "electric_scooter", "fusion_lon": 0.0, "fusion_lat": 0.0}, {"lat": 38.932512, "lon": -77.02851933333334, "is_disabled": 0, "bike_id": "84f07f09b779db2702da8d02df2a7107", "name": "84f07f09b779db2702da8d02df2a7107", "is_reserved": 0, "rental_uris": {"android": "https://dc.lft.to/lastmile_qr_scan", "ios": "https://dc.lft.to/lastmile_qr_scan"}, "type": "electric_scooter", "fusion_lon": 0.0, "fusion_lat": 0.0}, {"lat": 38.899721166666666, "lon": -77.02387183333333, "is_disabled": 0, "bike_id": "0c065d6a5726abd4bda10491780f5adf", "name": "0c065d6a5726abd4bda10491780f5adf", "is_reserved": 0, "rental_uris": {"android": "https://dc.lft.to/lastmile_qr_scan", "ios": "https://dc.lft.to/lastmile_qr_scan"}, "type": "electric_scooter", "fusion_lon": 0.0, "fusion_lat": 0.0}, {"lat": 38.90686083333333, "lon": -77.02409616666667, "is_disabled": 0, "bike_id": "cb163d30a47fec1d7ec0fd14bda892ec", "name": "cb163d30a47fec1d7ec0fd14bda892ec", "is_reserved": 0, "rental_uris": {"android": "https://dc.lft.to/lastmile_qr_scan", "ios": "https://dc.lft.to/lastmile_qr_scan"}, "type": "electric_scooter", "fusion_lon": 0.0, "fusion_lat": 0.0}, {"lat": 38.924248666666664, "lon": -76.99729133333334, "is_disabled": 0, "bike_id": "c9d38d057cde08291bfa49c51f86b26f", "name": "c9d38d057cde08291bfa49c51f86b26f", "is_reserved": 0, "rental_uris": {"android": "https://dc.lft.to/lastmile_qr_scan", "ios": "https://dc.lft.to/lastmile_qr_scan"}, "type": "electric_scooter", "fusion_lon": 0.0, "fusion_lat": 0.0}, {"lat": 38.9260845, "lon": -77.0570995, "is_disabled": 0, "bike_id": "9ea612df7fe3a6ccc59e7202aba794bd", "name": "9ea612df7fe3a6ccc59e7202aba794bd", "is_reserved": 0, "rental_uris": {"android": "https://dc.lft.to/lastmile_qr_scan", "ios": "https://dc.lft.to/lastmile_qr_scan"}, "type": "electric_scooter", "fusion_lon": 0.0, "fusion_lat": 0.0}, {"lat": 38.916680166666666, "lon": -77.02789533333333, "is_disabled": 0, "bike_id": "e78f6ec903f6ca2beb06bbf14068af0d", "name": "e78f6ec903f6ca2beb06bbf14068af0d", "is_reserved": 0, "rental_uris": {"android": "https://dc.lft.to/lastmile_qr_scan", "ios": "https://dc.lft.to/lastmile_qr_scan"}, "type": "electric_scooter", "fusion_lon": 0.0, "fusion_lat": 0.0}, {"lat": 38.92494166666667, "lon": -77.0576515, "is_disabled": 0, "bike_id": "0532d63856a2f15564a928ad9ce087f5", "name": "0532d63856a2f15564a928ad9ce087f5", "is_reserved": 0, "rental_uris": {"android": "https://dc.lft.to/lastmile_qr_scan", "ios": "https://dc.lft.to/lastmile_qr_scan"}, "type": "electric_scooter", "fusion_lon": 0.0, "fusion_lat": 0.0}, {"lat": 38.95154333333333, "lon": -77.01865066666667, "is_disabled": 0, "bike_id": "a640145604e39b6016a50e27be4dfcb8", "name": "a640145604e39b6016a50e27be4dfcb8", "is_reserved": 0, "rental_uris": {"android": "https://dc.lft.to/lastmile_qr_scan", "ios": "https://dc.lft.to/lastmile_qr_scan"}, "type": "electric_scooter", "fusion_lon": 0.0, "fusion_lat": 0.0}, {"lat": 38.91566816666667, "lon": -77.03274433333333, "is_disabled": 0, "bike_id": "b1fbcef5b28d9e9c2c45f905c3b70f1d", "name": "b1fbcef5b28d9e9c2c45f905c3b70f1d", "is_reserved": 0, "rental_uris": {"android": "https://dc.lft.to/lastmile_qr_scan", "ios": "https://dc.lft.to/lastmile_qr_scan"}, "type": "electric_scooter", "fusion_lon": 0.0, "fusion_lat": 0.0}, {"lat": 38.91691933333333, "lon": -77.04595966666666, "is_disabled": 0, "bike_id": "3ef0722f4d9f1f39541f994d8e8794c3", "name": "3ef0722f4d9f1f39541f994d8e8794c3", "is_reserved": 0, "rental_uris": {"android": "https://dc.lft.to/lastmile_qr_scan", "ios": "https://dc.lft.to/lastmile_qr_scan"}, "type": "electric_scooter", "fusion_lon": 0.0, "fusion_lat": 0.0}, {"lat": 38.920522166666665, "lon": -77.0417785, "is_disabled": 0, "bike_id": "94e9c9fd9009d40c4ff2acba0233d9c0", "name": "94e9c9fd9009d40c4ff2acba0233d9c0", "is_reserved": 0, "rental_uris": {"android": "https://dc.lft.to/lastmile_qr_scan", "ios": "https://dc.lft.to/lastmile_qr_scan"}, "type": "electric_scooter", "fusion_lon": 0.0, "fusion_lat": 0.0}, {"lat": 38.91700433333333, "lon": -77.03824833333333, "is_disabled": 0, "bike_id": "1f58c20242f36f912c5e7c3e64474956", "name": "1f58c20242f36f912c5e7c3e64474956", "is_reserved": 0, "rental_uris": {"android": "https://dc.lft.to/lastmile_qr_scan", "ios": "https://dc.lft.to/lastmile_qr_scan"}, "type": "electric_scooter", "fusion_lon": 0.0, "fusion_lat": 0.0}, {"lat": 38.90043766666667, "lon": -77.0218055, "is_disabled": 0, "bike_id": "6858d4bc488e059824a00527c60546f0", "name": "6858d4bc488e059824a00527c60546f0", "is_reserved": 0, "rental_uris": {"android": "https://dc.lft.to/lastmile_qr_scan", "ios": "https://dc.lft.to/lastmile_qr_scan"}, "type": "electric_scooter", "fusion_lon": 0.0, "fusion_lat": 0.0}, {"lat": 38.897330833333335, "lon": -77.01916333333334, "is_disabled": 0, "bike_id": "16f75d95246e04f884ab0a0ca2df153b", "name": "16f75d95246e04f884ab0a0ca2df153b", "is_reserved": 0, "rental_uris": {"android": "https://dc.lft.to/lastmile_qr_scan", "ios": "https://dc.lft.to/lastmile_qr_scan"}, "type": "electric_scooter", "fusion_lon": 0.0, "fusion_lat": 0.0}, {"lat": 38.90406516666667, "lon": -77.03823866666667, "is_disabled": 0, "bike_id": "7bd362c123ee0de15084a2c8c2bd2ba7", "name": "7bd362c123ee0de15084a2c8c2bd2ba7", "is_reserved": 0, "rental_uris": {"android": "https://dc.lft.to/lastmile_qr_scan", "ios": "https://dc.lft.to/lastmile_qr_scan"}, "type": "electric_scooter", "fusion_lon": 0.0, "fusion_lat": 0.0}, {"lat": 38.90161616666666, "lon": -77.0513305, "is_disabled": 0, "bike_id": "0403c6089c7732a60141df5e195f61a3", "name": "0403c6089c7732a60141df5e195f61a3", "is_reserved": 0, "rental_uris": {"android": "https://dc.lft.to/lastmile_qr_scan", "ios": "https://dc.lft.to/lastmile_qr_scan"}, "type": "electric_scooter", "fusion_lon": 0.0, "fusion_lat": 0.0}, {"lat": 38.96695616666667, "lon": -77.03413716666667, "is_disabled": 0, "bike_id": "1613fe18e4148e938ea0a342a2620aed", "name": "1613fe18e4148e938ea0a342a2620aed", "is_reserved": 0, "rental_uris": {"android": "https://dc.lft.to/lastmile_qr_scan", "ios": "https://dc.lft.to/lastmile_qr_scan"}, "type": "electric_scooter", "fusion_lon": 0.0, "fusion_lat": 0.0}, {"lat": 38.90581183333333, "lon": -77.01424966666667, "is_disabled": 0, "bike_id": "0db03e84555cc20cc2320ee705f72043", "name": "0db03e84555cc20cc2320ee705f72043", "is_reserved": 0, "rental_uris": {"android": "https://dc.lft.to/lastmile_qr_scan", "ios": "https://dc.lft.to/lastmile_qr_scan"}, "type": "electric_scooter", "fusion_lon": 0.0, "fusion_lat": 0.0}, {"lat": 38.9677935, "lon": -76.99659366666667, "is_disabled": 0, "bike_id": "88336a52c9dab8ebe49da91002414090", "name": "88336a52c9dab8ebe49da91002414090", "is_reserved": 0, "rental_uris": {"android": "https://dc.lft.to/lastmile_qr_scan", "ios": "https://dc.lft.to/lastmile_qr_scan"}, "type": "electric_bike", "fusion_lon": 0.0, "fusion_lat": 0.0}, {"lat": 38.90733216666667, "lon": -77.032682, "is_disabled": 0, "bike_id": "9c8aaef82a8137d17b25313227c63c0f", "name": "9c8aaef82a8137d17b25313227c63c0f", "is_reserved": 0, "rental_uris": {"android": "https://dc.lft.to/lastmile_qr_scan", "ios": "https://dc.lft.to/lastmile_qr_scan"}, "type": "electric_scooter", "fusion_lon": 0.0, "fusion_lat": 0.0}, {"lat": 38.89974616666667, "lon": -76.99487633333334, "is_disabled": 0, "bike_id": "8640b288bf2eaca0d2497354af963bab", "name": "8640b288bf2eaca0d2497354af963bab", "is_reserved": 0, "rental_uris": {"android": "https://dc.lft.to/lastmile_qr_scan", "ios": "https://dc.lft.to/lastmile_qr_scan"}, "type": "electric_scooter", "fusion_lon": 0.0, "fusion_lat": 0.0}, {"lat": 38.922476833333334, "lon": -77.0424595, "is_disabled": 0, "bike_id": "a606dfc0bcf7de32c721616e3939fbd1", "name": "a606dfc0bcf7de32c721616e3939fbd1", "is_reserved": 0, "rental_uris": {"android": "https://dc.lft.to/lastmile_qr_scan", "ios": "https://dc.lft.to/lastmile_qr_scan"}, "type": "electric_scooter", "fusion_lon": 0.0, "fusion_lat": 0.0}, {"lat": 38.906054166666664, "lon": -77.1288885, "is_disabled": 0, "bike_id": "557566c686d9585cfbf1a6d2b2c81613", "name": "557566c686d9585cfbf1a6d2b2c81613", "is_reserved": 0, "rental_uris": {"android": "https://dc.lft.to/lastmile_qr_scan", "ios": "https://dc.lft.to/lastmile_qr_scan"}, "type": "electric_bike", "fusion_lon": 0.0, "fusion_lat": 0.0}, {"lat": 38.93982833333333, "lon": -77.03047016666666, "is_disabled": 0, "bike_id": "9111bfdb3d034c16f7079aa2b1060c8b", "name": "9111bfdb3d034c16f7079aa2b1060c8b", "is_reserved": 0, "rental_uris": {"android": "https://dc.lft.to/lastmile_qr_scan", "ios": "https://dc.lft.to/lastmile_qr_scan"}, "type": "electric_scooter", "fusion_lon": 0.0, "fusion_lat": 0.0}, {"lat": 38.93770516666667, "lon": -77.0324485, "is_disabled": 0, "bike_id": "d89dead2157796aa73f95865a12dcb6b", "name": "d89dead2157796aa73f95865a12dcb6b", "is_reserved": 0, "rental_uris": {"android": "https://dc.lft.to/lastmile_qr_scan", "ios": "https://dc.lft.to/lastmile_qr_scan"}, "type": "electric_scooter", "fusion_lon": 0.0, "fusion_lat": 0.0}, {"lat": 38.860066833333335, "lon": -76.98513716666666, "is_disabled": 0, "bike_id": "e62be3d80c9d5fde140a2fbf8dfc9182", "name": "e62be3d80c9d5fde140a2fbf8dfc9182", "is_reserved": 0, "rental_uris": {"android": "https://dc.lft.to/lastmile_qr_scan", "ios": "https://dc.lft.to/lastmile_qr_scan"}, "type": "electric_scooter", "fusion_lon": 0.0, "fusion_lat": 0.0}, {"lat": 38.907046666666666, "lon": -77.03450216666667, "is_disabled": 0, "bike_id": "fcbd96203289f26e9b898f5a7e1a6192", "name": "fcbd96203289f26e9b898f5a7e1a6192", "is_reserved": 0, "rental_uris": {"android": "https://dc.lft.to/lastmile_qr_scan", "ios": "https://dc.lft.to/lastmile_qr_scan"}, "type": "electric_scooter", "fusion_lon": 0.0, "fusion_lat": 0.0}, {"lat": 38.90257533333333, "lon": -77.04624516666667, "is_disabled": 0, "bike_id": "404aa6b579c0f4973c59c944aeb62641", "name": "404aa6b579c0f4973c59c944aeb62641", "is_reserved": 0, "rental_uris": {"android": "https://dc.lft.to/lastmile_qr_scan", "ios": "https://dc.lft.to/lastmile_qr_scan"}, "type": "electric_scooter", "fusion_lon": 0.0, "fusion_lat": 0.0}, {"lat": 38.91709016666667, "lon": -77.037643, "is_disabled": 0, "bike_id": "9367b998a7a09635423cfea50f4abc98", "name": "9367b998a7a09635423cfea50f4abc98", "is_reserved": 0, "rental_uris": {"android": "https://dc.lft.to/lastmile_qr_scan", "ios": "https://dc.lft.to/lastmile_qr_scan"}, "type": "electric_scooter", "fusion_lon": 0.0, "fusion_lat": 0.0}, {"lat": 38.87388083333333, "lon": -77.0012715, "is_disabled": 0, "bike_id": "75041f303113cc0255053ec2d46f26fa", "name": "75041f303113cc0255053ec2d46f26fa", "is_reserved": 0, "rental_uris": {"android": "https://dc.lft.to/lastmile_qr_scan", "ios": "https://dc.lft.to/lastmile_qr_scan"}, "type": "electric_scooter", "fusion_lon": 0.0, "fusion_lat": 0.0}, {"lat": 38.903805, "lon": -77.0395185, "is_disabled": 0, "bike_id": "3d8a3b58d70942cbf1cacaae5d97b58d", "name": "3d8a3b58d70942cbf1cacaae5d97b58d", "is_reserved": 0, "rental_uris": {"android": "https://dc.lft.to/lastmile_qr_scan", "ios": "https://dc.lft.to/lastmile_qr_scan"}, "type": "electric_scooter", "fusion_lon": 0.0, "fusion_lat": 0.0}, {"lat": 38.88647133333333, "lon": -77.000932, "is_disabled": 0, "bike_id": "2d3572f0ed99810c9dd1dcba2b12f44a", "name": "2d3572f0ed99810c9dd1dcba2b12f44a", "is_reserved": 0, "rental_uris": {"android": "https://dc.lft.to/lastmile_qr_scan", "ios": "https://dc.lft.to/lastmile_qr_scan"}, "type": "electric_scooter", "fusion_lon": 0.0, "fusion_lat": 0.0}, {"lat": 38.9006165, "lon": -77.0459295, "is_disabled": 0, "bike_id": "01c362bac9c1a28870f2e30a54d5895d", "name": "01c362bac9c1a28870f2e30a54d5895d", "is_reserved": 0, "rental_uris": {"android": "https://dc.lft.to/lastmile_qr_scan", "ios": "https://dc.lft.to/lastmile_qr_scan"}, "type": "electric_scooter", "fusion_lon": 0.0, "fusion_lat": 0.0}, {"lat": 38.881536, "lon": -77.0130195, "is_disabled": 0, "bike_id": "ea2740d517b7804fbf44c6277ab8d2c7", "name": "ea2740d517b7804fbf44c6277ab8d2c7", "is_reserved": 0, "rental_uris": {"android": "https://dc.lft.to/lastmile_qr_scan", "ios": "https://dc.lft.to/lastmile_qr_scan"}, "type": "electric_bike", "fusion_lon": 0.0, "fusion_lat": 0.0}, {"lat": 38.902612, "lon": -77.02900683333333, "is_disabled": 0, "bike_id": "44f946ff86df5dd8008428db95e04530", "name": "44f946ff86df5dd8008428db95e04530", "is_reserved": 0, "rental_uris": {"android": "https://dc.lft.to/lastmile_qr_scan", "ios": "https://dc.lft.to/lastmile_qr_scan"}, "type": "electric_scooter", "fusion_lon": 0.0, "fusion_lat": 0.0}, {"lat": 38.953598666666664, "lon": -76.98099466666666, "is_disabled": 0, "bike_id": "9063eec8ec26805502a0f98168b152e3", "name": "9063eec8ec26805502a0f98168b152e3", "is_reserved": 0, "rental_uris": {"android": "https://dc.lft.to/lastmile_qr_scan", "ios": "https://dc.lft.to/lastmile_qr_scan"}, "type": "electric_bike", "fusion_lon": 0.0, "fusion_lat": 0.0}, {"lat": 38.89497, "lon": -77.05514, "is_disabled": 0, "bike_id": "37fa35d07887b8ece7c88390120a57ac", "name": "37fa35d07887b8ece7c88390120a57ac", "is_reserved": 0, "rental_uris": {"android": "https://dc.lft.to/lastmile_qr_scan", "ios": "https://dc.lft.to/lastmile_qr_scan"}, "type": "electric_scooter", "fusion_lon": 0.0, "fusion_lat": 0.0}, {"lat": 38.892424, "lon": -77.031807, "is_disabled": 0, "bike_id": "b94a052053aa227581d69520bdefba3e", "name": "b94a052053aa227581d69520bdefba3e", "is_reserved": 0, "rental_uris": {"android": "https://dc.lft.to/lastmile_qr_scan", "ios": "https://dc.lft.to/lastmile_qr_scan"}, "type": "electric_scooter", "fusion_lon": 0.0, "fusion_lat": 0.0}, {"lat": 38.91711683333333, "lon": -77.09213566666666, "is_disabled": 0, "bike_id": "0ed2331db0e9c8035665a038b6bd5c91", "name": "0ed2331db0e9c8035665a038b6bd5c91", "is_reserved": 0, "rental_uris": {"android": "https://dc.lft.to/lastmile_qr_scan", "ios": "https://dc.lft.to/lastmile_qr_scan"}, "type": "electric_scooter", "fusion_lon": 0.0, "fusion_lat": 0.0}, {"lat": 38.908667333333334, "lon": -77.01837583333334, "is_disabled": 0, "bike_id": "a2d00fa4c5569b3efecc4ec27b373985", "name": "a2d00fa4c5569b3efecc4ec27b373985", "is_reserved": 0, "rental_uris": {"android": "https://dc.lft.to/lastmile_qr_scan", "ios": "https://dc.lft.to/lastmile_qr_scan"}, "type": "electric_scooter", "fusion_lon": 0.0, "fusion_lat": 0.0}, {"lat": 38.902912, "lon": -77.04686166666667, "is_disabled": 0, "bike_id": "bf992e41f65370f3f211c82eaa045bab", "name": "bf992e41f65370f3f211c82eaa045bab", "is_reserved": 0, "rental_uris": {"android": "https://dc.lft.to/lastmile_qr_scan", "ios": "https://dc.lft.to/lastmile_qr_scan"}, "type": "electric_scooter", "fusion_lon": 0.0, "fusion_lat": 0.0}, {"lat": 38.9224955, "lon": -77.0083045, "is_disabled": 0, "bike_id": "b4acfad44d5e2566b663c37c1c6b63c2", "name": "b4acfad44d5e2566b663c37c1c6b63c2", "is_reserved": 0, "rental_uris": {"android": "https://dc.lft.to/lastmile_qr_scan", "ios": "https://dc.lft.to/lastmile_qr_scan"}, "type": "electric_scooter", "fusion_lon": 0.0, "fusion_lat": 0.0}, {"lat": 38.90077766666667, "lon": -77.0268785, "is_disabled": 0, "bike_id": "9a13630c95ec360c7e9edef507879ec5", "name": "9a13630c95ec360c7e9edef507879ec5", "is_reserved": 0, "rental_uris": {"android": "https://dc.lft.to/lastmile_qr_scan", "ios": "https://dc.lft.to/lastmile_qr_scan"}, "type": "electric_scooter", "fusion_lon": 0.0, "fusion_lat": 0.0}, {"lat": 38.92442783333333, "lon": -77.02159233333333, "is_disabled": 0, "bike_id": "3767ce58deb7bc959998d9a2eff64575", "name": "3767ce58deb7bc959998d9a2eff64575", "is_reserved": 0, "rental_uris": {"android": "https://dc.lft.to/lastmile_qr_scan", "ios": "https://dc.lft.to/lastmile_qr_scan"}, "type": "electric_scooter", "fusion_lon": 0.0, "fusion_lat": 0.0}, {"lat": 38.8740475, "lon": -77.00218966666667, "is_disabled": 0, "bike_id": "ee9b1f5edde96bcc00d05409c6fd0cd5", "name": "ee9b1f5edde96bcc00d05409c6fd0cd5", "is_reserved": 0, "rental_uris": {"android": "https://dc.lft.to/lastmile_qr_scan", "ios": "https://dc.lft.to/lastmile_qr_scan"}, "type": "electric_scooter", "fusion_lon": 0.0, "fusion_lat": 0.0}, {"lat": 38.896002833333334, "lon": -77.02528483333333, "is_disabled": 0, "bike_id": "16fb40ab1daa03db313596548b578531", "name": "16fb40ab1daa03db313596548b578531", "is_reserved": 0, "rental_uris": {"android": "https://dc.lft.to/lastmile_qr_scan", "ios": "https://dc.lft.to/lastmile_qr_scan"}, "type": "electric_scooter", "fusion_lon": 0.0, "fusion_lat": 0.0}, {"lat": 38.9003605, "lon": -77.001982, "is_disabled": 0, "bike_id": "830faaec38127da60fbef4a3f1a92e87", "name": "830faaec38127da60fbef4a3f1a92e87", "is_reserved": 0, "rental_uris": {"android": "https://dc.lft.to/lastmile_qr_scan", "ios": "https://dc.lft.to/lastmile_qr_scan"}, "type": "electric_scooter", "fusion_lon": 0.0, "fusion_lat": 0.0}, {"lat": 38.934617833333334, "lon": -77.05314216666666, "is_disabled": 0, "bike_id": "a778770c2c7e8a12f055f28c54f35dbe", "name": "a778770c2c7e8a12f055f28c54f35dbe", "is_reserved": 0, "rental_uris": {"android": "https://dc.lft.to/lastmile_qr_scan", "ios": "https://dc.lft.to/lastmile_qr_scan"}, "type": "electric_scooter", "fusion_lon": 0.0, "fusion_lat": 0.0}, {"lat": 38.914112333333335, "lon": -77.03217316666667, "is_disabled": 0, "bike_id": "5c1fba3045f6eb115dc60da4f777445a", "name": "5c1fba3045f6eb115dc60da4f777445a", "is_reserved": 0, "rental_uris": {"android": "https://dc.lft.to/lastmile_qr_scan", "ios": "https://dc.lft.to/lastmile_qr_scan"}, "type": "electric_scooter", "fusion_lon": 0.0, "fusion_lat": 0.0}, {"lat": 38.897955833333334, "lon": -77.01196316666666, "is_disabled": 0, "bike_id": "d713a2edc461a1ca1fd6b25d6dbbea42", "name": "d713a2edc461a1ca1fd6b25d6dbbea42", "is_reserved": 0, "rental_uris": {"android": "https://dc.lft.to/lastmile_qr_scan", "ios": "https://dc.lft.to/lastmile_qr_scan"}, "type": "electric_scooter", "fusion_lon": 0.0, "fusion_lat": 0.0}, {"lat": 38.919716333333334, "lon": -77.0270235, "is_disabled": 0, "bike_id": "e989be3df599910684aa06fbb1e7c08a", "name": "e989be3df599910684aa06fbb1e7c08a", "is_reserved": 0, "rental_uris": {"android": "https://dc.lft.to/lastmile_qr_scan", "ios": "https://dc.lft.to/lastmile_qr_scan"}, "type": "electric_scooter", "fusion_lon": 0.0, "fusion_lat": 0.0}, {"lat": 38.895587666666664, "lon": -77.0295935, "is_disabled": 0, "bike_id": "f2274c9b45fc83693cdb8e0dd60a7ced", "name": "f2274c9b45fc83693cdb8e0dd60a7ced", "is_reserved": 0, "rental_uris": {"android": "https://dc.lft.to/lastmile_qr_scan", "ios": "https://dc.lft.to/lastmile_qr_scan"}, "type": "electric_scooter", "fusion_lon": 0.0, "fusion_lat": 0.0}, {"lat": 38.89867866666667, "lon": -77.02015566666667, "is_disabled": 0, "bike_id": "36348bfa7c0ae05cd5061af4bdfe86b8", "name": "36348bfa7c0ae05cd5061af4bdfe86b8", "is_reserved": 0, "rental_uris": {"android": "https://dc.lft.to/lastmile_qr_scan", "ios": "https://dc.lft.to/lastmile_qr_scan"}, "type": "electric_scooter", "fusion_lon": 0.0, "fusion_lat": 0.0}, {"lat": 38.91349433333333, "lon": -77.03195416666667, "is_disabled": 0, "bike_id": "82c1076cba1e86119948a5530ace2792", "name": "82c1076cba1e86119948a5530ace2792", "is_reserved": 0, "rental_uris": {"android": "https://dc.lft.to/lastmile_qr_scan", "ios": "https://dc.lft.to/lastmile_qr_scan"}, "type": "electric_scooter", "fusion_lon": 0.0, "fusion_lat": 0.0}, {"lat": 38.885094333333335, "lon": -77.00569466666667, "is_disabled": 0, "bike_id": "a7a036635d23ecb690cf74ab588f57bb", "name": "a7a036635d23ecb690cf74ab588f57bb", "is_reserved": 0, "rental_uris": {"android": "https://dc.lft.to/lastmile_qr_scan", "ios": "https://dc.lft.to/lastmile_qr_scan"}, "type": "electric_scooter", "fusion_lon": 0.0, "fusion_lat": 0.0}, {"lat": 38.93136066666667, "lon": -77.078455, "is_disabled": 0, "bike_id": "c8beea130f5f12e0eb8cf6e7646f72ef", "name": "c8beea130f5f12e0eb8cf6e7646f72ef", "is_reserved": 0, "rental_uris": {"android": "https://dc.lft.to/lastmile_qr_scan", "ios": "https://dc.lft.to/lastmile_qr_scan"}, "type": "electric_scooter", "fusion_lon": 0.0, "fusion_lat": 0.0}, {"lat": 38.90067633333334, "lon": -77.050666, "is_disabled": 0, "bike_id": "006af763c02388714de6bd4758f249e1", "name": "006af763c02388714de6bd4758f249e1", "is_reserved": 0, "rental_uris": {"android": "https://dc.lft.to/lastmile_qr_scan", "ios": "https://dc.lft.to/lastmile_qr_scan"}, "type": "electric_scooter", "fusion_lon": 0.0, "fusion_lat": 0.0}, {"lat": 38.89231866666667, "lon": -77.04997816666666, "is_disabled": 0, "bike_id": "7f373ec22d8b8d915d0c9fcb739feaa5", "name": "7f373ec22d8b8d915d0c9fcb739feaa5", "is_reserved": 0, "rental_uris": {"android": "https://dc.lft.to/lastmile_qr_scan", "ios": "https://dc.lft.to/lastmile_qr_scan"}, "type": "electric_scooter", "fusion_lon": 0.0, "fusion_lat": 0.0}, {"lat": 38.89530366666666, "lon": -77.03351416666666, "is_disabled": 0, "bike_id": "c2a155e08ba4c0c8daf0fb8987dc8218", "name": "c2a155e08ba4c0c8daf0fb8987dc8218", "is_reserved": 0, "rental_uris": {"android": "https://dc.lft.to/lastmile_qr_scan", "ios": "https://dc.lft.to/lastmile_qr_scan"}, "type": "electric_scooter", "fusion_lon": 0.0, "fusion_lat": 0.0}, {"lat": 38.92485216666667, "lon": -77.02215866666667, "is_disabled": 0, "bike_id": "beded672696474629e57251924dd3d2c", "name": "beded672696474629e57251924dd3d2c", "is_reserved": 0, "rental_uris": {"android": "https://dc.lft.to/lastmile_qr_scan", "ios": "https://dc.lft.to/lastmile_qr_scan"}, "type": "electric_scooter", "fusion_lon": 0.0, "fusion_lat": 0.0}, {"lat": 38.91189216666667, "lon": -77.03219716666666, "is_disabled": 0, "bike_id": "49eaedb8e3ff21ee93c5a840cde04801", "name": "49eaedb8e3ff21ee93c5a840cde04801", "is_reserved": 0, "rental_uris": {"android": "https://dc.lft.to/lastmile_qr_scan", "ios": "https://dc.lft.to/lastmile_qr_scan"}, "type": "electric_scooter", "fusion_lon": 0.0, "fusion_lat": 0.0}, {"lat": 38.92256833333333, "lon": -77.01951383333333, "is_disabled": 0, "bike_id": "5de8dfaf42ef6a8e135e154205e39b61", "name": "5de8dfaf42ef6a8e135e154205e39b61", "is_reserved": 0, "rental_uris": {"android": "https://dc.lft.to/lastmile_qr_scan", "ios": "https://dc.lft.to/lastmile_qr_scan"}, "type": "electric_scooter", "fusion_lon": 0.0, "fusion_lat": 0.0}, {"lat": 38.930150166666664, "lon": -77.03281, "is_disabled": 0, "bike_id": "ed2ecef48c17f1812cc204b678baf16d", "name": "ed2ecef48c17f1812cc204b678baf16d", "is_reserved": 0, "rental_uris": {"android": "https://dc.lft.to/lastmile_qr_scan", "ios": "https://dc.lft.to/lastmile_qr_scan"}, "type": "electric_scooter", "fusion_lon": 0.0, "fusion_lat": 0.0}, {"lat": 38.833044666666666, "lon": -77.0840395, "is_disabled": 0, "bike_id": "210a5b51275e658b4a269cca88851a1e", "name": "210a5b51275e658b4a269cca88851a1e", "is_reserved": 0, "rental_uris": {"android": "https://dc.lft.to/lastmile_qr_scan", "ios": "https://dc.lft.to/lastmile_qr_scan"}, "type": "electric_bike", "fusion_lon": 0.0, "fusion_lat": 0.0}, {"lat": 38.9009705, "lon": -77.027297, "is_disabled": 0, "bike_id": "88f543a95b5e9e9a8c4d15e47aff4cf9", "name": "88f543a95b5e9e9a8c4d15e47aff4cf9", "is_reserved": 0, "rental_uris": {"android": "https://dc.lft.to/lastmile_qr_scan", "ios": "https://dc.lft.to/lastmile_qr_scan"}, "type": "electric_scooter", "fusion_lon": 0.0, "fusion_lat": 0.0}, {"lat": 38.8960635, "lon": -77.022131, "is_disabled": 0, "bike_id": "1993a47f1332451c2a71b20804635c49", "name": "1993a47f1332451c2a71b20804635c49", "is_reserved": 0, "rental_uris": {"android": "https://dc.lft.to/lastmile_qr_scan", "ios": "https://dc.lft.to/lastmile_qr_scan"}, "type": "electric_scooter", "fusion_lon": 0.0, "fusion_lat": 0.0}, {"lat": 38.836952833333335, "lon": -77.0572185, "is_disabled": 0, "bike_id": "af3ce505ff2496d609293b41d8c00617", "name": "af3ce505ff2496d609293b41d8c00617", "is_reserved": 0, "rental_uris": {"android": "https://dc.lft.to/lastmile_qr_scan", "ios": "https://dc.lft.to/lastmile_qr_scan"}, "type": "electric_bike", "fusion_lon": 0.0, "fusion_lat": 0.0}, {"lat": 38.89854916666667, "lon": -76.92755216666667, "is_disabled": 0, "bike_id": "5d9bd113642214703e596c158eff8caa", "name": "5d9bd113642214703e596c158eff8caa", "is_reserved": 0, "rental_uris": {"android": "https://dc.lft.to/lastmile_qr_scan", "ios": "https://dc.lft.to/lastmile_qr_scan"}, "type": "electric_scooter", "fusion_lon": 0.0, "fusion_lat": 0.0}, {"lat": 38.937718333333336, "lon": -76.99306466666667, "is_disabled": 0, "bike_id": "c9ebf5efd85ed4fa84f9cdfe2953fdf0", "name": "c9ebf5efd85ed4fa84f9cdfe2953fdf0", "is_reserved": 0, "rental_uris": {"android": "https://dc.lft.to/lastmile_qr_scan", "ios": "https://dc.lft.to/lastmile_qr_scan"}, "type": "electric_scooter", "fusion_lon": 0.0, "fusion_lat": 0.0}, {"lat": 38.92255266666667, "lon": -77.01970133333333, "is_disabled": 0, "bike_id": "de8be6a88ba3127392e5f516d636d5e6", "name": "de8be6a88ba3127392e5f516d636d5e6", "is_reserved": 0, "rental_uris": {"android": "https://dc.lft.to/lastmile_qr_scan", "ios": "https://dc.lft.to/lastmile_qr_scan"}, "type": "electric_scooter", "fusion_lon": 0.0, "fusion_lat": 0.0}, {"lat": 38.90818, "lon": -77.00357033333333, "is_disabled": 0, "bike_id": "e1c96e995a250c1d2bd3f2ab09381bb5", "name": "e1c96e995a250c1d2bd3f2ab09381bb5", "is_reserved": 0, "rental_uris": {"android": "https://dc.lft.to/lastmile_qr_scan", "ios": "https://dc.lft.to/lastmile_qr_scan"}, "type": "electric_scooter", "fusion_lon": 0.0, "fusion_lat": 0.0}, {"lat": 38.9158165, "lon": -77.03201933333334, "is_disabled": 0, "bike_id": "b5a1a7ac59027bc5bbe1675235bfa4a9", "name": "b5a1a7ac59027bc5bbe1675235bfa4a9", "is_reserved": 0, "rental_uris": {"android": "https://dc.lft.to/lastmile_qr_scan", "ios": "https://dc.lft.to/lastmile_qr_scan"}, "type": "electric_scooter", "fusion_lon": 0.0, "fusion_lat": 0.0}, {"lat": 38.899596833333334, "lon": -77.04896783333334, "is_disabled": 0, "bike_id": "050f9d236ac51cc135a78fd87bde5923", "name": "050f9d236ac51cc135a78fd87bde5923", "is_reserved": 0, "rental_uris": {"android": "https://dc.lft.to/lastmile_qr_scan", "ios": "https://dc.lft.to/lastmile_qr_scan"}, "type": "electric_scooter", "fusion_lon": 0.0, "fusion_lat": 0.0}, {"lat": 38.90071016666667, "lon": -77.045488, "is_disabled": 0, "bike_id": "2152f0bf9588809590b1b21d3f933523", "name": "2152f0bf9588809590b1b21d3f933523", "is_reserved": 0, "rental_uris": {"android": "https://dc.lft.to/lastmile_qr_scan", "ios": "https://dc.lft.to/lastmile_qr_scan"}, "type": "electric_scooter", "fusion_lon": 0.0, "fusion_lat": 0.0}, {"lat": 38.92152166666666, "lon": -77.04241383333333, "is_disabled": 0, "bike_id": "f27baa97eaf3b5b372aa136b923cc3b7", "name": "f27baa97eaf3b5b372aa136b923cc3b7", "is_reserved": 0, "rental_uris": {"android": "https://dc.lft.to/lastmile_qr_scan", "ios": "https://dc.lft.to/lastmile_qr_scan"}, "type": "electric_scooter", "fusion_lon": 0.0, "fusion_lat": 0.0}, {"lat": 38.905963, "lon": -77.07007133333333, "is_disabled": 0, "bike_id": "571e4ef70413ee0bccb0785d1c033069", "name": "571e4ef70413ee0bccb0785d1c033069", "is_reserved": 0, "rental_uris": {"android": "https://dc.lft.to/lastmile_qr_scan", "ios": "https://dc.lft.to/lastmile_qr_scan"}, "type": "electric_scooter", "fusion_lon": 0.0, "fusion_lat": 0.0}, {"lat": 38.89625183333333, "lon": -76.90749016666666, "is_disabled": 0, "bike_id": "14e16267e01b16edf2c4c9ef13c6c4f9", "name": "14e16267e01b16edf2c4c9ef13c6c4f9", "is_reserved": 0, "rental_uris": {"android": "https://dc.lft.to/lastmile_qr_scan", "ios": "https://dc.lft.to/lastmile_qr_scan"}, "type": "electric_bike", "fusion_lon": 0.0, "fusion_lat": 0.0}, {"lat": 38.92423733333333, "lon": -77.02018283333334, "is_disabled": 0, "bike_id": "147b6d9db8d50ec2392394c0e851d49d", "name": "147b6d9db8d50ec2392394c0e851d49d", "is_reserved": 0, "rental_uris": {"android": "https://dc.lft.to/lastmile_qr_scan", "ios": "https://dc.lft.to/lastmile_qr_scan"}, "type": "electric_scooter", "fusion_lon": 0.0, "fusion_lat": 0.0}, {"lat": 38.901750166666666, "lon": -77.02223966666666, "is_disabled": 0, "bike_id": "0331b15008af90807f7f8e0a29a6f928", "name": "0331b15008af90807f7f8e0a29a6f928", "is_reserved": 0, "rental_uris": {"android": "https://dc.lft.to/lastmile_qr_scan", "ios": "https://dc.lft.to/lastmile_qr_scan"}, "type": "electric_scooter", "fusion_lon": 0.0, "fusion_lat": 0.0}, {"lat": 38.8818295, "lon": -76.99513266666666, "is_disabled": 0, "bike_id": "f094ce93dcfd4c43a08c164a39a0eaab", "name": "f094ce93dcfd4c43a08c164a39a0eaab", "is_reserved": 0, "rental_uris": {"android": "https://dc.lft.to/lastmile_qr_scan", "ios": "https://dc.lft.to/lastmile_qr_scan"}, "type": "electric_scooter", "fusion_lon": 0.0, "fusion_lat": 0.0}, {"lat": 38.902519166666664, "lon": -76.9770235, "is_disabled": 0, "bike_id": "534d4f641590255de763408c93c2cf05", "name": "534d4f641590255de763408c93c2cf05", "is_reserved": 0, "rental_uris": {"android": "https://dc.lft.to/lastmile_qr_scan", "ios": "https://dc.lft.to/lastmile_qr_scan"}, "type": "electric_scooter", "fusion_lon": 0.0, "fusion_lat": 0.0}, {"lat": 38.90977766666666, "lon": -77.03291466666667, "is_disabled": 0, "bike_id": "0bdf23a14f2c153792323c7104ba31cc", "name": "0bdf23a14f2c153792323c7104ba31cc", "is_reserved": 0, "rental_uris": {"android": "https://dc.lft.to/lastmile_qr_scan", "ios": "https://dc.lft.to/lastmile_qr_scan"}, "type": "electric_scooter", "fusion_lon": 0.0, "fusion_lat": 0.0}, {"lat": 38.8851435, "lon": -76.92441216666667, "is_disabled": 0, "bike_id": "612b612bee9993504c09259584150187", "name": "612b612bee9993504c09259584150187", "is_reserved": 0, "rental_uris": {"android": "https://dc.lft.to/lastmile_qr_scan", "ios": "https://dc.lft.to/lastmile_qr_scan"}, "type": "electric_scooter", "fusion_lon": 0.0, "fusion_lat": 0.0}, {"lat": 38.894618333333334, "lon": -77.0267465, "is_disabled": 0, "bike_id": "3c9a2483e560e1d75f071c800adc30ff", "name": "3c9a2483e560e1d75f071c800adc30ff", "is_reserved": 0, "rental_uris": {"android": "https://dc.lft.to/lastmile_qr_scan", "ios": "https://dc.lft.to/lastmile_qr_scan"}, "type": "electric_scooter", "fusion_lon": 0.0, "fusion_lat": 0.0}, {"lat": 38.90212133333333, "lon": -77.05032816666667, "is_disabled": 0, "bike_id": "e5d1e90584fd519034a8d2eafefca857", "name": "e5d1e90584fd519034a8d2eafefca857", "is_reserved": 0, "rental_uris": {"android": "https://dc.lft.to/lastmile_qr_scan", "ios": "https://dc.lft.to/lastmile_qr_scan"}, "type": "electric_scooter", "fusion_lon": 0.0, "fusion_lat": 0.0}, {"lat": 38.903634, "lon": -77.02195283333333, "is_disabled": 0, "bike_id": "2adcd4c266cffb401ca156c0e42fbcf7", "name": "2adcd4c266cffb401ca156c0e42fbcf7", "is_reserved": 0, "rental_uris": {"android": "https://dc.lft.to/lastmile_qr_scan", "ios": "https://dc.lft.to/lastmile_qr_scan"}, "type": "electric_scooter", "fusion_lon": 0.0, "fusion_lat": 0.0}, {"lat": 38.900280333333335, "lon": -77.00725833333334, "is_disabled": 0, "bike_id": "21d36714f0a8e26ec9aa19616b49a1c6", "name": "21d36714f0a8e26ec9aa19616b49a1c6", "is_reserved": 0, "rental_uris": {"android": "https://dc.lft.to/lastmile_qr_scan", "ios": "https://dc.lft.to/lastmile_qr_scan"}, "type": "electric_scooter", "fusion_lon": 0.0, "fusion_lat": 0.0}, {"lat": 38.912802, "lon": -77.03185966666666, "is_disabled": 0, "bike_id": "fef88f5da5e84b6121cedef04707ba9a", "name": "fef88f5da5e84b6121cedef04707ba9a", "is_reserved": 0, "rental_uris": {"android": "https://dc.lft.to/lastmile_qr_scan", "ios": "https://dc.lft.to/lastmile_qr_scan"}, "type": "electric_scooter", "fusion_lon": 0.0, "fusion_lat": 0.0}, {"lat": 38.89960133333334, "lon": -77.02196633333334, "is_disabled": 0, "bike_id": "8db7d22497b7df4a271fa71148244833", "name": "8db7d22497b7df4a271fa71148244833", "is_reserved": 0, "rental_uris": {"android": "https://dc.lft.to/lastmile_qr_scan", "ios": "https://dc.lft.to/lastmile_qr_scan"}, "type": "electric_scooter", "fusion_lon": 0.0, "fusion_lat": 0.0}, {"lat": 38.885160666666664, "lon": -77.00222316666667, "is_disabled": 0, "bike_id": "7b5e60ea83cd9d1bbdc552ef0d5c6988", "name": "7b5e60ea83cd9d1bbdc552ef0d5c6988", "is_reserved": 0, "rental_uris": {"android": "https://dc.lft.to/lastmile_qr_scan", "ios": "https://dc.lft.to/lastmile_qr_scan"}, "type": "electric_scooter", "fusion_lon": 0.0, "fusion_lat": 0.0}, {"lat": 38.899337833333334, "lon": -76.99743633333334, "is_disabled": 0, "bike_id": "755fce0afa7f22e119a8aa4b250717e8", "name": "755fce0afa7f22e119a8aa4b250717e8", "is_reserved": 0, "rental_uris": {"android": "https://dc.lft.to/lastmile_qr_scan", "ios": "https://dc.lft.to/lastmile_qr_scan"}, "type": "electric_scooter", "fusion_lon": 0.0, "fusion_lat": 0.0}, {"lat": 38.880367166666666, "lon": -77.02504066666667, "is_disabled": 0, "bike_id": "efd967f8ca687bd0a67abc7974979a50", "name": "efd967f8ca687bd0a67abc7974979a50", "is_reserved": 0, "rental_uris": {"android": "https://dc.lft.to/lastmile_qr_scan", "ios": "https://dc.lft.to/lastmile_qr_scan"}, "type": "electric_scooter", "fusion_lon": 0.0, "fusion_lat": 0.0}, {"lat": 38.89558566666667, "lon": -76.93059183333334, "is_disabled": 0, "bike_id": "e567b12dc9859d199854908cb7fa4aa7", "name": "e567b12dc9859d199854908cb7fa4aa7", "is_reserved": 0, "rental_uris": {"android": "https://dc.lft.to/lastmile_qr_scan", "ios": "https://dc.lft.to/lastmile_qr_scan"}, "type": "electric_scooter", "fusion_lon": 0.0, "fusion_lat": 0.0}, {"lat": 38.89960633333333, "lon": -77.0160175, "is_disabled": 0, "bike_id": "fd20194ae41c4f7603e189d8af617e48", "name": "fd20194ae41c4f7603e189d8af617e48", "is_reserved": 0, "rental_uris": {"android": "https://dc.lft.to/lastmile_qr_scan", "ios": "https://dc.lft.to/lastmile_qr_scan"}, "type": "electric_scooter", "fusion_lon": 0.0, "fusion_lat": 0.0}, {"lat": 38.86943866666667, "lon": -76.97741116666667, "is_disabled": 0, "bike_id": "bf0c6863afd3a2b8e418341ac99e0008", "name": "bf0c6863afd3a2b8e418341ac99e0008", "is_reserved": 0, "rental_uris": {"android": "https://dc.lft.to/lastmile_qr_scan", "ios": "https://dc.lft.to/lastmile_qr_scan"}, "type": "electric_scooter", "fusion_lon": 0.0, "fusion_lat": 0.0}, {"lat": 38.9219025, "lon": -77.0425615, "is_disabled": 0, "bike_id": "5ecc5c4f74221bdfe5a48b3313d0f66b", "name": "5ecc5c4f74221bdfe5a48b3313d0f66b", "is_reserved": 0, "rental_uris": {"android": "https://dc.lft.to/lastmile_qr_scan", "ios": "https://dc.lft.to/lastmile_qr_scan"}, "type": "electric_scooter", "fusion_lon": 0.0, "fusion_lat": 0.0}, {"lat": 38.89771066666667, "lon": -77.027005, "is_disabled": 0, "bike_id": "d0c9a00ffe4c7ad4012003bb04f97219", "name": "d0c9a00ffe4c7ad4012003bb04f97219", "is_reserved": 0, "rental_uris": {"android": "https://dc.lft.to/lastmile_qr_scan", "ios": "https://dc.lft.to/lastmile_qr_scan"}, "type": "electric_scooter", "fusion_lon": 0.0, "fusion_lat": 0.0}, {"lat": 38.920634166666666, "lon": -77.041941, "is_disabled": 0, "bike_id": "cd211efec460dc78cf9defe1ac11ccfb", "name": "cd211efec460dc78cf9defe1ac11ccfb", "is_reserved": 0, "rental_uris": {"android": "https://dc.lft.to/lastmile_qr_scan", "ios": "https://dc.lft.to/lastmile_qr_scan"}, "type": "electric_scooter", "fusion_lon": 0.0, "fusion_lat": 0.0}, {"lat": 38.91355516666667, "lon": -76.9714005, "is_disabled": 0, "bike_id": "a067f1675ccfbecb9cf1191acff6e757", "name": "a067f1675ccfbecb9cf1191acff6e757", "is_reserved": 0, "rental_uris": {"android": "https://dc.lft.to/lastmile_qr_scan", "ios": "https://dc.lft.to/lastmile_qr_scan"}, "type": "electric_scooter", "fusion_lon": 0.0, "fusion_lat": 0.0}, {"lat": 38.896271, "lon": -76.90750116666666, "is_disabled": 0, "bike_id": "0afef953edeb5875a6018a34a4682631", "name": "0afef953edeb5875a6018a34a4682631", "is_reserved": 0, "rental_uris": {"android": "https://dc.lft.to/lastmile_qr_scan", "ios": "https://dc.lft.to/lastmile_qr_scan"}, "type": "electric_bike", "fusion_lon": 0.0, "fusion_lat": 0.0}, {"lat": 38.923717833333335, "lon": -77.035427, "is_disabled": 0, "bike_id": "e31cd679c0bf2037d9ad7051ebe0b539", "name": "e31cd679c0bf2037d9ad7051ebe0b539", "is_reserved": 0, "rental_uris": {"android": "https://dc.lft.to/lastmile_qr_scan", "ios": "https://dc.lft.to/lastmile_qr_scan"}, "type": "electric_scooter", "fusion_lon": 0.0, "fusion_lat": 0.0}, {"lat": 38.910237, "lon": -77.04877116666667, "is_disabled": 0, "bike_id": "ce1b4bf91ed64293ab0dc020328a2ad7", "name": "ce1b4bf91ed64293ab0dc020328a2ad7", "is_reserved": 0, "rental_uris": {"android": "https://dc.lft.to/lastmile_qr_scan", "ios": "https://dc.lft.to/lastmile_qr_scan"}, "type": "electric_scooter", "fusion_lon": 0.0, "fusion_lat": 0.0}, {"lat": 38.9166305, "lon": -77.02256066666666, "is_disabled": 0, "bike_id": "5f2c71bd808edceebbff166d121be7ef", "name": "5f2c71bd808edceebbff166d121be7ef", "is_reserved": 0, "rental_uris": {"android": "https://dc.lft.to/lastmile_qr_scan", "ios": "https://dc.lft.to/lastmile_qr_scan"}, "type": "electric_scooter", "fusion_lon": 0.0, "fusion_lat": 0.0}, {"lat": 38.90433566666667, "lon": -77.02200216666667, "is_disabled": 0, "bike_id": "aab3183489b4ed5848a5e2cf0b920d89", "name": "aab3183489b4ed5848a5e2cf0b920d89", "is_reserved": 0, "rental_uris": {"android": "https://dc.lft.to/lastmile_qr_scan", "ios": "https://dc.lft.to/lastmile_qr_scan"}, "type": "electric_scooter", "fusion_lon": 0.0, "fusion_lat": 0.0}, {"lat": 38.877905166666665, "lon": -77.0011855, "is_disabled": 0, "bike_id": "caf44bb5870d94db77411ad3bb215e5f", "name": "caf44bb5870d94db77411ad3bb215e5f", "is_reserved": 0, "rental_uris": {"android": "https://dc.lft.to/lastmile_qr_scan", "ios": "https://dc.lft.to/lastmile_qr_scan"}, "type": "electric_scooter", "fusion_lon": 0.0, "fusion_lat": 0.0}, {"lat": 38.91713716666667, "lon": -77.038692, "is_disabled": 0, "bike_id": "7339d4878b7cbbaf42d3b1e12f906cb4", "name": "7339d4878b7cbbaf42d3b1e12f906cb4", "is_reserved": 0, "rental_uris": {"android": "https://dc.lft.to/lastmile_qr_scan", "ios": "https://dc.lft.to/lastmile_qr_scan"}, "type": "electric_scooter", "fusion_lon": 0.0, "fusion_lat": 0.0}, {"lat": 38.92419433333333, "lon": -77.020162, "is_disabled": 0, "bike_id": "1a2423a55657ed7bb5622cc2fe2ef866", "name": "1a2423a55657ed7bb5622cc2fe2ef866", "is_reserved": 0, "rental_uris": {"android": "https://dc.lft.to/lastmile_qr_scan", "ios": "https://dc.lft.to/lastmile_qr_scan"}, "type": "electric_scooter", "fusion_lon": 0.0, "fusion_lat": 0.0}, {"lat": 38.87198033333333, "lon": -77.00611233333333, "is_disabled": 0, "bike_id": "57bd3b1a452b663f53708fb989665fc9", "name": "57bd3b1a452b663f53708fb989665fc9", "is_reserved": 0, "rental_uris": {"android": "https://dc.lft.to/lastmile_qr_scan", "ios": "https://dc.lft.to/lastmile_qr_scan"}, "type": "electric_scooter", "fusion_lon": 0.0, "fusion_lat": 0.0}, {"lat": 38.920533166666665, "lon": -77.04180866666667, "is_disabled": 0, "bike_id": "fa3b407af503d114e644a7dd53626df5", "name": "fa3b407af503d114e644a7dd53626df5", "is_reserved": 0, "rental_uris": {"android": "https://dc.lft.to/lastmile_qr_scan", "ios": "https://dc.lft.to/lastmile_qr_scan"}, "type": "electric_scooter", "fusion_lon": 0.0, "fusion_lat": 0.0}, {"lat": 38.9185805, "lon": -77.0246215, "is_disabled": 0, "bike_id": "1e57d79432df7863a4e1a8eebcd008b8", "name": "1e57d79432df7863a4e1a8eebcd008b8", "is_reserved": 0, "rental_uris": {"android": "https://dc.lft.to/lastmile_qr_scan", "ios": "https://dc.lft.to/lastmile_qr_scan"}, "type": "electric_scooter", "fusion_lon": 0.0, "fusion_lat": 0.0}, {"lat": 38.908838333333335, "lon": -76.99787366666666, "is_disabled": 0, "bike_id": "e54bb4758dc156919dd1439115afdb8b", "name": "e54bb4758dc156919dd1439115afdb8b", "is_reserved": 0, "rental_uris": {"android": "https://dc.lft.to/lastmile_qr_scan", "ios": "https://dc.lft.to/lastmile_qr_scan"}, "type": "electric_scooter", "fusion_lon": 0.0, "fusion_lat": 0.0}, {"lat": 38.9341355, "lon": -77.04552116666666, "is_disabled": 0, "bike_id": "f1e1bedf3ec280b9533539d4db5c5ae7", "name": "f1e1bedf3ec280b9533539d4db5c5ae7", "is_reserved": 0, "rental_uris": {"android": "https://dc.lft.to/lastmile_qr_scan", "ios": "https://dc.lft.to/lastmile_qr_scan"}, "type": "electric_scooter", "fusion_lon": 0.0, "fusion_lat": 0.0}, {"lat": 38.906823, "lon": -77.064008, "is_disabled": 0, "bike_id": "17af6f2dd9ec54ff1747ac3082910211", "name": "17af6f2dd9ec54ff1747ac3082910211", "is_reserved": 0, "rental_uris": {"android": "https://dc.lft.to/lastmile_qr_scan", "ios": "https://dc.lft.to/lastmile_qr_scan"}, "type": "electric_scooter", "fusion_lon": 0.0, "fusion_lat": 0.0}, {"lat": 38.917016833333335, "lon": -77.04008316666666, "is_disabled": 0, "bike_id": "1c633c1b09addd28cff1b9ecb7245138", "name": "1c633c1b09addd28cff1b9ecb7245138", "is_reserved": 0, "rental_uris": {"android": "https://dc.lft.to/lastmile_qr_scan", "ios": "https://dc.lft.to/lastmile_qr_scan"}, "type": "electric_scooter", "fusion_lon": 0.0, "fusion_lat": 0.0}, {"lat": 38.9088565, "lon": -77.023199, "is_disabled": 0, "bike_id": "d8382113830c54e5ddf0fbfd9557e0ed", "name": "d8382113830c54e5ddf0fbfd9557e0ed", "is_reserved": 0, "rental_uris": {"android": "https://dc.lft.to/lastmile_qr_scan", "ios": "https://dc.lft.to/lastmile_qr_scan"}, "type": "electric_scooter", "fusion_lon": 0.0, "fusion_lat": 0.0}, {"lat": 38.899662, "lon": -77.047237, "is_disabled": 0, "bike_id": "ac7f5836ddb710b3b5c5cc903ad1ed26", "name": "ac7f5836ddb710b3b5c5cc903ad1ed26", "is_reserved": 0, "rental_uris": {"android": "https://dc.lft.to/lastmile_qr_scan", "ios": "https://dc.lft.to/lastmile_qr_scan"}, "type": "electric_scooter", "fusion_lon": 0.0, "fusion_lat": 0.0}, {"lat": 38.8997685, "lon": -77.026413, "is_disabled": 0, "bike_id": "892d019a5250e6e557bff763b827d1f0", "name": "892d019a5250e6e557bff763b827d1f0", "is_reserved": 0, "rental_uris": {"android": "https://dc.lft.to/lastmile_qr_scan", "ios": "https://dc.lft.to/lastmile_qr_scan"}, "type": "electric_scooter", "fusion_lon": 0.0, "fusion_lat": 0.0}, {"lat": 38.94464083333333, "lon": -77.02637533333333, "is_disabled": 0, "bike_id": "cd2ed99e854817d395de66fccb2d9d30", "name": "cd2ed99e854817d395de66fccb2d9d30", "is_reserved": 0, "rental_uris": {"android": "https://dc.lft.to/lastmile_qr_scan", "ios": "https://dc.lft.to/lastmile_qr_scan"}, "type": "electric_scooter", "fusion_lon": 0.0, "fusion_lat": 0.0}, {"lat": 38.903748666666665, "lon": -76.998294, "is_disabled": 0, "bike_id": "250c2f77e844b50ed490f4548679e45e", "name": "250c2f77e844b50ed490f4548679e45e", "is_reserved": 0, "rental_uris": {"android": "https://dc.lft.to/lastmile_qr_scan", "ios": "https://dc.lft.to/lastmile_qr_scan"}, "type": "electric_scooter", "fusion_lon": 0.0, "fusion_lat": 0.0}, {"lat": 38.920348833333335, "lon": -76.984917, "is_disabled": 0, "bike_id": "b9488f6f60d28522014656337ffe1888", "name": "b9488f6f60d28522014656337ffe1888", "is_reserved": 0, "rental_uris": {"android": "https://dc.lft.to/lastmile_qr_scan", "ios": "https://dc.lft.to/lastmile_qr_scan"}, "type": "electric_scooter", "fusion_lon": 0.0, "fusion_lat": 0.0}, {"lat": 38.881584333333336, "lon": -77.0274985, "is_disabled": 0, "bike_id": "db677e304aa12c237f763721a87215a1", "name": "db677e304aa12c237f763721a87215a1", "is_reserved": 0, "rental_uris": {"android": "https://dc.lft.to/lastmile_qr_scan", "ios": "https://dc.lft.to/lastmile_qr_scan"}, "type": "electric_scooter", "fusion_lon": 0.0, "fusion_lat": 0.0}, {"lat": 38.94361333333333, "lon": -77.02975983333333, "is_disabled": 0, "bike_id": "a5f05cc2abecfab63b78e58e0a9b2d8e", "name": "a5f05cc2abecfab63b78e58e0a9b2d8e", "is_reserved": 0, "rental_uris": {"android": "https://dc.lft.to/lastmile_qr_scan", "ios": "https://dc.lft.to/lastmile_qr_scan"}, "type": "electric_scooter", "fusion_lon": 0.0, "fusion_lat": 0.0}, {"lat": 38.9133325, "lon": -77.01363666666667, "is_disabled": 0, "bike_id": "118155b84faa9062b9ee548e5ca350d6", "name": "118155b84faa9062b9ee548e5ca350d6", "is_reserved": 0, "rental_uris": {"android": "https://dc.lft.to/lastmile_qr_scan", "ios": "https://dc.lft.to/lastmile_qr_scan"}, "type": "electric_scooter", "fusion_lon": 0.0, "fusion_lat": 0.0}, {"lat": 38.9111255, "lon": -77.01802833333333, "is_disabled": 0, "bike_id": "0542cde342671292a10682dde2c78428", "name": "0542cde342671292a10682dde2c78428", "is_reserved": 0, "rental_uris": {"android": "https://dc.lft.to/lastmile_qr_scan", "ios": "https://dc.lft.to/lastmile_qr_scan"}, "type": "electric_scooter", "fusion_lon": 0.0, "fusion_lat": 0.0}, {"lat": 38.90749683333333, "lon": -77.0240755, "is_disabled": 0, "bike_id": "d0e7a3d37b19ab2ae7d0a252bf99d717", "name": "d0e7a3d37b19ab2ae7d0a252bf99d717", "is_reserved": 0, "rental_uris": {"android": "https://dc.lft.to/lastmile_qr_scan", "ios": "https://dc.lft.to/lastmile_qr_scan"}, "type": "electric_scooter", "fusion_lon": 0.0, "fusion_lat": 0.0}, {"lat": 38.953119666666666, "lon": -77.01917716666667, "is_disabled": 0, "bike_id": "425f5dcc966ca1cd96d76163a313d8c9", "name": "425f5dcc966ca1cd96d76163a313d8c9", "is_reserved": 0, "rental_uris": {"android": "https://dc.lft.to/lastmile_qr_scan", "ios": "https://dc.lft.to/lastmile_qr_scan"}, "type": "electric_bike", "fusion_lon": 0.0, "fusion_lat": 0.0}, {"lat": 38.90364116666667, "lon": -77.011128, "is_disabled": 0, "bike_id": "c1ea3db18348de6db0b0aa6c0220a263", "name": "c1ea3db18348de6db0b0aa6c0220a263", "is_reserved": 0, "rental_uris": {"android": "https://dc.lft.to/lastmile_qr_scan", "ios": "https://dc.lft.to/lastmile_qr_scan"}, "type": "electric_scooter", "fusion_lon": 0.0, "fusion_lat": 0.0}, {"lat": 38.896268, "lon": -77.00351233333333, "is_disabled": 0, "bike_id": "537a56bc0f1cd0cf09020a2a063ee5cd", "name": "537a56bc0f1cd0cf09020a2a063ee5cd", "is_reserved": 0, "rental_uris": {"android": "https://dc.lft.to/lastmile_qr_scan", "ios": "https://dc.lft.to/lastmile_qr_scan"}, "type": "electric_scooter", "fusion_lon": 0.0, "fusion_lat": 0.0}, {"lat": 38.83042566666666, "lon": -77.00831183333334, "is_disabled": 0, "bike_id": "7fbbbaaf55ae034d917f1441edd87abc", "name": "7fbbbaaf55ae034d917f1441edd87abc", "is_reserved": 0, "rental_uris": {"android": "https://dc.lft.to/lastmile_qr_scan", "ios": "https://dc.lft.to/lastmile_qr_scan"}, "type": "electric_bike", "fusion_lon": 0.0, "fusion_lat": 0.0}, {"lat": 38.88972666666667, "lon": -76.92737, "is_disabled": 0, "bike_id": "7c56f6c1c5f30a0e27d00d4431aaba8e", "name": "7c56f6c1c5f30a0e27d00d4431aaba8e", "is_reserved": 0, "rental_uris": {"android": "https://dc.lft.to/lastmile_qr_scan", "ios": "https://dc.lft.to/lastmile_qr_scan"}, "type": "electric_scooter", "fusion_lon": 0.0, "fusion_lat": 0.0}, {"lat": 38.895792666666665, "lon": -77.04157633333334, "is_disabled": 0, "bike_id": "d874ceba5d1bbe6350e1339b24fed704", "name": "d874ceba5d1bbe6350e1339b24fed704", "is_reserved": 0, "rental_uris": {"android": "https://dc.lft.to/lastmile_qr_scan", "ios": "https://dc.lft.to/lastmile_qr_scan"}, "type": "electric_scooter", "fusion_lon": 0.0, "fusion_lat": 0.0}, {"lat": 38.89838983333333, "lon": -77.0479665, "is_disabled": 0, "bike_id": "c79d9e69352636ecc33caf9ee957e6da", "name": "c79d9e69352636ecc33caf9ee957e6da", "is_reserved": 0, "rental_uris": {"android": "https://dc.lft.to/lastmile_qr_scan", "ios": "https://dc.lft.to/lastmile_qr_scan"}, "type": "electric_scooter", "fusion_lon": 0.0, "fusion_lat": 0.0}, {"lat": 38.925151, "lon": -77.023913, "is_disabled": 0, "bike_id": "c0d1fcf322d0b8aa40a6ccd45c330ea1", "name": "c0d1fcf322d0b8aa40a6ccd45c330ea1", "is_reserved": 0, "rental_uris": {"android": "https://dc.lft.to/lastmile_qr_scan", "ios": "https://dc.lft.to/lastmile_qr_scan"}, "type": "electric_scooter", "fusion_lon": 0.0, "fusion_lat": 0.0}, {"lat": 38.914292, "lon": -77.01809216666666, "is_disabled": 0, "bike_id": "d085a545c1d6d9bda63e0b179fbc6596", "name": "d085a545c1d6d9bda63e0b179fbc6596", "is_reserved": 0, "rental_uris": {"android": "https://dc.lft.to/lastmile_qr_scan", "ios": "https://dc.lft.to/lastmile_qr_scan"}, "type": "electric_scooter", "fusion_lon": 0.0, "fusion_lat": 0.0}, {"lat": 38.898391, "lon": -77.04813733333333, "is_disabled": 0, "bike_id": "6b3483dfc7ac311de05444d786d396d8", "name": "6b3483dfc7ac311de05444d786d396d8", "is_reserved": 0, "rental_uris": {"android": "https://dc.lft.to/lastmile_qr_scan", "ios": "https://dc.lft.to/lastmile_qr_scan"}, "type": "electric_scooter", "fusion_lon": 0.0, "fusion_lat": 0.0}, {"lat": 38.915676833333336, "lon": -77.03217983333333, "is_disabled": 0, "bike_id": "b94bed405e36f4cb6d16f75de9b78945", "name": "b94bed405e36f4cb6d16f75de9b78945", "is_reserved": 0, "rental_uris": {"android": "https://dc.lft.to/lastmile_qr_scan", "ios": "https://dc.lft.to/lastmile_qr_scan"}, "type": "electric_scooter", "fusion_lon": 0.0, "fusion_lat": 0.0}, {"lat": 38.92162533333333, "lon": -77.02519133333334, "is_disabled": 0, "bike_id": "e5c5ebe14931284c1d0d070a9dbe6401", "name": "e5c5ebe14931284c1d0d070a9dbe6401", "is_reserved": 0, "rental_uris": {"android": "https://dc.lft.to/lastmile_qr_scan", "ios": "https://dc.lft.to/lastmile_qr_scan"}, "type": "electric_scooter", "fusion_lon": 0.0, "fusion_lat": 0.0}, {"lat": 38.91713033333333, "lon": -77.03870966666666, "is_disabled": 0, "bike_id": "86eb6d874394f85446949bf4528fd746", "name": "86eb6d874394f85446949bf4528fd746", "is_reserved": 0, "rental_uris": {"android": "https://dc.lft.to/lastmile_qr_scan", "ios": "https://dc.lft.to/lastmile_qr_scan"}, "type": "electric_scooter", "fusion_lon": 0.0, "fusion_lat": 0.0}, {"lat": 38.8950425, "lon": -76.9236105, "is_disabled": 0, "bike_id": "6d32e13c7b7f4e0cc177976ffda06197", "name": "6d32e13c7b7f4e0cc177976ffda06197", "is_reserved": 0, "rental_uris": {"android": "https://dc.lft.to/lastmile_qr_scan", "ios": "https://dc.lft.to/lastmile_qr_scan"}, "type": "electric_scooter", "fusion_lon": 0.0, "fusion_lat": 0.0}, {"lat": 38.876439, "lon": -77.00369733333333, "is_disabled": 0, "bike_id": "c6b47a5ff6ce6622d8b261db83d9d8da", "name": "c6b47a5ff6ce6622d8b261db83d9d8da", "is_reserved": 0, "rental_uris": {"android": "https://dc.lft.to/lastmile_qr_scan", "ios": "https://dc.lft.to/lastmile_qr_scan"}, "type": "electric_bike", "fusion_lon": 0.0, "fusion_lat": 0.0}, {"lat": 38.92339616666667, "lon": -77.05271383333333, "is_disabled": 0, "bike_id": "c0dccd0350060bd95a70619113ce3215", "name": "c0dccd0350060bd95a70619113ce3215", "is_reserved": 0, "rental_uris": {"android": "https://dc.lft.to/lastmile_qr_scan", "ios": "https://dc.lft.to/lastmile_qr_scan"}, "type": "electric_scooter", "fusion_lon": 0.0, "fusion_lat": 0.0}, {"lat": 38.844609, "lon": -77.06829883333333, "is_disabled": 0, "bike_id": "9f74de3536f6539ef8535083ede17729", "name": "9f74de3536f6539ef8535083ede17729", "is_reserved": 0, "rental_uris": {"android": "https://dc.lft.to/lastmile_qr_scan", "ios": "https://dc.lft.to/lastmile_qr_scan"}, "type": "electric_bike", "fusion_lon": 0.0, "fusion_lat": 0.0}, {"lat": 38.91118433333333, "lon": -77.0386935, "is_disabled": 0, "bike_id": "b37c5909707c96e5f2a7f6559b49e73b", "name": "b37c5909707c96e5f2a7f6559b49e73b", "is_reserved": 0, "rental_uris": {"android": "https://dc.lft.to/lastmile_qr_scan", "ios": "https://dc.lft.to/lastmile_qr_scan"}, "type": "electric_scooter", "fusion_lon": 0.0, "fusion_lat": 0.0}, {"lat": 38.92790183333334, "lon": -77.03777233333334, "is_disabled": 0, "bike_id": "0cc71cba9465c0f6fd20bcebfdf00d00", "name": "0cc71cba9465c0f6fd20bcebfdf00d00", "is_reserved": 0, "rental_uris": {"android": "https://dc.lft.to/lastmile_qr_scan", "ios": "https://dc.lft.to/lastmile_qr_scan"}, "type": "electric_scooter", "fusion_lon": 0.0, "fusion_lat": 0.0}, {"lat": 38.8979185, "lon": -77.04976966666666, "is_disabled": 0, "bike_id": "6df79a400d5a2371fb6d609aff265bec", "name": "6df79a400d5a2371fb6d609aff265bec", "is_reserved": 0, "rental_uris": {"android": "https://dc.lft.to/lastmile_qr_scan", "ios": "https://dc.lft.to/lastmile_qr_scan"}, "type": "electric_scooter", "fusion_lon": 0.0, "fusion_lat": 0.0}, {"lat": 38.911147166666666, "lon": -77.03219933333334, "is_disabled": 0, "bike_id": "430727d02e513d99211d6a722b8c32a5", "name": "430727d02e513d99211d6a722b8c32a5", "is_reserved": 0, "rental_uris": {"android": "https://dc.lft.to/lastmile_qr_scan", "ios": "https://dc.lft.to/lastmile_qr_scan"}, "type": "electric_scooter", "fusion_lon": 0.0, "fusion_lat": 0.0}, {"lat": 38.966409666666664, "lon": -77.02746416666666, "is_disabled": 0, "bike_id": "3899a6591f1e41947f73ca3f1ba37dde", "name": "3899a6591f1e41947f73ca3f1ba37dde", "is_reserved": 0, "rental_uris": {"android": "https://dc.lft.to/lastmile_qr_scan", "ios": "https://dc.lft.to/lastmile_qr_scan"}, "type": "electric_scooter", "fusion_lon": 0.0, "fusion_lat": 0.0}, {"lat": 38.9208795, "lon": -77.0389725, "is_disabled": 0, "bike_id": "f8f74a29115e2f364aac399b36d5ed52", "name": "f8f74a29115e2f364aac399b36d5ed52", "is_reserved": 0, "rental_uris": {"android": "https://dc.lft.to/lastmile_qr_scan", "ios": "https://dc.lft.to/lastmile_qr_scan"}, "type": "electric_scooter", "fusion_lon": 0.0, "fusion_lat": 0.0}, {"lat": 38.9041615, "lon": -77.02053916666667, "is_disabled": 0, "bike_id": "5971aa2323bced7ffd580d4cb446de87", "name": "5971aa2323bced7ffd580d4cb446de87", "is_reserved": 0, "rental_uris": {"android": "https://dc.lft.to/lastmile_qr_scan", "ios": "https://dc.lft.to/lastmile_qr_scan"}, "type": "electric_scooter", "fusion_lon": 0.0, "fusion_lat": 0.0}, {"lat": 38.9271825, "lon": -77.0599635, "is_disabled": 0, "bike_id": "0e78eb1d4c80fec3bad041a3adce0aa0", "name": "0e78eb1d4c80fec3bad041a3adce0aa0", "is_reserved": 0, "rental_uris": {"android": "https://dc.lft.to/lastmile_qr_scan", "ios": "https://dc.lft.to/lastmile_qr_scan"}, "type": "electric_scooter", "fusion_lon": 0.0, "fusion_lat": 0.0}, {"lat": 38.92266683333333, "lon": -77.04298266666666, "is_disabled": 0, "bike_id": "f99310cce6d5d29c5a40195658588a13", "name": "f99310cce6d5d29c5a40195658588a13", "is_reserved": 0, "rental_uris": {"android": "https://dc.lft.to/lastmile_qr_scan", "ios": "https://dc.lft.to/lastmile_qr_scan"}, "type": "electric_scooter", "fusion_lon": 0.0, "fusion_lat": 0.0}, {"lat": 38.894771666666664, "lon": -76.985977, "is_disabled": 0, "bike_id": "b369a2fccc98ec689521dfc8420c994b", "name": "b369a2fccc98ec689521dfc8420c994b", "is_reserved": 0, "rental_uris": {"android": "https://dc.lft.to/lastmile_qr_scan", "ios": "https://dc.lft.to/lastmile_qr_scan"}, "type": "electric_scooter", "fusion_lon": 0.0, "fusion_lat": 0.0}, {"lat": 38.89968233333333, "lon": -77.048206, "is_disabled": 0, "bike_id": "f630f74cdff288faa002e7bbedec7dc2", "name": "f630f74cdff288faa002e7bbedec7dc2", "is_reserved": 0, "rental_uris": {"android": "https://dc.lft.to/lastmile_qr_scan", "ios": "https://dc.lft.to/lastmile_qr_scan"}, "type": "electric_scooter", "fusion_lon": 0.0, "fusion_lat": 0.0}, {"lat": 38.92193483333333, "lon": -77.09942983333333, "is_disabled": 0, "bike_id": "a31f33a8ca4ab8618fb7479addf2c02e", "name": "a31f33a8ca4ab8618fb7479addf2c02e", "is_reserved": 0, "rental_uris": {"android": "https://dc.lft.to/lastmile_qr_scan", "ios": "https://dc.lft.to/lastmile_qr_scan"}, "type": "electric_scooter", "fusion_lon": 0.0, "fusion_lat": 0.0}, {"lat": 38.9053945, "lon": -77.02716616666666, "is_disabled": 0, "bike_id": "ce475b4b5d922347f4efc2809667badd", "name": "ce475b4b5d922347f4efc2809667badd", "is_reserved": 0, "rental_uris": {"android": "https://dc.lft.to/lastmile_qr_scan", "ios": "https://dc.lft.to/lastmile_qr_scan"}, "type": "electric_scooter", "fusion_lon": 0.0, "fusion_lat": 0.0}, {"lat": 38.920837666666664, "lon": -77.02393116666667, "is_disabled": 0, "bike_id": "e34ea5fd387f504065f2e85b94d8c92f", "name": "e34ea5fd387f504065f2e85b94d8c92f", "is_reserved": 0, "rental_uris": {"android": "https://dc.lft.to/lastmile_qr_scan", "ios": "https://dc.lft.to/lastmile_qr_scan"}, "type": "electric_scooter", "fusion_lon": 0.0, "fusion_lat": 0.0}, {"lat": 38.896315333333334, "lon": -77.0241845, "is_disabled": 0, "bike_id": "c2b0e0682545d03fed84bce5ffdf9aa7", "name": "c2b0e0682545d03fed84bce5ffdf9aa7", "is_reserved": 0, "rental_uris": {"android": "https://dc.lft.to/lastmile_qr_scan", "ios": "https://dc.lft.to/lastmile_qr_scan"}, "type": "electric_scooter", "fusion_lon": 0.0, "fusion_lat": 0.0}, {"lat": 38.91793333333333, "lon": -77.02396216666666, "is_disabled": 0, "bike_id": "a69b7320ddd187016fb7e2a5ab7137f9", "name": "a69b7320ddd187016fb7e2a5ab7137f9", "is_reserved": 0, "rental_uris": {"android": "https://dc.lft.to/lastmile_qr_scan", "ios": "https://dc.lft.to/lastmile_qr_scan"}, "type": "electric_scooter", "fusion_lon": 0.0, "fusion_lat": 0.0}, {"lat": 38.904182166666665, "lon": -76.97326616666666, "is_disabled": 0, "bike_id": "e2cc016e130a227a277fa9287e1e08cf", "name": "e2cc016e130a227a277fa9287e1e08cf", "is_reserved": 0, "rental_uris": {"android": "https://dc.lft.to/lastmile_qr_scan", "ios": "https://dc.lft.to/lastmile_qr_scan"}, "type": "electric_scooter", "fusion_lon": 0.0, "fusion_lat": 0.0}, {"lat": 38.924781, "lon": -77.022148, "is_disabled": 0, "bike_id": "81a11442f3fb4e5a394062c424ba50f3", "name": "81a11442f3fb4e5a394062c424ba50f3", "is_reserved": 0, "rental_uris": {"android": "https://dc.lft.to/lastmile_qr_scan", "ios": "https://dc.lft.to/lastmile_qr_scan"}, "type": "electric_scooter", "fusion_lon": 0.0, "fusion_lat": 0.0}, {"lat": 38.90011366666667, "lon": -76.99565983333333, "is_disabled": 0, "bike_id": "675f385844393c479b264e45f47cfe7e", "name": "675f385844393c479b264e45f47cfe7e", "is_reserved": 0, "rental_uris": {"android": "https://dc.lft.to/lastmile_qr_scan", "ios": "https://dc.lft.to/lastmile_qr_scan"}, "type": "electric_scooter", "fusion_lon": 0.0, "fusion_lat": 0.0}, {"lat": 38.87536683333333, "lon": -77.00507916666666, "is_disabled": 0, "bike_id": "d5106d7ea0ac2160e264455497698d02", "name": "d5106d7ea0ac2160e264455497698d02", "is_reserved": 0, "rental_uris": {"android": "https://dc.lft.to/lastmile_qr_scan", "ios": "https://dc.lft.to/lastmile_qr_scan"}, "type": "electric_scooter", "fusion_lon": 0.0, "fusion_lat": 0.0}, {"lat": 38.90817783333333, "lon": -77.04179033333334, "is_disabled": 0, "bike_id": "51ccd0e3545f82f08ab4b09cb562b886", "name": "51ccd0e3545f82f08ab4b09cb562b886", "is_reserved": 0, "rental_uris": {"android": "https://dc.lft.to/lastmile_qr_scan", "ios": "https://dc.lft.to/lastmile_qr_scan"}, "type": "electric_scooter", "fusion_lon": 0.0, "fusion_lat": 0.0}, {"lat": 38.902495, "lon": -77.05158216666666, "is_disabled": 0, "bike_id": "2532a657af3de1acb4906b4e47bc41e5", "name": "2532a657af3de1acb4906b4e47bc41e5", "is_reserved": 0, "rental_uris": {"android": "https://dc.lft.to/lastmile_qr_scan", "ios": "https://dc.lft.to/lastmile_qr_scan"}, "type": "electric_scooter", "fusion_lon": 0.0, "fusion_lat": 0.0}, {"lat": 38.919167333333334, "lon": -77.0418145, "is_disabled": 0, "bike_id": "a13398fd8981e6178bb746688e82079a", "name": "a13398fd8981e6178bb746688e82079a", "is_reserved": 0, "rental_uris": {"android": "https://dc.lft.to/lastmile_qr_scan", "ios": "https://dc.lft.to/lastmile_qr_scan"}, "type": "electric_scooter", "fusion_lon": 0.0, "fusion_lat": 0.0}, {"lat": 38.917895, "lon": -77.02494683333333, "is_disabled": 0, "bike_id": "4bcd59b7bfa03690f6324d22358e798b", "name": "4bcd59b7bfa03690f6324d22358e798b", "is_reserved": 0, "rental_uris": {"android": "https://dc.lft.to/lastmile_qr_scan", "ios": "https://dc.lft.to/lastmile_qr_scan"}, "type": "electric_scooter", "fusion_lon": 0.0, "fusion_lat": 0.0}, {"lat": 38.87957433333333, "lon": -76.93186766666666, "is_disabled": 0, "bike_id": "74c5a25c2cf22c89658d1b780c25c86a", "name": "74c5a25c2cf22c89658d1b780c25c86a", "is_reserved": 0, "rental_uris": {"android": "https://dc.lft.to/lastmile_qr_scan", "ios": "https://dc.lft.to/lastmile_qr_scan"}, "type": "electric_bike", "fusion_lon": 0.0, "fusion_lat": 0.0}, {"lat": 38.9012995, "lon": -77.03958516666667, "is_disabled": 0, "bike_id": "a946a01395a7eac0919ca76b2687758f", "name": "a946a01395a7eac0919ca76b2687758f", "is_reserved": 0, "rental_uris": {"android": "https://dc.lft.to/lastmile_qr_scan", "ios": "https://dc.lft.to/lastmile_qr_scan"}, "type": "electric_scooter", "fusion_lon": 0.0, "fusion_lat": 0.0}, {"lat": 38.908641333333335, "lon": -77.06373133333334, "is_disabled": 0, "bike_id": "e4b901d27e62ad15ed738ebbcff74e4e", "name": "e4b901d27e62ad15ed738ebbcff74e4e", "is_reserved": 0, "rental_uris": {"android": "https://dc.lft.to/lastmile_qr_scan", "ios": "https://dc.lft.to/lastmile_qr_scan"}, "type": "electric_scooter", "fusion_lon": 0.0, "fusion_lat": 0.0}, {"lat": 38.90336333333333, "lon": -77.05263916666667, "is_disabled": 0, "bike_id": "0682376b546d2e37ecafc6274becce72", "name": "0682376b546d2e37ecafc6274becce72", "is_reserved": 0, "rental_uris": {"android": "https://dc.lft.to/lastmile_qr_scan", "ios": "https://dc.lft.to/lastmile_qr_scan"}, "type": "electric_scooter", "fusion_lon": 0.0, "fusion_lat": 0.0}, {"lat": 38.88877216666667, "lon": -76.95701216666667, "is_disabled": 0, "bike_id": "593a7e08b34955e1daac68ffe9e58adb", "name": "593a7e08b34955e1daac68ffe9e58adb", "is_reserved": 0, "rental_uris": {"android": "https://dc.lft.to/lastmile_qr_scan", "ios": "https://dc.lft.to/lastmile_qr_scan"}, "type": "electric_bike", "fusion_lon": 0.0, "fusion_lat": 0.0}, {"lat": 38.911223, "lon": -77.03255966666667, "is_disabled": 0, "bike_id": "0c111e96d70e6d7c1a9729a1c05fccfd", "name": "0c111e96d70e6d7c1a9729a1c05fccfd", "is_reserved": 0, "rental_uris": {"android": "https://dc.lft.to/lastmile_qr_scan", "ios": "https://dc.lft.to/lastmile_qr_scan"}, "type": "electric_scooter", "fusion_lon": 0.0, "fusion_lat": 0.0}, {"lat": 38.92382766666667, "lon": -77.08055466666667, "is_disabled": 0, "bike_id": "168946b938fa6545ba155cebd51d7880", "name": "168946b938fa6545ba155cebd51d7880", "is_reserved": 0, "rental_uris": {"android": "https://dc.lft.to/lastmile_qr_scan", "ios": "https://dc.lft.to/lastmile_qr_scan"}, "type": "electric_scooter", "fusion_lon": 0.0, "fusion_lat": 0.0}, {"lat": 38.92846083333333, "lon": -77.0140245, "is_disabled": 0, "bike_id": "bae42bb97a36b0962ad2537cdc4d5a77", "name": "bae42bb97a36b0962ad2537cdc4d5a77", "is_reserved": 0, "rental_uris": {"android": "https://dc.lft.to/lastmile_qr_scan", "ios": "https://dc.lft.to/lastmile_qr_scan"}, "type": "electric_scooter", "fusion_lon": 0.0, "fusion_lat": 0.0}, {"lat": 38.951897333333335, "lon": -76.9354845, "is_disabled": 0, "bike_id": "aec914c6018ddca26023359e8c967550", "name": "aec914c6018ddca26023359e8c967550", "is_reserved": 0, "rental_uris": {"android": "https://dc.lft.to/lastmile_qr_scan", "ios": "https://dc.lft.to/lastmile_qr_scan"}, "type": "electric_bike", "fusion_lon": 0.0, "fusion_lat": 0.0}, {"lat": 38.925078166666665, "lon": -77.02578983333333, "is_disabled": 0, "bike_id": "5021eab5e3d898295afb453b103ffeff", "name": "5021eab5e3d898295afb453b103ffeff", "is_reserved": 0, "rental_uris": {"android": "https://dc.lft.to/lastmile_qr_scan", "ios": "https://dc.lft.to/lastmile_qr_scan"}, "type": "electric_scooter", "fusion_lon": 0.0, "fusion_lat": 0.0}, {"lat": 38.89224, "lon": -77.03987833333333, "is_disabled": 0, "bike_id": "e160c076d238619073ac068c8788ebcc", "name": "e160c076d238619073ac068c8788ebcc", "is_reserved": 0, "rental_uris": {"android": "https://dc.lft.to/lastmile_qr_scan", "ios": "https://dc.lft.to/lastmile_qr_scan"}, "type": "electric_scooter", "fusion_lon": 0.0, "fusion_lat": 0.0}, {"lat": 38.918188666666666, "lon": -77.04001483333333, "is_disabled": 0, "bike_id": "c819ee399f266df287d212cc1a1fe608", "name": "c819ee399f266df287d212cc1a1fe608", "is_reserved": 0, "rental_uris": {"android": "https://dc.lft.to/lastmile_qr_scan", "ios": "https://dc.lft.to/lastmile_qr_scan"}, "type": "electric_scooter", "fusion_lon": 0.0, "fusion_lat": 0.0}, {"lat": 38.923782, "lon": -77.0191535, "is_disabled": 0, "bike_id": "50e5bfc2db03ca4394cdf595ce94fc2d", "name": "50e5bfc2db03ca4394cdf595ce94fc2d", "is_reserved": 0, "rental_uris": {"android": "https://dc.lft.to/lastmile_qr_scan", "ios": "https://dc.lft.to/lastmile_qr_scan"}, "type": "electric_scooter", "fusion_lon": 0.0, "fusion_lat": 0.0}, {"lat": 38.9200375, "lon": -77.02152683333334, "is_disabled": 0, "bike_id": "5f146ffdf608d60b11c21ea80bfc434e", "name": "5f146ffdf608d60b11c21ea80bfc434e", "is_reserved": 0, "rental_uris": {"android": "https://dc.lft.to/lastmile_qr_scan", "ios": "https://dc.lft.to/lastmile_qr_scan"}, "type": "electric_scooter", "fusion_lon": 0.0, "fusion_lat": 0.0}, {"lat": 38.92875033333333, "lon": -77.03344816666667, "is_disabled": 0, "bike_id": "a3c8a4d1e635a90f089980312a4a5b30", "name": "a3c8a4d1e635a90f089980312a4a5b30", "is_reserved": 0, "rental_uris": {"android": "https://dc.lft.to/lastmile_qr_scan", "ios": "https://dc.lft.to/lastmile_qr_scan"}, "type": "electric_scooter", "fusion_lon": 0.0, "fusion_lat": 0.0}, {"lat": 38.910886166666664, "lon": -77.04479916666666, "is_disabled": 0, "bike_id": "8a5f165d7aa1be0dc9c24d0e68a63356", "name": "8a5f165d7aa1be0dc9c24d0e68a63356", "is_reserved": 0, "rental_uris": {"android": "https://dc.lft.to/lastmile_qr_scan", "ios": "https://dc.lft.to/lastmile_qr_scan"}, "type": "electric_scooter", "fusion_lon": 0.0, "fusion_lat": 0.0}, {"lat": 38.91567583333333, "lon": -77.01202316666667, "is_disabled": 0, "bike_id": "2285e47d51ee1e5a2109b92581b8f71b", "name": "2285e47d51ee1e5a2109b92581b8f71b", "is_reserved": 0, "rental_uris": {"android": "https://dc.lft.to/lastmile_qr_scan", "ios": "https://dc.lft.to/lastmile_qr_scan"}, "type": "electric_scooter", "fusion_lon": 0.0, "fusion_lat": 0.0}, {"lat": 38.92779866666667, "lon": -77.02043533333334, "is_disabled": 0, "bike_id": "bfa61c6b2a5424049112dea16e4de01a", "name": "bfa61c6b2a5424049112dea16e4de01a", "is_reserved": 0, "rental_uris": {"android": "https://dc.lft.to/lastmile_qr_scan", "ios": "https://dc.lft.to/lastmile_qr_scan"}, "type": "electric_scooter", "fusion_lon": 0.0, "fusion_lat": 0.0}, {"lat": 38.918239666666665, "lon": -77.02421466666667, "is_disabled": 0, "bike_id": "098aa88d01ae3c77bedf64e2b48f656e", "name": "098aa88d01ae3c77bedf64e2b48f656e", "is_reserved": 0, "rental_uris": {"android": "https://dc.lft.to/lastmile_qr_scan", "ios": "https://dc.lft.to/lastmile_qr_scan"}, "type": "electric_scooter", "fusion_lon": 0.0, "fusion_lat": 0.0}, {"lat": 38.90276583333333, "lon": -77.05796283333333, "is_disabled": 0, "bike_id": "93e810ff2e860614d2bfe80b7617ca58", "name": "93e810ff2e860614d2bfe80b7617ca58", "is_reserved": 0, "rental_uris": {"android": "https://dc.lft.to/lastmile_qr_scan", "ios": "https://dc.lft.to/lastmile_qr_scan"}, "type": "electric_scooter", "fusion_lon": 0.0, "fusion_lat": 0.0}, {"lat": 38.867261666666664, "lon": -76.98957883333334, "is_disabled": 0, "bike_id": "1d28e0a5215ba74ffa65715a645f29f9", "name": "1d28e0a5215ba74ffa65715a645f29f9", "is_reserved": 0, "rental_uris": {"android": "https://dc.lft.to/lastmile_qr_scan", "ios": "https://dc.lft.to/lastmile_qr_scan"}, "type": "electric_bike", "fusion_lon": 0.0, "fusion_lat": 0.0}, {"lat": 38.90372266666667, "lon": -77.01746516666667, "is_disabled": 0, "bike_id": "5ea26537b0486cc05dfec665e96d3f6f", "name": "5ea26537b0486cc05dfec665e96d3f6f", "is_reserved": 0, "rental_uris": {"android": "https://dc.lft.to/lastmile_qr_scan", "ios": "https://dc.lft.to/lastmile_qr_scan"}, "type": "electric_scooter", "fusion_lon": 0.0, "fusion_lat": 0.0}, {"lat": 38.91197066666667, "lon": -77.03218533333333, "is_disabled": 0, "bike_id": "d623a14dc6d30f13e8b07db292d36f57", "name": "d623a14dc6d30f13e8b07db292d36f57", "is_reserved": 0, "rental_uris": {"android": "https://dc.lft.to/lastmile_qr_scan", "ios": "https://dc.lft.to/lastmile_qr_scan"}, "type": "electric_scooter", "fusion_lon": 0.0, "fusion_lat": 0.0}, {"lat": 38.91353983333333, "lon": -77.031841, "is_disabled": 0, "bike_id": "1062e5f6b76fe8e012548ec326220f79", "name": "1062e5f6b76fe8e012548ec326220f79", "is_reserved": 0, "rental_uris": {"android": "https://dc.lft.to/lastmile_qr_scan", "ios": "https://dc.lft.to/lastmile_qr_scan"}, "type": "electric_scooter", "fusion_lon": 0.0, "fusion_lat": 0.0}, {"lat": 38.918180166666666, "lon": -77.04974583333333, "is_disabled": 0, "bike_id": "49bfa29ffa333518104b8f1c703960be", "name": "49bfa29ffa333518104b8f1c703960be", "is_reserved": 0, "rental_uris": {"android": "https://dc.lft.to/lastmile_qr_scan", "ios": "https://dc.lft.to/lastmile_qr_scan"}, "type": "electric_scooter", "fusion_lon": 0.0, "fusion_lat": 0.0}, {"lat": 38.917212666666664, "lon": -77.0385865, "is_disabled": 0, "bike_id": "8cfee3c7e2242a396f071a75e0c54250", "name": "8cfee3c7e2242a396f071a75e0c54250", "is_reserved": 0, "rental_uris": {"android": "https://dc.lft.to/lastmile_qr_scan", "ios": "https://dc.lft.to/lastmile_qr_scan"}, "type": "electric_scooter", "fusion_lon": 0.0, "fusion_lat": 0.0}, {"lat": 38.902104666666666, "lon": -77.0232125, "is_disabled": 0, "bike_id": "23b8e000737e6d0e657d3583405b59d8", "name": "23b8e000737e6d0e657d3583405b59d8", "is_reserved": 0, "rental_uris": {"android": "https://dc.lft.to/lastmile_qr_scan", "ios": "https://dc.lft.to/lastmile_qr_scan"}, "type": "electric_scooter", "fusion_lon": 0.0, "fusion_lat": 0.0}, {"lat": 38.87446166666667, "lon": -77.0005855, "is_disabled": 0, "bike_id": "741ac95c950bc9360c194c92f742d318", "name": "741ac95c950bc9360c194c92f742d318", "is_reserved": 0, "rental_uris": {"android": "https://dc.lft.to/lastmile_qr_scan", "ios": "https://dc.lft.to/lastmile_qr_scan"}, "type": "electric_scooter", "fusion_lon": 0.0, "fusion_lat": 0.0}, {"lat": 38.8992785, "lon": -76.94577683333333, "is_disabled": 0, "bike_id": "33703b9e98b4417e984af04e2615fa78", "name": "33703b9e98b4417e984af04e2615fa78", "is_reserved": 0, "rental_uris": {"android": "https://dc.lft.to/lastmile_qr_scan", "ios": "https://dc.lft.to/lastmile_qr_scan"}, "type": "electric_scooter", "fusion_lon": 0.0, "fusion_lat": 0.0}, {"lat": 38.9563875, "lon": -76.93872216666666, "is_disabled": 0, "bike_id": "95889f9f3b40940220e45045525e2cfb", "name": "95889f9f3b40940220e45045525e2cfb", "is_reserved": 0, "rental_uris": {"android": "https://dc.lft.to/lastmile_qr_scan", "ios": "https://dc.lft.to/lastmile_qr_scan"}, "type": "electric_bike", "fusion_lon": 0.0, "fusion_lat": 0.0}, {"lat": 38.904806, "lon": -76.9840995, "is_disabled": 0, "bike_id": "3f2200e375bf4caf77ee944cf2e86f80", "name": "3f2200e375bf4caf77ee944cf2e86f80", "is_reserved": 0, "rental_uris": {"android": "https://dc.lft.to/lastmile_qr_scan", "ios": "https://dc.lft.to/lastmile_qr_scan"}, "type": "electric_scooter", "fusion_lon": 0.0, "fusion_lat": 0.0}, {"lat": 38.907449166666666, "lon": -77.0051435, "is_disabled": 0, "bike_id": "209dab05aa08348bf64f9f8b0ff9131a", "name": "209dab05aa08348bf64f9f8b0ff9131a", "is_reserved": 0, "rental_uris": {"android": "https://dc.lft.to/lastmile_qr_scan", "ios": "https://dc.lft.to/lastmile_qr_scan"}, "type": "electric_scooter", "fusion_lon": 0.0, "fusion_lat": 0.0}, {"lat": 39.0262685, "lon": -77.03880783333334, "is_disabled": 0, "bike_id": "9ea189ce7f23740418ce89203b979c69", "name": "9ea189ce7f23740418ce89203b979c69", "is_reserved": 0, "rental_uris": {"android": "https://dc.lft.to/lastmile_qr_scan", "ios": "https://dc.lft.to/lastmile_qr_scan"}, "type": "electric_bike", "fusion_lon": 0.0, "fusion_lat": 0.0}, {"lat": 38.8579045, "lon": -76.987513, "is_disabled": 0, "bike_id": "4eb0f494f013b76d246bad8417c28afa", "name": "4eb0f494f013b76d246bad8417c28afa", "is_reserved": 0, "rental_uris": {"android": "https://dc.lft.to/lastmile_qr_scan", "ios": "https://dc.lft.to/lastmile_qr_scan"}, "type": "electric_bike", "fusion_lon": 0.0, "fusion_lat": 0.0}, {"lat": 38.916593166666665, "lon": -77.04173233333333, "is_disabled": 0, "bike_id": "bd775e33c33122919dda6cb7d3f1f4f6", "name": "bd775e33c33122919dda6cb7d3f1f4f6", "is_reserved": 0, "rental_uris": {"android": "https://dc.lft.to/lastmile_qr_scan", "ios": "https://dc.lft.to/lastmile_qr_scan"}, "type": "electric_scooter", "fusion_lon": 0.0, "fusion_lat": 0.0}, {"lat": 38.91320566666667, "lon": -77.0286365, "is_disabled": 0, "bike_id": "9db407dd6ccb93678212ca4c0a1bcd30", "name": "9db407dd6ccb93678212ca4c0a1bcd30", "is_reserved": 0, "rental_uris": {"android": "https://dc.lft.to/lastmile_qr_scan", "ios": "https://dc.lft.to/lastmile_qr_scan"}, "type": "electric_scooter", "fusion_lon": 0.0, "fusion_lat": 0.0}, {"lat": 38.95245333333333, "lon": -76.97951433333333, "is_disabled": 0, "bike_id": "25809f04bbb87c5bc211649f0a44d984", "name": "25809f04bbb87c5bc211649f0a44d984", "is_reserved": 0, "rental_uris": {"android": "https://dc.lft.to/lastmile_qr_scan", "ios": "https://dc.lft.to/lastmile_qr_scan"}, "type": "electric_bike", "fusion_lon": 0.0, "fusion_lat": 0.0}, {"lat": 38.82053916666667, "lon": -77.05364283333333, "is_disabled": 0, "bike_id": "e351c896a7a0fc2917c80fc5cc2e5459", "name": "e351c896a7a0fc2917c80fc5cc2e5459", "is_reserved": 0, "rental_uris": {"android": "https://dc.lft.to/lastmile_qr_scan", "ios": "https://dc.lft.to/lastmile_qr_scan"}, "type": "electric_bike", "fusion_lon": 0.0, "fusion_lat": 0.0}, {"lat": 38.92619833333333, "lon": -77.02162733333333, "is_disabled": 0, "bike_id": "7fa0e5f5337758d0cc6b0711a9ff8601", "name": "7fa0e5f5337758d0cc6b0711a9ff8601", "is_reserved": 0, "rental_uris": {"android": "https://dc.lft.to/lastmile_qr_scan", "ios": "https://dc.lft.to/lastmile_qr_scan"}, "type": "electric_scooter", "fusion_lon": 0.0, "fusion_lat": 0.0}, {"lat": 38.86551333333333, "lon": -76.941511, "is_disabled": 0, "bike_id": "1263592ffeb10a01895c23897a6a611c", "name": "1263592ffeb10a01895c23897a6a611c", "is_reserved": 0, "rental_uris": {"android": "https://dc.lft.to/lastmile_qr_scan", "ios": "https://dc.lft.to/lastmile_qr_scan"}, "type": "electric_bike", "fusion_lon": 0.0, "fusion_lat": 0.0}, {"lat": 38.9202125, "lon": -77.07172183333333, "is_disabled": 0, "bike_id": "dc956336ecf9e9b7faa2fe018c133370", "name": "dc956336ecf9e9b7faa2fe018c133370", "is_reserved": 0, "rental_uris": {"android": "https://dc.lft.to/lastmile_qr_scan", "ios": "https://dc.lft.to/lastmile_qr_scan"}, "type": "electric_scooter", "fusion_lon": 0.0, "fusion_lat": 0.0}, {"lat": 38.92374316666667, "lon": -77.01943483333334, "is_disabled": 0, "bike_id": "8c3fb634be6f77c202e47d32324a2349", "name": "8c3fb634be6f77c202e47d32324a2349", "is_reserved": 0, "rental_uris": {"android": "https://dc.lft.to/lastmile_qr_scan", "ios": "https://dc.lft.to/lastmile_qr_scan"}, "type": "electric_scooter", "fusion_lon": 0.0, "fusion_lat": 0.0}, {"lat": 38.91142166666667, "lon": -77.02803933333334, "is_disabled": 0, "bike_id": "2ac91548d93d01e17232272c46f53dbc", "name": "2ac91548d93d01e17232272c46f53dbc", "is_reserved": 0, "rental_uris": {"android": "https://dc.lft.to/lastmile_qr_scan", "ios": "https://dc.lft.to/lastmile_qr_scan"}, "type": "electric_scooter", "fusion_lon": 0.0, "fusion_lat": 0.0}, {"lat": 38.91862016666666, "lon": -77.02597433333334, "is_disabled": 0, "bike_id": "933272220cb9aeea5810d9dd11c74894", "name": "933272220cb9aeea5810d9dd11c74894", "is_reserved": 0, "rental_uris": {"android": "https://dc.lft.to/lastmile_qr_scan", "ios": "https://dc.lft.to/lastmile_qr_scan"}, "type": "electric_scooter", "fusion_lon": 0.0, "fusion_lat": 0.0}, {"lat": 38.9189035, "lon": -77.04127333333334, "is_disabled": 0, "bike_id": "ba712501b9a166d56b947bd3804bad9b", "name": "ba712501b9a166d56b947bd3804bad9b", "is_reserved": 0, "rental_uris": {"android": "https://dc.lft.to/lastmile_qr_scan", "ios": "https://dc.lft.to/lastmile_qr_scan"}, "type": "electric_scooter", "fusion_lon": 0.0, "fusion_lat": 0.0}, {"lat": 38.924166166666666, "lon": -77.036379, "is_disabled": 0, "bike_id": "9c10776609aef9bf60326e03a3a2b1e5", "name": "9c10776609aef9bf60326e03a3a2b1e5", "is_reserved": 0, "rental_uris": {"android": "https://dc.lft.to/lastmile_qr_scan", "ios": "https://dc.lft.to/lastmile_qr_scan"}, "type": "electric_scooter", "fusion_lon": 0.0, "fusion_lat": 0.0}, {"lat": 38.899387, "lon": -77.02990416666667, "is_disabled": 0, "bike_id": "02f238fc71979676ecd64b890e093f8b", "name": "02f238fc71979676ecd64b890e093f8b", "is_reserved": 0, "rental_uris": {"android": "https://dc.lft.to/lastmile_qr_scan", "ios": "https://dc.lft.to/lastmile_qr_scan"}, "type": "electric_scooter", "fusion_lon": 0.0, "fusion_lat": 0.0}, {"lat": 38.924300333333335, "lon": -77.02132483333334, "is_disabled": 0, "bike_id": "bb6c942354c957a03278494b596a2046", "name": "bb6c942354c957a03278494b596a2046", "is_reserved": 0, "rental_uris": {"android": "https://dc.lft.to/lastmile_qr_scan", "ios": "https://dc.lft.to/lastmile_qr_scan"}, "type": "electric_scooter", "fusion_lon": 0.0, "fusion_lat": 0.0}, {"lat": 38.91080483333333, "lon": -77.01610316666667, "is_disabled": 0, "bike_id": "9c4dcd93a21fe12d7cd1ee7ed89e0f2e", "name": "9c4dcd93a21fe12d7cd1ee7ed89e0f2e", "is_reserved": 0, "rental_uris": {"android": "https://dc.lft.to/lastmile_qr_scan", "ios": "https://dc.lft.to/lastmile_qr_scan"}, "type": "electric_scooter", "fusion_lon": 0.0, "fusion_lat": 0.0}, {"lat": 38.9165665, "lon": -77.02270716666666, "is_disabled": 0, "bike_id": "fb543ed2db593a6cd3bb401954dcbdf3", "name": "fb543ed2db593a6cd3bb401954dcbdf3", "is_reserved": 0, "rental_uris": {"android": "https://dc.lft.to/lastmile_qr_scan", "ios": "https://dc.lft.to/lastmile_qr_scan"}, "type": "electric_scooter", "fusion_lon": 0.0, "fusion_lat": 0.0}, {"lat": 38.9007615, "lon": -77.05071616666666, "is_disabled": 0, "bike_id": "9521212a6335bb9af9ae1932247ccecd", "name": "9521212a6335bb9af9ae1932247ccecd", "is_reserved": 0, "rental_uris": {"android": "https://dc.lft.to/lastmile_qr_scan", "ios": "https://dc.lft.to/lastmile_qr_scan"}, "type": "electric_scooter", "fusion_lon": 0.0, "fusion_lat": 0.0}, {"lat": 38.92665066666667, "lon": -77.03725333333334, "is_disabled": 0, "bike_id": "6862c3665d853474cb96507741223ed6", "name": "6862c3665d853474cb96507741223ed6", "is_reserved": 0, "rental_uris": {"android": "https://dc.lft.to/lastmile_qr_scan", "ios": "https://dc.lft.to/lastmile_qr_scan"}, "type": "electric_scooter", "fusion_lon": 0.0, "fusion_lat": 0.0}, {"lat": 38.9354495, "lon": -77.03085283333333, "is_disabled": 0, "bike_id": "9af28c5051d899ce665e8bdc55265866", "name": "9af28c5051d899ce665e8bdc55265866", "is_reserved": 0, "rental_uris": {"android": "https://dc.lft.to/lastmile_qr_scan", "ios": "https://dc.lft.to/lastmile_qr_scan"}, "type": "electric_scooter", "fusion_lon": 0.0, "fusion_lat": 0.0}, {"lat": 38.923666, "lon": -77.019539, "is_disabled": 0, "bike_id": "64cf00c71b8c802ae5ec56e459fbc27a", "name": "64cf00c71b8c802ae5ec56e459fbc27a", "is_reserved": 0, "rental_uris": {"android": "https://dc.lft.to/lastmile_qr_scan", "ios": "https://dc.lft.to/lastmile_qr_scan"}, "type": "electric_scooter", "fusion_lon": 0.0, "fusion_lat": 0.0}, {"lat": 38.911045333333334, "lon": -77.009382, "is_disabled": 0, "bike_id": "41092396717a86f6a9eade051bdf8293", "name": "41092396717a86f6a9eade051bdf8293", "is_reserved": 0, "rental_uris": {"android": "https://dc.lft.to/lastmile_qr_scan", "ios": "https://dc.lft.to/lastmile_qr_scan"}, "type": "electric_scooter", "fusion_lon": 0.0, "fusion_lat": 0.0}, {"lat": 38.898549, "lon": -77.024, "is_disabled": 0, "bike_id": "dfa4d5be5f12ae03e52cec6e6f81c3c4", "name": "dfa4d5be5f12ae03e52cec6e6f81c3c4", "is_reserved": 0, "rental_uris": {"android": "https://dc.lft.to/lastmile_qr_scan", "ios": "https://dc.lft.to/lastmile_qr_scan"}, "type": "electric_scooter", "fusion_lon": 0.0, "fusion_lat": 0.0}, {"lat": 38.9051015, "lon": -76.98486416666667, "is_disabled": 0, "bike_id": "d26756b6082a44f2bac58ec6fe8d0ef6", "name": "d26756b6082a44f2bac58ec6fe8d0ef6", "is_reserved": 0, "rental_uris": {"android": "https://dc.lft.to/lastmile_qr_scan", "ios": "https://dc.lft.to/lastmile_qr_scan"}, "type": "electric_scooter", "fusion_lon": 0.0, "fusion_lat": 0.0}, {"lat": 38.933330166666664, "lon": -77.072528, "is_disabled": 0, "bike_id": "b4df6f80cfc67c670a06b65a8daa2e73", "name": "b4df6f80cfc67c670a06b65a8daa2e73", "is_reserved": 0, "rental_uris": {"android": "https://dc.lft.to/lastmile_qr_scan", "ios": "https://dc.lft.to/lastmile_qr_scan"}, "type": "electric_scooter", "fusion_lon": 0.0, "fusion_lat": 0.0}, {"lat": 38.87848916666667, "lon": -77.00692733333334, "is_disabled": 0, "bike_id": "60c3028325d4795bf3a0ec53505ad0b6", "name": "60c3028325d4795bf3a0ec53505ad0b6", "is_reserved": 0, "rental_uris": {"android": "https://dc.lft.to/lastmile_qr_scan", "ios": "https://dc.lft.to/lastmile_qr_scan"}, "type": "electric_scooter", "fusion_lon": 0.0, "fusion_lat": 0.0}, {"lat": 38.923342166666664, "lon": -77.0366735, "is_disabled": 0, "bike_id": "9ca08dd3543ec2af5a1c5d128be1aa7d", "name": "9ca08dd3543ec2af5a1c5d128be1aa7d", "is_reserved": 0, "rental_uris": {"android": "https://dc.lft.to/lastmile_qr_scan", "ios": "https://dc.lft.to/lastmile_qr_scan"}, "type": "electric_scooter", "fusion_lon": 0.0, "fusion_lat": 0.0}, {"lat": 38.91314883333333, "lon": -77.0622685, "is_disabled": 0, "bike_id": "9cd625f4717710eea81cbb5064ec1950", "name": "9cd625f4717710eea81cbb5064ec1950", "is_reserved": 0, "rental_uris": {"android": "https://dc.lft.to/lastmile_qr_scan", "ios": "https://dc.lft.to/lastmile_qr_scan"}, "type": "electric_scooter", "fusion_lon": 0.0, "fusion_lat": 0.0}, {"lat": 38.929159, "lon": -77.0326925, "is_disabled": 0, "bike_id": "01641fa9e38909ef55c67dcf0ab71866", "name": "01641fa9e38909ef55c67dcf0ab71866", "is_reserved": 0, "rental_uris": {"android": "https://dc.lft.to/lastmile_qr_scan", "ios": "https://dc.lft.to/lastmile_qr_scan"}, "type": "electric_scooter", "fusion_lon": 0.0, "fusion_lat": 0.0}, {"lat": 38.94197366666667, "lon": -77.0284385, "is_disabled": 0, "bike_id": "1f84991715d77214a4a75e4b9a016812", "name": "1f84991715d77214a4a75e4b9a016812", "is_reserved": 0, "rental_uris": {"android": "https://dc.lft.to/lastmile_qr_scan", "ios": "https://dc.lft.to/lastmile_qr_scan"}, "type": "electric_scooter", "fusion_lon": 0.0, "fusion_lat": 0.0}, {"lat": 38.9003885, "lon": -77.00203, "is_disabled": 0, "bike_id": "d07d510320d1162e208509ee97fa0907", "name": "d07d510320d1162e208509ee97fa0907", "is_reserved": 0, "rental_uris": {"android": "https://dc.lft.to/lastmile_qr_scan", "ios": "https://dc.lft.to/lastmile_qr_scan"}, "type": "electric_scooter", "fusion_lon": 0.0, "fusion_lat": 0.0}, {"lat": 38.90020366666667, "lon": -76.99381, "is_disabled": 0, "bike_id": "219c7be641aba8a30e19671f9a139615", "name": "219c7be641aba8a30e19671f9a139615", "is_reserved": 0, "rental_uris": {"android": "https://dc.lft.to/lastmile_qr_scan", "ios": "https://dc.lft.to/lastmile_qr_scan"}, "type": "electric_scooter", "fusion_lon": 0.0, "fusion_lat": 0.0}, {"lat": 38.8973435, "lon": -77.05475216666666, "is_disabled": 0, "bike_id": "46493c995b1bc56615dc08188911160c", "name": "46493c995b1bc56615dc08188911160c", "is_reserved": 0, "rental_uris": {"android": "https://dc.lft.to/lastmile_qr_scan", "ios": "https://dc.lft.to/lastmile_qr_scan"}, "type": "electric_scooter", "fusion_lon": 0.0, "fusion_lat": 0.0}, {"lat": 38.92795316666667, "lon": -77.031498, "is_disabled": 0, "bike_id": "26bb1fe0ccac82b260e1eafdcafa26db", "name": "26bb1fe0ccac82b260e1eafdcafa26db", "is_reserved": 0, "rental_uris": {"android": "https://dc.lft.to/lastmile_qr_scan", "ios": "https://dc.lft.to/lastmile_qr_scan"}, "type": "electric_scooter", "fusion_lon": 0.0, "fusion_lat": 0.0}, {"lat": 38.8935375, "lon": -77.041924, "is_disabled": 0, "bike_id": "996bd8869107bcbff7df8486385631c4", "name": "996bd8869107bcbff7df8486385631c4", "is_reserved": 0, "rental_uris": {"android": "https://dc.lft.to/lastmile_qr_scan", "ios": "https://dc.lft.to/lastmile_qr_scan"}, "type": "electric_scooter", "fusion_lon": 0.0, "fusion_lat": 0.0}, {"lat": 38.90736116666667, "lon": -77.01718466666667, "is_disabled": 0, "bike_id": "7871df07dae064c1c017b3e6ea5a452e", "name": "7871df07dae064c1c017b3e6ea5a452e", "is_reserved": 0, "rental_uris": {"android": "https://dc.lft.to/lastmile_qr_scan", "ios": "https://dc.lft.to/lastmile_qr_scan"}, "type": "electric_scooter", "fusion_lon": 0.0, "fusion_lat": 0.0}, {"lat": 38.917853, "lon": -77.02308866666667, "is_disabled": 0, "bike_id": "9ea961c67afd84ba94724447690e85e5", "name": "9ea961c67afd84ba94724447690e85e5", "is_reserved": 0, "rental_uris": {"android": "https://dc.lft.to/lastmile_qr_scan", "ios": "https://dc.lft.to/lastmile_qr_scan"}, "type": "electric_scooter", "fusion_lon": 0.0, "fusion_lat": 0.0}, {"lat": 38.89878183333333, "lon": -77.04662466666667, "is_disabled": 0, "bike_id": "d40e77ab732e118d608093ff5009e18d", "name": "d40e77ab732e118d608093ff5009e18d", "is_reserved": 0, "rental_uris": {"android": "https://dc.lft.to/lastmile_qr_scan", "ios": "https://dc.lft.to/lastmile_qr_scan"}, "type": "electric_scooter", "fusion_lon": 0.0, "fusion_lat": 0.0}, {"lat": 38.8943285, "lon": -77.044835, "is_disabled": 0, "bike_id": "44b64ffae70f4d238dfc1dd51dc30853", "name": "44b64ffae70f4d238dfc1dd51dc30853", "is_reserved": 0, "rental_uris": {"android": "https://dc.lft.to/lastmile_qr_scan", "ios": "https://dc.lft.to/lastmile_qr_scan"}, "type": "electric_scooter", "fusion_lon": 0.0, "fusion_lat": 0.0}, {"lat": 38.92320466666666, "lon": -77.043704, "is_disabled": 0, "bike_id": "bffa0dd30dbd9a3fc483d8fe9be7e60a", "name": "bffa0dd30dbd9a3fc483d8fe9be7e60a", "is_reserved": 0, "rental_uris": {"android": "https://dc.lft.to/lastmile_qr_scan", "ios": "https://dc.lft.to/lastmile_qr_scan"}, "type": "electric_scooter", "fusion_lon": 0.0, "fusion_lat": 0.0}, {"lat": 38.876616166666665, "lon": -77.00740183333333, "is_disabled": 0, "bike_id": "01a64f7a8d0db83de4ed5cdb1540a2eb", "name": "01a64f7a8d0db83de4ed5cdb1540a2eb", "is_reserved": 0, "rental_uris": {"android": "https://dc.lft.to/lastmile_qr_scan", "ios": "https://dc.lft.to/lastmile_qr_scan"}, "type": "electric_scooter", "fusion_lon": 0.0, "fusion_lat": 0.0}, {"lat": 38.913409333333334, "lon": -77.00337283333333, "is_disabled": 0, "bike_id": "1bb2dc8ffdb098861121a87f5f214a15", "name": "1bb2dc8ffdb098861121a87f5f214a15", "is_reserved": 0, "rental_uris": {"android": "https://dc.lft.to/lastmile_qr_scan", "ios": "https://dc.lft.to/lastmile_qr_scan"}, "type": "electric_scooter", "fusion_lon": 0.0, "fusion_lat": 0.0}, {"lat": 38.89984366666667, "lon": -77.02610433333334, "is_disabled": 0, "bike_id": "fde33728dc25fd102fc18727186a1015", "name": "fde33728dc25fd102fc18727186a1015", "is_reserved": 0, "rental_uris": {"android": "https://dc.lft.to/lastmile_qr_scan", "ios": "https://dc.lft.to/lastmile_qr_scan"}, "type": "electric_scooter", "fusion_lon": 0.0, "fusion_lat": 0.0}, {"lat": 38.916904333333335, "lon": -77.02712316666667, "is_disabled": 0, "bike_id": "acaa67283bef46b7ec7d93d3fa712487", "name": "acaa67283bef46b7ec7d93d3fa712487", "is_reserved": 0, "rental_uris": {"android": "https://dc.lft.to/lastmile_qr_scan", "ios": "https://dc.lft.to/lastmile_qr_scan"}, "type": "electric_scooter", "fusion_lon": 0.0, "fusion_lat": 0.0}, {"lat": 38.926209, "lon": -77.0216575, "is_disabled": 0, "bike_id": "22f4c845ae67fe2f4d5d75c45e566238", "name": "22f4c845ae67fe2f4d5d75c45e566238", "is_reserved": 0, "rental_uris": {"android": "https://dc.lft.to/lastmile_qr_scan", "ios": "https://dc.lft.to/lastmile_qr_scan"}, "type": "electric_scooter", "fusion_lon": 0.0, "fusion_lat": 0.0}, {"lat": 38.89033216666667, "lon": -76.9446345, "is_disabled": 0, "bike_id": "e8853c7d1ada7db5a468ecf5658fc7a1", "name": "e8853c7d1ada7db5a468ecf5658fc7a1", "is_reserved": 0, "rental_uris": {"android": "https://dc.lft.to/lastmile_qr_scan", "ios": "https://dc.lft.to/lastmile_qr_scan"}, "type": "electric_scooter", "fusion_lon": 0.0, "fusion_lat": 0.0}, {"lat": 38.81941033333333, "lon": -77.00199583333334, "is_disabled": 0, "bike_id": "aee441b3e38e08dba3eecbb21aa554a0", "name": "aee441b3e38e08dba3eecbb21aa554a0", "is_reserved": 0, "rental_uris": {"android": "https://dc.lft.to/lastmile_qr_scan", "ios": "https://dc.lft.to/lastmile_qr_scan"}, "type": "electric_bike", "fusion_lon": 0.0, "fusion_lat": 0.0}, {"lat": 38.93209616666667, "lon": -77.018684, "is_disabled": 0, "bike_id": "06578318f801a982bdd48ea7b2b65c97", "name": "06578318f801a982bdd48ea7b2b65c97", "is_reserved": 0, "rental_uris": {"android": "https://dc.lft.to/lastmile_qr_scan", "ios": "https://dc.lft.to/lastmile_qr_scan"}, "type": "electric_scooter", "fusion_lon": 0.0, "fusion_lat": 0.0}, {"lat": 38.91681116666667, "lon": -77.026065, "is_disabled": 0, "bike_id": "bdbcf9953e83346119f5234192374032", "name": "bdbcf9953e83346119f5234192374032", "is_reserved": 0, "rental_uris": {"android": "https://dc.lft.to/lastmile_qr_scan", "ios": "https://dc.lft.to/lastmile_qr_scan"}, "type": "electric_scooter", "fusion_lon": 0.0, "fusion_lat": 0.0}, {"lat": 38.902032, "lon": -77.0480775, "is_disabled": 0, "bike_id": "50a6bb1b976ce10ec01c8a857e6a177b", "name": "50a6bb1b976ce10ec01c8a857e6a177b", "is_reserved": 0, "rental_uris": {"android": "https://dc.lft.to/lastmile_qr_scan", "ios": "https://dc.lft.to/lastmile_qr_scan"}, "type": "electric_scooter", "fusion_lon": 0.0, "fusion_lat": 0.0}, {"lat": 38.904257666666666, "lon": -77.02648266666667, "is_disabled": 0, "bike_id": "b37b40d9af487f26a6aed987e3bab0be", "name": "b37b40d9af487f26a6aed987e3bab0be", "is_reserved": 0, "rental_uris": {"android": "https://dc.lft.to/lastmile_qr_scan", "ios": "https://dc.lft.to/lastmile_qr_scan"}, "type": "electric_scooter", "fusion_lon": 0.0, "fusion_lat": 0.0}, {"lat": 38.93967266666667, "lon": -76.9913225, "is_disabled": 0, "bike_id": "4391dabf62e9e126da032adc10cafdcc", "name": "4391dabf62e9e126da032adc10cafdcc", "is_reserved": 0, "rental_uris": {"android": "https://dc.lft.to/lastmile_qr_scan", "ios": "https://dc.lft.to/lastmile_qr_scan"}, "type": "electric_bike", "fusion_lon": 0.0, "fusion_lat": 0.0},