{"data": {"bikes": [{"lat": 39.05194616666667, "is_disabled": 0, "type": "electric_bike", "lon": -77.10917333333333, "bike_id": "6dec70b33d6cdc8a33caef25e877951e", "fusion_lat": 0.0, "name": "6dec70b33d6cdc8a33caef25e877951e", "is_reserved": 0, "rental_uris": {"android": "https://dc.lft.to/lastmile_qr_scan", "ios": "https://dc.lft.to/lastmile_qr_scan"}, "fusion_lon": 0.0}, {"lat": 38.91711266666667, "is_disabled": 0, "type": "electric_scooter", "lon": -77.03109716666667, "bike_id": "aca820d1b38cd5d5eade31d46fa52884", "fusion_lat": 0.0, "name": "aca820d1b38cd5d5eade31d46fa52884", "is_reserved": 0, "rental_uris": {"android": "https://dc.lft.to/lastmile_qr_scan", "ios": "https://dc.lft.to/lastmile_qr_scan"}, "fusion_lon": 0.0}, {"lat": 38.90020833333333, "is_disabled": 0, "type": "electric_scooter", "lon": -77.01175683333334, "bike_id": "5f6823f26000a2e2fe0711c34873c954", "fusion_lat": 0.0, "name": "5f6823f26000a2e2fe0711c34873c954", "is_reserved": 0, "rental_uris": {"android": "https://dc.lft.to/lastmile_qr_scan", "ios": "https://dc.lft.to/lastmile_qr_scan"}, "fusion_lon": 0.0}, {"lat": 38.8921935, "is_disabled": 0, "type": "electric_scooter", "lon": -77.04659466666666, "bike_id": "12cd6d0cf905d4641aae5f86ae306610", "fusion_lat": 0.0, "name": "12cd6d0cf905d4641aae5f86ae306610", "is_reserved": 0, "rental_uris": {"android": "https://dc.lft.to/lastmile_qr_scan", "ios": "https://dc.lft.to/lastmile_qr_scan"}, "fusion_lon": 0.0}, {"lat": 38.8769075, "is_disabled": 0, "type": "electric_scooter", "lon": -77.00740733333333, "bike_id": "d859a1a9e1f22a70e711081ab7cc79ad", "fusion_lat": 0.0, "name": "d859a1a9e1f22a70e711081ab7cc79ad", "is_reserved": 0, "rental_uris": {"android": "https://dc.lft.to/lastmile_qr_scan", "ios": "https://dc.lft.to/lastmile_qr_scan"}, "fusion_lon": 0.0}, {"lat": 38.90727583333333, "is_disabled": 0, "type": "electric_scooter", "lon": -77.0342985, "bike_id": "7bb5155ade73dda0a3883633fa780a5f", "fusion_lat": 0.0, "name": "7bb5155ade73dda0a3883633fa780a5f", "is_reserved": 0, "rental_uris": {"android": "https://dc.lft.to/lastmile_qr_scan", "ios": "https://dc.lft.to/lastmile_qr_scan"}, "fusion_lon": 0.0}, {"lat": 38.91216583333333, "is_disabled": 0, "type": "electric_scooter", "lon": -77.07596133333334, "bike_id": "ff8bd07a2befebbf4192a3496b7d98e9", "fusion_lat": 0.0, "name": "ff8bd07a2befebbf4192a3496b7d98e9", "is_reserved": 0, "rental_uris": {"android": "https://dc.lft.to/lastmile_qr_scan", "ios": "https://dc.lft.to/lastmile_qr_scan"}, "fusion_lon": 0.0}, {"lat": 38.90959183333333, "is_disabled": 0, "type": "electric_scooter", "lon": -77.03142866666667, "bike_id": "5fd69c60969d52697b16bb2da2e6da32", "fusion_lat": 0.0, "name": "5fd69c60969d52697b16bb2da2e6da32", "is_reserved": 0, "rental_uris": {"android": "https://dc.lft.to/lastmile_qr_scan", "ios": "https://dc.lft.to/lastmile_qr_scan"}, "fusion_lon": 0.0}, {"lat": 38.917067833333334, "is_disabled": 0, "type": "electric_scooter", "lon": -77.02660483333334, "bike_id": "1041cde7418dc849c7b18d7471cb9bbb", "fusion_lat": 0.0, "name": "1041cde7418dc849c7b18d7471cb9bbb", "is_reserved": 0, "rental_uris": {"android": "https://dc.lft.to/lastmile_qr_scan", "ios": "https://dc.lft.to/lastmile_qr_scan"}, "fusion_lon": 0.0}, {"lat": 38.9090835, "is_disabled": 0, "type": "electric_scooter", "lon": -77.04404516666666, "bike_id": "30a8f07607d60378ba30416ccf3bfbbd", "fusion_lat": 0.0, "name": "30a8f07607d60378ba30416ccf3bfbbd", "is_reserved": 0, "rental_uris": {"android": "https://dc.lft.to/lastmile_qr_scan", "ios": "https://dc.lft.to/lastmile_qr_scan"}, "fusion_lon": 0.0}, {"lat": 38.91672666666667, "is_disabled": 0, "type": "electric_scooter", "lon": -77.02953733333334, "bike_id": "45ca787c7976b546c68e36073b9d8286", "fusion_lat": 0.0, "name": "45ca787c7976b546c68e36073b9d8286", "is_reserved": 0, "rental_uris": {"android": "https://dc.lft.to/lastmile_qr_scan", "ios": "https://dc.lft.to/lastmile_qr_scan"}, "fusion_lon": 0.0}, {"lat": 38.9117305, "is_disabled": 0, "type": "electric_scooter", "lon": -77.02412216666667, "bike_id": "e3b5232b3e471441b9eb9e8543a2e0b7", "fusion_lat": 0.0, "name": "e3b5232b3e471441b9eb9e8543a2e0b7", "is_reserved": 0, "rental_uris": {"android": "https://dc.lft.to/lastmile_qr_scan", "ios": "https://dc.lft.to/lastmile_qr_scan"}, "fusion_lon": 0.0}, {"lat": 38.915791166666665, "is_disabled": 0, "type": "electric_scooter", "lon": -77.01236416666667, "bike_id": "ba9f33caaedf258ed9be1b18f3e35c64", "fusion_lat": 0.0, "name": "ba9f33caaedf258ed9be1b18f3e35c64", "is_reserved": 0, "rental_uris": {"android": "https://dc.lft.to/lastmile_qr_scan", "ios": "https://dc.lft.to/lastmile_qr_scan"}, "fusion_lon": 0.0}, {"lat": 38.9167665, "is_disabled": 0, "type": "electric_scooter", "lon": -77.027143, "bike_id": "cc29c7608382e0c5ad781727998d153d", "fusion_lat": 0.0, "name": "cc29c7608382e0c5ad781727998d153d", "is_reserved": 0, "rental_uris": {"android": "https://dc.lft.to/lastmile_qr_scan", "ios": "https://dc.lft.to/lastmile_qr_scan"}, "fusion_lon": 0.0}, {"lat": 38.91402083333333, "is_disabled": 0, "type": "electric_scooter", "lon": -77.03147333333334, "bike_id": "c8339811ed4e16546b1c5f9710a28119", "fusion_lat": 0.0, "name": "c8339811ed4e16546b1c5f9710a28119", "is_reserved": 0, "rental_uris": {"android": "https://dc.lft.to/lastmile_qr_scan", "ios": "https://dc.lft.to/lastmile_qr_scan"}, "fusion_lon": 0.0}, {"lat": 38.91400683333333, "is_disabled": 0, "type": "electric_scooter", "lon": -77.03182066666666, "bike_id": "8272ba88ec3c38a287e961a2a38df83d", "fusion_lat": 0.0, "name": "8272ba88ec3c38a287e961a2a38df83d", "is_reserved": 0, "rental_uris": {"android": "https://dc.lft.to/lastmile_qr_scan", "ios": "https://dc.lft.to/lastmile_qr_scan"}, "fusion_lon": 0.0}, {"lat": 38.903586, "is_disabled": 0, "type": "electric_scooter", "lon": -77.0411845, "bike_id": "38bd8c69e2dbf12cfb1abbf7b04a96ad", "fusion_lat": 0.0, "name": "38bd8c69e2dbf12cfb1abbf7b04a96ad", "is_reserved": 0, "rental_uris": {"android": "https://dc.lft.to/lastmile_qr_scan", "ios": "https://dc.lft.to/lastmile_qr_scan"}, "fusion_lon": 0.0}, {"lat": 38.904941, "is_disabled": 0, "type": "electric_scooter", "lon": -77.04496166666667, "bike_id": "e3f7107864d1e88fe813cee63767ab55", "fusion_lat": 0.0, "name": "e3f7107864d1e88fe813cee63767ab55", "is_reserved": 0, "rental_uris": {"android": "https://dc.lft.to/lastmile_qr_scan", "ios": "https://dc.lft.to/lastmile_qr_scan"}, "fusion_lon": 0.0}, {"lat": 38.883991, "is_disabled": 0, "type": "electric_scooter", "lon": -77.02428783333333, "bike_id": "9eb8078e50d8102a16c50b65b96e92be", "fusion_lat": 0.0, "name": "9eb8078e50d8102a16c50b65b96e92be", "is_reserved": 0, "rental_uris": {"android": "https://dc.lft.to/lastmile_qr_scan", "ios": "https://dc.lft.to/lastmile_qr_scan"}, "fusion_lon": 0.0}, {"lat": 38.918158, "is_disabled": 0, "type": "electric_scooter", "lon": -77.02579, "bike_id": "5de55d3de142c656d849eae65ff413f3", "fusion_lat": 0.0, "name": "5de55d3de142c656d849eae65ff413f3", "is_reserved": 0, "rental_uris": {"android": "https://dc.lft.to/lastmile_qr_scan", "ios": "https://dc.lft.to/lastmile_qr_scan"}, "fusion_lon": 0.0}, {"lat": 38.9237505, "is_disabled": 0, "type": "electric_scooter", "lon": -77.05255283333334, "bike_id": "5225cfab67bc66af346fd3916f0ad161", "fusion_lat": 0.0, "name": "5225cfab67bc66af346fd3916f0ad161", "is_reserved": 0, "rental_uris": {"android": "https://dc.lft.to/lastmile_qr_scan", "ios": "https://dc.lft.to/lastmile_qr_scan"}, "fusion_lon": 0.0}, {"lat": 38.92010883333333, "is_disabled": 0, "type": "electric_scooter", "lon": -77.07116366666666, "bike_id": "283ebd0163b89f5729a10408255e9257", "fusion_lat": 0.0, "name": "283ebd0163b89f5729a10408255e9257", "is_reserved": 0, "rental_uris": {"android": "https://dc.lft.to/lastmile_qr_scan", "ios": "https://dc.lft.to/lastmile_qr_scan"}, "fusion_lon": 0.0}, {"lat": 38.85646116666667, "is_disabled": 0, "type": "electric_bike", "lon": -77.11246516666667, "bike_id": "cad8921343a0c3d6ee8d53dff7385ba5", "fusion_lat": 0.0, "name": "cad8921343a0c3d6ee8d53dff7385ba5", "is_reserved": 0, "rental_uris": {"android": "https://dc.lft.to/lastmile_qr_scan", "ios": "https://dc.lft.to/lastmile_qr_scan"}, "fusion_lon": 0.0}, {"lat": 38.931073166666664, "is_disabled": 0, "type": "electric_scooter", "lon": -77.03488266666666, "bike_id": "37014fb5768421928073e595e8b96960", "fusion_lat": 0.0, "name": "37014fb5768421928073e595e8b96960", "is_reserved": 0, "rental_uris": {"android": "https://dc.lft.to/lastmile_qr_scan", "ios": "https://dc.lft.to/lastmile_qr_scan"}, "fusion_lon": 0.0}, {"lat": 38.917038, "is_disabled": 0, "type": "electric_scooter", "lon": -77.03886916666667, "bike_id": "487d2e045453c3549731938fa3a588de", "fusion_lat": 0.0, "name": "487d2e045453c3549731938fa3a588de", "is_reserved": 0, "rental_uris": {"android": "https://dc.lft.to/lastmile_qr_scan", "ios": "https://dc.lft.to/lastmile_qr_scan"}, "fusion_lon": 0.0}, {"lat": 38.84932416666667, "is_disabled": 0, "type": "electric_bike", "lon": -77.10018816666667, "bike_id": "13074d88e6f644b4d28879b3c3080d40", "fusion_lat": 0.0, "name": "13074d88e6f644b4d28879b3c3080d40", "is_reserved": 0, "rental_uris": {"android": "https://dc.lft.to/lastmile_qr_scan", "ios": "https://dc.lft.to/lastmile_qr_scan"}, "fusion_lon": 0.0}, {"lat": 38.88483733333333, "is_disabled": 0, "type": "electric_scooter", "lon": -77.015116, "bike_id": "3b2f4b44839d6af03591577641e18b3c", "fusion_lat": 0.0, "name": "3b2f4b44839d6af03591577641e18b3c", "is_reserved": 0, "rental_uris": {"android": "https://dc.lft.to/lastmile_qr_scan", "ios": "https://dc.lft.to/lastmile_qr_scan"}, "fusion_lon": 0.0}, {"lat": 38.89369083333333, "is_disabled": 0, "type": "electric_scooter", "lon": -76.95001616666667, "bike_id": "1bd55e9ad4764fc27f1d40a3e1aaec67", "fusion_lat": 0.0, "name": "1bd55e9ad4764fc27f1d40a3e1aaec67", "is_reserved": 0, "rental_uris": {"android": "https://dc.lft.to/lastmile_qr_scan", "ios": "https://dc.lft.to/lastmile_qr_scan"}, "fusion_lon": 0.0}, {"lat": 38.842751166666666, "is_disabled": 0, "type": "electric_bike", "lon": -76.9884665, "bike_id": "bc8d03bf56b370cd8f26af88799b10c5", "fusion_lat": 0.0, "name": "bc8d03bf56b370cd8f26af88799b10c5", "is_reserved": 0, "rental_uris": {"android": "https://dc.lft.to/lastmile_qr_scan", "ios": "https://dc.lft.to/lastmile_qr_scan"}, "fusion_lon": 0.0}, {"lat": 38.92227283333333, "is_disabled": 0, "type": "electric_scooter", "lon": -77.04307933333334, "bike_id": "3230a469c23a9cf2c607b68185f24e6a", "fusion_lat": 0.0, "name": "3230a469c23a9cf2c607b68185f24e6a", "is_reserved": 0, "rental_uris": {"android": "https://dc.lft.to/lastmile_qr_scan", "ios": "https://dc.lft.to/lastmile_qr_scan"}, "fusion_lon": 0.0}, {"lat": 38.92472866666667, "is_disabled": 0, "type": "electric_scooter", "lon": -77.02889666666667, "bike_id": "48965c3c3fffc292081aa0f02fe4695e", "fusion_lat": 0.0, "name": "48965c3c3fffc292081aa0f02fe4695e", "is_reserved": 0, "rental_uris": {"android": "https://dc.lft.to/lastmile_qr_scan", "ios": "https://dc.lft.to/lastmile_qr_scan"}, "fusion_lon": 0.0}, {"lat": 38.921807, "is_disabled": 0, "type": "electric_scooter", "lon": -77.024093, "bike_id": "707fe3038a2ed732aa8cc0f078810493", "fusion_lat": 0.0, "name": "707fe3038a2ed732aa8cc0f078810493", "is_reserved": 0, "rental_uris": {"android": "https://dc.lft.to/lastmile_qr_scan", "ios": "https://dc.lft.to/lastmile_qr_scan"}, "fusion_lon": 0.0}, {"lat": 38.90969066666667, "is_disabled": 0, "type": "electric_scooter", "lon": -77.04825033333333, "bike_id": "4dfbeaef729e98147b2cf95bc720cc89", "fusion_lat": 0.0, "name": "4dfbeaef729e98147b2cf95bc720cc89", "is_reserved": 0, "rental_uris": {"android": "https://dc.lft.to/lastmile_qr_scan", "ios": "https://dc.lft.to/lastmile_qr_scan"}, "fusion_lon": 0.0}, {"lat": 38.921387, "is_disabled": 0, "type": "electric_scooter", "lon": -77.01792383333333, "bike_id": "1a24a3c675dca21a19bc4c5e21129ddf", "fusion_lat": 0.0, "name": "1a24a3c675dca21a19bc4c5e21129ddf", "is_reserved": 0, "rental_uris": {"android": "https://dc.lft.to/lastmile_qr_scan", "ios": "https://dc.lft.to/lastmile_qr_scan"}, "fusion_lon": 0.0}, {"lat": 38.931136, "is_disabled": 0, "type": "electric_scooter", "lon": -77.03814383333334, "bike_id": "4ab9dd3ff08e482d32af0ebc85b64973", "fusion_lat": 0.0, "name": "4ab9dd3ff08e482d32af0ebc85b64973", "is_reserved": 0, "rental_uris": {"android": "https://dc.lft.to/lastmile_qr_scan", "ios": "https://dc.lft.to/lastmile_qr_scan"}, "fusion_lon": 0.0}, {"lat": 38.90962733333333, "is_disabled": 0, "type": "electric_scooter", "lon": -76.9844275, "bike_id": "201ee926a9460349176b95d88f4b0aba", "fusion_lat": 0.0, "name": "201ee926a9460349176b95d88f4b0aba", "is_reserved": 0, "rental_uris": {"android": "https://dc.lft.to/lastmile_qr_scan", "ios": "https://dc.lft.to/lastmile_qr_scan"}, "fusion_lon": 0.0}, {"lat": 38.866201, "is_disabled": 0, "type": "electric_scooter", "lon": -76.98698716666667, "bike_id": "f52a9a29e92b502ae742aa0c1b15926f", "fusion_lat": 0.0, "name": "f52a9a29e92b502ae742aa0c1b15926f", "is_reserved": 0, "rental_uris": {"android": "https://dc.lft.to/lastmile_qr_scan", "ios": "https://dc.lft.to/lastmile_qr_scan"}, "fusion_lon": 0.0}, {"lat": 38.918823333333336, "is_disabled": 0, "type": "electric_scooter", "lon": -77.02982233333333, "bike_id": "e0ec7043ea5a823dab5e8ec8ccc7e81b", "fusion_lat": 0.0, "name": "e0ec7043ea5a823dab5e8ec8ccc7e81b", "is_reserved": 0, "rental_uris": {"android": "https://dc.lft.to/lastmile_qr_scan", "ios": "https://dc.lft.to/lastmile_qr_scan"}, "fusion_lon": 0.0}, {"lat": 38.91118083333333, "is_disabled": 0, "type": "electric_scooter", "lon": -77.0445985, "bike_id": "3cf326543117352c5b7bb9658844dd62", "fusion_lat": 0.0, "name": "3cf326543117352c5b7bb9658844dd62", "is_reserved": 0, "rental_uris": {"android": "https://dc.lft.to/lastmile_qr_scan", "ios": "https://dc.lft.to/lastmile_qr_scan"}, "fusion_lon": 0.0}, {"lat": 38.842944833333334, "is_disabled": 0, "type": "electric_scooter", "lon": -76.99947716666667, "bike_id": "d9abff36167924c81582785abc058f07", "fusion_lat": 0.0, "name": "d9abff36167924c81582785abc058f07", "is_reserved": 0, "rental_uris": {"android": "https://dc.lft.to/lastmile_qr_scan", "ios": "https://dc.lft.to/lastmile_qr_scan"}, "fusion_lon": 0.0}, {"lat": 38.91405566666667, "is_disabled": 0, "type": "electric_scooter", "lon": -77.03219433333334, "bike_id": "70095673f0f2c6a36735d9305c2b1910", "fusion_lat": 0.0, "name": "70095673f0f2c6a36735d9305c2b1910", "is_reserved": 0, "rental_uris": {"android": "https://dc.lft.to/lastmile_qr_scan", "ios": "https://dc.lft.to/lastmile_qr_scan"}, "fusion_lon": 0.0}, {"lat": 38.92380216666667, "is_disabled": 0, "type": "electric_scooter", "lon": -77.04086133333334, "bike_id": "79a1f366ffbf61030e423fc0364d4201", "fusion_lat": 0.0, "name": "79a1f366ffbf61030e423fc0364d4201", "is_reserved": 0, "rental_uris": {"android": "https://dc.lft.to/lastmile_qr_scan", "ios": "https://dc.lft.to/lastmile_qr_scan"}, "fusion_lon": 0.0}, {"lat": 38.92420216666667, "is_disabled": 0, "type": "electric_scooter", "lon": -77.02979483333333, "bike_id": "8519c01d6771f6f1c099db08e09347d6", "fusion_lat": 0.0, "name": "8519c01d6771f6f1c099db08e09347d6", "is_reserved": 0, "rental_uris": {"android": "https://dc.lft.to/lastmile_qr_scan", "ios": "https://dc.lft.to/lastmile_qr_scan"}, "fusion_lon": 0.0}, {"lat": 38.86445633333334, "is_disabled": 0, "type": "electric_bike", "lon": -76.9454415, "bike_id": "9544a07434ee11d38c53b6e75f278f53", "fusion_lat": 0.0, "name": "9544a07434ee11d38c53b6e75f278f53", "is_reserved": 0, "rental_uris": {"android": "https://dc.lft.to/lastmile_qr_scan", "ios": "https://dc.lft.to/lastmile_qr_scan"}, "fusion_lon": 0.0}, {"lat": 38.90998866666666, "is_disabled": 0, "type": "electric_scooter", "lon": -77.03186, "bike_id": "b4c5649380b6260b535250fa211d2798", "fusion_lat": 0.0, "name": "b4c5649380b6260b535250fa211d2798", "is_reserved": 0, "rental_uris": {"android": "https://dc.lft.to/lastmile_qr_scan", "ios": "https://dc.lft.to/lastmile_qr_scan"}, "fusion_lon": 0.0}, {"lat": 38.9172945, "is_disabled": 0, "type": "electric_scooter", "lon": -77.02123766666666, "bike_id": "4d17b5fb4bc15184e9f9fa69c6dfdedf", "fusion_lat": 0.0, "name": "4d17b5fb4bc15184e9f9fa69c6dfdedf", "is_reserved": 0, "rental_uris": {"android": "https://dc.lft.to/lastmile_qr_scan", "ios": "https://dc.lft.to/lastmile_qr_scan"}, "fusion_lon": 0.0}, {"lat": 38.87143016666667, "is_disabled": 0, "type": "electric_bike", "lon": -76.93704183333334, "bike_id": "285732e72d562623d9f79f5f1a57e67e", "fusion_lat": 0.0, "name": "285732e72d562623d9f79f5f1a57e67e", "is_reserved": 0, "rental_uris": {"android": "https://dc.lft.to/lastmile_qr_scan", "ios": "https://dc.lft.to/lastmile_qr_scan"}, "fusion_lon": 0.0}, {"lat": 38.87459316666666, "is_disabled": 0, "type": "electric_scooter", "lon": -77.00547433333334, "bike_id": "6fc2d953b7cca966a87fa4d82dd0adf3", "fusion_lat": 0.0, "name": "6fc2d953b7cca966a87fa4d82dd0adf3", "is_reserved": 0, "rental_uris": {"android": "https://dc.lft.to/lastmile_qr_scan", "ios": "https://dc.lft.to/lastmile_qr_scan"}, "fusion_lon": 0.0}, {"lat": 38.917032, "is_disabled": 0, "type": "electric_scooter", "lon": -77.007203, "bike_id": "dcb398367c763c03ec8cb0a8d2f348d4", "fusion_lat": 0.0, "name": "dcb398367c763c03ec8cb0a8d2f348d4", "is_reserved": 0, "rental_uris": {"android": "https://dc.lft.to/lastmile_qr_scan", "ios": "https://dc.lft.to/lastmile_qr_scan"}, "fusion_lon": 0.0}, {"lat": 38.9105275, "is_disabled": 0, "type": "electric_scooter", "lon": -77.02210466666666, "bike_id": "c26c62c47637539f5c6158d62f501e0a", "fusion_lat": 0.0, "name": "c26c62c47637539f5c6158d62f501e0a", "is_reserved": 0, "rental_uris": {"android": "https://dc.lft.to/lastmile_qr_scan", "ios": "https://dc.lft.to/lastmile_qr_scan"}, "fusion_lon": 0.0}, {"lat": 38.9563555, "is_disabled": 0, "type": "electric_scooter", "lon": -77.0330165, "bike_id": "f387784aa84bf09d87c9ff5d40278ba5", "fusion_lat": 0.0, "name": "f387784aa84bf09d87c9ff5d40278ba5", "is_reserved": 0, "rental_uris": {"android": "https://dc.lft.to/lastmile_qr_scan", "ios": "https://dc.lft.to/lastmile_qr_scan"}, "fusion_lon": 0.0}, {"lat": 38.8739755, "is_disabled": 0, "type": "electric_scooter", "lon": -77.00027766666666, "bike_id": "0abad781f5156282322103d1f5ac9762", "fusion_lat": 0.0, "name": "0abad781f5156282322103d1f5ac9762", "is_reserved": 0, "rental_uris": {"android": "https://dc.lft.to/lastmile_qr_scan", "ios": "https://dc.lft.to/lastmile_qr_scan"}, "fusion_lon": 0.0}, {"lat": 38.89858683333333, "is_disabled": 0, "type": "electric_scooter", "lon": -77.0396185, "bike_id": "432eec80df9cd2d1ea2f09e5147e98c6", "fusion_lat": 0.0, "name": "432eec80df9cd2d1ea2f09e5147e98c6", "is_reserved": 0, "rental_uris": {"android": "https://dc.lft.to/lastmile_qr_scan", "ios": "https://dc.lft.to/lastmile_qr_scan"}, "fusion_lon": 0.0}, {"lat": 38.86522, "is_disabled": 0, "type": "electric_scooter", "lon": -76.99036016666666, "bike_id": "08606b0206666d3cce4ce6b1e5241d51", "fusion_lat": 0.0, "name": "08606b0206666d3cce4ce6b1e5241d51", "is_reserved": 0, "rental_uris": {"android": "https://dc.lft.to/lastmile_qr_scan", "ios": "https://dc.lft.to/lastmile_qr_scan"}, "fusion_lon": 0.0}, {"lat": 38.90071966666667, "is_disabled": 0, "type": "electric_scooter", "lon": -77.024163, "bike_id": "4bc2f0fc12522263936e98d41e079783", "fusion_lat": 0.0, "name": "4bc2f0fc12522263936e98d41e079783", "is_reserved": 0, "rental_uris": {"android": "https://dc.lft.to/lastmile_qr_scan", "ios": "https://dc.lft.to/lastmile_qr_scan"}, "fusion_lon": 0.0}, {"lat": 38.904263666666665, "is_disabled": 0, "type": "electric_scooter", "lon": -77.03649683333333, "bike_id": "fba59336e4631e849b39b9222fbd50ca", "fusion_lat": 0.0, "name": "fba59336e4631e849b39b9222fbd50ca", "is_reserved": 0, "rental_uris": {"android": "https://dc.lft.to/lastmile_qr_scan", "ios": "https://dc.lft.to/lastmile_qr_scan"}, "fusion_lon": 0.0}, {"lat": 38.902717833333334, "is_disabled": 0, "type": "electric_scooter", "lon": -77.04041, "bike_id": "8c6452b066cc6640ae2ca59e8b2275f4", "fusion_lat": 0.0, "name": "8c6452b066cc6640ae2ca59e8b2275f4", "is_reserved": 0, "rental_uris": {"android": "https://dc.lft.to/lastmile_qr_scan", "ios": "https://dc.lft.to/lastmile_qr_scan"}, "fusion_lon": 0.0}, {"lat": 38.954029, "is_disabled": 0, "type": "electric_scooter", "lon": -77.02754083333333, "bike_id": "5cf2ebce3a6316767c5c7f16b2c51d9d", "fusion_lat": 0.0, "name": "5cf2ebce3a6316767c5c7f16b2c51d9d", "is_reserved": 0, "rental_uris": {"android": "https://dc.lft.to/lastmile_qr_scan", "ios": "https://dc.lft.to/lastmile_qr_scan"}, "fusion_lon": 0.0}, {"lat": 38.897320666666666, "is_disabled": 0, "type": "electric_scooter", "lon": -77.02615416666667, "bike_id": "850221709ef20ddc03904e4d86ca482c", "fusion_lat": 0.0, "name": "850221709ef20ddc03904e4d86ca482c", "is_reserved": 0, "rental_uris": {"android": "https://dc.lft.to/lastmile_qr_scan", "ios": "https://dc.lft.to/lastmile_qr_scan"}, "fusion_lon": 0.0}, {"lat": 38.946282833333335, "is_disabled": 0, "type": "electric_scooter", "lon": -77.0184825, "bike_id": "b671e0d704d9fc53842415281d2f6f6e", "fusion_lat": 0.0, "name": "b671e0d704d9fc53842415281d2f6f6e", "is_reserved": 0, "rental_uris": {"android": "https://dc.lft.to/lastmile_qr_scan", "ios": "https://dc.lft.to/lastmile_qr_scan"}, "fusion_lon": 0.0}, {"lat": 38.930056666666665, "is_disabled": 0, "type": "electric_scooter", "lon": -77.05671116666667, "bike_id": "e63b94d7d4dc094f38f0111107b7248a", "fusion_lat": 0.0, "name": "e63b94d7d4dc094f38f0111107b7248a", "is_reserved": 0, "rental_uris": {"android": "https://dc.lft.to/lastmile_qr_scan", "ios": "https://dc.lft.to/lastmile_qr_scan"}, "fusion_lon": 0.0}, {"lat": 38.890462666666664, "is_disabled": 0, "type": "electric_scooter", "lon": -76.93754316666667, "bike_id": "8e19b134ce732d7bb44058245ca15092", "fusion_lat": 0.0, "name": "8e19b134ce732d7bb44058245ca15092", "is_reserved": 0, "rental_uris": {"android": "https://dc.lft.to/lastmile_qr_scan", "ios": "https://dc.lft.to/lastmile_qr_scan"}, "fusion_lon": 0.0}, {"lat": 38.90735083333333, "is_disabled": 0, "type": "electric_scooter", "lon": -77.04203766666667, "bike_id": "f6ac99211e0630d00d0fb4e0fd5f8133", "fusion_lat": 0.0, "name": "f6ac99211e0630d00d0fb4e0fd5f8133", "is_reserved": 0, "rental_uris": {"android": "https://dc.lft.to/lastmile_qr_scan", "ios": "https://dc.lft.to/lastmile_qr_scan"}, "fusion_lon": 0.0}, {"lat": 38.91191883333333, "is_disabled": 0, "type": "electric_scooter", "lon": -77.06096933333333, "bike_id": "10ae854c9f60dc96b8b6375fc71c0a7e", "fusion_lat": 0.0, "name": "10ae854c9f60dc96b8b6375fc71c0a7e", "is_reserved": 0, "rental_uris": {"android": "https://dc.lft.to/lastmile_qr_scan", "ios": "https://dc.lft.to/lastmile_qr_scan"}, "fusion_lon": 0.0}, {"lat": 38.8876295, "is_disabled": 0, "type": "electric_scooter", "lon": -76.95602316666667, "bike_id": "f0b371ce9ddfe929d05a0e44b4978ae3", "fusion_lat": 0.0, "name": "f0b371ce9ddfe929d05a0e44b4978ae3", "is_reserved": 0, "rental_uris": {"android": "https://dc.lft.to/lastmile_qr_scan", "ios": "https://dc.lft.to/lastmile_qr_scan"}, "fusion_lon": 0.0}, {"lat": 38.9391835, "is_disabled": 0, "type": "electric_scooter", "lon": -77.0246885, "bike_id": "8aff595a502a7de6736664b05d4bf56d", "fusion_lat": 0.0, "name": "8aff595a502a7de6736664b05d4bf56d", "is_reserved": 0, "rental_uris": {"android": "https://dc.lft.to/lastmile_qr_scan", "ios": "https://dc.lft.to/lastmile_qr_scan"}, "fusion_lon": 0.0}, {"lat": 38.892211833333334, "is_disabled": 0, "type": "electric_scooter", "lon": -77.04860116666667, "bike_id": "e4613d30993ca24d1463f5f4fbdacdd8", "fusion_lat": 0.0, "name": "e4613d30993ca24d1463f5f4fbdacdd8", "is_reserved": 0, "rental_uris": {"android": "https://dc.lft.to/lastmile_qr_scan", "ios": "https://dc.lft.to/lastmile_qr_scan"}, "fusion_lon": 0.0}, {"lat": 38.9250025, "is_disabled": 0, "type": "electric_scooter", "lon": -77.05258033333334, "bike_id": "8dbfc3926847239e67fe9edc10b254df", "fusion_lat": 0.0, "name": "8dbfc3926847239e67fe9edc10b254df", "is_reserved": 0, "rental_uris": {"android": "https://dc.lft.to/lastmile_qr_scan", "ios": "https://dc.lft.to/lastmile_qr_scan"}, "fusion_lon": 0.0}, {"lat": 38.91716866666667, "is_disabled": 0, "type": "electric_scooter", "lon": -77.028115, "bike_id": "4580e61dd3ce9c7b91628c0bb5e5d27f", "fusion_lat": 0.0, "name": "4580e61dd3ce9c7b91628c0bb5e5d27f", "is_reserved": 0, "rental_uris": {"android": "https://dc.lft.to/lastmile_qr_scan", "ios": "https://dc.lft.to/lastmile_qr_scan"}, "fusion_lon": 0.0}, {"lat": 38.896109833333334, "is_disabled": 0, "type": "electric_scooter", "lon": -77.03014483333334, "bike_id": "320e00c648bdccbf00dff2fca7d0a5b0", "fusion_lat": 0.0, "name": "320e00c648bdccbf00dff2fca7d0a5b0", "is_reserved": 0, "rental_uris": {"android": "https://dc.lft.to/lastmile_qr_scan", "ios": "https://dc.lft.to/lastmile_qr_scan"}, "fusion_lon": 0.0}, {"lat": 38.89194, "is_disabled": 0, "type": "electric_scooter", "lon": -77.024553, "bike_id": "4350013803290fcf76070ec24cb16ab8", "fusion_lat": 0.0, "name": "4350013803290fcf76070ec24cb16ab8", "is_reserved": 0, "rental_uris": {"android": "https://dc.lft.to/lastmile_qr_scan", "ios": "https://dc.lft.to/lastmile_qr_scan"}, "fusion_lon": 0.0}, {"lat": 38.91697116666667, "is_disabled": 0, "type": "electric_scooter", "lon": -77.03126316666666, "bike_id": "86215178dca35cc9f3505502da74aa73", "fusion_lat": 0.0, "name": "86215178dca35cc9f3505502da74aa73", "is_reserved": 0, "rental_uris": {"android": "https://dc.lft.to/lastmile_qr_scan", "ios": "https://dc.lft.to/lastmile_qr_scan"}, "fusion_lon": 0.0}, {"lat": 38.92322, "is_disabled": 0, "type": "electric_scooter", "lon": -77.04373916666667, "bike_id": "a2f97d80932d9129c9ded26a7b2de2bb", "fusion_lat": 0.0, "name": "a2f97d80932d9129c9ded26a7b2de2bb", "is_reserved": 0, "rental_uris": {"android": "https://dc.lft.to/lastmile_qr_scan", "ios": "https://dc.lft.to/lastmile_qr_scan"}, "fusion_lon": 0.0}, {"lat": 38.921439666666664, "is_disabled": 0, "type": "electric_scooter", "lon": -76.96928716666666, "bike_id": "468a9cbe2a3718f25551c7f9e9066274", "fusion_lat": 0.0, "name": "468a9cbe2a3718f25551c7f9e9066274", "is_reserved": 0, "rental_uris": {"android": "https://dc.lft.to/lastmile_qr_scan", "ios": "https://dc.lft.to/lastmile_qr_scan"}, "fusion_lon": 0.0}, {"lat": 38.92102533333333, "is_disabled": 0, "type": "electric_scooter", "lon": -77.04210083333334, "bike_id": "4898f77d6da6a2e5900bc5ae0fd0f8ac", "fusion_lat": 0.0, "name": "4898f77d6da6a2e5900bc5ae0fd0f8ac", "is_reserved": 0, "rental_uris": {"android": "https://dc.lft.to/lastmile_qr_scan", "ios": "https://dc.lft.to/lastmile_qr_scan"}, "fusion_lon": 0.0}, {"lat": 38.91412033333334, "is_disabled": 0, "type": "electric_scooter", "lon": -77.0321355, "bike_id": "ad43e0b572fb904c134c2ea8c0d69cd2", "fusion_lat": 0.0, "name": "ad43e0b572fb904c134c2ea8c0d69cd2", "is_reserved": 0, "rental_uris": {"android": "https://dc.lft.to/lastmile_qr_scan", "ios": "https://dc.lft.to/lastmile_qr_scan"}, "fusion_lon": 0.0}, {"lat": 38.861632666666665, "is_disabled": 0, "type": "electric_bike", "lon": -76.95069183333334, "bike_id": "c5da383d0fa804d02c5855f2390f471d", "fusion_lat": 0.0, "name": "c5da383d0fa804d02c5855f2390f471d", "is_reserved": 0, "rental_uris": {"android": "https://dc.lft.to/lastmile_qr_scan", "ios": "https://dc.lft.to/lastmile_qr_scan"}, "fusion_lon": 0.0}, {"lat": 38.89218666666667, "is_disabled": 0, "type": "electric_scooter", "lon": -77.04870866666667, "bike_id": "f0c3a2891a5ccd00d4b8733537cffb8d", "fusion_lat": 0.0, "name": "f0c3a2891a5ccd00d4b8733537cffb8d", "is_reserved": 0, "rental_uris": {"android": "https://dc.lft.to/lastmile_qr_scan", "ios": "https://dc.lft.to/lastmile_qr_scan"}, "fusion_lon": 0.0}, {"lat": 38.90962833333333, "is_disabled": 0, "type": "electric_scooter", "lon": -77.03384933333334, "bike_id": "e52e46e0c38401213050f4824254ba20", "fusion_lat": 0.0, "name": "e52e46e0c38401213050f4824254ba20", "is_reserved": 0, "rental_uris": {"android": "https://dc.lft.to/lastmile_qr_scan", "ios": "https://dc.lft.to/lastmile_qr_scan"}, "fusion_lon": 0.0}, {"lat": 38.93864633333333, "is_disabled": 0, "type": "electric_scooter", "lon": -77.02485966666667, "bike_id": "aeba9a12694835fceedfc9a604e3c578", "fusion_lat": 0.0, "name": "aeba9a12694835fceedfc9a604e3c578", "is_reserved": 0, "rental_uris": {"android": "https://dc.lft.to/lastmile_qr_scan", "ios": "https://dc.lft.to/lastmile_qr_scan"}, "fusion_lon": 0.0}, {"lat": 38.93672733333333, "is_disabled": 0, "type": "electric_scooter", "lon": -77.0359095, "bike_id": "0affb7d1e90cadba8ec6838eecba3fb3", "fusion_lat": 0.0, "name": "0affb7d1e90cadba8ec6838eecba3fb3", "is_reserved": 0, "rental_uris": {"android": "https://dc.lft.to/lastmile_qr_scan", "ios": "https://dc.lft.to/lastmile_qr_scan"}, "fusion_lon": 0.0}, {"lat": 39.03047383333333, "is_disabled": 0, "type": "electric_bike", "lon": -77.09483666666667, "bike_id": "14f6cb8145f2cc83a3e49e3a17085d0b", "fusion_lat": 0.0, "name": "14f6cb8145f2cc83a3e49e3a17085d0b", "is_reserved": 0, "rental_uris": {"android": "https://dc.lft.to/lastmile_qr_scan", "ios": "https://dc.lft.to/lastmile_qr_scan"}, "fusion_lon": 0.0}, {"lat": 38.917089833333335, "is_disabled": 0, "type": "electric_scooter", "lon": -77.02892916666667, "bike_id": "b94ef7719c348bb3a3eae2c64ce2f23c", "fusion_lat": 0.0, "name": "b94ef7719c348bb3a3eae2c64ce2f23c", "is_reserved": 0, "rental_uris": {"android": "https://dc.lft.to/lastmile_qr_scan", "ios": "https://dc.lft.to/lastmile_qr_scan"}, "fusion_lon": 0.0}, {"lat": 38.923338, "is_disabled": 0, "type": "electric_scooter", "lon": -77.03902366666667, "bike_id": "a3eaa9e12494c6a660af4b3ce1cd9974", "fusion_lat": 0.0, "name": "a3eaa9e12494c6a660af4b3ce1cd9974", "is_reserved": 0, "rental_uris": {"android": "https://dc.lft.to/lastmile_qr_scan", "ios": "https://dc.lft.to/lastmile_qr_scan"}, "fusion_lon": 0.0}, {"lat": 38.917077, "is_disabled": 0, "type": "electric_scooter", "lon": -77.029007, "bike_id": "63c3b330f0d75e55f344ae6634bd367c", "fusion_lat": 0.0, "name": "63c3b330f0d75e55f344ae6634bd367c", "is_reserved": 0, "rental_uris": {"android": "https://dc.lft.to/lastmile_qr_scan", "ios": "https://dc.lft.to/lastmile_qr_scan"}, "fusion_lon": 0.0}, {"lat": 38.915484666666664, "is_disabled": 0, "type": "electric_scooter", "lon": -77.0351725, "bike_id": "17998412099ea8647623470cde137c75", "fusion_lat": 0.0, "name": "17998412099ea8647623470cde137c75", "is_reserved": 0, "rental_uris": {"android": "https://dc.lft.to/lastmile_qr_scan", "ios": "https://dc.lft.to/lastmile_qr_scan"}, "fusion_lon": 0.0}, {"lat": 38.89224516666667, "is_disabled": 0, "type": "electric_scooter", "lon": -77.04799816666667, "bike_id": "8a20bb014f0c0eecb1e7f16b2b72e335", "fusion_lat": 0.0, "name": "8a20bb014f0c0eecb1e7f16b2b72e335", "is_reserved": 0, "rental_uris": {"android": "https://dc.lft.to/lastmile_qr_scan", "ios": "https://dc.lft.to/lastmile_qr_scan"}, "fusion_lon": 0.0}, {"lat": 38.87381716666667, "is_disabled": 0, "type": "electric_scooter", "lon": -77.0005305, "bike_id": "0c88b713d18e7924d95a3fd3b132019a", "fusion_lat": 0.0, "name": "0c88b713d18e7924d95a3fd3b132019a", "is_reserved": 0, "rental_uris": {"android": "https://dc.lft.to/lastmile_qr_scan", "ios": "https://dc.lft.to/lastmile_qr_scan"}, "fusion_lon": 0.0}, {"lat": 38.887072333333336, "is_disabled": 0, "type": "electric_scooter", "lon": -77.00153733333333, "bike_id": "f5de374de0d30e7ba7e8cc008cd23a46", "fusion_lat": 0.0, "name": "f5de374de0d30e7ba7e8cc008cd23a46", "is_reserved": 0, "rental_uris": {"android": "https://dc.lft.to/lastmile_qr_scan", "ios": "https://dc.lft.to/lastmile_qr_scan"}, "fusion_lon": 0.0}, {"lat": 38.909738, "is_disabled": 0, "type": "electric_scooter", "lon": -77.04517233333333, "bike_id": "155112a6f0318e42d6656d989df636f8", "fusion_lat": 0.0, "name": "155112a6f0318e42d6656d989df636f8", "is_reserved": 0, "rental_uris": {"android": "https://dc.lft.to/lastmile_qr_scan", "ios": "https://dc.lft.to/lastmile_qr_scan"}, "fusion_lon": 0.0}, {"lat": 38.904872833333336, "is_disabled": 0, "type": "electric_scooter", "lon": -77.0465185, "bike_id": "dc975f662034dd5c349552d9ea456db2", "fusion_lat": 0.0, "name": "dc975f662034dd5c349552d9ea456db2", "is_reserved": 0, "rental_uris": {"android": "https://dc.lft.to/lastmile_qr_scan", "ios": "https://dc.lft.to/lastmile_qr_scan"}, "fusion_lon": 0.0}, {"lat": 38.90615366666667, "is_disabled": 0, "type": "electric_scooter", "lon": -77.07038633333333, "bike_id": "3a8c7bcd5d1650b7a91926529e48e7ae", "fusion_lat": 0.0, "name": "3a8c7bcd5d1650b7a91926529e48e7ae", "is_reserved": 0, "rental_uris": {"android": "https://dc.lft.to/lastmile_qr_scan", "ios": "https://dc.lft.to/lastmile_qr_scan"}, "fusion_lon": 0.0}, {"lat": 38.9162075, "is_disabled": 0, "type": "electric_scooter", "lon": -77.0426525, "bike_id": "f1d2a6bddc1cab411aa772a6e63d1283", "fusion_lat": 0.0, "name": "f1d2a6bddc1cab411aa772a6e63d1283", "is_reserved": 0, "rental_uris": {"android": "https://dc.lft.to/lastmile_qr_scan", "ios": "https://dc.lft.to/lastmile_qr_scan"}, "fusion_lon": 0.0}, {"lat": 38.90135983333333, "is_disabled": 0, "type": "electric_scooter", "lon": -77.00071266666667, "bike_id": "2e8c2004925336f59cc4f9c6b7bf379e", "fusion_lat": 0.0, "name": "2e8c2004925336f59cc4f9c6b7bf379e", "is_reserved": 0, "rental_uris": {"android": "https://dc.lft.to/lastmile_qr_scan", "ios": "https://dc.lft.to/lastmile_qr_scan"}, "fusion_lon": 0.0}, {"lat": 38.928299833333334, "is_disabled": 0, "type": "electric_scooter", "lon": -77.01386416666666, "bike_id": "5f209c11f1ceaacbbf06d4ccff16ff79", "fusion_lat": 0.0, "name": "5f209c11f1ceaacbbf06d4ccff16ff79", "is_reserved": 0, "rental_uris": {"android": "https://dc.lft.to/lastmile_qr_scan", "ios": "https://dc.lft.to/lastmile_qr_scan"}, "fusion_lon": 0.0}, {"lat": 38.83704216666667, "is_disabled": 0, "type": "electric_bike", "lon": -76.997947, "bike_id": "2a381f49b845acf98d730e0374f428bd", "fusion_lat": 0.0, "name": "2a381f49b845acf98d730e0374f428bd", "is_reserved": 0, "rental_uris": {"android": "https://dc.lft.to/lastmile_qr_scan", "ios": "https://dc.lft.to/lastmile_qr_scan"}, "fusion_lon": 0.0}, {"lat": 38.88808266666667, "is_disabled": 0, "type": "electric_scooter", "lon": -77.00206916666667, "bike_id": "d803af8db557912dfaf1fb4a5c004985", "fusion_lat": 0.0, "name": "d803af8db557912dfaf1fb4a5c004985", "is_reserved": 0, "rental_uris": {"android": "https://dc.lft.to/lastmile_qr_scan", "ios": "https://dc.lft.to/lastmile_qr_scan"}, "fusion_lon": 0.0}, {"lat": 38.8853205, "is_disabled": 0, "type": "electric_scooter", "lon": -76.99828933333333, "bike_id": "c82a4e7b4b82d5e8973254df35b252fc", "fusion_lat": 0.0, "name": "c82a4e7b4b82d5e8973254df35b252fc", "is_reserved": 0, "rental_uris": {"android": "https://dc.lft.to/lastmile_qr_scan", "ios": "https://dc.lft.to/lastmile_qr_scan"}, "fusion_lon": 0.0}, {"lat": 38.88993633333333, "is_disabled": 0, "type": "electric_scooter", "lon": -76.955691, "bike_id": "c90070922a42892fae5d31e1370a67a4", "fusion_lat": 0.0, "name": "c90070922a42892fae5d31e1370a67a4", "is_reserved": 0, "rental_uris": {"android": "https://dc.lft.to/lastmile_qr_scan", "ios": "https://dc.lft.to/lastmile_qr_scan"}, "fusion_lon": 0.0}, {"lat": 38.9068055, "is_disabled": 0, "type": "electric_scooter", "lon": -77.0716735, "bike_id": "87028a9520a926beed6f6e56e3381760", "fusion_lat": 0.0, "name": "87028a9520a926beed6f6e56e3381760", "is_reserved": 0, "rental_uris": {"android": "https://dc.lft.to/lastmile_qr_scan", "ios": "https://dc.lft.to/lastmile_qr_scan"}, "fusion_lon": 0.0}, {"lat": 38.85510816666667, "is_disabled": 0, "type": "electric_bike", "lon": -76.98428583333333, "bike_id": "362d6563229c5f9d74a730f7161989d3", "fusion_lat": 0.0, "name": "362d6563229c5f9d74a730f7161989d3", "is_reserved": 0, "rental_uris": {"android": "https://dc.lft.to/lastmile_qr_scan", "ios": "https://dc.lft.to/lastmile_qr_scan"}, "fusion_lon": 0.0}, {"lat": 38.9111785, "is_disabled": 0, "type": "electric_scooter", "lon": -77.04475666666667, "bike_id": "459a4742570ca7a2778b0a8d0a81f679", "fusion_lat": 0.0, "name": "459a4742570ca7a2778b0a8d0a81f679", "is_reserved": 0, "rental_uris": {"android": "https://dc.lft.to/lastmile_qr_scan", "ios": "https://dc.lft.to/lastmile_qr_scan"}, "fusion_lon": 0.0}, {"lat": 38.901576, "is_disabled": 0, "type": "electric_scooter", "lon": -77.0219545, "bike_id": "2d3cbeaf8981b724e0fb1461caf0180d", "fusion_lat": 0.0, "name": "2d3cbeaf8981b724e0fb1461caf0180d", "is_reserved": 0, "rental_uris": {"android": "https://dc.lft.to/lastmile_qr_scan", "ios": "https://dc.lft.to/lastmile_qr_scan"}, "fusion_lon": 0.0}, {"lat": 38.925799, "is_disabled": 0, "type": "electric_scooter", "lon": -77.03358183333333, "bike_id": "0f18070c96068be8ec5faa9892c78695", "fusion_lat": 0.0, "name": "0f18070c96068be8ec5faa9892c78695", "is_reserved": 0, "rental_uris": {"android": "https://dc.lft.to/lastmile_qr_scan", "ios": "https://dc.lft.to/lastmile_qr_scan"}, "fusion_lon": 0.0}, {"lat": 38.9327335, "is_disabled": 0, "type": "electric_scooter", "lon": -77.03942383333333, "bike_id": "f2b9a5dc3cb7381cd4d780b596bbe027", "fusion_lat": 0.0, "name": "f2b9a5dc3cb7381cd4d780b596bbe027", "is_reserved": 0, "rental_uris": {"android": "https://dc.lft.to/lastmile_qr_scan", "ios": "https://dc.lft.to/lastmile_qr_scan"}, "fusion_lon": 0.0}, {"lat": 38.910887, "is_disabled": 0, "type": "electric_scooter", "lon": -77.04673916666667, "bike_id": "1b8cb26b9b11182574f66d6930c58317", "fusion_lat": 0.0, "name": "1b8cb26b9b11182574f66d6930c58317", "is_reserved": 0, "rental_uris": {"android": "https://dc.lft.to/lastmile_qr_scan", "ios": "https://dc.lft.to/lastmile_qr_scan"}, "fusion_lon": 0.0}, {"lat": 38.89738066666666, "is_disabled": 0, "type": "electric_scooter", "lon": -77.04608066666667, "bike_id": "2f3f14e0c8a9c65f0b587339731d01d9", "fusion_lat": 0.0, "name": "2f3f14e0c8a9c65f0b587339731d01d9", "is_reserved": 0, "rental_uris": {"android": "https://dc.lft.to/lastmile_qr_scan", "ios": "https://dc.lft.to/lastmile_qr_scan"}, "fusion_lon": 0.0}, {"lat": 38.89910233333333, "is_disabled": 0, "type": "electric_scooter", "lon": -76.93354116666667, "bike_id": "199bf2219ee1082bf31cd13937588b2c", "fusion_lat": 0.0, "name": "199bf2219ee1082bf31cd13937588b2c", "is_reserved": 0, "rental_uris": {"android": "https://dc.lft.to/lastmile_qr_scan", "ios": "https://dc.lft.to/lastmile_qr_scan"}, "fusion_lon": 0.0}, {"lat": 38.916864333333336, "is_disabled": 0, "type": "electric_scooter", "lon": -77.02949016666666, "bike_id": "35badfcf90a3ecf10ab194fa64a9c8fa", "fusion_lat": 0.0, "name": "35badfcf90a3ecf10ab194fa64a9c8fa", "is_reserved": 0, "rental_uris": {"android": "https://dc.lft.to/lastmile_qr_scan", "ios": "https://dc.lft.to/lastmile_qr_scan"}, "fusion_lon": 0.0}, {"lat": 38.874967, "is_disabled": 0, "type": "electric_scooter", "lon": -76.99798833333334, "bike_id": "a72e3002742c168e4583bc165a741fcd", "fusion_lat": 0.0, "name": "a72e3002742c168e4583bc165a741fcd", "is_reserved": 0, "rental_uris": {"android": "https://dc.lft.to/lastmile_qr_scan", "ios": "https://dc.lft.to/lastmile_qr_scan"}, "fusion_lon": 0.0}, {"lat": 38.904091666666666, "is_disabled": 0, "type": "electric_scooter", "lon": -77.02078466666667, "bike_id": "d091be2c57ec4ca04ebfce24cf7c51ab", "fusion_lat": 0.0, "name": "d091be2c57ec4ca04ebfce24cf7c51ab", "is_reserved": 0, "rental_uris": {"android": "https://dc.lft.to/lastmile_qr_scan", "ios": "https://dc.lft.to/lastmile_qr_scan"}, "fusion_lon": 0.0}, {"lat": 38.858111, "is_disabled": 0, "type": "electric_scooter", "lon": -76.98994733333333, "bike_id": "f990fadb5b1358692b375476356c8730", "fusion_lat": 0.0, "name": "f990fadb5b1358692b375476356c8730", "is_reserved": 0, "rental_uris": {"android": "https://dc.lft.to/lastmile_qr_scan", "ios": "https://dc.lft.to/lastmile_qr_scan"}, "fusion_lon": 0.0}, {"lat": 38.8919645, "is_disabled": 0, "type": "electric_scooter", "lon": -77.023822, "bike_id": "f5003ef44940ea7f2caa0ec992847390", "fusion_lat": 0.0, "name": "f5003ef44940ea7f2caa0ec992847390", "is_reserved": 0, "rental_uris": {"android": "https://dc.lft.to/lastmile_qr_scan", "ios": "https://dc.lft.to/lastmile_qr_scan"}, "fusion_lon": 0.0}, {"lat": 38.89747233333333, "is_disabled": 0, "type": "electric_scooter", "lon": -77.04534633333333, "bike_id": "42e1c45bbac8b822f537739380ea68c8", "fusion_lat": 0.0, "name": "42e1c45bbac8b822f537739380ea68c8", "is_reserved": 0, "rental_uris": {"android": "https://dc.lft.to/lastmile_qr_scan", "ios": "https://dc.lft.to/lastmile_qr_scan"}, "fusion_lon": 0.0}, {"lat": 38.93981933333333, "is_disabled": 0, "type": "electric_scooter", "lon": -77.07176183333333, "bike_id": "d8963a7886d9c86b9d1d647ee059cc3c", "fusion_lat": 0.0, "name": "d8963a7886d9c86b9d1d647ee059cc3c", "is_reserved": 0, "rental_uris": {"android": "https://dc.lft.to/lastmile_qr_scan", "ios": "https://dc.lft.to/lastmile_qr_scan"}, "fusion_lon": 0.0}, {"lat": 38.88517266666667, "is_disabled": 0, "type": "electric_scooter", "lon": -77.03347033333333, "bike_id": "b82e39277efa509b84e5ee2ad6ba91c5", "fusion_lat": 0.0, "name": "b82e39277efa509b84e5ee2ad6ba91c5", "is_reserved": 0, "rental_uris": {"android": "https://dc.lft.to/lastmile_qr_scan", "ios": "https://dc.lft.to/lastmile_qr_scan"}, "fusion_lon": 0.0}, {"lat": 38.89753483333333, "is_disabled": 0, "type": "electric_scooter", "lon": -77.03259933333334, "bike_id": "1685051d7bb764026b2d884e721f1bec", "fusion_lat": 0.0, "name": "1685051d7bb764026b2d884e721f1bec", "is_reserved": 0, "rental_uris": {"android": "https://dc.lft.to/lastmile_qr_scan", "ios": "https://dc.lft.to/lastmile_qr_scan"}, "fusion_lon": 0.0}, {"lat": 38.88987366666667, "is_disabled": 0, "type": "electric_scooter", "lon": -76.9374815, "bike_id": "7a1316a574c6f843dd289e885728b696", "fusion_lat": 0.0, "name": "7a1316a574c6f843dd289e885728b696", "is_reserved": 0, "rental_uris": {"android": "https://dc.lft.to/lastmile_qr_scan", "ios": "https://dc.lft.to/lastmile_qr_scan"}, "fusion_lon": 0.0}, {"lat": 38.89783716666667, "is_disabled": 0, "type": "electric_scooter", "lon": -77.0319855, "bike_id": "f8190e815b3e20805616a34c88b5ebfa", "fusion_lat": 0.0, "name": "f8190e815b3e20805616a34c88b5ebfa", "is_reserved": 0, "rental_uris": {"android": "https://dc.lft.to/lastmile_qr_scan", "ios": "https://dc.lft.to/lastmile_qr_scan"}, "fusion_lon": 0.0}, {"lat": 38.900208, "is_disabled": 0, "type": "electric_scooter", "lon": -76.9987545, "bike_id": "ddd388770550710fdf38a819954d21ea", "fusion_lat": 0.0, "name": "ddd388770550710fdf38a819954d21ea", "is_reserved": 0, "rental_uris": {"android": "https://dc.lft.to/lastmile_qr_scan", "ios": "https://dc.lft.to/lastmile_qr_scan"}, "fusion_lon": 0.0}, {"lat": 38.9172905, "is_disabled": 0, "type": "electric_scooter", "lon": -77.03662216666666, "bike_id": "ea208fe4effd30e71478022c81f9f349", "fusion_lat": 0.0, "name": "ea208fe4effd30e71478022c81f9f349", "is_reserved": 0, "rental_uris": {"android": "https://dc.lft.to/lastmile_qr_scan", "ios": "https://dc.lft.to/lastmile_qr_scan"}, "fusion_lon": 0.0}, {"lat": 38.8984015, "is_disabled": 0, "type": "electric_scooter", "lon": -77.04369916666667, "bike_id": "9d241de4f94d01229398c4448df959d5", "fusion_lat": 0.0, "name": "9d241de4f94d01229398c4448df959d5", "is_reserved": 0, "rental_uris": {"android": "https://dc.lft.to/lastmile_qr_scan", "ios": "https://dc.lft.to/lastmile_qr_scan"}, "fusion_lon": 0.0}, {"lat": 38.903552833333336, "is_disabled": 0, "type": "electric_scooter", "lon": -77.04566366666667, "bike_id": "22e025bcfcb0da0782312bd457979d42", "fusion_lat": 0.0, "name": "22e025bcfcb0da0782312bd457979d42", "is_reserved": 0, "rental_uris": {"android": "https://dc.lft.to/lastmile_qr_scan", "ios": "https://dc.lft.to/lastmile_qr_scan"}, "fusion_lon": 0.0}, {"lat": 38.9073675, "is_disabled": 0, "type": "electric_scooter", "lon": -77.0399075, "bike_id": "52c81c67709a504df32f9378a7369b18", "fusion_lat": 0.0, "name": "52c81c67709a504df32f9378a7369b18", "is_reserved": 0, "rental_uris": {"android": "https://dc.lft.to/lastmile_qr_scan", "ios": "https://dc.lft.to/lastmile_qr_scan"}, "fusion_lon": 0.0}, {"lat": 38.90142066666667, "is_disabled": 0, "type": "electric_scooter", "lon": -77.0035465, "bike_id": "24576d7aac56fd9b1823cabf67d61ae3", "fusion_lat": 0.0, "name": "24576d7aac56fd9b1823cabf67d61ae3", "is_reserved": 0, "rental_uris": {"android": "https://dc.lft.to/lastmile_qr_scan", "ios": "https://dc.lft.to/lastmile_qr_scan"}, "fusion_lon": 0.0}, {"lat": 38.913284833333336, "is_disabled": 0, "type": "electric_scooter", "lon": -77.04492683333334, "bike_id": "08cfee51e78d6414ffcb8778943adb79", "fusion_lat": 0.0, "name": "08cfee51e78d6414ffcb8778943adb79", "is_reserved": 0, "rental_uris": {"android": "https://dc.lft.to/lastmile_qr_scan", "ios": "https://dc.lft.to/lastmile_qr_scan"}, "fusion_lon": 0.0}, {"lat": 38.93979566666667, "is_disabled": 0, "type": "electric_scooter", "lon": -77.0326475, "bike_id": "4dd799ab9fea137d002fb8abea8a549e", "fusion_lat": 0.0, "name": "4dd799ab9fea137d002fb8abea8a549e", "is_reserved": 0, "rental_uris": {"android": "https://dc.lft.to/lastmile_qr_scan", "ios": "https://dc.lft.to/lastmile_qr_scan"}, "fusion_lon": 0.0}, {"lat": 38.872335, "is_disabled": 0, "type": "electric_scooter", "lon": -77.012123, "bike_id": "2cf5da1b7e6853b6600421fc79aa0086", "fusion_lat": 0.0, "name": "2cf5da1b7e6853b6600421fc79aa0086", "is_reserved": 0, "rental_uris": {"android": "https://dc.lft.to/lastmile_qr_scan", "ios": "https://dc.lft.to/lastmile_qr_scan"}, "fusion_lon": 0.0}, {"lat": 38.896224333333336, "is_disabled": 0, "type": "electric_scooter", "lon": -76.956547, "bike_id": "89db08dab3586450008bdbf8c57b9097", "fusion_lat": 0.0, "name": "89db08dab3586450008bdbf8c57b9097", "is_reserved": 0, "rental_uris": {"android": "https://dc.lft.to/lastmile_qr_scan", "ios": "https://dc.lft.to/lastmile_qr_scan"}, "fusion_lon": 0.0}, {"lat": 38.91416516666666, "is_disabled": 0, "type": "electric_scooter", "lon": -77.03257966666666, "bike_id": "07919a6c6bbc992f63038e719f6c2215", "fusion_lat": 0.0, "name": "07919a6c6bbc992f63038e719f6c2215", "is_reserved": 0, "rental_uris": {"android": "https://dc.lft.to/lastmile_qr_scan", "ios": "https://dc.lft.to/lastmile_qr_scan"}, "fusion_lon": 0.0}, {"lat": 38.9289645, "is_disabled": 0, "type": "electric_scooter", "lon": -77.03259233333333, "bike_id": "db0cc56975f7ef7e7dc219e29dbd5fb8", "fusion_lat": 0.0, "name": "db0cc56975f7ef7e7dc219e29dbd5fb8", "is_reserved": 0, "rental_uris": {"android": "https://dc.lft.to/lastmile_qr_scan", "ios": "https://dc.lft.to/lastmile_qr_scan"}, "fusion_lon": 0.0}, {"lat": 38.8874355, "is_disabled": 0, "type": "electric_scooter", "lon": -77.02076116666667, "bike_id": "cd3d5beb2344a72b487cdff278ba8fb9", "fusion_lat": 0.0, "name": "cd3d5beb2344a72b487cdff278ba8fb9", "is_reserved": 0, "rental_uris": {"android": "https://dc.lft.to/lastmile_qr_scan", "ios": "https://dc.lft.to/lastmile_qr_scan"}, "fusion_lon": 0.0}, {"lat": 38.938578166666666, "is_disabled": 0, "type": "electric_scooter", "lon": -77.02656233333333, "bike_id": "82b21c0ae5c61fe689f5885248815d9a", "fusion_lat": 0.0, "name": "82b21c0ae5c61fe689f5885248815d9a", "is_reserved": 0, "rental_uris": {"android": "https://dc.lft.to/lastmile_qr_scan", "ios": "https://dc.lft.to/lastmile_qr_scan"}, "fusion_lon": 0.0}, {"lat": 38.876324833333335, "is_disabled": 0, "type": "electric_scooter", "lon": -77.01942833333334, "bike_id": "96feedf9fb8f776a257a4b297d41fab2", "fusion_lat": 0.0, "name": "96feedf9fb8f776a257a4b297d41fab2", "is_reserved": 0, "rental_uris": {"android": "https://dc.lft.to/lastmile_qr_scan", "ios": "https://dc.lft.to/lastmile_qr_scan"}, "fusion_lon": 0.0}, {"lat": 38.92616833333334, "is_disabled": 0, "type": "electric_scooter", "lon": -77.04407066666667, "bike_id": "a910e13fad800adfd3d32f760f7bce9a", "fusion_lat": 0.0, "name": "a910e13fad800adfd3d32f760f7bce9a", "is_reserved": 0, "rental_uris": {"android": "https://dc.lft.to/lastmile_qr_scan", "ios": "https://dc.lft.to/lastmile_qr_scan"}, "fusion_lon": 0.0}, {"lat": 38.916222166666664, "is_disabled": 0, "type": "electric_scooter", "lon": -77.0317085, "bike_id": "43f7c6c337780fafaf226875b9a41823", "fusion_lat": 0.0, "name": "43f7c6c337780fafaf226875b9a41823", "is_reserved": 0, "rental_uris": {"android": "https://dc.lft.to/lastmile_qr_scan", "ios": "https://dc.lft.to/lastmile_qr_scan"}, "fusion_lon": 0.0}, {"lat": 38.9037675, "is_disabled": 0, "type": "electric_scooter", "lon": -77.04672083333334, "bike_id": "91749a6e182609ca1d022c8eceb7a0a3", "fusion_lat": 0.0, "name": "91749a6e182609ca1d022c8eceb7a0a3", "is_reserved": 0, "rental_uris": {"android": "https://dc.lft.to/lastmile_qr_scan", "ios": "https://dc.lft.to/lastmile_qr_scan"}, "fusion_lon": 0.0}, {"lat": 38.919943, "is_disabled": 0, "type": "electric_scooter", "lon": -77.04759483333333, "bike_id": "2576f0bf4c43d289d2495467d73b0bd1", "fusion_lat": 0.0, "name": "2576f0bf4c43d289d2495467d73b0bd1", "is_reserved": 0, "rental_uris": {"android": "https://dc.lft.to/lastmile_qr_scan", "ios": "https://dc.lft.to/lastmile_qr_scan"}, "fusion_lon": 0.0}, {"lat": 38.9214805, "is_disabled": 0, "type": "electric_scooter", "lon": -77.04350483333333, "bike_id": "157163295ae07d7e77318a188bed6f5b", "fusion_lat": 0.0, "name": "157163295ae07d7e77318a188bed6f5b", "is_reserved": 0, "rental_uris": {"android": "https://dc.lft.to/lastmile_qr_scan", "ios": "https://dc.lft.to/lastmile_qr_scan"}, "fusion_lon": 0.0}, {"lat": 38.90109233333333, "is_disabled": 0, "type": "electric_scooter", "lon": -77.02578766666667, "bike_id": "e11209afc0969618af6513bdec975e39", "fusion_lat": 0.0, "name": "e11209afc0969618af6513bdec975e39", "is_reserved": 0, "rental_uris": {"android": "https://dc.lft.to/lastmile_qr_scan", "ios": "https://dc.lft.to/lastmile_qr_scan"}, "fusion_lon": 0.0}, {"lat": 38.9019905, "is_disabled": 0, "type": "electric_scooter", "lon": -77.047116, "bike_id": "dc7e806d0b925497fceb7fb605b264f2", "fusion_lat": 0.0, "name": "dc7e806d0b925497fceb7fb605b264f2", "is_reserved": 0, "rental_uris": {"android": "https://dc.lft.to/lastmile_qr_scan", "ios": "https://dc.lft.to/lastmile_qr_scan"}, "fusion_lon": 0.0}, {"lat": 38.923099, "is_disabled": 0, "type": "electric_scooter", "lon": -77.0396155, "bike_id": "52986976f5aa646463cd6e37e3cc700c", "fusion_lat": 0.0, "name": "52986976f5aa646463cd6e37e3cc700c", "is_reserved": 0, "rental_uris": {"android": "https://dc.lft.to/lastmile_qr_scan", "ios": "https://dc.lft.to/lastmile_qr_scan"}, "fusion_lon": 0.0}, {"lat": 38.913984666666664, "is_disabled": 0, "type": "electric_scooter", "lon": -77.03061733333334, "bike_id": "e12a994fa0d5fc916b3f7e425ad1d993", "fusion_lat": 0.0, "name": "e12a994fa0d5fc916b3f7e425ad1d993", "is_reserved": 0, "rental_uris": {"android": "https://dc.lft.to/lastmile_qr_scan", "ios": "https://dc.lft.to/lastmile_qr_scan"}, "fusion_lon": 0.0}, {"lat": 38.89619116666667, "is_disabled": 0, "type": "electric_scooter", "lon": -76.955897, "bike_id": "59018b473e1533507a6fea31b89f906c", "fusion_lat": 0.0, "name": "59018b473e1533507a6fea31b89f906c", "is_reserved": 0, "rental_uris": {"android": "https://dc.lft.to/lastmile_qr_scan", "ios": "https://dc.lft.to/lastmile_qr_scan"}, "fusion_lon": 0.0}, {"lat": 38.9156315, "is_disabled": 0, "type": "electric_scooter", "lon": -77.02180583333333, "bike_id": "da63c40116db44e3c184060811264597", "fusion_lat": 0.0, "name": "da63c40116db44e3c184060811264597", "is_reserved": 0, "rental_uris": {"android": "https://dc.lft.to/lastmile_qr_scan", "ios": "https://dc.lft.to/lastmile_qr_scan"}, "fusion_lon": 0.0}, {"lat": 38.92110316666667, "is_disabled": 0, "type": "electric_scooter", "lon": -77.017724, "bike_id": "03ab5a98b490a490bd0575a1ec971a15", "fusion_lat": 0.0, "name": "03ab5a98b490a490bd0575a1ec971a15", "is_reserved": 0, "rental_uris": {"android": "https://dc.lft.to/lastmile_qr_scan", "ios": "https://dc.lft.to/lastmile_qr_scan"}, "fusion_lon": 0.0}, {"lat": 38.9046455, "is_disabled": 0, "type": "electric_scooter", "lon": -77.00782766666667, "bike_id": "4b3c74b4ab11ebec2cd8f0afdfdaac06", "fusion_lat": 0.0, "name": "4b3c74b4ab11ebec2cd8f0afdfdaac06", "is_reserved": 0, "rental_uris": {"android": "https://dc.lft.to/lastmile_qr_scan", "ios": "https://dc.lft.to/lastmile_qr_scan"}, "fusion_lon": 0.0}, {"lat": 38.92759783333333, "is_disabled": 0, "type": "electric_scooter", "lon": -77.03220366666666, "bike_id": "4f9529798a5ce5be94b244df5fd03dbf", "fusion_lat": 0.0, "name": "4f9529798a5ce5be94b244df5fd03dbf", "is_reserved": 0, "rental_uris": {"android": "https://dc.lft.to/lastmile_qr_scan", "ios": "https://dc.lft.to/lastmile_qr_scan"}, "fusion_lon": 0.0}, {"lat": 38.90339566666667, "is_disabled": 0, "type": "electric_scooter", "lon": -77.02007716666667, "bike_id": "2bcb7f3f1acc437c68b83cf28404addb", "fusion_lat": 0.0, "name": "2bcb7f3f1acc437c68b83cf28404addb", "is_reserved": 0, "rental_uris": {"android": "https://dc.lft.to/lastmile_qr_scan", "ios": "https://dc.lft.to/lastmile_qr_scan"}, "fusion_lon": 0.0}, {"lat": 38.8865575, "is_disabled": 0, "type": "electric_bike", "lon": -77.16238766666666, "bike_id": "21cca639dfd0d693b1faaee1c3dac3ea", "fusion_lat": 0.0, "name": "21cca639dfd0d693b1faaee1c3dac3ea", "is_reserved": 0, "rental_uris": {"android": "https://dc.lft.to/lastmile_qr_scan", "ios": "https://dc.lft.to/lastmile_qr_scan"}, "fusion_lon": 0.0}, {"lat": 38.93729366666667, "is_disabled": 0, "type": "electric_scooter", "lon": -77.03269533333334, "bike_id": "ad6ba60db02869080a1e22d31b7c9297", "fusion_lat": 0.0, "name": "ad6ba60db02869080a1e22d31b7c9297", "is_reserved": 0, "rental_uris": {"android": "https://dc.lft.to/lastmile_qr_scan", "ios": "https://dc.lft.to/lastmile_qr_scan"}, "fusion_lon": 0.0}, {"lat": 38.921463333333335, "is_disabled": 0, "type": "electric_scooter", "lon": -77.0422655, "bike_id": "ae54b7eabc07e31557751ef1955b0a47", "fusion_lat": 0.0, "name": "ae54b7eabc07e31557751ef1955b0a47", "is_reserved": 0, "rental_uris": {"android": "https://dc.lft.to/lastmile_qr_scan", "ios": "https://dc.lft.to/lastmile_qr_scan"}, "fusion_lon": 0.0}, {"lat": 38.918963166666664, "is_disabled": 0, "type": "electric_scooter", "lon": -77.0390955, "bike_id": "e1916df37ce91b86692080fb0f6f2b5e", "fusion_lat": 0.0, "name": "e1916df37ce91b86692080fb0f6f2b5e", "is_reserved": 0, "rental_uris": {"android": "https://dc.lft.to/lastmile_qr_scan", "ios": "https://dc.lft.to/lastmile_qr_scan"}, "fusion_lon": 0.0}, {"lat": 38.935895333333335, "is_disabled": 0, "type": "electric_bike", "lon": -77.024475, "bike_id": "77465d62cd4a1bde89779c84a54b3c13", "fusion_lat": 0.0, "name": "77465d62cd4a1bde89779c84a54b3c13", "is_reserved": 0, "rental_uris": {"android": "https://dc.lft.to/lastmile_qr_scan", "ios": "https://dc.lft.to/lastmile_qr_scan"}, "fusion_lon": 0.0}, {"lat": 38.860566666666664, "is_disabled": 0, "type": "electric_bike", "lon": -77.05642166666667, "bike_id": "2fd8b64877b4389cb2cda0fc829d1ba0", "fusion_lat": 0.0, "name": "2fd8b64877b4389cb2cda0fc829d1ba0", "is_reserved": 0, "rental_uris": {"android": "https://dc.lft.to/lastmile_qr_scan", "ios": "https://dc.lft.to/lastmile_qr_scan"}, "fusion_lon": 0.0}, {"lat": 38.91404283333333, "is_disabled": 0, "type": "electric_scooter", "lon": -77.02059583333333, "bike_id": "33b4e6d98e3046b0c2257a8b4807baa7", "fusion_lat": 0.0, "name": "33b4e6d98e3046b0c2257a8b4807baa7", "is_reserved": 0, "rental_uris": {"android": "https://dc.lft.to/lastmile_qr_scan", "ios": "https://dc.lft.to/lastmile_qr_scan"}, "fusion_lon": 0.0}, {"lat": 38.91989316666667, "is_disabled": 0, "type": "electric_scooter", "lon": -76.97305666666666, "bike_id": "7017045aa24baccebc64f45173d013ea", "fusion_lat": 0.0, "name": "7017045aa24baccebc64f45173d013ea", "is_reserved": 0, "rental_uris": {"android": "https://dc.lft.to/lastmile_qr_scan", "ios": "https://dc.lft.to/lastmile_qr_scan"}, "fusion_lon": 0.0}, {"lat": 38.914063666666664, "is_disabled": 0, "type": "electric_scooter", "lon": -77.0326515, "bike_id": "fd123946b9eb3b662b21823ff3647bbe", "fusion_lat": 0.0, "name": "fd123946b9eb3b662b21823ff3647bbe", "is_reserved": 0, "rental_uris": {"android": "https://dc.lft.to/lastmile_qr_scan", "ios": "https://dc.lft.to/lastmile_qr_scan"}, "fusion_lon": 0.0}, {"lat": 38.921155, "is_disabled": 0, "type": "electric_bike", "lon": -77.0517085, "bike_id": "ed76349592ada33ebdabc816b1c38893", "fusion_lat": 0.0, "name": "ed76349592ada33ebdabc816b1c38893", "is_reserved": 0, "rental_uris": {"android": "https://dc.lft.to/lastmile_qr_scan", "ios": "https://dc.lft.to/lastmile_qr_scan"}, "fusion_lon": 0.0}, {"lat": 38.909838, "is_disabled": 0, "type": "electric_scooter", "lon": -77.03335083333333, "bike_id": "6fff0f7d45145ad6c5fd98d219da4ba1", "fusion_lat": 0.0, "name": "6fff0f7d45145ad6c5fd98d219da4ba1", "is_reserved": 0, "rental_uris": {"android": "https://dc.lft.to/lastmile_qr_scan", "ios": "https://dc.lft.to/lastmile_qr_scan"}, "fusion_lon": 0.0}, {"lat": 38.893741166666665, "is_disabled": 0, "type": "electric_scooter", "lon": -76.94973633333333, "bike_id": "7dabf748fd5b2a82cafee3ec88e35f3c", "fusion_lat": 0.0, "name": "7dabf748fd5b2a82cafee3ec88e35f3c", "is_reserved": 0, "rental_uris": {"android": "https://dc.lft.to/lastmile_qr_scan", "ios": "https://dc.lft.to/lastmile_qr_scan"}, "fusion_lon": 0.0}, {"lat": 38.87188783333333, "is_disabled": 0, "type": "electric_bike", "lon": -77.08414816666667, "bike_id": "44f3c2142f0c9afc27cce3c258b49061", "fusion_lat": 0.0, "name": "44f3c2142f0c9afc27cce3c258b49061", "is_reserved": 0, "rental_uris": {"android": "https://dc.lft.to/lastmile_qr_scan", "ios": "https://dc.lft.to/lastmile_qr_scan"}, "fusion_lon": 0.0}, {"lat": 38.8921105, "is_disabled": 0, "type": "electric_scooter", "lon": -77.03986983333333, "bike_id": "9525731f076b74dd19aa8bf8bcf60572", "fusion_lat": 0.0, "name": "9525731f076b74dd19aa8bf8bcf60572", "is_reserved": 0, "rental_uris": {"android": "https://dc.lft.to/lastmile_qr_scan", "ios": "https://dc.lft.to/lastmile_qr_scan"}, "fusion_lon": 0.0}, {"lat": 38.913949, "is_disabled": 0, "type": "electric_scooter", "lon": -77.031844, "bike_id": "38ef4be5e83a3bc7be22776bea6fe967", "fusion_lat": 0.0, "name": "38ef4be5e83a3bc7be22776bea6fe967", "is_reserved": 0, "rental_uris": {"android": "https://dc.lft.to/lastmile_qr_scan", "ios": "https://dc.lft.to/lastmile_qr_scan"}, "fusion_lon": 0.0}, {"lat": 38.89826983333333, "is_disabled": 0, "type": "electric_scooter", "lon": -77.03309033333333, "bike_id": "063b76293498b241796845776a929f2c", "fusion_lat": 0.0, "name": "063b76293498b241796845776a929f2c", "is_reserved": 0, "rental_uris": {"android": "https://dc.lft.to/lastmile_qr_scan", "ios": "https://dc.lft.to/lastmile_qr_scan"}, "fusion_lon": 0.0}, {"lat": 38.93288066666667, "is_disabled": 0, "type": "electric_scooter", "lon": -77.0397945, "bike_id": "45af3f015ec50aa8ef481e8041f6449a", "fusion_lat": 0.0, "name": "45af3f015ec50aa8ef481e8041f6449a", "is_reserved": 0, "rental_uris": {"android": "https://dc.lft.to/lastmile_qr_scan", "ios": "https://dc.lft.to/lastmile_qr_scan"}, "fusion_lon": 0.0}, {"lat": 38.92589983333333, "is_disabled": 0, "type": "electric_scooter", "lon": -77.03228733333333, "bike_id": "c40d222c472eeca68dd9eca2ff34c396", "fusion_lat": 0.0, "name": "c40d222c472eeca68dd9eca2ff34c396", "is_reserved": 0, "rental_uris": {"android": "https://dc.lft.to/lastmile_qr_scan", "ios": "https://dc.lft.to/lastmile_qr_scan"}, "fusion_lon": 0.0}, {"lat": 38.896211, "is_disabled": 0, "type": "electric_scooter", "lon": -76.99849966666666, "bike_id": "d88d182d409f12385580667da78b1954", "fusion_lat": 0.0, "name": "d88d182d409f12385580667da78b1954", "is_reserved": 0, "rental_uris": {"android": "https://dc.lft.to/lastmile_qr_scan", "ios": "https://dc.lft.to/lastmile_qr_scan"}, "fusion_lon": 0.0}, {"lat": 38.869076166666666, "is_disabled": 0, "type": "electric_bike", "lon": -77.13181566666667, "bike_id": "6f3af013f442f4285ebdefc16f22c7b5", "fusion_lat": 0.0, "name": "6f3af013f442f4285ebdefc16f22c7b5", "is_reserved": 0, "rental_uris": {"android": "https://dc.lft.to/lastmile_qr_scan", "ios": "https://dc.lft.to/lastmile_qr_scan"}, "fusion_lon": 0.0}, {"lat": 38.93789316666667, "is_disabled": 0, "type": "electric_scooter", "lon": -77.024513, "bike_id": "f9349e4aae9f46835cbb102a824dccd2", "fusion_lat": 0.0, "name": "f9349e4aae9f46835cbb102a824dccd2", "is_reserved": 0, "rental_uris": {"android": "https://dc.lft.to/lastmile_qr_scan", "ios": "https://dc.lft.to/lastmile_qr_scan"}, "fusion_lon": 0.0}, {"lat": 38.84655083333333, "is_disabled": 0, "type": "electric_bike", "lon": -76.97935083333333, "bike_id": "1265129dde70882bb2247345ba915a20", "fusion_lat": 0.0, "name": "1265129dde70882bb2247345ba915a20", "is_reserved": 0, "rental_uris": {"android": "https://dc.lft.to/lastmile_qr_scan", "ios": "https://dc.lft.to/lastmile_qr_scan"}, "fusion_lon": 0.0}, {"lat": 38.92017766666667, "is_disabled": 0, "type": "electric_scooter", "lon": -77.031393, "bike_id": "985df618dd8e53cf9a4efac2cdfceac9", "fusion_lat": 0.0, "name": "985df618dd8e53cf9a4efac2cdfceac9", "is_reserved": 0, "rental_uris": {"android": "https://dc.lft.to/lastmile_qr_scan", "ios": "https://dc.lft.to/lastmile_qr_scan"}, "fusion_lon": 0.0}, {"lat": 38.8999225, "is_disabled": 0, "type": "electric_scooter", "lon": -77.02351633333333, "bike_id": "9e01d03255fe058cbbab4f10001f100a", "fusion_lat": 0.0, "name": "9e01d03255fe058cbbab4f10001f100a", "is_reserved": 0, "rental_uris": {"android": "https://dc.lft.to/lastmile_qr_scan", "ios": "https://dc.lft.to/lastmile_qr_scan"}, "fusion_lon": 0.0}, {"lat": 38.899696666666664, "is_disabled": 0, "type": "electric_scooter", "lon": -77.03351416666666, "bike_id": "cc083e0c34c5750926e470a9fc0c0131", "fusion_lat": 0.0, "name": "cc083e0c34c5750926e470a9fc0c0131", "is_reserved": 0, "rental_uris": {"android": "https://dc.lft.to/lastmile_qr_scan", "ios": "https://dc.lft.to/lastmile_qr_scan"}, "fusion_lon": 0.0}, {"lat": 38.89502066666667, "is_disabled": 0, "type": "electric_scooter", "lon": -77.022932, "bike_id": "4f121bf49c82adf1eab341810c91c048", "fusion_lat": 0.0, "name": "4f121bf49c82adf1eab341810c91c048", "is_reserved": 0, "rental_uris": {"android": "https://dc.lft.to/lastmile_qr_scan", "ios": "https://dc.lft.to/lastmile_qr_scan"}, "fusion_lon": 0.0}, {"lat": 38.915508333333335, "is_disabled": 0, "type": "electric_scooter", "lon": -77.03177583333333, "bike_id": "8cfb4d684083992fef13124d4a042430", "fusion_lat": 0.0, "name": "8cfb4d684083992fef13124d4a042430", "is_reserved": 0, "rental_uris": {"android": "https://dc.lft.to/lastmile_qr_scan", "ios": "https://dc.lft.to/lastmile_qr_scan"}, "fusion_lon": 0.0}, {"lat": 38.916131, "is_disabled": 0, "type": "electric_scooter", "lon": -77.048811, "bike_id": "c95e5afb8c615c84cdf16e7357d7235b", "fusion_lat": 0.0, "name": "c95e5afb8c615c84cdf16e7357d7235b", "is_reserved": 0, "rental_uris": {"android": "https://dc.lft.to/lastmile_qr_scan", "ios": "https://dc.lft.to/lastmile_qr_scan"}, "fusion_lon": 0.0}, {"lat": 38.8974305, "is_disabled": 0, "type": "electric_scooter", "lon": -77.04468566666667, "bike_id": "6975568e339a2d612fe31aed2c14d7da", "fusion_lat": 0.0, "name": "6975568e339a2d612fe31aed2c14d7da", "is_reserved": 0, "rental_uris": {"android": "https://dc.lft.to/lastmile_qr_scan", "ios": "https://dc.lft.to/lastmile_qr_scan"}, "fusion_lon": 0.0}, {"lat": 38.85519033333333, "is_disabled": 0, "type": "electric_bike", "lon": -77.12022366666666, "bike_id": "c5ea2b10b0d0774cc9a749630759b81a", "fusion_lat": 0.0, "name": "c5ea2b10b0d0774cc9a749630759b81a", "is_reserved": 0, "rental_uris": {"android": "https://dc.lft.to/lastmile_qr_scan", "ios": "https://dc.lft.to/lastmile_qr_scan"}, "fusion_lon": 0.0}, {"lat": 38.900754666666664, "is_disabled": 0, "type": "electric_scooter", "lon": -77.031725, "bike_id": "6639e39ca8adfe006ca94d07396cd940", "fusion_lat": 0.0, "name": "6639e39ca8adfe006ca94d07396cd940", "is_reserved": 0, "rental_uris": {"android": "https://dc.lft.to/lastmile_qr_scan", "ios": "https://dc.lft.to/lastmile_qr_scan"}, "fusion_lon": 0.0}, {"lat": 38.915681666666664, "is_disabled": 0, "type": "electric_scooter", "lon": -77.03240416666667, "bike_id": "4b84bf7db8299c0fe644ff9a029b59ad", "fusion_lat": 0.0, "name": "4b84bf7db8299c0fe644ff9a029b59ad", "is_reserved": 0, "rental_uris": {"android": "https://dc.lft.to/lastmile_qr_scan", "ios": "https://dc.lft.to/lastmile_qr_scan"}, "fusion_lon": 0.0}, {"lat": 38.92499633333333, "is_disabled": 0, "type": "electric_scooter", "lon": -77.00892533333334, "bike_id": "6b5827dc8b0c3aaeb7ce3b994d3c2d31", "fusion_lat": 0.0, "name": "6b5827dc8b0c3aaeb7ce3b994d3c2d31", "is_reserved": 0, "rental_uris": {"android": "https://dc.lft.to/lastmile_qr_scan", "ios": "https://dc.lft.to/lastmile_qr_scan"}, "fusion_lon": 0.0}, {"lat": 38.880832833333336, "is_disabled": 0, "type": "electric_scooter", "lon": -76.92729583333333, "bike_id": "c4e1bf7040b407363ed9629e2992fa7c", "fusion_lat": 0.0, "name": "c4e1bf7040b407363ed9629e2992fa7c", "is_reserved": 0, "rental_uris": {"android": "https://dc.lft.to/lastmile_qr_scan", "ios": "https://dc.lft.to/lastmile_qr_scan"}, "fusion_lon": 0.0}, {"lat": 38.8937075, "is_disabled": 0, "type": "electric_scooter", "lon": -76.95002966666667, "bike_id": "da69b737b73f69024887e9fa47020650", "fusion_lat": 0.0, "name": "da69b737b73f69024887e9fa47020650", "is_reserved": 0, "rental_uris": {"android": "https://dc.lft.to/lastmile_qr_scan", "ios": "https://dc.lft.to/lastmile_qr_scan"}, "fusion_lon": 0.0}, {"lat": 38.917096666666666, "is_disabled": 0, "type": "electric_scooter", "lon": -77.02503933333334, "bike_id": "152e9fa9f266c3d7c0869cfa4dcb07b5", "fusion_lat": 0.0, "name": "152e9fa9f266c3d7c0869cfa4dcb07b5", "is_reserved": 0, "rental_uris": {"android": "https://dc.lft.to/lastmile_qr_scan", "ios": "https://dc.lft.to/lastmile_qr_scan"}, "fusion_lon": 0.0}, {"lat": 38.8393325, "is_disabled": 0, "type": "electric_bike", "lon": -77.079072, "bike_id": "679e1dd93b37647affd954b79e700e9b", "fusion_lat": 0.0, "name": "679e1dd93b37647affd954b79e700e9b", "is_reserved": 0, "rental_uris": {"android": "https://dc.lft.to/lastmile_qr_scan", "ios": "https://dc.lft.to/lastmile_qr_scan"}, "fusion_lon": 0.0}, {"lat": 38.9206135, "is_disabled": 0, "type": "electric_scooter", "lon": -77.023696, "bike_id": "b95be124e2f03c4dd4468c16ccc9e197", "fusion_lat": 0.0, "name": "b95be124e2f03c4dd4468c16ccc9e197", "is_reserved": 0, "rental_uris": {"android": "https://dc.lft.to/lastmile_qr_scan", "ios": "https://dc.lft.to/lastmile_qr_scan"}, "fusion_lon": 0.0}, {"lat": 38.91380566666667, "is_disabled": 0, "type": "electric_scooter", "lon": -76.99000233333334, "bike_id": "b8006b013c81e1e3a7765308289d7b65", "fusion_lat": 0.0, "name": "b8006b013c81e1e3a7765308289d7b65", "is_reserved": 0, "rental_uris": {"android": "https://dc.lft.to/lastmile_qr_scan", "ios": "https://dc.lft.to/lastmile_qr_scan"}, "fusion_lon": 0.0}, {"lat": 38.965023333333335, "is_disabled": 0, "type": "electric_bike", "lon": -77.06493366666666, "bike_id": "77005e1475d891da8136e69b46ac656f", "fusion_lat": 0.0, "name": "77005e1475d891da8136e69b46ac656f", "is_reserved": 0, "rental_uris": {"android": "https://dc.lft.to/lastmile_qr_scan", "ios": "https://dc.lft.to/lastmile_qr_scan"}, "fusion_lon": 0.0}, {"lat": 38.86657983333333, "is_disabled": 0, "type": "electric_scooter", "lon": -76.98901366666666, "bike_id": "70056ba8b6d568fd6ea3595d4aa0c4e3", "fusion_lat": 0.0, "name": "70056ba8b6d568fd6ea3595d4aa0c4e3", "is_reserved": 0, "rental_uris": {"android": "https://dc.lft.to/lastmile_qr_scan", "ios": "https://dc.lft.to/lastmile_qr_scan"}, "fusion_lon": 0.0}, {"lat": 38.892201666666665, "is_disabled": 0, "type": "electric_scooter", "lon": -76.932925, "bike_id": "3e8a490fe119d74765377cfb7b5e5b75", "fusion_lat": 0.0, "name": "3e8a490fe119d74765377cfb7b5e5b75", "is_reserved": 0, "rental_uris": {"android": "https://dc.lft.to/lastmile_qr_scan", "ios": "https://dc.lft.to/lastmile_qr_scan"}, "fusion_lon": 0.0}, {"lat": 38.87458016666667, "is_disabled": 0, "type": "electric_scooter", "lon": -77.00495083333334, "bike_id": "a601e67aa7b49031b80da071d4fdc5f7", "fusion_lat": 0.0, "name": "a601e67aa7b49031b80da071d4fdc5f7", "is_reserved": 0, "rental_uris": {"android": "https://dc.lft.to/lastmile_qr_scan", "ios": "https://dc.lft.to/lastmile_qr_scan"}, "fusion_lon": 0.0}, {"lat": 38.90440483333333, "is_disabled": 0, "type": "electric_scooter", "lon": -77.04026083333333, "bike_id": "446b506c5ad4912055cd7ee053822a04", "fusion_lat": 0.0, "name": "446b506c5ad4912055cd7ee053822a04", "is_reserved": 0, "rental_uris": {"android": "https://dc.lft.to/lastmile_qr_scan", "ios": "https://dc.lft.to/lastmile_qr_scan"}, "fusion_lon": 0.0}, {"lat": 38.93169666666667, "is_disabled": 0, "type": "electric_scooter", "lon": -77.0281895, "bike_id": "09f3834912a8563eec74d89bf631969e", "fusion_lat": 0.0, "name": "09f3834912a8563eec74d89bf631969e", "is_reserved": 0, "rental_uris": {"android": "https://dc.lft.to/lastmile_qr_scan", "ios": "https://dc.lft.to/lastmile_qr_scan"}, "fusion_lon": 0.0}, {"lat": 38.90520466666667, "is_disabled": 0, "type": "electric_scooter", "lon": -77.05013966666667, "bike_id": "ead30fcd142c53ad82bfbd7f17bdd024", "fusion_lat": 0.0, "name": "ead30fcd142c53ad82bfbd7f17bdd024", "is_reserved": 0, "rental_uris": {"android": "https://dc.lft.to/lastmile_qr_scan", "ios": "https://dc.lft.to/lastmile_qr_scan"}, "fusion_lon": 0.0}, {"lat": 38.889698, "is_disabled": 0, "type": "electric_scooter", "lon": -76.93739366666667, "bike_id": "71f0db3ba0a75b75226dfa289f3c7dd8", "fusion_lat": 0.0, "name": "71f0db3ba0a75b75226dfa289f3c7dd8", "is_reserved": 0, "rental_uris": {"android": "https://dc.lft.to/lastmile_qr_scan", "ios": "https://dc.lft.to/lastmile_qr_scan"}, "fusion_lon": 0.0}, {"lat": 38.924138, "is_disabled": 0, "type": "electric_scooter", "lon": -77.05064666666667, "bike_id": "7cca187756f4a6bc62ae16265c250427", "fusion_lat": 0.0, "name": "7cca187756f4a6bc62ae16265c250427", "is_reserved": 0, "rental_uris": {"android": "https://dc.lft.to/lastmile_qr_scan", "ios": "https://dc.lft.to/lastmile_qr_scan"}, "fusion_lon": 0.0}, {"lat": 38.88430433333333, "is_disabled": 0, "type": "electric_scooter", "lon": -76.95756016666667, "bike_id": "8a73202f80c1497fadaeb62a504256fb", "fusion_lat": 0.0, "name": "8a73202f80c1497fadaeb62a504256fb", "is_reserved": 0, "rental_uris": {"android": "https://dc.lft.to/lastmile_qr_scan", "ios": "https://dc.lft.to/lastmile_qr_scan"}, "fusion_lon": 0.0}, {"lat": 38.912750333333335, "is_disabled": 0, "type": "electric_scooter", "lon": -77.0224625, "bike_id": "37a57591f6707e55c863c36f6e5ee295", "fusion_lat": 0.0, "name": "37a57591f6707e55c863c36f6e5ee295", "is_reserved": 0, "rental_uris": {"android": "https://dc.lft.to/lastmile_qr_scan", "ios": "https://dc.lft.to/lastmile_qr_scan"}, "fusion_lon": 0.0}, {"lat": 38.90949616666666, "is_disabled": 0, "type": "electric_scooter", "lon": -77.0466015, "bike_id": "a7a7b8bbc5ca566ff8b4c348d9bac6c7", "fusion_lat": 0.0, "name": "a7a7b8bbc5ca566ff8b4c348d9bac6c7", "is_reserved": 0, "rental_uris": {"android": "https://dc.lft.to/lastmile_qr_scan", "ios": "https://dc.lft.to/lastmile_qr_scan"}, "fusion_lon": 0.0}, {"lat": 38.91683316666666, "is_disabled": 0, "type": "electric_scooter", "lon": -77.02976466666667, "bike_id": "ef2221c86d358aefc921d1db1f4775c0", "fusion_lat": 0.0, "name": "ef2221c86d358aefc921d1db1f4775c0", "is_reserved": 0, "rental_uris": {"android": "https://dc.lft.to/lastmile_qr_scan", "ios": "https://dc.lft.to/lastmile_qr_scan"}, "fusion_lon": 0.0}, {"lat": 38.903750333333335, "is_disabled": 0, "type": "electric_scooter", "lon": -77.04381833333333, "bike_id": "020ceae0eb5f5049f2a2f1f90477370f", "fusion_lat": 0.0, "name": "020ceae0eb5f5049f2a2f1f90477370f", "is_reserved": 0, "rental_uris": {"android": "https://dc.lft.to/lastmile_qr_scan", "ios": "https://dc.lft.to/lastmile_qr_scan"}, "fusion_lon": 0.0}, {"lat": 38.909476166666664, "is_disabled": 0, "type": "electric_scooter", "lon": -77.03207916666666, "bike_id": "c6dd9c185d5cc30712460adda061a9f5", "fusion_lat": 0.0, "name": "c6dd9c185d5cc30712460adda061a9f5", "is_reserved": 0, "rental_uris": {"android": "https://dc.lft.to/lastmile_qr_scan", "ios": "https://dc.lft.to/lastmile_qr_scan"}, "fusion_lon": 0.0}, {"lat": 39.030514, "is_disabled": 0, "type": "electric_bike", "lon": -77.09476483333333, "bike_id": "2b4656fe71569926e81374289324a5b8", "fusion_lat": 0.0, "name": "2b4656fe71569926e81374289324a5b8", "is_reserved": 0, "rental_uris": {"android": "https://dc.lft.to/lastmile_qr_scan", "ios": "https://dc.lft.to/lastmile_qr_scan"}, "fusion_lon": 0.0}, {"lat": 38.936192166666665, "is_disabled": 0, "type": "electric_scooter", "lon": -77.03215533333334, "bike_id": "2166ff01a51ba19edfc5d765f52599ca", "fusion_lat": 0.0, "name": "2166ff01a51ba19edfc5d765f52599ca", "is_reserved": 0, "rental_uris": {"android": "https://dc.lft.to/lastmile_qr_scan", "ios": "https://dc.lft.to/lastmile_qr_scan"}, "fusion_lon": 0.0}, {"lat": 38.90544883333333, "is_disabled": 0, "type": "electric_scooter", "lon": -77.022199, "bike_id": "71f2150e2534f4e327476100c8d10e8a", "fusion_lat": 0.0, "name": "71f2150e2534f4e327476100c8d10e8a", "is_reserved": 0, "rental_uris": {"android": "https://dc.lft.to/lastmile_qr_scan", "ios": "https://dc.lft.to/lastmile_qr_scan"}, "fusion_lon": 0.0}, {"lat": 38.8858155, "is_disabled": 0, "type": "electric_scooter", "lon": -77.01228333333333, "bike_id": "9f5b0db4f1c4a1b800161d1dc4fb4a22", "fusion_lat": 0.0, "name": "9f5b0db4f1c4a1b800161d1dc4fb4a22", "is_reserved": 0, "rental_uris": {"android": "https://dc.lft.to/lastmile_qr_scan", "ios": "https://dc.lft.to/lastmile_qr_scan"}, "fusion_lon": 0.0}, {"lat": 38.916585833333336, "is_disabled": 0, "type": "electric_scooter", "lon": -77.031819, "bike_id": "de5df9740a57a5f3a0576e53e45030bf", "fusion_lat": 0.0, "name": "de5df9740a57a5f3a0576e53e45030bf", "is_reserved": 0, "rental_uris": {"android": "https://dc.lft.to/lastmile_qr_scan", "ios": "https://dc.lft.to/lastmile_qr_scan"}, "fusion_lon": 0.0}, {"lat": 38.9108515, "is_disabled": 0, "type": "electric_scooter", "lon": -77.040985, "bike_id": "bc85cefe03f3f68df41c0657be5eee46", "fusion_lat": 0.0, "name": "bc85cefe03f3f68df41c0657be5eee46", "is_reserved": 0, "rental_uris": {"android": "https://dc.lft.to/lastmile_qr_scan", "ios": "https://dc.lft.to/lastmile_qr_scan"}, "fusion_lon": 0.0}, {"lat": 38.91414733333333, "is_disabled": 0, "type": "electric_scooter", "lon": -77.032614, "bike_id": "fce8e557fe5dc50cab9c62779ee2d1d7", "fusion_lat": 0.0, "name": "fce8e557fe5dc50cab9c62779ee2d1d7", "is_reserved": 0, "rental_uris": {"android": "https://dc.lft.to/lastmile_qr_scan", "ios": "https://dc.lft.to/lastmile_qr_scan"}, "fusion_lon": 0.0}, {"lat": 39.024244333333336, "is_disabled": 0, "type": "electric_bike", "lon": -77.13106216666667, "bike_id": "0b65157c7661338edb9e7604f163bbeb", "fusion_lat": 0.0, "name": "0b65157c7661338edb9e7604f163bbeb", "is_reserved": 0, "rental_uris": {"android": "https://dc.lft.to/lastmile_qr_scan", "ios": "https://dc.lft.to/lastmile_qr_scan"}, "fusion_lon": 0.0}, {"lat": 38.930882833333335, "is_disabled": 0, "type": "electric_scooter", "lon": -76.96722666666666, "bike_id": "1221add6dfb839ea34cabd558d332c0a", "fusion_lat": 0.0, "name": "1221add6dfb839ea34cabd558d332c0a", "is_reserved": 0, "rental_uris": {"android": "https://dc.lft.to/lastmile_qr_scan", "ios": "https://dc.lft.to/lastmile_qr_scan"}, "fusion_lon": 0.0}, {"lat": 38.9649815, "is_disabled": 0, "type": "electric_bike", "lon": -76.93849483333334, "bike_id": "f5559575085e9883df833f809ad91b77", "fusion_lat": 0.0, "name": "f5559575085e9883df833f809ad91b77", "is_reserved": 0, "rental_uris": {"android": "https://dc.lft.to/lastmile_qr_scan", "ios": "https://dc.lft.to/lastmile_qr_scan"}, "fusion_lon": 0.0}, {"lat": 38.906015, "is_disabled": 0, "type": "electric_scooter", "lon": -77.06298033333333, "bike_id": "e90ce271542ca2b89f6daeb86159e072", "fusion_lat": 0.0, "name": "e90ce271542ca2b89f6daeb86159e072", "is_reserved": 0, "rental_uris": {"android": "https://dc.lft.to/lastmile_qr_scan", "ios": "https://dc.lft.to/lastmile_qr_scan"}, "fusion_lon": 0.0}, {"lat": 38.935317833333336, "is_disabled": 0, "type": "electric_scooter", "lon": -77.02356166666667, "bike_id": "0f8384faea0cefc6a353ad56d822eedd", "fusion_lat": 0.0, "name": "0f8384faea0cefc6a353ad56d822eedd", "is_reserved": 0, "rental_uris": {"android": "https://dc.lft.to/lastmile_qr_scan", "ios": "https://dc.lft.to/lastmile_qr_scan"}, "fusion_lon": 0.0}, {"lat": 38.867374, "is_disabled": 0, "type": "electric_scooter", "lon": -76.98790833333334, "bike_id": "f7fa45ee9a1e886dd94cab031216dd83", "fusion_lat": 0.0, "name": "f7fa45ee9a1e886dd94cab031216dd83", "is_reserved": 0, "rental_uris": {"android": "https://dc.lft.to/lastmile_qr_scan", "ios": "https://dc.lft.to/lastmile_qr_scan"}, "fusion_lon": 0.0}, {"lat": 38.92532033333333, "is_disabled": 0, "type": "electric_scooter", "lon": -77.0075665, "bike_id": "078f776f8e6632837bad3b9b8417476c", "fusion_lat": 0.0, "name": "078f776f8e6632837bad3b9b8417476c", "is_reserved": 0, "rental_uris": {"android": "https://dc.lft.to/lastmile_qr_scan", "ios": "https://dc.lft.to/lastmile_qr_scan"}, "fusion_lon": 0.0}, {"lat": 38.92216116666667, "is_disabled": 0, "type": "electric_scooter", "lon": -77.04235916666667, "bike_id": "79767b693b46412b2038d2909ce039f6", "fusion_lat": 0.0, "name": "79767b693b46412b2038d2909ce039f6", "is_reserved": 0, "rental_uris": {"android": "https://dc.lft.to/lastmile_qr_scan", "ios": "https://dc.lft.to/lastmile_qr_scan"}, "fusion_lon": 0.0}, {"lat": 38.9166795, "is_disabled": 0, "type": "electric_scooter", "lon": -77.00658, "bike_id": "48145c6e8501f7f97bc5982d6a9ed60e", "fusion_lat": 0.0, "name": "48145c6e8501f7f97bc5982d6a9ed60e", "is_reserved": 0, "rental_uris": {"android": "https://dc.lft.to/lastmile_qr_scan", "ios": "https://dc.lft.to/lastmile_qr_scan"}, "fusion_lon": 0.0}, {"lat": 38.9405185, "is_disabled": 0, "type": "electric_scooter", "lon": -77.09271683333333, "bike_id": "eec526d9914c4b122d1a4ab88829751e", "fusion_lat": 0.0, "name": "eec526d9914c4b122d1a4ab88829751e", "is_reserved": 0, "rental_uris": {"android": "https://dc.lft.to/lastmile_qr_scan", "ios": "https://dc.lft.to/lastmile_qr_scan"}, "fusion_lon": 0.0}, {"lat": 38.90900216666667, "is_disabled": 0, "type": "electric_scooter", "lon": -77.04664433333333, "bike_id": "61c18a9e51a32b6efc3b418dcc72ad06", "fusion_lat": 0.0, "name": "61c18a9e51a32b6efc3b418dcc72ad06", "is_reserved": 0, "rental_uris": {"android": "https://dc.lft.to/lastmile_qr_scan", "ios": "https://dc.lft.to/lastmile_qr_scan"}, "fusion_lon": 0.0}, {"lat": 38.919837, "is_disabled": 0, "type": "electric_scooter", "lon": -77.04148166666667, "bike_id": "c435424e2b5d2aff5af0dca0cff0b9c1", "fusion_lat": 0.0, "name": "c435424e2b5d2aff5af0dca0cff0b9c1", "is_reserved": 0, "rental_uris": {"android": "https://dc.lft.to/lastmile_qr_scan", "ios": "https://dc.lft.to/lastmile_qr_scan"}, "fusion_lon": 0.0}, {"lat": 38.90686616666667, "is_disabled": 0, "type": "electric_scooter", "lon": -76.99959316666667, "bike_id": "037b988b294d303876a005d42732ee8d", "fusion_lat": 0.0, "name": "037b988b294d303876a005d42732ee8d", "is_reserved": 0, "rental_uris": {"android": "https://dc.lft.to/lastmile_qr_scan", "ios": "https://dc.lft.to/lastmile_qr_scan"}, "fusion_lon": 0.0}, {"lat": 38.939688333333336, "is_disabled": 0, "type": "electric_bike", "lon": -77.0279395, "bike_id": "bc481d9a829a9ce277a75c7d29a1d821", "fusion_lat": 0.0, "name": "bc481d9a829a9ce277a75c7d29a1d821", "is_reserved": 0, "rental_uris": {"android": "https://dc.lft.to/lastmile_qr_scan", "ios": "https://dc.lft.to/lastmile_qr_scan"}, "fusion_lon": 0.0}, {"lat": 38.973724833333335, "is_disabled": 0, "type": "electric_scooter", "lon": -77.01864783333333, "bike_id": "abf9dbf6ff6a927b92b30859f1ac7e50", "fusion_lat": 0.0, "name": "abf9dbf6ff6a927b92b30859f1ac7e50", "is_reserved": 0, "rental_uris": {"android": "https://dc.lft.to/lastmile_qr_scan", "ios": "https://dc.lft.to/lastmile_qr_scan"}, "fusion_lon": 0.0}, {"lat": 38.84288983333333, "is_disabled": 0, "type": "electric_scooter", "lon": -76.99953683333334, "bike_id": "640443e960f0f1fcbd092d8003422de7", "fusion_lat": 0.0, "name": "640443e960f0f1fcbd092d8003422de7", "is_reserved": 0, "rental_uris": {"android": "https://dc.lft.to/lastmile_qr_scan", "ios": "https://dc.lft.to/lastmile_qr_scan"}, "fusion_lon": 0.0}, {"lat": 38.92553983333333, "is_disabled": 0, "type": "electric_scooter", "lon": -77.032915, "bike_id": "c2d645cc33bb71d35c24e3cab6e19596", "fusion_lat": 0.0, "name": "c2d645cc33bb71d35c24e3cab6e19596", "is_reserved": 0, "rental_uris": {"android": "https://dc.lft.to/lastmile_qr_scan", "ios": "https://dc.lft.to/lastmile_qr_scan"}, "fusion_lon": 0.0}, {"lat": 38.933097, "is_disabled": 0, "type": "electric_scooter", "lon": -77.03445583333334, "bike_id": "b0e45a167648b6e39e2868b523c2553b", "fusion_lat": 0.0, "name": "b0e45a167648b6e39e2868b523c2553b", "is_reserved": 0, "rental_uris": {"android": "https://dc.lft.to/lastmile_qr_scan", "ios": "https://dc.lft.to/lastmile_qr_scan"}, "fusion_lon": 0.0}, {"lat": 38.9081035, "is_disabled": 0, "type": "electric_scooter", "lon": -77.0416485, "bike_id": "04d9116c12fa101ff6109ef975846531", "fusion_lat": 0.0, "name": "04d9116c12fa101ff6109ef975846531", "is_reserved": 0, "rental_uris": {"android": "https://dc.lft.to/lastmile_qr_scan", "ios": "https://dc.lft.to/lastmile_qr_scan"}, "fusion_lon": 0.0}, {"lat": 38.93195516666667, "is_disabled": 0, "type": "electric_scooter", "lon": -77.038578, "bike_id": "216b750eb1e4248b6e6e5f0330f0b9c6", "fusion_lat": 0.0, "name": "216b750eb1e4248b6e6e5f0330f0b9c6", "is_reserved": 0, "rental_uris": {"android": "https://dc.lft.to/lastmile_qr_scan", "ios": "https://dc.lft.to/lastmile_qr_scan"}, "fusion_lon": 0.0}, {"lat": 38.90232116666667, "is_disabled": 0, "type": "electric_scooter", "lon": -77.03860333333333, "bike_id": "d9878c0ceaebe304ca2f02d2356e8ca4", "fusion_lat": 0.0, "name": "d9878c0ceaebe304ca2f02d2356e8ca4", "is_reserved": 0, "rental_uris": {"android": "https://dc.lft.to/lastmile_qr_scan", "ios": "https://dc.lft.to/lastmile_qr_scan"}, "fusion_lon": 0.0}, {"lat": 38.887361166666665, "is_disabled": 0, "type": "electric_scooter", "lon": -77.00324266666667, "bike_id": "a6d96c98a241c81d39c9c065a15036b6", "fusion_lat": 0.0, "name": "a6d96c98a241c81d39c9c065a15036b6", "is_reserved": 0, "rental_uris": {"android": "https://dc.lft.to/lastmile_qr_scan", "ios": "https://dc.lft.to/lastmile_qr_scan"}, "fusion_lon": 0.0}, {"lat": 38.90266883333334, "is_disabled": 0, "type": "electric_scooter", "lon": -77.04606033333333, "bike_id": "8685952824bf52f954a49080ba2772b8", "fusion_lat": 0.0, "name": "8685952824bf52f954a49080ba2772b8", "is_reserved": 0, "rental_uris": {"android": "https://dc.lft.to/lastmile_qr_scan", "ios": "https://dc.lft.to/lastmile_qr_scan"}, "fusion_lon": 0.0}, {"lat": 38.899706, "is_disabled": 0, "type": "electric_scooter", "lon": -76.9838235, "bike_id": "afa749c686eac3cd81c5724b20e6862c", "fusion_lat": 0.0, "name": "afa749c686eac3cd81c5724b20e6862c", "is_reserved": 0, "rental_uris": {"android": "https://dc.lft.to/lastmile_qr_scan", "ios": "https://dc.lft.to/lastmile_qr_scan"}, "fusion_lon": 0.0}, {"lat": 38.91331066666667, "is_disabled": 0, "type": "electric_scooter", "lon": -77.048169, "bike_id": "aa36f5f1d632e8a73816671e731341d1", "fusion_lat": 0.0, "name": "aa36f5f1d632e8a73816671e731341d1", "is_reserved": 0, "rental_uris": {"android": "https://dc.lft.to/lastmile_qr_scan", "ios": "https://dc.lft.to/lastmile_qr_scan"}, "fusion_lon": 0.0}, {"lat": 38.955465833333335, "is_disabled": 0, "type": "electric_bike", "lon": -76.93550583333334, "bike_id": "db764a80f9c4d4dfbdb7c1f9c002c1f7", "fusion_lat": 0.0, "name": "db764a80f9c4d4dfbdb7c1f9c002c1f7", "is_reserved": 0, "rental_uris": {"android": "https://dc.lft.to/lastmile_qr_scan", "ios": "https://dc.lft.to/lastmile_qr_scan"}, "fusion_lon": 0.0}, {"lat": 38.86349516666667, "is_disabled": 0, "type": "electric_scooter", "lon": -76.9899695, "bike_id": "d49c030416f2fbeac6ea06c1d730765c", "fusion_lat": 0.0, "name": "d49c030416f2fbeac6ea06c1d730765c", "is_reserved": 0, "rental_uris": {"android": "https://dc.lft.to/lastmile_qr_scan", "ios": "https://dc.lft.to/lastmile_qr_scan"}, "fusion_lon": 0.0}, {"lat": 38.957839, "is_disabled": 0, "type": "electric_scooter", "lon": -77.02467966666667, "bike_id": "62bc487f11bb54c453ede591bdce312c", "fusion_lat": 0.0, "name": "62bc487f11bb54c453ede591bdce312c", "is_reserved": 0, "rental_uris": {"android": "https://dc.lft.to/lastmile_qr_scan", "ios": "https://dc.lft.to/lastmile_qr_scan"}, "fusion_lon": 0.0}, {"lat": 38.921240833333336, "is_disabled": 0, "type": "electric_scooter", "lon": -77.0443065, "bike_id": "831b776746466bb9368f6fd50ed69355", "fusion_lat": 0.0, "name": "831b776746466bb9368f6fd50ed69355", "is_reserved": 0, "rental_uris": {"android": "https://dc.lft.to/lastmile_qr_scan", "ios": "https://dc.lft.to/lastmile_qr_scan"}, "fusion_lon": 0.0}, {"lat": 38.92876016666666, "is_disabled": 0, "type": "electric_bike", "lon": -77.032717, "bike_id": "fda5bd091d15a02b86e1425d6deb83a0", "fusion_lat": 0.0, "name": "fda5bd091d15a02b86e1425d6deb83a0", "is_reserved": 0, "rental_uris": {"android": "https://dc.lft.to/lastmile_qr_scan", "ios": "https://dc.lft.to/lastmile_qr_scan"}, "fusion_lon": 0.0}, {"lat": 38.879254333333336, "is_disabled": 0, "type": "electric_scooter", "lon": -77.02312, "bike_id": "9a4f420df7997c427bfed9d638428e8a", "fusion_lat": 0.0, "name": "9a4f420df7997c427bfed9d638428e8a", "is_reserved": 0, "rental_uris": {"android": "https://dc.lft.to/lastmile_qr_scan", "ios": "https://dc.lft.to/lastmile_qr_scan"}, "fusion_lon": 0.0}, {"lat": 38.922045, "is_disabled": 0, "type": "electric_scooter", "lon": -77.04229566666666, "bike_id": "849d4204d81be81bc1308e9e5f36234d", "fusion_lat": 0.0, "name": "849d4204d81be81bc1308e9e5f36234d", "is_reserved": 0, "rental_uris": {"android": "https://dc.lft.to/lastmile_qr_scan", "ios": "https://dc.lft.to/lastmile_qr_scan"}, "fusion_lon": 0.0}, {"lat": 38.898212, "is_disabled": 0, "type": "electric_scooter", "lon": -77.03295733333333, "bike_id": "a83425a88f8f69f7cc52b62a042a81ec", "fusion_lat": 0.0, "name": "a83425a88f8f69f7cc52b62a042a81ec", "is_reserved": 0, "rental_uris": {"android": "https://dc.lft.to/lastmile_qr_scan", "ios": "https://dc.lft.to/lastmile_qr_scan"}, "fusion_lon": 0.0}, {"lat": 38.842905333333334, "is_disabled": 0, "type": "electric_scooter", "lon": -76.99949866666667, "bike_id": "0bf46aa6d14879f36a3d2d59af02d9b9", "fusion_lat": 0.0, "name": "0bf46aa6d14879f36a3d2d59af02d9b9", "is_reserved": 0, "rental_uris": {"android": "https://dc.lft.to/lastmile_qr_scan", "ios": "https://dc.lft.to/lastmile_qr_scan"}, "fusion_lon": 0.0}, {"lat": 38.914158666666665, "is_disabled": 0, "type": "electric_scooter", "lon": -77.0306955, "bike_id": "64a550dbfd3b7018200436a3c8642147", "fusion_lat": 0.0, "name": "64a550dbfd3b7018200436a3c8642147", "is_reserved": 0, "rental_uris": {"android": "https://dc.lft.to/lastmile_qr_scan", "ios": "https://dc.lft.to/lastmile_qr_scan"}, "fusion_lon": 0.0}, {"lat": 38.8991935, "is_disabled": 0, "type": "electric_scooter", "lon": -76.9338205, "bike_id": "5c12bc4a66fee30b1c3b98bd67672d78", "fusion_lat": 0.0, "name": "5c12bc4a66fee30b1c3b98bd67672d78", "is_reserved": 0, "rental_uris": {"android": "https://dc.lft.to/lastmile_qr_scan", "ios": "https://dc.lft.to/lastmile_qr_scan"}, "fusion_lon": 0.0}, {"lat": 38.92743433333333, "is_disabled": 0, "type": "electric_bike", "lon": -77.07757966666667, "bike_id": "dd145b50b49e154173ab5eff4e93d742", "fusion_lat": 0.0, "name": "dd145b50b49e154173ab5eff4e93d742", "is_reserved": 0, "rental_uris": {"android": "https://dc.lft.to/lastmile_qr_scan", "ios": "https://dc.lft.to/lastmile_qr_scan"}, "fusion_lon": 0.0}, {"lat": 38.874809166666665, "is_disabled": 0, "type": "electric_bike", "lon": -77.00821966666666, "bike_id": "b8c27e6f0fc7b027c2c6043f2088c884", "fusion_lat": 0.0, "name": "b8c27e6f0fc7b027c2c6043f2088c884", "is_reserved": 0, "rental_uris": {"android": "https://dc.lft.to/lastmile_qr_scan", "ios": "https://dc.lft.to/lastmile_qr_scan"}, "fusion_lon": 0.0}, {"lat": 38.953242, "is_disabled": 0, "type": "electric_bike", "lon": -76.98824616666667, "bike_id": "58043caa0cf5f9f9fc5c4902b1e5f630", "fusion_lat": 0.0, "name": "58043caa0cf5f9f9fc5c4902b1e5f630", "is_reserved": 0, "rental_uris": {"android": "https://dc.lft.to/lastmile_qr_scan", "ios": "https://dc.lft.to/lastmile_qr_scan"}, "fusion_lon": 0.0}, {"lat": 38.8662455, "is_disabled": 0, "type": "electric_scooter", "lon": -76.986578, "bike_id": "d85b6df5975be726aa91f0340671061c", "fusion_lat": 0.0, "name": "d85b6df5975be726aa91f0340671061c", "is_reserved": 0, "rental_uris": {"android": "https://dc.lft.to/lastmile_qr_scan", "ios": "https://dc.lft.to/lastmile_qr_scan"}, "fusion_lon": 0.0}, {"lat": 38.9126445, "is_disabled": 0, "type": "electric_scooter", "lon": -77.02225966666667, "bike_id": "4f03c3fd6ce5ce7a0ca125d9f7cc054c", "fusion_lat": 0.0, "name": "4f03c3fd6ce5ce7a0ca125d9f7cc054c", "is_reserved": 0, "rental_uris": {"android": "https://dc.lft.to/lastmile_qr_scan", "ios": "https://dc.lft.to/lastmile_qr_scan"}, "fusion_lon": 0.0}, {"lat": 38.93237583333333, "is_disabled": 0, "type": "electric_scooter", "lon": -77.0327075, "bike_id": "1dc187c8bf881b294d72691cbd93625d", "fusion_lat": 0.0, "name": "1dc187c8bf881b294d72691cbd93625d", "is_reserved": 0, "rental_uris": {"android": "https://dc.lft.to/lastmile_qr_scan", "ios": "https://dc.lft.to/lastmile_qr_scan"}, "fusion_lon": 0.0}, {"lat": 38.84424833333333, "is_disabled": 0, "type": "electric_scooter", "lon": -76.99784333333334, "bike_id": "461066a3b537814714f22705e39f22e3", "fusion_lat": 0.0, "name": "461066a3b537814714f22705e39f22e3", "is_reserved": 0, "rental_uris": {"android": "https://dc.lft.to/lastmile_qr_scan", "ios": "https://dc.lft.to/lastmile_qr_scan"}, "fusion_lon": 0.0}, {"lat": 38.80226566666666, "is_disabled": 0, "type": "electric_bike", "lon": -77.07919483333333, "bike_id": "4f4897ef796ba3e068f6cb4fee3c5e56", "fusion_lat": 0.0, "name": "4f4897ef796ba3e068f6cb4fee3c5e56", "is_reserved": 0, "rental_uris": {"android": "https://dc.lft.to/lastmile_qr_scan", "ios": "https://dc.lft.to/lastmile_qr_scan"}, "fusion_lon": 0.0}, {"lat": 38.907658, "is_disabled": 0, "type": "electric_scooter", "lon": -77.020642, "bike_id": "701ffaf70f0efa8d8decdd0c3318dbb9", "fusion_lat": 0.0, "name": "701ffaf70f0efa8d8decdd0c3318dbb9", "is_reserved": 0, "rental_uris": {"android": "https://dc.lft.to/lastmile_qr_scan", "ios": "https://dc.lft.to/lastmile_qr_scan"}, "fusion_lon": 0.0}, {"lat": 38.8873475, "is_disabled": 0, "type": "electric_scooter", "lon": -77.0321445, "bike_id": "e41ff1c545d4ea314163ba4c03d1e613", "fusion_lat": 0.0, "name": "e41ff1c545d4ea314163ba4c03d1e613", "is_reserved": 0, "rental_uris": {"android": "https://dc.lft.to/lastmile_qr_scan", "ios": "https://dc.lft.to/lastmile_qr_scan"}, "fusion_lon": 0.0}, {"lat": 38.915547833333335, "is_disabled": 0, "type": "electric_scooter", "lon": -77.0319205, "bike_id": "1642096c8268223ee023872a4539ddd4", "fusion_lat": 0.0, "name": "1642096c8268223ee023872a4539ddd4", "is_reserved": 0, "rental_uris": {"android": "https://dc.lft.to/lastmile_qr_scan", "ios": "https://dc.lft.to/lastmile_qr_scan"}, "fusion_lon": 0.0}, {"lat": 38.916972333333334, "is_disabled": 0, "type": "electric_scooter", "lon": -77.03750233333334, "bike_id": "60b286579c0d257d0bfe9abf325b53c1", "fusion_lat": 0.0, "name": "60b286579c0d257d0bfe9abf325b53c1", "is_reserved": 0, "rental_uris": {"android": "https://dc.lft.to/lastmile_qr_scan", "ios": "https://dc.lft.to/lastmile_qr_scan"}, "fusion_lon": 0.0}, {"lat": 38.915507833333336, "is_disabled": 0, "type": "electric_scooter", "lon": -77.032435, "bike_id": "b8038d56a77e444e479710acdd09f662", "fusion_lat": 0.0, "name": "b8038d56a77e444e479710acdd09f662", "is_reserved": 0, "rental_uris": {"android": "https://dc.lft.to/lastmile_qr_scan", "ios": "https://dc.lft.to/lastmile_qr_scan"}, "fusion_lon": 0.0}, {"lat": 38.95665433333333, "is_disabled": 0, "type": "electric_bike", "lon": -77.0278345, "bike_id": "8bf10c27bda1d3bac790fbaf8bea4cb3", "fusion_lat": 0.0, "name": "8bf10c27bda1d3bac790fbaf8bea4cb3", "is_reserved": 0, "rental_uris": {"android": "https://dc.lft.to/lastmile_qr_scan", "ios": "https://dc.lft.to/lastmile_qr_scan"}, "fusion_lon": 0.0}, {"lat": 38.906875, "is_disabled": 0, "type": "electric_bike", "lon": -76.9518935, "bike_id": "547e3d43c9e082f093349faa51d0bd06", "fusion_lat": 0.0, "name": "547e3d43c9e082f093349faa51d0bd06", "is_reserved": 0, "rental_uris": {"android": "https://dc.lft.to/lastmile_qr_scan", "ios": "https://dc.lft.to/lastmile_qr_scan"}, "fusion_lon": 0.0}, {"lat": 38.885981666666666, "is_disabled": 0, "type": "electric_scooter", "lon": -77.01985016666667, "bike_id": "860f5e3673efc0a90c7b88e33e03f639", "fusion_lat": 0.0, "name": "860f5e3673efc0a90c7b88e33e03f639", "is_reserved": 0, "rental_uris": {"android": "https://dc.lft.to/lastmile_qr_scan", "ios": "https://dc.lft.to/lastmile_qr_scan"}, "fusion_lon": 0.0}, {"lat": 38.89092316666667, "is_disabled": 0, "type": "electric_scooter", "lon": -76.98683233333334, "bike_id": "059d7c2c785acd1733b3e367af4f70d3", "fusion_lat": 0.0, "name": "059d7c2c785acd1733b3e367af4f70d3", "is_reserved": 0, "rental_uris": {"android": "https://dc.lft.to/lastmile_qr_scan", "ios": "https://dc.lft.to/lastmile_qr_scan"}, "fusion_lon": 0.0}, {"lat": 38.922272166666666, "is_disabled": 0, "type": "electric_scooter", "lon": -77.03914433333334, "bike_id": "8c8ada67949f157a94bf3a4b914a2949", "fusion_lat": 0.0, "name": "8c8ada67949f157a94bf3a4b914a2949", "is_reserved": 0, "rental_uris": {"android": "https://dc.lft.to/lastmile_qr_scan", "ios": "https://dc.lft.to/lastmile_qr_scan"}, "fusion_lon": 0.0}, {"lat": 38.8595705, "is_disabled": 0, "type": "electric_scooter", "lon": -76.99106733333333, "bike_id": "68329038df5f00a434331dd349712f82", "fusion_lat": 0.0, "name": "68329038df5f00a434331dd349712f82", "is_reserved": 0, "rental_uris": {"android": "https://dc.lft.to/lastmile_qr_scan", "ios": "https://dc.lft.to/lastmile_qr_scan"}, "fusion_lon": 0.0}, {"lat": 38.939808666666664, "is_disabled": 0, "type": "electric_scooter", "lon": -77.03263966666667, "bike_id": "2e5e127f3d547a17fe06becb037ab364", "fusion_lat": 0.0, "name": "2e5e127f3d547a17fe06becb037ab364", "is_reserved": 0, "rental_uris": {"android": "https://dc.lft.to/lastmile_qr_scan", "ios": "https://dc.lft.to/lastmile_qr_scan"}, "fusion_lon": 0.0}, {"lat": 38.87580466666667, "is_disabled": 0, "type": "electric_scooter", "lon": -77.006041, "bike_id": "565ef9d3eb084afb0a0c03e219c4a3c8", "fusion_lat": 0.0, "name": "565ef9d3eb084afb0a0c03e219c4a3c8", "is_reserved": 0, "rental_uris": {"android": "https://dc.lft.to/lastmile_qr_scan", "ios": "https://dc.lft.to/lastmile_qr_scan"}, "fusion_lon": 0.0}, {"lat": 38.89227533333333, "is_disabled": 0, "type": "electric_scooter", "lon": -77.05002116666667, "bike_id": "f5acaedae5eb84fb1219704af85185d8", "fusion_lat": 0.0, "name": "f5acaedae5eb84fb1219704af85185d8", "is_reserved": 0, "rental_uris": {"android": "https://dc.lft.to/lastmile_qr_scan", "ios": "https://dc.lft.to/lastmile_qr_scan"}, "fusion_lon": 0.0}, {"lat": 38.911337, "is_disabled": 0, "type": "electric_scooter", "lon": -77.04667583333334, "bike_id": "8756e5a594f5ed8449a3710ba45e7beb", "fusion_lat": 0.0, "name": "8756e5a594f5ed8449a3710ba45e7beb", "is_reserved": 0, "rental_uris": {"android": "https://dc.lft.to/lastmile_qr_scan", "ios": "https://dc.lft.to/lastmile_qr_scan"}, "fusion_lon": 0.0}, {"lat": 38.918114, "is_disabled": 0, "type": "electric_scooter", "lon": -77.03302016666666, "bike_id": "7cfcd326cd7788b4d5cd738e82fc1832", "fusion_lat": 0.0, "name": "7cfcd326cd7788b4d5cd738e82fc1832", "is_reserved": 0, "rental_uris": {"android": "https://dc.lft.to/lastmile_qr_scan", "ios": "https://dc.lft.to/lastmile_qr_scan"}, "fusion_lon": 0.0}, {"lat": 38.92480066666667, "is_disabled": 0, "type": "electric_scooter", "lon": -77.02635, "bike_id": "0c09cd501eadd6bf04a1ad877c70a1de", "fusion_lat": 0.0, "name": "0c09cd501eadd6bf04a1ad877c70a1de", "is_reserved": 0, "rental_uris": {"android": "https://dc.lft.to/lastmile_qr_scan", "ios": "https://dc.lft.to/lastmile_qr_scan"}, "fusion_lon": 0.0}, {"lat": 38.9169105, "is_disabled": 0, "type": "electric_scooter", "lon": -77.04607316666667, "bike_id": "292727789254554721ee2f423f59decf", "fusion_lat": 0.0, "name": "292727789254554721ee2f423f59decf", "is_reserved": 0, "rental_uris": {"android": "https://dc.lft.to/lastmile_qr_scan", "ios": "https://dc.lft.to/lastmile_qr_scan"}, "fusion_lon": 0.0}, {"lat": 38.91676966666667, "is_disabled": 0, "type": "electric_scooter", "lon": -77.032065, "bike_id": "95363c3c2a090956df04d2a63c6191cb", "fusion_lat": 0.0, "name": "95363c3c2a090956df04d2a63c6191cb", "is_reserved": 0, "rental_uris": {"android": "https://dc.lft.to/lastmile_qr_scan", "ios": "https://dc.lft.to/lastmile_qr_scan"}, "fusion_lon": 0.0}, {"lat": 38.898767, "is_disabled": 0, "type": "electric_scooter", "lon": -77.0271525, "bike_id": "c18f88355ef627b8b6d53b5e5cbb6a83", "fusion_lat": 0.0, "name": "c18f88355ef627b8b6d53b5e5cbb6a83", "is_reserved": 0, "rental_uris": {"android": "https://dc.lft.to/lastmile_qr_scan", "ios": "https://dc.lft.to/lastmile_qr_scan"}, "fusion_lon": 0.0}, {"lat": 38.8922095, "is_disabled": 0, "type": "electric_scooter", "lon": -77.04658133333334, "bike_id": "4ac0df73c2c93e90d26c0c019af1c0f4", "fusion_lat": 0.0, "name": "4ac0df73c2c93e90d26c0c019af1c0f4", "is_reserved": 0, "rental_uris": {"android": "https://dc.lft.to/lastmile_qr_scan", "ios": "https://dc.lft.to/lastmile_qr_scan"}, "fusion_lon": 0.0}, {"lat": 38.93979433333333, "is_disabled": 0, "type": "electric_scooter", "lon": -77.02892633333333, "bike_id": "5a24a4275e1013e565f14161d6fde55a", "fusion_lat": 0.0, "name": "5a24a4275e1013e565f14161d6fde55a", "is_reserved": 0, "rental_uris": {"android": "https://dc.lft.to/lastmile_qr_scan", "ios": "https://dc.lft.to/lastmile_qr_scan"}, "fusion_lon": 0.0}, {"lat": 38.900261666666665, "is_disabled": 0, "type": "electric_scooter", "lon": -77.01173883333334, "bike_id": "df2c72dcd33fd021321b675c170aa754", "fusion_lat": 0.0, "name": "df2c72dcd33fd021321b675c170aa754", "is_reserved": 0, "rental_uris": {"android": "https://dc.lft.to/lastmile_qr_scan", "ios": "https://dc.lft.to/lastmile_qr_scan"}, "fusion_lon": 0.0}, {"lat": 38.9152445, "is_disabled": 0, "type": "electric_scooter", "lon": -77.02000766666667, "bike_id": "3a8fefdfe003d168623a917bae0de642", "fusion_lat": 0.0, "name": "3a8fefdfe003d168623a917bae0de642", "is_reserved": 0, "rental_uris": {"android": "https://dc.lft.to/lastmile_qr_scan", "ios": "https://dc.lft.to/lastmile_qr_scan"}, "fusion_lon": 0.0}, {"lat": 38.903314333333334, "is_disabled": 0, "type": "electric_scooter", "lon": -77.02579633333333, "bike_id": "d7ae055654d76d0c7851f154876736e6", "fusion_lat": 0.0, "name": "d7ae055654d76d0c7851f154876736e6", "is_reserved": 0, "rental_uris": {"android": "https://dc.lft.to/lastmile_qr_scan", "ios": "https://dc.lft.to/lastmile_qr_scan"}, "fusion_lon": 0.0}, {"lat": 38.922321333333336, "is_disabled": 0, "type": "electric_scooter", "lon": -77.04145616666666, "bike_id": "5dcf269f710fd5698729f21785554072", "fusion_lat": 0.0, "name": "5dcf269f710fd5698729f21785554072", "is_reserved": 0, "rental_uris": {"android": "https://dc.lft.to/lastmile_qr_scan", "ios": "https://dc.lft.to/lastmile_qr_scan"}, "fusion_lon": 0.0}, {"lat": 38.881645, "is_disabled": 0, "type": "electric_scooter", "lon": -76.9297185, "bike_id": "8deaa459ceee8b009c6c42f6e3e40e26", "fusion_lat": 0.0, "name": "8deaa459ceee8b009c6c42f6e3e40e26", "is_reserved": 0, "rental_uris": {"android": "https://dc.lft.to/lastmile_qr_scan", "ios": "https://dc.lft.to/lastmile_qr_scan"}, "fusion_lon": 0.0}, {"lat": 38.924667166666666, "is_disabled": 0, "type": "electric_scooter", "lon": -77.03387883333333, "bike_id": "50db29c3ffb316344171a98977c665d7", "fusion_lat": 0.0, "name": "50db29c3ffb316344171a98977c665d7", "is_reserved": 0, "rental_uris": {"android": "https://dc.lft.to/lastmile_qr_scan", "ios": "https://dc.lft.to/lastmile_qr_scan"}, "fusion_lon": 0.0},