{"data": {"bikes": [{"is_disabled": 0, "fusion_lon": 0.0, "fusion_lat": 0.0, "lat": 38.92031566666667, "type": "electric_scooter", "lon": -77.01137716666666, "bike_id": "7bfa348398944320b2e7d0335f85a683", "rental_uris": {"android": "https://dc.lft.to/lastmile_qr_scan", "ios": "https://dc.lft.to/lastmile_qr_scan"}, "name": "7bfa348398944320b2e7d0335f85a683", "is_reserved": 0}, {"is_disabled": 0, "fusion_lon": 0.0, "fusion_lat": 0.0, "lat": 38.908274666666664, "type": "electric_scooter", "lon": -77.0336725, "bike_id": "a096bf045955fd8f83e3d41d447ff255", "rental_uris": {"android": "https://dc.lft.to/lastmile_qr_scan", "ios": "https://dc.lft.to/lastmile_qr_scan"}, "name": "a096bf045955fd8f83e3d41d447ff255", "is_reserved": 0}, {"is_disabled": 0, "fusion_lon": 0.0, "fusion_lat": 0.0, "lat": 38.907257666666666, "type": "electric_scooter", "lon": -77.029865, "bike_id": "a223f99a23d0081edab40a2ef3513aca", "rental_uris": {"android": "https://dc.lft.to/lastmile_qr_scan", "ios": "https://dc.lft.to/lastmile_qr_scan"}, "name": "a223f99a23d0081edab40a2ef3513aca", "is_reserved": 0}, {"is_disabled": 0, "fusion_lon": 0.0, "fusion_lat": 0.0, "lat": 38.90559233333333, "type": "electric_scooter", "lon": -77.00600266666666, "bike_id": "05563f0266d728d30a8f762ec893b928", "rental_uris": {"android": "https://dc.lft.to/lastmile_qr_scan", "ios": "https://dc.lft.to/lastmile_qr_scan"}, "name": "05563f0266d728d30a8f762ec893b928", "is_reserved": 0}, {"is_disabled": 0, "fusion_lon": 0.0, "fusion_lat": 0.0, "lat": 38.929972166666666, "type": "electric_scooter", "lon": -77.07808283333334, "bike_id": "d4d415b204336f8b5ab7cb8edba662d0", "rental_uris": {"android": "https://dc.lft.to/lastmile_qr_scan", "ios": "https://dc.lft.to/lastmile_qr_scan"}, "name": "d4d415b204336f8b5ab7cb8edba662d0", "is_reserved": 0}, {"is_disabled": 0, "fusion_lon": 0.0, "fusion_lat": 0.0, "lat": 38.937175, "type": "electric_scooter", "lon": -77.0325935, "bike_id": "ec7ca07d13d00abaa68ec4e71e02854c", "rental_uris": {"android": "https://dc.lft.to/lastmile_qr_scan", "ios": "https://dc.lft.to/lastmile_qr_scan"}, "name": "ec7ca07d13d00abaa68ec4e71e02854c", "is_reserved": 0}, {"is_disabled": 0, "fusion_lon": 0.0, "fusion_lat": 0.0, "lat": 38.91938483333333, "type": "electric_scooter", "lon": -77.01802566666667, "bike_id": "37b9e094751b9bfb61fb65a80d8080b2", "rental_uris": {"android": "https://dc.lft.to/lastmile_qr_scan", "ios": "https://dc.lft.to/lastmile_qr_scan"}, "name": "37b9e094751b9bfb61fb65a80d8080b2", "is_reserved": 0}, {"is_disabled": 0, "fusion_lon": 0.0, "fusion_lat": 0.0, "lat": 38.904915333333335, "type": "electric_scooter", "lon": -77.02948683333334, "bike_id": "f9e3a2ae399b420a1bb8340d4a059b81", "rental_uris": {"android": "https://dc.lft.to/lastmile_qr_scan", "ios": "https://dc.lft.to/lastmile_qr_scan"}, "name": "f9e3a2ae399b420a1bb8340d4a059b81", "is_reserved": 0}, {"is_disabled": 0, "fusion_lon": 0.0, "fusion_lat": 0.0, "lat": 38.86574433333333, "type": "electric_bike", "lon": -76.97356283333333, "bike_id": "19e15274c2ce63d3ee54fd2342949862", "rental_uris": {"android": "https://dc.lft.to/lastmile_qr_scan", "ios": "https://dc.lft.to/lastmile_qr_scan"}, "name": "19e15274c2ce63d3ee54fd2342949862", "is_reserved": 0}, {"is_disabled": 0, "fusion_lon": 0.0, "fusion_lat": 0.0, "lat": 38.863549, "type": "electric_scooter", "lon": -76.99061783333333, "bike_id": "ac840096938893a00865ca12e61149bd", "rental_uris": {"android": "https://dc.lft.to/lastmile_qr_scan", "ios": "https://dc.lft.to/lastmile_qr_scan"}, "name": "ac840096938893a00865ca12e61149bd", "is_reserved": 0}, {"is_disabled": 0, "fusion_lon": 0.0, "fusion_lat": 0.0, "lat": 38.92673533333333, "type": "electric_scooter", "lon": -77.03212416666666, "bike_id": "cd3e3f955050b86c7bd297078af4ecf8", "rental_uris": {"android": "https://dc.lft.to/lastmile_qr_scan", "ios": "https://dc.lft.to/lastmile_qr_scan"}, "name": "cd3e3f955050b86c7bd297078af4ecf8", "is_reserved": 0}, {"is_disabled": 0, "fusion_lon": 0.0, "fusion_lat": 0.0, "lat": 39.000148833333334, "type": "electric_bike", "lon": -76.87279866666667, "bike_id": "816fdfa43f75b224affb65040573cb12", "rental_uris": {"android": "https://dc.lft.to/lastmile_qr_scan", "ios": "https://dc.lft.to/lastmile_qr_scan"}, "name": "816fdfa43f75b224affb65040573cb12", "is_reserved": 0}, {"is_disabled": 0, "fusion_lon": 0.0, "fusion_lat": 0.0, "lat": 38.901809666666665, "type": "electric_scooter", "lon": -77.022031, "bike_id": "bff299f9d83bcbfad50fc0658ba773b9", "rental_uris": {"android": "https://dc.lft.to/lastmile_qr_scan", "ios": "https://dc.lft.to/lastmile_qr_scan"}, "name": "bff299f9d83bcbfad50fc0658ba773b9", "is_reserved": 0}, {"is_disabled": 0, "fusion_lon": 0.0, "fusion_lat": 0.0, "lat": 38.902460166666664, "type": "electric_scooter", "lon": -77.061161, "bike_id": "51733fe8d160e5d2fa8ac06d7b5de8cc", "rental_uris": {"android": "https://dc.lft.to/lastmile_qr_scan", "ios": "https://dc.lft.to/lastmile_qr_scan"}, "name": "51733fe8d160e5d2fa8ac06d7b5de8cc", "is_reserved": 0}, {"is_disabled": 0, "fusion_lon": 0.0, "fusion_lat": 0.0, "lat": 38.916985, "type": "electric_scooter", "lon": -77.02840866666666, "bike_id": "4a3b07e1c8f26e5bd98b44e8d91c84bf", "rental_uris": {"android": "https://dc.lft.to/lastmile_qr_scan", "ios": "https://dc.lft.to/lastmile_qr_scan"}, "name": "4a3b07e1c8f26e5bd98b44e8d91c84bf", "is_reserved": 0}, {"is_disabled": 0, "fusion_lon": 0.0, "fusion_lat": 0.0, "lat": 38.828649666666664, "type": "electric_bike", "lon": -77.11213266666667, "bike_id": "52b9c3f6542cdf495e1e531e79ed5063", "rental_uris": {"android": "https://dc.lft.to/lastmile_qr_scan", "ios": "https://dc.lft.to/lastmile_qr_scan"}, "name": "52b9c3f6542cdf495e1e531e79ed5063", "is_reserved": 0}, {"is_disabled": 0, "fusion_lon": 0.0, "fusion_lat": 0.0, "lat": 38.9039825, "type": "electric_scooter", "lon": -77.03296133333333, "bike_id": "00fc78ff35bb8cbc7383be04edbba055", "rental_uris": {"android": "https://dc.lft.to/lastmile_qr_scan", "ios": "https://dc.lft.to/lastmile_qr_scan"}, "name": "00fc78ff35bb8cbc7383be04edbba055", "is_reserved": 0}, {"is_disabled": 0, "fusion_lon": 0.0, "fusion_lat": 0.0, "lat": 38.9227705, "type": "electric_scooter", "lon": -77.07291283333333, "bike_id": "7c75846743e81edb75992140bfbdfb5e", "rental_uris": {"android": "https://dc.lft.to/lastmile_qr_scan", "ios": "https://dc.lft.to/lastmile_qr_scan"}, "name": "7c75846743e81edb75992140bfbdfb5e", "is_reserved": 0}, {"is_disabled": 0, "fusion_lon": 0.0, "fusion_lat": 0.0, "lat": 38.907774, "type": "electric_scooter", "lon": -77.03845016666666, "bike_id": "27ac35b735a7cd657167db08f5a12493", "rental_uris": {"android": "https://dc.lft.to/lastmile_qr_scan", "ios": "https://dc.lft.to/lastmile_qr_scan"}, "name": "27ac35b735a7cd657167db08f5a12493", "is_reserved": 0}, {"is_disabled": 0, "fusion_lon": 0.0, "fusion_lat": 0.0, "lat": 38.897094, "type": "electric_scooter", "lon": -77.02145166666666, "bike_id": "a324a6d451f8b40852a1314ac5f0074d", "rental_uris": {"android": "https://dc.lft.to/lastmile_qr_scan", "ios": "https://dc.lft.to/lastmile_qr_scan"}, "name": "a324a6d451f8b40852a1314ac5f0074d", "is_reserved": 0}, {"is_disabled": 0, "fusion_lon": 0.0, "fusion_lat": 0.0, "lat": 38.915465833333336, "type": "electric_scooter", "lon": -77.038506, "bike_id": "52cbf7a01a83ae61c678cc68208fb4e0", "rental_uris": {"android": "https://dc.lft.to/lastmile_qr_scan", "ios": "https://dc.lft.to/lastmile_qr_scan"}, "name": "52cbf7a01a83ae61c678cc68208fb4e0", "is_reserved": 0}, {"is_disabled": 0, "fusion_lon": 0.0, "fusion_lat": 0.0, "lat": 38.91038833333333, "type": "electric_scooter", "lon": -77.01492716666667, "bike_id": "8d381cd279ded26bf1ef86582af11774", "rental_uris": {"android": "https://dc.lft.to/lastmile_qr_scan", "ios": "https://dc.lft.to/lastmile_qr_scan"}, "name": "8d381cd279ded26bf1ef86582af11774", "is_reserved": 0}, {"is_disabled": 0, "fusion_lon": 0.0, "fusion_lat": 0.0, "lat": 38.913493833333334, "type": "electric_scooter", "lon": -77.03206916666667, "bike_id": "fe744d0ff6083093a37f91683d008697", "rental_uris": {"android": "https://dc.lft.to/lastmile_qr_scan", "ios": "https://dc.lft.to/lastmile_qr_scan"}, "name": "fe744d0ff6083093a37f91683d008697", "is_reserved": 0}, {"is_disabled": 0, "fusion_lon": 0.0, "fusion_lat": 0.0, "lat": 38.919071833333334, "type": "electric_scooter", "lon": -77.04172866666667, "bike_id": "50528f453ce55b0d3d6a9e4edab3cb6a", "rental_uris": {"android": "https://dc.lft.to/lastmile_qr_scan", "ios": "https://dc.lft.to/lastmile_qr_scan"}, "name": "50528f453ce55b0d3d6a9e4edab3cb6a", "is_reserved": 0}, {"is_disabled": 0, "fusion_lon": 0.0, "fusion_lat": 0.0, "lat": 38.909557666666664, "type": "electric_scooter", "lon": -77.02380783333334, "bike_id": "394bec28161edefea453aa1b6f8839bf", "rental_uris": {"android": "https://dc.lft.to/lastmile_qr_scan", "ios": "https://dc.lft.to/lastmile_qr_scan"}, "name": "394bec28161edefea453aa1b6f8839bf", "is_reserved": 0}, {"is_disabled": 0, "fusion_lon": 0.0, "fusion_lat": 0.0, "lat": 38.922305, "type": "electric_scooter", "lon": -76.975314, "bike_id": "848bf681b0a7284b9926f3560c39e36a", "rental_uris": {"android": "https://dc.lft.to/lastmile_qr_scan", "ios": "https://dc.lft.to/lastmile_qr_scan"}, "name": "848bf681b0a7284b9926f3560c39e36a", "is_reserved": 0}, {"is_disabled": 0, "fusion_lon": 0.0, "fusion_lat": 0.0, "lat": 38.91191383333334, "type": "electric_scooter", "lon": -77.03964966666666, "bike_id": "529636df02f5cca5dd131e72e28569df", "rental_uris": {"android": "https://dc.lft.to/lastmile_qr_scan", "ios": "https://dc.lft.to/lastmile_qr_scan"}, "name": "529636df02f5cca5dd131e72e28569df", "is_reserved": 0}, {"is_disabled": 0, "fusion_lon": 0.0, "fusion_lat": 0.0, "lat": 38.884835, "type": "electric_scooter", "lon": -77.01505066666667, "bike_id": "30641ef364ccc893d187ed73cc8bb9cd", "rental_uris": {"android": "https://dc.lft.to/lastmile_qr_scan", "ios": "https://dc.lft.to/lastmile_qr_scan"}, "name": "30641ef364ccc893d187ed73cc8bb9cd", "is_reserved": 0}, {"is_disabled": 0, "fusion_lon": 0.0, "fusion_lat": 0.0, "lat": 38.8974135, "type": "electric_scooter", "lon": -77.01311383333334, "bike_id": "f131713b7703e36169319d96c039d3a3", "rental_uris": {"android": "https://dc.lft.to/lastmile_qr_scan", "ios": "https://dc.lft.to/lastmile_qr_scan"}, "name": "f131713b7703e36169319d96c039d3a3", "is_reserved": 0}, {"is_disabled": 0, "fusion_lon": 0.0, "fusion_lat": 0.0, "lat": 38.91688166666667, "type": "electric_scooter", "lon": -77.03177816666667, "bike_id": "e9587f9aab82b5cf320b2bffd893256b", "rental_uris": {"android": "https://dc.lft.to/lastmile_qr_scan", "ios": "https://dc.lft.to/lastmile_qr_scan"}, "name": "e9587f9aab82b5cf320b2bffd893256b", "is_reserved": 0}, {"is_disabled": 0, "fusion_lon": 0.0, "fusion_lat": 0.0, "lat": 38.914218, "type": "electric_scooter", "lon": -77.03904766666666, "bike_id": "e21d7a75a2765704c431a485a7419a44", "rental_uris": {"android": "https://dc.lft.to/lastmile_qr_scan", "ios": "https://dc.lft.to/lastmile_qr_scan"}, "name": "e21d7a75a2765704c431a485a7419a44", "is_reserved": 0}, {"is_disabled": 0, "fusion_lon": 0.0, "fusion_lat": 0.0, "lat": 38.897311, "type": "electric_scooter", "lon": -77.03359683333333, "bike_id": "65c7eee378258a3fc1f683a93f55a046", "rental_uris": {"android": "https://dc.lft.to/lastmile_qr_scan", "ios": "https://dc.lft.to/lastmile_qr_scan"}, "name": "65c7eee378258a3fc1f683a93f55a046", "is_reserved": 0}, {"is_disabled": 0, "fusion_lon": 0.0, "fusion_lat": 0.0, "lat": 38.91819133333333, "type": "electric_scooter", "lon": -77.03454616666667, "bike_id": "8b6887a185b76dd25065da086bc2247e", "rental_uris": {"android": "https://dc.lft.to/lastmile_qr_scan", "ios": "https://dc.lft.to/lastmile_qr_scan"}, "name": "8b6887a185b76dd25065da086bc2247e", "is_reserved": 0}, {"is_disabled": 0, "fusion_lon": 0.0, "fusion_lat": 0.0, "lat": 38.93637066666667, "type": "electric_scooter", "lon": -77.02697833333333, "bike_id": "d7586cb65babc19159e97327c4010965", "rental_uris": {"android": "https://dc.lft.to/lastmile_qr_scan", "ios": "https://dc.lft.to/lastmile_qr_scan"}, "name": "d7586cb65babc19159e97327c4010965", "is_reserved": 0}, {"is_disabled": 0, "fusion_lon": 0.0, "fusion_lat": 0.0, "lat": 38.8984535, "type": "electric_scooter", "lon": -76.94632416666667, "bike_id": "48dae5802238afc317187dd2966a7365", "rental_uris": {"android": "https://dc.lft.to/lastmile_qr_scan", "ios": "https://dc.lft.to/lastmile_qr_scan"}, "name": "48dae5802238afc317187dd2966a7365", "is_reserved": 0}, {"is_disabled": 0, "fusion_lon": 0.0, "fusion_lat": 0.0, "lat": 38.90472666666667, "type": "electric_scooter", "lon": -77.06215966666667, "bike_id": "dc9404ec13399a51fe815b5c4511e963", "rental_uris": {"android": "https://dc.lft.to/lastmile_qr_scan", "ios": "https://dc.lft.to/lastmile_qr_scan"}, "name": "dc9404ec13399a51fe815b5c4511e963", "is_reserved": 0}, {"is_disabled": 0, "fusion_lon": 0.0, "fusion_lat": 0.0, "lat": 38.8550625, "type": "electric_bike", "lon": -76.98412133333333, "bike_id": "31bd5b69fae927b3bc5652d129d1105c", "rental_uris": {"android": "https://dc.lft.to/lastmile_qr_scan", "ios": "https://dc.lft.to/lastmile_qr_scan"}, "name": "31bd5b69fae927b3bc5652d129d1105c", "is_reserved": 0}, {"is_disabled": 0, "fusion_lon": 0.0, "fusion_lat": 0.0, "lat": 38.9094835, "type": "electric_scooter", "lon": -77.04854866666666, "bike_id": "8ed2adcfcc52301480b0ac79263ddfef", "rental_uris": {"android": "https://dc.lft.to/lastmile_qr_scan", "ios": "https://dc.lft.to/lastmile_qr_scan"}, "name": "8ed2adcfcc52301480b0ac79263ddfef", "is_reserved": 0}, {"is_disabled": 0, "fusion_lon": 0.0, "fusion_lat": 0.0, "lat": 38.892183, "type": "electric_scooter", "lon": -77.0318315, "bike_id": "2843c6dd6ccf72236aefc5edee7db7eb", "rental_uris": {"android": "https://dc.lft.to/lastmile_qr_scan", "ios": "https://dc.lft.to/lastmile_qr_scan"}, "name": "2843c6dd6ccf72236aefc5edee7db7eb", "is_reserved": 0}, {"is_disabled": 0, "fusion_lon": 0.0, "fusion_lat": 0.0, "lat": 38.91927183333333, "type": "electric_scooter", "lon": -77.0342635, "bike_id": "7493f9ef4b3e0f070f79143e4268cc59", "rental_uris": {"android": "https://dc.lft.to/lastmile_qr_scan", "ios": "https://dc.lft.to/lastmile_qr_scan"}, "name": "7493f9ef4b3e0f070f79143e4268cc59", "is_reserved": 0}, {"is_disabled": 0, "fusion_lon": 0.0, "fusion_lat": 0.0, "lat": 38.99387633333333, "type": "electric_bike", "lon": -77.02398933333333, "bike_id": "27e1699048c3f7f0e883e533f382bf51", "rental_uris": {"android": "https://dc.lft.to/lastmile_qr_scan", "ios": "https://dc.lft.to/lastmile_qr_scan"}, "name": "27e1699048c3f7f0e883e533f382bf51", "is_reserved": 0}, {"is_disabled": 0, "fusion_lon": 0.0, "fusion_lat": 0.0, "lat": 38.908435833333336, "type": "electric_scooter", "lon": -77.06079816666667, "bike_id": "8bd79ee870dfb6067f50010412aeba8b", "rental_uris": {"android": "https://dc.lft.to/lastmile_qr_scan", "ios": "https://dc.lft.to/lastmile_qr_scan"}, "name": "8bd79ee870dfb6067f50010412aeba8b", "is_reserved": 0}, {"is_disabled": 0, "fusion_lon": 0.0, "fusion_lat": 0.0, "lat": 38.8988355, "type": "electric_scooter", "lon": -77.02160766666667, "bike_id": "673cb2f07b69d48464f48949ab3a46e4", "rental_uris": {"android": "https://dc.lft.to/lastmile_qr_scan", "ios": "https://dc.lft.to/lastmile_qr_scan"}, "name": "673cb2f07b69d48464f48949ab3a46e4", "is_reserved": 0}, {"is_disabled": 0, "fusion_lon": 0.0, "fusion_lat": 0.0, "lat": 38.865900333333336, "type": "electric_scooter", "lon": -77.01073283333334, "bike_id": "9f53f5bd66700699d71f77a4bb2dacce", "rental_uris": {"android": "https://dc.lft.to/lastmile_qr_scan", "ios": "https://dc.lft.to/lastmile_qr_scan"}, "name": "9f53f5bd66700699d71f77a4bb2dacce", "is_reserved": 0}, {"is_disabled": 0, "fusion_lon": 0.0, "fusion_lat": 0.0, "lat": 38.90859566666666, "type": "electric_scooter", "lon": -77.04767333333334, "bike_id": "ace942d4c56a97c7c2e1d53417ae7ef2", "rental_uris": {"android": "https://dc.lft.to/lastmile_qr_scan", "ios": "https://dc.lft.to/lastmile_qr_scan"}, "name": "ace942d4c56a97c7c2e1d53417ae7ef2", "is_reserved": 0}, {"is_disabled": 0, "fusion_lon": 0.0, "fusion_lat": 0.0, "lat": 38.84429516666667, "type": "electric_scooter", "lon": -76.99778566666667, "bike_id": "1d4fe075a3de777bcf4a0c722d203397", "rental_uris": {"android": "https://dc.lft.to/lastmile_qr_scan", "ios": "https://dc.lft.to/lastmile_qr_scan"}, "name": "1d4fe075a3de777bcf4a0c722d203397", "is_reserved": 0}, {"is_disabled": 0, "fusion_lon": 0.0, "fusion_lat": 0.0, "lat": 38.917177, "type": "electric_scooter", "lon": -77.03298816666667, "bike_id": "52d0582cfb6f46ae3997d0d0c08b9be2", "rental_uris": {"android": "https://dc.lft.to/lastmile_qr_scan", "ios": "https://dc.lft.to/lastmile_qr_scan"}, "name": "52d0582cfb6f46ae3997d0d0c08b9be2", "is_reserved": 0}, {"is_disabled": 0, "fusion_lon": 0.0, "fusion_lat": 0.0, "lat": 38.928957, "type": "electric_scooter", "lon": -77.03266, "bike_id": "dbda00b3b637ae368f4ab358d9454104", "rental_uris": {"android": "https://dc.lft.to/lastmile_qr_scan", "ios": "https://dc.lft.to/lastmile_qr_scan"}, "name": "dbda00b3b637ae368f4ab358d9454104", "is_reserved": 0}, {"is_disabled": 0, "fusion_lon": 0.0, "fusion_lat": 0.0, "lat": 38.91532516666667, "type": "electric_scooter", "lon": -77.04618583333334, "bike_id": "3b90b4da3625802f3b242d83727e02ef", "rental_uris": {"android": "https://dc.lft.to/lastmile_qr_scan", "ios": "https://dc.lft.to/lastmile_qr_scan"}, "name": "3b90b4da3625802f3b242d83727e02ef", "is_reserved": 0}, {"is_disabled": 0, "fusion_lon": 0.0, "fusion_lat": 0.0, "lat": 38.92866016666667, "type": "electric_scooter", "lon": -77.03664266666667, "bike_id": "5caad1d322adbdb28c4c76e85e87870e", "rental_uris": {"android": "https://dc.lft.to/lastmile_qr_scan", "ios": "https://dc.lft.to/lastmile_qr_scan"}, "name": "5caad1d322adbdb28c4c76e85e87870e", "is_reserved": 0}, {"is_disabled": 0, "fusion_lon": 0.0, "fusion_lat": 0.0, "lat": 38.896513666666664, "type": "electric_scooter", "lon": -77.02698883333333, "bike_id": "1036cbce56791f6ac373481226281dc0", "rental_uris": {"android": "https://dc.lft.to/lastmile_qr_scan", "ios": "https://dc.lft.to/lastmile_qr_scan"}, "name": "1036cbce56791f6ac373481226281dc0", "is_reserved": 0}, {"is_disabled": 0, "fusion_lon": 0.0, "fusion_lat": 0.0, "lat": 38.882017166666664, "type": "electric_scooter", "lon": -77.01763516666666, "bike_id": "a7a6f224926762d5e5019a99d94715c9", "rental_uris": {"android": "https://dc.lft.to/lastmile_qr_scan", "ios": "https://dc.lft.to/lastmile_qr_scan"}, "name": "a7a6f224926762d5e5019a99d94715c9", "is_reserved": 0}, {"is_disabled": 0, "fusion_lon": 0.0, "fusion_lat": 0.0, "lat": 39.05207016666667, "type": "electric_bike", "lon": -77.04416483333334, "bike_id": "384d90c621d20e29894aaf5a8d77e0ad", "rental_uris": {"android": "https://dc.lft.to/lastmile_qr_scan", "ios": "https://dc.lft.to/lastmile_qr_scan"}, "name": "384d90c621d20e29894aaf5a8d77e0ad", "is_reserved": 0}, {"is_disabled": 0, "fusion_lon": 0.0, "fusion_lat": 0.0, "lat": 38.88737916666667, "type": "electric_scooter", "lon": -77.01539183333334, "bike_id": "3a91a3e236ec266d6adde21446d8c951", "rental_uris": {"android": "https://dc.lft.to/lastmile_qr_scan", "ios": "https://dc.lft.to/lastmile_qr_scan"}, "name": "3a91a3e236ec266d6adde21446d8c951", "is_reserved": 0}, {"is_disabled": 0, "fusion_lon": 0.0, "fusion_lat": 0.0, "lat": 38.916581666666666, "type": "electric_scooter", "lon": -77.046491, "bike_id": "ef4dcc928c4384581699ac8aa8baeca5", "rental_uris": {"android": "https://dc.lft.to/lastmile_qr_scan", "ios": "https://dc.lft.to/lastmile_qr_scan"}, "name": "ef4dcc928c4384581699ac8aa8baeca5", "is_reserved": 0}, {"is_disabled": 0, "fusion_lon": 0.0, "fusion_lat": 0.0, "lat": 38.913074, "type": "electric_scooter", "lon": -77.02028366666667, "bike_id": "f32603cff81d65abb6888db63fa847bd", "rental_uris": {"android": "https://dc.lft.to/lastmile_qr_scan", "ios": "https://dc.lft.to/lastmile_qr_scan"}, "name": "f32603cff81d65abb6888db63fa847bd", "is_reserved": 0}, {"is_disabled": 0, "fusion_lon": 0.0, "fusion_lat": 0.0, "lat": 38.902722, "type": "electric_scooter", "lon": -77.038415, "bike_id": "885c4ea22b97d7e6c52f84208bf641ea", "rental_uris": {"android": "https://dc.lft.to/lastmile_qr_scan", "ios": "https://dc.lft.to/lastmile_qr_scan"}, "name": "885c4ea22b97d7e6c52f84208bf641ea", "is_reserved": 0}, {"is_disabled": 0, "fusion_lon": 0.0, "fusion_lat": 0.0, "lat": 38.909896833333335, "type": "electric_scooter", "lon": -77.00916066666667, "bike_id": "d604c444c8079cbcbdc35a0f055a4b81", "rental_uris": {"android": "https://dc.lft.to/lastmile_qr_scan", "ios": "https://dc.lft.to/lastmile_qr_scan"}, "name": "d604c444c8079cbcbdc35a0f055a4b81", "is_reserved": 0}, {"is_disabled": 0, "fusion_lon": 0.0, "fusion_lat": 0.0, "lat": 38.917839666666666, "type": "electric_scooter", "lon": -77.0231485, "bike_id": "c1ae02ec3183b9563b004e201264156c", "rental_uris": {"android": "https://dc.lft.to/lastmile_qr_scan", "ios": "https://dc.lft.to/lastmile_qr_scan"}, "name": "c1ae02ec3183b9563b004e201264156c", "is_reserved": 0}, {"is_disabled": 0, "fusion_lon": 0.0, "fusion_lat": 0.0, "lat": 38.89729033333333, "type": "electric_bike", "lon": -76.90540216666666, "bike_id": "e3a2013c5d568ca0a1e55c7a365ad518", "rental_uris": {"android": "https://dc.lft.to/lastmile_qr_scan", "ios": "https://dc.lft.to/lastmile_qr_scan"}, "name": "e3a2013c5d568ca0a1e55c7a365ad518", "is_reserved": 0}, {"is_disabled": 0, "fusion_lon": 0.0, "fusion_lat": 0.0, "lat": 38.917061333333336, "type": "electric_scooter", "lon": -77.03193633333333, "bike_id": "39aa7259a1a94809f835c2fc90ad99ed", "rental_uris": {"android": "https://dc.lft.to/lastmile_qr_scan", "ios": "https://dc.lft.to/lastmile_qr_scan"}, "name": "39aa7259a1a94809f835c2fc90ad99ed", "is_reserved": 0}, {"is_disabled": 0, "fusion_lon": 0.0, "fusion_lat": 0.0, "lat": 38.88666466666667, "type": "electric_scooter", "lon": -77.00340666666666, "bike_id": "57221564dae8a813a9e0a2cb5e564175", "rental_uris": {"android": "https://dc.lft.to/lastmile_qr_scan", "ios": "https://dc.lft.to/lastmile_qr_scan"}, "name": "57221564dae8a813a9e0a2cb5e564175", "is_reserved": 0}, {"is_disabled": 0, "fusion_lon": 0.0, "fusion_lat": 0.0, "lat": 38.91360366666667, "type": "electric_scooter", "lon": -77.04163233333334, "bike_id": "d69476b100ed2182df37f5f7aaa359d4", "rental_uris": {"android": "https://dc.lft.to/lastmile_qr_scan", "ios": "https://dc.lft.to/lastmile_qr_scan"}, "name": "d69476b100ed2182df37f5f7aaa359d4", "is_reserved": 0}, {"is_disabled": 0, "fusion_lon": 0.0, "fusion_lat": 0.0, "lat": 38.90555833333333, "type": "electric_scooter", "lon": -77.00627183333333, "bike_id": "26d18f91e9665bdff2408a4d7e5401fe", "rental_uris": {"android": "https://dc.lft.to/lastmile_qr_scan", "ios": "https://dc.lft.to/lastmile_qr_scan"}, "name": "26d18f91e9665bdff2408a4d7e5401fe", "is_reserved": 0}, {"is_disabled": 0, "fusion_lon": 0.0, "fusion_lat": 0.0, "lat": 38.9026885, "type": "electric_scooter", "lon": -77.0364515, "bike_id": "860a83f3d854ede162b3e475aef1986a", "rental_uris": {"android": "https://dc.lft.to/lastmile_qr_scan", "ios": "https://dc.lft.to/lastmile_qr_scan"}, "name": "860a83f3d854ede162b3e475aef1986a", "is_reserved": 0}, {"is_disabled": 0, "fusion_lon": 0.0, "fusion_lat": 0.0, "lat": 38.921473, "type": "electric_scooter", "lon": -77.03503083333334, "bike_id": "a080f880cb10c94573f1d975d5589803", "rental_uris": {"android": "https://dc.lft.to/lastmile_qr_scan", "ios": "https://dc.lft.to/lastmile_qr_scan"}, "name": "a080f880cb10c94573f1d975d5589803", "is_reserved": 0}, {"is_disabled": 0, "fusion_lon": 0.0, "fusion_lat": 0.0, "lat": 38.902982, "type": "electric_scooter", "lon": -77.03840483333333, "bike_id": "b579c714ec136be7cf1f07ad7f4f0e78", "rental_uris": {"android": "https://dc.lft.to/lastmile_qr_scan", "ios": "https://dc.lft.to/lastmile_qr_scan"}, "name": "b579c714ec136be7cf1f07ad7f4f0e78", "is_reserved": 0}, {"is_disabled": 0, "fusion_lon": 0.0, "fusion_lat": 0.0, "lat": 38.915475666666666, "type": "electric_scooter", "lon": -77.01234216666667, "bike_id": "a4682451f4dff9516dfeaacd790c3f77", "rental_uris": {"android": "https://dc.lft.to/lastmile_qr_scan", "ios": "https://dc.lft.to/lastmile_qr_scan"}, "name": "a4682451f4dff9516dfeaacd790c3f77", "is_reserved": 0}, {"is_disabled": 0, "fusion_lon": 0.0, "fusion_lat": 0.0, "lat": 38.9085545, "type": "electric_scooter", "lon": -77.02382266666666, "bike_id": "897e653a9a3fd9d28d5c4d67d8c8e8d3", "rental_uris": {"android": "https://dc.lft.to/lastmile_qr_scan", "ios": "https://dc.lft.to/lastmile_qr_scan"}, "name": "897e653a9a3fd9d28d5c4d67d8c8e8d3", "is_reserved": 0}, {"is_disabled": 0, "fusion_lon": 0.0, "fusion_lat": 0.0, "lat": 38.89339116666667, "type": "electric_scooter", "lon": -77.04661466666667, "bike_id": "b3eebfd5d765700c5d78f009ad86883d", "rental_uris": {"android": "https://dc.lft.to/lastmile_qr_scan", "ios": "https://dc.lft.to/lastmile_qr_scan"}, "name": "b3eebfd5d765700c5d78f009ad86883d", "is_reserved": 0}, {"is_disabled": 0, "fusion_lon": 0.0, "fusion_lat": 0.0, "lat": 38.9254685, "type": "electric_scooter", "lon": -77.05191033333334, "bike_id": "1bc4ac9519a755b7500a92a2a67fe7e3", "rental_uris": {"android": "https://dc.lft.to/lastmile_qr_scan", "ios": "https://dc.lft.to/lastmile_qr_scan"}, "name": "1bc4ac9519a755b7500a92a2a67fe7e3", "is_reserved": 0}, {"is_disabled": 0, "fusion_lon": 0.0, "fusion_lat": 0.0, "lat": 38.91414816666666, "type": "electric_scooter", "lon": -77.0415595, "bike_id": "f46bef6d30abd4c15788a4845ed786d1", "rental_uris": {"android": "https://dc.lft.to/lastmile_qr_scan", "ios": "https://dc.lft.to/lastmile_qr_scan"}, "name": "f46bef6d30abd4c15788a4845ed786d1", "is_reserved": 0}, {"is_disabled": 0, "fusion_lon": 0.0, "fusion_lat": 0.0, "lat": 38.910316, "type": "electric_scooter", "lon": -77.03434783333333, "bike_id": "81e257baabbe5da6986746e40fda7edf", "rental_uris": {"android": "https://dc.lft.to/lastmile_qr_scan", "ios": "https://dc.lft.to/lastmile_qr_scan"}, "name": "81e257baabbe5da6986746e40fda7edf", "is_reserved": 0}, {"is_disabled": 0, "fusion_lon": 0.0, "fusion_lat": 0.0, "lat": 38.89993066666667, "type": "electric_scooter", "lon": -76.9984725, "bike_id": "8280a553bf7e00443cd01ea7539de016", "rental_uris": {"android": "https://dc.lft.to/lastmile_qr_scan", "ios": "https://dc.lft.to/lastmile_qr_scan"}, "name": "8280a553bf7e00443cd01ea7539de016", "is_reserved": 0}, {"is_disabled": 0, "fusion_lon": 0.0, "fusion_lat": 0.0, "lat": 38.896855333333335, "type": "electric_scooter", "lon": -76.94706216666667, "bike_id": "7df5dcaf677ae78220c74e1fcd3d0ba9", "rental_uris": {"android": "https://dc.lft.to/lastmile_qr_scan", "ios": "https://dc.lft.to/lastmile_qr_scan"}, "name": "7df5dcaf677ae78220c74e1fcd3d0ba9", "is_reserved": 0}, {"is_disabled": 0, "fusion_lon": 0.0, "fusion_lat": 0.0, "lat": 38.848411, "type": "electric_bike", "lon": -77.080464, "bike_id": "440b166b081e82368da70b291565e573", "rental_uris": {"android": "https://dc.lft.to/lastmile_qr_scan", "ios": "https://dc.lft.to/lastmile_qr_scan"}, "name": "440b166b081e82368da70b291565e573", "is_reserved": 0}, {"is_disabled": 0, "fusion_lon": 0.0, "fusion_lat": 0.0, "lat": 38.907449166666666, "type": "electric_scooter", "lon": -77.03464016666666, "bike_id": "49f0aeb265572222b43d3ab090fdc94e", "rental_uris": {"android": "https://dc.lft.to/lastmile_qr_scan", "ios": "https://dc.lft.to/lastmile_qr_scan"}, "name": "49f0aeb265572222b43d3ab090fdc94e", "is_reserved": 0}, {"is_disabled": 0, "fusion_lon": 0.0, "fusion_lat": 0.0, "lat": 38.9535415, "type": "electric_bike", "lon": -76.9808895, "bike_id": "125020b0ff6d5b68cb42db22e6a1067d", "rental_uris": {"android": "https://dc.lft.to/lastmile_qr_scan", "ios": "https://dc.lft.to/lastmile_qr_scan"}, "name": "125020b0ff6d5b68cb42db22e6a1067d", "is_reserved": 0}, {"is_disabled": 0, "fusion_lon": 0.0, "fusion_lat": 0.0, "lat": 38.914178166666666, "type": "electric_scooter", "lon": -77.0416035, "bike_id": "a6784de93a4418a6aa91eb0e2645434a", "rental_uris": {"android": "https://dc.lft.to/lastmile_qr_scan", "ios": "https://dc.lft.to/lastmile_qr_scan"}, "name": "a6784de93a4418a6aa91eb0e2645434a", "is_reserved": 0}, {"is_disabled": 0, "fusion_lon": 0.0, "fusion_lat": 0.0, "lat": 38.904281, "type": "electric_scooter", "lon": -77.04881216666666, "bike_id": "6412e6a07770fff7a2a1e2bd73eb95ab", "rental_uris": {"android": "https://dc.lft.to/lastmile_qr_scan", "ios": "https://dc.lft.to/lastmile_qr_scan"}, "name": "6412e6a07770fff7a2a1e2bd73eb95ab", "is_reserved": 0}, {"is_disabled": 0, "fusion_lon": 0.0, "fusion_lat": 0.0, "lat": 38.930437166666664, "type": "electric_scooter", "lon": -77.0322705, "bike_id": "414db763548ac446c85ad7c849c61aa9", "rental_uris": {"android": "https://dc.lft.to/lastmile_qr_scan", "ios": "https://dc.lft.to/lastmile_qr_scan"}, "name": "414db763548ac446c85ad7c849c61aa9", "is_reserved": 0}, {"is_disabled": 0, "fusion_lon": 0.0, "fusion_lat": 0.0, "lat": 38.966023, "type": "electric_bike", "lon": -76.98334816666667, "bike_id": "91399be1fa58428bb992bbbe47871054", "rental_uris": {"android": "https://dc.lft.to/lastmile_qr_scan", "ios": "https://dc.lft.to/lastmile_qr_scan"}, "name": "91399be1fa58428bb992bbbe47871054", "is_reserved": 0}, {"is_disabled": 0, "fusion_lon": 0.0, "fusion_lat": 0.0, "lat": 38.944494, "type": "electric_scooter", "lon": -77.06349333333333, "bike_id": "4c5e564561b41d455879e3b0a5eb65a9", "rental_uris": {"android": "https://dc.lft.to/lastmile_qr_scan", "ios": "https://dc.lft.to/lastmile_qr_scan"}, "name": "4c5e564561b41d455879e3b0a5eb65a9", "is_reserved": 0}, {"is_disabled": 0, "fusion_lon": 0.0, "fusion_lat": 0.0, "lat": 38.875704166666665, "type": "electric_scooter", "lon": -77.019869, "bike_id": "95aa21376a3f0c60f067825b989a80e7", "rental_uris": {"android": "https://dc.lft.to/lastmile_qr_scan", "ios": "https://dc.lft.to/lastmile_qr_scan"}, "name": "95aa21376a3f0c60f067825b989a80e7", "is_reserved": 0}, {"is_disabled": 0, "fusion_lon": 0.0, "fusion_lat": 0.0, "lat": 38.91791633333333, "type": "electric_scooter", "lon": -77.03638983333333, "bike_id": "eb534d321aa906a92875e9cbac975894", "rental_uris": {"android": "https://dc.lft.to/lastmile_qr_scan", "ios": "https://dc.lft.to/lastmile_qr_scan"}, "name": "eb534d321aa906a92875e9cbac975894", "is_reserved": 0}, {"is_disabled": 0, "fusion_lon": 0.0, "fusion_lat": 0.0, "lat": 38.89526433333333, "type": "electric_scooter", "lon": -76.94890183333334, "bike_id": "60e431e9bb2c0477a8ce1b4c285e6ba3", "rental_uris": {"android": "https://dc.lft.to/lastmile_qr_scan", "ios": "https://dc.lft.to/lastmile_qr_scan"}, "name": "60e431e9bb2c0477a8ce1b4c285e6ba3", "is_reserved": 0}, {"is_disabled": 0, "fusion_lon": 0.0, "fusion_lat": 0.0, "lat": 38.91737966666667, "type": "electric_scooter", "lon": -77.03654333333333, "bike_id": "6deca73dc64462d60798fac6afb4f103", "rental_uris": {"android": "https://dc.lft.to/lastmile_qr_scan", "ios": "https://dc.lft.to/lastmile_qr_scan"}, "name": "6deca73dc64462d60798fac6afb4f103", "is_reserved": 0}, {"is_disabled": 0, "fusion_lon": 0.0, "fusion_lat": 0.0, "lat": 38.88703733333333, "type": "electric_scooter", "lon": -76.95356716666667, "bike_id": "d51e95516666ae87f7a5b2b108ad2ce7", "rental_uris": {"android": "https://dc.lft.to/lastmile_qr_scan", "ios": "https://dc.lft.to/lastmile_qr_scan"}, "name": "d51e95516666ae87f7a5b2b108ad2ce7", "is_reserved": 0}, {"is_disabled": 0, "fusion_lon": 0.0, "fusion_lat": 0.0, "lat": 38.91682333333333, "type": "electric_scooter", "lon": -77.02687766666666, "bike_id": "af7037e35f10e6aabbc0903e4be47974", "rental_uris": {"android": "https://dc.lft.to/lastmile_qr_scan", "ios": "https://dc.lft.to/lastmile_qr_scan"}, "name": "af7037e35f10e6aabbc0903e4be47974", "is_reserved": 0}, {"is_disabled": 0, "fusion_lon": 0.0, "fusion_lat": 0.0, "lat": 38.90436533333333, "type": "electric_scooter", "lon": -77.02606816666666, "bike_id": "35e5a25732c97db41442ea913af10774", "rental_uris": {"android": "https://dc.lft.to/lastmile_qr_scan", "ios": "https://dc.lft.to/lastmile_qr_scan"}, "name": "35e5a25732c97db41442ea913af10774", "is_reserved": 0}, {"is_disabled": 0, "fusion_lon": 0.0, "fusion_lat": 0.0, "lat": 38.900246, "type": "electric_scooter", "lon": -77.00683866666667, "bike_id": "eca12d95ff64724150bc4839c35724d5", "rental_uris": {"android": "https://dc.lft.to/lastmile_qr_scan", "ios": "https://dc.lft.to/lastmile_qr_scan"}, "name": "eca12d95ff64724150bc4839c35724d5", "is_reserved": 0}, {"is_disabled": 0, "fusion_lon": 0.0, "fusion_lat": 0.0, "lat": 38.862487, "type": "electric_scooter", "lon": -76.99529266666667, "bike_id": "76ded474c06a05595e65f16213fa7c3b", "rental_uris": {"android": "https://dc.lft.to/lastmile_qr_scan", "ios": "https://dc.lft.to/lastmile_qr_scan"}, "name": "76ded474c06a05595e65f16213fa7c3b", "is_reserved": 0}, {"is_disabled": 0, "fusion_lon": 0.0, "fusion_lat": 0.0, "lat": 38.842909, "type": "electric_scooter", "lon": -76.99946866666667, "bike_id": "356dddb98efca887a7bdfdcaf89941f3", "rental_uris": {"android": "https://dc.lft.to/lastmile_qr_scan", "ios": "https://dc.lft.to/lastmile_qr_scan"}, "name": "356dddb98efca887a7bdfdcaf89941f3", "is_reserved": 0}, {"is_disabled": 0, "fusion_lon": 0.0, "fusion_lat": 0.0, "lat": 38.9050685, "type": "electric_scooter", "lon": -77.02946666666666, "bike_id": "a71ceac07aeca83e83edbd3a96678e05", "rental_uris": {"android": "https://dc.lft.to/lastmile_qr_scan", "ios": "https://dc.lft.to/lastmile_qr_scan"}, "name": "a71ceac07aeca83e83edbd3a96678e05", "is_reserved": 0}, {"is_disabled": 0, "fusion_lon": 0.0, "fusion_lat": 0.0, "lat": 38.94921766666667, "type": "electric_bike", "lon": -77.00797883333334, "bike_id": "55da730893b54bfd565729ecf5dd65a7", "rental_uris": {"android": "https://dc.lft.to/lastmile_qr_scan", "ios": "https://dc.lft.to/lastmile_qr_scan"}, "name": "55da730893b54bfd565729ecf5dd65a7", "is_reserved": 0}, {"is_disabled": 0, "fusion_lon": 0.0, "fusion_lat": 0.0, "lat": 38.884867, "type": "electric_scooter", "lon": -77.02077083333333, "bike_id": "9438202b05f12d93cdd49b734b216d7e", "rental_uris": {"android": "https://dc.lft.to/lastmile_qr_scan", "ios": "https://dc.lft.to/lastmile_qr_scan"}, "name": "9438202b05f12d93cdd49b734b216d7e", "is_reserved": 0}, {"is_disabled": 0, "fusion_lon": 0.0, "fusion_lat": 0.0, "lat": 38.91587333333333, "type": "electric_bike", "lon": -76.9714655, "bike_id": "3e9d67be9676334bcf22d050ca41f970", "rental_uris": {"android": "https://dc.lft.to/lastmile_qr_scan", "ios": "https://dc.lft.to/lastmile_qr_scan"}, "name": "3e9d67be9676334bcf22d050ca41f970", "is_reserved": 0}, {"is_disabled": 0, "fusion_lon": 0.0, "fusion_lat": 0.0, "lat": 38.883941666666665, "type": "electric_bike", "lon": -77.01773216666666, "bike_id": "9c347add3e8807d0953697966b0045ec", "rental_uris": {"android": "https://dc.lft.to/lastmile_qr_scan", "ios": "https://dc.lft.to/lastmile_qr_scan"}, "name": "9c347add3e8807d0953697966b0045ec", "is_reserved": 0}, {"is_disabled": 0, "fusion_lon": 0.0, "fusion_lat": 0.0, "lat": 38.86905816666667, "type": "electric_bike", "lon": -77.13175716666667, "bike_id": "156c379341c5cd0c7391f8e732aa96d0", "rental_uris": {"android": "https://dc.lft.to/lastmile_qr_scan", "ios": "https://dc.lft.to/lastmile_qr_scan"}, "name": "156c379341c5cd0c7391f8e732aa96d0", "is_reserved": 0}, {"is_disabled": 0, "fusion_lon": 0.0, "fusion_lat": 0.0, "lat": 38.92356733333333, "type": "electric_scooter", "lon": -77.041553, "bike_id": "d9e75fe2e36556399fe897dd0525b0e6", "rental_uris": {"android": "https://dc.lft.to/lastmile_qr_scan", "ios": "https://dc.lft.to/lastmile_qr_scan"}, "name": "d9e75fe2e36556399fe897dd0525b0e6", "is_reserved": 0}, {"is_disabled": 0, "fusion_lon": 0.0, "fusion_lat": 0.0, "lat": 38.909546666666664, "type": "electric_scooter", "lon": -77.0270995, "bike_id": "e24ee6e2943c31a31f1102bdf36553b0", "rental_uris": {"android": "https://dc.lft.to/lastmile_qr_scan", "ios": "https://dc.lft.to/lastmile_qr_scan"}, "name": "e24ee6e2943c31a31f1102bdf36553b0", "is_reserved": 0}, {"is_disabled": 0, "fusion_lon": 0.0, "fusion_lat": 0.0, "lat": 38.93567633333333, "type": "electric_bike", "lon": -77.08188883333334, "bike_id": "8e0eb06a7f1f8e604f505d27f98ed2d1", "rental_uris": {"android": "https://dc.lft.to/lastmile_qr_scan", "ios": "https://dc.lft.to/lastmile_qr_scan"}, "name": "8e0eb06a7f1f8e604f505d27f98ed2d1", "is_reserved": 0}, {"is_disabled": 0, "fusion_lon": 0.0, "fusion_lat": 0.0, "lat": 38.908339166666664, "type": "electric_scooter", "lon": -76.9970125, "bike_id": "e479c97fde59e34e82c2137f2b80d499", "rental_uris": {"android": "https://dc.lft.to/lastmile_qr_scan", "ios": "https://dc.lft.to/lastmile_qr_scan"}, "name": "e479c97fde59e34e82c2137f2b80d499", "is_reserved": 0}, {"is_disabled": 0, "fusion_lon": 0.0, "fusion_lat": 0.0, "lat": 38.919843666666665, "type": "electric_bike", "lon": -76.973162, "bike_id": "f9bb853b81760bf79a79324fd1547eef", "rental_uris": {"android": "https://dc.lft.to/lastmile_qr_scan", "ios": "https://dc.lft.to/lastmile_qr_scan"}, "name": "f9bb853b81760bf79a79324fd1547eef", "is_reserved": 0}, {"is_disabled": 0, "fusion_lon": 0.0, "fusion_lat": 0.0, "lat": 38.895375666666666, "type": "electric_scooter", "lon": -77.0161985, "bike_id": "0ce6cd338a6881c1b4ca9deb307e0eea", "rental_uris": {"android": "https://dc.lft.to/lastmile_qr_scan", "ios": "https://dc.lft.to/lastmile_qr_scan"}, "name": "0ce6cd338a6881c1b4ca9deb307e0eea", "is_reserved": 0}, {"is_disabled": 0, "fusion_lon": 0.0, "fusion_lat": 0.0, "lat": 38.889959166666664, "type": "electric_scooter", "lon": -77.04898583333333, "bike_id": "012f105aa7be8ea89947265e5956002d", "rental_uris": {"android": "https://dc.lft.to/lastmile_qr_scan", "ios": "https://dc.lft.to/lastmile_qr_scan"}, "name": "012f105aa7be8ea89947265e5956002d", "is_reserved": 0}, {"is_disabled": 0, "fusion_lon": 0.0, "fusion_lat": 0.0, "lat": 38.90888016666667, "type": "electric_scooter", "lon": -77.03393566666666, "bike_id": "3fb992c5e85fc1b213d70478dd4369a7", "rental_uris": {"android": "https://dc.lft.to/lastmile_qr_scan", "ios": "https://dc.lft.to/lastmile_qr_scan"}, "name": "3fb992c5e85fc1b213d70478dd4369a7", "is_reserved": 0}, {"is_disabled": 0, "fusion_lon": 0.0, "fusion_lat": 0.0, "lat": 38.908485, "type": "electric_scooter", "lon": -77.00984283333334, "bike_id": "01ac39e31c38c8ecd934e6a014cafab1", "rental_uris": {"android": "https://dc.lft.to/lastmile_qr_scan", "ios": "https://dc.lft.to/lastmile_qr_scan"}, "name": "01ac39e31c38c8ecd934e6a014cafab1", "is_reserved": 0}, {"is_disabled": 0, "fusion_lon": 0.0, "fusion_lat": 0.0, "lat": 38.89581066666667, "type": "electric_scooter", "lon": -77.02291766666667, "bike_id": "d5dd2bbd02a7327e4fa0b5936959c55f", "rental_uris": {"android": "https://dc.lft.to/lastmile_qr_scan", "ios": "https://dc.lft.to/lastmile_qr_scan"}, "name": "d5dd2bbd02a7327e4fa0b5936959c55f", "is_reserved": 0}, {"is_disabled": 0, "fusion_lon": 0.0, "fusion_lat": 0.0, "lat": 38.9039295, "type": "electric_scooter", "lon": -77.0279995, "bike_id": "3483bf3f2995484038d62c96d805d398", "rental_uris": {"android": "https://dc.lft.to/lastmile_qr_scan", "ios": "https://dc.lft.to/lastmile_qr_scan"}, "name": "3483bf3f2995484038d62c96d805d398", "is_reserved": 0}, {"is_disabled": 0, "fusion_lon": 0.0, "fusion_lat": 0.0, "lat": 38.916097666666666, "type": "electric_scooter", "lon": -77.0401275, "bike_id": "c71a994ea1b1495ddfaf6def69d668d5", "rental_uris": {"android": "https://dc.lft.to/lastmile_qr_scan", "ios": "https://dc.lft.to/lastmile_qr_scan"}, "name": "c71a994ea1b1495ddfaf6def69d668d5", "is_reserved": 0}, {"is_disabled": 0, "fusion_lon": 0.0, "fusion_lat": 0.0, "lat": 38.8983115, "type": "electric_scooter", "lon": -76.94633133333333, "bike_id": "72d4c324df792303058fc310cb535fb2", "rental_uris": {"android": "https://dc.lft.to/lastmile_qr_scan", "ios": "https://dc.lft.to/lastmile_qr_scan"}, "name": "72d4c324df792303058fc310cb535fb2", "is_reserved": 0}, {"is_disabled": 0, "fusion_lon": 0.0, "fusion_lat": 0.0, "lat": 38.93316466666667, "type": "electric_scooter", "lon": -77.03263266666667, "bike_id": "0f2bb7b1de8507e6054bb50bc66cc247", "rental_uris": {"android": "https://dc.lft.to/lastmile_qr_scan", "ios": "https://dc.lft.to/lastmile_qr_scan"}, "name": "0f2bb7b1de8507e6054bb50bc66cc247", "is_reserved": 0}, {"is_disabled": 0, "fusion_lon": 0.0, "fusion_lat": 0.0, "lat": 38.904593166666665, "type": "electric_scooter", "lon": -77.0281115, "bike_id": "94cb226942bd2325bf7fbabbb53bbd96", "rental_uris": {"android": "https://dc.lft.to/lastmile_qr_scan", "ios": "https://dc.lft.to/lastmile_qr_scan"}, "name": "94cb226942bd2325bf7fbabbb53bbd96", "is_reserved": 0}, {"is_disabled": 0, "fusion_lon": 0.0, "fusion_lat": 0.0, "lat": 38.9115525, "type": "electric_scooter", "lon": -77.023851, "bike_id": "73df420a38bf624c9b5da75578f67c11", "rental_uris": {"android": "https://dc.lft.to/lastmile_qr_scan", "ios": "https://dc.lft.to/lastmile_qr_scan"}, "name": "73df420a38bf624c9b5da75578f67c11", "is_reserved": 0}, {"is_disabled": 0, "fusion_lon": 0.0, "fusion_lat": 0.0, "lat": 38.97537883333333, "type": "electric_bike", "lon": -76.99525766666666, "bike_id": "861eaa2d596dc1114a6f1a3de9c5e286", "rental_uris": {"android": "https://dc.lft.to/lastmile_qr_scan", "ios": "https://dc.lft.to/lastmile_qr_scan"}, "name": "861eaa2d596dc1114a6f1a3de9c5e286", "is_reserved": 0}, {"is_disabled": 0, "fusion_lon": 0.0, "fusion_lat": 0.0, "lat": 38.90960366666667, "type": "electric_scooter", "lon": -77.0486115, "bike_id": "7f68eb8142269513bcb2d43b085e3178", "rental_uris": {"android": "https://dc.lft.to/lastmile_qr_scan", "ios": "https://dc.lft.to/lastmile_qr_scan"}, "name": "7f68eb8142269513bcb2d43b085e3178", "is_reserved": 0}, {"is_disabled": 0, "fusion_lon": 0.0, "fusion_lat": 0.0, "lat": 38.927158166666665, "type": "electric_scooter", "lon": -77.0418395, "bike_id": "9da43ce672523265efe4739df0f61259", "rental_uris": {"android": "https://dc.lft.to/lastmile_qr_scan", "ios": "https://dc.lft.to/lastmile_qr_scan"}, "name": "9da43ce672523265efe4739df0f61259", "is_reserved": 0}, {"is_disabled": 0, "fusion_lon": 0.0, "fusion_lat": 0.0, "lat": 38.91709516666667, "type": "electric_scooter", "lon": -77.02983083333334, "bike_id": "93dd796f936eb18e7afd1976f5038dbe", "rental_uris": {"android": "https://dc.lft.to/lastmile_qr_scan", "ios": "https://dc.lft.to/lastmile_qr_scan"}, "name": "93dd796f936eb18e7afd1976f5038dbe", "is_reserved": 0}, {"is_disabled": 0, "fusion_lon": 0.0, "fusion_lat": 0.0, "lat": 38.899395166666665, "type": "electric_scooter", "lon": -77.02906766666666, "bike_id": "2d5a8952df9cea096f2b4dd6776ccf33", "rental_uris": {"android": "https://dc.lft.to/lastmile_qr_scan", "ios": "https://dc.lft.to/lastmile_qr_scan"}, "name": "2d5a8952df9cea096f2b4dd6776ccf33", "is_reserved": 0}, {"is_disabled": 0, "fusion_lon": 0.0, "fusion_lat": 0.0, "lat": 38.930015, "type": "electric_scooter", "lon": -77.022078, "bike_id": "c34bcc3f4698f173786cc338c44a17ce", "rental_uris": {"android": "https://dc.lft.to/lastmile_qr_scan", "ios": "https://dc.lft.to/lastmile_qr_scan"}, "name": "c34bcc3f4698f173786cc338c44a17ce", "is_reserved": 0}, {"is_disabled": 0, "fusion_lon": 0.0, "fusion_lat": 0.0, "lat": 38.915864666666664, "type": "electric_scooter", "lon": -77.05013316666667, "bike_id": "e61ec460e6b58ab1378e01abe5ef73da", "rental_uris": {"android": "https://dc.lft.to/lastmile_qr_scan", "ios": "https://dc.lft.to/lastmile_qr_scan"}, "name": "e61ec460e6b58ab1378e01abe5ef73da", "is_reserved": 0}, {"is_disabled": 0, "fusion_lon": 0.0, "fusion_lat": 0.0, "lat": 38.904694666666664, "type": "electric_scooter", "lon": -77.035541, "bike_id": "5459c3131ede6bc246740592e523012f", "rental_uris": {"android": "https://dc.lft.to/lastmile_qr_scan", "ios": "https://dc.lft.to/lastmile_qr_scan"}, "name": "5459c3131ede6bc246740592e523012f", "is_reserved": 0}, {"is_disabled": 0, "fusion_lon": 0.0, "fusion_lat": 0.0, "lat": 38.91017633333333, "type": "electric_scooter", "lon": -77.03854683333333, "bike_id": "76a9ea83415b5333dfa5b09157c6074c", "rental_uris": {"android": "https://dc.lft.to/lastmile_qr_scan", "ios": "https://dc.lft.to/lastmile_qr_scan"}, "name": "76a9ea83415b5333dfa5b09157c6074c", "is_reserved": 0}, {"is_disabled": 0, "fusion_lon": 0.0, "fusion_lat": 0.0, "lat": 38.91691433333333, "type": "electric_scooter", "lon": -77.03774233333333, "bike_id": "96a1a7c2f4a5b471fc201f59a05f9c37", "rental_uris": {"android": "https://dc.lft.to/lastmile_qr_scan", "ios": "https://dc.lft.to/lastmile_qr_scan"}, "name": "96a1a7c2f4a5b471fc201f59a05f9c37", "is_reserved": 0}, {"is_disabled": 0, "fusion_lon": 0.0, "fusion_lat": 0.0, "lat": 38.945775, "type": "electric_bike", "lon": -76.98773516666667, "bike_id": "dd5c461ae60ce9dc3fd26f68c34a106b", "rental_uris": {"android": "https://dc.lft.to/lastmile_qr_scan", "ios": "https://dc.lft.to/lastmile_qr_scan"}, "name": "dd5c461ae60ce9dc3fd26f68c34a106b", "is_reserved": 0}, {"is_disabled": 0, "fusion_lon": 0.0, "fusion_lat": 0.0, "lat": 38.905784, "type": "electric_scooter", "lon": -77.0220415, "bike_id": "d0ac47eae37c170f507b52af44e0678d", "rental_uris": {"android": "https://dc.lft.to/lastmile_qr_scan", "ios": "https://dc.lft.to/lastmile_qr_scan"}, "name": "d0ac47eae37c170f507b52af44e0678d", "is_reserved": 0}, {"is_disabled": 0, "fusion_lon": 0.0, "fusion_lat": 0.0, "lat": 38.874077, "type": "electric_scooter", "lon": -77.00193116666667, "bike_id": "7422c4becefa55c5af949397e0e34a56", "rental_uris": {"android": "https://dc.lft.to/lastmile_qr_scan", "ios": "https://dc.lft.to/lastmile_qr_scan"}, "name": "7422c4becefa55c5af949397e0e34a56", "is_reserved": 0}, {"is_disabled": 0, "fusion_lon": 0.0, "fusion_lat": 0.0, "lat": 38.88793833333333, "type": "electric_scooter", "lon": -76.9335665, "bike_id": "d623f827659e7f1de4bbe6e5074817bb", "rental_uris": {"android": "https://dc.lft.to/lastmile_qr_scan", "ios": "https://dc.lft.to/lastmile_qr_scan"}, "name": "d623f827659e7f1de4bbe6e5074817bb", "is_reserved": 0}, {"is_disabled": 0, "fusion_lon": 0.0, "fusion_lat": 0.0, "lat": 38.93640466666667, "type": "electric_bike", "lon": -76.95456, "bike_id": "a1833b98545bbb9664ff165c8968d1d7", "rental_uris": {"android": "https://dc.lft.to/lastmile_qr_scan", "ios": "https://dc.lft.to/lastmile_qr_scan"}, "name": "a1833b98545bbb9664ff165c8968d1d7", "is_reserved": 0}, {"is_disabled": 0, "fusion_lon": 0.0, "fusion_lat": 0.0, "lat": 38.93172233333333, "type": "electric_scooter", "lon": -77.0363725, "bike_id": "dcc930c864a5c30d41856d483476131e", "rental_uris": {"android": "https://dc.lft.to/lastmile_qr_scan", "ios": "https://dc.lft.to/lastmile_qr_scan"}, "name": "dcc930c864a5c30d41856d483476131e", "is_reserved": 0}, {"is_disabled": 0, "fusion_lon": 0.0, "fusion_lat": 0.0, "lat": 38.84618433333333, "type": "electric_scooter", "lon": -76.996322, "bike_id": "0c7a2e77cd24754a492f76d64022b4c0", "rental_uris": {"android": "https://dc.lft.to/lastmile_qr_scan", "ios": "https://dc.lft.to/lastmile_qr_scan"}, "name": "0c7a2e77cd24754a492f76d64022b4c0", "is_reserved": 0}, {"is_disabled": 0, "fusion_lon": 0.0, "fusion_lat": 0.0, "lat": 38.89217683333333, "type": "electric_scooter", "lon": -77.0318765, "bike_id": "456591a0287431ef858ff6a3d914b7fe", "rental_uris": {"android": "https://dc.lft.to/lastmile_qr_scan", "ios": "https://dc.lft.to/lastmile_qr_scan"}, "name": "456591a0287431ef858ff6a3d914b7fe", "is_reserved": 0}, {"is_disabled": 0, "fusion_lon": 0.0, "fusion_lat": 0.0, "lat": 38.90472333333334, "type": "electric_scooter", "lon": -77.03468916666667, "bike_id": "4cf7cfd1452452a3aa990386d4175b62", "rental_uris": {"android": "https://dc.lft.to/lastmile_qr_scan", "ios": "https://dc.lft.to/lastmile_qr_scan"}, "name": "4cf7cfd1452452a3aa990386d4175b62", "is_reserved": 0}, {"is_disabled": 0, "fusion_lon": 0.0, "fusion_lat": 0.0, "lat": 38.914711, "type": "electric_scooter", "lon": -77.038262, "bike_id": "39717de1fc7fee1f36ca9f8fe8bde414", "rental_uris": {"android": "https://dc.lft.to/lastmile_qr_scan", "ios": "https://dc.lft.to/lastmile_qr_scan"}, "name": "39717de1fc7fee1f36ca9f8fe8bde414", "is_reserved": 0}, {"is_disabled": 0, "fusion_lon": 0.0, "fusion_lat": 0.0, "lat": 38.900616, "type": "electric_scooter", "lon": -77.04880966666667, "bike_id": "0a8e655176223987b6157bcfbc402b75", "rental_uris": {"android": "https://dc.lft.to/lastmile_qr_scan", "ios": "https://dc.lft.to/lastmile_qr_scan"}, "name": "0a8e655176223987b6157bcfbc402b75", "is_reserved": 0}, {"is_disabled": 0, "fusion_lon": 0.0, "fusion_lat": 0.0, "lat": 38.92614283333333, "type": "electric_scooter", "lon": -77.02155266666666, "bike_id": "91ec2f59b73d3fe778dfeb04a3d7fa6a", "rental_uris": {"android": "https://dc.lft.to/lastmile_qr_scan", "ios": "https://dc.lft.to/lastmile_qr_scan"}, "name": "91ec2f59b73d3fe778dfeb04a3d7fa6a", "is_reserved": 0}, {"is_disabled": 0, "fusion_lon": 0.0, "fusion_lat": 0.0, "lat": 38.8960225, "type": "electric_scooter", "lon": -77.009045, "bike_id": "1ef0d59809a11bdf3beb1cdfed8e877f", "rental_uris": {"android": "https://dc.lft.to/lastmile_qr_scan", "ios": "https://dc.lft.to/lastmile_qr_scan"}, "name": "1ef0d59809a11bdf3beb1cdfed8e877f", "is_reserved": 0}, {"is_disabled": 0, "fusion_lon": 0.0, "fusion_lat": 0.0, "lat": 38.905455, "type": "electric_scooter", "lon": -77.04642533333333, "bike_id": "b3f047da4c43249bfa55e08cd431e6d2", "rental_uris": {"android": "https://dc.lft.to/lastmile_qr_scan", "ios": "https://dc.lft.to/lastmile_qr_scan"}, "name": "b3f047da4c43249bfa55e08cd431e6d2", "is_reserved": 0}, {"is_disabled": 0, "fusion_lon": 0.0, "fusion_lat": 0.0, "lat": 38.9141295, "type": "electric_scooter", "lon": -77.02562566666667, "bike_id": "89a3aa80ab28077a6e7012f7c51868fd", "rental_uris": {"android": "https://dc.lft.to/lastmile_qr_scan", "ios": "https://dc.lft.to/lastmile_qr_scan"}, "name": "89a3aa80ab28077a6e7012f7c51868fd", "is_reserved": 0}, {"is_disabled": 0, "fusion_lon": 0.0, "fusion_lat": 0.0, "lat": 38.925892166666664, "type": "electric_bike", "lon": -76.889118, "bike_id": "20f64ea0967309390778cbb96c764bc4", "rental_uris": {"android": "https://dc.lft.to/lastmile_qr_scan", "ios": "https://dc.lft.to/lastmile_qr_scan"}, "name": "20f64ea0967309390778cbb96c764bc4", "is_reserved": 0}, {"is_disabled": 0, "fusion_lon": 0.0, "fusion_lat": 0.0, "lat": 38.907364666666666, "type": "electric_scooter", "lon": -77.0295185, "bike_id": "7d240cd5281669755aa0aa4078532275", "rental_uris": {"android": "https://dc.lft.to/lastmile_qr_scan", "ios": "https://dc.lft.to/lastmile_qr_scan"}, "name": "7d240cd5281669755aa0aa4078532275", "is_reserved": 0}, {"is_disabled": 0, "fusion_lon": 0.0, "fusion_lat": 0.0, "lat": 38.954111166666664, "type": "electric_scooter", "lon": -77.028454, "bike_id": "cfabb18ae693b67801b9458c0f411b27", "rental_uris": {"android": "https://dc.lft.to/lastmile_qr_scan", "ios": "https://dc.lft.to/lastmile_qr_scan"}, "name": "cfabb18ae693b67801b9458c0f411b27", "is_reserved": 0}, {"is_disabled": 0, "fusion_lon": 0.0, "fusion_lat": 0.0, "lat": 38.91119883333333, "type": "electric_scooter", "lon": -77.04358066666667, "bike_id": "4a4aa3f5416d546b9afef9acd64caf05", "rental_uris": {"android": "https://dc.lft.to/lastmile_qr_scan", "ios": "https://dc.lft.to/lastmile_qr_scan"}, "name": "4a4aa3f5416d546b9afef9acd64caf05", "is_reserved": 0}, {"is_disabled": 0, "fusion_lon": 0.0, "fusion_lat": 0.0, "lat": 38.928305, "type": "electric_scooter", "lon": -77.0139875, "bike_id": "33c795fe603ebde67d306760db862efd", "rental_uris": {"android": "https://dc.lft.to/lastmile_qr_scan", "ios": "https://dc.lft.to/lastmile_qr_scan"}, "name": "33c795fe603ebde67d306760db862efd", "is_reserved": 0}, {"is_disabled": 0, "fusion_lon": 0.0, "fusion_lat": 0.0, "lat": 38.9767505, "type": "electric_bike", "lon": -76.9716845, "bike_id": "8790be2bac84fdf034b471457c4c777e", "rental_uris": {"android": "https://dc.lft.to/lastmile_qr_scan", "ios": "https://dc.lft.to/lastmile_qr_scan"}, "name": "8790be2bac84fdf034b471457c4c777e", "is_reserved": 0}, {"is_disabled": 0, "fusion_lon": 0.0, "fusion_lat": 0.0, "lat": 38.89229783333333, "type": "electric_bike", "lon": -76.9521635, "bike_id": "e1bd4b44dbdf2bea85acc8dbc012df75", "rental_uris": {"android": "https://dc.lft.to/lastmile_qr_scan", "ios": "https://dc.lft.to/lastmile_qr_scan"}, "name": "e1bd4b44dbdf2bea85acc8dbc012df75", "is_reserved": 0}, {"is_disabled": 0, "fusion_lon": 0.0, "fusion_lat": 0.0, "lat": 38.868579833333335, "type": "electric_bike", "lon": -76.91657016666667, "bike_id": "d8ca6ec7919f8cef5335b29ea3715613", "rental_uris": {"android": "https://dc.lft.to/lastmile_qr_scan", "ios": "https://dc.lft.to/lastmile_qr_scan"}, "name": "d8ca6ec7919f8cef5335b29ea3715613", "is_reserved": 0}, {"is_disabled": 0, "fusion_lon": 0.0, "fusion_lat": 0.0, "lat": 38.90966483333333, "type": "electric_scooter", "lon": -77.0217445, "bike_id": "dceb19667a2758bb18162af0117fc214", "rental_uris": {"android": "https://dc.lft.to/lastmile_qr_scan", "ios": "https://dc.lft.to/lastmile_qr_scan"}, "name": "dceb19667a2758bb18162af0117fc214", "is_reserved": 0}, {"is_disabled": 0, "fusion_lon": 0.0, "fusion_lat": 0.0, "lat": 38.931874, "type": "electric_bike", "lon": -77.2293215, "bike_id": "0acd92b413e032b50109bc3984b43dd7", "rental_uris": {"android": "https://dc.lft.to/lastmile_qr_scan", "ios": "https://dc.lft.to/lastmile_qr_scan"}, "name": "0acd92b413e032b50109bc3984b43dd7", "is_reserved": 0}, {"is_disabled": 0, "fusion_lon": 0.0, "fusion_lat": 0.0, "lat": 38.91418766666666, "type": "electric_scooter", "lon": -77.03902716666667, "bike_id": "9be5b406dd814430cd1bfcc07b8980ca", "rental_uris": {"android": "https://dc.lft.to/lastmile_qr_scan", "ios": "https://dc.lft.to/lastmile_qr_scan"}, "name": "9be5b406dd814430cd1bfcc07b8980ca", "is_reserved": 0}, {"is_disabled": 0, "fusion_lon": 0.0, "fusion_lat": 0.0, "lat": 38.952756666666666, "type": "electric_bike", "lon": -77.0696515, "bike_id": "fd189d98edab5fc395ab2520b710d62c", "rental_uris": {"android": "https://dc.lft.to/lastmile_qr_scan", "ios": "https://dc.lft.to/lastmile_qr_scan"}, "name": "fd189d98edab5fc395ab2520b710d62c", "is_reserved": 0}, {"is_disabled": 0, "fusion_lon": 0.0, "fusion_lat": 0.0, "lat": 38.992569, "type": "electric_bike", "lon": -77.049886, "bike_id": "6941a38a7818da8391236336806cea1d", "rental_uris": {"android": "https://dc.lft.to/lastmile_qr_scan", "ios": "https://dc.lft.to/lastmile_qr_scan"}, "name": "6941a38a7818da8391236336806cea1d", "is_reserved": 0}, {"is_disabled": 0, "fusion_lon": 0.0, "fusion_lat": 0.0, "lat": 38.900127, "type": "electric_scooter", "lon": -77.01200533333333, "bike_id": "7bab04264f8196bcf19b3484afc37dc7", "rental_uris": {"android": "https://dc.lft.to/lastmile_qr_scan", "ios": "https://dc.lft.to/lastmile_qr_scan"}, "name": "7bab04264f8196bcf19b3484afc37dc7", "is_reserved": 0}, {"is_disabled": 0, "fusion_lon": 0.0, "fusion_lat": 0.0, "lat": 38.917468, "type": "electric_scooter", "lon": -77.02490833333333, "bike_id": "f60d77751674365b13f23aadbfa08549", "rental_uris": {"android": "https://dc.lft.to/lastmile_qr_scan", "ios": "https://dc.lft.to/lastmile_qr_scan"}, "name": "f60d77751674365b13f23aadbfa08549", "is_reserved": 0}, {"is_disabled": 0, "fusion_lon": 0.0, "fusion_lat": 0.0, "lat": 38.93967283333333, "type": "electric_bike", "lon": -77.36091683333333, "bike_id": "d0aeb7dd7dd149662134a8b361e05b66", "rental_uris": {"android": "https://dc.lft.to/lastmile_qr_scan", "ios": "https://dc.lft.to/lastmile_qr_scan"}, "name": "d0aeb7dd7dd149662134a8b361e05b66", "is_reserved": 0}, {"is_disabled": 0, "fusion_lon": 0.0, "fusion_lat": 0.0, "lat": 38.88591683333333, "type": "electric_scooter", "lon": -77.01758483333333, "bike_id": "ec4292c5d481463f5002afbf912ed445", "rental_uris": {"android": "https://dc.lft.to/lastmile_qr_scan", "ios": "https://dc.lft.to/lastmile_qr_scan"}, "name": "ec4292c5d481463f5002afbf912ed445", "is_reserved": 0}, {"is_disabled": 0, "fusion_lon": 0.0, "fusion_lat": 0.0, "lat": 38.905874833333336, "type": "electric_scooter", "lon": -77.02386016666667, "bike_id": "c1aae9d3f0d300d8a5f22d941715f304", "rental_uris": {"android": "https://dc.lft.to/lastmile_qr_scan", "ios": "https://dc.lft.to/lastmile_qr_scan"}, "name": "c1aae9d3f0d300d8a5f22d941715f304", "is_reserved": 0}, {"is_disabled": 0, "fusion_lon": 0.0, "fusion_lat": 0.0, "lat": 38.907543833333335, "type": "electric_scooter", "lon": -77.03831116666667, "bike_id": "843e32f21958667c9d567b5ff996b70a", "rental_uris": {"android": "https://dc.lft.to/lastmile_qr_scan", "ios": "https://dc.lft.to/lastmile_qr_scan"}, "name": "843e32f21958667c9d567b5ff996b70a", "is_reserved": 0}, {"is_disabled": 0, "fusion_lon": 0.0, "fusion_lat": 0.0, "lat": 38.92583033333333, "type": "electric_scooter", "lon": -77.02516733333333, "bike_id": "7c61ebaf169484032084565b4a55daca", "rental_uris": {"android": "https://dc.lft.to/lastmile_qr_scan", "ios": "https://dc.lft.to/lastmile_qr_scan"}, "name": "7c61ebaf169484032084565b4a55daca", "is_reserved": 0}, {"is_disabled": 0, "fusion_lon": 0.0, "fusion_lat": 0.0, "lat": 38.902493666666665, "type": "electric_scooter", "lon": -77.01503683333334, "bike_id": "344194132aa28691048bd1886bb6385a", "rental_uris": {"android": "https://dc.lft.to/lastmile_qr_scan", "ios": "https://dc.lft.to/lastmile_qr_scan"}, "name": "344194132aa28691048bd1886bb6385a", "is_reserved": 0}, {"is_disabled": 0, "fusion_lon": 0.0, "fusion_lat": 0.0, "lat": 38.925784, "type": "electric_scooter", "lon": -77.08056783333333, "bike_id": "e65b7d956a5248522a96d9ce0863a7ff", "rental_uris": {"android": "https://dc.lft.to/lastmile_qr_scan", "ios": "https://dc.lft.to/lastmile_qr_scan"}, "name": "e65b7d956a5248522a96d9ce0863a7ff", "is_reserved": 0}, {"is_disabled": 0, "fusion_lon": 0.0, "fusion_lat": 0.0, "lat": 38.9121095, "type": "electric_scooter", "lon": -77.038393, "bike_id": "7b9bc086e14d1e017fb16fa7071e491a", "rental_uris": {"android": "https://dc.lft.to/lastmile_qr_scan", "ios": "https://dc.lft.to/lastmile_qr_scan"}, "name": "7b9bc086e14d1e017fb16fa7071e491a", "is_reserved": 0}, {"is_disabled": 0, "fusion_lon": 0.0, "fusion_lat": 0.0, "lat": 38.87754233333333, "type": "electric_bike", "lon": -76.97992316666667, "bike_id": "ad237bab15dbb1847be24e72215111f3", "rental_uris": {"android": "https://dc.lft.to/lastmile_qr_scan", "ios": "https://dc.lft.to/lastmile_qr_scan"}, "name": "ad237bab15dbb1847be24e72215111f3", "is_reserved": 0}, {"is_disabled": 0, "fusion_lon": 0.0, "fusion_lat": 0.0, "lat": 38.914577, "type": "electric_scooter", "lon": -76.98447350000001, "bike_id": "72e2275916cd162172ae175f7bb2034e", "rental_uris": {"android": "https://dc.lft.to/lastmile_qr_scan", "ios": "https://dc.lft.to/lastmile_qr_scan"}, "name": "72e2275916cd162172ae175f7bb2034e", "is_reserved": 0}, {"is_disabled": 0, "fusion_lon": 0.0, "fusion_lat": 0.0, "lat": 38.922897166666665, "type": "electric_scooter", "lon": -77.02956116666667, "bike_id": "f10e56f439603f74800f27a727f39fae", "rental_uris": {"android": "https://dc.lft.to/lastmile_qr_scan", "ios": "https://dc.lft.to/lastmile_qr_scan"}, "name": "f10e56f439603f74800f27a727f39fae", "is_reserved": 0}, {"is_disabled": 0, "fusion_lon": 0.0, "fusion_lat": 0.0, "lat": 38.926529, "type": "electric_scooter", "lon": -77.03716033333333, "bike_id": "eb56f8e26c2a3e9eb03d065fc181c0ba", "rental_uris": {"android": "https://dc.lft.to/lastmile_qr_scan", "ios": "https://dc.lft.to/lastmile_qr_scan"}, "name": "eb56f8e26c2a3e9eb03d065fc181c0ba", "is_reserved": 0}, {"is_disabled": 0, "fusion_lon": 0.0, "fusion_lat": 0.0, "lat": 38.9246255, "type": "electric_scooter", "lon": -77.07863283333333, "bike_id": "3c998541b6f818d3a3842bc049fb76ba", "rental_uris": {"android": "https://dc.lft.to/lastmile_qr_scan", "ios": "https://dc.lft.to/lastmile_qr_scan"}, "name": "3c998541b6f818d3a3842bc049fb76ba", "is_reserved": 0}, {"is_disabled": 0, "fusion_lon": 0.0, "fusion_lat": 0.0, "lat": 38.89013216666667, "type": "electric_scooter", "lon": -76.9383265, "bike_id": "0dc8d97f1a22e63ef4670f77bd5cf0ad", "rental_uris": {"android": "https://dc.lft.to/lastmile_qr_scan", "ios": "https://dc.lft.to/lastmile_qr_scan"}, "name": "0dc8d97f1a22e63ef4670f77bd5cf0ad", "is_reserved": 0}, {"is_disabled": 0, "fusion_lon": 0.0, "fusion_lat": 0.0, "lat": 38.93084983333333, "type": "electric_scooter", "lon": -77.0361845, "bike_id": "801fe52bd8dbc7bfb032725e54300787", "rental_uris": {"android": "https://dc.lft.to/lastmile_qr_scan", "ios": "https://dc.lft.to/lastmile_qr_scan"}, "name": "801fe52bd8dbc7bfb032725e54300787", "is_reserved": 0}, {"is_disabled": 0, "fusion_lon": 0.0, "fusion_lat": 0.0, "lat": 38.930542333333335, "type": "electric_scooter", "lon": -77.029601, "bike_id": "7491a6e7430a67e238fc5c0838068b9d", "rental_uris": {"android": "https://dc.lft.to/lastmile_qr_scan", "ios": "https://dc.lft.to/lastmile_qr_scan"}, "name": "7491a6e7430a67e238fc5c0838068b9d", "is_reserved": 0}, {"is_disabled": 0, "fusion_lon": 0.0, "fusion_lat": 0.0, "lat": 38.89609, "type": "electric_scooter", "lon": -77.04542116666667, "bike_id": "622bfc675e53c99aa22b7848065f2b19", "rental_uris": {"android": "https://dc.lft.to/lastmile_qr_scan", "ios": "https://dc.lft.to/lastmile_qr_scan"}, "name": "622bfc675e53c99aa22b7848065f2b19", "is_reserved": 0}, {"is_disabled": 0, "fusion_lon": 0.0, "fusion_lat": 0.0, "lat": 38.897337666666665, "type": "electric_scooter", "lon": -77.0424585, "bike_id": "49544660b3afde967b85142fc042263b", "rental_uris": {"android": "https://dc.lft.to/lastmile_qr_scan", "ios": "https://dc.lft.to/lastmile_qr_scan"}, "name": "49544660b3afde967b85142fc042263b", "is_reserved": 0}, {"is_disabled": 0, "fusion_lon": 0.0, "fusion_lat": 0.0, "lat": 38.878829333333336, "type": "electric_bike", "lon": -77.023133, "bike_id": "238b8bcb1a6f0c50a6e187e2666269ae", "rental_uris": {"android": "https://dc.lft.to/lastmile_qr_scan", "ios": "https://dc.lft.to/lastmile_qr_scan"}, "name": "238b8bcb1a6f0c50a6e187e2666269ae", "is_reserved": 0}, {"is_disabled": 0, "fusion_lon": 0.0, "fusion_lat": 0.0, "lat": 38.93928183333333, "type": "electric_scooter", "lon": -77.07468416666667, "bike_id": "d767acce365276c13d51d52664653594", "rental_uris": {"android": "https://dc.lft.to/lastmile_qr_scan", "ios": "https://dc.lft.to/lastmile_qr_scan"}, "name": "d767acce365276c13d51d52664653594", "is_reserved": 0}, {"is_disabled": 0, "fusion_lon": 0.0, "fusion_lat": 0.0, "lat": 38.900421333333334, "type": "electric_scooter", "lon": -76.996376, "bike_id": "7265ef074c3e088f3452d1800a46e47d", "rental_uris": {"android": "https://dc.lft.to/lastmile_qr_scan", "ios": "https://dc.lft.to/lastmile_qr_scan"}, "name": "7265ef074c3e088f3452d1800a46e47d", "is_reserved": 0}, {"is_disabled": 0, "fusion_lon": 0.0, "fusion_lat": 0.0, "lat": 38.9236555, "type": "electric_scooter", "lon": -77.03072933333333, "bike_id": "7fa5ab8c7ebbe5bfde8236f1b205d833", "rental_uris": {"android": "https://dc.lft.to/lastmile_qr_scan", "ios": "https://dc.lft.to/lastmile_qr_scan"}, "name": "7fa5ab8c7ebbe5bfde8236f1b205d833", "is_reserved": 0}, {"is_disabled": 0, "fusion_lon": 0.0, "fusion_lat": 0.0, "lat": 39.024965, "type": "electric_bike", "lon": -77.12566633333333, "bike_id": "5d2959873bf900e38833356bc40d5b09", "rental_uris": {"android": "https://dc.lft.to/lastmile_qr_scan", "ios": "https://dc.lft.to/lastmile_qr_scan"}, "name": "5d2959873bf900e38833356bc40d5b09", "is_reserved": 0}, {"is_disabled": 0, "fusion_lon": 0.0, "fusion_lat": 0.0, "lat": 38.918337333333334, "type": "electric_scooter", "lon": -77.03204283333334, "bike_id": "af5d9644801676439e2b8220378ce2d1", "rental_uris": {"android": "https://dc.lft.to/lastmile_qr_scan", "ios": "https://dc.lft.to/lastmile_qr_scan"}, "name": "af5d9644801676439e2b8220378ce2d1", "is_reserved": 0}, {"is_disabled": 0, "fusion_lon": 0.0, "fusion_lat": 0.0, "lat": 38.89850283333333, "type": "electric_scooter", "lon": -77.02918166666667, "bike_id": "b8296a161b5b730588df9e278f6c7e12", "rental_uris": {"android": "https://dc.lft.to/lastmile_qr_scan", "ios": "https://dc.lft.to/lastmile_qr_scan"}, "name": "b8296a161b5b730588df9e278f6c7e12", "is_reserved": 0}, {"is_disabled": 0, "fusion_lon": 0.0, "fusion_lat": 0.0, "lat": 38.91697466666667, "type": "electric_scooter", "lon": -77.02729283333333, "bike_id": "d9143ba90c0725deb04f944a11d1b904", "rental_uris": {"android": "https://dc.lft.to/lastmile_qr_scan", "ios": "https://dc.lft.to/lastmile_qr_scan"}, "name": "d9143ba90c0725deb04f944a11d1b904", "is_reserved": 0}, {"is_disabled": 0, "fusion_lon": 0.0, "fusion_lat": 0.0, "lat": 38.94312333333333, "type": "electric_scooter", "lon": -77.06172116666667, "bike_id": "118c774d347b7d30e34bf019d0bcc114", "rental_uris": {"android": "https://dc.lft.to/lastmile_qr_scan", "ios": "https://dc.lft.to/lastmile_qr_scan"}, "name": "118c774d347b7d30e34bf019d0bcc114", "is_reserved": 0}, {"is_disabled": 0, "fusion_lon": 0.0, "fusion_lat": 0.0, "lat": 38.9262975, "type": "electric_scooter", "lon": -77.03496766666666, "bike_id": "817b7fde21bdea67af5207bd154a9b2e", "rental_uris": {"android": "https://dc.lft.to/lastmile_qr_scan", "ios": "https://dc.lft.to/lastmile_qr_scan"}, "name": "817b7fde21bdea67af5207bd154a9b2e", "is_reserved": 0}, {"is_disabled": 0, "fusion_lon": 0.0, "fusion_lat": 0.0, "lat": 38.900273166666665, "type": "electric_scooter", "lon": -76.99637383333334, "bike_id": "835346cd2b58d15217390f1d9b586ed6", "rental_uris": {"android": "https://dc.lft.to/lastmile_qr_scan", "ios": "https://dc.lft.to/lastmile_qr_scan"}, "name": "835346cd2b58d15217390f1d9b586ed6", "is_reserved": 0}, {"is_disabled": 0, "fusion_lon": 0.0, "fusion_lat": 0.0, "lat": 38.90583916666667, "type": "electric_scooter", "lon": -77.00582383333334, "bike_id": "2f3eff1f1058b650ce914acd706329a6", "rental_uris": {"android": "https://dc.lft.to/lastmile_qr_scan", "ios": "https://dc.lft.to/lastmile_qr_scan"}, "name": "2f3eff1f1058b650ce914acd706329a6", "is_reserved": 0}, {"is_disabled": 0, "fusion_lon": 0.0, "fusion_lat": 0.0, "lat": 38.91908516666667, "type": "electric_scooter", "lon": -77.0174905, "bike_id": "c7c13bc6b91000cfd6b989689473b359", "rental_uris": {"android": "https://dc.lft.to/lastmile_qr_scan", "ios": "https://dc.lft.to/lastmile_qr_scan"}, "name": "c7c13bc6b91000cfd6b989689473b359", "is_reserved": 0}, {"is_disabled": 0, "fusion_lon": 0.0, "fusion_lat": 0.0, "lat": 38.92604516666667, "type": "electric_scooter", "lon": -77.02435633333333, "bike_id": "5c7f45a8594d11e9022ea79beb27f5f5", "rental_uris": {"android": "https://dc.lft.to/lastmile_qr_scan", "ios": "https://dc.lft.to/lastmile_qr_scan"}, "name": "5c7f45a8594d11e9022ea79beb27f5f5", "is_reserved": 0}, {"is_disabled": 0, "fusion_lon": 0.0, "fusion_lat": 0.0, "lat": 38.915692, "type": "electric_scooter", "lon": -77.04692733333333, "bike_id": "2f79e29146728ee7a16b91ecc0332244", "rental_uris": {"android": "https://dc.lft.to/lastmile_qr_scan", "ios": "https://dc.lft.to/lastmile_qr_scan"}, "name": "2f79e29146728ee7a16b91ecc0332244", "is_reserved": 0}, {"is_disabled": 0, "fusion_lon": 0.0, "fusion_lat": 0.0, "lat": 38.929889833333334, "type": "electric_scooter", "lon": -77.0259045, "bike_id": "be408c76d1b7d4ade3d55ec22212628b", "rental_uris": {"android": "https://dc.lft.to/lastmile_qr_scan", "ios": "https://dc.lft.to/lastmile_qr_scan"}, "name": "be408c76d1b7d4ade3d55ec22212628b", "is_reserved": 0}, {"is_disabled": 0, "fusion_lon": 0.0, "fusion_lat": 0.0, "lat": 38.912592833333335, "type": "electric_scooter", "lon": -77.04147533333334, "bike_id": "fb763ce2573466c9ca5826115c78acec", "rental_uris": {"android": "https://dc.lft.to/lastmile_qr_scan", "ios": "https://dc.lft.to/lastmile_qr_scan"}, "name": "fb763ce2573466c9ca5826115c78acec", "is_reserved": 0}, {"is_disabled": 0, "fusion_lon": 0.0, "fusion_lat": 0.0, "lat": 39.09584616666667, "type": "electric_bike", "lon": -77.14775666666667, "bike_id": "d2171467200ded304d8508ecfa8c5e92", "rental_uris": {"android": "https://dc.lft.to/lastmile_qr_scan", "ios": "https://dc.lft.to/lastmile_qr_scan"}, "name": "d2171467200ded304d8508ecfa8c5e92", "is_reserved": 0}, {"is_disabled": 0, "fusion_lon": 0.0, "fusion_lat": 0.0, "lat": 38.9002245, "type": "electric_scooter", "lon": -76.99595033333334, "bike_id": "fdc773299187b30953b8aac6a6cd0b35", "rental_uris": {"android": "https://dc.lft.to/lastmile_qr_scan", "ios": "https://dc.lft.to/lastmile_qr_scan"}, "name": "fdc773299187b30953b8aac6a6cd0b35", "is_reserved": 0}, {"is_disabled": 0, "fusion_lon": 0.0, "fusion_lat": 0.0, "lat": 38.899080166666664, "type": "electric_scooter", "lon": -76.93358966666666, "bike_id": "7e42356fe7d120fd0d4f72a85e7ad105", "rental_uris": {"android": "https://dc.lft.to/lastmile_qr_scan", "ios": "https://dc.lft.to/lastmile_qr_scan"}, "name": "7e42356fe7d120fd0d4f72a85e7ad105", "is_reserved": 0}, {"is_disabled": 0, "fusion_lon": 0.0, "fusion_lat": 0.0, "lat": 38.91547583333333, "type": "electric_scooter", "lon": -77.01228483333334, "bike_id": "506e5b420d19f041a58867c733c24792", "rental_uris": {"android": "https://dc.lft.to/lastmile_qr_scan", "ios": "https://dc.lft.to/lastmile_qr_scan"}, "name": "506e5b420d19f041a58867c733c24792", "is_reserved": 0}, {"is_disabled": 0, "fusion_lon": 0.0, "fusion_lat": 0.0, "lat": 38.999342, "type": "electric_bike", "lon": -77.00120566666666, "bike_id": "d21117cbc53a0561b329667fa691f5bb", "rental_uris": {"android": "https://dc.lft.to/lastmile_qr_scan", "ios": "https://dc.lft.to/lastmile_qr_scan"}, "name": "d21117cbc53a0561b329667fa691f5bb", "is_reserved": 0}, {"is_disabled": 0, "fusion_lon": 0.0, "fusion_lat": 0.0, "lat": 38.895121333333336, "type": "electric_scooter", "lon": -76.94884366666666, "bike_id": "2254068c0f70307cddc2a1e8ad0a1e2b", "rental_uris": {"android": "https://dc.lft.to/lastmile_qr_scan", "ios": "https://dc.lft.to/lastmile_qr_scan"}, "name": "2254068c0f70307cddc2a1e8ad0a1e2b", "is_reserved": 0}, {"is_disabled": 0, "fusion_lon": 0.0, "fusion_lat": 0.0, "lat": 38.892206, "type": "electric_scooter", "lon": -77.02258816666667, "bike_id": "815da3fcca38ee4e87662018d4d5e840", "rental_uris": {"android": "https://dc.lft.to/lastmile_qr_scan", "ios": "https://dc.lft.to/lastmile_qr_scan"}, "name": "815da3fcca38ee4e87662018d4d5e840", "is_reserved": 0}, {"is_disabled": 0, "fusion_lon": 0.0, "fusion_lat": 0.0, "lat": 38.855742666666664, "type": "electric_bike", "lon": -77.10713016666666, "bike_id": "2669c88a0607c92ee32e82230dd195d4", "rental_uris": {"android": "https://dc.lft.to/lastmile_qr_scan", "ios": "https://dc.lft.to/lastmile_qr_scan"}, "name": "2669c88a0607c92ee32e82230dd195d4", "is_reserved": 0}, {"is_disabled": 0, "fusion_lon": 0.0, "fusion_lat": 0.0, "lat": 38.902388, "type": "electric_scooter", "lon": -77.00209033333333, "bike_id": "8f2a8311cc39387f664880af1b734b87", "rental_uris": {"android": "https://dc.lft.to/lastmile_qr_scan", "ios": "https://dc.lft.to/lastmile_qr_scan"}, "name": "8f2a8311cc39387f664880af1b734b87", "is_reserved": 0}, {"is_disabled": 0, "fusion_lon": 0.0, "fusion_lat": 0.0, "lat": 38.84192183333333, "type": "electric_bike", "lon": -77.07749666666666, "bike_id": "4c060cc333f83858b85426c27172b874", "rental_uris": {"android": "https://dc.lft.to/lastmile_qr_scan", "ios": "https://dc.lft.to/lastmile_qr_scan"}, "name": "4c060cc333f83858b85426c27172b874", "is_reserved": 0}, {"is_disabled": 0, "fusion_lon": 0.0, "fusion_lat": 0.0, "lat": 38.8604045, "type": "electric_scooter", "lon": -76.996842, "bike_id": "a577d071febf3e2fd190726f3d47b448", "rental_uris": {"android": "https://dc.lft.to/lastmile_qr_scan", "ios": "https://dc.lft.to/lastmile_qr_scan"}, "name": "a577d071febf3e2fd190726f3d47b448", "is_reserved": 0}, {"is_disabled": 0, "fusion_lon": 0.0, "fusion_lat": 0.0, "lat": 38.899964, "type": "electric_scooter", "lon": -77.03193433333334, "bike_id": "586d4ea75f959e71aefe3b318f3023f9", "rental_uris": {"android": "https://dc.lft.to/lastmile_qr_scan", "ios": "https://dc.lft.to/lastmile_qr_scan"}, "name": "586d4ea75f959e71aefe3b318f3023f9", "is_reserved": 0}, {"is_disabled": 0, "fusion_lon": 0.0, "fusion_lat": 0.0, "lat": 38.947525, "type": "electric_scooter", "lon": -77.029799, "bike_id": "85580e942e707330d1c3c7bc8cc4a916", "rental_uris": {"android": "https://dc.lft.to/lastmile_qr_scan", "ios": "https://dc.lft.to/lastmile_qr_scan"}, "name": "85580e942e707330d1c3c7bc8cc4a916", "is_reserved": 0}, {"is_disabled": 0, "fusion_lon": 0.0, "fusion_lat": 0.0, "lat": 38.93110933333333, "type": "electric_scooter", "lon": -77.01244466666667, "bike_id": "27ab3448c155f9240327405afb671d13", "rental_uris": {"android": "https://dc.lft.to/lastmile_qr_scan", "ios": "https://dc.lft.to/lastmile_qr_scan"}, "name": "27ab3448c155f9240327405afb671d13", "is_reserved": 0}, {"is_disabled": 0, "fusion_lon": 0.0, "fusion_lat": 0.0, "lat": 38.92647866666667, "type": "electric_scooter", "lon": -77.037146, "bike_id": "fe1b0a17e8baa733c69223027759cf67", "rental_uris": {"android": "https://dc.lft.to/lastmile_qr_scan", "ios": "https://dc.lft.to/lastmile_qr_scan"}, "name": "fe1b0a17e8baa733c69223027759cf67", "is_reserved": 0}, {"is_disabled": 0, "fusion_lon": 0.0, "fusion_lat": 0.0, "lat": 38.90985033333333, "type": "electric_scooter", "lon": -77.03175783333333, "bike_id": "4bd1020bc6cb9d3c153701b61a8ab6b2", "rental_uris": {"android": "https://dc.lft.to/lastmile_qr_scan", "ios": "https://dc.lft.to/lastmile_qr_scan"}, "name": "4bd1020bc6cb9d3c153701b61a8ab6b2", "is_reserved": 0}, {"is_disabled": 0, "fusion_lon": 0.0, "fusion_lat": 0.0, "lat": 38.863566666666664, "type": "electric_scooter", "lon": -76.99049233333334, "bike_id": "6720174435d3960577f4875d56a7b35c", "rental_uris": {"android": "https://dc.lft.to/lastmile_qr_scan", "ios": "https://dc.lft.to/lastmile_qr_scan"}, "name": "6720174435d3960577f4875d56a7b35c", "is_reserved": 0}, {"is_disabled": 0, "fusion_lon": 0.0, "fusion_lat": 0.0, "lat": 38.902461833333334, "type": "electric_scooter", "lon": -77.026783, "bike_id": "59fbfb4535825e1de1d98f05bb51451f", "rental_uris": {"android": "https://dc.lft.to/lastmile_qr_scan", "ios": "https://dc.lft.to/lastmile_qr_scan"}, "name": "59fbfb4535825e1de1d98f05bb51451f", "is_reserved": 0}, {"is_disabled": 0, "fusion_lon": 0.0, "fusion_lat": 0.0, "lat": 38.9042365, "type": "electric_scooter", "lon": -77.0432905, "bike_id": "8e17fdd5e28438cc68e87ce4f9b2c4cd", "rental_uris": {"android": "https://dc.lft.to/lastmile_qr_scan", "ios": "https://dc.lft.to/lastmile_qr_scan"}, "name": "8e17fdd5e28438cc68e87ce4f9b2c4cd", "is_reserved": 0}, {"is_disabled": 0, "fusion_lon": 0.0, "fusion_lat": 0.0, "lat": 38.9017735, "type": "electric_scooter", "lon": -77.01830233333334, "bike_id": "79b0924449cb1fda2eff34a36f3b3700", "rental_uris": {"android": "https://dc.lft.to/lastmile_qr_scan", "ios": "https://dc.lft.to/lastmile_qr_scan"}, "name": "79b0924449cb1fda2eff34a36f3b3700", "is_reserved": 0}, {"is_disabled": 0, "fusion_lon": 0.0, "fusion_lat": 0.0, "lat": 38.898230833333336, "type": "electric_scooter", "lon": -77.03157016666667, "bike_id": "dec47bf41b3f5b53a55aa9fdba76be48", "rental_uris": {"android": "https://dc.lft.to/lastmile_qr_scan", "ios": "https://dc.lft.to/lastmile_qr_scan"}, "name": "dec47bf41b3f5b53a55aa9fdba76be48", "is_reserved": 0}, {"is_disabled": 0, "fusion_lon": 0.0, "fusion_lat": 0.0, "lat": 38.9215675, "type": "electric_scooter", "lon": -77.03875116666667, "bike_id": "9f62a2214e1627cb95d6c2ab91af69bd", "rental_uris": {"android": "https://dc.lft.to/lastmile_qr_scan", "ios": "https://dc.lft.to/lastmile_qr_scan"}, "name": "9f62a2214e1627cb95d6c2ab91af69bd", "is_reserved": 0}, {"is_disabled": 0, "fusion_lon": 0.0, "fusion_lat": 0.0, "lat": 38.92555266666667, "type": "electric_scooter", "lon": -77.033111, "bike_id": "cf22cec800a5794a7fb2a87d9867e2bc", "rental_uris": {"android": "https://dc.lft.to/lastmile_qr_scan", "ios": "https://dc.lft.to/lastmile_qr_scan"}, "name": "cf22cec800a5794a7fb2a87d9867e2bc", "is_reserved": 0}, {"is_disabled": 0, "fusion_lon": 0.0, "fusion_lat": 0.0, "lat": 38.89370233333333, "type": "electric_scooter", "lon": -76.9499775, "bike_id": "f826d7883136f9382f3b7b3fe7e04a47", "rental_uris": {"android": "https://dc.lft.to/lastmile_qr_scan", "ios": "https://dc.lft.to/lastmile_qr_scan"}, "name": "f826d7883136f9382f3b7b3fe7e04a47", "is_reserved": 0}, {"is_disabled": 0, "fusion_lon": 0.0, "fusion_lat": 0.0, "lat": 38.93635033333333, "type": "electric_scooter", "lon": -77.03261483333333, "bike_id": "53100ecdb677bee18be8df11f5166b4e", "rental_uris": {"android": "https://dc.lft.to/lastmile_qr_scan", "ios": "https://dc.lft.to/lastmile_qr_scan"}, "name": "53100ecdb677bee18be8df11f5166b4e", "is_reserved": 0}, {"is_disabled": 0, "fusion_lon": 0.0, "fusion_lat": 0.0, "lat": 38.887621333333335, "type": "electric_bike", "lon": -76.90080483333334, "bike_id": "8c3749fdc703078c5093ee4c7362fd0e", "rental_uris": {"android": "https://dc.lft.to/lastmile_qr_scan", "ios": "https://dc.lft.to/lastmile_qr_scan"}, "name": "8c3749fdc703078c5093ee4c7362fd0e", "is_reserved": 0}, {"is_disabled": 0, "fusion_lon": 0.0, "fusion_lat": 0.0, "lat": 38.904168166666665, "type": "electric_scooter", "lon": -77.0258075, "bike_id": "b53b9e7d618726e152d05b3414f99958", "rental_uris": {"android": "https://dc.lft.to/lastmile_qr_scan", "ios": "https://dc.lft.to/lastmile_qr_scan"}, "name": "b53b9e7d618726e152d05b3414f99958", "is_reserved": 0}, {"is_disabled": 0, "fusion_lon": 0.0, "fusion_lat": 0.0, "lat": 39.10566016666667, "type": "electric_bike", "lon": -77.15266233333334, "bike_id": "1bde9d7d37a72b39918d05c2267bb387", "rental_uris": {"android": "https://dc.lft.to/lastmile_qr_scan", "ios": "https://dc.lft.to/lastmile_qr_scan"}, "name": "1bde9d7d37a72b39918d05c2267bb387", "is_reserved": 0}, {"is_disabled": 0, "fusion_lon": 0.0, "fusion_lat": 0.0, "lat": 38.91545816666667, "type": "electric_scooter", "lon": -77.01959316666667, "bike_id": "59034c50938185b559b7b96ca3e2e43d", "rental_uris": {"android": "https://dc.lft.to/lastmile_qr_scan", "ios": "https://dc.lft.to/lastmile_qr_scan"}, "name": "59034c50938185b559b7b96ca3e2e43d", "is_reserved": 0}, {"is_disabled": 0, "fusion_lon": 0.0, "fusion_lat": 0.0, "lat": 38.92445816666667, "type": "electric_bike", "lon": -76.96832683333334, "bike_id": "2d89f4ff9d1d25747341a5a3a43add86", "rental_uris": {"android": "https://dc.lft.to/lastmile_qr_scan", "ios": "https://dc.lft.to/lastmile_qr_scan"}, "name": "2d89f4ff9d1d25747341a5a3a43add86", "is_reserved": 0}, {"is_disabled": 0, "fusion_lon": 0.0, "fusion_lat": 0.0, "lat": 38.903773, "type": "electric_scooter", "lon": -77.0435865, "bike_id": "7c2d5321cfcd821b5c1fb42633c7292a", "rental_uris": {"android": "https://dc.lft.to/lastmile_qr_scan", "ios": "https://dc.lft.to/lastmile_qr_scan"}, "name": "7c2d5321cfcd821b5c1fb42633c7292a", "is_reserved": 0}, {"is_disabled": 0, "fusion_lon": 0.0, "fusion_lat": 0.0, "lat": 38.889671, "type": "electric_bike", "lon": -76.94866616666667, "bike_id": "07065a6c5ecb2344fb349086eb290941", "rental_uris": {"android": "https://dc.lft.to/lastmile_qr_scan", "ios": "https://dc.lft.to/lastmile_qr_scan"}, "name": "07065a6c5ecb2344fb349086eb290941", "is_reserved": 0}, {"is_disabled": 0, "fusion_lon": 0.0, "fusion_lat": 0.0, "lat": 38.975705, "type": "electric_bike", "lon": -76.96400716666666, "bike_id": "0e0a23039ffe6d4514a24872e3fc2cf1", "rental_uris": {"android": "https://dc.lft.to/lastmile_qr_scan", "ios": "https://dc.lft.to/lastmile_qr_scan"}, "name": "0e0a23039ffe6d4514a24872e3fc2cf1", "is_reserved": 0}, {"is_disabled": 0, "fusion_lon": 0.0, "fusion_lat": 0.0, "lat": 38.907258, "type": "electric_scooter", "lon": -77.02370816666667, "bike_id": "a5cab2eaaea173f5ca74d279cd492bbe", "rental_uris": {"android": "https://dc.lft.to/lastmile_qr_scan", "ios": "https://dc.lft.to/lastmile_qr_scan"}, "name": "a5cab2eaaea173f5ca74d279cd492bbe", "is_reserved": 0}, {"is_disabled": 0, "fusion_lon": 0.0, "fusion_lat": 0.0, "lat": 38.907631, "type": "electric_scooter", "lon": -77.03257416666666, "bike_id": "74e07f9cbd8ab26e8707c2936afa07b7", "rental_uris": {"android": "https://dc.lft.to/lastmile_qr_scan", "ios": "https://dc.lft.to/lastmile_qr_scan"}, "name": "74e07f9cbd8ab26e8707c2936afa07b7", "is_reserved": 0}, {"is_disabled": 0, "fusion_lon": 0.0, "fusion_lat": 0.0, "lat": 38.8881995, "type": "electric_bike", "lon": -77.12745766666667, "bike_id": "93c38d0857e1136f3391423b9f8a1df4", "rental_uris": {"android": "https://dc.lft.to/lastmile_qr_scan", "ios": "https://dc.lft.to/lastmile_qr_scan"}, "name": "93c38d0857e1136f3391423b9f8a1df4", "is_reserved": 0}, {"is_disabled": 0, "fusion_lon": 0.0, "fusion_lat": 0.0, "lat": 38.892197, "type": "electric_scooter", "lon": -77.02219733333334, "bike_id": "f14a6ac2e62b67ff3772aec32c07f9f7", "rental_uris": {"android": "https://dc.lft.to/lastmile_qr_scan", "ios": "https://dc.lft.to/lastmile_qr_scan"}, "name": "f14a6ac2e62b67ff3772aec32c07f9f7", "is_reserved": 0}, {"is_disabled": 0, "fusion_lon": 0.0, "fusion_lat": 0.0, "lat": 38.99223466666667, "type": "electric_bike", "lon": -76.8777185, "bike_id": "b65a56f0553d589a3f0372b7e1d2e44d", "rental_uris": {"android": "https://dc.lft.to/lastmile_qr_scan", "ios": "https://dc.lft.to/lastmile_qr_scan"}, "name": "b65a56f0553d589a3f0372b7e1d2e44d", "is_reserved": 0}, {"is_disabled": 0, "fusion_lon": 0.0, "fusion_lat": 0.0, "lat": 38.8650625, "type": "electric_scooter", "lon": -76.99002483333334, "bike_id": "d8fa9e7f4ce01e55302e39c9d5248d8c", "rental_uris": {"android": "https://dc.lft.to/lastmile_qr_scan", "ios": "https://dc.lft.to/lastmile_qr_scan"}, "name": "d8fa9e7f4ce01e55302e39c9d5248d8c", "is_reserved": 0}, {"is_disabled": 0, "fusion_lon": 0.0, "fusion_lat": 0.0, "lat": 38.928983, "type": "electric_scooter", "lon": -77.01643783333333, "bike_id": "45a94d4f5a8473aff9c03209bad4c800", "rental_uris": {"android": "https://dc.lft.to/lastmile_qr_scan", "ios": "https://dc.lft.to/lastmile_qr_scan"}, "name": "45a94d4f5a8473aff9c03209bad4c800", "is_reserved": 0}, {"is_disabled": 0, "fusion_lon": 0.0, "fusion_lat": 0.0, "lat": 38.8873885, "type": "electric_scooter", "lon": -77.0286095, "bike_id": "ef55d4a68f9a01be549b6f4c944fc497", "rental_uris": {"android": "https://dc.lft.to/lastmile_qr_scan", "ios": "https://dc.lft.to/lastmile_qr_scan"}, "name": "ef55d4a68f9a01be549b6f4c944fc497", "is_reserved": 0}, {"is_disabled": 0, "fusion_lon": 0.0, "fusion_lat": 0.0, "lat": 38.907360833333335, "type": "electric_scooter", "lon": -77.03445066666667, "bike_id": "86463323baab78fc1e74763a10acbbb0", "rental_uris": {"android": "https://dc.lft.to/lastmile_qr_scan", "ios": "https://dc.lft.to/lastmile_qr_scan"}, "name": "86463323baab78fc1e74763a10acbbb0", "is_reserved": 0}, {"is_disabled": 0, "fusion_lon": 0.0, "fusion_lat": 0.0, "lat": 38.92458233333333, "type": "electric_scooter", "lon": -77.052354, "bike_id": "5ffcfc564cc34eaee06e79dd06b3d283", "rental_uris": {"android": "https://dc.lft.to/lastmile_qr_scan", "ios": "https://dc.lft.to/lastmile_qr_scan"}, "name": "5ffcfc564cc34eaee06e79dd06b3d283", "is_reserved": 0}, {"is_disabled": 0, "fusion_lon": 0.0, "fusion_lat": 0.0, "lat": 38.86169066666667, "type": "electric_bike", "lon": -77.09060766666667, "bike_id": "e30442a10ae6e3d84790e9c2601c6915", "rental_uris": {"android": "https://dc.lft.to/lastmile_qr_scan", "ios": "https://dc.lft.to/lastmile_qr_scan"}, "name": "e30442a10ae6e3d84790e9c2601c6915", "is_reserved": 0}, {"is_disabled": 0, "fusion_lon": 0.0, "fusion_lat": 0.0, "lat": 38.90237283333333, "type": "electric_scooter", "lon": -77.03454533333333, "bike_id": "c4a1cceb2ca7b9fe4883f7c7ec5b9769", "rental_uris": {"android": "https://dc.lft.to/lastmile_qr_scan", "ios": "https://dc.lft.to/lastmile_qr_scan"}, "name": "c4a1cceb2ca7b9fe4883f7c7ec5b9769", "is_reserved": 0}, {"is_disabled": 0, "fusion_lon": 0.0, "fusion_lat": 0.0, "lat": 38.86712033333333, "type": "electric_scooter", "lon": -76.98727983333333, "bike_id": "02faf588cb69f565916f9243dfd166d6", "rental_uris": {"android": "https://dc.lft.to/lastmile_qr_scan", "ios": "https://dc.lft.to/lastmile_qr_scan"}, "name": "02faf588cb69f565916f9243dfd166d6", "is_reserved": 0}, {"is_disabled": 0, "fusion_lon": 0.0, "fusion_lat": 0.0, "lat": 38.893321, "type": "electric_scooter", "lon": -77.0502395, "bike_id": "a0bb1e20e8f9bfd68439950da9f61380", "rental_uris": {"android": "https://dc.lft.to/lastmile_qr_scan", "ios": "https://dc.lft.to/lastmile_qr_scan"}, "name": "a0bb1e20e8f9bfd68439950da9f61380", "is_reserved": 0}, {"is_disabled": 0, "fusion_lon": 0.0, "fusion_lat": 0.0, "lat": 38.89832283333333, "type": "electric_scooter", "lon": -76.94632616666667, "bike_id": "29ceb554586dc378701bd77033242d57", "rental_uris": {"android": "https://dc.lft.to/lastmile_qr_scan", "ios": "https://dc.lft.to/lastmile_qr_scan"}, "name": "29ceb554586dc378701bd77033242d57", "is_reserved": 0}, {"is_disabled": 0, "fusion_lon": 0.0, "fusion_lat": 0.0, "lat": 38.86698366666667, "type": "electric_scooter", "lon": -76.98707616666667, "bike_id": "f2212bf5ecef2e1b7d29f0309fd73d23", "rental_uris": {"android": "https://dc.lft.to/lastmile_qr_scan", "ios": "https://dc.lft.to/lastmile_qr_scan"}, "name": "f2212bf5ecef2e1b7d29f0309fd73d23", "is_reserved": 0}, {"is_disabled": 0, "fusion_lon": 0.0, "fusion_lat": 0.0, "lat": 38.95657333333333, "type": "electric_scooter", "lon": -77.08369116666667, "bike_id": "26b0f6abfe67617242afee871b6d24e5", "rental_uris": {"android": "https://dc.lft.to/lastmile_qr_scan", "ios": "https://dc.lft.to/lastmile_qr_scan"}, "name": "26b0f6abfe67617242afee871b6d24e5", "is_reserved": 0}, {"is_disabled": 0, "fusion_lon": 0.0, "fusion_lat": 0.0, "lat": 38.912682833333335, "type": "electric_scooter", "lon": -77.022302, "bike_id": "efc4abfe85c7d4abb53d85434a690c39", "rental_uris": {"android": "https://dc.lft.to/lastmile_qr_scan", "ios": "https://dc.lft.to/lastmile_qr_scan"}, "name": "efc4abfe85c7d4abb53d85434a690c39", "is_reserved": 0}, {"is_disabled": 0, "fusion_lon": 0.0, "fusion_lat": 0.0, "lat": 38.906583499999996, "type": "electric_scooter", "lon": -77.04341033333333, "bike_id": "e46d84d27bb0bc5240250849d7f91528", "rental_uris": {"android": "https://dc.lft.to/lastmile_qr_scan", "ios": "https://dc.lft.to/lastmile_qr_scan"}, "name": "e46d84d27bb0bc5240250849d7f91528", "is_reserved": 0}, {"is_disabled": 0, "fusion_lon": 0.0, "fusion_lat": 0.0, "lat": 38.926414666666666, "type": "electric_bike", "lon": -77.02836966666666, "bike_id": "0baef42072554147e43ebf8c3379d4e3", "rental_uris": {"android": "https://dc.lft.to/lastmile_qr_scan", "ios": "https://dc.lft.to/lastmile_qr_scan"}, "name": "0baef42072554147e43ebf8c3379d4e3", "is_reserved": 0}, {"is_disabled": 0, "fusion_lon": 0.0, "fusion_lat": 0.0, "lat": 38.907735833333334, "type": "electric_scooter", "lon": -77.0269405, "bike_id": "b81c0ac271d3c8352d141b465a4296a0", "rental_uris": {"android": "https://dc.lft.to/lastmile_qr_scan", "ios": "https://dc.lft.to/lastmile_qr_scan"}, "name": "b81c0ac271d3c8352d141b465a4296a0", "is_reserved": 0}, {"is_disabled": 0, "fusion_lon": 0.0, "fusion_lat": 0.0, "lat": 38.8935845, "type": "electric_scooter", "lon": -77.03957616666666, "bike_id": "ee1eb4f6b0e600f38de98b409f565f25", "rental_uris": {"android": "https://dc.lft.to/lastmile_qr_scan", "ios": "https://dc.lft.to/lastmile_qr_scan"}, "name": "ee1eb4f6b0e600f38de98b409f565f25", "is_reserved": 0}, {"is_disabled": 0, "fusion_lon": 0.0, "fusion_lat": 0.0, "lat": 38.9056455, "type": "electric_scooter", "lon": -77.043603, "bike_id": "91f65b43f4178d5cff0055d9e7a587c9", "rental_uris": {"android": "https://dc.lft.to/lastmile_qr_scan", "ios": "https://dc.lft.to/lastmile_qr_scan"}, "name": "91f65b43f4178d5cff0055d9e7a587c9", "is_reserved": 0}, {"is_disabled": 0, "fusion_lon": 0.0, "fusion_lat": 0.0, "lat": 38.927341, "type": "electric_scooter", "lon": -77.03477183333334, "bike_id": "9db8c4af3ff35a2585dac00c2ef31fcc", "rental_uris": {"android": "https://dc.lft.to/lastmile_qr_scan", "ios": "https://dc.lft.to/lastmile_qr_scan"}, "name": "9db8c4af3ff35a2585dac00c2ef31fcc", "is_reserved": 0}, {"is_disabled": 0, "fusion_lon": 0.0, "fusion_lat": 0.0, "lat": 38.910616, "type": "electric_scooter", "lon": -77.05223883333333, "bike_id": "26d001b3d5270bb9a83e19ca859bf0fe", "rental_uris": {"android": "https://dc.lft.to/lastmile_qr_scan", "ios": "https://dc.lft.to/lastmile_qr_scan"}, "name": "26d001b3d5270bb9a83e19ca859bf0fe", "is_reserved": 0}, {"is_disabled": 0, "fusion_lon": 0.0, "fusion_lat": 0.0, "lat": 38.89220783333333, "type": "electric_scooter", "lon": -77.02261283333333, "bike_id": "7bda2d72b0eb2abd8f81fff4f3374ce9", "rental_uris": {"android": "https://dc.lft.to/lastmile_qr_scan", "ios": "https://dc.lft.to/lastmile_qr_scan"}, "name": "7bda2d72b0eb2abd8f81fff4f3374ce9", "is_reserved": 0}, {"is_disabled": 0, "fusion_lon": 0.0, "fusion_lat": 0.0, "lat": 38.911367, "type": "electric_scooter", "lon": -77.0218725, "bike_id": "b83a21dbd5ad1b5f84a6f4bdbc1c9257", "rental_uris": {"android": "https://dc.lft.to/lastmile_qr_scan", "ios": "https://dc.lft.to/lastmile_qr_scan"}, "name": "b83a21dbd5ad1b5f84a6f4bdbc1c9257", "is_reserved": 0}, {"is_disabled": 0, "fusion_lon": 0.0, "fusion_lat": 0.0, "lat": 38.87895833333333, "type": "electric_scooter", "lon": -76.9352455, "bike_id": "cddd4d2fc251b859a7f29d196434df78", "rental_uris": {"android": "https://dc.lft.to/lastmile_qr_scan", "ios": "https://dc.lft.to/lastmile_qr_scan"}, "name": "cddd4d2fc251b859a7f29d196434df78", "is_reserved": 0}, {"is_disabled": 0, "fusion_lon": 0.0, "fusion_lat": 0.0, "lat": 38.97403166666667, "type": "electric_bike", "lon": -77.02497116666666, "bike_id": "d61f5416e8b9c5da00aa8b2e036e2929", "rental_uris": {"android": "https://dc.lft.to/lastmile_qr_scan", "ios": "https://dc.lft.to/lastmile_qr_scan"}, "name": "d61f5416e8b9c5da00aa8b2e036e2929", "is_reserved": 0}, {"is_disabled": 0, "fusion_lon": 0.0, "fusion_lat": 0.0, "lat": 38.910136666666666, "type": "electric_scooter", "lon": -77.03178483333333, "bike_id": "20680fbc6a39f7d54a64a67f45cda095", "rental_uris": {"android": "https://dc.lft.to/lastmile_qr_scan", "ios": "https://dc.lft.to/lastmile_qr_scan"}, "name": "20680fbc6a39f7d54a64a67f45cda095", "is_reserved": 0}, {"is_disabled": 0, "fusion_lon": 0.0, "fusion_lat": 0.0, "lat": 38.9002865, "type": "electric_scooter", "lon": -77.00200816666667, "bike_id": "c55f56edb4c56efc1caf672773ccdb23", "rental_uris": {"android": "https://dc.lft.to/lastmile_qr_scan", "ios": "https://dc.lft.to/lastmile_qr_scan"}, "name": "c55f56edb4c56efc1caf672773ccdb23", "is_reserved": 0}, {"is_disabled": 0, "fusion_lon": 0.0, "fusion_lat": 0.0, "lat": 38.9006145, "type": "electric_scooter", "lon": -76.93384533333334, "bike_id": "ecae6ae3af1f70f31a3ea6469c1076db", "rental_uris": {"android": "https://dc.lft.to/lastmile_qr_scan", "ios": "https://dc.lft.to/lastmile_qr_scan"}, "name": "ecae6ae3af1f70f31a3ea6469c1076db", "is_reserved": 0}, {"is_disabled": 0, "fusion_lon": 0.0, "fusion_lat": 0.0, "lat": 38.91923216666667, "type": "electric_scooter", "lon": -77.0342005, "bike_id": "69709fb99b40b6d483e38d980902015c", "rental_uris": {"android": "https://dc.lft.to/lastmile_qr_scan", "ios": "https://dc.lft.to/lastmile_qr_scan"}, "name": "69709fb99b40b6d483e38d980902015c", "is_reserved": 0}, {"is_disabled": 0, "fusion_lon": 0.0, "fusion_lat": 0.0, "lat": 38.915753, "type": "electric_scooter", "lon": -77.04676033333334, "bike_id": "1dca7a245e36691cbefde4a676833947", "rental_uris": {"android": "https://dc.lft.to/lastmile_qr_scan", "ios": "https://dc.lft.to/lastmile_qr_scan"}, "name": "1dca7a245e36691cbefde4a676833947", "is_reserved": 0}, {"is_disabled": 0, "fusion_lon": 0.0, "fusion_lat": 0.0, "lat": 38.9062155, "type": "electric_scooter", "lon": -77.03883983333333, "bike_id": "8dcf17c0009fe6684db360b320fb6c8a", "rental_uris": {"android": "https://dc.lft.to/lastmile_qr_scan", "ios": "https://dc.lft.to/lastmile_qr_scan"}, "name": "8dcf17c0009fe6684db360b320fb6c8a", "is_reserved": 0}, {"is_disabled": 0, "fusion_lon": 0.0, "fusion_lat": 0.0, "lat": 38.919525166666666, "type": "electric_scooter", "lon": -77.041675, "bike_id": "415955e4c11734b56daae1162ea7df2e", "rental_uris": {"android": "https://dc.lft.to/lastmile_qr_scan", "ios": "https://dc.lft.to/lastmile_qr_scan"}, "name": "415955e4c11734b56daae1162ea7df2e", "is_reserved": 0}, {"is_disabled": 0, "fusion_lon": 0.0, "fusion_lat": 0.0, "lat": 38.924367833333335, "type": "electric_bike", "lon": -76.90756716666667, "bike_id": "502fd7c5fd0b43fbb23ae130d07e44f4", "rental_uris": {"android": "https://dc.lft.to/lastmile_qr_scan", "ios": "https://dc.lft.to/lastmile_qr_scan"}, "name": "502fd7c5fd0b43fbb23ae130d07e44f4", "is_reserved": 0}, {"is_disabled": 0, "fusion_lon": 0.0, "fusion_lat": 0.0, "lat": 38.907045833333335, "type": "electric_scooter", "lon": -77.0432595, "bike_id": "29b1e15c6ed874dc5090bb8ecdea0637", "rental_uris": {"android": "https://dc.lft.to/lastmile_qr_scan", "ios": "https://dc.lft.to/lastmile_qr_scan"}, "name": "29b1e15c6ed874dc5090bb8ecdea0637", "is_reserved": 0}, {"is_disabled": 0, "fusion_lon": 0.0, "fusion_lat": 0.0, "lat": 38.89838, "type": "electric_scooter", "lon": -77.02181166666666, "bike_id": "d34581b79d47468e87a93f1d1938f8cf", "rental_uris": {"android": "https://dc.lft.to/lastmile_qr_scan", "ios": "https://dc.lft.to/lastmile_qr_scan"}, "name": "d34581b79d47468e87a93f1d1938f8cf", "is_reserved": 0}, {"is_disabled": 0, "fusion_lon": 0.0, "fusion_lat": 0.0, "lat": 38.9560905, "type": "electric_scooter", "lon": -77.02758066666667, "bike_id": "dd6a0a5ea09b301b83755136991816bb", "rental_uris": {"android": "https://dc.lft.to/lastmile_qr_scan", "ios": "https://dc.lft.to/lastmile_qr_scan"}, "name": "dd6a0a5ea09b301b83755136991816bb", "is_reserved": 0}, {"is_disabled": 0, "fusion_lon": 0.0, "fusion_lat": 0.0, "lat": 38.915405, "type": "electric_scooter", "lon": -77.032024, "bike_id": "14b92eb32a9513d93a5bba433c4c9d49", "rental_uris": {"android": "https://dc.lft.to/lastmile_qr_scan", "ios": "https://dc.lft.to/lastmile_qr_scan"}, "name": "14b92eb32a9513d93a5bba433c4c9d49", "is_reserved": 0}, {"is_disabled": 0, "fusion_lon": 0.0, "fusion_lat": 0.0, "lat": 38.895448333333334, "type": "electric_scooter", "lon": -77.02416583333333, "bike_id": "c65d63f37d0a59b8a5565ac886049433", "rental_uris": {"android": "https://dc.lft.to/lastmile_qr_scan", "ios": "https://dc.lft.to/lastmile_qr_scan"}, "name": "c65d63f37d0a59b8a5565ac886049433", "is_reserved": 0}, {"is_disabled": 0, "fusion_lon": 0.0, "fusion_lat": 0.0, "lat": 38.9170525, "type": "electric_scooter", "lon": -77.02621716666667, "bike_id": "546ad30046809bc6dd2208ca0674bfa2", "rental_uris": {"android": "https://dc.lft.to/lastmile_qr_scan", "ios": "https://dc.lft.to/lastmile_qr_scan"}, "name": "546ad30046809bc6dd2208ca0674bfa2", "is_reserved": 0}, {"is_disabled": 0, "fusion_lon": 0.0, "fusion_lat": 0.0, "lat": 38.90700866666667, "type": "electric_scooter", "lon": -77.0630705, "bike_id": "213cac46ab6177c80e1f9109f0bb04f6", "rental_uris": {"android": "https://dc.lft.to/lastmile_qr_scan", "ios": "https://dc.lft.to/lastmile_qr_scan"}, "name": "213cac46ab6177c80e1f9109f0bb04f6", "is_reserved": 0}, {"is_disabled": 0, "fusion_lon": 0.0, "fusion_lat": 0.0, "lat": 38.914412166666665, "type": "electric_scooter", "lon": -77.008835, "bike_id": "3e58e39119b2846df3f9805e3630bf45", "rental_uris": {"android": "https://dc.lft.to/lastmile_qr_scan", "ios": "https://dc.lft.to/lastmile_qr_scan"}, "name": "3e58e39119b2846df3f9805e3630bf45", "is_reserved": 0}, {"is_disabled": 0, "fusion_lon": 0.0, "fusion_lat": 0.0, "lat": 38.921618333333335, "type": "electric_scooter", "lon": -76.99403516666666, "bike_id": "60a671c984cd3d146611e43c1b5c13fa", "rental_uris": {"android": "https://dc.lft.to/lastmile_qr_scan", "ios": "https://dc.lft.to/lastmile_qr_scan"}, "name": "60a671c984cd3d146611e43c1b5c13fa", "is_reserved": 0}, {"is_disabled": 0, "fusion_lon": 0.0, "fusion_lat": 0.0, "lat": 38.91221383333333, "type": "electric_scooter", "lon": -77.03193733333333, "bike_id": "660b3144529bb067c59d1749a740fbeb", "rental_uris": {"android": "https://dc.lft.to/lastmile_qr_scan", "ios": "https://dc.lft.to/lastmile_qr_scan"}, "name": "660b3144529bb067c59d1749a740fbeb", "is_reserved": 0}, {"is_disabled": 0, "fusion_lon": 0.0, "fusion_lat": 0.0, "lat": 38.898359166666665, "type": "electric_scooter", "lon": -77.02976133333334, "bike_id": "3228a6facaaf16ba5c04627b8786fe2b", "rental_uris": {"android": "https://dc.lft.to/lastmile_qr_scan", "ios": "https://dc.lft.to/lastmile_qr_scan"}, "name": "3228a6facaaf16ba5c04627b8786fe2b", "is_reserved": 0}, {"is_disabled": 0, "fusion_lon": 0.0, "fusion_lat": 0.0, "lat": 38.905379833333335, "type": "electric_scooter", "lon": -77.044533, "bike_id": "e64d2879eaa84ca6bd38892a832fd615", "rental_uris": {"android": "https://dc.lft.to/lastmile_qr_scan", "ios": "https://dc.lft.to/lastmile_qr_scan"}, "name": "e64d2879eaa84ca6bd38892a832fd615", "is_reserved": 0}, {"is_disabled": 0, "fusion_lon": 0.0, "fusion_lat": 0.0, "lat": 38.94556466666667, "type": "electric_bike", "lon": -77.0511195, "bike_id": "789bc5d091e3bfcdb051e9d493601763", "rental_uris": {"android": "https://dc.lft.to/lastmile_qr_scan", "ios": "https://dc.lft.to/lastmile_qr_scan"}, "name": "789bc5d091e3bfcdb051e9d493601763", "is_reserved": 0}, {"is_disabled": 0, "fusion_lon": 0.0, "fusion_lat": 0.0, "lat": 38.9002725, "type": "electric_scooter", "lon": -77.04389133333333, "bike_id": "91209cfddee7c87514436936ee57ee0e", "rental_uris": {"android": "https://dc.lft.to/lastmile_qr_scan", "ios": "https://dc.lft.to/lastmile_qr_scan"}, "name": "91209cfddee7c87514436936ee57ee0e", "is_reserved": 0}, {"is_disabled": 0, "fusion_lon": 0.0, "fusion_lat": 0.0, "lat": 38.934267166666665, "type": "electric_scooter", "lon": -77.05837133333333, "bike_id": "efee4f521515dcf7fe586aaf599d4bf6", "rental_uris": {"android": "https://dc.lft.to/lastmile_qr_scan", "ios": "https://dc.lft.to/lastmile_qr_scan"}, "name": "efee4f521515dcf7fe586aaf599d4bf6", "is_reserved": 0}, {"is_disabled": 0, "fusion_lon": 0.0, "fusion_lat": 0.0, "lat": 38.9281115, "type": "electric_scooter", "lon": -77.02347666666667, "bike_id": "b9871c2cc37405495c1813a83da8253b", "rental_uris": {"android": "https://dc.lft.to/lastmile_qr_scan", "ios": "https://dc.lft.to/lastmile_qr_scan"}, "name": "b9871c2cc37405495c1813a83da8253b", "is_reserved": 0}, {"is_disabled": 0, "fusion_lon": 0.0, "fusion_lat": 0.0, "lat": 38.944709, "type": "electric_bike", "lon": -77.006452, "bike_id": "f07001f8159a0afb96121205414d135c", "rental_uris": {"android": "https://dc.lft.to/lastmile_qr_scan", "ios": "https://dc.lft.to/lastmile_qr_scan"}, "name": "f07001f8159a0afb96121205414d135c", "is_reserved": 0}, {"is_disabled": 0, "fusion_lon": 0.0, "fusion_lat": 0.0, "lat": 38.90642883333334, "type": "electric_scooter", "lon": -77.03459766666667, "bike_id": "0f25d9adcef340f8655e8b16115411be", "rental_uris": {"android": "https://dc.lft.to/lastmile_qr_scan", "ios": "https://dc.lft.to/lastmile_qr_scan"}, "name": "0f25d9adcef340f8655e8b16115411be", "is_reserved": 0}, {"is_disabled": 0, "fusion_lon": 0.0, "fusion_lat": 0.0, "lat": 38.886793833333336, "type": "electric_scooter", "lon": -76.95473266666667, "bike_id": "c6aad1fe48e756e896f21eb9a5674ba6", "rental_uris": {"android": "https://dc.lft.to/lastmile_qr_scan", "ios": "https://dc.lft.to/lastmile_qr_scan"}, "name": "c6aad1fe48e756e896f21eb9a5674ba6", "is_reserved": 0}, {"is_disabled": 0, "fusion_lon": 0.0, "fusion_lat": 0.0, "lat": 38.924951666666665, "type": "electric_scooter", "lon": -77.03929816666667, "bike_id": "46517d8c9c203a91645c1ca1554254a3", "rental_uris": {"android": "https://dc.lft.to/lastmile_qr_scan", "ios": "https://dc.lft.to/lastmile_qr_scan"}, "name": "46517d8c9c203a91645c1ca1554254a3", "is_reserved": 0}, {"is_disabled": 0, "fusion_lon": 0.0, "fusion_lat": 0.0, "lat": 38.956284833333335, "type": "electric_scooter", "lon": -77.0297785, "bike_id": "0fea632473c45ba34a022a7eaf254d3e", "rental_uris": {"android": "https://dc.lft.to/lastmile_qr_scan", "ios": "https://dc.lft.to/lastmile_qr_scan"}, "name": "0fea632473c45ba34a022a7eaf254d3e", "is_reserved": 0}, {"is_disabled": 0, "fusion_lon": 0.0, "fusion_lat": 0.0, "lat": 38.905875, "type": "electric_scooter", "lon": -77.023847, "bike_id": "e7c1b00ad3cde678ef5ca0465311749c", "rental_uris": {"android": "https://dc.lft.to/lastmile_qr_scan", "ios": "https://dc.lft.to/lastmile_qr_scan"}, "name": "e7c1b00ad3cde678ef5ca0465311749c", "is_reserved": 0},