{"data": {"bikes": [{"lon": -77.05734366666667, "bike_id": "714b87d536abb2a866f28d5fecbddea4", "lat": 38.93368516666666, "fusion_lon": 0.0, "fusion_lat": 0.0, "type": "electric_scooter", "name": "714b87d536abb2a866f28d5fecbddea4", "is_disabled": 0, "rental_uris": {"ios": "https://dc.lft.to/lastmile_qr_scan", "android": "https://dc.lft.to/lastmile_qr_scan"}, "is_reserved": 0}, {"lon": -77.0247, "bike_id": "ddaf482a9832b7fbe57977b191f2ec39", "lat": 38.918212, "fusion_lon": 0.0, "fusion_lat": 0.0, "type": "electric_scooter", "name": "ddaf482a9832b7fbe57977b191f2ec39", "is_disabled": 0, "rental_uris": {"ios": "https://dc.lft.to/lastmile_qr_scan", "android": "https://dc.lft.to/lastmile_qr_scan"}, "is_reserved": 0}, {"lon": -77.00055416666666, "bike_id": "2128eb5c5e6a4d871f0c0052bd696e1c", "lat": 38.89495766666667, "fusion_lon": 0.0, "fusion_lat": 0.0, "type": "electric_scooter", "name": "2128eb5c5e6a4d871f0c0052bd696e1c", "is_disabled": 0, "rental_uris": {"ios": "https://dc.lft.to/lastmile_qr_scan", "android": "https://dc.lft.to/lastmile_qr_scan"}, "is_reserved": 0}, {"lon": -77.04159716666666, "bike_id": "c010d86a511e29dad2baa02ea0e19d41", "lat": 38.914171, "fusion_lon": 0.0, "fusion_lat": 0.0, "type": "electric_scooter", "name": "c010d86a511e29dad2baa02ea0e19d41", "is_disabled": 0, "rental_uris": {"ios": "https://dc.lft.to/lastmile_qr_scan", "android": "https://dc.lft.to/lastmile_qr_scan"}, "is_reserved": 0}, {"lon": -77.11156483333333, "bike_id": "b6a1922d6d2ccce30c244b4dfdc6d0f3", "lat": 38.855240333333334, "fusion_lon": 0.0, "fusion_lat": 0.0, "type": "electric_bike", "name": "b6a1922d6d2ccce30c244b4dfdc6d0f3", "is_disabled": 0, "rental_uris": {"ios": "https://dc.lft.to/lastmile_qr_scan", "android": "https://dc.lft.to/lastmile_qr_scan"}, "is_reserved": 0}, {"lon": -77.0569755, "bike_id": "75088a68835703583ba61ee0f95fcbea", "lat": 38.93715916666667, "fusion_lon": 0.0, "fusion_lat": 0.0, "type": "electric_scooter", "name": "75088a68835703583ba61ee0f95fcbea", "is_disabled": 0, "rental_uris": {"ios": "https://dc.lft.to/lastmile_qr_scan", "android": "https://dc.lft.to/lastmile_qr_scan"}, "is_reserved": 0}, {"lon": -77.1048285, "bike_id": "c150a9b7d48606a82ed5cf31bf015feb", "lat": 38.856047833333335, "fusion_lon": 0.0, "fusion_lat": 0.0, "type": "electric_bike", "name": "c150a9b7d48606a82ed5cf31bf015feb", "is_disabled": 0, "rental_uris": {"ios": "https://dc.lft.to/lastmile_qr_scan", "android": "https://dc.lft.to/lastmile_qr_scan"}, "is_reserved": 0}, {"lon": -77.027759, "bike_id": "4904fa138d0511557f34bde53a86cf43", "lat": 38.89220233333333, "fusion_lon": 0.0, "fusion_lat": 0.0, "type": "electric_scooter", "name": "4904fa138d0511557f34bde53a86cf43", "is_disabled": 0, "rental_uris": {"ios": "https://dc.lft.to/lastmile_qr_scan", "android": "https://dc.lft.to/lastmile_qr_scan"}, "is_reserved": 0}, {"lon": -77.02773583333334, "bike_id": "8494fe0d34ad332e4fa1d89520a13e42", "lat": 38.8921835, "fusion_lon": 0.0, "fusion_lat": 0.0, "type": "electric_scooter", "name": "8494fe0d34ad332e4fa1d89520a13e42", "is_disabled": 0, "rental_uris": {"ios": "https://dc.lft.to/lastmile_qr_scan", "android": "https://dc.lft.to/lastmile_qr_scan"}, "is_reserved": 0}, {"lon": -76.98226916666667, "bike_id": "8d2a35c4e8940259965cbb4a3c938fd2", "lat": 38.886475, "fusion_lon": 0.0, "fusion_lat": 0.0, "type": "electric_scooter", "name": "8d2a35c4e8940259965cbb4a3c938fd2", "is_disabled": 0, "rental_uris": {"ios": "https://dc.lft.to/lastmile_qr_scan", "android": "https://dc.lft.to/lastmile_qr_scan"}, "is_reserved": 0}, {"lon": -77.02146183333333, "bike_id": "7ee6473e99a775da47a4c6993f693482", "lat": 38.903734166666666, "fusion_lon": 0.0, "fusion_lat": 0.0, "type": "electric_scooter", "name": "7ee6473e99a775da47a4c6993f693482", "is_disabled": 0, "rental_uris": {"ios": "https://dc.lft.to/lastmile_qr_scan", "android": "https://dc.lft.to/lastmile_qr_scan"}, "is_reserved": 0}, {"lon": -77.04336, "bike_id": "0aed6f33c9e6481443ad2224441d008c", "lat": 38.92220983333333, "fusion_lon": 0.0, "fusion_lat": 0.0, "type": "electric_scooter", "name": "0aed6f33c9e6481443ad2224441d008c", "is_disabled": 0, "rental_uris": {"ios": "https://dc.lft.to/lastmile_qr_scan", "android": "https://dc.lft.to/lastmile_qr_scan"}, "is_reserved": 0}, {"lon": -77.04283283333334, "bike_id": "d234f073886f624645f03acdae6c0588", "lat": 38.90732766666667, "fusion_lon": 0.0, "fusion_lat": 0.0, "type": "electric_scooter", "name": "d234f073886f624645f03acdae6c0588", "is_disabled": 0, "rental_uris": {"ios": "https://dc.lft.to/lastmile_qr_scan", "android": "https://dc.lft.to/lastmile_qr_scan"}, "is_reserved": 0}, {"lon": -77.039972, "bike_id": "f4736567ffda047e3d42bace594e690f", "lat": 38.914106833333335, "fusion_lon": 0.0, "fusion_lat": 0.0, "type": "electric_scooter", "name": "f4736567ffda047e3d42bace594e690f", "is_disabled": 0, "rental_uris": {"ios": "https://dc.lft.to/lastmile_qr_scan", "android": "https://dc.lft.to/lastmile_qr_scan"}, "is_reserved": 0}, {"lon": -77.01206083333334, "bike_id": "824df996bc21799149cffbdcf6cfbb7e", "lat": 38.9212285, "fusion_lon": 0.0, "fusion_lat": 0.0, "type": "electric_scooter", "name": "824df996bc21799149cffbdcf6cfbb7e", "is_disabled": 0, "rental_uris": {"ios": "https://dc.lft.to/lastmile_qr_scan", "android": "https://dc.lft.to/lastmile_qr_scan"}, "is_reserved": 0}, {"lon": -77.02314416666667, "bike_id": "c52e04ad91cc872f7cefc05b067068ab", "lat": 38.917037, "fusion_lon": 0.0, "fusion_lat": 0.0, "type": "electric_scooter", "name": "c52e04ad91cc872f7cefc05b067068ab", "is_disabled": 0, "rental_uris": {"ios": "https://dc.lft.to/lastmile_qr_scan", "android": "https://dc.lft.to/lastmile_qr_scan"}, "is_reserved": 0}, {"lon": -77.04181733333333, "bike_id": "53000717b0f323c66727d037f2184693", "lat": 38.892266, "fusion_lon": 0.0, "fusion_lat": 0.0, "type": "electric_scooter", "name": "53000717b0f323c66727d037f2184693", "is_disabled": 0, "rental_uris": {"ios": "https://dc.lft.to/lastmile_qr_scan", "android": "https://dc.lft.to/lastmile_qr_scan"}, "is_reserved": 0}, {"lon": -77.0515675, "bike_id": "9f1b11cdb3695cf8b39a6a1ff420c9dc", "lat": 39.04305633333333, "fusion_lon": 0.0, "fusion_lat": 0.0, "type": "electric_bike", "name": "9f1b11cdb3695cf8b39a6a1ff420c9dc", "is_disabled": 0, "rental_uris": {"ios": "https://dc.lft.to/lastmile_qr_scan", "android": "https://dc.lft.to/lastmile_qr_scan"}, "is_reserved": 0}, {"lon": -76.98223666666667, "bike_id": "f85e901fb9d7e7cf809f91f954fa525d", "lat": 38.86652616666667, "fusion_lon": 0.0, "fusion_lat": 0.0, "type": "electric_scooter", "name": "f85e901fb9d7e7cf809f91f954fa525d", "is_disabled": 0, "rental_uris": {"ios": "https://dc.lft.to/lastmile_qr_scan", "android": "https://dc.lft.to/lastmile_qr_scan"}, "is_reserved": 0}, {"lon": -77.043539, "bike_id": "abbca0677a83dea4151ba310f6acae93", "lat": 38.901331166666665, "fusion_lon": 0.0, "fusion_lat": 0.0, "type": "electric_scooter", "name": "abbca0677a83dea4151ba310f6acae93", "is_disabled": 0, "rental_uris": {"ios": "https://dc.lft.to/lastmile_qr_scan", "android": "https://dc.lft.to/lastmile_qr_scan"}, "is_reserved": 0}, {"lon": -77.03823716666666, "bike_id": "7d837caa2c8c9e3ef28c73e1ba8e225c", "lat": 38.91130916666667, "fusion_lon": 0.0, "fusion_lat": 0.0, "type": "electric_scooter", "name": "7d837caa2c8c9e3ef28c73e1ba8e225c", "is_disabled": 0, "rental_uris": {"ios": "https://dc.lft.to/lastmile_qr_scan", "android": "https://dc.lft.to/lastmile_qr_scan"}, "is_reserved": 0}, {"lon": -76.93000183333334, "bike_id": "65caaa577f27c68fc4b18221a9d39199", "lat": 38.891958, "fusion_lon": 0.0, "fusion_lat": 0.0, "type": "electric_scooter", "name": "65caaa577f27c68fc4b18221a9d39199", "is_disabled": 0, "rental_uris": {"ios": "https://dc.lft.to/lastmile_qr_scan", "android": "https://dc.lft.to/lastmile_qr_scan"}, "is_reserved": 0}, {"lon": -76.96086733333334, "bike_id": "ae745d4ffd59ac0244b0495db0f7c478", "lat": 38.91858083333333, "fusion_lon": 0.0, "fusion_lat": 0.0, "type": "electric_bike", "name": "ae745d4ffd59ac0244b0495db0f7c478", "is_disabled": 0, "rental_uris": {"ios": "https://dc.lft.to/lastmile_qr_scan", "android": "https://dc.lft.to/lastmile_qr_scan"}, "is_reserved": 0}, {"lon": -77.005809, "bike_id": "d611202757d52de784dca3c7fc890c2f", "lat": 38.835902, "fusion_lon": 0.0, "fusion_lat": 0.0, "type": "electric_scooter", "name": "d611202757d52de784dca3c7fc890c2f", "is_disabled": 0, "rental_uris": {"ios": "https://dc.lft.to/lastmile_qr_scan", "android": "https://dc.lft.to/lastmile_qr_scan"}, "is_reserved": 0}, {"lon": -77.01761466666666, "bike_id": "12fae113bae275b7175c138b0ccafd46", "lat": 38.88731383333333, "fusion_lon": 0.0, "fusion_lat": 0.0, "type": "electric_scooter", "name": "12fae113bae275b7175c138b0ccafd46", "is_disabled": 0, "rental_uris": {"ios": "https://dc.lft.to/lastmile_qr_scan", "android": "https://dc.lft.to/lastmile_qr_scan"}, "is_reserved": 0}, {"lon": -77.00904066666666, "bike_id": "833b2c3c44fda2f8ea710879c02067af", "lat": 38.8980965, "fusion_lon": 0.0, "fusion_lat": 0.0, "type": "electric_scooter", "name": "833b2c3c44fda2f8ea710879c02067af", "is_disabled": 0, "rental_uris": {"ios": "https://dc.lft.to/lastmile_qr_scan", "android": "https://dc.lft.to/lastmile_qr_scan"}, "is_reserved": 0}, {"lon": -77.033803, "bike_id": "d343565c8e3b42370f7d6ba0f13bc27e", "lat": 38.921547833333335, "fusion_lon": 0.0, "fusion_lat": 0.0, "type": "electric_scooter", "name": "d343565c8e3b42370f7d6ba0f13bc27e", "is_disabled": 0, "rental_uris": {"ios": "https://dc.lft.to/lastmile_qr_scan", "android": "https://dc.lft.to/lastmile_qr_scan"}, "is_reserved": 0}, {"lon": -77.01812766666667, "bike_id": "c37ce0b6a652e010cb1626f0a81d6411", "lat": 38.9222485, "fusion_lon": 0.0, "fusion_lat": 0.0, "type": "electric_scooter", "name": "c37ce0b6a652e010cb1626f0a81d6411", "is_disabled": 0, "rental_uris": {"ios": "https://dc.lft.to/lastmile_qr_scan", "android": "https://dc.lft.to/lastmile_qr_scan"}, "is_reserved": 0}, {"lon": -77.02391316666667, "bike_id": "b5295d89c7a5a819d9e8968c439026de", "lat": 38.937669, "fusion_lon": 0.0, "fusion_lat": 0.0, "type": "electric_bike", "name": "b5295d89c7a5a819d9e8968c439026de", "is_disabled": 0, "rental_uris": {"ios": "https://dc.lft.to/lastmile_qr_scan", "android": "https://dc.lft.to/lastmile_qr_scan"}, "is_reserved": 0}, {"lon": -77.03440883333333, "bike_id": "8665e4ef2f39ff7d6b5e51a37e24a23d", "lat": 38.90950933333333, "fusion_lon": 0.0, "fusion_lat": 0.0, "type": "electric_scooter", "name": "8665e4ef2f39ff7d6b5e51a37e24a23d", "is_disabled": 0, "rental_uris": {"ios": "https://dc.lft.to/lastmile_qr_scan", "android": "https://dc.lft.to/lastmile_qr_scan"}, "is_reserved": 0}, {"lon": -76.99379816666666, "bike_id": "dffaa4a6ab1b0f07e5becefbb46ee3f5", "lat": 38.971842, "fusion_lon": 0.0, "fusion_lat": 0.0, "type": "electric_bike", "name": "dffaa4a6ab1b0f07e5becefbb46ee3f5", "is_disabled": 0, "rental_uris": {"ios": "https://dc.lft.to/lastmile_qr_scan", "android": "https://dc.lft.to/lastmile_qr_scan"}, "is_reserved": 0}, {"lon": -77.07222633333333, "bike_id": "27ccb7f0e0c6d3905354f9e27d7735af", "lat": 38.9681675, "fusion_lon": 0.0, "fusion_lat": 0.0, "type": "electric_bike", "name": "27ccb7f0e0c6d3905354f9e27d7735af", "is_disabled": 0, "rental_uris": {"ios": "https://dc.lft.to/lastmile_qr_scan", "android": "https://dc.lft.to/lastmile_qr_scan"}, "is_reserved": 0}, {"lon": -77.01306483333333, "bike_id": "87b3277b10a6f785a3d05c494b8f4a3d", "lat": 38.94332383333333, "fusion_lon": 0.0, "fusion_lat": 0.0, "type": "electric_scooter", "name": "87b3277b10a6f785a3d05c494b8f4a3d", "is_disabled": 0, "rental_uris": {"ios": "https://dc.lft.to/lastmile_qr_scan", "android": "https://dc.lft.to/lastmile_qr_scan"}, "is_reserved": 0}, {"lon": -77.0486825, "bike_id": "1a2bead2149949fe0511a453b02fae5b", "lat": 38.8923065, "fusion_lon": 0.0, "fusion_lat": 0.0, "type": "electric_scooter", "name": "1a2bead2149949fe0511a453b02fae5b", "is_disabled": 0, "rental_uris": {"ios": "https://dc.lft.to/lastmile_qr_scan", "android": "https://dc.lft.to/lastmile_qr_scan"}, "is_reserved": 0}, {"lon": -77.02024916666667, "bike_id": "c3278c1233ecb10e5f096d294c205d5c", "lat": 38.91558, "fusion_lon": 0.0, "fusion_lat": 0.0, "type": "electric_scooter", "name": "c3278c1233ecb10e5f096d294c205d5c", "is_disabled": 0, "rental_uris": {"ios": "https://dc.lft.to/lastmile_qr_scan", "android": "https://dc.lft.to/lastmile_qr_scan"}, "is_reserved": 0}, {"lon": -77.04189366666667, "bike_id": "f92d401bd4061d6b81fff513ee370194", "lat": 38.911444333333336, "fusion_lon": 0.0, "fusion_lat": 0.0, "type": "electric_scooter", "name": "f92d401bd4061d6b81fff513ee370194", "is_disabled": 0, "rental_uris": {"ios": "https://dc.lft.to/lastmile_qr_scan", "android": "https://dc.lft.to/lastmile_qr_scan"}, "is_reserved": 0}, {"lon": -77.036119, "bike_id": "4dd1917b1c69bc4b8d20dad38082e224", "lat": 38.93683133333333, "fusion_lon": 0.0, "fusion_lat": 0.0, "type": "electric_scooter", "name": "4dd1917b1c69bc4b8d20dad38082e224", "is_disabled": 0, "rental_uris": {"ios": "https://dc.lft.to/lastmile_qr_scan", "android": "https://dc.lft.to/lastmile_qr_scan"}, "is_reserved": 0}, {"lon": -77.0458045, "bike_id": "2e9133224bfbbbf11f1cabca7afd1a09", "lat": 38.921240833333336, "fusion_lon": 0.0, "fusion_lat": 0.0, "type": "electric_scooter", "name": "2e9133224bfbbbf11f1cabca7afd1a09", "is_disabled": 0, "rental_uris": {"ios": "https://dc.lft.to/lastmile_qr_scan", "android": "https://dc.lft.to/lastmile_qr_scan"}, "is_reserved": 0}, {"lon": -77.035554, "bike_id": "377eece371660b87773c79b594ab8895", "lat": 38.9247685, "fusion_lon": 0.0, "fusion_lat": 0.0, "type": "electric_scooter", "name": "377eece371660b87773c79b594ab8895", "is_disabled": 0, "rental_uris": {"ios": "https://dc.lft.to/lastmile_qr_scan", "android": "https://dc.lft.to/lastmile_qr_scan"}, "is_reserved": 0}, {"lon": -77.0553995, "bike_id": "04880791605437e8703154e4d75fe0ae", "lat": 38.93008733333333, "fusion_lon": 0.0, "fusion_lat": 0.0, "type": "electric_scooter", "name": "04880791605437e8703154e4d75fe0ae", "is_disabled": 0, "rental_uris": {"ios": "https://dc.lft.to/lastmile_qr_scan", "android": "https://dc.lft.to/lastmile_qr_scan"}, "is_reserved": 0}, {"lon": -77.0422935, "bike_id": "8eb2b38c0190465eb1b8748fb67735a3", "lat": 38.913496, "fusion_lon": 0.0, "fusion_lat": 0.0, "type": "electric_scooter", "name": "8eb2b38c0190465eb1b8748fb67735a3", "is_disabled": 0, "rental_uris": {"ios": "https://dc.lft.to/lastmile_qr_scan", "android": "https://dc.lft.to/lastmile_qr_scan"}, "is_reserved": 0}, {"lon": -77.050426, "bike_id": "d5b4b063594f0c0329d55ce52076a6f7", "lat": 38.92361783333333, "fusion_lon": 0.0, "fusion_lat": 0.0, "type": "electric_scooter", "name": "d5b4b063594f0c0329d55ce52076a6f7", "is_disabled": 0, "rental_uris": {"ios": "https://dc.lft.to/lastmile_qr_scan", "android": "https://dc.lft.to/lastmile_qr_scan"}, "is_reserved": 0}, {"lon": -77.04693816666666, "bike_id": "dff23cc58d93af8313a45134fe2f155c", "lat": 38.921374, "fusion_lon": 0.0, "fusion_lat": 0.0, "type": "electric_scooter", "name": "dff23cc58d93af8313a45134fe2f155c", "is_disabled": 0, "rental_uris": {"ios": "https://dc.lft.to/lastmile_qr_scan", "android": "https://dc.lft.to/lastmile_qr_scan"}, "is_reserved": 0}, {"lon": -77.037464, "bike_id": "480847252c9809d8decf6c05ce1a2ed2", "lat": 38.929185833333335, "fusion_lon": 0.0, "fusion_lat": 0.0, "type": "electric_scooter", "name": "480847252c9809d8decf6c05ce1a2ed2", "is_disabled": 0, "rental_uris": {"ios": "https://dc.lft.to/lastmile_qr_scan", "android": "https://dc.lft.to/lastmile_qr_scan"}, "is_reserved": 0}, {"lon": -77.03258683333334, "bike_id": "4c9059be4cad8c4520f571781aa9b428", "lat": 38.93206266666667, "fusion_lon": 0.0, "fusion_lat": 0.0, "type": "electric_scooter", "name": "4c9059be4cad8c4520f571781aa9b428", "is_disabled": 0, "rental_uris": {"ios": "https://dc.lft.to/lastmile_qr_scan", "android": "https://dc.lft.to/lastmile_qr_scan"}, "is_reserved": 0}, {"lon": -77.0216615, "bike_id": "1316bd7533b4104fd6dbeb9b1acb69e5", "lat": 38.929938666666665, "fusion_lon": 0.0, "fusion_lat": 0.0, "type": "electric_scooter", "name": "1316bd7533b4104fd6dbeb9b1acb69e5", "is_disabled": 0, "rental_uris": {"ios": "https://dc.lft.to/lastmile_qr_scan", "android": "https://dc.lft.to/lastmile_qr_scan"}, "is_reserved": 0}, {"lon": -77.02506733333334, "bike_id": "d8b8907cea039c1b3439985dff17afa3", "lat": 38.920537333333336, "fusion_lon": 0.0, "fusion_lat": 0.0, "type": "electric_scooter", "name": "d8b8907cea039c1b3439985dff17afa3", "is_disabled": 0, "rental_uris": {"ios": "https://dc.lft.to/lastmile_qr_scan", "android": "https://dc.lft.to/lastmile_qr_scan"}, "is_reserved": 0}, {"lon": -77.03261633333334, "bike_id": "fa3278ed9a43d241f78c31a650cceb16", "lat": 38.93775266666667, "fusion_lon": 0.0, "fusion_lat": 0.0, "type": "electric_scooter", "name": "fa3278ed9a43d241f78c31a650cceb16", "is_disabled": 0, "rental_uris": {"ios": "https://dc.lft.to/lastmile_qr_scan", "android": "https://dc.lft.to/lastmile_qr_scan"}, "is_reserved": 0}, {"lon": -77.03466733333333, "bike_id": "187d48e93ae371a0d3fb2e091f9ba006", "lat": 38.93446483333334, "fusion_lon": 0.0, "fusion_lat": 0.0, "type": "electric_scooter", "name": "187d48e93ae371a0d3fb2e091f9ba006", "is_disabled": 0, "rental_uris": {"ios": "https://dc.lft.to/lastmile_qr_scan", "android": "https://dc.lft.to/lastmile_qr_scan"}, "is_reserved": 0}, {"lon": -77.00376, "bike_id": "c9002be9c1c3387bb77a257109fa3f9a", "lat": 38.836028666666664, "fusion_lon": 0.0, "fusion_lat": 0.0, "type": "electric_bike", "name": "c9002be9c1c3387bb77a257109fa3f9a", "is_disabled": 0, "rental_uris": {"ios": "https://dc.lft.to/lastmile_qr_scan", "android": "https://dc.lft.to/lastmile_qr_scan"}, "is_reserved": 0}, {"lon": -77.027511, "bike_id": "1309c032a4f3bb230c3c42b0265c7bc2", "lat": 38.91699933333334, "fusion_lon": 0.0, "fusion_lat": 0.0, "type": "electric_scooter", "name": "1309c032a4f3bb230c3c42b0265c7bc2", "is_disabled": 0, "rental_uris": {"ios": "https://dc.lft.to/lastmile_qr_scan", "android": "https://dc.lft.to/lastmile_qr_scan"}, "is_reserved": 0}, {"lon": -77.0468625, "bike_id": "869ba89adba6c2be63a1a8bc47613835", "lat": 38.92176666666667, "fusion_lon": 0.0, "fusion_lat": 0.0, "type": "electric_scooter", "name": "869ba89adba6c2be63a1a8bc47613835", "is_disabled": 0, "rental_uris": {"ios": "https://dc.lft.to/lastmile_qr_scan", "android": "https://dc.lft.to/lastmile_qr_scan"}, "is_reserved": 0}, {"lon": -76.99291383333333, "bike_id": "e0c1b05cfb6abb5575c5986b7f0b4f70", "lat": 38.89888366666667, "fusion_lon": 0.0, "fusion_lat": 0.0, "type": "electric_scooter", "name": "e0c1b05cfb6abb5575c5986b7f0b4f70", "is_disabled": 0, "rental_uris": {"ios": "https://dc.lft.to/lastmile_qr_scan", "android": "https://dc.lft.to/lastmile_qr_scan"}, "is_reserved": 0}, {"lon": -77.046513, "bike_id": "f57bd1ff88e6f07e106aa528cb65ff13", "lat": 38.9141965, "fusion_lon": 0.0, "fusion_lat": 0.0, "type": "electric_scooter", "name": "f57bd1ff88e6f07e106aa528cb65ff13", "is_disabled": 0, "rental_uris": {"ios": "https://dc.lft.to/lastmile_qr_scan", "android": "https://dc.lft.to/lastmile_qr_scan"}, "is_reserved": 0}, {"lon": -77.04514183333333, "bike_id": "9ddc1981abdeafc9cb2472b4c3753016", "lat": 38.92319533333333, "fusion_lon": 0.0, "fusion_lat": 0.0, "type": "electric_scooter", "name": "9ddc1981abdeafc9cb2472b4c3753016", "is_disabled": 0, "rental_uris": {"ios": "https://dc.lft.to/lastmile_qr_scan", "android": "https://dc.lft.to/lastmile_qr_scan"}, "is_reserved": 0}, {"lon": -77.02665133333333, "bike_id": "64f3a92871b866e80d31063fcc471f70", "lat": 38.91699233333333, "fusion_lon": 0.0, "fusion_lat": 0.0, "type": "electric_scooter", "name": "64f3a92871b866e80d31063fcc471f70", "is_disabled": 0, "rental_uris": {"ios": "https://dc.lft.to/lastmile_qr_scan", "android": "https://dc.lft.to/lastmile_qr_scan"}, "is_reserved": 0}, {"lon": -77.04497666666667, "bike_id": "648826389f31f6c5aa9816e8123c4a9b", "lat": 38.907295833333336, "fusion_lon": 0.0, "fusion_lat": 0.0, "type": "electric_scooter", "name": "648826389f31f6c5aa9816e8123c4a9b", "is_disabled": 0, "rental_uris": {"ios": "https://dc.lft.to/lastmile_qr_scan", "android": "https://dc.lft.to/lastmile_qr_scan"}, "is_reserved": 0}, {"lon": -77.02840566666667, "bike_id": "126e22fab92be29bde4f20549d843c3d", "lat": 38.929626, "fusion_lon": 0.0, "fusion_lat": 0.0, "type": "electric_scooter", "name": "126e22fab92be29bde4f20549d843c3d", "is_disabled": 0, "rental_uris": {"ios": "https://dc.lft.to/lastmile_qr_scan", "android": "https://dc.lft.to/lastmile_qr_scan"}, "is_reserved": 0}, {"lon": -77.009819, "bike_id": "040a54c7f302285d7ab9d026cad86d60", "lat": 38.90369166666667, "fusion_lon": 0.0, "fusion_lat": 0.0, "type": "electric_scooter", "name": "040a54c7f302285d7ab9d026cad86d60", "is_disabled": 0, "rental_uris": {"ios": "https://dc.lft.to/lastmile_qr_scan", "android": "https://dc.lft.to/lastmile_qr_scan"}, "is_reserved": 0}, {"lon": -77.03573483333334, "bike_id": "e898907bd45f54f9979e9775a551544f", "lat": 38.917727166666666, "fusion_lon": 0.0, "fusion_lat": 0.0, "type": "electric_scooter", "name": "e898907bd45f54f9979e9775a551544f", "is_disabled": 0, "rental_uris": {"ios": "https://dc.lft.to/lastmile_qr_scan", "android": "https://dc.lft.to/lastmile_qr_scan"}, "is_reserved": 0}, {"lon": -77.03982266666667, "bike_id": "3f5181e6d1f2b17e0f6f32247fe4feac", "lat": 38.91629833333333, "fusion_lon": 0.0, "fusion_lat": 0.0, "type": "electric_scooter", "name": "3f5181e6d1f2b17e0f6f32247fe4feac", "is_disabled": 0, "rental_uris": {"ios": "https://dc.lft.to/lastmile_qr_scan", "android": "https://dc.lft.to/lastmile_qr_scan"}, "is_reserved": 0}, {"lon": -77.0485865, "bike_id": "76eb549f0ca0a0bff70fddf78c3a2037", "lat": 38.904733, "fusion_lon": 0.0, "fusion_lat": 0.0, "type": "electric_scooter", "name": "76eb549f0ca0a0bff70fddf78c3a2037", "is_disabled": 0, "rental_uris": {"ios": "https://dc.lft.to/lastmile_qr_scan", "android": "https://dc.lft.to/lastmile_qr_scan"}, "is_reserved": 0}, {"lon": -77.07727733333333, "bike_id": "e5e1adb0532fcca71377e9c0a22b7ec8", "lat": 38.9226405, "fusion_lon": 0.0, "fusion_lat": 0.0, "type": "electric_bike", "name": "e5e1adb0532fcca71377e9c0a22b7ec8", "is_disabled": 0, "rental_uris": {"ios": "https://dc.lft.to/lastmile_qr_scan", "android": "https://dc.lft.to/lastmile_qr_scan"}, "is_reserved": 0}, {"lon": -77.01052283333334, "bike_id": "9b0400067b550254f1708270e0b352e8", "lat": 38.963455, "fusion_lon": 0.0, "fusion_lat": 0.0, "type": "electric_scooter", "name": "9b0400067b550254f1708270e0b352e8", "is_disabled": 0, "rental_uris": {"ios": "https://dc.lft.to/lastmile_qr_scan", "android": "https://dc.lft.to/lastmile_qr_scan"}, "is_reserved": 0}, {"lon": -77.00422666666667, "bike_id": "7ae975bd34393d25208108ca1be4ffdf", "lat": 38.90596216666667, "fusion_lon": 0.0, "fusion_lat": 0.0, "type": "electric_scooter", "name": "7ae975bd34393d25208108ca1be4ffdf", "is_disabled": 0, "rental_uris": {"ios": "https://dc.lft.to/lastmile_qr_scan", "android": "https://dc.lft.to/lastmile_qr_scan"}, "is_reserved": 0}, {"lon": -77.0021025, "bike_id": "85e3e5e0d804db99be0298d6aca08433", "lat": 38.9003045, "fusion_lon": 0.0, "fusion_lat": 0.0, "type": "electric_scooter", "name": "85e3e5e0d804db99be0298d6aca08433", "is_disabled": 0, "rental_uris": {"ios": "https://dc.lft.to/lastmile_qr_scan", "android": "https://dc.lft.to/lastmile_qr_scan"}, "is_reserved": 0}, {"lon": -77.0504195, "bike_id": "4e4aa2398ffd323699b34ee09e34a551", "lat": 38.924072833333334, "fusion_lon": 0.0, "fusion_lat": 0.0, "type": "electric_bike", "name": "4e4aa2398ffd323699b34ee09e34a551", "is_disabled": 0, "rental_uris": {"ios": "https://dc.lft.to/lastmile_qr_scan", "android": "https://dc.lft.to/lastmile_qr_scan"}, "is_reserved": 0}, {"lon": -77.03173766666667, "bike_id": "58e7c1121fd986af2d17febc47c9a0d8", "lat": 38.90511266666667, "fusion_lon": 0.0, "fusion_lat": 0.0, "type": "electric_scooter", "name": "58e7c1121fd986af2d17febc47c9a0d8", "is_disabled": 0, "rental_uris": {"ios": "https://dc.lft.to/lastmile_qr_scan", "android": "https://dc.lft.to/lastmile_qr_scan"}, "is_reserved": 0}, {"lon": -77.06573166666666, "bike_id": "0537f5547ccc7eb876fff7dd7f9c3ba2", "lat": 38.91127683333333, "fusion_lon": 0.0, "fusion_lat": 0.0, "type": "electric_bike", "name": "0537f5547ccc7eb876fff7dd7f9c3ba2", "is_disabled": 0, "rental_uris": {"ios": "https://dc.lft.to/lastmile_qr_scan", "android": "https://dc.lft.to/lastmile_qr_scan"}, "is_reserved": 0}, {"lon": -77.10340816666667, "bike_id": "c88d44986a242030204f651b2da108af", "lat": 38.8855375, "fusion_lon": 0.0, "fusion_lat": 0.0, "type": "electric_bike", "name": "c88d44986a242030204f651b2da108af", "is_disabled": 0, "rental_uris": {"ios": "https://dc.lft.to/lastmile_qr_scan", "android": "https://dc.lft.to/lastmile_qr_scan"}, "is_reserved": 0}, {"lon": -77.00657, "bike_id": "d97c67592a1b8022ae33a288539cb7da", "lat": 38.94464816666667, "fusion_lon": 0.0, "fusion_lat": 0.0, "type": "electric_scooter", "name": "d97c67592a1b8022ae33a288539cb7da", "is_disabled": 0, "rental_uris": {"ios": "https://dc.lft.to/lastmile_qr_scan", "android": "https://dc.lft.to/lastmile_qr_scan"}, "is_reserved": 0}, {"lon": -76.9774845, "bike_id": "8dee0e44c68c9097db9881da3387f555", "lat": 38.86478566666667, "fusion_lon": 0.0, "fusion_lat": 0.0, "type": "electric_bike", "name": "8dee0e44c68c9097db9881da3387f555", "is_disabled": 0, "rental_uris": {"ios": "https://dc.lft.to/lastmile_qr_scan", "android": "https://dc.lft.to/lastmile_qr_scan"}, "is_reserved": 0}, {"lon": -76.9900025, "bike_id": "7b82f0af11142eb2c4598d49f4c4bdbf", "lat": 38.903938333333336, "fusion_lon": 0.0, "fusion_lat": 0.0, "type": "electric_scooter", "name": "7b82f0af11142eb2c4598d49f4c4bdbf", "is_disabled": 0, "rental_uris": {"ios": "https://dc.lft.to/lastmile_qr_scan", "android": "https://dc.lft.to/lastmile_qr_scan"}, "is_reserved": 0}, {"lon": -77.18562266666666, "bike_id": "599ed58e2eb30d3755a4c3156e2dba0e", "lat": 39.09976533333333, "fusion_lon": 0.0, "fusion_lat": 0.0, "type": "electric_bike", "name": "599ed58e2eb30d3755a4c3156e2dba0e", "is_disabled": 0, "rental_uris": {"ios": "https://dc.lft.to/lastmile_qr_scan", "android": "https://dc.lft.to/lastmile_qr_scan"}, "is_reserved": 0}, {"lon": -76.9626035, "bike_id": "b35e4482eb8323543b0e00f0b21e11b6", "lat": 38.88245766666667, "fusion_lon": 0.0, "fusion_lat": 0.0, "type": "electric_bike", "name": "b35e4482eb8323543b0e00f0b21e11b6", "is_disabled": 0, "rental_uris": {"ios": "https://dc.lft.to/lastmile_qr_scan", "android": "https://dc.lft.to/lastmile_qr_scan"}, "is_reserved": 0}, {"lon": -76.98348533333333, "bike_id": "7851cbbdac66d59a7594230ab5dd46f7", "lat": 38.89209133333333, "fusion_lon": 0.0, "fusion_lat": 0.0, "type": "electric_bike", "name": "7851cbbdac66d59a7594230ab5dd46f7", "is_disabled": 0, "rental_uris": {"ios": "https://dc.lft.to/lastmile_qr_scan", "android": "https://dc.lft.to/lastmile_qr_scan"}, "is_reserved": 0}, {"lon": -77.007138, "bike_id": "377fb124b8ea9cb88c7537a2ba31058f", "lat": 38.946031, "fusion_lon": 0.0, "fusion_lat": 0.0, "type": "electric_bike", "name": "377fb124b8ea9cb88c7537a2ba31058f", "is_disabled": 0, "rental_uris": {"ios": "https://dc.lft.to/lastmile_qr_scan", "android": "https://dc.lft.to/lastmile_qr_scan"}, "is_reserved": 0}, {"lon": -77.02341983333334, "bike_id": "e0d16b175931faf8e1c27473d02b4d81", "lat": 38.935350666666665, "fusion_lon": 0.0, "fusion_lat": 0.0, "type": "electric_scooter", "name": "e0d16b175931faf8e1c27473d02b4d81", "is_disabled": 0, "rental_uris": {"ios": "https://dc.lft.to/lastmile_qr_scan", "android": "https://dc.lft.to/lastmile_qr_scan"}, "is_reserved": 0}, {"lon": -77.031774, "bike_id": "fa47ac9c0430a6df6caa00a469719677", "lat": 38.936062166666666, "fusion_lon": 0.0, "fusion_lat": 0.0, "type": "electric_scooter", "name": "fa47ac9c0430a6df6caa00a469719677", "is_disabled": 0, "rental_uris": {"ios": "https://dc.lft.to/lastmile_qr_scan", "android": "https://dc.lft.to/lastmile_qr_scan"}, "is_reserved": 0}, {"lon": -77.0338985, "bike_id": "a776cfce48908fdc23845192bcce33fc", "lat": 38.92039316666666, "fusion_lon": 0.0, "fusion_lat": 0.0, "type": "electric_scooter", "name": "a776cfce48908fdc23845192bcce33fc", "is_disabled": 0, "rental_uris": {"ios": "https://dc.lft.to/lastmile_qr_scan", "android": "https://dc.lft.to/lastmile_qr_scan"}, "is_reserved": 0}, {"lon": -77.04132433333334, "bike_id": "b04c65ed4794c496cc9c123806153ff6", "lat": 38.927253666666665, "fusion_lon": 0.0, "fusion_lat": 0.0, "type": "electric_scooter", "name": "b04c65ed4794c496cc9c123806153ff6", "is_disabled": 0, "rental_uris": {"ios": "https://dc.lft.to/lastmile_qr_scan", "android": "https://dc.lft.to/lastmile_qr_scan"}, "is_reserved": 0}, {"lon": -77.0455435, "bike_id": "b41bad0a2842c5866a87423672f12d09", "lat": 38.915951166666666, "fusion_lon": 0.0, "fusion_lat": 0.0, "type": "electric_scooter", "name": "b41bad0a2842c5866a87423672f12d09", "is_disabled": 0, "rental_uris": {"ios": "https://dc.lft.to/lastmile_qr_scan", "android": "https://dc.lft.to/lastmile_qr_scan"}, "is_reserved": 0}, {"lon": -77.03384166666666, "bike_id": "f452388a11e4116a5d6fb7cd60e7eba9", "lat": 38.9216345, "fusion_lon": 0.0, "fusion_lat": 0.0, "type": "electric_scooter", "name": "f452388a11e4116a5d6fb7cd60e7eba9", "is_disabled": 0, "rental_uris": {"ios": "https://dc.lft.to/lastmile_qr_scan", "android": "https://dc.lft.to/lastmile_qr_scan"}, "is_reserved": 0}, {"lon": -77.02722583333333, "bike_id": "3e0a8cd8c4a13923a0345f48f14fccfa", "lat": 38.951320833333334, "fusion_lon": 0.0, "fusion_lat": 0.0, "type": "electric_scooter", "name": "3e0a8cd8c4a13923a0345f48f14fccfa", "is_disabled": 0, "rental_uris": {"ios": "https://dc.lft.to/lastmile_qr_scan", "android": "https://dc.lft.to/lastmile_qr_scan"}, "is_reserved": 0}, {"lon": -77.04784133333334, "bike_id": "2b18c282b009c86c78442d4edfb8564f", "lat": 38.829492333333334, "fusion_lon": 0.0, "fusion_lat": 0.0, "type": "electric_bike", "name": "2b18c282b009c86c78442d4edfb8564f", "is_disabled": 0, "rental_uris": {"ios": "https://dc.lft.to/lastmile_qr_scan", "android": "https://dc.lft.to/lastmile_qr_scan"}, "is_reserved": 0}, {"lon": -77.073797, "bike_id": "adbbfde2aedec812e9a1c3a7af0e1fea", "lat": 38.96216066666667, "fusion_lon": 0.0, "fusion_lat": 0.0, "type": "electric_scooter", "name": "adbbfde2aedec812e9a1c3a7af0e1fea", "is_disabled": 0, "rental_uris": {"ios": "https://dc.lft.to/lastmile_qr_scan", "android": "https://dc.lft.to/lastmile_qr_scan"}, "is_reserved": 0}, {"lon": -77.04170116666667, "bike_id": "03c7a1c54a94e5a222568b3bf423b047", "lat": 38.919818166666666, "fusion_lon": 0.0, "fusion_lat": 0.0, "type": "electric_scooter", "name": "03c7a1c54a94e5a222568b3bf423b047", "is_disabled": 0, "rental_uris": {"ios": "https://dc.lft.to/lastmile_qr_scan", "android": "https://dc.lft.to/lastmile_qr_scan"}, "is_reserved": 0}, {"lon": -77.02971033333333, "bike_id": "c2c5f19039b936d3e18b7efa9563180a", "lat": 38.92315966666666, "fusion_lon": 0.0, "fusion_lat": 0.0, "type": "electric_scooter", "name": "c2c5f19039b936d3e18b7efa9563180a", "is_disabled": 0, "rental_uris": {"ios": "https://dc.lft.to/lastmile_qr_scan", "android": "https://dc.lft.to/lastmile_qr_scan"}, "is_reserved": 0}, {"lon": -77.02548833333333, "bike_id": "f8b7492fc3ecfd69e580937a1db7b6ef", "lat": 38.909587, "fusion_lon": 0.0, "fusion_lat": 0.0, "type": "electric_scooter", "name": "f8b7492fc3ecfd69e580937a1db7b6ef", "is_disabled": 0, "rental_uris": {"ios": "https://dc.lft.to/lastmile_qr_scan", "android": "https://dc.lft.to/lastmile_qr_scan"}, "is_reserved": 0}, {"lon": -76.985245, "bike_id": "421bfea325f2ec8ca3c16285c86e9cbf", "lat": 38.86688483333333, "fusion_lon": 0.0, "fusion_lat": 0.0, "type": "electric_scooter", "name": "421bfea325f2ec8ca3c16285c86e9cbf", "is_disabled": 0, "rental_uris": {"ios": "https://dc.lft.to/lastmile_qr_scan", "android": "https://dc.lft.to/lastmile_qr_scan"}, "is_reserved": 0}, {"lon": -77.0433285, "bike_id": "474285c7cc84dcbd82f3dc6af6032b97", "lat": 38.9070355, "fusion_lon": 0.0, "fusion_lat": 0.0, "type": "electric_scooter", "name": "474285c7cc84dcbd82f3dc6af6032b97", "is_disabled": 0, "rental_uris": {"ios": "https://dc.lft.to/lastmile_qr_scan", "android": "https://dc.lft.to/lastmile_qr_scan"}, "is_reserved": 0}, {"lon": -77.11572583333333, "bike_id": "a6634789e172579ac9677cdda62bc560", "lat": 38.993459, "fusion_lon": 0.0, "fusion_lat": 0.0, "type": "electric_bike", "name": "a6634789e172579ac9677cdda62bc560", "is_disabled": 0, "rental_uris": {"ios": "https://dc.lft.to/lastmile_qr_scan", "android": "https://dc.lft.to/lastmile_qr_scan"}, "is_reserved": 0}, {"lon": -76.98591033333334, "bike_id": "00ba9c02411b7cab5b63fc2de0332ed9", "lat": 38.866874333333335, "fusion_lon": 0.0, "fusion_lat": 0.0, "type": "electric_scooter", "name": "00ba9c02411b7cab5b63fc2de0332ed9", "is_disabled": 0, "rental_uris": {"ios": "https://dc.lft.to/lastmile_qr_scan", "android": "https://dc.lft.to/lastmile_qr_scan"}, "is_reserved": 0}, {"lon": -77.03950716666667, "bike_id": "844655a605c5475ae4987d4633a36aa1", "lat": 38.91552166666666, "fusion_lon": 0.0, "fusion_lat": 0.0, "type": "electric_scooter", "name": "844655a605c5475ae4987d4633a36aa1", "is_disabled": 0, "rental_uris": {"ios": "https://dc.lft.to/lastmile_qr_scan", "android": "https://dc.lft.to/lastmile_qr_scan"}, "is_reserved": 0}, {"lon": -77.00952516666666, "bike_id": "18415643dd3e72a32da4569f9e063b22", "lat": 38.953411, "fusion_lon": 0.0, "fusion_lat": 0.0, "type": "electric_bike", "name": "18415643dd3e72a32da4569f9e063b22", "is_disabled": 0, "rental_uris": {"ios": "https://dc.lft.to/lastmile_qr_scan", "android": "https://dc.lft.to/lastmile_qr_scan"}, "is_reserved": 0}, {"lon": -77.05874583333333, "bike_id": "6aa5fdc1feac34ad555db3e43c6fa8aa", "lat": 38.93557933333334, "fusion_lon": 0.0, "fusion_lat": 0.0, "type": "electric_scooter", "name": "6aa5fdc1feac34ad555db3e43c6fa8aa", "is_disabled": 0, "rental_uris": {"ios": "https://dc.lft.to/lastmile_qr_scan", "android": "https://dc.lft.to/lastmile_qr_scan"}, "is_reserved": 0}, {"lon": -77.0531645, "bike_id": "b6ba883ffa26750568516978eb455e8f", "lat": 38.9410345, "fusion_lon": 0.0, "fusion_lat": 0.0, "type": "electric_bike", "name": "b6ba883ffa26750568516978eb455e8f", "is_disabled": 0, "rental_uris": {"ios": "https://dc.lft.to/lastmile_qr_scan", "android": "https://dc.lft.to/lastmile_qr_scan"}, "is_reserved": 0}, {"lon": -77.0413925, "bike_id": "e9627162f39e2dbb8ba57ac6d3b83e6f", "lat": 38.92296833333333, "fusion_lon": 0.0, "fusion_lat": 0.0, "type": "electric_scooter", "name": "e9627162f39e2dbb8ba57ac6d3b83e6f", "is_disabled": 0, "rental_uris": {"ios": "https://dc.lft.to/lastmile_qr_scan", "android": "https://dc.lft.to/lastmile_qr_scan"}, "is_reserved": 0}, {"lon": -77.02796366666666, "bike_id": "1c231743fec51ac74901e247283fb83a", "lat": 38.95424, "fusion_lon": 0.0, "fusion_lat": 0.0, "type": "electric_scooter", "name": "1c231743fec51ac74901e247283fb83a", "is_disabled": 0, "rental_uris": {"ios": "https://dc.lft.to/lastmile_qr_scan", "android": "https://dc.lft.to/lastmile_qr_scan"}, "is_reserved": 0}, {"lon": -76.96391483333333, "bike_id": "75e5a8929615cd2b5ec358b296bb2dd9", "lat": 38.951704666666664, "fusion_lon": 0.0, "fusion_lat": 0.0, "type": "electric_bike", "name": "75e5a8929615cd2b5ec358b296bb2dd9", "is_disabled": 0, "rental_uris": {"ios": "https://dc.lft.to/lastmile_qr_scan", "android": "https://dc.lft.to/lastmile_qr_scan"}, "is_reserved": 0}, {"lon": -77.03123933333333, "bike_id": "a815e70f6bb73620ed9b8853c80d4cea", "lat": 38.988318, "fusion_lon": 0.0, "fusion_lat": 0.0, "type": "electric_scooter", "name": "a815e70f6bb73620ed9b8853c80d4cea", "is_disabled": 0, "rental_uris": {"ios": "https://dc.lft.to/lastmile_qr_scan", "android": "https://dc.lft.to/lastmile_qr_scan"}, "is_reserved": 0}, {"lon": -77.22797833333334, "bike_id": "8e6d44f56dfd04e713cafc39bbd99ec2", "lat": 38.910218, "fusion_lon": 0.0, "fusion_lat": 0.0, "type": "electric_bike", "name": "8e6d44f56dfd04e713cafc39bbd99ec2", "is_disabled": 0, "rental_uris": {"ios": "https://dc.lft.to/lastmile_qr_scan", "android": "https://dc.lft.to/lastmile_qr_scan"}, "is_reserved": 0}, {"lon": -77.0321435, "bike_id": "3bd3c238bc615ce2829055e4a80cc372", "lat": 38.90986083333333, "fusion_lon": 0.0, "fusion_lat": 0.0, "type": "electric_scooter", "name": "3bd3c238bc615ce2829055e4a80cc372", "is_disabled": 0, "rental_uris": {"ios": "https://dc.lft.to/lastmile_qr_scan", "android": "https://dc.lft.to/lastmile_qr_scan"}, "is_reserved": 0}, {"lon": -77.0208985, "bike_id": "d0587dedcf0af038bd14ec8cc6d5376e", "lat": 38.92914233333333, "fusion_lon": 0.0, "fusion_lat": 0.0, "type": "electric_scooter", "name": "d0587dedcf0af038bd14ec8cc6d5376e", "is_disabled": 0, "rental_uris": {"ios": "https://dc.lft.to/lastmile_qr_scan", "android": "https://dc.lft.to/lastmile_qr_scan"}, "is_reserved": 0}, {"lon": -77.03158883333333, "bike_id": "271fb68d644efa12d4164b5a8afb6c1e", "lat": 38.92373766666667, "fusion_lon": 0.0, "fusion_lat": 0.0, "type": "electric_scooter", "name": "271fb68d644efa12d4164b5a8afb6c1e", "is_disabled": 0, "rental_uris": {"ios": "https://dc.lft.to/lastmile_qr_scan", "android": "https://dc.lft.to/lastmile_qr_scan"}, "is_reserved": 0}, {"lon": -77.00744033333334, "bike_id": "c772d70e0ec45e8ff6c53079fd96da01", "lat": 38.925320666666664, "fusion_lon": 0.0, "fusion_lat": 0.0, "type": "electric_scooter", "name": "c772d70e0ec45e8ff6c53079fd96da01", "is_disabled": 0, "rental_uris": {"ios": "https://dc.lft.to/lastmile_qr_scan", "android": "https://dc.lft.to/lastmile_qr_scan"}, "is_reserved": 0}, {"lon": -77.0045235, "bike_id": "9618fa1f82b2bf6c602097a9aca58c7b", "lat": 38.911895666666666, "fusion_lon": 0.0, "fusion_lat": 0.0, "type": "electric_scooter", "name": "9618fa1f82b2bf6c602097a9aca58c7b", "is_disabled": 0, "rental_uris": {"ios": "https://dc.lft.to/lastmile_qr_scan", "android": "https://dc.lft.to/lastmile_qr_scan"}, "is_reserved": 0}, {"lon": -77.02792166666667, "bike_id": "3528162f2cd3c9c093e94dfd10fe7cf4", "lat": 38.912223, "fusion_lon": 0.0, "fusion_lat": 0.0, "type": "electric_scooter", "name": "3528162f2cd3c9c093e94dfd10fe7cf4", "is_disabled": 0, "rental_uris": {"ios": "https://dc.lft.to/lastmile_qr_scan", "android": "https://dc.lft.to/lastmile_qr_scan"}, "is_reserved": 0}, {"lon": -77.00355083333334, "bike_id": "c2cfee6314555d959eef39b56fea5577", "lat": 38.89657783333333, "fusion_lon": 0.0, "fusion_lat": 0.0, "type": "electric_scooter", "name": "c2cfee6314555d959eef39b56fea5577", "is_disabled": 0, "rental_uris": {"ios": "https://dc.lft.to/lastmile_qr_scan", "android": "https://dc.lft.to/lastmile_qr_scan"}, "is_reserved": 0}, {"lon": -77.02191883333333, "bike_id": "f22c21405dccd9122d3392480587337c", "lat": 38.91531583333333, "fusion_lon": 0.0, "fusion_lat": 0.0, "type": "electric_scooter", "name": "f22c21405dccd9122d3392480587337c", "is_disabled": 0, "rental_uris": {"ios": "https://dc.lft.to/lastmile_qr_scan", "android": "https://dc.lft.to/lastmile_qr_scan"}, "is_reserved": 0}, {"lon": -77.03183566666667, "bike_id": "c56850400cb91b4c84953815e076e6f0", "lat": 38.892200833333334, "fusion_lon": 0.0, "fusion_lat": 0.0, "type": "electric_scooter", "name": "c56850400cb91b4c84953815e076e6f0", "is_disabled": 0, "rental_uris": {"ios": "https://dc.lft.to/lastmile_qr_scan", "android": "https://dc.lft.to/lastmile_qr_scan"}, "is_reserved": 0}, {"lon": -77.02730833333334, "bike_id": "afcd1b29fcc8bb7999168367a1c2e6ba", "lat": 38.93206516666667, "fusion_lon": 0.0, "fusion_lat": 0.0, "type": "electric_scooter", "name": "afcd1b29fcc8bb7999168367a1c2e6ba", "is_disabled": 0, "rental_uris": {"ios": "https://dc.lft.to/lastmile_qr_scan", "android": "https://dc.lft.to/lastmile_qr_scan"}, "is_reserved": 0}, {"lon": -77.02372266666667, "bike_id": "a93f58401b952e4e7f4ff91a7ad8e50b", "lat": 38.91783316666667, "fusion_lon": 0.0, "fusion_lat": 0.0, "type": "electric_scooter", "name": "a93f58401b952e4e7f4ff91a7ad8e50b", "is_disabled": 0, "rental_uris": {"ios": "https://dc.lft.to/lastmile_qr_scan", "android": "https://dc.lft.to/lastmile_qr_scan"}, "is_reserved": 0}, {"lon": -77.0351915, "bike_id": "01ca9305f3f1830148bc4d41766489bd", "lat": 38.93601133333333, "fusion_lon": 0.0, "fusion_lat": 0.0, "type": "electric_bike", "name": "01ca9305f3f1830148bc4d41766489bd", "is_disabled": 0, "rental_uris": {"ios": "https://dc.lft.to/lastmile_qr_scan", "android": "https://dc.lft.to/lastmile_qr_scan"}, "is_reserved": 0}, {"lon": -77.043557, "bike_id": "c6fdaff048607b8c51bb93ebbcfdf65d", "lat": 38.921508333333335, "fusion_lon": 0.0, "fusion_lat": 0.0, "type": "electric_scooter", "name": "c6fdaff048607b8c51bb93ebbcfdf65d", "is_disabled": 0, "rental_uris": {"ios": "https://dc.lft.to/lastmile_qr_scan", "android": "https://dc.lft.to/lastmile_qr_scan"}, "is_reserved": 0}, {"lon": -77.01970633333333, "bike_id": "5bf2c760c8653edace14b45be5ee7c28", "lat": 38.883902166666665, "fusion_lon": 0.0, "fusion_lat": 0.0, "type": "electric_scooter", "name": "5bf2c760c8653edace14b45be5ee7c28", "is_disabled": 0, "rental_uris": {"ios": "https://dc.lft.to/lastmile_qr_scan", "android": "https://dc.lft.to/lastmile_qr_scan"}, "is_reserved": 0}, {"lon": -77.02156783333334, "bike_id": "29c235fb0382ede75c7f261e22e25437", "lat": 38.92688533333333, "fusion_lon": 0.0, "fusion_lat": 0.0, "type": "electric_scooter", "name": "29c235fb0382ede75c7f261e22e25437", "is_disabled": 0, "rental_uris": {"ios": "https://dc.lft.to/lastmile_qr_scan", "android": "https://dc.lft.to/lastmile_qr_scan"}, "is_reserved": 0}, {"lon": -77.04131433333333, "bike_id": "4be783af33f2ff5d6ba333e22c81b71a", "lat": 38.923692, "fusion_lon": 0.0, "fusion_lat": 0.0, "type": "electric_scooter", "name": "4be783af33f2ff5d6ba333e22c81b71a", "is_disabled": 0, "rental_uris": {"ios": "https://dc.lft.to/lastmile_qr_scan", "android": "https://dc.lft.to/lastmile_qr_scan"}, "is_reserved": 0}, {"lon": -77.03338583333333, "bike_id": "3ab2dae48a53bc5cc5fed59dc340283a", "lat": 38.909765666666665, "fusion_lon": 0.0, "fusion_lat": 0.0, "type": "electric_scooter", "name": "3ab2dae48a53bc5cc5fed59dc340283a", "is_disabled": 0, "rental_uris": {"ios": "https://dc.lft.to/lastmile_qr_scan", "android": "https://dc.lft.to/lastmile_qr_scan"}, "is_reserved": 0}, {"lon": -77.01765633333333, "bike_id": "e207d30a7abfffadf133393d816fbdfe", "lat": 38.902571, "fusion_lon": 0.0, "fusion_lat": 0.0, "type": "electric_scooter", "name": "e207d30a7abfffadf133393d816fbdfe", "is_disabled": 0, "rental_uris": {"ios": "https://dc.lft.to/lastmile_qr_scan", "android": "https://dc.lft.to/lastmile_qr_scan"}, "is_reserved": 0}, {"lon": -77.03187316666667, "bike_id": "490bbf257c41de967fd040db9bbe5967", "lat": 38.93044866666666, "fusion_lon": 0.0, "fusion_lat": 0.0, "type": "electric_scooter", "name": "490bbf257c41de967fd040db9bbe5967", "is_disabled": 0, "rental_uris": {"ios": "https://dc.lft.to/lastmile_qr_scan", "android": "https://dc.lft.to/lastmile_qr_scan"}, "is_reserved": 0}, {"lon": -77.03659366666666, "bike_id": "d3f2c5e1a53035ee9049154c60ec2824", "lat": 38.92283833333333, "fusion_lon": 0.0, "fusion_lat": 0.0, "type": "electric_scooter", "name": "d3f2c5e1a53035ee9049154c60ec2824", "is_disabled": 0, "rental_uris": {"ios": "https://dc.lft.to/lastmile_qr_scan", "android": "https://dc.lft.to/lastmile_qr_scan"}, "is_reserved": 0}, {"lon": -77.02396833333333, "bike_id": "341ce1b8405324ab240e1089a252b7bc", "lat": 38.916786, "fusion_lon": 0.0, "fusion_lat": 0.0, "type": "electric_scooter", "name": "341ce1b8405324ab240e1089a252b7bc", "is_disabled": 0, "rental_uris": {"ios": "https://dc.lft.to/lastmile_qr_scan", "android": "https://dc.lft.to/lastmile_qr_scan"}, "is_reserved": 0}, {"lon": -77.058649, "bike_id": "1ab162cc7db393757bd043fb6d36b9c7", "lat": 38.9360805, "fusion_lon": 0.0, "fusion_lat": 0.0, "type": "electric_scooter", "name": "1ab162cc7db393757bd043fb6d36b9c7", "is_disabled": 0, "rental_uris": {"ios": "https://dc.lft.to/lastmile_qr_scan", "android": "https://dc.lft.to/lastmile_qr_scan"}, "is_reserved": 0}, {"lon": -77.034006, "bike_id": "54d793e1143aab5cec05ee976d79697b", "lat": 38.9231815, "fusion_lon": 0.0, "fusion_lat": 0.0, "type": "electric_scooter", "name": "54d793e1143aab5cec05ee976d79697b", "is_disabled": 0, "rental_uris": {"ios": "https://dc.lft.to/lastmile_qr_scan", "android": "https://dc.lft.to/lastmile_qr_scan"}, "is_reserved": 0}, {"lon": -77.024671, "bike_id": "00b6fbb257b850b41daed4691d12fde1", "lat": 38.90094633333333, "fusion_lon": 0.0, "fusion_lat": 0.0, "type": "electric_scooter", "name": "00b6fbb257b850b41daed4691d12fde1", "is_disabled": 0, "rental_uris": {"ios": "https://dc.lft.to/lastmile_qr_scan", "android": "https://dc.lft.to/lastmile_qr_scan"}, "is_reserved": 0}, {"lon": -77.04330716666666, "bike_id": "fda06168c1d9d69ee71b4b2a60ba6d1a", "lat": 38.90258583333333, "fusion_lon": 0.0, "fusion_lat": 0.0, "type": "electric_scooter", "name": "fda06168c1d9d69ee71b4b2a60ba6d1a", "is_disabled": 0, "rental_uris": {"ios": "https://dc.lft.to/lastmile_qr_scan", "android": "https://dc.lft.to/lastmile_qr_scan"}, "is_reserved": 0}, {"lon": -77.052696, "bike_id": "67e2d3530103377e5d6abbad39731289", "lat": 38.927768666666665, "fusion_lon": 0.0, "fusion_lat": 0.0, "type": "electric_scooter", "name": "67e2d3530103377e5d6abbad39731289", "is_disabled": 0, "rental_uris": {"ios": "https://dc.lft.to/lastmile_qr_scan", "android": "https://dc.lft.to/lastmile_qr_scan"}, "is_reserved": 0}, {"lon": -77.02755516666667, "bike_id": "b3db180f4326e62fd92209ade42fc6f2", "lat": 38.94406133333333, "fusion_lon": 0.0, "fusion_lat": 0.0, "type": "electric_scooter", "name": "b3db180f4326e62fd92209ade42fc6f2", "is_disabled": 0, "rental_uris": {"ios": "https://dc.lft.to/lastmile_qr_scan", "android": "https://dc.lft.to/lastmile_qr_scan"}, "is_reserved": 0}, {"lon": -77.01838433333333, "bike_id": "648dd93104e3db1b12db09b2ef713f10", "lat": 38.91492983333333, "fusion_lon": 0.0, "fusion_lat": 0.0, "type": "electric_scooter", "name": "648dd93104e3db1b12db09b2ef713f10", "is_disabled": 0, "rental_uris": {"ios": "https://dc.lft.to/lastmile_qr_scan", "android": "https://dc.lft.to/lastmile_qr_scan"}, "is_reserved": 0}, {"lon": -77.04543533333333, "bike_id": "eae5004c77e0ace9a6b5e308008b8bfd", "lat": 38.91601983333334, "fusion_lon": 0.0, "fusion_lat": 0.0, "type": "electric_scooter", "name": "eae5004c77e0ace9a6b5e308008b8bfd", "is_disabled": 0, "rental_uris": {"ios": "https://dc.lft.to/lastmile_qr_scan", "android": "https://dc.lft.to/lastmile_qr_scan"}, "is_reserved": 0}, {"lon": -77.03826916666667, "bike_id": "17c645be969ef14a5612d681ef8279a7", "lat": 38.906764333333335, "fusion_lon": 0.0, "fusion_lat": 0.0, "type": "electric_scooter", "name": "17c645be969ef14a5612d681ef8279a7", "is_disabled": 0, "rental_uris": {"ios": "https://dc.lft.to/lastmile_qr_scan", "android": "https://dc.lft.to/lastmile_qr_scan"}, "is_reserved": 0}, {"lon": -77.02054416666667, "bike_id": "a97f0df6ca8b541298a4356a426ef410", "lat": 38.90968633333333, "fusion_lon": 0.0, "fusion_lat": 0.0, "type": "electric_scooter", "name": "a97f0df6ca8b541298a4356a426ef410", "is_disabled": 0, "rental_uris": {"ios": "https://dc.lft.to/lastmile_qr_scan", "android": "https://dc.lft.to/lastmile_qr_scan"}, "is_reserved": 0}, {"lon": -77.00502883333333, "bike_id": "d0f198d788a675cfb86ed1f77a4c203f", "lat": 38.912612, "fusion_lon": 0.0, "fusion_lat": 0.0, "type": "electric_scooter", "name": "d0f198d788a675cfb86ed1f77a4c203f", "is_disabled": 0, "rental_uris": {"ios": "https://dc.lft.to/lastmile_qr_scan", "android": "https://dc.lft.to/lastmile_qr_scan"}, "is_reserved": 0}, {"lon": -77.04632766666667, "bike_id": "b06164eb641bc8618c1f83b07bb92c42", "lat": 38.91595816666667, "fusion_lon": 0.0, "fusion_lat": 0.0, "type": "electric_scooter", "name": "b06164eb641bc8618c1f83b07bb92c42", "is_disabled": 0, "rental_uris": {"ios": "https://dc.lft.to/lastmile_qr_scan", "android": "https://dc.lft.to/lastmile_qr_scan"}, "is_reserved": 0}, {"lon": -77.0236045, "bike_id": "2c83ea6b1d1e696693ff88e836ff1324", "lat": 38.89219533333333, "fusion_lon": 0.0, "fusion_lat": 0.0, "type": "electric_scooter", "name": "2c83ea6b1d1e696693ff88e836ff1324", "is_disabled": 0, "rental_uris": {"ios": "https://dc.lft.to/lastmile_qr_scan", "android": "https://dc.lft.to/lastmile_qr_scan"}, "is_reserved": 0}, {"lon": -77.05348366666666, "bike_id": "37d7eae710b52ce6933a5177eec60f14", "lat": 38.9026915, "fusion_lon": 0.0, "fusion_lat": 0.0, "type": "electric_scooter", "name": "37d7eae710b52ce6933a5177eec60f14", "is_disabled": 0, "rental_uris": {"ios": "https://dc.lft.to/lastmile_qr_scan", "android": "https://dc.lft.to/lastmile_qr_scan"}, "is_reserved": 0}, {"lon": -77.0312655, "bike_id": "7ca2f6ffc976af3603cc1f58ee7bfa29", "lat": 38.9156685, "fusion_lon": 0.0, "fusion_lat": 0.0, "type": "electric_bike", "name": "7ca2f6ffc976af3603cc1f58ee7bfa29", "is_disabled": 0, "rental_uris": {"ios": "https://dc.lft.to/lastmile_qr_scan", "android": "https://dc.lft.to/lastmile_qr_scan"}, "is_reserved": 0}, {"lon": -77.0320715, "bike_id": "4a3719d056132070ea84ffd1ae3ccb89", "lat": 38.915021833333334, "fusion_lon": 0.0, "fusion_lat": 0.0, "type": "electric_scooter", "name": "4a3719d056132070ea84ffd1ae3ccb89", "is_disabled": 0, "rental_uris": {"ios": "https://dc.lft.to/lastmile_qr_scan", "android": "https://dc.lft.to/lastmile_qr_scan"}, "is_reserved": 0}, {"lon": -77.01056233333334, "bike_id": "91e097cd11efd516673e68e265e1ee25", "lat": 38.878667, "fusion_lon": 0.0, "fusion_lat": 0.0, "type": "electric_scooter", "name": "91e097cd11efd516673e68e265e1ee25", "is_disabled": 0, "rental_uris": {"ios": "https://dc.lft.to/lastmile_qr_scan", "android": "https://dc.lft.to/lastmile_qr_scan"}, "is_reserved": 0}, {"lon": -77.02647183333333, "bike_id": "47edc3af45427f253082c8f42815a5e5", "lat": 38.9386055, "fusion_lon": 0.0, "fusion_lat": 0.0, "type": "electric_scooter", "name": "47edc3af45427f253082c8f42815a5e5", "is_disabled": 0, "rental_uris": {"ios": "https://dc.lft.to/lastmile_qr_scan", "android": "https://dc.lft.to/lastmile_qr_scan"}, "is_reserved": 0}, {"lon": -77.0310945, "bike_id": "79bd63c91789ffcae50eafca03c08666", "lat": 38.9156, "fusion_lon": 0.0, "fusion_lat": 0.0, "type": "electric_scooter", "name": "79bd63c91789ffcae50eafca03c08666", "is_disabled": 0, "rental_uris": {"ios": "https://dc.lft.to/lastmile_qr_scan", "android": "https://dc.lft.to/lastmile_qr_scan"}, "is_reserved": 0}, {"lon": -76.9935665, "bike_id": "9f0a4fff4ff8a4829696350e3a06277d", "lat": 38.845068, "fusion_lon": 0.0, "fusion_lat": 0.0, "type": "electric_bike", "name": "9f0a4fff4ff8a4829696350e3a06277d", "is_disabled": 0, "rental_uris": {"ios": "https://dc.lft.to/lastmile_qr_scan", "android": "https://dc.lft.to/lastmile_qr_scan"}, "is_reserved": 0}, {"lon": -76.98355016666666, "bike_id": "9d6e2311fd849996261fb22409a2d6d3", "lat": 38.91550216666667, "fusion_lon": 0.0, "fusion_lat": 0.0, "type": "electric_scooter", "name": "9d6e2311fd849996261fb22409a2d6d3", "is_disabled": 0, "rental_uris": {"ios": "https://dc.lft.to/lastmile_qr_scan", "android": "https://dc.lft.to/lastmile_qr_scan"}, "is_reserved": 0}, {"lon": -76.99881783333333, "bike_id": "5cd7da23729508a9329411c1b3d9c8f3", "lat": 38.92060583333333, "fusion_lon": 0.0, "fusion_lat": 0.0, "type": "electric_scooter", "name": "5cd7da23729508a9329411c1b3d9c8f3", "is_disabled": 0, "rental_uris": {"ios": "https://dc.lft.to/lastmile_qr_scan", "android": "https://dc.lft.to/lastmile_qr_scan"}, "is_reserved": 0}, {"lon": -77.02186233333333, "bike_id": "963382ee4000c4d26c18f0cce96a8718", "lat": 38.920127, "fusion_lon": 0.0, "fusion_lat": 0.0, "type": "electric_scooter", "name": "963382ee4000c4d26c18f0cce96a8718", "is_disabled": 0, "rental_uris": {"ios": "https://dc.lft.to/lastmile_qr_scan", "android": "https://dc.lft.to/lastmile_qr_scan"}, "is_reserved": 0}, {"lon": -77.0347305, "bike_id": "c5b6dccaf12c109cb8b835908a515558", "lat": 38.9170895, "fusion_lon": 0.0, "fusion_lat": 0.0, "type": "electric_scooter", "name": "c5b6dccaf12c109cb8b835908a515558", "is_disabled": 0, "rental_uris": {"ios": "https://dc.lft.to/lastmile_qr_scan", "android": "https://dc.lft.to/lastmile_qr_scan"}, "is_reserved": 0}, {"lon": -77.01716916666666, "bike_id": "66e1a41894d7cc71e1995470014a5bac", "lat": 38.909723666666665, "fusion_lon": 0.0, "fusion_lat": 0.0, "type": "electric_scooter", "name": "66e1a41894d7cc71e1995470014a5bac", "is_disabled": 0, "rental_uris": {"ios": "https://dc.lft.to/lastmile_qr_scan", "android": "https://dc.lft.to/lastmile_qr_scan"}, "is_reserved": 0}, {"lon": -77.044884, "bike_id": "b395c7c783ca55737676e2f0fea55357", "lat": 38.903752833333336, "fusion_lon": 0.0, "fusion_lat": 0.0, "type": "electric_scooter", "name": "b395c7c783ca55737676e2f0fea55357", "is_disabled": 0, "rental_uris": {"ios": "https://dc.lft.to/lastmile_qr_scan", "android": "https://dc.lft.to/lastmile_qr_scan"}, "is_reserved": 0}, {"lon": -77.00137666666667, "bike_id": "a5f10858fef5e084402e6be226682024", "lat": 38.89477466666666, "fusion_lon": 0.0, "fusion_lat": 0.0, "type": "electric_scooter", "name": "a5f10858fef5e084402e6be226682024", "is_disabled": 0, "rental_uris": {"ios": "https://dc.lft.to/lastmile_qr_scan", "android": "https://dc.lft.to/lastmile_qr_scan"}, "is_reserved": 0}, {"lon": -76.92667333333333, "bike_id": "4b4a2c950b3f5a79b77e0f792ded1111", "lat": 38.88041183333333, "fusion_lon": 0.0, "fusion_lat": 0.0, "type": "electric_scooter", "name": "4b4a2c950b3f5a79b77e0f792ded1111", "is_disabled": 0, "rental_uris": {"ios": "https://dc.lft.to/lastmile_qr_scan", "android": "https://dc.lft.to/lastmile_qr_scan"}, "is_reserved": 0}, {"lon": -77.02973133333333, "bike_id": "ae5fa8cc0dd489e148f57165d2fd8f6d", "lat": 38.92446833333333, "fusion_lon": 0.0, "fusion_lat": 0.0, "type": "electric_scooter", "name": "ae5fa8cc0dd489e148f57165d2fd8f6d", "is_disabled": 0, "rental_uris": {"ios": "https://dc.lft.to/lastmile_qr_scan", "android": "https://dc.lft.to/lastmile_qr_scan"}, "is_reserved": 0}, {"lon": -76.99928066666666, "bike_id": "368d807e3aacea5e5f3ac8d86b2704bf", "lat": 38.909228166666665, "fusion_lon": 0.0, "fusion_lat": 0.0, "type": "electric_scooter", "name": "368d807e3aacea5e5f3ac8d86b2704bf", "is_disabled": 0, "rental_uris": {"ios": "https://dc.lft.to/lastmile_qr_scan", "android": "https://dc.lft.to/lastmile_qr_scan"}, "is_reserved": 0}, {"lon": -77.03210883333334, "bike_id": "b13ab9ecffa7b783bdc4ad240c837550", "lat": 38.90992816666667, "fusion_lon": 0.0, "fusion_lat": 0.0, "type": "electric_scooter", "name": "b13ab9ecffa7b783bdc4ad240c837550", "is_disabled": 0, "rental_uris": {"ios": "https://dc.lft.to/lastmile_qr_scan", "android": "https://dc.lft.to/lastmile_qr_scan"}, "is_reserved": 0}, {"lon": -76.93743466666666, "bike_id": "97822944471682d34c9c433c099879bf", "lat": 38.89010366666667, "fusion_lon": 0.0, "fusion_lat": 0.0, "type": "electric_scooter", "name": "97822944471682d34c9c433c099879bf", "is_disabled": 0, "rental_uris": {"ios": "https://dc.lft.to/lastmile_qr_scan", "android": "https://dc.lft.to/lastmile_qr_scan"}, "is_reserved": 0}, {"lon": -77.034435, "bike_id": "580931214a5614738173e5f938837f47", "lat": 38.908104, "fusion_lon": 0.0, "fusion_lat": 0.0, "type": "electric_scooter", "name": "580931214a5614738173e5f938837f47", "is_disabled": 0, "rental_uris": {"ios": "https://dc.lft.to/lastmile_qr_scan", "android": "https://dc.lft.to/lastmile_qr_scan"}, "is_reserved": 0}, {"lon": -77.03845583333333, "bike_id": "b25c4841efd36acc997f5f206624cc8c", "lat": 38.915525833333334, "fusion_lon": 0.0, "fusion_lat": 0.0, "type": "electric_scooter", "name": "b25c4841efd36acc997f5f206624cc8c", "is_disabled": 0, "rental_uris": {"ios": "https://dc.lft.to/lastmile_qr_scan", "android": "https://dc.lft.to/lastmile_qr_scan"}, "is_reserved": 0}, {"lon": -77.04174233333333, "bike_id": "d41c236add4023aa5c6fdf2edde1b252", "lat": 38.917905166666664, "fusion_lon": 0.0, "fusion_lat": 0.0, "type": "electric_scooter", "name": "d41c236add4023aa5c6fdf2edde1b252", "is_disabled": 0, "rental_uris": {"ios": "https://dc.lft.to/lastmile_qr_scan", "android": "https://dc.lft.to/lastmile_qr_scan"}, "is_reserved": 0}, {"lon": -77.05697533333333, "bike_id": "d39bff7703722b5e5c3b40e2cce65cd8", "lat": 38.905470333333334, "fusion_lon": 0.0, "fusion_lat": 0.0, "type": "electric_scooter", "name": "d39bff7703722b5e5c3b40e2cce65cd8", "is_disabled": 0, "rental_uris": {"ios": "https://dc.lft.to/lastmile_qr_scan", "android": "https://dc.lft.to/lastmile_qr_scan"}, "is_reserved": 0}, {"lon": -77.02418683333333, "bike_id": "04175098c766232bdac35b8845941652", "lat": 38.91823466666666, "fusion_lon": 0.0, "fusion_lat": 0.0, "type": "electric_scooter", "name": "04175098c766232bdac35b8845941652", "is_disabled": 0, "rental_uris": {"ios": "https://dc.lft.to/lastmile_qr_scan", "android": "https://dc.lft.to/lastmile_qr_scan"}, "is_reserved": 0}, {"lon": -77.0175765, "bike_id": "724ccaab74c0d485800b815cefe51856", "lat": 38.876700166666666, "fusion_lon": 0.0, "fusion_lat": 0.0, "type": "electric_scooter", "name": "724ccaab74c0d485800b815cefe51856", "is_disabled": 0, "rental_uris": {"ios": "https://dc.lft.to/lastmile_qr_scan", "android": "https://dc.lft.to/lastmile_qr_scan"}, "is_reserved": 0}, {"lon": -77.02714333333333, "bike_id": "c16fc64377c78059828c497a886bc400", "lat": 38.90951366666667, "fusion_lon": 0.0, "fusion_lat": 0.0, "type": "electric_scooter", "name": "c16fc64377c78059828c497a886bc400", "is_disabled": 0, "rental_uris": {"ios": "https://dc.lft.to/lastmile_qr_scan", "android": "https://dc.lft.to/lastmile_qr_scan"}, "is_reserved": 0}, {"lon": -77.04334666666666, "bike_id": "f7581ca2cdab40367c61cb7081342e2e", "lat": 38.8922265, "fusion_lon": 0.0, "fusion_lat": 0.0, "type": "electric_scooter", "name": "f7581ca2cdab40367c61cb7081342e2e", "is_disabled": 0, "rental_uris": {"ios": "https://dc.lft.to/lastmile_qr_scan", "android": "https://dc.lft.to/lastmile_qr_scan"}, "is_reserved": 0}, {"lon": -77.0217995, "bike_id": "1d45053ce9a09740e2c27992e9cda722", "lat": 38.91483683333333, "fusion_lon": 0.0, "fusion_lat": 0.0, "type": "electric_scooter", "name": "1d45053ce9a09740e2c27992e9cda722", "is_disabled": 0, "rental_uris": {"ios": "https://dc.lft.to/lastmile_qr_scan", "android": "https://dc.lft.to/lastmile_qr_scan"}, "is_reserved": 0}, {"lon": -77.0244425, "bike_id": "4dcd975e95032f2b39d5fdc7278aebf0", "lat": 38.9141215, "fusion_lon": 0.0, "fusion_lat": 0.0, "type": "electric_scooter", "name": "4dcd975e95032f2b39d5fdc7278aebf0", "is_disabled": 0, "rental_uris": {"ios": "https://dc.lft.to/lastmile_qr_scan", "android": "https://dc.lft.to/lastmile_qr_scan"}, "is_reserved": 0}, {"lon": -77.00828583333333, "bike_id": "aa0c6035dc15f065f008538a17c7849c", "lat": 38.87915383333333, "fusion_lon": 0.0, "fusion_lat": 0.0, "type": "electric_scooter", "name": "aa0c6035dc15f065f008538a17c7849c", "is_disabled": 0, "rental_uris": {"ios": "https://dc.lft.to/lastmile_qr_scan", "android": "https://dc.lft.to/lastmile_qr_scan"}, "is_reserved": 0}, {"lon": -77.04337766666667, "bike_id": "8f67e08a6de05b1906e36786161baab1", "lat": 38.921403166666664, "fusion_lon": 0.0, "fusion_lat": 0.0, "type": "electric_scooter", "name": "8f67e08a6de05b1906e36786161baab1", "is_disabled": 0, "rental_uris": {"ios": "https://dc.lft.to/lastmile_qr_scan", "android": "https://dc.lft.to/lastmile_qr_scan"}, "is_reserved": 0}, {"lon": -76.94881683333334, "bike_id": "32544a491b5102471c7cb64cc1808e15", "lat": 38.89508516666667, "fusion_lon": 0.0, "fusion_lat": 0.0, "type": "electric_scooter", "name": "32544a491b5102471c7cb64cc1808e15", "is_disabled": 0, "rental_uris": {"ios": "https://dc.lft.to/lastmile_qr_scan", "android": "https://dc.lft.to/lastmile_qr_scan"}, "is_reserved": 0}, {"lon": -77.02115933333333, "bike_id": "e1d15c9a907b6512fc59ecd360986d62", "lat": 38.93705466666667, "fusion_lon": 0.0, "fusion_lat": 0.0, "type": "electric_scooter", "name": "e1d15c9a907b6512fc59ecd360986d62", "is_disabled": 0, "rental_uris": {"ios": "https://dc.lft.to/lastmile_qr_scan", "android": "https://dc.lft.to/lastmile_qr_scan"}, "is_reserved": 0}, {"lon": -76.98403066666667, "bike_id": "ff7ee79c7dd443ef7b1f9ca2f4868365", "lat": 38.90629633333333, "fusion_lon": 0.0, "fusion_lat": 0.0, "type": "electric_scooter", "name": "ff7ee79c7dd443ef7b1f9ca2f4868365", "is_disabled": 0, "rental_uris": {"ios": "https://dc.lft.to/lastmile_qr_scan", "android": "https://dc.lft.to/lastmile_qr_scan"}, "is_reserved": 0}, {"lon": -77.03966916666667, "bike_id": "51386e5cbcee3fadc3a7c08214e48a8a", "lat": 38.91624433333333, "fusion_lon": 0.0, "fusion_lat": 0.0, "type": "electric_scooter", "name": "51386e5cbcee3fadc3a7c08214e48a8a", "is_disabled": 0, "rental_uris": {"ios": "https://dc.lft.to/lastmile_qr_scan", "android": "https://dc.lft.to/lastmile_qr_scan"}, "is_reserved": 0}, {"lon": -77.04214383333333, "bike_id": "0051a8a2d78b1dd9ed7fea0178ed74e4", "lat": 38.9212555, "fusion_lon": 0.0, "fusion_lat": 0.0, "type": "electric_scooter", "name": "0051a8a2d78b1dd9ed7fea0178ed74e4", "is_disabled": 0, "rental_uris": {"ios": "https://dc.lft.to/lastmile_qr_scan", "android": "https://dc.lft.to/lastmile_qr_scan"}, "is_reserved": 0}, {"lon": -77.018525, "bike_id": "d65467842cb47408735a9a816f07dd56", "lat": 38.97364983333333, "fusion_lon": 0.0, "fusion_lat": 0.0, "type": "electric_scooter", "name": "d65467842cb47408735a9a816f07dd56", "is_disabled": 0, "rental_uris": {"ios": "https://dc.lft.to/lastmile_qr_scan", "android": "https://dc.lft.to/lastmile_qr_scan"}, "is_reserved": 0}, {"lon": -77.01223483333334, "bike_id": "934f4d77da89c49a0cd42871dfb13224", "lat": 38.915496833333336, "fusion_lon": 0.0, "fusion_lat": 0.0, "type": "electric_scooter", "name": "934f4d77da89c49a0cd42871dfb13224", "is_disabled": 0, "rental_uris": {"ios": "https://dc.lft.to/lastmile_qr_scan", "android": "https://dc.lft.to/lastmile_qr_scan"}, "is_reserved": 0}, {"lon": -77.02576283333333, "bike_id": "bbfb859cb255f5dee590b65f0c1a5877", "lat": 38.913391, "fusion_lon": 0.0, "fusion_lat": 0.0, "type": "electric_scooter", "name": "bbfb859cb255f5dee590b65f0c1a5877", "is_disabled": 0, "rental_uris": {"ios": "https://dc.lft.to/lastmile_qr_scan", "android": "https://dc.lft.to/lastmile_qr_scan"}, "is_reserved": 0}, {"lon": -77.042833, "bike_id": "cd08055e7fbe2874204c05b0ad7ac21e", "lat": 38.922473833333335, "fusion_lon": 0.0, "fusion_lat": 0.0, "type": "electric_scooter", "name": "cd08055e7fbe2874204c05b0ad7ac21e", "is_disabled": 0, "rental_uris": {"ios": "https://dc.lft.to/lastmile_qr_scan", "android": "https://dc.lft.to/lastmile_qr_scan"}, "is_reserved": 0}, {"lon": -77.02537633333333, "bike_id": "8d1332b1c8793bbc00290493a9ad2fe9", "lat": 38.9410135, "fusion_lon": 0.0, "fusion_lat": 0.0, "type": "electric_scooter", "name": "8d1332b1c8793bbc00290493a9ad2fe9", "is_disabled": 0, "rental_uris": {"ios": "https://dc.lft.to/lastmile_qr_scan", "android": "https://dc.lft.to/lastmile_qr_scan"}, "is_reserved": 0}, {"lon": -77.03923766666666, "bike_id": "bde1e3f5196d2dc95f29b6180afa15f7", "lat": 38.89897366666667, "fusion_lon": 0.0, "fusion_lat": 0.0, "type": "electric_scooter", "name": "bde1e3f5196d2dc95f29b6180afa15f7", "is_disabled": 0, "rental_uris": {"ios": "https://dc.lft.to/lastmile_qr_scan", "android": "https://dc.lft.to/lastmile_qr_scan"}, "is_reserved": 0}, {"lon": -76.98771283333333, "bike_id": "eba3a145d11bab8d84a6d987ea8ef775", "lat": 38.866095666666666, "fusion_lon": 0.0, "fusion_lat": 0.0, "type": "electric_bike", "name": "eba3a145d11bab8d84a6d987ea8ef775", "is_disabled": 0, "rental_uris": {"ios": "https://dc.lft.to/lastmile_qr_scan", "android": "https://dc.lft.to/lastmile_qr_scan"}, "is_reserved": 0}, {"lon": -77.024723, "bike_id": "7ebdcde494547ebc9d41e72fb4eb760b", "lat": 38.918200666666664, "fusion_lon": 0.0, "fusion_lat": 0.0, "type": "electric_scooter", "name": "7ebdcde494547ebc9d41e72fb4eb760b", "is_disabled": 0, "rental_uris": {"ios": "https://dc.lft.to/lastmile_qr_scan", "android": "https://dc.lft.to/lastmile_qr_scan"}, "is_reserved": 0}, {"lon": -76.9903225, "bike_id": "221b60a83041645d924c78944a59d140", "lat": 38.898803666666666, "fusion_lon": 0.0, "fusion_lat": 0.0, "type": "electric_scooter", "name": "221b60a83041645d924c78944a59d140", "is_disabled": 0, "rental_uris": {"ios": "https://dc.lft.to/lastmile_qr_scan", "android": "https://dc.lft.to/lastmile_qr_scan"}, "is_reserved": 0}, {"lon": -77.02390833333334, "bike_id": "6ccabdb459d1c4c3f2b3deb08ea22cce", "lat": 38.9342305, "fusion_lon": 0.0, "fusion_lat": 0.0, "type": "electric_bike", "name": "6ccabdb459d1c4c3f2b3deb08ea22cce", "is_disabled": 0, "rental_uris": {"ios": "https://dc.lft.to/lastmile_qr_scan", "android": "https://dc.lft.to/lastmile_qr_scan"}, "is_reserved": 0}, {"lon": -76.97532716666667, "bike_id": "59985b0f503b63703bffbfa7ebbd2b59", "lat": 38.90330066666667, "fusion_lon": 0.0, "fusion_lat": 0.0, "type": "electric_bike", "name": "59985b0f503b63703bffbfa7ebbd2b59", "is_disabled": 0, "rental_uris": {"ios": "https://dc.lft.to/lastmile_qr_scan", "android": "https://dc.lft.to/lastmile_qr_scan"}, "is_reserved": 0}, {"lon": -77.04265733333334, "bike_id": "ce67032e8c43477f7ea441bb244ac0d8", "lat": 38.9223655, "fusion_lon": 0.0, "fusion_lat": 0.0, "type": "electric_scooter", "name": "ce67032e8c43477f7ea441bb244ac0d8", "is_disabled": 0, "rental_uris": {"ios": "https://dc.lft.to/lastmile_qr_scan", "android": "https://dc.lft.to/lastmile_qr_scan"}, "is_reserved": 0}, {"lon": -77.01662766666666, "bike_id": "18ca16a58559755ec538a2971df26347", "lat": 38.917406166666666, "fusion_lon": 0.0, "fusion_lat": 0.0, "type": "electric_scooter", "name": "18ca16a58559755ec538a2971df26347", "is_disabled": 0, "rental_uris": {"ios": "https://dc.lft.to/lastmile_qr_scan", "android": "https://dc.lft.to/lastmile_qr_scan"}, "is_reserved": 0}, {"lon": -77.11779916666667, "bike_id": "8ed7c15995e9f6ba113a7c06a5b17136", "lat": 39.0549445, "fusion_lon": 0.0, "fusion_lat": 0.0, "type": "electric_bike", "name": "8ed7c15995e9f6ba113a7c06a5b17136", "is_disabled": 0, "rental_uris": {"ios": "https://dc.lft.to/lastmile_qr_scan", "android": "https://dc.lft.to/lastmile_qr_scan"}, "is_reserved": 0}, {"lon": -77.0363045, "bike_id": "5eca0c3ca2edaaa39fa43277ad8857bf", "lat": 38.92320683333333, "fusion_lon": 0.0, "fusion_lat": 0.0, "type": "electric_scooter", "name": "5eca0c3ca2edaaa39fa43277ad8857bf", "is_disabled": 0, "rental_uris": {"ios": "https://dc.lft.to/lastmile_qr_scan", "android": "https://dc.lft.to/lastmile_qr_scan"}, "is_reserved": 0}, {"lon": -77.048849, "bike_id": "a889d63267443520c50637d26ffdaad6", "lat": 38.904793166666664, "fusion_lon": 0.0, "fusion_lat": 0.0, "type": "electric_bike", "name": "a889d63267443520c50637d26ffdaad6", "is_disabled": 0, "rental_uris": {"ios": "https://dc.lft.to/lastmile_qr_scan", "android": "https://dc.lft.to/lastmile_qr_scan"}, "is_reserved": 0}, {"lon": -77.04166616666667, "bike_id": "18a9e8ef882387c56d81b50aac022c2a", "lat": 38.91970466666667, "fusion_lon": 0.0, "fusion_lat": 0.0, "type": "electric_scooter", "name": "18a9e8ef882387c56d81b50aac022c2a", "is_disabled": 0, "rental_uris": {"ios": "https://dc.lft.to/lastmile_qr_scan", "android": "https://dc.lft.to/lastmile_qr_scan"}, "is_reserved": 0}, {"lon": -77.0448155, "bike_id": "5b378076f53448372aaa1bc691a98cd1", "lat": 38.89241233333333, "fusion_lon": 0.0, "fusion_lat": 0.0, "type": "electric_scooter", "name": "5b378076f53448372aaa1bc691a98cd1", "is_disabled": 0, "rental_uris": {"ios": "https://dc.lft.to/lastmile_qr_scan", "android": "https://dc.lft.to/lastmile_qr_scan"}, "is_reserved": 0}, {"lon": -77.03277383333334, "bike_id": "01bdae72892322ac997d807573acc40f", "lat": 38.941504, "fusion_lon": 0.0, "fusion_lat": 0.0, "type": "electric_scooter", "name": "01bdae72892322ac997d807573acc40f", "is_disabled": 0, "rental_uris": {"ios": "https://dc.lft.to/lastmile_qr_scan", "android": "https://dc.lft.to/lastmile_qr_scan"}, "is_reserved": 0}, {"lon": -77.01463383333333, "bike_id": "ba5f036256b6f49d1c093cdc37ee4755", "lat": 38.91921333333333, "fusion_lon": 0.0, "fusion_lat": 0.0, "type": "electric_scooter", "name": "ba5f036256b6f49d1c093cdc37ee4755", "is_disabled": 0, "rental_uris": {"ios": "https://dc.lft.to/lastmile_qr_scan", "android": "https://dc.lft.to/lastmile_qr_scan"}, "is_reserved": 0}, {"lon": -77.02804233333333, "bike_id": "aa2e877b924d051f06db7d7a78111347", "lat": 38.914271, "fusion_lon": 0.0, "fusion_lat": 0.0, "type": "electric_scooter", "name": "aa2e877b924d051f06db7d7a78111347", "is_disabled": 0, "rental_uris": {"ios": "https://dc.lft.to/lastmile_qr_scan", "android": "https://dc.lft.to/lastmile_qr_scan"}, "is_reserved": 0}, {"lon": -77.03214816666667, "bike_id": "8fc4485a9e94a2f8ae88696902deeafd", "lat": 38.892212, "fusion_lon": 0.0, "fusion_lat": 0.0, "type": "electric_scooter", "name": "8fc4485a9e94a2f8ae88696902deeafd", "is_disabled": 0, "rental_uris": {"ios": "https://dc.lft.to/lastmile_qr_scan", "android": "https://dc.lft.to/lastmile_qr_scan"}, "is_reserved": 0}, {"lon": -77.0547215, "bike_id": "b86aff07cb4cf9b2ba221fad630d893e", "lat": 38.904279333333335, "fusion_lon": 0.0, "fusion_lat": 0.0, "type": "electric_scooter", "name": "b86aff07cb4cf9b2ba221fad630d893e", "is_disabled": 0, "rental_uris": {"ios": "https://dc.lft.to/lastmile_qr_scan", "android": "https://dc.lft.to/lastmile_qr_scan"}, "is_reserved": 0}, {"lon": -76.972361, "bike_id": "481c3dd632e0d7fb9102742f1626efbd", "lat": 38.9034325, "fusion_lon": 0.0, "fusion_lat": 0.0, "type": "electric_scooter", "name": "481c3dd632e0d7fb9102742f1626efbd", "is_disabled": 0, "rental_uris": {"ios": "https://dc.lft.to/lastmile_qr_scan", "android": "https://dc.lft.to/lastmile_qr_scan"}, "is_reserved": 0}, {"lon": -77.07598733333333, "bike_id": "ee996db530baa9bc13521707057fce71", "lat": 38.912209833333335, "fusion_lon": 0.0, "fusion_lat": 0.0, "type": "electric_scooter", "name": "ee996db530baa9bc13521707057fce71", "is_disabled": 0, "rental_uris": {"ios": "https://dc.lft.to/lastmile_qr_scan", "android": "https://dc.lft.to/lastmile_qr_scan"}, "is_reserved": 0}, {"lon": -76.99455383333333, "bike_id": "be076f88a5876216f3d4cbc947641180", "lat": 38.9036825, "fusion_lon": 0.0, "fusion_lat": 0.0, "type": "electric_scooter", "name": "be076f88a5876216f3d4cbc947641180", "is_disabled": 0, "rental_uris": {"ios": "https://dc.lft.to/lastmile_qr_scan", "android": "https://dc.lft.to/lastmile_qr_scan"}, "is_reserved": 0}, {"lon": -77.0328255, "bike_id": "38601d26e4087c5465ff580c3433fb06", "lat": 38.93763083333333, "fusion_lon": 0.0, "fusion_lat": 0.0, "type": "electric_scooter", "name": "38601d26e4087c5465ff580c3433fb06", "is_disabled": 0, "rental_uris": {"ios": "https://dc.lft.to/lastmile_qr_scan", "android": "https://dc.lft.to/lastmile_qr_scan"}, "is_reserved": 0}, {"lon": -77.02170216666667, "bike_id": "0bc0626adca92d36f4c1b74de6cce1c1", "lat": 38.914811, "fusion_lon": 0.0, "fusion_lat": 0.0, "type": "electric_scooter", "name": "0bc0626adca92d36f4c1b74de6cce1c1", "is_disabled": 0, "rental_uris": {"ios": "https://dc.lft.to/lastmile_qr_scan", "android": "https://dc.lft.to/lastmile_qr_scan"}, "is_reserved": 0}, {"lon": -76.98849766666666, "bike_id": "c725e708196736e9fee445ff99dbc694", "lat": 38.842671333333335, "fusion_lon": 0.0, "fusion_lat": 0.0, "type": "electric_bike", "name": "c725e708196736e9fee445ff99dbc694", "is_disabled": 0, "rental_uris": {"ios": "https://dc.lft.to/lastmile_qr_scan", "android": "https://dc.lft.to/lastmile_qr_scan"}, "is_reserved": 0}, {"lon": -76.985229, "bike_id": "114422c85c452d0fdc14ff6dea3c998c", "lat": 38.866857333333336, "fusion_lon": 0.0, "fusion_lat": 0.0, "type": "electric_scooter", "name": "114422c85c452d0fdc14ff6dea3c998c", "is_disabled": 0, "rental_uris": {"ios": "https://dc.lft.to/lastmile_qr_scan", "android": "https://dc.lft.to/lastmile_qr_scan"}, "is_reserved": 0}, {"lon": -77.07240083333333, "bike_id": "000d6301b9910e28280693a1deecb0ba", "lat": 38.89914183333333, "fusion_lon": 0.0, "fusion_lat": 0.0, "type": "electric_scooter", "name": "000d6301b9910e28280693a1deecb0ba", "is_disabled": 0, "rental_uris": {"ios": "https://dc.lft.to/lastmile_qr_scan", "android": "https://dc.lft.to/lastmile_qr_scan"}, "is_reserved": 0}, {"lon": -77.03870133333334, "bike_id": "93ed04d6bfe5872a1626fae11159970b", "lat": 38.912749, "fusion_lon": 0.0, "fusion_lat": 0.0, "type": "electric_scooter", "name": "93ed04d6bfe5872a1626fae11159970b", "is_disabled": 0, "rental_uris": {"ios": "https://dc.lft.to/lastmile_qr_scan", "android": "https://dc.lft.to/lastmile_qr_scan"}, "is_reserved": 0}, {"lon": -77.038528, "bike_id": "1a484fa413dbd79e6025393a6bbbc260", "lat": 38.91658133333333, "fusion_lon": 0.0, "fusion_lat": 0.0, "type": "electric_scooter", "name": "1a484fa413dbd79e6025393a6bbbc260", "is_disabled": 0, "rental_uris": {"ios": "https://dc.lft.to/lastmile_qr_scan", "android": "https://dc.lft.to/lastmile_qr_scan"}, "is_reserved": 0}, {"lon": -77.023887, "bike_id": "1c414e9600fe4ccf25119111c8fd65d2", "lat": 38.927520333333334, "fusion_lon": 0.0, "fusion_lat": 0.0, "type": "electric_scooter", "name": "1c414e9600fe4ccf25119111c8fd65d2", "is_disabled": 0, "rental_uris": {"ios": "https://dc.lft.to/lastmile_qr_scan", "android": "https://dc.lft.to/lastmile_qr_scan"}, "is_reserved": 0}, {"lon": -77.02304366666667, "bike_id": "e1186d8dbffb4be95911224ca041b9e0", "lat": 38.94091366666667, "fusion_lon": 0.0, "fusion_lat": 0.0, "type": "electric_scooter", "name": "e1186d8dbffb4be95911224ca041b9e0", "is_disabled": 0, "rental_uris": {"ios": "https://dc.lft.to/lastmile_qr_scan", "android": "https://dc.lft.to/lastmile_qr_scan"}, "is_reserved": 0}, {"lon": -77.0633865, "bike_id": "2caa8cb2d0604a24b87c02681a58131e", "lat": 38.90686783333334, "fusion_lon": 0.0, "fusion_lat": 0.0, "type": "electric_scooter", "name": "2caa8cb2d0604a24b87c02681a58131e", "is_disabled": 0, "rental_uris": {"ios": "https://dc.lft.to/lastmile_qr_scan", "android": "https://dc.lft.to/lastmile_qr_scan"}, "is_reserved": 0}, {"lon": -76.94632183333333, "bike_id": "9c14068abbb327a42a21134b9e7f1d33", "lat": 38.89834466666667, "fusion_lon": 0.0, "fusion_lat": 0.0, "type": "electric_scooter", "name": "9c14068abbb327a42a21134b9e7f1d33", "is_disabled": 0, "rental_uris": {"ios": "https://dc.lft.to/lastmile_qr_scan", "android": "https://dc.lft.to/lastmile_qr_scan"}, "is_reserved": 0}, {"lon": -77.02160016666667, "bike_id": "61c3d32f94577a10d217942dbe728ef1", "lat": 38.897195833333335, "fusion_lon": 0.0, "fusion_lat": 0.0, "type": "electric_scooter", "name": "61c3d32f94577a10d217942dbe728ef1", "is_disabled": 0, "rental_uris": {"ios": "https://dc.lft.to/lastmile_qr_scan", "android": "https://dc.lft.to/lastmile_qr_scan"}, "is_reserved": 0}, {"lon": -77.08456216666667, "bike_id": "c3153a65e24f41c0fe96e5d4cc6f3286", "lat": 38.84821016666667, "fusion_lon": 0.0, "fusion_lat": 0.0, "type": "electric_bike", "name": "c3153a65e24f41c0fe96e5d4cc6f3286", "is_disabled": 0, "rental_uris": {"ios": "https://dc.lft.to/lastmile_qr_scan", "android": "https://dc.lft.to/lastmile_qr_scan"}, "is_reserved": 0}, {"lon": -77.02716416666667, "bike_id": "d62f716d29e504b0443064815229f466", "lat": 38.897198, "fusion_lon": 0.0, "fusion_lat": 0.0, "type": "electric_scooter", "name": "d62f716d29e504b0443064815229f466", "is_disabled": 0, "rental_uris": {"ios": "https://dc.lft.to/lastmile_qr_scan", "android": "https://dc.lft.to/lastmile_qr_scan"}, "is_reserved": 0}, {"lon": -77.02819733333334, "bike_id": "7ef5d6e61ce5de87317a408aa723e445", "lat": 38.88740816666667, "fusion_lon": 0.0, "fusion_lat": 0.0, "type": "electric_scooter", "name": "7ef5d6e61ce5de87317a408aa723e445", "is_disabled": 0, "rental_uris": {"ios": "https://dc.lft.to/lastmile_qr_scan", "android": "https://dc.lft.to/lastmile_qr_scan"}, "is_reserved": 0}, {"lon": -77.0349495, "bike_id": "f6a71873d24e63741e47b2a8a680c8f0", "lat": 38.918910833333335, "fusion_lon": 0.0, "fusion_lat": 0.0, "type": "electric_bike", "name": "f6a71873d24e63741e47b2a8a680c8f0", "is_disabled": 0, "rental_uris": {"ios": "https://dc.lft.to/lastmile_qr_scan", "android": "https://dc.lft.to/lastmile_qr_scan"}, "is_reserved": 0}, {"lon": -77.03504683333334, "bike_id": "97ad009859c92904f2ef72ccc1697268", "lat": 38.912514333333334, "fusion_lon": 0.0, "fusion_lat": 0.0, "type": "electric_scooter", "name": "97ad009859c92904f2ef72ccc1697268", "is_disabled": 0, "rental_uris": {"ios": "https://dc.lft.to/lastmile_qr_scan", "android": "https://dc.lft.to/lastmile_qr_scan"}, "is_reserved": 0}, {"lon": -76.97548366666666, "bike_id": "3e77274932562e9af14bcada8d792d81", "lat": 38.9032235, "fusion_lon": 0.0, "fusion_lat": 0.0, "type": "electric_scooter", "name": "3e77274932562e9af14bcada8d792d81", "is_disabled": 0, "rental_uris": {"ios": "https://dc.lft.to/lastmile_qr_scan", "android": "https://dc.lft.to/lastmile_qr_scan"}, "is_reserved": 0}, {"lon": -77.03501266666666, "bike_id": "bac9d6fbf9c1296850d491b4315f1446", "lat": 38.9375125, "fusion_lon": 0.0, "fusion_lat": 0.0, "type": "electric_scooter", "name": "bac9d6fbf9c1296850d491b4315f1446", "is_disabled": 0, "rental_uris": {"ios": "https://dc.lft.to/lastmile_qr_scan", "android": "https://dc.lft.to/lastmile_qr_scan"}, "is_reserved": 0}, {"lon": -76.9835095, "bike_id": "fd506b606d04424f684d43cc0845c3ec", "lat": 38.88771883333333, "fusion_lon": 0.0, "fusion_lat": 0.0, "type": "electric_scooter", "name": "fd506b606d04424f684d43cc0845c3ec", "is_disabled": 0, "rental_uris": {"ios": "https://dc.lft.to/lastmile_qr_scan", "android": "https://dc.lft.to/lastmile_qr_scan"}, "is_reserved": 0}, {"lon": -76.97389816666667, "bike_id": "71c80c96ff3f48b3f6243dafafa13eaa", "lat": 38.905597666666665, "fusion_lon": 0.0, "fusion_lat": 0.0, "type": "electric_scooter", "name": "71c80c96ff3f48b3f6243dafafa13eaa", "is_disabled": 0, "rental_uris": {"ios": "https://dc.lft.to/lastmile_qr_scan", "android": "https://dc.lft.to/lastmile_qr_scan"}, "is_reserved": 0}, {"lon": -77.034257, "bike_id": "593543d93072ca09c16f3fd8a1fcd4f1", "lat": 38.922432, "fusion_lon": 0.0, "fusion_lat": 0.0, "type": "electric_scooter", "name": "593543d93072ca09c16f3fd8a1fcd4f1", "is_disabled": 0, "rental_uris": {"ios": "https://dc.lft.to/lastmile_qr_scan", "android": "https://dc.lft.to/lastmile_qr_scan"}, "is_reserved": 0}, {"lon": -76.96535433333334, "bike_id": "c388565150b2d13288b776d94cd00043", "lat": 38.91840083333334, "fusion_lon": 0.0, "fusion_lat": 0.0, "type": "electric_scooter", "name": "c388565150b2d13288b776d94cd00043", "is_disabled": 0, "rental_uris": {"ios": "https://dc.lft.to/lastmile_qr_scan", "android": "https://dc.lft.to/lastmile_qr_scan"}, "is_reserved": 0}, {"lon": -77.01138116666667, "bike_id": "885447bfe7ad24a4c5258b27562ab8de", "lat": 38.90641133333333, "fusion_lon": 0.0, "fusion_lat": 0.0, "type": "electric_scooter", "name": "885447bfe7ad24a4c5258b27562ab8de", "is_disabled": 0, "rental_uris": {"ios": "https://dc.lft.to/lastmile_qr_scan", "android": "https://dc.lft.to/lastmile_qr_scan"}, "is_reserved": 0}, {"lon": -77.044694, "bike_id": "a78fb935149eee102f3a17069b9e99d9", "lat": 38.89217333333333, "fusion_lon": 0.0, "fusion_lat": 0.0, "type": "electric_scooter", "name": "a78fb935149eee102f3a17069b9e99d9", "is_disabled": 0, "rental_uris": {"ios": "https://dc.lft.to/lastmile_qr_scan", "android": "https://dc.lft.to/lastmile_qr_scan"}, "is_reserved": 0}, {"lon": -77.049982, "bike_id": "29f7d2b8d88d726426d47e73ddc35ac8", "lat": 38.892299, "fusion_lon": 0.0, "fusion_lat": 0.0, "type": "electric_scooter", "name": "29f7d2b8d88d726426d47e73ddc35ac8", "is_disabled": 0, "rental_uris": {"ios": "https://dc.lft.to/lastmile_qr_scan", "android": "https://dc.lft.to/lastmile_qr_scan"}, "is_reserved": 0}, {"lon": -76.98883583333334, "bike_id": "f885c7d58e98542b87c05c0734bcd955", "lat": 38.866525833333334, "fusion_lon": 0.0, "fusion_lat": 0.0, "type": "electric_scooter", "name": "f885c7d58e98542b87c05c0734bcd955", "is_disabled": 0, "rental_uris": {"ios": "https://dc.lft.to/lastmile_qr_scan", "android": "https://dc.lft.to/lastmile_qr_scan"}, "is_reserved": 0}, {"lon": -76.994424, "bike_id": "10412a9c9dfb56c8049260681f54175b", "lat": 38.862762000000004, "fusion_lon": 0.0, "fusion_lat": 0.0, "type": "electric_scooter", "name": "10412a9c9dfb56c8049260681f54175b", "is_disabled": 0, "rental_uris": {"ios": "https://dc.lft.to/lastmile_qr_scan", "android": "https://dc.lft.to/lastmile_qr_scan"}, "is_reserved": 0}, {"lon": -77.02343483333334, "bike_id": "62c8aa0779c42f6216bccf17de3cf537", "lat": 38.918433666666665, "fusion_lon": 0.0, "fusion_lat": 0.0, "type": "electric_scooter", "name": "62c8aa0779c42f6216bccf17de3cf537", "is_disabled": 0, "rental_uris": {"ios": "https://dc.lft.to/lastmile_qr_scan", "android": "https://dc.lft.to/lastmile_qr_scan"}, "is_reserved": 0}, {"lon": -77.00097883333333, "bike_id": "748e0fe5b11bc9f7b38ac1b89c250201", "lat": 38.91245216666667, "fusion_lon": 0.0, "fusion_lat": 0.0, "type": "electric_scooter", "name": "748e0fe5b11bc9f7b38ac1b89c250201", "is_disabled": 0, "rental_uris": {"ios": "https://dc.lft.to/lastmile_qr_scan", "android": "https://dc.lft.to/lastmile_qr_scan"}, "is_reserved": 0}, {"lon": -77.03845216666667, "bike_id": "c36c04cc1befc3d097f99cf5da6f2e2d", "lat": 38.915487666666664, "fusion_lon": 0.0, "fusion_lat": 0.0, "type": "electric_scooter", "name": "c36c04cc1befc3d097f99cf5da6f2e2d", "is_disabled": 0, "rental_uris": {"ios": "https://dc.lft.to/lastmile_qr_scan", "android": "https://dc.lft.to/lastmile_qr_scan"}, "is_reserved": 0}, {"lon": -77.06773766666667, "bike_id": "79c726f62a29d0853ea57bf56b9729e3", "lat": 38.905239333333334, "fusion_lon": 0.0, "fusion_lat": 0.0, "type": "electric_scooter", "name": "79c726f62a29d0853ea57bf56b9729e3", "is_disabled": 0, "rental_uris": {"ios": "https://dc.lft.to/lastmile_qr_scan", "android": "https://dc.lft.to/lastmile_qr_scan"}, "is_reserved": 0}, {"lon": -76.98526133333333, "bike_id": "a442871a269f9d9c3238eac5dca74c2c", "lat": 38.866860833333334, "fusion_lon": 0.0, "fusion_lat": 0.0, "type": "electric_scooter", "name": "a442871a269f9d9c3238eac5dca74c2c", "is_disabled": 0, "rental_uris": {"ios": "https://dc.lft.to/lastmile_qr_scan", "android": "https://dc.lft.to/lastmile_qr_scan"}, "is_reserved": 0}, {"lon": -76.9409935, "bike_id": "395f6224f653387e79a0736e629ee0c3", "lat": 38.884662, "fusion_lon": 0.0, "fusion_lat": 0.0, "type": "electric_scooter", "name": "395f6224f653387e79a0736e629ee0c3", "is_disabled": 0, "rental_uris": {"ios": "https://dc.lft.to/lastmile_qr_scan", "android": "https://dc.lft.to/lastmile_qr_scan"}, "is_reserved": 0}, {"lon": -77.02219833333334, "bike_id": "be2dd7a1cb959c271c3adf46e98c20e0", "lat": 38.892210166666665, "fusion_lon": 0.0, "fusion_lat": 0.0, "type": "electric_scooter", "name": "be2dd7a1cb959c271c3adf46e98c20e0", "is_disabled": 0, "rental_uris": {"ios": "https://dc.lft.to/lastmile_qr_scan", "android": "https://dc.lft.to/lastmile_qr_scan"}, "is_reserved": 0}, {"lon": -77.00295833333334, "bike_id": "1c35ac73fbc9772821e5417754db26e0", "lat": 38.90129016666667, "fusion_lon": 0.0, "fusion_lat": 0.0, "type": "electric_scooter", "name": "1c35ac73fbc9772821e5417754db26e0", "is_disabled": 0, "rental_uris": {"ios": "https://dc.lft.to/lastmile_qr_scan", "android": "https://dc.lft.to/lastmile_qr_scan"}, "is_reserved": 0}, {"lon": -77.039773, "bike_id": "045dc241eedb3cd39fc06616bf8612ca", "lat": 38.9280565, "fusion_lon": 0.0, "fusion_lat": 0.0, "type": "electric_scooter", "name": "045dc241eedb3cd39fc06616bf8612ca", "is_disabled": 0, "rental_uris": {"ios": "https://dc.lft.to/lastmile_qr_scan", "android": "https://dc.lft.to/lastmile_qr_scan"}, "is_reserved": 0}, {"lon": -77.23326816666666, "bike_id": "3d2ada51abede2132a616a9e7ffe83d7", "lat": 38.87277566666667, "fusion_lon": 0.0, "fusion_lat": 0.0, "type": "electric_bike", "name": "3d2ada51abede2132a616a9e7ffe83d7", "is_disabled": 0, "rental_uris": {"ios": "https://dc.lft.to/lastmile_qr_scan", "android": "https://dc.lft.to/lastmile_qr_scan"}, "is_reserved": 0}, {"lon": -77.0351665, "bike_id": "9ed9054c2df41631b3ba654c259fa1a6", "lat": 38.923402333333335, "fusion_lon": 0.0, "fusion_lat": 0.0, "type": "electric_scooter", "name": "9ed9054c2df41631b3ba654c259fa1a6", "is_disabled": 0, "rental_uris": {"ios": "https://dc.lft.to/lastmile_qr_scan", "android": "https://dc.lft.to/lastmile_qr_scan"}, "is_reserved": 0}, {"lon": -76.97296516666667, "bike_id": "ec5fef074c944f3e8c3f15d362512f68", "lat": 38.916495166666664, "fusion_lon": 0.0, "fusion_lat": 0.0, "type": "electric_bike", "name": "ec5fef074c944f3e8c3f15d362512f68", "is_disabled": 0, "rental_uris": {"ios": "https://dc.lft.to/lastmile_qr_scan", "android": "https://dc.lft.to/lastmile_qr_scan"}, "is_reserved": 0}, {"lon": -77.03269216666666, "bike_id": "cc7c873735812ad488b8fbf9ed4cd2f5", "lat": 38.91228133333333, "fusion_lon": 0.0, "fusion_lat": 0.0, "type": "electric_scooter", "name": "cc7c873735812ad488b8fbf9ed4cd2f5", "is_disabled": 0, "rental_uris": {"ios": "https://dc.lft.to/lastmile_qr_scan", "android": "https://dc.lft.to/lastmile_qr_scan"}, "is_reserved": 0}, {"lon": -77.05003316666667, "bike_id": "3694a01ac8944900ad539b7fafaf40de", "lat": 38.8919935, "fusion_lon": 0.0, "fusion_lat": 0.0, "type": "electric_scooter", "name": "3694a01ac8944900ad539b7fafaf40de", "is_disabled": 0, "rental_uris": {"ios": "https://dc.lft.to/lastmile_qr_scan", "android": "https://dc.lft.to/lastmile_qr_scan"}, "is_reserved": 0}, {"lon": -77.03256683333333, "bike_id": "24be7def3070e9b8acbb322fee5e13f1", "lat": 38.93009833333333, "fusion_lon": 0.0, "fusion_lat": 0.0, "type": "electric_scooter", "name": "24be7def3070e9b8acbb322fee5e13f1", "is_disabled": 0, "rental_uris": {"ios": "https://dc.lft.to/lastmile_qr_scan", "android": "https://dc.lft.to/lastmile_qr_scan"}, "is_reserved": 0}, {"lon": -77.04673916666667, "bike_id": "cf16da0b5e57eec75508e19c69d83fbc", "lat": 38.89234166666667, "fusion_lon": 0.0, "fusion_lat": 0.0, "type": "electric_scooter", "name": "cf16da0b5e57eec75508e19c69d83fbc", "is_disabled": 0, "rental_uris": {"ios": "https://dc.lft.to/lastmile_qr_scan", "android": "https://dc.lft.to/lastmile_qr_scan"}, "is_reserved": 0}, {"lon": -76.978571, "bike_id": "a5c199174e455be94df545291ae0f936", "lat": 38.907251, "fusion_lon": 0.0, "fusion_lat": 0.0, "type": "electric_scooter", "name": "a5c199174e455be94df545291ae0f936", "is_disabled": 0, "rental_uris": {"ios": "https://dc.lft.to/lastmile_qr_scan", "android": "https://dc.lft.to/lastmile_qr_scan"}, "is_reserved": 0}, {"lon": -77.03262116666667, "bike_id": "00063ecc6aca352367c055afd8d1c506", "lat": 38.93775216666667, "fusion_lon": 0.0, "fusion_lat": 0.0, "type": "electric_scooter", "name": "00063ecc6aca352367c055afd8d1c506", "is_disabled": 0, "rental_uris": {"ios": "https://dc.lft.to/lastmile_qr_scan", "android": "https://dc.lft.to/lastmile_qr_scan"}, "is_reserved": 0}, {"lon": -77.044799, "bike_id": "8fae9d53a100b1fcec972059f8ccefc0", "lat": 38.905401833333336, "fusion_lon": 0.0, "fusion_lat": 0.0, "type": "electric_scooter", "name": "8fae9d53a100b1fcec972059f8ccefc0", "is_disabled": 0, "rental_uris": {"ios": "https://dc.lft.to/lastmile_qr_scan", "android": "https://dc.lft.to/lastmile_qr_scan"}, "is_reserved": 0}, {"lon": -77.0157885, "bike_id": "7cc8626cb50ad1127c56c1878562b840", "lat": 38.8830745, "fusion_lon": 0.0, "fusion_lat": 0.0, "type": "electric_scooter", "name": "7cc8626cb50ad1127c56c1878562b840", "is_disabled": 0, "rental_uris": {"ios": "https://dc.lft.to/lastmile_qr_scan", "android": "https://dc.lft.to/lastmile_qr_scan"}, "is_reserved": 0}, {"lon": -77.03851683333333, "bike_id": "9ca392c5ed5380a350b02f497951835e", "lat": 38.932449166666665, "fusion_lon": 0.0, "fusion_lat": 0.0, "type": "electric_scooter", "name": "9ca392c5ed5380a350b02f497951835e", "is_disabled": 0, "rental_uris": {"ios": "https://dc.lft.to/lastmile_qr_scan", "android": "https://dc.lft.to/lastmile_qr_scan"}, "is_reserved": 0}, {"lon": -77.0504225, "bike_id": "c4ed463a11f7e4aa7d99f7034ecc55f3", "lat": 38.923641833333335, "fusion_lon": 0.0, "fusion_lat": 0.0, "type": "electric_scooter", "name": "c4ed463a11f7e4aa7d99f7034ecc55f3", "is_disabled": 0, "rental_uris": {"ios": "https://dc.lft.to/lastmile_qr_scan", "android": "https://dc.lft.to/lastmile_qr_scan"}, "is_reserved": 0}, {"lon": -77.03288383333333, "bike_id": "6e9ccf813046a3fb74887ea2e1ae90fb", "lat": 38.910397333333336, "fusion_lon": 0.0, "fusion_lat": 0.0, "type": "electric_scooter", "name": "6e9ccf813046a3fb74887ea2e1ae90fb", "is_disabled": 0, "rental_uris": {"ios": "https://dc.lft.to/lastmile_qr_scan", "android": "https://dc.lft.to/lastmile_qr_scan"}, "is_reserved": 0}, {"lon": -76.99601566666666, "bike_id": "49f3d6f2c02b8e2dc2b128a785c2e85b", "lat": 38.950674166666666, "fusion_lon": 0.0, "fusion_lat": 0.0, "type": "electric_bike", "name": "49f3d6f2c02b8e2dc2b128a785c2e85b", "is_disabled": 0, "rental_uris": {"ios": "https://dc.lft.to/lastmile_qr_scan", "android": "https://dc.lft.to/lastmile_qr_scan"}, "is_reserved": 0}, {"lon": -76.97557183333333, "bike_id": "4f8e5e7d5740ee35b1fc934fa8a68c5e", "lat": 38.92457133333333, "fusion_lon": 0.0, "fusion_lat": 0.0, "type": "electric_bike", "name": "4f8e5e7d5740ee35b1fc934fa8a68c5e", "is_disabled": 0, "rental_uris": {"ios": "https://dc.lft.to/lastmile_qr_scan", "android": "https://dc.lft.to/lastmile_qr_scan"}, "is_reserved": 0}, {"lon": -77.03561366666666, "bike_id": "fabb8d88d1c82d2765163722739ae733", "lat": 38.9337255, "fusion_lon": 0.0, "fusion_lat": 0.0, "type": "electric_scooter", "name": "fabb8d88d1c82d2765163722739ae733", "is_disabled": 0, "rental_uris": {"ios": "https://dc.lft.to/lastmile_qr_scan", "android": "https://dc.lft.to/lastmile_qr_scan"}, "is_reserved": 0}, {"lon": -77.02094116666666, "bike_id": "b70c171a315259b94a6aa0255895c29a", "lat": 38.92911733333333, "fusion_lon": 0.0, "fusion_lat": 0.0, "type": "electric_scooter", "name": "b70c171a315259b94a6aa0255895c29a", "is_disabled": 0, "rental_uris": {"ios": "https://dc.lft.to/lastmile_qr_scan", "android": "https://dc.lft.to/lastmile_qr_scan"}, "is_reserved": 0}, {"lon": -76.9499755, "bike_id": "74cbbfffb1ed64aff9bcfe54c4e48cb4", "lat": 38.893793, "fusion_lon": 0.0, "fusion_lat": 0.0, "type": "electric_scooter", "name": "74cbbfffb1ed64aff9bcfe54c4e48cb4", "is_disabled": 0, "rental_uris": {"ios": "https://dc.lft.to/lastmile_qr_scan", "android": "https://dc.lft.to/lastmile_qr_scan"}, "is_reserved": 0}, {"lon": -77.0308235, "bike_id": "464bf5a99f27200151222ec94f386f68", "lat": 38.910014833333335, "fusion_lon": 0.0, "fusion_lat": 0.0, "type": "electric_scooter", "name": "464bf5a99f27200151222ec94f386f68", "is_disabled": 0, "rental_uris": {"ios": "https://dc.lft.to/lastmile_qr_scan", "android": "https://dc.lft.to/lastmile_qr_scan"}, "is_reserved": 0}, {"lon": -76.98500716666666, "bike_id": "e69daac73dccb90e11c5664512d383c0", "lat": 38.87933683333333, "fusion_lon": 0.0, "fusion_lat": 0.0, "type": "electric_bike", "name": "e69daac73dccb90e11c5664512d383c0", "is_disabled": 0, "rental_uris": {"ios": "https://dc.lft.to/lastmile_qr_scan", "android": "https://dc.lft.to/lastmile_qr_scan"}, "is_reserved": 0}, {"lon": -77.0446915, "bike_id": "d68735a9f46f8bbf0c786e7560f97844", "lat": 38.8921795, "fusion_lon": 0.0, "fusion_lat": 0.0, "type": "electric_scooter", "name": "d68735a9f46f8bbf0c786e7560f97844", "is_disabled": 0, "rental_uris": {"ios": "https://dc.lft.to/lastmile_qr_scan", "android": "https://dc.lft.to/lastmile_qr_scan"}, "is_reserved": 0}, {"lon": -77.0002895, "bike_id": "14a8f54aac3e52524724a9309dd3e25b", "lat": 38.90707333333334, "fusion_lon": 0.0, "fusion_lat": 0.0, "type": "electric_scooter", "name": "14a8f54aac3e52524724a9309dd3e25b", "is_disabled": 0, "rental_uris": {"ios": "https://dc.lft.to/lastmile_qr_scan", "android": "https://dc.lft.to/lastmile_qr_scan"}, "is_reserved": 0}, {"lon": -77.0231055, "bike_id": "92a167efb2b03359ef854ec9cd63c868", "lat": 38.87884433333333, "fusion_lon": 0.0, "fusion_lat": 0.0, "type": "electric_scooter", "name": "92a167efb2b03359ef854ec9cd63c868", "is_disabled": 0, "rental_uris": {"ios": "https://dc.lft.to/lastmile_qr_scan", "android": "https://dc.lft.to/lastmile_qr_scan"}, "is_reserved": 0}, {"lon": -77.0363905, "bike_id": "15c1c6c2fac923d0490c6663536625d4", "lat": 38.91179983333333, "fusion_lon": 0.0, "fusion_lat": 0.0, "type": "electric_scooter", "name": "15c1c6c2fac923d0490c6663536625d4", "is_disabled": 0, "rental_uris": {"ios": "https://dc.lft.to/lastmile_qr_scan", "android": "https://dc.lft.to/lastmile_qr_scan"}, "is_reserved": 0}, {"lon": -77.0689065, "bike_id": "0b7d9ece16faef7a56862a0d94c73ac5", "lat": 38.905100166666664, "fusion_lon": 0.0, "fusion_lat": 0.0, "type": "electric_scooter", "name": "0b7d9ece16faef7a56862a0d94c73ac5", "is_disabled": 0, "rental_uris": {"ios": "https://dc.lft.to/lastmile_qr_scan", "android": "https://dc.lft.to/lastmile_qr_scan"}, "is_reserved": 0}, {"lon": -77.02376133333334, "bike_id": "55eae05ca6df4a165a44af607ca2362d", "lat": 38.91703533333333, "fusion_lon": 0.0, "fusion_lat": 0.0, "type": "electric_scooter", "name": "55eae05ca6df4a165a44af607ca2362d", "is_disabled": 0, "rental_uris": {"ios": "https://dc.lft.to/lastmile_qr_scan", "android": "https://dc.lft.to/lastmile_qr_scan"}, "is_reserved": 0}, {"lon": -76.9837565, "bike_id": "782bb9c621aa5cd8e7d6457cf6afcca3", "lat": 38.906454833333335, "fusion_lon": 0.0, "fusion_lat": 0.0, "type": "electric_scooter", "name": "782bb9c621aa5cd8e7d6457cf6afcca3", "is_disabled": 0, "rental_uris": {"ios": "https://dc.lft.to/lastmile_qr_scan", "android": "https://dc.lft.to/lastmile_qr_scan"}, "is_reserved": 0}, {"lon": -77.003067, "bike_id": "3741a307b3a35d0bb6d171df8609f2f5", "lat": 38.923571, "fusion_lon": 0.0, "fusion_lat": 0.0, "type": "electric_scooter", "name": "3741a307b3a35d0bb6d171df8609f2f5", "is_disabled": 0, "rental_uris": {"ios": "https://dc.lft.to/lastmile_qr_scan", "android": "https://dc.lft.to/lastmile_qr_scan"}, "is_reserved": 0}, {"lon": -77.04130516666666, "bike_id": "e204b49dfd992a0a00e2098e92d4665c", "lat": 38.9236925, "fusion_lon": 0.0, "fusion_lat": 0.0, "type": "electric_scooter", "name": "e204b49dfd992a0a00e2098e92d4665c", "is_disabled": 0, "rental_uris": {"ios": "https://dc.lft.to/lastmile_qr_scan", "android": "https://dc.lft.to/lastmile_qr_scan"}, "is_reserved": 0}, {"lon": -76.946347, "bike_id": "57ff3d502806784c9b7a6fa415294e17", "lat": 38.898306166666664, "fusion_lon": 0.0, "fusion_lat": 0.0, "type": "electric_scooter", "name": "57ff3d502806784c9b7a6fa415294e17", "is_disabled": 0, "rental_uris": {"ios": "https://dc.lft.to/lastmile_qr_scan", "android": "https://dc.lft.to/lastmile_qr_scan"}, "is_reserved": 0}, {"lon": -77.0671205, "bike_id": "1131106a8936edede507b40f4fea0a48", "lat": 38.91444166666667, "fusion_lon": 0.0, "fusion_lat": 0.0, "type": "electric_scooter", "name": "1131106a8936edede507b40f4fea0a48", "is_disabled": 0, "rental_uris": {"ios": "https://dc.lft.to/lastmile_qr_scan", "android": "https://dc.lft.to/lastmile_qr_scan"}, "is_reserved": 0}, {"lon": -77.024847, "bike_id": "65787f28a3df26de4554c581f5bc7310", "lat": 38.91691216666667, "fusion_lon": 0.0, "fusion_lat": 0.0, "type": "electric_scooter", "name": "65787f28a3df26de4554c581f5bc7310", "is_disabled": 0, "rental_uris": {"ios": "https://dc.lft.to/lastmile_qr_scan", "android": "https://dc.lft.to/lastmile_qr_scan"}, "is_reserved": 0}, {"lon": -77.07381183333334, "bike_id": "ad51a0edd4fc39b1e39bc8d649db6c16", "lat": 38.96184616666667, "fusion_lon": 0.0, "fusion_lat": 0.0, "type": "electric_bike", "name": "ad51a0edd4fc39b1e39bc8d649db6c16", "is_disabled": 0, "rental_uris": {"ios": "https://dc.lft.to/lastmile_qr_scan", "android": "https://dc.lft.to/lastmile_qr_scan"}, "is_reserved": 0}, {"lon": -77.03861366666666, "bike_id": "93c861ede4f23a425bf27d97b46906bf", "lat": 38.906569833333336, "fusion_lon": 0.0, "fusion_lat": 0.0, "type": "electric_scooter", "name": "93c861ede4f23a425bf27d97b46906bf", "is_disabled": 0, "rental_uris": {"ios": "https://dc.lft.to/lastmile_qr_scan", "android": "https://dc.lft.to/lastmile_qr_scan"}, "is_reserved": 0}, {"lon": -77.0357895, "bike_id": "91234f827d97374a7588f3152e245a4a", "lat": 38.917715666666666, "fusion_lon": 0.0, "fusion_lat": 0.0, "type": "electric_scooter", "name": "91234f827d97374a7588f3152e245a4a", "is_disabled": 0, "rental_uris": {"ios": "https://dc.lft.to/lastmile_qr_scan", "android": "https://dc.lft.to/lastmile_qr_scan"}, "is_reserved": 0}, {"lon": -77.05443683333333, "bike_id": "9c112bfca58e905016f3674b060cea01", "lat": 38.935262, "fusion_lon": 0.0, "fusion_lat": 0.0, "type": "electric_bike", "name": "9c112bfca58e905016f3674b060cea01", "is_disabled": 0, "rental_uris": {"ios": "https://dc.lft.to/lastmile_qr_scan", "android": "https://dc.lft.to/lastmile_qr_scan"}, "is_reserved": 0}, {"lon": -77.02412233333334, "bike_id": "1ec3d192d4ef7f432169aa9eef6dfd47", "lat": 38.91674883333334, "fusion_lon": 0.0, "fusion_lat": 0.0, "type": "electric_scooter", "name": "1ec3d192d4ef7f432169aa9eef6dfd47", "is_disabled": 0, "rental_uris": {"ios": "https://dc.lft.to/lastmile_qr_scan", "android": "https://dc.lft.to/lastmile_qr_scan"}, "is_reserved": 0}, {"lon": -77.04024016666666, "bike_id": "8178a9befc6837cd3e61ada78c782427", "lat": 38.911053, "fusion_lon": 0.0, "fusion_lat": 0.0, "type": "electric_scooter", "name": "8178a9befc6837cd3e61ada78c782427", "is_disabled": 0, "rental_uris": {"ios": "https://dc.lft.to/lastmile_qr_scan", "android": "https://dc.lft.to/lastmile_qr_scan"}, "is_reserved": 0}, {"lon": -76.93001966666667, "bike_id": "9420a16779b19da29b747b9177f6a9d9", "lat": 38.90184683333333, "fusion_lon": 0.0, "fusion_lat": 0.0, "type": "electric_scooter", "name": "9420a16779b19da29b747b9177f6a9d9", "is_disabled": 0, "rental_uris": {"ios": "https://dc.lft.to/lastmile_qr_scan", "android": "https://dc.lft.to/lastmile_qr_scan"}, "is_reserved": 0}, {"lon": -77.022273, "bike_id": "476bcad8ef5626eea88b98221904b050", "lat": 38.93553583333333, "fusion_lon": 0.0, "fusion_lat": 0.0, "type": "electric_scooter", "name": "476bcad8ef5626eea88b98221904b050", "is_disabled": 0, "rental_uris": {"ios": "https://dc.lft.to/lastmile_qr_scan", "android": "https://dc.lft.to/lastmile_qr_scan"}, "is_reserved": 0}, {"lon": -77.032738, "bike_id": "40d8ad6b2034f9b1cfd721d27cde4459", "lat": 38.920019, "fusion_lon": 0.0, "fusion_lat": 0.0, "type": "electric_scooter", "name": "40d8ad6b2034f9b1cfd721d27cde4459", "is_disabled": 0, "rental_uris": {"ios": "https://dc.lft.to/lastmile_qr_scan", "android": "https://dc.lft.to/lastmile_qr_scan"}, "is_reserved": 0}, {"lon": -77.02765933333333, "bike_id": "8fa6c0aadfd6dab8b2978f17e6b2f1c7", "lat": 38.904424166666665, "fusion_lon": 0.0, "fusion_lat": 0.0, "type": "electric_bike", "name": "8fa6c0aadfd6dab8b2978f17e6b2f1c7", "is_disabled": 0, "rental_uris": {"ios": "https://dc.lft.to/lastmile_qr_scan", "android": "https://dc.lft.to/lastmile_qr_scan"}, "is_reserved": 0}, {"lon": -77.021536, "bike_id": "3bd4915f8121fceb55d99d39f5041f23", "lat": 38.897260833333334, "fusion_lon": 0.0, "fusion_lat": 0.0, "type": "electric_scooter", "name": "3bd4915f8121fceb55d99d39f5041f23", "is_disabled": 0, "rental_uris": {"ios": "https://dc.lft.to/lastmile_qr_scan", "android": "https://dc.lft.to/lastmile_qr_scan"}, "is_reserved": 0}, {"lon": -77.02840716666667, "bike_id": "53adaa75e16c2603d39c93f7ec91d57e", "lat": 38.92580983333333, "fusion_lon": 0.0, "fusion_lat": 0.0, "type": "electric_scooter", "name": "53adaa75e16c2603d39c93f7ec91d57e", "is_disabled": 0, "rental_uris": {"ios": "https://dc.lft.to/lastmile_qr_scan", "android": "https://dc.lft.to/lastmile_qr_scan"}, "is_reserved": 0}, {"lon": -77.03226116666667, "bike_id": "68a0d89bc8006c2cafd5b6568481a980", "lat": 38.896290666666665, "fusion_lon": 0.0, "fusion_lat": 0.0, "type": "electric_scooter", "name": "68a0d89bc8006c2cafd5b6568481a980", "is_disabled": 0, "rental_uris": {"ios": "https://dc.lft.to/lastmile_qr_scan", "android": "https://dc.lft.to/lastmile_qr_scan"}, "is_reserved": 0}, {"lon": -77.03001966666666, "bike_id": "db34a0a2d27404b83695b55138c3eb39", "lat": 39.041964166666666, "fusion_lon": 0.0, "fusion_lat": 0.0, "type": "electric_bike", "name": "db34a0a2d27404b83695b55138c3eb39", "is_disabled": 0, "rental_uris": {"ios": "https://dc.lft.to/lastmile_qr_scan", "android": "https://dc.lft.to/lastmile_qr_scan"}, "is_reserved": 0},