{"data": {"bikes": [{"is_reserved": 0, "type": "electric_scooter", "bike_id": "40250c48c8612fe700bef58536306009", "lat": 38.902777, "lon": -77.03985333333334, "rental_uris": {"android": "https://dc.lft.to/lastmile_qr_scan", "ios": "https://dc.lft.to/lastmile_qr_scan"}, "is_disabled": 0, "fusion_lat": 0.0, "name": "40250c48c8612fe700bef58536306009", "fusion_lon": 0.0}, {"is_reserved": 0, "type": "electric_scooter", "bike_id": "e325238e995bb9b8ea0d3d7ef769c4c8", "lat": 38.894246333333335, "lon": -77.05595216666667, "rental_uris": {"android": "https://dc.lft.to/lastmile_qr_scan", "ios": "https://dc.lft.to/lastmile_qr_scan"}, "is_disabled": 0, "fusion_lat": 0.0, "name": "e325238e995bb9b8ea0d3d7ef769c4c8", "fusion_lon": 0.0}, {"is_reserved": 0, "type": "electric_scooter", "bike_id": "9c5163075912803e4e8d825ceacd1b6e", "lat": 38.895013666666664, "lon": -76.93477583333333, "rental_uris": {"android": "https://dc.lft.to/lastmile_qr_scan", "ios": "https://dc.lft.to/lastmile_qr_scan"}, "is_disabled": 0, "fusion_lat": 0.0, "name": "9c5163075912803e4e8d825ceacd1b6e", "fusion_lon": 0.0}, {"is_reserved": 0, "type": "electric_scooter", "bike_id": "ce2341f96b20810612325d638972a5c6", "lat": 38.90278166666667, "lon": -77.03982083333334, "rental_uris": {"android": "https://dc.lft.to/lastmile_qr_scan", "ios": "https://dc.lft.to/lastmile_qr_scan"}, "is_disabled": 0, "fusion_lat": 0.0, "name": "ce2341f96b20810612325d638972a5c6", "fusion_lon": 0.0}, {"is_reserved": 0, "type": "electric_scooter", "bike_id": "4d53feece2eb68c8d66c0d4cb727a466", "lat": 38.88934183333333, "lon": -76.993702, "rental_uris": {"android": "https://dc.lft.to/lastmile_qr_scan", "ios": "https://dc.lft.to/lastmile_qr_scan"}, "is_disabled": 0, "fusion_lat": 0.0, "name": "4d53feece2eb68c8d66c0d4cb727a466", "fusion_lon": 0.0}, {"is_reserved": 0, "type": "electric_scooter", "bike_id": "6f152ffd584738a711c3a26698ec2135", "lat": 38.88365116666667, "lon": -76.94154716666667, "rental_uris": {"android": "https://dc.lft.to/lastmile_qr_scan", "ios": "https://dc.lft.to/lastmile_qr_scan"}, "is_disabled": 0, "fusion_lat": 0.0, "name": "6f152ffd584738a711c3a26698ec2135", "fusion_lon": 0.0}, {"is_reserved": 0, "type": "electric_scooter", "bike_id": "398eaf6f08c50fd3bd026c1e6db8317e", "lat": 38.922161, "lon": -77.02288666666666, "rental_uris": {"android": "https://dc.lft.to/lastmile_qr_scan", "ios": "https://dc.lft.to/lastmile_qr_scan"}, "is_disabled": 0, "fusion_lat": 0.0, "name": "398eaf6f08c50fd3bd026c1e6db8317e", "fusion_lon": 0.0}, {"is_reserved": 0, "type": "electric_scooter", "bike_id": "814bb8ebdadc808e58f744d714470380", "lat": 38.89363866666667, "lon": -76.93596766666667, "rental_uris": {"android": "https://dc.lft.to/lastmile_qr_scan", "ios": "https://dc.lft.to/lastmile_qr_scan"}, "is_disabled": 0, "fusion_lat": 0.0, "name": "814bb8ebdadc808e58f744d714470380", "fusion_lon": 0.0}, {"is_reserved": 0, "type": "electric_scooter", "bike_id": "da7363854eed36c3ffdb3289d358cfd5", "lat": 38.866895166666666, "lon": -76.97904133333333, "rental_uris": {"android": "https://dc.lft.to/lastmile_qr_scan", "ios": "https://dc.lft.to/lastmile_qr_scan"}, "is_disabled": 0, "fusion_lat": 0.0, "name": "da7363854eed36c3ffdb3289d358cfd5", "fusion_lon": 0.0}, {"is_reserved": 0, "type": "electric_scooter", "bike_id": "31670ca9776e13ca09d7cdf59a6a2770", "lat": 38.8979245, "lon": -77.0502165, "rental_uris": {"android": "https://dc.lft.to/lastmile_qr_scan", "ios": "https://dc.lft.to/lastmile_qr_scan"}, "is_disabled": 0, "fusion_lat": 0.0, "name": "31670ca9776e13ca09d7cdf59a6a2770", "fusion_lon": 0.0}, {"is_reserved": 0, "type": "electric_scooter", "bike_id": "e27f68c3f21a7b3f0712a9072752bdd5", "lat": 38.903928666666665, "lon": -77.0473855, "rental_uris": {"android": "https://dc.lft.to/lastmile_qr_scan", "ios": "https://dc.lft.to/lastmile_qr_scan"}, "is_disabled": 0, "fusion_lat": 0.0, "name": "e27f68c3f21a7b3f0712a9072752bdd5", "fusion_lon": 0.0}, {"is_reserved": 0, "type": "electric_bike", "bike_id": "3d9edaaf9d1037567ac40bcd42af0e0f", "lat": 38.93076383333333, "lon": -77.02178633333334, "rental_uris": {"android": "https://dc.lft.to/lastmile_qr_scan", "ios": "https://dc.lft.to/lastmile_qr_scan"}, "is_disabled": 0, "fusion_lat": 0.0, "name": "3d9edaaf9d1037567ac40bcd42af0e0f", "fusion_lon": 0.0}, {"is_reserved": 0, "type": "electric_scooter", "bike_id": "fac326aacfad585e961ff9d6ccc0d29b", "lat": 38.894512666666664, "lon": -77.018942, "rental_uris": {"android": "https://dc.lft.to/lastmile_qr_scan", "ios": "https://dc.lft.to/lastmile_qr_scan"}, "is_disabled": 0, "fusion_lat": 0.0, "name": "fac326aacfad585e961ff9d6ccc0d29b", "fusion_lon": 0.0}, {"is_reserved": 0, "type": "electric_bike", "bike_id": "9cbb304866462ccd6ffe3c760479d092", "lat": 38.80384383333333, "lon": -76.98816933333333, "rental_uris": {"android": "https://dc.lft.to/lastmile_qr_scan", "ios": "https://dc.lft.to/lastmile_qr_scan"}, "is_disabled": 0, "fusion_lat": 0.0, "name": "9cbb304866462ccd6ffe3c760479d092", "fusion_lon": 0.0}, {"is_reserved": 0, "type": "electric_scooter", "bike_id": "5cd0c44e252194fd69330babbaa41682", "lat": 38.926566333333334, "lon": -77.03713466666666, "rental_uris": {"android": "https://dc.lft.to/lastmile_qr_scan", "ios": "https://dc.lft.to/lastmile_qr_scan"}, "is_disabled": 0, "fusion_lat": 0.0, "name": "5cd0c44e252194fd69330babbaa41682", "fusion_lon": 0.0}, {"is_reserved": 0, "type": "electric_scooter", "bike_id": "f195f2f925ecabbd0ab17069ce2f82b7", "lat": 38.90372433333334, "lon": -77.03214433333333, "rental_uris": {"android": "https://dc.lft.to/lastmile_qr_scan", "ios": "https://dc.lft.to/lastmile_qr_scan"}, "is_disabled": 0, "fusion_lat": 0.0, "name": "f195f2f925ecabbd0ab17069ce2f82b7", "fusion_lon": 0.0}, {"is_reserved": 0, "type": "electric_bike", "bike_id": "1bd989cf4889ef2604e7ccd54f5f609d", "lat": 38.83811333333333, "lon": -77.09522666666666, "rental_uris": {"android": "https://dc.lft.to/lastmile_qr_scan", "ios": "https://dc.lft.to/lastmile_qr_scan"}, "is_disabled": 0, "fusion_lat": 0.0, "name": "1bd989cf4889ef2604e7ccd54f5f609d", "fusion_lon": 0.0}, {"is_reserved": 0, "type": "electric_scooter", "bike_id": "d8cd292e3654a4330f776d94470260e0", "lat": 38.8921765, "lon": -77.02624833333333, "rental_uris": {"android": "https://dc.lft.to/lastmile_qr_scan", "ios": "https://dc.lft.to/lastmile_qr_scan"}, "is_disabled": 0, "fusion_lat": 0.0, "name": "d8cd292e3654a4330f776d94470260e0", "fusion_lon": 0.0}, {"is_reserved": 0, "type": "electric_scooter", "bike_id": "d1752d09c9adf93ea33c9b5d512a784d", "lat": 38.936598833333335, "lon": -77.05500766666667, "rental_uris": {"android": "https://dc.lft.to/lastmile_qr_scan", "ios": "https://dc.lft.to/lastmile_qr_scan"}, "is_disabled": 0, "fusion_lat": 0.0, "name": "d1752d09c9adf93ea33c9b5d512a784d", "fusion_lon": 0.0}, {"is_reserved": 0, "type": "electric_scooter", "bike_id": "63ebf8dd2f4fe29fc6ebc14d10655cba", "lat": 38.919275166666665, "lon": -77.03430466666667, "rental_uris": {"android": "https://dc.lft.to/lastmile_qr_scan", "ios": "https://dc.lft.to/lastmile_qr_scan"}, "is_disabled": 0, "fusion_lat": 0.0, "name": "63ebf8dd2f4fe29fc6ebc14d10655cba", "fusion_lon": 0.0}, {"is_reserved": 0, "type": "electric_scooter", "bike_id": "69e7eed1130a7fd9bd20a83c1e07b528", "lat": 38.93498233333333, "lon": -77.02002783333333, "rental_uris": {"android": "https://dc.lft.to/lastmile_qr_scan", "ios": "https://dc.lft.to/lastmile_qr_scan"}, "is_disabled": 0, "fusion_lat": 0.0, "name": "69e7eed1130a7fd9bd20a83c1e07b528", "fusion_lon": 0.0}, {"is_reserved": 0, "type": "electric_scooter", "bike_id": "c9e6348c42334ce65646e7ff07572e0b", "lat": 38.9319305, "lon": -77.028122, "rental_uris": {"android": "https://dc.lft.to/lastmile_qr_scan", "ios": "https://dc.lft.to/lastmile_qr_scan"}, "is_disabled": 0, "fusion_lat": 0.0, "name": "c9e6348c42334ce65646e7ff07572e0b", "fusion_lon": 0.0}, {"is_reserved": 0, "type": "electric_scooter", "bike_id": "ac60f4e53c2aea7c8dd6b06464cdc3ac", "lat": 38.92074566666667, "lon": -77.02392783333333, "rental_uris": {"android": "https://dc.lft.to/lastmile_qr_scan", "ios": "https://dc.lft.to/lastmile_qr_scan"}, "is_disabled": 0, "fusion_lat": 0.0, "name": "ac60f4e53c2aea7c8dd6b06464cdc3ac", "fusion_lon": 0.0}, {"is_reserved": 0, "type": "electric_scooter", "bike_id": "8b7097fd5220be28cf4bfc5b483fd8cf", "lat": 38.90249333333333, "lon": -77.02915233333333, "rental_uris": {"android": "https://dc.lft.to/lastmile_qr_scan", "ios": "https://dc.lft.to/lastmile_qr_scan"}, "is_disabled": 0, "fusion_lat": 0.0, "name": "8b7097fd5220be28cf4bfc5b483fd8cf", "fusion_lon": 0.0}, {"is_reserved": 0, "type": "electric_scooter", "bike_id": "125d958fba1d55608c3995cf08c4535f", "lat": 38.905453, "lon": -77.0221255, "rental_uris": {"android": "https://dc.lft.to/lastmile_qr_scan", "ios": "https://dc.lft.to/lastmile_qr_scan"}, "is_disabled": 0, "fusion_lat": 0.0, "name": "125d958fba1d55608c3995cf08c4535f", "fusion_lon": 0.0}, {"is_reserved": 0, "type": "electric_scooter", "bike_id": "6145e5eafa79c862ac878b251c4cf341", "lat": 38.91243766666667, "lon": -77.04336566666667, "rental_uris": {"android": "https://dc.lft.to/lastmile_qr_scan", "ios": "https://dc.lft.to/lastmile_qr_scan"}, "is_disabled": 0, "fusion_lat": 0.0, "name": "6145e5eafa79c862ac878b251c4cf341", "fusion_lon": 0.0}, {"is_reserved": 0, "type": "electric_bike", "bike_id": "2823e0bc42d2fd6051346886bb3952ef", "lat": 38.830171166666666, "lon": -76.9942305, "rental_uris": {"android": "https://dc.lft.to/lastmile_qr_scan", "ios": "https://dc.lft.to/lastmile_qr_scan"}, "is_disabled": 0, "fusion_lat": 0.0, "name": "2823e0bc42d2fd6051346886bb3952ef", "fusion_lon": 0.0}, {"is_reserved": 0, "type": "electric_scooter", "bike_id": "ba332f56e0f828558ff27a669ab8848a", "lat": 38.901860666666664, "lon": -77.001232, "rental_uris": {"android": "https://dc.lft.to/lastmile_qr_scan", "ios": "https://dc.lft.to/lastmile_qr_scan"}, "is_disabled": 0, "fusion_lat": 0.0, "name": "ba332f56e0f828558ff27a669ab8848a", "fusion_lon": 0.0}, {"is_reserved": 0, "type": "electric_scooter", "bike_id": "301473fa52fb31a514638cf05d5286e6", "lat": 38.917098, "lon": -77.03728183333334, "rental_uris": {"android": "https://dc.lft.to/lastmile_qr_scan", "ios": "https://dc.lft.to/lastmile_qr_scan"}, "is_disabled": 0, "fusion_lat": 0.0, "name": "301473fa52fb31a514638cf05d5286e6", "fusion_lon": 0.0}, {"is_reserved": 0, "type": "electric_scooter", "bike_id": "e1f67c6f0d683e0145623780cb6c752b", "lat": 38.919214833333335, "lon": -77.07274066666666, "rental_uris": {"android": "https://dc.lft.to/lastmile_qr_scan", "ios": "https://dc.lft.to/lastmile_qr_scan"}, "is_disabled": 0, "fusion_lat": 0.0, "name": "e1f67c6f0d683e0145623780cb6c752b", "fusion_lon": 0.0}, {"is_reserved": 0, "type": "electric_scooter", "bike_id": "05869bc016a72d68ea3ada990f8fcee9", "lat": 38.8922685, "lon": -77.04508716666666, "rental_uris": {"android": "https://dc.lft.to/lastmile_qr_scan", "ios": "https://dc.lft.to/lastmile_qr_scan"}, "is_disabled": 0, "fusion_lat": 0.0, "name": "05869bc016a72d68ea3ada990f8fcee9", "fusion_lon": 0.0}, {"is_reserved": 0, "type": "electric_scooter", "bike_id": "d74ce03945d99917788852f17792f03e", "lat": 38.893032, "lon": -77.0124015, "rental_uris": {"android": "https://dc.lft.to/lastmile_qr_scan", "ios": "https://dc.lft.to/lastmile_qr_scan"}, "is_disabled": 0, "fusion_lat": 0.0, "name": "d74ce03945d99917788852f17792f03e", "fusion_lon": 0.0}, {"is_reserved": 0, "type": "electric_bike", "bike_id": "510f72eff5dffeb8fec5b5e47a2f2956", "lat": 38.97310516666667, "lon": -76.99490033333333, "rental_uris": {"android": "https://dc.lft.to/lastmile_qr_scan", "ios": "https://dc.lft.to/lastmile_qr_scan"}, "is_disabled": 0, "fusion_lat": 0.0, "name": "510f72eff5dffeb8fec5b5e47a2f2956", "fusion_lon": 0.0}, {"is_reserved": 0, "type": "electric_scooter", "bike_id": "a23ff39686536db31013f4ae4b741d2d", "lat": 38.922823, "lon": -76.9976695, "rental_uris": {"android": "https://dc.lft.to/lastmile_qr_scan", "ios": "https://dc.lft.to/lastmile_qr_scan"}, "is_disabled": 0, "fusion_lat": 0.0, "name": "a23ff39686536db31013f4ae4b741d2d", "fusion_lon": 0.0}, {"is_reserved": 0, "type": "electric_scooter", "bike_id": "671969646ac0d9f6c28ea977cce75904", "lat": 38.89901483333333, "lon": -76.98002916666667, "rental_uris": {"android": "https://dc.lft.to/lastmile_qr_scan", "ios": "https://dc.lft.to/lastmile_qr_scan"}, "is_disabled": 0, "fusion_lat": 0.0, "name": "671969646ac0d9f6c28ea977cce75904", "fusion_lon": 0.0}, {"is_reserved": 0, "type": "electric_scooter", "bike_id": "8ce1dd0ba7ac5b43bddf50c43da66df0", "lat": 38.91471833333333, "lon": -77.03175533333334, "rental_uris": {"android": "https://dc.lft.to/lastmile_qr_scan", "ios": "https://dc.lft.to/lastmile_qr_scan"}, "is_disabled": 0, "fusion_lat": 0.0, "name": "8ce1dd0ba7ac5b43bddf50c43da66df0", "fusion_lon": 0.0}, {"is_reserved": 0, "type": "electric_scooter", "bike_id": "f21c0d40e48667b904a946ae5827f5c0", "lat": 38.9282385, "lon": -77.062193, "rental_uris": {"android": "https://dc.lft.to/lastmile_qr_scan", "ios": "https://dc.lft.to/lastmile_qr_scan"}, "is_disabled": 0, "fusion_lat": 0.0, "name": "f21c0d40e48667b904a946ae5827f5c0", "fusion_lon": 0.0}, {"is_reserved": 0, "type": "electric_scooter", "bike_id": "d6a479346403f2d0777a6a474d8ce888", "lat": 38.935919166666665, "lon": -77.03369333333333, "rental_uris": {"android": "https://dc.lft.to/lastmile_qr_scan", "ios": "https://dc.lft.to/lastmile_qr_scan"}, "is_disabled": 0, "fusion_lat": 0.0, "name": "d6a479346403f2d0777a6a474d8ce888", "fusion_lon": 0.0}, {"is_reserved": 0, "type": "electric_scooter", "bike_id": "956dcbd64ebcd2ab391fbbb58b4a26a6", "lat": 38.88731383333333, "lon": -77.02212766666666, "rental_uris": {"android": "https://dc.lft.to/lastmile_qr_scan", "ios": "https://dc.lft.to/lastmile_qr_scan"}, "is_disabled": 0, "fusion_lat": 0.0, "name": "956dcbd64ebcd2ab391fbbb58b4a26a6", "fusion_lon": 0.0}, {"is_reserved": 0, "type": "electric_scooter", "bike_id": "88b2c345281d2cab9deb7458d86f2a30", "lat": 38.91417666666667, "lon": -77.02826983333334, "rental_uris": {"android": "https://dc.lft.to/lastmile_qr_scan", "ios": "https://dc.lft.to/lastmile_qr_scan"}, "is_disabled": 0, "fusion_lat": 0.0, "name": "88b2c345281d2cab9deb7458d86f2a30", "fusion_lon": 0.0}, {"is_reserved": 0, "type": "electric_scooter", "bike_id": "bb8ae9fe75e26c8d791f519dc6223986", "lat": 38.903583166666664, "lon": -77.0219235, "rental_uris": {"android": "https://dc.lft.to/lastmile_qr_scan", "ios": "https://dc.lft.to/lastmile_qr_scan"}, "is_disabled": 0, "fusion_lat": 0.0, "name": "bb8ae9fe75e26c8d791f519dc6223986", "fusion_lon": 0.0}, {"is_reserved": 0, "type": "electric_scooter", "bike_id": "ae95e89fdf43f754d74cecc7190a5bd8", "lat": 38.90307583333333, "lon": -77.024087, "rental_uris": {"android": "https://dc.lft.to/lastmile_qr_scan", "ios": "https://dc.lft.to/lastmile_qr_scan"}, "is_disabled": 0, "fusion_lat": 0.0, "name": "ae95e89fdf43f754d74cecc7190a5bd8", "fusion_lon": 0.0}, {"is_reserved": 0, "type": "electric_scooter", "bike_id": "58965678cccd7dbec389cae971530f2d", "lat": 38.95179383333333, "lon": -77.0126355, "rental_uris": {"android": "https://dc.lft.to/lastmile_qr_scan", "ios": "https://dc.lft.to/lastmile_qr_scan"}, "is_disabled": 0, "fusion_lat": 0.0, "name": "58965678cccd7dbec389cae971530f2d", "fusion_lon": 0.0}, {"is_reserved": 0, "type": "electric_scooter", "bike_id": "1a3090a1f4866725c597333874fb27bc", "lat": 38.9203115, "lon": -76.99568633333334, "rental_uris": {"android": "https://dc.lft.to/lastmile_qr_scan", "ios": "https://dc.lft.to/lastmile_qr_scan"}, "is_disabled": 0, "fusion_lat": 0.0, "name": "1a3090a1f4866725c597333874fb27bc", "fusion_lon": 0.0}, {"is_reserved": 0, "type": "electric_scooter", "bike_id": "b696bc5675c13389fb43e747f95f898d", "lat": 38.8954525, "lon": -76.98336983333333, "rental_uris": {"android": "https://dc.lft.to/lastmile_qr_scan", "ios": "https://dc.lft.to/lastmile_qr_scan"}, "is_disabled": 0, "fusion_lat": 0.0, "name": "b696bc5675c13389fb43e747f95f898d", "fusion_lon": 0.0}, {"is_reserved": 0, "type": "electric_scooter", "bike_id": "cb34800cc7bfd1a3bfca772738213b41", "lat": 38.909715166666665, "lon": -77.01108183333334, "rental_uris": {"android": "https://dc.lft.to/lastmile_qr_scan", "ios": "https://dc.lft.to/lastmile_qr_scan"}, "is_disabled": 0, "fusion_lat": 0.0, "name": "cb34800cc7bfd1a3bfca772738213b41", "fusion_lon": 0.0}, {"is_reserved": 0, "type": "electric_scooter", "bike_id": "c3e9630eba9942bff817d280deda8713", "lat": 38.860148, "lon": -76.97000066666666, "rental_uris": {"android": "https://dc.lft.to/lastmile_qr_scan", "ios": "https://dc.lft.to/lastmile_qr_scan"}, "is_disabled": 0, "fusion_lat": 0.0, "name": "c3e9630eba9942bff817d280deda8713", "fusion_lon": 0.0}, {"is_reserved": 0, "type": "electric_scooter", "bike_id": "78dc4fb960dfce126ebd533f7e8134ab", "lat": 38.93074416666666, "lon": -77.028146, "rental_uris": {"android": "https://dc.lft.to/lastmile_qr_scan", "ios": "https://dc.lft.to/lastmile_qr_scan"}, "is_disabled": 0, "fusion_lat": 0.0, "name": "78dc4fb960dfce126ebd533f7e8134ab", "fusion_lon": 0.0}, {"is_reserved": 0, "type": "electric_scooter", "bike_id": "a99df3f7a0c3aa5b4c549b0f1f971334", "lat": 38.905708833333335, "lon": -77.00608833333334, "rental_uris": {"android": "https://dc.lft.to/lastmile_qr_scan", "ios": "https://dc.lft.to/lastmile_qr_scan"}, "is_disabled": 0, "fusion_lat": 0.0, "name": "a99df3f7a0c3aa5b4c549b0f1f971334", "fusion_lon": 0.0}, {"is_reserved": 0, "type": "electric_scooter", "bike_id": "d9f6c6100532fdf846ed38cdd1b81cbd", "lat": 38.935893166666666, "lon": -77.05715183333334, "rental_uris": {"android": "https://dc.lft.to/lastmile_qr_scan", "ios": "https://dc.lft.to/lastmile_qr_scan"}, "is_disabled": 0, "fusion_lat": 0.0, "name": "d9f6c6100532fdf846ed38cdd1b81cbd", "fusion_lon": 0.0}, {"is_reserved": 0, "type": "electric_scooter", "bike_id": "0010e5d4e2580bdadc7b2129e01f8d9c", "lat": 38.93256133333333, "lon": -77.032593, "rental_uris": {"android": "https://dc.lft.to/lastmile_qr_scan", "ios": "https://dc.lft.to/lastmile_qr_scan"}, "is_disabled": 0, "fusion_lat": 0.0, "name": "0010e5d4e2580bdadc7b2129e01f8d9c", "fusion_lon": 0.0}, {"is_reserved": 0, "type": "electric_scooter", "bike_id": "1a7bde07ff0f4bf3aa26b495d844371c", "lat": 38.9060875, "lon": -77.02586883333333, "rental_uris": {"android": "https://dc.lft.to/lastmile_qr_scan", "ios": "https://dc.lft.to/lastmile_qr_scan"}, "is_disabled": 0, "fusion_lat": 0.0, "name": "1a7bde07ff0f4bf3aa26b495d844371c", "fusion_lon": 0.0}, {"is_reserved": 0, "type": "electric_scooter", "bike_id": "f4cfe49de56a3a73dfd53bc61153bc3f", "lat": 38.92356516666667, "lon": -77.02012533333334, "rental_uris": {"android": "https://dc.lft.to/lastmile_qr_scan", "ios": "https://dc.lft.to/lastmile_qr_scan"}, "is_disabled": 0, "fusion_lat": 0.0, "name": "f4cfe49de56a3a73dfd53bc61153bc3f", "fusion_lon": 0.0}, {"is_reserved": 0, "type": "electric_scooter", "bike_id": "d2e4685878ec63d461de2415fe411c47", "lat": 38.90502766666667, "lon": -77.06739266666666, "rental_uris": {"android": "https://dc.lft.to/lastmile_qr_scan", "ios": "https://dc.lft.to/lastmile_qr_scan"}, "is_disabled": 0, "fusion_lat": 0.0, "name": "d2e4685878ec63d461de2415fe411c47", "fusion_lon": 0.0}, {"is_reserved": 0, "type": "electric_scooter", "bike_id": "c8c4681122a1e3f1f311f1c7cfee3981", "lat": 38.948207333333336, "lon": -77.02583533333333, "rental_uris": {"android": "https://dc.lft.to/lastmile_qr_scan", "ios": "https://dc.lft.to/lastmile_qr_scan"}, "is_disabled": 0, "fusion_lat": 0.0, "name": "c8c4681122a1e3f1f311f1c7cfee3981", "fusion_lon": 0.0}, {"is_reserved": 0, "type": "electric_scooter", "bike_id": "4d83383dad209e5a3ea4b905541275d1", "lat": 38.8862745, "lon": -77.0335245, "rental_uris": {"android": "https://dc.lft.to/lastmile_qr_scan", "ios": "https://dc.lft.to/lastmile_qr_scan"}, "is_disabled": 0, "fusion_lat": 0.0, "name": "4d83383dad209e5a3ea4b905541275d1", "fusion_lon": 0.0}, {"is_reserved": 0, "type": "electric_scooter", "bike_id": "7ba7dbd8dc8dfa77210471af84aae7fc", "lat": 38.865762, "lon": -76.99025216666666, "rental_uris": {"android": "https://dc.lft.to/lastmile_qr_scan", "ios": "https://dc.lft.to/lastmile_qr_scan"}, "is_disabled": 0, "fusion_lat": 0.0, "name": "7ba7dbd8dc8dfa77210471af84aae7fc", "fusion_lon": 0.0}, {"is_reserved": 0, "type": "electric_scooter", "bike_id": "e724e29029c9f8fc37da74495d95dfd5", "lat": 38.919245, "lon": -77.00975583333333, "rental_uris": {"android": "https://dc.lft.to/lastmile_qr_scan", "ios": "https://dc.lft.to/lastmile_qr_scan"}, "is_disabled": 0, "fusion_lat": 0.0, "name": "e724e29029c9f8fc37da74495d95dfd5", "fusion_lon": 0.0}, {"is_reserved": 0, "type": "electric_scooter", "bike_id": "17742c50606369916ab30dbe0a17746d", "lat": 38.905879, "lon": -77.046543, "rental_uris": {"android": "https://dc.lft.to/lastmile_qr_scan", "ios": "https://dc.lft.to/lastmile_qr_scan"}, "is_disabled": 0, "fusion_lat": 0.0, "name": "17742c50606369916ab30dbe0a17746d", "fusion_lon": 0.0}, {"is_reserved": 0, "type": "electric_scooter", "bike_id": "b4d2c3553dc3540258c068250f0089ed", "lat": 38.92406366666667, "lon": -77.0298105, "rental_uris": {"android": "https://dc.lft.to/lastmile_qr_scan", "ios": "https://dc.lft.to/lastmile_qr_scan"}, "is_disabled": 0, "fusion_lat": 0.0, "name": "b4d2c3553dc3540258c068250f0089ed", "fusion_lon": 0.0}, {"is_reserved": 0, "type": "electric_scooter", "bike_id": "83c245ea80905d62340ece3c29cd21fe", "lat": 38.912944833333334, "lon": -76.98545166666666, "rental_uris": {"android": "https://dc.lft.to/lastmile_qr_scan", "ios": "https://dc.lft.to/lastmile_qr_scan"}, "is_disabled": 0, "fusion_lat": 0.0, "name": "83c245ea80905d62340ece3c29cd21fe", "fusion_lon": 0.0}, {"is_reserved": 0, "type": "electric_scooter", "bike_id": "6a862661260c37486df22442819d7f13", "lat": 38.92868266666667, "lon": -77.027124, "rental_uris": {"android": "https://dc.lft.to/lastmile_qr_scan", "ios": "https://dc.lft.to/lastmile_qr_scan"}, "is_disabled": 0, "fusion_lat": 0.0, "name": "6a862661260c37486df22442819d7f13", "fusion_lon": 0.0}, {"is_reserved": 0, "type": "electric_scooter", "bike_id": "4ab64b5c8742cf833150be47dc1625b0", "lat": 38.91136066666667, "lon": -77.03767216666667, "rental_uris": {"android": "https://dc.lft.to/lastmile_qr_scan", "ios": "https://dc.lft.to/lastmile_qr_scan"}, "is_disabled": 0, "fusion_lat": 0.0, "name": "4ab64b5c8742cf833150be47dc1625b0", "fusion_lon": 0.0}, {"is_reserved": 0, "type": "electric_scooter", "bike_id": "eb0d8004a0394983274b32d30fadade2", "lat": 38.893639, "lon": -77.00336916666667, "rental_uris": {"android": "https://dc.lft.to/lastmile_qr_scan", "ios": "https://dc.lft.to/lastmile_qr_scan"}, "is_disabled": 0, "fusion_lat": 0.0, "name": "eb0d8004a0394983274b32d30fadade2", "fusion_lon": 0.0}, {"is_reserved": 0, "type": "electric_scooter", "bike_id": "578ff20661a2514af82fcfde00a3230c", "lat": 38.91868866666667, "lon": -77.036385, "rental_uris": {"android": "https://dc.lft.to/lastmile_qr_scan", "ios": "https://dc.lft.to/lastmile_qr_scan"}, "is_disabled": 0, "fusion_lat": 0.0, "name": "578ff20661a2514af82fcfde00a3230c", "fusion_lon": 0.0}, {"is_reserved": 0, "type": "electric_scooter", "bike_id": "63c16e33c5d6935fe25936737b712fc6", "lat": 38.91259183333333, "lon": -77.00781483333333, "rental_uris": {"android": "https://dc.lft.to/lastmile_qr_scan", "ios": "https://dc.lft.to/lastmile_qr_scan"}, "is_disabled": 0, "fusion_lat": 0.0, "name": "63c16e33c5d6935fe25936737b712fc6", "fusion_lon": 0.0}, {"is_reserved": 0, "type": "electric_scooter", "bike_id": "83e22a5769491001ea0ab4c89079f4f4", "lat": 38.914431, "lon": -77.03203483333333, "rental_uris": {"android": "https://dc.lft.to/lastmile_qr_scan", "ios": "https://dc.lft.to/lastmile_qr_scan"}, "is_disabled": 0, "fusion_lat": 0.0, "name": "83e22a5769491001ea0ab4c89079f4f4", "fusion_lon": 0.0}, {"is_reserved": 0, "type": "electric_scooter", "bike_id": "7270a0233da2a8c82a2eb85e98f69d37", "lat": 38.897486666666666, "lon": -76.99769033333334, "rental_uris": {"android": "https://dc.lft.to/lastmile_qr_scan", "ios": "https://dc.lft.to/lastmile_qr_scan"}, "is_disabled": 0, "fusion_lat": 0.0, "name": "7270a0233da2a8c82a2eb85e98f69d37", "fusion_lon": 0.0}, {"is_reserved": 0, "type": "electric_scooter", "bike_id": "e504a57afcda6456c3abc92e2a3c4082", "lat": 38.9163655, "lon": -77.023718, "rental_uris": {"android": "https://dc.lft.to/lastmile_qr_scan", "ios": "https://dc.lft.to/lastmile_qr_scan"}, "is_disabled": 0, "fusion_lat": 0.0, "name": "e504a57afcda6456c3abc92e2a3c4082", "fusion_lon": 0.0}, {"is_reserved": 0, "type": "electric_bike", "bike_id": "0e547b3bee76a4db58b72ac10131977c", "lat": 38.886038666666664, "lon": -77.14231866666667, "rental_uris": {"android": "https://dc.lft.to/lastmile_qr_scan", "ios": "https://dc.lft.to/lastmile_qr_scan"}, "is_disabled": 0, "fusion_lat": 0.0, "name": "0e547b3bee76a4db58b72ac10131977c", "fusion_lon": 0.0}, {"is_reserved": 0, "type": "electric_scooter", "bike_id": "071975555c840b01e2caa2236eaeb1a2", "lat": 38.9156235, "lon": -77.04000916666666, "rental_uris": {"android": "https://dc.lft.to/lastmile_qr_scan", "ios": "https://dc.lft.to/lastmile_qr_scan"}, "is_disabled": 0, "fusion_lat": 0.0, "name": "071975555c840b01e2caa2236eaeb1a2", "fusion_lon": 0.0}, {"is_reserved": 0, "type": "electric_scooter", "bike_id": "8a1b4a58a0df7d5f3b7d463a58e05c8a", "lat": 38.89849383333333, "lon": -77.02941466666667, "rental_uris": {"android": "https://dc.lft.to/lastmile_qr_scan", "ios": "https://dc.lft.to/lastmile_qr_scan"}, "is_disabled": 0, "fusion_lat": 0.0, "name": "8a1b4a58a0df7d5f3b7d463a58e05c8a", "fusion_lon": 0.0}, {"is_reserved": 0, "type": "electric_bike", "bike_id": "41768152081d36021b7fc688ec56cfd0", "lat": 38.94666516666667, "lon": -76.99336116666667, "rental_uris": {"android": "https://dc.lft.to/lastmile_qr_scan", "ios": "https://dc.lft.to/lastmile_qr_scan"}, "is_disabled": 0, "fusion_lat": 0.0, "name": "41768152081d36021b7fc688ec56cfd0", "fusion_lon": 0.0}, {"is_reserved": 0, "type": "electric_scooter", "bike_id": "0ebd3c2e06bb9b9cc3d9054a952a0bea", "lat": 38.89934066666667, "lon": -77.03304216666666, "rental_uris": {"android": "https://dc.lft.to/lastmile_qr_scan", "ios": "https://dc.lft.to/lastmile_qr_scan"}, "is_disabled": 0, "fusion_lat": 0.0, "name": "0ebd3c2e06bb9b9cc3d9054a952a0bea", "fusion_lon": 0.0}, {"is_reserved": 0, "type": "electric_scooter", "bike_id": "bda3a71ea02662d201b6c4473bc8cf7b", "lat": 38.89236966666667, "lon": -77.04879133333333, "rental_uris": {"android": "https://dc.lft.to/lastmile_qr_scan", "ios": "https://dc.lft.to/lastmile_qr_scan"}, "is_disabled": 0, "fusion_lat": 0.0, "name": "bda3a71ea02662d201b6c4473bc8cf7b", "fusion_lon": 0.0}, {"is_reserved": 0, "type": "electric_scooter", "bike_id": "6ee3897448d69f4a67426cedfbb80bfd", "lat": 38.9639965, "lon": -77.02768333333333, "rental_uris": {"android": "https://dc.lft.to/lastmile_qr_scan", "ios": "https://dc.lft.to/lastmile_qr_scan"}, "is_disabled": 0, "fusion_lat": 0.0, "name": "6ee3897448d69f4a67426cedfbb80bfd", "fusion_lon": 0.0}, {"is_reserved": 0, "type": "electric_scooter", "bike_id": "98a0f00fc21af17d484b1cb19a574c20", "lat": 38.917858333333335, "lon": -77.0318995, "rental_uris": {"android": "https://dc.lft.to/lastmile_qr_scan", "ios": "https://dc.lft.to/lastmile_qr_scan"}, "is_disabled": 0, "fusion_lat": 0.0, "name": "98a0f00fc21af17d484b1cb19a574c20", "fusion_lon": 0.0}, {"is_reserved": 0, "type": "electric_scooter", "bike_id": "a95a7b3e1e8b079b8b4494b3e51c3520", "lat": 38.922163166666664, "lon": -77.04335466666667, "rental_uris": {"android": "https://dc.lft.to/lastmile_qr_scan", "ios": "https://dc.lft.to/lastmile_qr_scan"}, "is_disabled": 0, "fusion_lat": 0.0, "name": "a95a7b3e1e8b079b8b4494b3e51c3520", "fusion_lon": 0.0}, {"is_reserved": 0, "type": "electric_scooter", "bike_id": "6346c9eb899f1e8387ce77a000adcc78", "lat": 38.89825833333333, "lon": -76.94652683333334, "rental_uris": {"android": "https://dc.lft.to/lastmile_qr_scan", "ios": "https://dc.lft.to/lastmile_qr_scan"}, "is_disabled": 0, "fusion_lat": 0.0, "name": "6346c9eb899f1e8387ce77a000adcc78", "fusion_lon": 0.0}, {"is_reserved": 0, "type": "electric_scooter", "bike_id": "7107a72aebabda5937eec7bb4efeee9d", "lat": 38.92419866666667, "lon": -77.01951333333334, "rental_uris": {"android": "https://dc.lft.to/lastmile_qr_scan", "ios": "https://dc.lft.to/lastmile_qr_scan"}, "is_disabled": 0, "fusion_lat": 0.0, "name": "7107a72aebabda5937eec7bb4efeee9d", "fusion_lon": 0.0}, {"is_reserved": 0, "type": "electric_scooter", "bike_id": "9dc72248fb3e2d0c1c83e1889c8bfd93", "lat": 38.907013666666664, "lon": -77.034759, "rental_uris": {"android": "https://dc.lft.to/lastmile_qr_scan", "ios": "https://dc.lft.to/lastmile_qr_scan"}, "is_disabled": 0, "fusion_lat": 0.0, "name": "9dc72248fb3e2d0c1c83e1889c8bfd93", "fusion_lon": 0.0}, {"is_reserved": 0, "type": "electric_scooter", "bike_id": "2ded38d8c2a77e7be6d5ca3d6b7ba289", "lat": 38.936288166666664, "lon": -77.03655183333333, "rental_uris": {"android": "https://dc.lft.to/lastmile_qr_scan", "ios": "https://dc.lft.to/lastmile_qr_scan"}, "is_disabled": 0, "fusion_lat": 0.0, "name": "2ded38d8c2a77e7be6d5ca3d6b7ba289", "fusion_lon": 0.0}, {"is_reserved": 0, "type": "electric_scooter", "bike_id": "4d1baf98c60b9b451d351482c3f2b759", "lat": 38.923362, "lon": -77.01898083333333, "rental_uris": {"android": "https://dc.lft.to/lastmile_qr_scan", "ios": "https://dc.lft.to/lastmile_qr_scan"}, "is_disabled": 0, "fusion_lat": 0.0, "name": "4d1baf98c60b9b451d351482c3f2b759", "fusion_lon": 0.0}, {"is_reserved": 0, "type": "electric_bike", "bike_id": "e00a3c42002ea6b6c4a09b6c4953bdb4", "lat": 38.9649925, "lon": -77.10333083333333, "rental_uris": {"android": "https://dc.lft.to/lastmile_qr_scan", "ios": "https://dc.lft.to/lastmile_qr_scan"}, "is_disabled": 0, "fusion_lat": 0.0, "name": "e00a3c42002ea6b6c4a09b6c4953bdb4", "fusion_lon": 0.0}, {"is_reserved": 0, "type": "electric_bike", "bike_id": "bdcd96cacc62e76c18695320a309613d", "lat": 38.9993455, "lon": -77.05136183333333, "rental_uris": {"android": "https://dc.lft.to/lastmile_qr_scan", "ios": "https://dc.lft.to/lastmile_qr_scan"}, "is_disabled": 0, "fusion_lat": 0.0, "name": "bdcd96cacc62e76c18695320a309613d", "fusion_lon": 0.0}, {"is_reserved": 0, "type": "electric_scooter", "bike_id": "ba3c26b1420a4a86c3458c386ab1a6b7", "lat": 38.920976, "lon": -77.04382416666667, "rental_uris": {"android": "https://dc.lft.to/lastmile_qr_scan", "ios": "https://dc.lft.to/lastmile_qr_scan"}, "is_disabled": 0, "fusion_lat": 0.0, "name": "ba3c26b1420a4a86c3458c386ab1a6b7", "fusion_lon": 0.0}, {"is_reserved": 0, "type": "electric_scooter", "bike_id": "edbf6b8b936f11cc282bed5e99b1182d", "lat": 38.90086866666667, "lon": -77.05018483333333, "rental_uris": {"android": "https://dc.lft.to/lastmile_qr_scan", "ios": "https://dc.lft.to/lastmile_qr_scan"}, "is_disabled": 0, "fusion_lat": 0.0, "name": "edbf6b8b936f11cc282bed5e99b1182d", "fusion_lon": 0.0}, {"is_reserved": 0, "type": "electric_scooter", "bike_id": "fa2f3d02379b27dff535a4a4418a2186", "lat": 38.909547333333336, "lon": -77.04888583333333, "rental_uris": {"android": "https://dc.lft.to/lastmile_qr_scan", "ios": "https://dc.lft.to/lastmile_qr_scan"}, "is_disabled": 0, "fusion_lat": 0.0, "name": "fa2f3d02379b27dff535a4a4418a2186", "fusion_lon": 0.0}, {"is_reserved": 0, "type": "electric_scooter", "bike_id": "5e38960eb1dd6a0f22848f3fcf73ae0b", "lat": 38.913405833333336, "lon": -77.03203733333334, "rental_uris": {"android": "https://dc.lft.to/lastmile_qr_scan", "ios": "https://dc.lft.to/lastmile_qr_scan"}, "is_disabled": 0, "fusion_lat": 0.0, "name": "5e38960eb1dd6a0f22848f3fcf73ae0b", "fusion_lon": 0.0}, {"is_reserved": 0, "type": "electric_scooter", "bike_id": "d5f569211641161924fe71ad88cb19e3", "lat": 38.887298333333334, "lon": -77.022097, "rental_uris": {"android": "https://dc.lft.to/lastmile_qr_scan", "ios": "https://dc.lft.to/lastmile_qr_scan"}, "is_disabled": 0, "fusion_lat": 0.0, "name": "d5f569211641161924fe71ad88cb19e3", "fusion_lon": 0.0}, {"is_reserved": 0, "type": "electric_scooter", "bike_id": "45e178e1e074b7e162b370c2a6b3e50d", "lat": 38.88380516666667, "lon": -76.99358666666667, "rental_uris": {"android": "https://dc.lft.to/lastmile_qr_scan", "ios": "https://dc.lft.to/lastmile_qr_scan"}, "is_disabled": 0, "fusion_lat": 0.0, "name": "45e178e1e074b7e162b370c2a6b3e50d", "fusion_lon": 0.0}, {"is_reserved": 0, "type": "electric_scooter", "bike_id": "b0ae218dedd30b22ccdc2826e7d36ea4", "lat": 38.900034, "lon": -77.04636283333333, "rental_uris": {"android": "https://dc.lft.to/lastmile_qr_scan", "ios": "https://dc.lft.to/lastmile_qr_scan"}, "is_disabled": 0, "fusion_lat": 0.0, "name": "b0ae218dedd30b22ccdc2826e7d36ea4", "fusion_lon": 0.0}, {"is_reserved": 0, "type": "electric_scooter", "bike_id": "1ea049690fccba87d8aa7261d450ba6d", "lat": 38.92409966666666, "lon": -77.036434, "rental_uris": {"android": "https://dc.lft.to/lastmile_qr_scan", "ios": "https://dc.lft.to/lastmile_qr_scan"}, "is_disabled": 0, "fusion_lat": 0.0, "name": "1ea049690fccba87d8aa7261d450ba6d", "fusion_lon": 0.0}, {"is_reserved": 0, "type": "electric_scooter", "bike_id": "7c9f557cc3b065fa82ec4d89473d5d1e", "lat": 38.88423933333333, "lon": -77.02496966666666, "rental_uris": {"android": "https://dc.lft.to/lastmile_qr_scan", "ios": "https://dc.lft.to/lastmile_qr_scan"}, "is_disabled": 0, "fusion_lat": 0.0, "name": "7c9f557cc3b065fa82ec4d89473d5d1e", "fusion_lon": 0.0}, {"is_reserved": 0, "type": "electric_scooter", "bike_id": "2026e5941c6fb7b3807cb8a64766e11a", "lat": 38.92123933333333, "lon": -77.036664, "rental_uris": {"android": "https://dc.lft.to/lastmile_qr_scan", "ios": "https://dc.lft.to/lastmile_qr_scan"}, "is_disabled": 0, "fusion_lat": 0.0, "name": "2026e5941c6fb7b3807cb8a64766e11a", "fusion_lon": 0.0}, {"is_reserved": 0, "type": "electric_scooter", "bike_id": "927e87554a3bf832d00e5c3d3fba6e43", "lat": 38.92743516666667, "lon": -77.05353183333334, "rental_uris": {"android": "https://dc.lft.to/lastmile_qr_scan", "ios": "https://dc.lft.to/lastmile_qr_scan"}, "is_disabled": 0, "fusion_lat": 0.0, "name": "927e87554a3bf832d00e5c3d3fba6e43", "fusion_lon": 0.0}, {"is_reserved": 0, "type": "electric_scooter", "bike_id": "1b53f9b6ae2444437c9bd3d2585dc4bb", "lat": 38.89968983333333, "lon": -76.938503, "rental_uris": {"android": "https://dc.lft.to/lastmile_qr_scan", "ios": "https://dc.lft.to/lastmile_qr_scan"}, "is_disabled": 0, "fusion_lat": 0.0, "name": "1b53f9b6ae2444437c9bd3d2585dc4bb", "fusion_lon": 0.0}, {"is_reserved": 0, "type": "electric_scooter", "bike_id": "e35337cb8749c47deb0ecb8991b8628a", "lat": 38.92232416666667, "lon": -77.02238416666667, "rental_uris": {"android": "https://dc.lft.to/lastmile_qr_scan", "ios": "https://dc.lft.to/lastmile_qr_scan"}, "is_disabled": 0, "fusion_lat": 0.0, "name": "e35337cb8749c47deb0ecb8991b8628a", "fusion_lon": 0.0}, {"is_reserved": 0, "type": "electric_scooter", "bike_id": "6202a51e348c1f54105bfdd3d0facc54", "lat": 38.8922285, "lon": -77.04336233333333, "rental_uris": {"android": "https://dc.lft.to/lastmile_qr_scan", "ios": "https://dc.lft.to/lastmile_qr_scan"}, "is_disabled": 0, "fusion_lat": 0.0, "name": "6202a51e348c1f54105bfdd3d0facc54", "fusion_lon": 0.0}, {"is_reserved": 0, "type": "electric_scooter", "bike_id": "c54b38a453d4d99deb1f80d83e0642b8", "lat": 38.874748333333336, "lon": -77.017463, "rental_uris": {"android": "https://dc.lft.to/lastmile_qr_scan", "ios": "https://dc.lft.to/lastmile_qr_scan"}, "is_disabled": 0, "fusion_lat": 0.0, "name": "c54b38a453d4d99deb1f80d83e0642b8", "fusion_lon": 0.0}, {"is_reserved": 0, "type": "electric_scooter", "bike_id": "b88c94c5bd6c13f3fe0e54db0764ee44", "lat": 38.894529166666665, "lon": -77.045474, "rental_uris": {"android": "https://dc.lft.to/lastmile_qr_scan", "ios": "https://dc.lft.to/lastmile_qr_scan"}, "is_disabled": 0, "fusion_lat": 0.0, "name": "b88c94c5bd6c13f3fe0e54db0764ee44", "fusion_lon": 0.0}, {"is_reserved": 0, "type": "electric_scooter", "bike_id": "2a0f795aee81254a39f19ce97be107c8", "lat": 38.94041983333334, "lon": -77.02908833333333, "rental_uris": {"android": "https://dc.lft.to/lastmile_qr_scan", "ios": "https://dc.lft.to/lastmile_qr_scan"}, "is_disabled": 0, "fusion_lat": 0.0, "name": "2a0f795aee81254a39f19ce97be107c8", "fusion_lon": 0.0}, {"is_reserved": 0, "type": "electric_scooter", "bike_id": "9ed0f4d3c36a8c8b1e52e82ade18a46c", "lat": 38.92325783333333, "lon": -77.00890533333333, "rental_uris": {"android": "https://dc.lft.to/lastmile_qr_scan", "ios": "https://dc.lft.to/lastmile_qr_scan"}, "is_disabled": 0, "fusion_lat": 0.0, "name": "9ed0f4d3c36a8c8b1e52e82ade18a46c", "fusion_lon": 0.0}, {"is_reserved": 0, "type": "electric_scooter", "bike_id": "76ff71f0393462f89544bd6c3231e4f2", "lat": 38.924302833333336, "lon": -76.99679766666667, "rental_uris": {"android": "https://dc.lft.to/lastmile_qr_scan", "ios": "https://dc.lft.to/lastmile_qr_scan"}, "is_disabled": 0, "fusion_lat": 0.0, "name": "76ff71f0393462f89544bd6c3231e4f2", "fusion_lon": 0.0}, {"is_reserved": 0, "type": "electric_scooter", "bike_id": "9f608ff275bb700a32d1923a9f589118", "lat": 38.9055695, "lon": -77.04175666666667, "rental_uris": {"android": "https://dc.lft.to/lastmile_qr_scan", "ios": "https://dc.lft.to/lastmile_qr_scan"}, "is_disabled": 0, "fusion_lat": 0.0, "name": "9f608ff275bb700a32d1923a9f589118", "fusion_lon": 0.0}, {"is_reserved": 0, "type": "electric_bike", "bike_id": "35bfab0c3c7bc7e4d870c2046ddca0bd", "lat": 38.84921966666667, "lon": -77.08376466666667, "rental_uris": {"android": "https://dc.lft.to/lastmile_qr_scan", "ios": "https://dc.lft.to/lastmile_qr_scan"}, "is_disabled": 0, "fusion_lat": 0.0, "name": "35bfab0c3c7bc7e4d870c2046ddca0bd", "fusion_lon": 0.0}, {"is_reserved": 0, "type": "electric_scooter", "bike_id": "032b40e792602d4066fe0a3c478938fd", "lat": 38.89569216666666, "lon": -76.98215883333333, "rental_uris": {"android": "https://dc.lft.to/lastmile_qr_scan", "ios": "https://dc.lft.to/lastmile_qr_scan"}, "is_disabled": 0, "fusion_lat": 0.0, "name": "032b40e792602d4066fe0a3c478938fd", "fusion_lon": 0.0}, {"is_reserved": 0, "type": "electric_scooter", "bike_id": "4600f9a47dc1cd0d966dc18ee0945247", "lat": 38.91069933333333, "lon": -76.99138016666667, "rental_uris": {"android": "https://dc.lft.to/lastmile_qr_scan", "ios": "https://dc.lft.to/lastmile_qr_scan"}, "is_disabled": 0, "fusion_lat": 0.0, "name": "4600f9a47dc1cd0d966dc18ee0945247", "fusion_lon": 0.0}, {"is_reserved": 0, "type": "electric_scooter", "bike_id": "6de59990fac83167bc3bc3137e841400", "lat": 38.915454833333335, "lon": -77.02084666666667, "rental_uris": {"android": "https://dc.lft.to/lastmile_qr_scan", "ios": "https://dc.lft.to/lastmile_qr_scan"}, "is_disabled": 0, "fusion_lat": 0.0, "name": "6de59990fac83167bc3bc3137e841400", "fusion_lon": 0.0}, {"is_reserved": 0, "type": "electric_scooter", "bike_id": "fe4531174d2782818994eac4e72d44f6", "lat": 38.902068166666666, "lon": -77.04882116666667, "rental_uris": {"android": "https://dc.lft.to/lastmile_qr_scan", "ios": "https://dc.lft.to/lastmile_qr_scan"}, "is_disabled": 0, "fusion_lat": 0.0, "name": "fe4531174d2782818994eac4e72d44f6", "fusion_lon": 0.0}, {"is_reserved": 0, "type": "electric_scooter", "bike_id": "5d4112ed1aca1beccadc3ea575798999", "lat": 38.923164166666666, "lon": -77.02800566666667, "rental_uris": {"android": "https://dc.lft.to/lastmile_qr_scan", "ios": "https://dc.lft.to/lastmile_qr_scan"}, "is_disabled": 0, "fusion_lat": 0.0, "name": "5d4112ed1aca1beccadc3ea575798999", "fusion_lon": 0.0}, {"is_reserved": 0, "type": "electric_scooter", "bike_id": "3e221980279d899c6d459fdc4b08687f", "lat": 38.92258916666667, "lon": -77.0192405, "rental_uris": {"android": "https://dc.lft.to/lastmile_qr_scan", "ios": "https://dc.lft.to/lastmile_qr_scan"}, "is_disabled": 0, "fusion_lat": 0.0, "name": "3e221980279d899c6d459fdc4b08687f", "fusion_lon": 0.0}, {"is_reserved": 0, "type": "electric_scooter", "bike_id": "37c6207a345d3987f8462434e497ad57", "lat": 38.901013, "lon": -77.0271325, "rental_uris": {"android": "https://dc.lft.to/lastmile_qr_scan", "ios": "https://dc.lft.to/lastmile_qr_scan"}, "is_disabled": 0, "fusion_lat": 0.0, "name": "37c6207a345d3987f8462434e497ad57", "fusion_lon": 0.0}, {"is_reserved": 0, "type": "electric_scooter", "bike_id": "458ec9e1801cb6b4a8d7bf78f5f71af9", "lat": 38.89505166666667, "lon": -77.04641566666666, "rental_uris": {"android": "https://dc.lft.to/lastmile_qr_scan", "ios": "https://dc.lft.to/lastmile_qr_scan"}, "is_disabled": 0, "fusion_lat": 0.0, "name": "458ec9e1801cb6b4a8d7bf78f5f71af9", "fusion_lon": 0.0}, {"is_reserved": 0, "type": "electric_scooter", "bike_id": "3311c97ff63ff218971a9dbc060aafd8", "lat": 38.90140733333333, "lon": -77.04161533333334, "rental_uris": {"android": "https://dc.lft.to/lastmile_qr_scan", "ios": "https://dc.lft.to/lastmile_qr_scan"}, "is_disabled": 0, "fusion_lat": 0.0, "name": "3311c97ff63ff218971a9dbc060aafd8", "fusion_lon": 0.0}, {"is_reserved": 0, "type": "electric_scooter", "bike_id": "4c47c6489a2210bc7dfd3211513522bc", "lat": 38.877011333333336, "lon": -77.01736966666667, "rental_uris": {"android": "https://dc.lft.to/lastmile_qr_scan", "ios": "https://dc.lft.to/lastmile_qr_scan"}, "is_disabled": 0, "fusion_lat": 0.0, "name": "4c47c6489a2210bc7dfd3211513522bc", "fusion_lon": 0.0}, {"is_reserved": 0, "type": "electric_scooter", "bike_id": "72d39d50c47a0e471d68f6cd38bbeda6", "lat": 38.899858333333334, "lon": -77.02208716666667, "rental_uris": {"android": "https://dc.lft.to/lastmile_qr_scan", "ios": "https://dc.lft.to/lastmile_qr_scan"}, "is_disabled": 0, "fusion_lat": 0.0, "name": "72d39d50c47a0e471d68f6cd38bbeda6", "fusion_lon": 0.0}, {"is_reserved": 0, "type": "electric_scooter", "bike_id": "c60c719f139d1dc7243700c3454e2e67", "lat": 38.88638733333333, "lon": -77.01287716666667, "rental_uris": {"android": "https://dc.lft.to/lastmile_qr_scan", "ios": "https://dc.lft.to/lastmile_qr_scan"}, "is_disabled": 0, "fusion_lat": 0.0, "name": "c60c719f139d1dc7243700c3454e2e67", "fusion_lon": 0.0}, {"is_reserved": 0, "type": "electric_scooter", "bike_id": "0196e6923caba67cc96dd0a86ea9ec46", "lat": 38.919266666666665, "lon": -77.01975966666667, "rental_uris": {"android": "https://dc.lft.to/lastmile_qr_scan", "ios": "https://dc.lft.to/lastmile_qr_scan"}, "is_disabled": 0, "fusion_lat": 0.0, "name": "0196e6923caba67cc96dd0a86ea9ec46", "fusion_lon": 0.0}, {"is_reserved": 0, "type": "electric_scooter", "bike_id": "4c03b66e87b65b5090e61e0fadbeff4a", "lat": 38.927212, "lon": -77.016344, "rental_uris": {"android": "https://dc.lft.to/lastmile_qr_scan", "ios": "https://dc.lft.to/lastmile_qr_scan"}, "is_disabled": 0, "fusion_lat": 0.0, "name": "4c03b66e87b65b5090e61e0fadbeff4a", "fusion_lon": 0.0}, {"is_reserved": 0, "type": "electric_scooter", "bike_id": "a5c049e12aeedee425f8b62305b06af9", "lat": 38.89863066666667, "lon": -77.032922, "rental_uris": {"android": "https://dc.lft.to/lastmile_qr_scan", "ios": "https://dc.lft.to/lastmile_qr_scan"}, "is_disabled": 0, "fusion_lat": 0.0, "name": "a5c049e12aeedee425f8b62305b06af9", "fusion_lon": 0.0}, {"is_reserved": 0, "type": "electric_scooter", "bike_id": "9e970b1270cf29b7c9e6a71530001c4f", "lat": 38.900694666666666, "lon": -76.92745433333333, "rental_uris": {"android": "https://dc.lft.to/lastmile_qr_scan", "ios": "https://dc.lft.to/lastmile_qr_scan"}, "is_disabled": 0, "fusion_lat": 0.0, "name": "9e970b1270cf29b7c9e6a71530001c4f", "fusion_lon": 0.0}, {"is_reserved": 0, "type": "electric_scooter", "bike_id": "ea554f505906a37415f6d49ed0fd7cc9", "lat": 38.89566116666666, "lon": -77.03175766666666, "rental_uris": {"android": "https://dc.lft.to/lastmile_qr_scan", "ios": "https://dc.lft.to/lastmile_qr_scan"}, "is_disabled": 0, "fusion_lat": 0.0, "name": "ea554f505906a37415f6d49ed0fd7cc9", "fusion_lon": 0.0}, {"is_reserved": 0, "type": "electric_scooter", "bike_id": "00bd9bc7f3c64e1ac3c40f9e32d3cc6f", "lat": 38.92971266666667, "lon": -77.0234555, "rental_uris": {"android": "https://dc.lft.to/lastmile_qr_scan", "ios": "https://dc.lft.to/lastmile_qr_scan"}, "is_disabled": 0, "fusion_lat": 0.0, "name": "00bd9bc7f3c64e1ac3c40f9e32d3cc6f", "fusion_lon": 0.0}, {"is_reserved": 0, "type": "electric_scooter", "bike_id": "fe4c3e7daae2fe8963e0afcf014b75cd", "lat": 38.9256825, "lon": -76.97005283333333, "rental_uris": {"android": "https://dc.lft.to/lastmile_qr_scan", "ios": "https://dc.lft.to/lastmile_qr_scan"}, "is_disabled": 0, "fusion_lat": 0.0, "name": "fe4c3e7daae2fe8963e0afcf014b75cd", "fusion_lon": 0.0}, {"is_reserved": 0, "type": "electric_scooter", "bike_id": "f384cb07c57f5543b3919b49a498b99c", "lat": 38.9180925, "lon": -77.0400165, "rental_uris": {"android": "https://dc.lft.to/lastmile_qr_scan", "ios": "https://dc.lft.to/lastmile_qr_scan"}, "is_disabled": 0, "fusion_lat": 0.0, "name": "f384cb07c57f5543b3919b49a498b99c", "fusion_lon": 0.0}, {"is_reserved": 0, "type": "electric_scooter", "bike_id": "08060123a458836713f219eabde6d97d", "lat": 38.94732066666667, "lon": -77.02461266666667, "rental_uris": {"android": "https://dc.lft.to/lastmile_qr_scan", "ios": "https://dc.lft.to/lastmile_qr_scan"}, "is_disabled": 0, "fusion_lat": 0.0, "name": "08060123a458836713f219eabde6d97d", "fusion_lon": 0.0}, {"is_reserved": 0, "type": "electric_scooter", "bike_id": "72d0f80b31df2a0b649b0ef139e68d80", "lat": 38.90264916666667, "lon": -77.0032565, "rental_uris": {"android": "https://dc.lft.to/lastmile_qr_scan", "ios": "https://dc.lft.to/lastmile_qr_scan"}, "is_disabled": 0, "fusion_lat": 0.0, "name": "72d0f80b31df2a0b649b0ef139e68d80", "fusion_lon": 0.0}, {"is_reserved": 0, "type": "electric_scooter", "bike_id": "c378fad69a3dc49ed46d2ea4c294f644", "lat": 38.9070925, "lon": -77.00801183333333, "rental_uris": {"android": "https://dc.lft.to/lastmile_qr_scan", "ios": "https://dc.lft.to/lastmile_qr_scan"}, "is_disabled": 0, "fusion_lat": 0.0, "name": "c378fad69a3dc49ed46d2ea4c294f644", "fusion_lon": 0.0}, {"is_reserved": 0, "type": "electric_scooter", "bike_id": "a56c7932209e5782f2ea3a3d933cd6de", "lat": 38.930703, "lon": -77.02810883333333, "rental_uris": {"android": "https://dc.lft.to/lastmile_qr_scan", "ios": "https://dc.lft.to/lastmile_qr_scan"}, "is_disabled": 0, "fusion_lat": 0.0, "name": "a56c7932209e5782f2ea3a3d933cd6de", "fusion_lon": 0.0}, {"is_reserved": 0, "type": "electric_scooter", "bike_id": "73b4c2149fa404d7ff720f1798c7f68c", "lat": 38.8757515, "lon": -77.0058205, "rental_uris": {"android": "https://dc.lft.to/lastmile_qr_scan", "ios": "https://dc.lft.to/lastmile_qr_scan"}, "is_disabled": 0, "fusion_lat": 0.0, "name": "73b4c2149fa404d7ff720f1798c7f68c", "fusion_lon": 0.0}, {"is_reserved": 0, "type": "electric_scooter", "bike_id": "bfd3f0e58c88352072d9d4d3e99b90b9", "lat": 38.89622033333333, "lon": -76.99733883333333, "rental_uris": {"android": "https://dc.lft.to/lastmile_qr_scan", "ios": "https://dc.lft.to/lastmile_qr_scan"}, "is_disabled": 0, "fusion_lat": 0.0, "name": "bfd3f0e58c88352072d9d4d3e99b90b9", "fusion_lon": 0.0}, {"is_reserved": 0, "type": "electric_scooter", "bike_id": "e4144f386dc44008d05eeb69ecf9ddb9", "lat": 38.91648133333333, "lon": -77.021779, "rental_uris": {"android": "https://dc.lft.to/lastmile_qr_scan", "ios": "https://dc.lft.to/lastmile_qr_scan"}, "is_disabled": 0, "fusion_lat": 0.0, "name": "e4144f386dc44008d05eeb69ecf9ddb9", "fusion_lon": 0.0}, {"is_reserved": 0, "type": "electric_bike", "bike_id": "bcdfe03b3870c766d9294d86a31ac19b", "lat": 38.94561916666667, "lon": -76.95842583333334, "rental_uris": {"android": "https://dc.lft.to/lastmile_qr_scan", "ios": "https://dc.lft.to/lastmile_qr_scan"}, "is_disabled": 0, "fusion_lat": 0.0, "name": "bcdfe03b3870c766d9294d86a31ac19b", "fusion_lon": 0.0}, {"is_reserved": 0, "type": "electric_scooter", "bike_id": "228b0ca700926d3044e695c1c06daa64", "lat": 38.9239425, "lon": -77.0506555, "rental_uris": {"android": "https://dc.lft.to/lastmile_qr_scan", "ios": "https://dc.lft.to/lastmile_qr_scan"}, "is_disabled": 0, "fusion_lat": 0.0, "name": "228b0ca700926d3044e695c1c06daa64", "fusion_lon": 0.0}, {"is_reserved": 0, "type": "electric_scooter", "bike_id": "6caa1c4dca5f9adbfcd59130f19fbb48", "lat": 38.93229483333333, "lon": -76.99753583333333, "rental_uris": {"android": "https://dc.lft.to/lastmile_qr_scan", "ios": "https://dc.lft.to/lastmile_qr_scan"}, "is_disabled": 0, "fusion_lat": 0.0, "name": "6caa1c4dca5f9adbfcd59130f19fbb48", "fusion_lon": 0.0}, {"is_reserved": 0, "type": "electric_scooter", "bike_id": "ebce72e63f54ffe25bc6c38d139d4ea9", "lat": 38.89954316666667, "lon": -76.94635516666666, "rental_uris": {"android": "https://dc.lft.to/lastmile_qr_scan", "ios": "https://dc.lft.to/lastmile_qr_scan"}, "is_disabled": 0, "fusion_lat": 0.0, "name": "ebce72e63f54ffe25bc6c38d139d4ea9", "fusion_lon": 0.0}, {"is_reserved": 0, "type": "electric_bike", "bike_id": "05f3a164ee1b67c1990c0fb92eb2ce0c", "lat": 38.95873816666667, "lon": -76.97055233333333, "rental_uris": {"android": "https://dc.lft.to/lastmile_qr_scan", "ios": "https://dc.lft.to/lastmile_qr_scan"}, "is_disabled": 0, "fusion_lat": 0.0, "name": "05f3a164ee1b67c1990c0fb92eb2ce0c", "fusion_lon": 0.0}, {"is_reserved": 0, "type": "electric_scooter", "bike_id": "a61db707382528814a527a0f85190def", "lat": 38.9039975, "lon": -77.00785783333333, "rental_uris": {"android": "https://dc.lft.to/lastmile_qr_scan", "ios": "https://dc.lft.to/lastmile_qr_scan"}, "is_disabled": 0, "fusion_lat": 0.0, "name": "a61db707382528814a527a0f85190def", "fusion_lon": 0.0}, {"is_reserved": 0, "type": "electric_scooter", "bike_id": "ba0be6093de33f3b10b0f358c9a0fb00", "lat": 38.905637666666664, "lon": -77.00440716666667, "rental_uris": {"android": "https://dc.lft.to/lastmile_qr_scan", "ios": "https://dc.lft.to/lastmile_qr_scan"}, "is_disabled": 0, "fusion_lat": 0.0, "name": "ba0be6093de33f3b10b0f358c9a0fb00", "fusion_lon": 0.0}, {"is_reserved": 0, "type": "electric_scooter", "bike_id": "e2438525c9f6ed7e7f54efa5baba948f", "lat": 38.921474833333335, "lon": -77.01914766666667, "rental_uris": {"android": "https://dc.lft.to/lastmile_qr_scan", "ios": "https://dc.lft.to/lastmile_qr_scan"}, "is_disabled": 0, "fusion_lat": 0.0, "name": "e2438525c9f6ed7e7f54efa5baba948f", "fusion_lon": 0.0}, {"is_reserved": 0, "type": "electric_scooter", "bike_id": "6364fa4dcff27960a6cf703e21648153", "lat": 38.92353633333333, "lon": -77.05113366666667, "rental_uris": {"android": "https://dc.lft.to/lastmile_qr_scan", "ios": "https://dc.lft.to/lastmile_qr_scan"}, "is_disabled": 0, "fusion_lat": 0.0, "name": "6364fa4dcff27960a6cf703e21648153", "fusion_lon": 0.0}, {"is_reserved": 0, "type": "electric_scooter", "bike_id": "2637ef5329119665266af00748d7e476", "lat": 38.91681283333333, "lon": -77.02941333333334, "rental_uris": {"android": "https://dc.lft.to/lastmile_qr_scan", "ios": "https://dc.lft.to/lastmile_qr_scan"}, "is_disabled": 0, "fusion_lat": 0.0, "name": "2637ef5329119665266af00748d7e476", "fusion_lon": 0.0}, {"is_reserved": 0, "type": "electric_scooter", "bike_id": "e87d9aa8221e442c31af802a31c83dec", "lat": 38.8953195, "lon": -77.044748, "rental_uris": {"android": "https://dc.lft.to/lastmile_qr_scan", "ios": "https://dc.lft.to/lastmile_qr_scan"}, "is_disabled": 0, "fusion_lat": 0.0, "name": "e87d9aa8221e442c31af802a31c83dec", "fusion_lon": 0.0}, {"is_reserved": 0, "type": "electric_bike", "bike_id": "f952c79464248d62a47c8bc6a12bffaf", "lat": 39.0849185, "lon": -76.95061416666667, "rental_uris": {"android": "https://dc.lft.to/lastmile_qr_scan", "ios": "https://dc.lft.to/lastmile_qr_scan"}, "is_disabled": 0, "fusion_lat": 0.0, "name": "f952c79464248d62a47c8bc6a12bffaf", "fusion_lon": 0.0}, {"is_reserved": 0, "type": "electric_scooter", "bike_id": "1c71cad923f35e2d763382177717f584", "lat": 38.92067766666667, "lon": -77.0170335, "rental_uris": {"android": "https://dc.lft.to/lastmile_qr_scan", "ios": "https://dc.lft.to/lastmile_qr_scan"}, "is_disabled": 0, "fusion_lat": 0.0, "name": "1c71cad923f35e2d763382177717f584", "fusion_lon": 0.0}, {"is_reserved": 0, "type": "electric_scooter", "bike_id": "e854b9a61bd2df28a5862c97628085d7", "lat": 38.919298166666664, "lon": -77.0342605, "rental_uris": {"android": "https://dc.lft.to/lastmile_qr_scan", "ios": "https://dc.lft.to/lastmile_qr_scan"}, "is_disabled": 0, "fusion_lat": 0.0, "name": "e854b9a61bd2df28a5862c97628085d7", "fusion_lon": 0.0}, {"is_reserved": 0, "type": "electric_scooter", "bike_id": "7c7909bb6cfce76bbac72d8008a67f9b", "lat": 38.926556, "lon": -77.03708716666667, "rental_uris": {"android": "https://dc.lft.to/lastmile_qr_scan", "ios": "https://dc.lft.to/lastmile_qr_scan"}, "is_disabled": 0, "fusion_lat": 0.0, "name": "7c7909bb6cfce76bbac72d8008a67f9b", "fusion_lon": 0.0}, {"is_reserved": 0, "type": "electric_scooter", "bike_id": "ba413e5266b8d748e63b2ae5cfd060b5", "lat": 38.956184666666665, "lon": -77.00323983333334, "rental_uris": {"android": "https://dc.lft.to/lastmile_qr_scan", "ios": "https://dc.lft.to/lastmile_qr_scan"}, "is_disabled": 0, "fusion_lat": 0.0, "name": "ba413e5266b8d748e63b2ae5cfd060b5", "fusion_lon": 0.0}, {"is_reserved": 0, "type": "electric_scooter", "bike_id": "dc154ae3cf7f9c23d8a1324173072469", "lat": 38.9148165, "lon": -77.0323545, "rental_uris": {"android": "https://dc.lft.to/lastmile_qr_scan", "ios": "https://dc.lft.to/lastmile_qr_scan"}, "is_disabled": 0, "fusion_lat": 0.0, "name": "dc154ae3cf7f9c23d8a1324173072469", "fusion_lon": 0.0}, {"is_reserved": 0, "type": "electric_scooter", "bike_id": "1075eb1075ccc88d9cb2477ab18880a1", "lat": 38.917981833333336, "lon": -77.0343755, "rental_uris": {"android": "https://dc.lft.to/lastmile_qr_scan", "ios": "https://dc.lft.to/lastmile_qr_scan"}, "is_disabled": 0, "fusion_lat": 0.0, "name": "1075eb1075ccc88d9cb2477ab18880a1", "fusion_lon": 0.0}, {"is_reserved": 0, "type": "electric_scooter", "bike_id": "9ee60a528b11a1b54e9969d71dde7c4e", "lat": 38.910156, "lon": -77.0440255, "rental_uris": {"android": "https://dc.lft.to/lastmile_qr_scan", "ios": "https://dc.lft.to/lastmile_qr_scan"}, "is_disabled": 0, "fusion_lat": 0.0, "name": "9ee60a528b11a1b54e9969d71dde7c4e", "fusion_lon": 0.0}, {"is_reserved": 0, "type": "electric_scooter", "bike_id": "382988ac25d90d523422d64030194484", "lat": 38.9064625, "lon": -77.01200133333333, "rental_uris": {"android": "https://dc.lft.to/lastmile_qr_scan", "ios": "https://dc.lft.to/lastmile_qr_scan"}, "is_disabled": 0, "fusion_lat": 0.0, "name": "382988ac25d90d523422d64030194484", "fusion_lon": 0.0}, {"is_reserved": 0, "type": "electric_scooter", "bike_id": "3374885b6818e4aece2a702b1cfce4be", "lat": 38.95737533333333, "lon": -77.0301895, "rental_uris": {"android": "https://dc.lft.to/lastmile_qr_scan", "ios": "https://dc.lft.to/lastmile_qr_scan"}, "is_disabled": 0, "fusion_lat": 0.0, "name": "3374885b6818e4aece2a702b1cfce4be", "fusion_lon": 0.0}, {"is_reserved": 0, "type": "electric_scooter", "bike_id": "02c63876b6ba76fb0d81bbf856bd3809", "lat": 38.91674283333333, "lon": -77.0346445, "rental_uris": {"android": "https://dc.lft.to/lastmile_qr_scan", "ios": "https://dc.lft.to/lastmile_qr_scan"}, "is_disabled": 0, "fusion_lat": 0.0, "name": "02c63876b6ba76fb0d81bbf856bd3809", "fusion_lon": 0.0}, {"is_reserved": 0, "type": "electric_scooter", "bike_id": "d92f829a70fed00fb3f54d67ef78e1f9", "lat": 38.895946333333335, "lon": -76.929857, "rental_uris": {"android": "https://dc.lft.to/lastmile_qr_scan", "ios": "https://dc.lft.to/lastmile_qr_scan"}, "is_disabled": 0, "fusion_lat": 0.0, "name": "d92f829a70fed00fb3f54d67ef78e1f9", "fusion_lon": 0.0}, {"is_reserved": 0, "type": "electric_scooter", "bike_id": "a27bcf94a055512df416aa4100806c71", "lat": 38.898289166666665, "lon": -77.02203133333333, "rental_uris": {"android": "https://dc.lft.to/lastmile_qr_scan", "ios": "https://dc.lft.to/lastmile_qr_scan"}, "is_disabled": 0, "fusion_lat": 0.0, "name": "a27bcf94a055512df416aa4100806c71", "fusion_lon": 0.0}, {"is_reserved": 0, "type": "electric_scooter", "bike_id": "93595f56f614844d0cdc6a5450bc185d", "lat": 38.970029833333335, "lon": -77.0090915, "rental_uris": {"android": "https://dc.lft.to/lastmile_qr_scan", "ios": "https://dc.lft.to/lastmile_qr_scan"}, "is_disabled": 0, "fusion_lat": 0.0, "name": "93595f56f614844d0cdc6a5450bc185d", "fusion_lon": 0.0}, {"is_reserved": 0, "type": "electric_scooter", "bike_id": "369259837ed3720fa3f41b0f1f5ad8dd", "lat": 38.90580766666667, "lon": -77.03216383333333, "rental_uris": {"android": "https://dc.lft.to/lastmile_qr_scan", "ios": "https://dc.lft.to/lastmile_qr_scan"}, "is_disabled": 0, "fusion_lat": 0.0, "name": "369259837ed3720fa3f41b0f1f5ad8dd", "fusion_lon": 0.0}, {"is_reserved": 0, "type": "electric_scooter", "bike_id": "bf9000f2fc5443c7dbd8ff18feebca7f", "lat": 38.89219966666667, "lon": -77.024231, "rental_uris": {"android": "https://dc.lft.to/lastmile_qr_scan", "ios": "https://dc.lft.to/lastmile_qr_scan"}, "is_disabled": 0, "fusion_lat": 0.0, "name": "bf9000f2fc5443c7dbd8ff18feebca7f", "fusion_lon": 0.0}, {"is_reserved": 0, "type": "electric_scooter", "bike_id": "f5e6fbaf63181aaa793f3950ed7776ec", "lat": 38.87635433333333, "lon": -77.0083935, "rental_uris": {"android": "https://dc.lft.to/lastmile_qr_scan", "ios": "https://dc.lft.to/lastmile_qr_scan"}, "is_disabled": 0, "fusion_lat": 0.0, "name": "f5e6fbaf63181aaa793f3950ed7776ec", "fusion_lon": 0.0}, {"is_reserved": 0, "type": "electric_scooter", "bike_id": "1ff5da20102c9860e8dac35ac85c28ab", "lat": 38.9096095, "lon": -77.02280866666666, "rental_uris": {"android": "https://dc.lft.to/lastmile_qr_scan", "ios": "https://dc.lft.to/lastmile_qr_scan"}, "is_disabled": 0, "fusion_lat": 0.0, "name": "1ff5da20102c9860e8dac35ac85c28ab", "fusion_lon": 0.0}, {"is_reserved": 0, "type": "electric_scooter", "bike_id": "785139bac9e3556ad3a0fc076764d624", "lat": 38.895254333333334, "lon": -77.03963483333334, "rental_uris": {"android": "https://dc.lft.to/lastmile_qr_scan", "ios": "https://dc.lft.to/lastmile_qr_scan"}, "is_disabled": 0, "fusion_lat": 0.0, "name": "785139bac9e3556ad3a0fc076764d624", "fusion_lon": 0.0}, {"is_reserved": 0, "type": "electric_scooter", "bike_id": "8859b102512cefc556ce62263f43d593", "lat": 38.923952, "lon": -77.044549, "rental_uris": {"android": "https://dc.lft.to/lastmile_qr_scan", "ios": "https://dc.lft.to/lastmile_qr_scan"}, "is_disabled": 0, "fusion_lat": 0.0, "name": "8859b102512cefc556ce62263f43d593", "fusion_lon": 0.0}, {"is_reserved": 0, "type": "electric_scooter", "bike_id": "ca116c838361e535c5c2db7d4e95d684", "lat": 38.9575145, "lon": -77.0211055, "rental_uris": {"android": "https://dc.lft.to/lastmile_qr_scan", "ios": "https://dc.lft.to/lastmile_qr_scan"}, "is_disabled": 0, "fusion_lat": 0.0, "name": "ca116c838361e535c5c2db7d4e95d684", "fusion_lon": 0.0}, {"is_reserved": 0, "type": "electric_scooter", "bike_id": "54e10a556b628a57d79769b2c5ae9832", "lat": 38.898498333333336, "lon": -77.03073983333333, "rental_uris": {"android": "https://dc.lft.to/lastmile_qr_scan", "ios": "https://dc.lft.to/lastmile_qr_scan"}, "is_disabled": 0, "fusion_lat": 0.0, "name": "54e10a556b628a57d79769b2c5ae9832", "fusion_lon": 0.0}, {"is_reserved": 0, "type": "electric_scooter", "bike_id": "118225f67f9c099e7f3edc295bc79a11", "lat": 38.90563566666667, "lon": -77.00696683333334, "rental_uris": {"android": "https://dc.lft.to/lastmile_qr_scan", "ios": "https://dc.lft.to/lastmile_qr_scan"}, "is_disabled": 0, "fusion_lat": 0.0, "name": "118225f67f9c099e7f3edc295bc79a11", "fusion_lon": 0.0}, {"is_reserved": 0, "type": "electric_scooter", "bike_id": "96344697f50ff06adbc84596e6faffc5", "lat": 38.90498683333333, "lon": -77.02946916666667, "rental_uris": {"android": "https://dc.lft.to/lastmile_qr_scan", "ios": "https://dc.lft.to/lastmile_qr_scan"}, "is_disabled": 0, "fusion_lat": 0.0, "name": "96344697f50ff06adbc84596e6faffc5", "fusion_lon": 0.0}, {"is_reserved": 0, "type": "electric_scooter", "bike_id": "2e001a8b77c68c726e4b035be5ee238f", "lat": 38.900658666666665, "lon": -77.05308266666667, "rental_uris": {"android": "https://dc.lft.to/lastmile_qr_scan", "ios": "https://dc.lft.to/lastmile_qr_scan"}, "is_disabled": 0, "fusion_lat": 0.0, "name": "2e001a8b77c68c726e4b035be5ee238f", "fusion_lon": 0.0}, {"is_reserved": 0, "type": "electric_scooter", "bike_id": "fcefa896a10595f68831abb96e4ef0d7", "lat": 38.89224183333333, "lon": -77.03114533333333, "rental_uris": {"android": "https://dc.lft.to/lastmile_qr_scan", "ios": "https://dc.lft.to/lastmile_qr_scan"}, "is_disabled": 0, "fusion_lat": 0.0, "name": "fcefa896a10595f68831abb96e4ef0d7", "fusion_lon": 0.0}, {"is_reserved": 0, "type": "electric_scooter", "bike_id": "8b7b5a314fffd369fb164bdabd402e47", "lat": 38.92204233333333, "lon": -77.02032283333334, "rental_uris": {"android": "https://dc.lft.to/lastmile_qr_scan", "ios": "https://dc.lft.to/lastmile_qr_scan"}, "is_disabled": 0, "fusion_lat": 0.0, "name": "8b7b5a314fffd369fb164bdabd402e47", "fusion_lon": 0.0}, {"is_reserved": 0, "type": "electric_scooter", "bike_id": "9516e6fb4dd8095b778086882e046865", "lat": 38.91020066666667, "lon": -76.993775, "rental_uris": {"android": "https://dc.lft.to/lastmile_qr_scan", "ios": "https://dc.lft.to/lastmile_qr_scan"}, "is_disabled": 0, "fusion_lat": 0.0, "name": "9516e6fb4dd8095b778086882e046865", "fusion_lon": 0.0}, {"is_reserved": 0, "type": "electric_scooter", "bike_id": "8e4863b3523f305e8becbee859324d5d", "lat": 38.90650933333333, "lon": -77.00908283333334, "rental_uris": {"android": "https://dc.lft.to/lastmile_qr_scan", "ios": "https://dc.lft.to/lastmile_qr_scan"}, "is_disabled": 0, "fusion_lat": 0.0, "name": "8e4863b3523f305e8becbee859324d5d", "fusion_lon": 0.0}, {"is_reserved": 0, "type": "electric_scooter", "bike_id": "1c307bb33799acd61bdb1b0ccfd17496", "lat": 38.9255705, "lon": -77.05321733333334, "rental_uris": {"android": "https://dc.lft.to/lastmile_qr_scan", "ios": "https://dc.lft.to/lastmile_qr_scan"}, "is_disabled": 0, "fusion_lat": 0.0, "name": "1c307bb33799acd61bdb1b0ccfd17496", "fusion_lon": 0.0}, {"is_reserved": 0, "type": "electric_scooter", "bike_id": "b1224b9abdde685d97cedf0e675238dc", "lat": 38.91053683333333, "lon": -77.00473166666667, "rental_uris": {"android": "https://dc.lft.to/lastmile_qr_scan", "ios": "https://dc.lft.to/lastmile_qr_scan"}, "is_disabled": 0, "fusion_lat": 0.0, "name": "b1224b9abdde685d97cedf0e675238dc", "fusion_lon": 0.0}, {"is_reserved": 0, "type": "electric_scooter", "bike_id": "bbb3a96446b8af6c9abe26b182b25fb7", "lat": 38.98989266666667, "lon": -77.0336315, "rental_uris": {"android": "https://dc.lft.to/lastmile_qr_scan", "ios": "https://dc.lft.to/lastmile_qr_scan"}, "is_disabled": 0, "fusion_lat": 0.0, "name": "bbb3a96446b8af6c9abe26b182b25fb7", "fusion_lon": 0.0}, {"is_reserved": 0, "type": "electric_scooter", "bike_id": "b371f5f3e6147b749d46d5f7e7751e52", "lat": 38.906322333333335, "lon": -77.02500833333333, "rental_uris": {"android": "https://dc.lft.to/lastmile_qr_scan", "ios": "https://dc.lft.to/lastmile_qr_scan"}, "is_disabled": 0, "fusion_lat": 0.0, "name": "b371f5f3e6147b749d46d5f7e7751e52", "fusion_lon": 0.0}, {"is_reserved": 0, "type": "electric_bike", "bike_id": "b4d824a15df909658e7e797c892869a0", "lat": 38.9813595, "lon": -77.0076495, "rental_uris": {"android": "https://dc.lft.to/lastmile_qr_scan", "ios": "https://dc.lft.to/lastmile_qr_scan"}, "is_disabled": 0, "fusion_lat": 0.0, "name": "b4d824a15df909658e7e797c892869a0", "fusion_lon": 0.0}, {"is_reserved": 0, "type": "electric_scooter", "bike_id": "641ffaffaec0db90d399a66bc0099325", "lat": 38.88610283333333, "lon": -77.00343383333333, "rental_uris": {"android": "https://dc.lft.to/lastmile_qr_scan", "ios": "https://dc.lft.to/lastmile_qr_scan"}, "is_disabled": 0, "fusion_lat": 0.0, "name": "641ffaffaec0db90d399a66bc0099325", "fusion_lon": 0.0}, {"is_reserved": 0, "type": "electric_scooter", "bike_id": "0ffd4d6b28452bd9718d124faacaec46", "lat": 38.91810816666667, "lon": -77.04003816666666, "rental_uris": {"android": "https://dc.lft.to/lastmile_qr_scan", "ios": "https://dc.lft.to/lastmile_qr_scan"}, "is_disabled": 0, "fusion_lat": 0.0, "name": "0ffd4d6b28452bd9718d124faacaec46", "fusion_lon": 0.0}, {"is_reserved": 0, "type": "electric_scooter", "bike_id": "b18901e013184db7461c28c29f21062a", "lat": 38.89911433333333, "lon": -76.93362566666667, "rental_uris": {"android": "https://dc.lft.to/lastmile_qr_scan", "ios": "https://dc.lft.to/lastmile_qr_scan"}, "is_disabled": 0, "fusion_lat": 0.0, "name": "b18901e013184db7461c28c29f21062a", "fusion_lon": 0.0}, {"is_reserved": 0, "type": "electric_scooter", "bike_id": "f3a06205f0853b0a70079e52aebd4c46", "lat": 38.9210565, "lon": -77.04207583333333, "rental_uris": {"android": "https://dc.lft.to/lastmile_qr_scan", "ios": "https://dc.lft.to/lastmile_qr_scan"}, "is_disabled": 0, "fusion_lat": 0.0, "name": "f3a06205f0853b0a70079e52aebd4c46", "fusion_lon": 0.0}, {"is_reserved": 0, "type": "electric_scooter", "bike_id": "4d9f3b29c7f9d40eeb890db948e23163", "lat": 38.9181315, "lon": -77.02480383333334, "rental_uris": {"android": "https://dc.lft.to/lastmile_qr_scan", "ios": "https://dc.lft.to/lastmile_qr_scan"}, "is_disabled": 0, "fusion_lat": 0.0, "name": "4d9f3b29c7f9d40eeb890db948e23163", "fusion_lon": 0.0}, {"is_reserved": 0, "type": "electric_scooter", "bike_id": "b3919837b79faecc3314465793547b57", "lat": 38.89877333333333, "lon": -76.98840833333334, "rental_uris": {"android": "https://dc.lft.to/lastmile_qr_scan", "ios": "https://dc.lft.to/lastmile_qr_scan"}, "is_disabled": 0, "fusion_lat": 0.0, "name": "b3919837b79faecc3314465793547b57", "fusion_lon": 0.0}, {"is_reserved": 0, "type": "electric_scooter", "bike_id": "b55c7df17c83e9cad33d2284b3089a2c", "lat": 38.927369166666665, "lon": -77.02255016666666, "rental_uris": {"android": "https://dc.lft.to/lastmile_qr_scan", "ios": "https://dc.lft.to/lastmile_qr_scan"}, "is_disabled": 0, "fusion_lat": 0.0, "name": "b55c7df17c83e9cad33d2284b3089a2c", "fusion_lon": 0.0}, {"is_reserved": 0, "type": "electric_scooter", "bike_id": "7fd5e083ccff4ee490ed94770b69bdc7", "lat": 38.934914666666664, "lon": -77.044517, "rental_uris": {"android": "https://dc.lft.to/lastmile_qr_scan", "ios": "https://dc.lft.to/lastmile_qr_scan"}, "is_disabled": 0, "fusion_lat": 0.0, "name": "7fd5e083ccff4ee490ed94770b69bdc7", "fusion_lon": 0.0}, {"is_reserved": 0, "type": "electric_scooter", "bike_id": "995d2ecf7c6461ac5a6c4979f869959b", "lat": 38.8834365, "lon": -77.0258495, "rental_uris": {"android": "https://dc.lft.to/lastmile_qr_scan", "ios": "https://dc.lft.to/lastmile_qr_scan"}, "is_disabled": 0, "fusion_lat": 0.0, "name": "995d2ecf7c6461ac5a6c4979f869959b", "fusion_lon": 0.0}, {"is_reserved": 0, "type": "electric_scooter", "bike_id": "e7593cb2861cbae0e53eedae96f71d82", "lat": 38.92643266666666, "lon": -77.0250845, "rental_uris": {"android": "https://dc.lft.to/lastmile_qr_scan", "ios": "https://dc.lft.to/lastmile_qr_scan"}, "is_disabled": 0, "fusion_lat": 0.0, "name": "e7593cb2861cbae0e53eedae96f71d82", "fusion_lon": 0.0}, {"is_reserved": 0, "type": "electric_scooter", "bike_id": "88883672e41165e84005a7973c0cae50", "lat": 38.897764, "lon": -76.9927495, "rental_uris": {"android": "https://dc.lft.to/lastmile_qr_scan", "ios": "https://dc.lft.to/lastmile_qr_scan"}, "is_disabled": 0, "fusion_lat": 0.0, "name": "88883672e41165e84005a7973c0cae50", "fusion_lon": 0.0}, {"is_reserved": 0, "type": "electric_scooter", "bike_id": "c3c5a4b2dddc85e47747ef56d43bbd8a", "lat": 38.9138465, "lon": -77.046168, "rental_uris": {"android": "https://dc.lft.to/lastmile_qr_scan", "ios": "https://dc.lft.to/lastmile_qr_scan"}, "is_disabled": 0, "fusion_lat": 0.0, "name": "c3c5a4b2dddc85e47747ef56d43bbd8a", "fusion_lon": 0.0}, {"is_reserved": 0, "type": "electric_scooter", "bike_id": "8e7ba18f55e9f103744385333cceb07d", "lat": 38.86258483333334, "lon": -76.981925, "rental_uris": {"android": "https://dc.lft.to/lastmile_qr_scan", "ios": "https://dc.lft.to/lastmile_qr_scan"}, "is_disabled": 0, "fusion_lat": 0.0, "name": "8e7ba18f55e9f103744385333cceb07d", "fusion_lon": 0.0}, {"is_reserved": 0, "type": "electric_scooter", "bike_id": "deece0636b04e7e498cb46a86a77b1ba", "lat": 38.8988735, "lon": -76.931771, "rental_uris": {"android": "https://dc.lft.to/lastmile_qr_scan", "ios": "https://dc.lft.to/lastmile_qr_scan"}, "is_disabled": 0, "fusion_lat": 0.0, "name": "deece0636b04e7e498cb46a86a77b1ba", "fusion_lon": 0.0}, {"is_reserved": 0, "type": "electric_scooter", "bike_id": "87c6fa238492bede0adfc98ba00d5f8f", "lat": 38.946909833333336, "lon": -77.022462, "rental_uris": {"android": "https://dc.lft.to/lastmile_qr_scan", "ios": "https://dc.lft.to/lastmile_qr_scan"}, "is_disabled": 0, "fusion_lat": 0.0, "name": "87c6fa238492bede0adfc98ba00d5f8f", "fusion_lon": 0.0}, {"is_reserved": 0, "type": "electric_scooter", "bike_id": "4e4afd7cd77a2e6669082f2f8e9685f9", "lat": 38.89754883333333, "lon": -77.0212355, "rental_uris": {"android": "https://dc.lft.to/lastmile_qr_scan", "ios": "https://dc.lft.to/lastmile_qr_scan"}, "is_disabled": 0, "fusion_lat": 0.0, "name": "4e4afd7cd77a2e6669082f2f8e9685f9", "fusion_lon": 0.0}, {"is_reserved": 0, "type": "electric_bike", "bike_id": "91d1a8c180f4a91fdebc626a53c6e523", "lat": 38.831369, "lon": -77.11347166666667, "rental_uris": {"android": "https://dc.lft.to/lastmile_qr_scan", "ios": "https://dc.lft.to/lastmile_qr_scan"}, "is_disabled": 0, "fusion_lat": 0.0, "name": "91d1a8c180f4a91fdebc626a53c6e523", "fusion_lon": 0.0}, {"is_reserved": 0, "type": "electric_scooter", "bike_id": "e38032a5fc118a9db49eceaa5337fa6e", "lat": 38.911281, "lon": -77.02195766666667, "rental_uris": {"android": "https://dc.lft.to/lastmile_qr_scan", "ios": "https://dc.lft.to/lastmile_qr_scan"}, "is_disabled": 0, "fusion_lat": 0.0, "name": "e38032a5fc118a9db49eceaa5337fa6e", "fusion_lon": 0.0}, {"is_reserved": 0, "type": "electric_scooter", "bike_id": "077c1789ccf9cd8008459afc63788831", "lat": 38.905210833333335, "lon": -77.06531383333333, "rental_uris": {"android": "https://dc.lft.to/lastmile_qr_scan", "ios": "https://dc.lft.to/lastmile_qr_scan"}, "is_disabled": 0, "fusion_lat": 0.0, "name": "077c1789ccf9cd8008459afc63788831", "fusion_lon": 0.0}, {"is_reserved": 0, "type": "electric_scooter", "bike_id": "ded1bff9070efea0e3ed26ad834fe28f", "lat": 38.922367666666666, "lon": -77.03353616666666, "rental_uris": {"android": "https://dc.lft.to/lastmile_qr_scan", "ios": "https://dc.lft.to/lastmile_qr_scan"}, "is_disabled": 0, "fusion_lat": 0.0, "name": "ded1bff9070efea0e3ed26ad834fe28f", "fusion_lon": 0.0}, {"is_reserved": 0, "type": "electric_scooter", "bike_id": "2fe71152db7e8f91970c8b1876813072", "lat": 38.90612316666667, "lon": -76.95015483333333, "rental_uris": {"android": "https://dc.lft.to/lastmile_qr_scan", "ios": "https://dc.lft.to/lastmile_qr_scan"}, "is_disabled": 0, "fusion_lat": 0.0, "name": "2fe71152db7e8f91970c8b1876813072", "fusion_lon": 0.0}, {"is_reserved": 0, "type": "electric_scooter", "bike_id": "c59bc158fd654f155bfc62b9c075577b", "lat": 38.8851065, "lon": -77.011202, "rental_uris": {"android": "https://dc.lft.to/lastmile_qr_scan", "ios": "https://dc.lft.to/lastmile_qr_scan"}, "is_disabled": 0, "fusion_lat": 0.0, "name": "c59bc158fd654f155bfc62b9c075577b", "fusion_lon": 0.0}, {"is_reserved": 0, "type": "electric_scooter", "bike_id": "136194cf1ecaffed2ac3455437a8988c", "lat": 38.900992, "lon": -77.0381685, "rental_uris": {"android": "https://dc.lft.to/lastmile_qr_scan", "ios": "https://dc.lft.to/lastmile_qr_scan"}, "is_disabled": 0, "fusion_lat": 0.0, "name": "136194cf1ecaffed2ac3455437a8988c", "fusion_lon": 0.0}, {"is_reserved": 0, "type": "electric_scooter", "bike_id": "38331db57e9f972024f670a59e6bad3b", "lat": 38.9001755, "lon": -76.99875016666667, "rental_uris": {"android": "https://dc.lft.to/lastmile_qr_scan", "ios": "https://dc.lft.to/lastmile_qr_scan"}, "is_disabled": 0, "fusion_lat": 0.0, "name": "38331db57e9f972024f670a59e6bad3b", "fusion_lon": 0.0}, {"is_reserved": 0, "type": "electric_scooter", "bike_id": "3dcc0de5f4d8d996d8478fb921987fae", "lat": 38.89219033333333, "lon": -77.02419566666667, "rental_uris": {"android": "https://dc.lft.to/lastmile_qr_scan", "ios": "https://dc.lft.to/lastmile_qr_scan"}, "is_disabled": 0, "fusion_lat": 0.0, "name": "3dcc0de5f4d8d996d8478fb921987fae", "fusion_lon": 0.0}, {"is_reserved": 0, "type": "electric_scooter", "bike_id": "fa5efb3ed1441abd6821fe801e5957da", "lat": 38.917168, "lon": -77.03861483333333, "rental_uris": {"android": "https://dc.lft.to/lastmile_qr_scan", "ios": "https://dc.lft.to/lastmile_qr_scan"}, "is_disabled": 0, "fusion_lat": 0.0, "name": "fa5efb3ed1441abd6821fe801e5957da", "fusion_lon": 0.0}, {"is_reserved": 0, "type": "electric_scooter", "bike_id": "2fc74be0f75773c2be57d9d1d7c71ca2", "lat": 38.890414666666665, "lon": -76.95248183333334, "rental_uris": {"android": "https://dc.lft.to/lastmile_qr_scan", "ios": "https://dc.lft.to/lastmile_qr_scan"}, "is_disabled": 0, "fusion_lat": 0.0, "name": "2fc74be0f75773c2be57d9d1d7c71ca2", "fusion_lon": 0.0}, {"is_reserved": 0, "type": "electric_scooter", "bike_id": "d761e340e7107f7c4dd2130f5f4b7685", "lat": 38.905052833333336, "lon": -77.0638105, "rental_uris": {"android": "https://dc.lft.to/lastmile_qr_scan", "ios": "https://dc.lft.to/lastmile_qr_scan"}, "is_disabled": 0, "fusion_lat": 0.0, "name": "d761e340e7107f7c4dd2130f5f4b7685", "fusion_lon": 0.0}, {"is_reserved": 0, "type": "electric_scooter", "bike_id": "fb1be31fbf8107bb2963028c83928b68", "lat": 38.925564333333334, "lon": -77.07764383333334, "rental_uris": {"android": "https://dc.lft.to/lastmile_qr_scan", "ios": "https://dc.lft.to/lastmile_qr_scan"}, "is_disabled": 0, "fusion_lat": 0.0, "name": "fb1be31fbf8107bb2963028c83928b68", "fusion_lon": 0.0}, {"is_reserved": 0, "type": "electric_scooter", "bike_id": "779f05730a42ad92f53112bb6f3cb0d0", "lat": 38.91810266666667, "lon": -77.03168366666667, "rental_uris": {"android": "https://dc.lft.to/lastmile_qr_scan", "ios": "https://dc.lft.to/lastmile_qr_scan"}, "is_disabled": 0, "fusion_lat": 0.0, "name": "779f05730a42ad92f53112bb6f3cb0d0", "fusion_lon": 0.0}, {"is_reserved": 0, "type": "electric_scooter", "bike_id": "2dd49fbba57012f3acf5086120248724", "lat": 38.9283355, "lon": -77.05443633333333, "rental_uris": {"android": "https://dc.lft.to/lastmile_qr_scan", "ios": "https://dc.lft.to/lastmile_qr_scan"}, "is_disabled": 0, "fusion_lat": 0.0, "name": "2dd49fbba57012f3acf5086120248724", "fusion_lon": 0.0}, {"is_reserved": 0, "type": "electric_scooter", "bike_id": "530d9e23486f9a02a898251ab244764c", "lat": 38.91982516666667, "lon": -77.040658, "rental_uris": {"android": "https://dc.lft.to/lastmile_qr_scan", "ios": "https://dc.lft.to/lastmile_qr_scan"}, "is_disabled": 0, "fusion_lat": 0.0, "name": "530d9e23486f9a02a898251ab244764c", "fusion_lon": 0.0}, {"is_reserved": 0, "type": "electric_scooter", "bike_id": "7f5742febd78e063c3a9b7fa5df1dabb", "lat": 38.9248385, "lon": -77.034912, "rental_uris": {"android": "https://dc.lft.to/lastmile_qr_scan", "ios": "https://dc.lft.to/lastmile_qr_scan"}, "is_disabled": 0, "fusion_lat": 0.0, "name": "7f5742febd78e063c3a9b7fa5df1dabb", "fusion_lon": 0.0}, {"is_reserved": 0, "type": "electric_scooter", "bike_id": "1eba0b55e51b173c8c154271b3371dba", "lat": 38.873956166666666, "lon": -77.00019366666666, "rental_uris": {"android": "https://dc.lft.to/lastmile_qr_scan", "ios": "https://dc.lft.to/lastmile_qr_scan"}, "is_disabled": 0, "fusion_lat": 0.0, "name": "1eba0b55e51b173c8c154271b3371dba", "fusion_lon": 0.0}, {"is_reserved": 0, "type": "electric_scooter", "bike_id": "b534cc123c678e1898af5010c9026896", "lat": 38.90791316666667, "lon": -77.04884683333333, "rental_uris": {"android": "https://dc.lft.to/lastmile_qr_scan", "ios": "https://dc.lft.to/lastmile_qr_scan"}, "is_disabled": 0, "fusion_lat": 0.0, "name": "b534cc123c678e1898af5010c9026896", "fusion_lon": 0.0}, {"is_reserved": 0, "type": "electric_scooter", "bike_id": "17a4c5a9b899f8a9c2ec203c278b4332", "lat": 38.9374345, "lon": -77.03256333333333, "rental_uris": {"android": "https://dc.lft.to/lastmile_qr_scan", "ios": "https://dc.lft.to/lastmile_qr_scan"}, "is_disabled": 0, "fusion_lat": 0.0, "name": "17a4c5a9b899f8a9c2ec203c278b4332", "fusion_lon": 0.0}, {"is_reserved": 0, "type": "electric_scooter", "bike_id": "9a2fff933b10a4ba3e4a6f96d7dc3866", "lat": 38.943061166666666, "lon": -77.02174016666666, "rental_uris": {"android": "https://dc.lft.to/lastmile_qr_scan", "ios": "https://dc.lft.to/lastmile_qr_scan"}, "is_disabled": 0, "fusion_lat": 0.0, "name": "9a2fff933b10a4ba3e4a6f96d7dc3866", "fusion_lon": 0.0}, {"is_reserved": 0, "type": "electric_scooter", "bike_id": "fd3178f09ef37ae936036b636e5b432e", "lat": 38.8880575, "lon": -77.00198433333334, "rental_uris": {"android": "https://dc.lft.to/lastmile_qr_scan", "ios": "https://dc.lft.to/lastmile_qr_scan"}, "is_disabled": 0, "fusion_lat": 0.0, "name": "fd3178f09ef37ae936036b636e5b432e", "fusion_lon": 0.0}, {"is_reserved": 0, "type": "electric_scooter", "bike_id": "eb3cb3a0d0b3a06c5d52906c083d5d12", "lat": 38.920245333333334, "lon": -77.010295, "rental_uris": {"android": "https://dc.lft.to/lastmile_qr_scan", "ios": "https://dc.lft.to/lastmile_qr_scan"}, "is_disabled": 0, "fusion_lat": 0.0, "name": "eb3cb3a0d0b3a06c5d52906c083d5d12", "fusion_lon": 0.0}, {"is_reserved": 0, "type": "electric_scooter", "bike_id": "b5825650031df2eb442b7aefe4e143a0", "lat": 38.899351833333334, "lon": -77.02678333333333, "rental_uris": {"android": "https://dc.lft.to/lastmile_qr_scan", "ios": "https://dc.lft.to/lastmile_qr_scan"}, "is_disabled": 0, "fusion_lat": 0.0, "name": "b5825650031df2eb442b7aefe4e143a0", "fusion_lon": 0.0}, {"is_reserved": 0, "type": "electric_scooter", "bike_id": "890527fa402183d59f84d605642bc295", "lat": 38.87655766666666, "lon": -77.00759466666666, "rental_uris": {"android": "https://dc.lft.to/lastmile_qr_scan", "ios": "https://dc.lft.to/lastmile_qr_scan"}, "is_disabled": 0, "fusion_lat": 0.0, "name": "890527fa402183d59f84d605642bc295", "fusion_lon": 0.0}, {"is_reserved": 0, "type": "electric_scooter", "bike_id": "fed05da7a62476f893b4a701047f5e44", "lat": 38.876097666666666, "lon": -76.96566333333334, "rental_uris": {"android": "https://dc.lft.to/lastmile_qr_scan", "ios": "https://dc.lft.to/lastmile_qr_scan"}, "is_disabled": 0, "fusion_lat": 0.0, "name": "fed05da7a62476f893b4a701047f5e44", "fusion_lon": 0.0}, {"is_reserved": 0, "type": "electric_scooter", "bike_id": "30690bf49b15efccacc50cda980e511f", "lat": 38.897100333333334, "lon": -77.022758, "rental_uris": {"android": "https://dc.lft.to/lastmile_qr_scan", "ios": "https://dc.lft.to/lastmile_qr_scan"}, "is_disabled": 0, "fusion_lat": 0.0, "name": "30690bf49b15efccacc50cda980e511f", "fusion_lon": 0.0}, {"is_reserved": 0, "type": "electric_scooter", "bike_id": "9fc65020b037c6c20160d83c03f04be2", "lat": 38.91387783333333, "lon": -77.017056, "rental_uris": {"android": "https://dc.lft.to/lastmile_qr_scan", "ios": "https://dc.lft.to/lastmile_qr_scan"}, "is_disabled": 0, "fusion_lat": 0.0, "name": "9fc65020b037c6c20160d83c03f04be2", "fusion_lon": 0.0}, {"is_reserved": 0, "type": "electric_scooter", "bike_id": "9afbb7b4093d6075e0cf2f34cb5e6773", "lat": 38.864846166666666, "lon": -76.97742833333334, "rental_uris": {"android": "https://dc.lft.to/lastmile_qr_scan", "ios": "https://dc.lft.to/lastmile_qr_scan"}, "is_disabled": 0, "fusion_lat": 0.0, "name": "9afbb7b4093d6075e0cf2f34cb5e6773", "fusion_lon": 0.0}, {"is_reserved": 0, "type": "electric_bike", "bike_id": "67ef644530ef90dea9b04e14e39f3c91", "lat": 38.8893435, "lon": -76.91330183333334, "rental_uris": {"android": "https://dc.lft.to/lastmile_qr_scan", "ios": "https://dc.lft.to/lastmile_qr_scan"}, "is_disabled": 0, "fusion_lat": 0.0, "name": "67ef644530ef90dea9b04e14e39f3c91", "fusion_lon": 0.0}, {"is_reserved": 0, "type": "electric_scooter", "bike_id": "06b4ce7c7e9262b9c310b31a3f3b2b25", "lat": 38.917111166666665, "lon": -77.03857116666667, "rental_uris": {"android": "https://dc.lft.to/lastmile_qr_scan", "ios": "https://dc.lft.to/lastmile_qr_scan"}, "is_disabled": 0, "fusion_lat": 0.0, "name": "06b4ce7c7e9262b9c310b31a3f3b2b25", "fusion_lon": 0.0}, {"is_reserved": 0, "type": "electric_scooter", "bike_id": "90ab517d12d7c3bcf9a88bae99deda75", "lat": 38.924805666666664, "lon": -77.02272766666667, "rental_uris": {"android": "https://dc.lft.to/lastmile_qr_scan", "ios": "https://dc.lft.to/lastmile_qr_scan"}, "is_disabled": 0, "fusion_lat": 0.0, "name": "90ab517d12d7c3bcf9a88bae99deda75", "fusion_lon": 0.0}, {"is_reserved": 0, "type": "electric_scooter", "bike_id": "52e8c884256788c0c7855083de3fd4c6", "lat": 38.94181233333333, "lon": -77.02564133333334, "rental_uris": {"android": "https://dc.lft.to/lastmile_qr_scan", "ios": "https://dc.lft.to/lastmile_qr_scan"}, "is_disabled": 0, "fusion_lat": 0.0, "name": "52e8c884256788c0c7855083de3fd4c6", "fusion_lon": 0.0}, {"is_reserved": 0, "type": "electric_scooter", "bike_id": "307d1c746c5ac22c4edac5084be61a47", "lat": 38.914714333333336, "lon": -77.02607883333333, "rental_uris": {"android": "https://dc.lft.to/lastmile_qr_scan", "ios": "https://dc.lft.to/lastmile_qr_scan"}, "is_disabled": 0, "fusion_lat": 0.0, "name": "307d1c746c5ac22c4edac5084be61a47", "fusion_lon": 0.0}, {"is_reserved": 0, "type": "electric_scooter", "bike_id": "cfe53e6bb65389096ffd221b21fc2c04", "lat": 38.87866483333333, "lon": -76.96257566666667, "rental_uris": {"android": "https://dc.lft.to/lastmile_qr_scan", "ios": "https://dc.lft.to/lastmile_qr_scan"}, "is_disabled": 0, "fusion_lat": 0.0, "name": "cfe53e6bb65389096ffd221b21fc2c04", "fusion_lon": 0.0}, {"is_reserved": 0, "type": "electric_bike", "bike_id": "04d72c52a8ebfdbee125f7fecd350c7d", "lat": 38.95852383333333, "lon": -76.98640933333333, "rental_uris": {"android": "https://dc.lft.to/lastmile_qr_scan", "ios": "https://dc.lft.to/lastmile_qr_scan"}, "is_disabled": 0, "fusion_lat": 0.0, "name": "04d72c52a8ebfdbee125f7fecd350c7d", "fusion_lon": 0.0}, {"is_reserved": 0, "type": "electric_scooter", "bike_id": "d192a73a6fb5a6643f3174c7d0af6205", "lat": 38.92606716666667, "lon": -77.02157916666667, "rental_uris": {"android": "https://dc.lft.to/lastmile_qr_scan", "ios": "https://dc.lft.to/lastmile_qr_scan"}, "is_disabled": 0, "fusion_lat": 0.0, "name": "d192a73a6fb5a6643f3174c7d0af6205", "fusion_lon": 0.0}, {"is_reserved": 0, "type": "electric_scooter", "bike_id": "5b3130ccf94fc7e82eb8ecabc24af278", "lat": 38.90041183333334, "lon": -77.00728933333333, "rental_uris": {"android": "https://dc.lft.to/lastmile_qr_scan", "ios": "https://dc.lft.to/lastmile_qr_scan"}, "is_disabled": 0, "fusion_lat": 0.0, "name": "5b3130ccf94fc7e82eb8ecabc24af278", "fusion_lon": 0.0}, {"is_reserved": 0, "type": "electric_scooter", "bike_id": "070f3afd6280872299dd6d577d799bec", "lat": 38.91265516666667, "lon": -77.038735, "rental_uris": {"android": "https://dc.lft.to/lastmile_qr_scan", "ios": "https://dc.lft.to/lastmile_qr_scan"}, "is_disabled": 0, "fusion_lat": 0.0, "name": "070f3afd6280872299dd6d577d799bec", "fusion_lon": 0.0}, {"is_reserved": 0, "type": "electric_scooter", "bike_id": "aab0661483004a620f3c148ead4abb24", "lat": 38.924276, "lon": -77.01945866666667, "rental_uris": {"android": "https://dc.lft.to/lastmile_qr_scan", "ios": "https://dc.lft.to/lastmile_qr_scan"}, "is_disabled": 0, "fusion_lat": 0.0, "name": "aab0661483004a620f3c148ead4abb24", "fusion_lon": 0.0}, {"is_reserved": 0, "type": "electric_scooter", "bike_id": "14f3912abe4464202348eb9fdf543430", "lat": 38.922374833333336, "lon": -77.035235, "rental_uris": {"android": "https://dc.lft.to/lastmile_qr_scan", "ios": "https://dc.lft.to/lastmile_qr_scan"}, "is_disabled": 0, "fusion_lat": 0.0, "name": "14f3912abe4464202348eb9fdf543430", "fusion_lon": 0.0}, {"is_reserved": 0, "type": "electric_scooter", "bike_id": "9c128d58a6d3bb7b89e8f98dc219389b", "lat": 38.89772216666667, "lon": -77.0157355, "rental_uris": {"android": "https://dc.lft.to/lastmile_qr_scan", "ios": "https://dc.lft.to/lastmile_qr_scan"}, "is_disabled": 0, "fusion_lat": 0.0, "name": "9c128d58a6d3bb7b89e8f98dc219389b", "fusion_lon": 0.0}, {"is_reserved": 0, "type": "electric_scooter", "bike_id": "ed4bc34b47c3b3beac0cb07a47683155", "lat": 38.892231333333335, "lon": -77.04487116666667, "rental_uris": {"android": "https://dc.lft.to/lastmile_qr_scan", "ios": "https://dc.lft.to/lastmile_qr_scan"}, "is_disabled": 0, "fusion_lat": 0.0, "name": "ed4bc34b47c3b3beac0cb07a47683155", "fusion_lon": 0.0}, {"is_reserved": 0, "type": "electric_scooter", "bike_id": "afcf9c4b36b4b9993ca629f8045e829d", "lat": 38.908938666666664, "lon": -76.99618283333334, "rental_uris": {"android": "https://dc.lft.to/lastmile_qr_scan", "ios": "https://dc.lft.to/lastmile_qr_scan"}, "is_disabled": 0, "fusion_lat": 0.0, "name": "afcf9c4b36b4b9993ca629f8045e829d", "fusion_lon": 0.0}, {"is_reserved": 0, "type": "electric_scooter", "bike_id": "663d6a76363c3504890ff2dafe26ae77", "lat": 38.933563666666664, "lon": -77.057254, "rental_uris": {"android": "https://dc.lft.to/lastmile_qr_scan", "ios": "https://dc.lft.to/lastmile_qr_scan"}, "is_disabled": 0, "fusion_lat": 0.0, "name": "663d6a76363c3504890ff2dafe26ae77", "fusion_lon": 0.0}, {"is_reserved": 0, "type": "electric_scooter", "bike_id": "c279eb3abbb7a78bd6bc675436d60198", "lat": 38.918181, "lon": -77.01215, "rental_uris": {"android": "https://dc.lft.to/lastmile_qr_scan", "ios": "https://dc.lft.to/lastmile_qr_scan"}, "is_disabled": 0, "fusion_lat": 0.0, "name": "c279eb3abbb7a78bd6bc675436d60198", "fusion_lon": 0.0}, {"is_reserved": 0, "type": "electric_scooter", "bike_id": "94e8d9a320aba8f43d221ccb024bdecf", "lat": 38.923405, "lon": -77.05236966666666, "rental_uris": {"android": "https://dc.lft.to/lastmile_qr_scan", "ios": "https://dc.lft.to/lastmile_qr_scan"}, "is_disabled": 0, "fusion_lat": 0.0, "name": "94e8d9a320aba8f43d221ccb024bdecf", "fusion_lon": 0.0}, {"is_reserved": 0, "type": "electric_scooter", "bike_id": "238299e3e8a524a556210b0adc7b0bff", "lat": 38.926274666666664, "lon": -77.0425155, "rental_uris": {"android": "https://dc.lft.to/lastmile_qr_scan", "ios": "https://dc.lft.to/lastmile_qr_scan"}, "is_disabled": 0, "fusion_lat": 0.0, "name": "238299e3e8a524a556210b0adc7b0bff", "fusion_lon": 0.0}, {"is_reserved": 0, "type": "electric_scooter", "bike_id": "c27588f19db9023f8a0fea8340dfa877", "lat": 38.90590916666667, "lon": -77.02978716666667, "rental_uris": {"android": "https://dc.lft.to/lastmile_qr_scan", "ios": "https://dc.lft.to/lastmile_qr_scan"}, "is_disabled": 0, "fusion_lat": 0.0, "name": "c27588f19db9023f8a0fea8340dfa877", "fusion_lon": 0.0}, {"is_reserved": 0, "type": "electric_scooter", "bike_id": "9cfc155f34826589a8601e88d14ebe87", "lat": 38.93260883333333, "lon": -77.02063966666667, "rental_uris": {"android": "https://dc.lft.to/lastmile_qr_scan", "ios": "https://dc.lft.to/lastmile_qr_scan"}, "is_disabled": 0, "fusion_lat": 0.0, "name": "9cfc155f34826589a8601e88d14ebe87", "fusion_lon": 0.0}, {"is_reserved": 0, "type": "electric_scooter", "bike_id": "56a045ac83738f5236de9546c44a0353", "lat": 38.92402883333333, "lon": -77.04265166666667, "rental_uris": {"android": "https://dc.lft.to/lastmile_qr_scan", "ios": "https://dc.lft.to/lastmile_qr_scan"}, "is_disabled": 0, "fusion_lat": 0.0, "name": "56a045ac83738f5236de9546c44a0353", "fusion_lon": 0.0}, {"is_reserved": 0, "type": "electric_scooter", "bike_id": "ac042aa46544ecc8dbae34c58c0815e8", "lat": 38.89452633333333, "lon": -77.02632016666666, "rental_uris": {"android": "https://dc.lft.to/lastmile_qr_scan", "ios": "https://dc.lft.to/lastmile_qr_scan"}, "is_disabled": 0, "fusion_lat": 0.0, "name": "ac042aa46544ecc8dbae34c58c0815e8", "fusion_lon": 0.0}, {"is_reserved": 0, "type": "electric_scooter", "bike_id": "62f30fcfe3c8ae4b6900347ada491e26", "lat": 38.9432795, "lon": -77.01258683333333, "rental_uris": {"android": "https://dc.lft.to/lastmile_qr_scan", "ios": "https://dc.lft.to/lastmile_qr_scan"}, "is_disabled": 0, "fusion_lat": 0.0, "name": "62f30fcfe3c8ae4b6900347ada491e26", "fusion_lon": 0.0}, {"is_reserved": 0, "type": "electric_scooter", "bike_id": "a633ddb2e9869b9e67c08eee8bd2bec8", "lat": 38.883395666666665, "lon": -77.0258695, "rental_uris": {"android": "https://dc.lft.to/lastmile_qr_scan", "ios": "https://dc.lft.to/lastmile_qr_scan"}, "is_disabled": 0, "fusion_lat": 0.0, "name": "a633ddb2e9869b9e67c08eee8bd2bec8", "fusion_lon": 0.0}, {"is_reserved": 0, "type": "electric_scooter", "bike_id": "bba2e0be9084a5b47fc5160552c0a574", "lat": 38.8988585, "lon": -77.00737233333334, "rental_uris": {"android": "https://dc.lft.to/lastmile_qr_scan", "ios": "https://dc.lft.to/lastmile_qr_scan"}, "is_disabled": 0, "fusion_lat": 0.0, "name": "bba2e0be9084a5b47fc5160552c0a574", "fusion_lon": 0.0}, {"is_reserved": 0, "type": "electric_scooter", "bike_id": "8b8cc85e5830865b2518ae678d81d2d9", "lat": 38.9432605, "lon": -77.06525466666666, "rental_uris": {"android": "https://dc.lft.to/lastmile_qr_scan", "ios": "https://dc.lft.to/lastmile_qr_scan"}, "is_disabled": 0, "fusion_lat": 0.0, "name": "8b8cc85e5830865b2518ae678d81d2d9", "fusion_lon": 0.0}, {"is_reserved": 0, "type": "electric_scooter", "bike_id": "9d50b141c0743773f84b37b5618647bb", "lat": 38.975152333333334, "lon": -77.01748133333334, "rental_uris": {"android": "https://dc.lft.to/lastmile_qr_scan", "ios": "https://dc.lft.to/lastmile_qr_scan"}, "is_disabled": 0, "fusion_lat": 0.0, "name": "9d50b141c0743773f84b37b5618647bb", "fusion_lon": 0.0}, {"is_reserved": 0, "type": "electric_scooter", "bike_id": "0c70b4dc1ebb40d228856a91cf5fc235", "lat": 38.900679, "lon": -77.04885716666666, "rental_uris": {"android": "https://dc.lft.to/lastmile_qr_scan", "ios": "https://dc.lft.to/lastmile_qr_scan"}, "is_disabled": 0, "fusion_lat": 0.0, "name": "0c70b4dc1ebb40d228856a91cf5fc235", "fusion_lon": 0.0}, {"is_reserved": 0, "type": "electric_scooter", "bike_id": "d0ec0be72e7fdd0ca97d6cd0328eb42b", "lat": 38.897065, "lon": -77.004938, "rental_uris": {"android": "https://dc.lft.to/lastmile_qr_scan", "ios": "https://dc.lft.to/lastmile_qr_scan"}, "is_disabled": 0, "fusion_lat": 0.0, "name": "d0ec0be72e7fdd0ca97d6cd0328eb42b", "fusion_lon": 0.0}, {"is_reserved": 0, "type": "electric_scooter", "bike_id": "b85a1d1663af16b490c37dab0867c160", "lat": 38.92598366666667, "lon": -77.02488166666667, "rental_uris": {"android": "https://dc.lft.to/lastmile_qr_scan", "ios": "https://dc.lft.to/lastmile_qr_scan"}, "is_disabled": 0, "fusion_lat": 0.0, "name": "b85a1d1663af16b490c37dab0867c160", "fusion_lon": 0.0}, {"is_reserved": 0, "type": "electric_scooter", "bike_id": "dc00b31c9fef37662d128107e049c111", "lat": 38.89676516666667, "lon": -77.050401, "rental_uris": {"android": "https://dc.lft.to/lastmile_qr_scan", "ios": "https://dc.lft.to/lastmile_qr_scan"}, "is_disabled": 0, "fusion_lat": 0.0, "name": "dc00b31c9fef37662d128107e049c111", "fusion_lon": 0.0}, {"is_reserved": 0, "type": "electric_scooter", "bike_id": "23fb0a97a07a37f4ddaff0cdb41a3908", "lat": 38.92690916666667, "lon": -77.02579183333333, "rental_uris": {"android": "https://dc.lft.to/lastmile_qr_scan", "ios": "https://dc.lft.to/lastmile_qr_scan"}, "is_disabled": 0, "fusion_lat": 0.0, "name": "23fb0a97a07a37f4ddaff0cdb41a3908", "fusion_lon": 0.0}, {"is_reserved": 0, "type": "electric_scooter", "bike_id": "42ec20e2dce9c8424e88bfb56300c9f3", "lat": 38.92073666666667, "lon": -77.02390433333333, "rental_uris": {"android": "https://dc.lft.to/lastmile_qr_scan", "ios": "https://dc.lft.to/lastmile_qr_scan"}, "is_disabled": 0, "fusion_lat": 0.0, "name": "42ec20e2dce9c8424e88bfb56300c9f3", "fusion_lon": 0.0}, {"is_reserved": 0, "type": "electric_scooter", "bike_id": "256d09a83304cb74058a986a1d7642e0", "lat": 38.943130333333336, "lon": -77.05937683333333, "rental_uris": {"android": "https://dc.lft.to/lastmile_qr_scan", "ios": "https://dc.lft.to/lastmile_qr_scan"}, "is_disabled": 0, "fusion_lat": 0.0, "name": "256d09a83304cb74058a986a1d7642e0", "fusion_lon": 0.0}, {"is_reserved": 0, "type": "electric_bike", "bike_id": "6e2ba3b105b7fde79844a7324b5ef402", "lat": 38.8824445, "lon": -76.9626065, "rental_uris": {"android": "https://dc.lft.to/lastmile_qr_scan", "ios": "https://dc.lft.to/lastmile_qr_scan"}, "is_disabled": 0, "fusion_lat": 0.0, "name": "6e2ba3b105b7fde79844a7324b5ef402", "fusion_lon": 0.0}, {"is_reserved": 0, "type": "electric_scooter", "bike_id": "5920999ca8deb2e5f8687fb2d0396699", "lat": 38.925347333333335, "lon": -77.04131033333333, "rental_uris": {"android": "https://dc.lft.to/lastmile_qr_scan", "ios": "https://dc.lft.to/lastmile_qr_scan"}, "is_disabled": 0, "fusion_lat": 0.0, "name": "5920999ca8deb2e5f8687fb2d0396699", "fusion_lon": 0.0}, {"is_reserved": 0, "type": "electric_scooter", "bike_id": "f056436ec501debd8704c7c5dcd1a482", "lat": 38.915533833333335, "lon": -77.014128, "rental_uris": {"android": "https://dc.lft.to/lastmile_qr_scan", "ios": "https://dc.lft.to/lastmile_qr_scan"}, "is_disabled": 0, "fusion_lat": 0.0, "name": "f056436ec501debd8704c7c5dcd1a482", "fusion_lon": 0.0}, {"is_reserved": 0, "type": "electric_scooter", "bike_id": "38a0d60d2c4b7267322bfc290204462c", "lat": 38.92643483333333, "lon": -77.0251455, "rental_uris": {"android": "https://dc.lft.to/lastmile_qr_scan", "ios": "https://dc.lft.to/lastmile_qr_scan"}, "is_disabled": 0, "fusion_lat": 0.0, "name": "38a0d60d2c4b7267322bfc290204462c", "fusion_lon": 0.0}, {"is_reserved": 0, "type": "electric_bike", "bike_id": "ef839220465bf20e639abc2aee5efe77", "lat": 39.085914833333334, "lon": -77.1225615, "rental_uris": {"android": "https://dc.lft.to/lastmile_qr_scan", "ios": "https://dc.lft.to/lastmile_qr_scan"}, "is_disabled": 0, "fusion_lat": 0.0, "name": "ef839220465bf20e639abc2aee5efe77", "fusion_lon": 0.0}, {"is_reserved": 0, "type": "electric_scooter", "bike_id": "e7825ff137fe8f33eb569dea490b79b4", "lat": 38.92054266666667, "lon": -77.04188233333333, "rental_uris": {"android": "https://dc.lft.to/lastmile_qr_scan", "ios": "https://dc.lft.to/lastmile_qr_scan"}, "is_disabled": 0, "fusion_lat": 0.0, "name": "e7825ff137fe8f33eb569dea490b79b4", "fusion_lon": 0.0}, {"is_reserved": 0, "type": "electric_scooter", "bike_id": "d107c62a7f238b34683ec4b1501d640f", "lat": 38.933013, "lon": -77.02139733333334, "rental_uris": {"android": "https://dc.lft.to/lastmile_qr_scan", "ios": "https://dc.lft.to/lastmile_qr_scan"}, "is_disabled": 0, "fusion_lat": 0.0, "name": "d107c62a7f238b34683ec4b1501d640f", "fusion_lon": 0.0}, {"is_reserved": 0, "type": "electric_scooter", "bike_id": "814cec9ae3f08f8bfe0cd93b49cd4650", "lat": 38.90771683333333, "lon": -77.04510783333333, "rental_uris": {"android": "https://dc.lft.to/lastmile_qr_scan", "ios": "https://dc.lft.to/lastmile_qr_scan"}, "is_disabled": 0, "fusion_lat": 0.0, "name": "814cec9ae3f08f8bfe0cd93b49cd4650", "fusion_lon": 0.0}, {"is_reserved": 0, "type": "electric_scooter", "bike_id": "ba586039030f9645e921191b5218554e", "lat": 38.901922166666665, "lon": -77.02185933333334, "rental_uris": {"android": "https://dc.lft.to/lastmile_qr_scan", "ios": "https://dc.lft.to/lastmile_qr_scan"}, "is_disabled": 0, "fusion_lat": 0.0, "name": "ba586039030f9645e921191b5218554e", "fusion_lon": 0.0}, {"is_reserved": 0, "type": "electric_bike", "bike_id": "94ed6fc12631d4e25287a6db86753410", "lat": 38.84052716666667, "lon": -77.05599916666667, "rental_uris": {"android": "https://dc.lft.to/lastmile_qr_scan", "ios": "https://dc.lft.to/lastmile_qr_scan"}, "is_disabled": 0, "fusion_lat": 0.0, "name": "94ed6fc12631d4e25287a6db86753410", "fusion_lon": 0.0}, {"is_reserved": 0, "type": "electric_scooter", "bike_id": "21e62bba60c308ddde4084fe7c78bb23", "lat": 38.915453166666666, "lon": -77.01210516666667, "rental_uris": {"android": "https://dc.lft.to/lastmile_qr_scan", "ios": "https://dc.lft.to/lastmile_qr_scan"}, "is_disabled": 0, "fusion_lat": 0.0, "name": "21e62bba60c308ddde4084fe7c78bb23", "fusion_lon": 0.0}, {"is_reserved": 0, "type": "electric_scooter", "bike_id": "4f076cd0d0d3dc52f3b5318377a0703a", "lat": 38.896313666666664, "lon": -77.02617116666667, "rental_uris": {"android": "https://dc.lft.to/lastmile_qr_scan", "ios": "https://dc.lft.to/lastmile_qr_scan"}, "is_disabled": 0, "fusion_lat": 0.0, "name": "4f076cd0d0d3dc52f3b5318377a0703a", "fusion_lon": 0.0}, {"is_reserved": 0, "type": "electric_scooter", "bike_id": "23eb352abcb02d0f24879ab5cb0454b8", "lat": 38.917855, "lon": -77.02324316666666, "rental_uris": {"android": "https://dc.lft.to/lastmile_qr_scan", "ios": "https://dc.lft.to/lastmile_qr_scan"}, "is_disabled": 0, "fusion_lat": 0.0, "name": "23eb352abcb02d0f24879ab5cb0454b8", "fusion_lon": 0.0}, {"is_reserved": 0, "type": "electric_scooter", "bike_id": "9a3c0be1cf422fd785cdcf0055602415", "lat": 38.89351166666667, "lon": -77.0174555, "rental_uris": {"android": "https://dc.lft.to/lastmile_qr_scan", "ios": "https://dc.lft.to/lastmile_qr_scan"}, "is_disabled": 0, "fusion_lat": 0.0, "name": "9a3c0be1cf422fd785cdcf0055602415", "fusion_lon": 0.0}, {"is_reserved": 0, "type": "electric_scooter", "bike_id": "f7c53f6e50a308ad664f6bfafbdc9903", "lat": 38.90363883333333, "lon": -77.03186666666667, "rental_uris": {"android": "https://dc.lft.to/lastmile_qr_scan", "ios": "https://dc.lft.to/lastmile_qr_scan"}, "is_disabled": 0, "fusion_lat": 0.0, "name": "f7c53f6e50a308ad664f6bfafbdc9903", "fusion_lon": 0.0}, {"is_reserved": 0, "type": "electric_scooter", "bike_id": "11314ab9554b388622adfdaeb12201f5", "lat": 38.912496166666664, "lon": -77.027239, "rental_uris": {"android": "https://dc.lft.to/lastmile_qr_scan", "ios": "https://dc.lft.to/lastmile_qr_scan"}, "is_disabled": 0, "fusion_lat": 0.0, "name": "11314ab9554b388622adfdaeb12201f5", "fusion_lon": 0.0}, {"is_reserved": 0, "type": "electric_scooter", "bike_id": "2325dbbc1afff621b8b9b9d498e56c9f", "lat": 38.92677616666667, "lon": -77.0262855, "rental_uris": {"android": "https://dc.lft.to/lastmile_qr_scan", "ios": "https://dc.lft.to/lastmile_qr_scan"}, "is_disabled": 0, "fusion_lat": 0.0, "name": "2325dbbc1afff621b8b9b9d498e56c9f", "fusion_lon": 0.0}, {"is_reserved": 0, "type": "electric_bike", "bike_id": "ee3d29d27ffafc0188bad7db07d71407", "lat": 38.93580633333333, "lon": -77.02745866666666, "rental_uris": {"android": "https://dc.lft.to/lastmile_qr_scan", "ios": "https://dc.lft.to/lastmile_qr_scan"}, "is_disabled": 0, "fusion_lat": 0.0, "name": "ee3d29d27ffafc0188bad7db07d71407", "fusion_lon": 0.0}, {"is_reserved": 0, "type": "electric_scooter", "bike_id": "68058fd4a261fdec0f1ad1ff50802395", "lat": 38.89424783333333, "lon": -77.05597116666667, "rental_uris": {"android": "https://dc.lft.to/lastmile_qr_scan", "ios": "https://dc.lft.to/lastmile_qr_scan"}, "is_disabled": 0, "fusion_lat": 0.0, "name": "68058fd4a261fdec0f1ad1ff50802395", "fusion_lon": 0.0}, {"is_reserved": 0, "type": "electric_scooter", "bike_id": "8baf9a79534e8e7564fad115bdcf67af", "lat": 38.888735833333335, "lon": -76.99038383333334, "rental_uris": {"android": "https://dc.lft.to/lastmile_qr_scan", "ios": "https://dc.lft.to/lastmile_qr_scan"}, "is_disabled": 0, "fusion_lat": 0.0, "name": "8baf9a79534e8e7564fad115bdcf67af", "fusion_lon": 0.0}, {"is_reserved": 0, "type": "electric_scooter", "bike_id": "435fbe17d8abe061a07d88757c25403f", "lat": 38.86486583333333, "lon": -76.97747933333333, "rental_uris": {"android": "https://dc.lft.to/lastmile_qr_scan", "ios": "https://dc.lft.to/lastmile_qr_scan"}, "is_disabled": 0, "fusion_lat": 0.0, "name": "435fbe17d8abe061a07d88757c25403f", "fusion_lon": 0.0}, {"is_reserved": 0, "type": "electric_scooter", "bike_id": "eb42a5cf5bb26ea383eb8e53b7dac911", "lat": 38.894848333333336, "lon": -76.99581966666666, "rental_uris": {"android": "https://dc.lft.to/lastmile_qr_scan", "ios": "https://dc.lft.to/lastmile_qr_scan"}, "is_disabled": 0, "fusion_lat": 0.0, "name": "eb42a5cf5bb26ea383eb8e53b7dac911", "fusion_lon": 0.0}, {"is_reserved": 0, "type": "electric_scooter", "bike_id": "189f1160e155e7af189597b8c0068b4b", "lat": 38.908570833333336, "lon": -77.00171333333333, "rental_uris": {"android": "https://dc.lft.to/lastmile_qr_scan", "ios": "https://dc.lft.to/lastmile_qr_scan"}, "is_disabled": 0, "fusion_lat": 0.0, "name": "189f1160e155e7af189597b8c0068b4b", "fusion_lon": 0.0}, {"is_reserved": 0, "type": "electric_scooter", "bike_id": "2b960d016e7b66b1f6680426d8455ead", "lat": 38.923658833333334, "lon": -77.03057183333334, "rental_uris": {"android": "https://dc.lft.to/lastmile_qr_scan", "ios": "https://dc.lft.to/lastmile_qr_scan"},