{"data": {"bikes": [{"lon": -77.00537616666666, "name": "da0476e131be4904ed6320ddf7ce9469", "is_disabled": 0, "type": "electric_scooter", "is_reserved": 0, "fusion_lon": 0.0, "lat": 38.87546, "rental_uris": {"ios": "https://dc.lft.to/lastmile_qr_scan", "android": "https://dc.lft.to/lastmile_qr_scan"}, "bike_id": "da0476e131be4904ed6320ddf7ce9469", "fusion_lat": 0.0}, {"lon": -77.02695466666667, "name": "ef7a246e33f1fe276067fceb70d96286", "is_disabled": 0, "type": "electric_scooter", "is_reserved": 0, "fusion_lon": 0.0, "lat": 38.89742316666667, "rental_uris": {"ios": "https://dc.lft.to/lastmile_qr_scan", "android": "https://dc.lft.to/lastmile_qr_scan"}, "bike_id": "ef7a246e33f1fe276067fceb70d96286", "fusion_lat": 0.0}, {"lon": -77.04197183333333, "name": "eab7a5ededec5b6ae6fb827aa1cdef11", "is_disabled": 0, "type": "electric_scooter", "is_reserved": 0, "fusion_lon": 0.0, "lat": 38.92061916666667, "rental_uris": {"ios": "https://dc.lft.to/lastmile_qr_scan", "android": "https://dc.lft.to/lastmile_qr_scan"}, "bike_id": "eab7a5ededec5b6ae6fb827aa1cdef11", "fusion_lat": 0.0}, {"lon": -76.97142583333333, "name": "072ce14c12d137c5ac2f9c0a4eaed763", "is_disabled": 0, "type": "electric_scooter", "is_reserved": 0, "fusion_lon": 0.0, "lat": 38.91353216666667, "rental_uris": {"ios": "https://dc.lft.to/lastmile_qr_scan", "android": "https://dc.lft.to/lastmile_qr_scan"}, "bike_id": "072ce14c12d137c5ac2f9c0a4eaed763", "fusion_lat": 0.0}, {"lon": -77.01945616666667, "name": "4216e175bf12293b864f4884b5d4d451", "is_disabled": 0, "type": "electric_scooter", "is_reserved": 0, "fusion_lon": 0.0, "lat": 38.92262066666667, "rental_uris": {"ios": "https://dc.lft.to/lastmile_qr_scan", "android": "https://dc.lft.to/lastmile_qr_scan"}, "bike_id": "4216e175bf12293b864f4884b5d4d451", "fusion_lat": 0.0}, {"lon": -77.03519533333333, "name": "d22df07c2153ede00c9dd74f735738e1", "is_disabled": 0, "type": "electric_scooter", "is_reserved": 0, "fusion_lon": 0.0, "lat": 38.90676666666667, "rental_uris": {"ios": "https://dc.lft.to/lastmile_qr_scan", "android": "https://dc.lft.to/lastmile_qr_scan"}, "bike_id": "d22df07c2153ede00c9dd74f735738e1", "fusion_lat": 0.0}, {"lon": -77.04162666666667, "name": "d3ea0892ddae9fdfc41419cd2043eb1c", "is_disabled": 0, "type": "electric_scooter", "is_reserved": 0, "fusion_lon": 0.0, "lat": 38.918179333333335, "rental_uris": {"ios": "https://dc.lft.to/lastmile_qr_scan", "android": "https://dc.lft.to/lastmile_qr_scan"}, "bike_id": "d3ea0892ddae9fdfc41419cd2043eb1c", "fusion_lat": 0.0}, {"lon": -77.03106583333333, "name": "c7a34d600711f5c2763a15477753c3d9", "is_disabled": 0, "type": "electric_scooter", "is_reserved": 0, "fusion_lon": 0.0, "lat": 38.9266885, "rental_uris": {"ios": "https://dc.lft.to/lastmile_qr_scan", "android": "https://dc.lft.to/lastmile_qr_scan"}, "bike_id": "c7a34d600711f5c2763a15477753c3d9", "fusion_lat": 0.0}, {"lon": -77.04638983333334, "name": "3012590bc92a8d2fbdc79b1570e9ef20", "is_disabled": 0, "type": "electric_scooter", "is_reserved": 0, "fusion_lon": 0.0, "lat": 38.922271, "rental_uris": {"ios": "https://dc.lft.to/lastmile_qr_scan", "android": "https://dc.lft.to/lastmile_qr_scan"}, "bike_id": "3012590bc92a8d2fbdc79b1570e9ef20", "fusion_lat": 0.0}, {"lon": -77.018053, "name": "dda5fd962400d15ff4ffc53d4f5e7db1", "is_disabled": 0, "type": "electric_scooter", "is_reserved": 0, "fusion_lon": 0.0, "lat": 38.919875833333336, "rental_uris": {"ios": "https://dc.lft.to/lastmile_qr_scan", "android": "https://dc.lft.to/lastmile_qr_scan"}, "bike_id": "dda5fd962400d15ff4ffc53d4f5e7db1", "fusion_lat": 0.0}, {"lon": -77.0338945, "name": "35ba555a3288aa61ec99bf17b0f51558", "is_disabled": 0, "type": "electric_scooter", "is_reserved": 0, "fusion_lon": 0.0, "lat": 38.909733333333335, "rental_uris": {"ios": "https://dc.lft.to/lastmile_qr_scan", "android": "https://dc.lft.to/lastmile_qr_scan"}, "bike_id": "35ba555a3288aa61ec99bf17b0f51558", "fusion_lat": 0.0}, {"lon": -77.03968516666667, "name": "dd61eeb4eabdc53a8fbe8801e8236be9", "is_disabled": 0, "type": "electric_scooter", "is_reserved": 0, "fusion_lon": 0.0, "lat": 38.920226166666666, "rental_uris": {"ios": "https://dc.lft.to/lastmile_qr_scan", "android": "https://dc.lft.to/lastmile_qr_scan"}, "bike_id": "dd61eeb4eabdc53a8fbe8801e8236be9", "fusion_lat": 0.0}, {"lon": -77.04994433333333, "name": "295b790caddc9a67049ba602838f7121", "is_disabled": 0, "type": "electric_scooter", "is_reserved": 0, "fusion_lon": 0.0, "lat": 38.90116116666667, "rental_uris": {"ios": "https://dc.lft.to/lastmile_qr_scan", "android": "https://dc.lft.to/lastmile_qr_scan"}, "bike_id": "295b790caddc9a67049ba602838f7121", "fusion_lat": 0.0}, {"lon": -76.907555, "name": "fc6bec6c14547a706aef92bf88a267bc", "is_disabled": 0, "type": "electric_bike", "is_reserved": 0, "fusion_lon": 0.0, "lat": 38.89614383333333, "rental_uris": {"ios": "https://dc.lft.to/lastmile_qr_scan", "android": "https://dc.lft.to/lastmile_qr_scan"}, "bike_id": "fc6bec6c14547a706aef92bf88a267bc", "fusion_lat": 0.0}, {"lon": -77.0418725, "name": "acb707578a618cc9f5b0c55a02cde27a", "is_disabled": 0, "type": "electric_scooter", "is_reserved": 0, "fusion_lon": 0.0, "lat": 38.9204565, "rental_uris": {"ios": "https://dc.lft.to/lastmile_qr_scan", "android": "https://dc.lft.to/lastmile_qr_scan"}, "bike_id": "acb707578a618cc9f5b0c55a02cde27a", "fusion_lat": 0.0}, {"lon": -77.03383983333333, "name": "357aeaa4ab6210f02097e8e93d627385", "is_disabled": 0, "type": "electric_scooter", "is_reserved": 0, "fusion_lon": 0.0, "lat": 38.921544, "rental_uris": {"ios": "https://dc.lft.to/lastmile_qr_scan", "android": "https://dc.lft.to/lastmile_qr_scan"}, "bike_id": "357aeaa4ab6210f02097e8e93d627385", "fusion_lat": 0.0}, {"lon": -77.0622655, "name": "c9700ac3bc9659e136932f56c569dc04", "is_disabled": 0, "type": "electric_scooter", "is_reserved": 0, "fusion_lon": 0.0, "lat": 38.91312833333333, "rental_uris": {"ios": "https://dc.lft.to/lastmile_qr_scan", "android": "https://dc.lft.to/lastmile_qr_scan"}, "bike_id": "c9700ac3bc9659e136932f56c569dc04", "fusion_lat": 0.0}, {"lon": -77.03467233333333, "name": "aa5796274672e1b313e7c8117d356b30", "is_disabled": 0, "type": "electric_scooter", "is_reserved": 0, "fusion_lon": 0.0, "lat": 38.92156666666666, "rental_uris": {"ios": "https://dc.lft.to/lastmile_qr_scan", "android": "https://dc.lft.to/lastmile_qr_scan"}, "bike_id": "aa5796274672e1b313e7c8117d356b30", "fusion_lat": 0.0}, {"lon": -77.03214516666667, "name": "6821ead15f2fcc4529f5ae89c626eff7", "is_disabled": 0, "type": "electric_scooter", "is_reserved": 0, "fusion_lon": 0.0, "lat": 38.91911916666667, "rental_uris": {"ios": "https://dc.lft.to/lastmile_qr_scan", "android": "https://dc.lft.to/lastmile_qr_scan"}, "bike_id": "6821ead15f2fcc4529f5ae89c626eff7", "fusion_lat": 0.0}, {"lon": -77.02348, "name": "b59750bc097970f8ffc070656d190ccf", "is_disabled": 0, "type": "electric_scooter", "is_reserved": 0, "fusion_lon": 0.0, "lat": 38.943009833333335, "rental_uris": {"ios": "https://dc.lft.to/lastmile_qr_scan", "android": "https://dc.lft.to/lastmile_qr_scan"}, "bike_id": "b59750bc097970f8ffc070656d190ccf", "fusion_lat": 0.0}, {"lon": -77.03087566666666, "name": "586f4ada816f9d637592e9ba175c1b17", "is_disabled": 0, "type": "electric_scooter", "is_reserved": 0, "fusion_lon": 0.0, "lat": 38.935328166666665, "rental_uris": {"ios": "https://dc.lft.to/lastmile_qr_scan", "android": "https://dc.lft.to/lastmile_qr_scan"}, "bike_id": "586f4ada816f9d637592e9ba175c1b17", "fusion_lat": 0.0}, {"lon": -77.07363933333333, "name": "039fac81cfc70d9b24b307d7abd984eb", "is_disabled": 0, "type": "electric_scooter", "is_reserved": 0, "fusion_lon": 0.0, "lat": 38.93355, "rental_uris": {"ios": "https://dc.lft.to/lastmile_qr_scan", "android": "https://dc.lft.to/lastmile_qr_scan"}, "bike_id": "039fac81cfc70d9b24b307d7abd984eb", "fusion_lat": 0.0}, {"lon": -77.03280116666667, "name": "6a7dc8533699e054205ff89d01359c93", "is_disabled": 0, "type": "electric_scooter", "is_reserved": 0, "fusion_lon": 0.0, "lat": 38.932036333333336, "rental_uris": {"ios": "https://dc.lft.to/lastmile_qr_scan", "android": "https://dc.lft.to/lastmile_qr_scan"}, "bike_id": "6a7dc8533699e054205ff89d01359c93", "fusion_lat": 0.0}, {"lon": -77.01957633333333, "name": "5a9eadc6e4db75b2875cb2cf610bfa5e", "is_disabled": 0, "type": "electric_scooter", "is_reserved": 0, "fusion_lon": 0.0, "lat": 38.92365983333333, "rental_uris": {"ios": "https://dc.lft.to/lastmile_qr_scan", "android": "https://dc.lft.to/lastmile_qr_scan"}, "bike_id": "5a9eadc6e4db75b2875cb2cf610bfa5e", "fusion_lat": 0.0}, {"lon": -77.05988483333333, "name": "483bfe1b5270ef42084cf71f060e6cec", "is_disabled": 0, "type": "electric_scooter", "is_reserved": 0, "fusion_lon": 0.0, "lat": 38.92711283333333, "rental_uris": {"ios": "https://dc.lft.to/lastmile_qr_scan", "android": "https://dc.lft.to/lastmile_qr_scan"}, "bike_id": "483bfe1b5270ef42084cf71f060e6cec", "fusion_lat": 0.0}, {"lon": -77.05343633333334, "name": "ddbdd0b0141fb83b5d221e53becfe924", "is_disabled": 0, "type": "electric_scooter", "is_reserved": 0, "fusion_lon": 0.0, "lat": 38.90422566666667, "rental_uris": {"ios": "https://dc.lft.to/lastmile_qr_scan", "android": "https://dc.lft.to/lastmile_qr_scan"}, "bike_id": "ddbdd0b0141fb83b5d221e53becfe924", "fusion_lat": 0.0}, {"lon": -77.04128216666666, "name": "3dc0917a6866ad16bd7fb75853d76dae", "is_disabled": 0, "type": "electric_scooter", "is_reserved": 0, "fusion_lon": 0.0, "lat": 38.918898, "rental_uris": {"ios": "https://dc.lft.to/lastmile_qr_scan", "android": "https://dc.lft.to/lastmile_qr_scan"}, "bike_id": "3dc0917a6866ad16bd7fb75853d76dae", "fusion_lat": 0.0}, {"lon": -76.94810333333334, "name": "ac0e31cf61fec53a2a75647d6857034b", "is_disabled": 0, "type": "electric_bike", "is_reserved": 0, "fusion_lon": 0.0, "lat": 38.89354383333333, "rental_uris": {"ios": "https://dc.lft.to/lastmile_qr_scan", "android": "https://dc.lft.to/lastmile_qr_scan"}, "bike_id": "ac0e31cf61fec53a2a75647d6857034b", "fusion_lat": 0.0}, {"lon": -77.0295155, "name": "704a931ce5a2979242e7f1e7992c14f5", "is_disabled": 0, "type": "electric_scooter", "is_reserved": 0, "fusion_lon": 0.0, "lat": 38.9049845, "rental_uris": {"ios": "https://dc.lft.to/lastmile_qr_scan", "android": "https://dc.lft.to/lastmile_qr_scan"}, "bike_id": "704a931ce5a2979242e7f1e7992c14f5", "fusion_lat": 0.0}, {"lon": -77.02846083333333, "name": "97c2a12cc890db059f1d2e55fe7bbb1e", "is_disabled": 0, "type": "electric_scooter", "is_reserved": 0, "fusion_lon": 0.0, "lat": 38.935288666666665, "rental_uris": {"ios": "https://dc.lft.to/lastmile_qr_scan", "android": "https://dc.lft.to/lastmile_qr_scan"}, "bike_id": "97c2a12cc890db059f1d2e55fe7bbb1e", "fusion_lat": 0.0}, {"lon": -77.022162, "name": "95e2f953179414004c8396bd5c3b77a4", "is_disabled": 0, "type": "electric_scooter", "is_reserved": 0, "fusion_lon": 0.0, "lat": 38.910130333333335, "rental_uris": {"ios": "https://dc.lft.to/lastmile_qr_scan", "android": "https://dc.lft.to/lastmile_qr_scan"}, "bike_id": "95e2f953179414004c8396bd5c3b77a4", "fusion_lat": 0.0}, {"lon": -77.01614366666666, "name": "a6b3170e12f1b1d8c9071a5ca1d946f7", "is_disabled": 0, "type": "electric_scooter", "is_reserved": 0, "fusion_lon": 0.0, "lat": 38.91068333333333, "rental_uris": {"ios": "https://dc.lft.to/lastmile_qr_scan", "android": "https://dc.lft.to/lastmile_qr_scan"}, "bike_id": "a6b3170e12f1b1d8c9071a5ca1d946f7", "fusion_lat": 0.0}, {"lon": -77.0254265, "name": "5ec5bcb7ea47e2932ec4878fa869f163", "is_disabled": 0, "type": "electric_scooter", "is_reserved": 0, "fusion_lon": 0.0, "lat": 38.907168, "rental_uris": {"ios": "https://dc.lft.to/lastmile_qr_scan", "android": "https://dc.lft.to/lastmile_qr_scan"}, "bike_id": "5ec5bcb7ea47e2932ec4878fa869f163", "fusion_lat": 0.0}, {"lon": -77.02048733333334, "name": "622b8c1cc468bc86b364ac03e4cb6da4", "is_disabled": 0, "type": "electric_scooter", "is_reserved": 0, "fusion_lon": 0.0, "lat": 38.921761833333335, "rental_uris": {"ios": "https://dc.lft.to/lastmile_qr_scan", "android": "https://dc.lft.to/lastmile_qr_scan"}, "bike_id": "622b8c1cc468bc86b364ac03e4cb6da4", "fusion_lat": 0.0}, {"lon": -77.08493483333334, "name": "655d56f0451a1d62929715c025166395", "is_disabled": 0, "type": "electric_scooter", "is_reserved": 0, "fusion_lon": 0.0, "lat": 38.95891133333333, "rental_uris": {"ios": "https://dc.lft.to/lastmile_qr_scan", "android": "https://dc.lft.to/lastmile_qr_scan"}, "bike_id": "655d56f0451a1d62929715c025166395", "fusion_lat": 0.0}, {"lon": -77.05092183333333, "name": "5453f28d947261e6f6259fd67fa41c93", "is_disabled": 0, "type": "electric_bike", "is_reserved": 0, "fusion_lon": 0.0, "lat": 38.813288166666666, "rental_uris": {"ios": "https://dc.lft.to/lastmile_qr_scan", "android": "https://dc.lft.to/lastmile_qr_scan"}, "bike_id": "5453f28d947261e6f6259fd67fa41c93", "fusion_lat": 0.0}, {"lon": -77.04317833333333, "name": "1a4e706a1cde8f51f31b22a43b550fb8", "is_disabled": 0, "type": "electric_scooter", "is_reserved": 0, "fusion_lon": 0.0, "lat": 38.922123166666665, "rental_uris": {"ios": "https://dc.lft.to/lastmile_qr_scan", "android": "https://dc.lft.to/lastmile_qr_scan"}, "bike_id": "1a4e706a1cde8f51f31b22a43b550fb8", "fusion_lat": 0.0}, {"lon": -77.03831216666667, "name": "6aab078c5439cedd27632157784deffc", "is_disabled": 0, "type": "electric_scooter", "is_reserved": 0, "fusion_lon": 0.0, "lat": 38.911116166666666, "rental_uris": {"ios": "https://dc.lft.to/lastmile_qr_scan", "android": "https://dc.lft.to/lastmile_qr_scan"}, "bike_id": "6aab078c5439cedd27632157784deffc", "fusion_lat": 0.0}, {"lon": -77.0268995, "name": "a3ef84719a658df22a5dc72f1dfc42ec", "is_disabled": 0, "type": "electric_scooter", "is_reserved": 0, "fusion_lon": 0.0, "lat": 38.9168995, "rental_uris": {"ios": "https://dc.lft.to/lastmile_qr_scan", "android": "https://dc.lft.to/lastmile_qr_scan"}, "bike_id": "a3ef84719a658df22a5dc72f1dfc42ec", "fusion_lat": 0.0}, {"lon": -77.02158116666666, "name": "fb6e0fb2af0889531adfce6631c714ea", "is_disabled": 0, "type": "electric_scooter", "is_reserved": 0, "fusion_lon": 0.0, "lat": 38.92613866666667, "rental_uris": {"ios": "https://dc.lft.to/lastmile_qr_scan", "android": "https://dc.lft.to/lastmile_qr_scan"}, "bike_id": "fb6e0fb2af0889531adfce6631c714ea", "fusion_lat": 0.0}, {"lon": -77.03181, "name": "0e45fe60c978ceb922af386d8fc79261", "is_disabled": 0, "type": "electric_scooter", "is_reserved": 0, "fusion_lon": 0.0, "lat": 38.92067516666667, "rental_uris": {"ios": "https://dc.lft.to/lastmile_qr_scan", "android": "https://dc.lft.to/lastmile_qr_scan"}, "bike_id": "0e45fe60c978ceb922af386d8fc79261", "fusion_lat": 0.0}, {"lon": -77.02965483333334, "name": "45b68779ec2e7a1c96c7e55120d9cde6", "is_disabled": 0, "type": "electric_scooter", "is_reserved": 0, "fusion_lon": 0.0, "lat": 38.92588283333333, "rental_uris": {"ios": "https://dc.lft.to/lastmile_qr_scan", "android": "https://dc.lft.to/lastmile_qr_scan"}, "bike_id": "45b68779ec2e7a1c96c7e55120d9cde6", "fusion_lat": 0.0}, {"lon": -77.02378383333334, "name": "225eb474e2e9c95ecd7d9113a01bf856", "is_disabled": 0, "type": "electric_scooter", "is_reserved": 0, "fusion_lon": 0.0, "lat": 38.90209733333333, "rental_uris": {"ios": "https://dc.lft.to/lastmile_qr_scan", "android": "https://dc.lft.to/lastmile_qr_scan"}, "bike_id": "225eb474e2e9c95ecd7d9113a01bf856", "fusion_lat": 0.0}, {"lon": -77.020774, "name": "6413bd213690c1c3adc5a9ab89e5ed73", "is_disabled": 0, "type": "electric_scooter", "is_reserved": 0, "fusion_lon": 0.0, "lat": 38.9525635, "rental_uris": {"ios": "https://dc.lft.to/lastmile_qr_scan", "android": "https://dc.lft.to/lastmile_qr_scan"}, "bike_id": "6413bd213690c1c3adc5a9ab89e5ed73", "fusion_lat": 0.0}, {"lon": -77.04176266666667, "name": "8631e1b76a0621b33b02a7ce244418fb", "is_disabled": 0, "type": "electric_scooter", "is_reserved": 0, "fusion_lon": 0.0, "lat": 38.91701483333333, "rental_uris": {"ios": "https://dc.lft.to/lastmile_qr_scan", "android": "https://dc.lft.to/lastmile_qr_scan"}, "bike_id": "8631e1b76a0621b33b02a7ce244418fb", "fusion_lat": 0.0}, {"lon": -77.01438683333333, "name": "a1aed24b2170301c6522a3aa1d1c6d7e", "is_disabled": 0, "type": "electric_scooter", "is_reserved": 0, "fusion_lon": 0.0, "lat": 38.91310516666667, "rental_uris": {"ios": "https://dc.lft.to/lastmile_qr_scan", "android": "https://dc.lft.to/lastmile_qr_scan"}, "bike_id": "a1aed24b2170301c6522a3aa1d1c6d7e", "fusion_lat": 0.0}, {"lon": -77.03209166666667, "name": "5cdc8565e81c1f1f1eaee676be43efdb", "is_disabled": 0, "type": "electric_scooter", "is_reserved": 0, "fusion_lon": 0.0, "lat": 38.91611116666667, "rental_uris": {"ios": "https://dc.lft.to/lastmile_qr_scan", "android": "https://dc.lft.to/lastmile_qr_scan"}, "bike_id": "5cdc8565e81c1f1f1eaee676be43efdb", "fusion_lat": 0.0}, {"lon": -77.0487685, "name": "ab0976afc364f230f900204138d1ddba", "is_disabled": 0, "type": "electric_scooter", "is_reserved": 0, "fusion_lon": 0.0, "lat": 38.90114916666667, "rental_uris": {"ios": "https://dc.lft.to/lastmile_qr_scan", "android": "https://dc.lft.to/lastmile_qr_scan"}, "bike_id": "ab0976afc364f230f900204138d1ddba", "fusion_lat": 0.0}, {"lon": -77.0231625, "name": "1b8b6e63eb07c439392b34715bb010c4", "is_disabled": 0, "type": "electric_scooter", "is_reserved": 0, "fusion_lon": 0.0, "lat": 38.92072833333334, "rental_uris": {"ios": "https://dc.lft.to/lastmile_qr_scan", "android": "https://dc.lft.to/lastmile_qr_scan"}, "bike_id": "1b8b6e63eb07c439392b34715bb010c4", "fusion_lat": 0.0}, {"lon": -76.98951016666666, "name": "f2423b6dc8eea77978e87771dda2d2e8", "is_disabled": 0, "type": "electric_scooter", "is_reserved": 0, "fusion_lon": 0.0, "lat": 38.90135, "rental_uris": {"ios": "https://dc.lft.to/lastmile_qr_scan", "android": "https://dc.lft.to/lastmile_qr_scan"}, "bike_id": "f2423b6dc8eea77978e87771dda2d2e8", "fusion_lat": 0.0}, {"lon": -77.025822, "name": "0c8fe5dae26ef5b2878ad703b66e02eb", "is_disabled": 0, "type": "electric_scooter", "is_reserved": 0, "fusion_lon": 0.0, "lat": 38.9095825, "rental_uris": {"ios": "https://dc.lft.to/lastmile_qr_scan", "android": "https://dc.lft.to/lastmile_qr_scan"}, "bike_id": "0c8fe5dae26ef5b2878ad703b66e02eb", "fusion_lat": 0.0}, {"lon": -77.03583283333333, "name": "49a0b7734e61e925a3d7d4875bd2c5e3", "is_disabled": 0, "type": "electric_scooter", "is_reserved": 0, "fusion_lon": 0.0, "lat": 38.927892166666666, "rental_uris": {"ios": "https://dc.lft.to/lastmile_qr_scan", "android": "https://dc.lft.to/lastmile_qr_scan"}, "bike_id": "49a0b7734e61e925a3d7d4875bd2c5e3", "fusion_lat": 0.0}, {"lon": -77.025949, "name": "e53b7e443a66ad56490dda5ca5390262", "is_disabled": 0, "type": "electric_scooter", "is_reserved": 0, "fusion_lon": 0.0, "lat": 38.920932666666666, "rental_uris": {"ios": "https://dc.lft.to/lastmile_qr_scan", "android": "https://dc.lft.to/lastmile_qr_scan"}, "bike_id": "e53b7e443a66ad56490dda5ca5390262", "fusion_lat": 0.0}, {"lon": -76.95201166666666, "name": "36acd5a3f69656b704b6f41245ceef21", "is_disabled": 0, "type": "electric_bike", "is_reserved": 0, "fusion_lon": 0.0, "lat": 38.89112683333333, "rental_uris": {"ios": "https://dc.lft.to/lastmile_qr_scan", "android": "https://dc.lft.to/lastmile_qr_scan"}, "bike_id": "36acd5a3f69656b704b6f41245ceef21", "fusion_lat": 0.0}, {"lon": -77.06462816666667, "name": "6fd7c3107a55253de993049a04d43165", "is_disabled": 0, "type": "electric_scooter", "is_reserved": 0, "fusion_lon": 0.0, "lat": 38.91042783333333, "rental_uris": {"ios": "https://dc.lft.to/lastmile_qr_scan", "android": "https://dc.lft.to/lastmile_qr_scan"}, "bike_id": "6fd7c3107a55253de993049a04d43165", "fusion_lat": 0.0}, {"lon": -76.9985945, "name": "0b2e5396d74e7fc2a653d8919a65f0bd", "is_disabled": 0, "type": "electric_scooter", "is_reserved": 0, "fusion_lon": 0.0, "lat": 38.902559833333335, "rental_uris": {"ios": "https://dc.lft.to/lastmile_qr_scan", "android": "https://dc.lft.to/lastmile_qr_scan"}, "bike_id": "0b2e5396d74e7fc2a653d8919a65f0bd", "fusion_lat": 0.0}, {"lon": -77.02223, "name": "091cf6c61fb9c14f1173dca319bdb679", "is_disabled": 0, "type": "electric_scooter", "is_reserved": 0, "fusion_lon": 0.0, "lat": 38.924723, "rental_uris": {"ios": "https://dc.lft.to/lastmile_qr_scan", "android": "https://dc.lft.to/lastmile_qr_scan"}, "bike_id": "091cf6c61fb9c14f1173dca319bdb679", "fusion_lat": 0.0}, {"lon": -77.0499865, "name": "6bc65cb822eb9d87ba1a4d972bed5797", "is_disabled": 0, "type": "electric_scooter", "is_reserved": 0, "fusion_lon": 0.0, "lat": 38.89232616666666, "rental_uris": {"ios": "https://dc.lft.to/lastmile_qr_scan", "android": "https://dc.lft.to/lastmile_qr_scan"}, "bike_id": "6bc65cb822eb9d87ba1a4d972bed5797", "fusion_lat": 0.0}, {"lon": -77.033813, "name": "e164c65132ffe98243bd4e7d93ad6adf", "is_disabled": 0, "type": "electric_scooter", "is_reserved": 0, "fusion_lon": 0.0, "lat": 38.90039316666667, "rental_uris": {"ios": "https://dc.lft.to/lastmile_qr_scan", "android": "https://dc.lft.to/lastmile_qr_scan"}, "bike_id": "e164c65132ffe98243bd4e7d93ad6adf", "fusion_lat": 0.0}, {"lon": -77.022155, "name": "1cd6f9d13ca80a5c2631e99022b0cd7f", "is_disabled": 0, "type": "electric_scooter", "is_reserved": 0, "fusion_lon": 0.0, "lat": 38.920919166666664, "rental_uris": {"ios": "https://dc.lft.to/lastmile_qr_scan", "android": "https://dc.lft.to/lastmile_qr_scan"}, "bike_id": "1cd6f9d13ca80a5c2631e99022b0cd7f", "fusion_lat": 0.0}, {"lon": -77.0345025, "name": "96356e131c23dddad647830411743071", "is_disabled": 0, "type": "electric_scooter", "is_reserved": 0, "fusion_lon": 0.0, "lat": 38.90360116666667, "rental_uris": {"ios": "https://dc.lft.to/lastmile_qr_scan", "android": "https://dc.lft.to/lastmile_qr_scan"}, "bike_id": "96356e131c23dddad647830411743071", "fusion_lat": 0.0}, {"lon": -76.97960133333333, "name": "4461b287cef66e9e0aa468cfb378e33b", "is_disabled": 0, "type": "electric_bike", "is_reserved": 0, "fusion_lon": 0.0, "lat": 38.920336666666664, "rental_uris": {"ios": "https://dc.lft.to/lastmile_qr_scan", "android": "https://dc.lft.to/lastmile_qr_scan"}, "bike_id": "4461b287cef66e9e0aa468cfb378e33b", "fusion_lat": 0.0}, {"lon": -76.9845265, "name": "e1323c37a298130c2a9be76783661676", "is_disabled": 0, "type": "electric_scooter", "is_reserved": 0, "fusion_lon": 0.0, "lat": 38.8923825, "rental_uris": {"ios": "https://dc.lft.to/lastmile_qr_scan", "android": "https://dc.lft.to/lastmile_qr_scan"}, "bike_id": "e1323c37a298130c2a9be76783661676", "fusion_lat": 0.0}, {"lon": -77.020761, "name": "97060ea8a38d936e9bff70e458609fe8", "is_disabled": 0, "type": "electric_scooter", "is_reserved": 0, "fusion_lon": 0.0, "lat": 38.92284083333333, "rental_uris": {"ios": "https://dc.lft.to/lastmile_qr_scan", "android": "https://dc.lft.to/lastmile_qr_scan"}, "bike_id": "97060ea8a38d936e9bff70e458609fe8", "fusion_lat": 0.0}, {"lon": -76.9981745, "name": "3997605a29073de991469856f587922d", "is_disabled": 0, "type": "electric_scooter", "is_reserved": 0, "fusion_lon": 0.0, "lat": 38.906044666666666, "rental_uris": {"ios": "https://dc.lft.to/lastmile_qr_scan", "android": "https://dc.lft.to/lastmile_qr_scan"}, "bike_id": "3997605a29073de991469856f587922d", "fusion_lat": 0.0}, {"lon": -77.0201925, "name": "4859ba23009a1b554a60383e1ce544c4", "is_disabled": 0, "type": "electric_scooter", "is_reserved": 0, "fusion_lon": 0.0, "lat": 38.89877533333333, "rental_uris": {"ios": "https://dc.lft.to/lastmile_qr_scan", "android": "https://dc.lft.to/lastmile_qr_scan"}, "bike_id": "4859ba23009a1b554a60383e1ce544c4", "fusion_lat": 0.0}, {"lon": -77.05237766666667, "name": "886f45e9870be7685942985968f6e6af", "is_disabled": 0, "type": "electric_scooter", "is_reserved": 0, "fusion_lon": 0.0, "lat": 38.92460166666667, "rental_uris": {"ios": "https://dc.lft.to/lastmile_qr_scan", "android": "https://dc.lft.to/lastmile_qr_scan"}, "bike_id": "886f45e9870be7685942985968f6e6af", "fusion_lat": 0.0}, {"lon": -77.04359566666666, "name": "162384b6a9a90b23d35feec78d995494", "is_disabled": 0, "type": "electric_scooter", "is_reserved": 0, "fusion_lon": 0.0, "lat": 38.92066166666667, "rental_uris": {"ios": "https://dc.lft.to/lastmile_qr_scan", "android": "https://dc.lft.to/lastmile_qr_scan"}, "bike_id": "162384b6a9a90b23d35feec78d995494", "fusion_lat": 0.0}, {"lon": -77.0195415, "name": "aae63433f18d782f94835bd6d54345bd", "is_disabled": 0, "type": "electric_scooter", "is_reserved": 0, "fusion_lon": 0.0, "lat": 38.92250883333333, "rental_uris": {"ios": "https://dc.lft.to/lastmile_qr_scan", "android": "https://dc.lft.to/lastmile_qr_scan"}, "bike_id": "aae63433f18d782f94835bd6d54345bd", "fusion_lat": 0.0}, {"lon": -77.02505183333334, "name": "997537159dc96d01a1d1fd49f0e07e6a", "is_disabled": 0, "type": "electric_scooter", "is_reserved": 0, "fusion_lon": 0.0, "lat": 38.90432283333333, "rental_uris": {"ios": "https://dc.lft.to/lastmile_qr_scan", "android": "https://dc.lft.to/lastmile_qr_scan"}, "bike_id": "997537159dc96d01a1d1fd49f0e07e6a", "fusion_lat": 0.0}, {"lon": -77.02794883333334, "name": "069ebe9210c0f1b8c262ebaf6ada46f8", "is_disabled": 0, "type": "electric_scooter", "is_reserved": 0, "fusion_lon": 0.0, "lat": 38.9417815, "rental_uris": {"ios": "https://dc.lft.to/lastmile_qr_scan", "android": "https://dc.lft.to/lastmile_qr_scan"}, "bike_id": "069ebe9210c0f1b8c262ebaf6ada46f8", "fusion_lat": 0.0}, {"lon": -77.03528716666666, "name": "bad1cb7734ce32e6f21c19521a337f61", "is_disabled": 0, "type": "electric_scooter", "is_reserved": 0, "fusion_lon": 0.0, "lat": 38.91822066666667, "rental_uris": {"ios": "https://dc.lft.to/lastmile_qr_scan", "android": "https://dc.lft.to/lastmile_qr_scan"}, "bike_id": "bad1cb7734ce32e6f21c19521a337f61", "fusion_lat": 0.0}, {"lon": -77.03177, "name": "fab67c6f1f7464ba9df70267bfc2298c", "is_disabled": 0, "type": "electric_scooter", "is_reserved": 0, "fusion_lon": 0.0, "lat": 38.8922895, "rental_uris": {"ios": "https://dc.lft.to/lastmile_qr_scan", "android": "https://dc.lft.to/lastmile_qr_scan"}, "bike_id": "fab67c6f1f7464ba9df70267bfc2298c", "fusion_lat": 0.0}, {"lon": -76.95769116666666, "name": "9187ed8cb5ac204d2c804d46f829c423", "is_disabled": 0, "type": "electric_scooter", "is_reserved": 0, "fusion_lon": 0.0, "lat": 38.883563333333335, "rental_uris": {"ios": "https://dc.lft.to/lastmile_qr_scan", "android": "https://dc.lft.to/lastmile_qr_scan"}, "bike_id": "9187ed8cb5ac204d2c804d46f829c423", "fusion_lat": 0.0}, {"lon": -77.00792133333333, "name": "2fdf19f3f712a45ba20b45171888eeb7", "is_disabled": 0, "type": "electric_scooter", "is_reserved": 0, "fusion_lon": 0.0, "lat": 38.92665233333334, "rental_uris": {"ios": "https://dc.lft.to/lastmile_qr_scan", "android": "https://dc.lft.to/lastmile_qr_scan"}, "bike_id": "2fdf19f3f712a45ba20b45171888eeb7", "fusion_lat": 0.0}, {"lon": -77.02302, "name": "6097520006aacad133b180424f52f2af", "is_disabled": 0, "type": "electric_scooter", "is_reserved": 0, "fusion_lon": 0.0, "lat": 38.917872833333334, "rental_uris": {"ios": "https://dc.lft.to/lastmile_qr_scan", "android": "https://dc.lft.to/lastmile_qr_scan"}, "bike_id": "6097520006aacad133b180424f52f2af", "fusion_lat": 0.0}, {"lon": -77.00323283333333, "name": "20968c75f688c3804a40e7a6be62c040", "is_disabled": 0, "type": "electric_scooter", "is_reserved": 0, "fusion_lon": 0.0, "lat": 38.90124516666667, "rental_uris": {"ios": "https://dc.lft.to/lastmile_qr_scan", "android": "https://dc.lft.to/lastmile_qr_scan"}, "bike_id": "20968c75f688c3804a40e7a6be62c040", "fusion_lat": 0.0}, {"lon": -77.053466, "name": "4f1277b4717755524006616f1995bebb", "is_disabled": 0, "type": "electric_scooter", "is_reserved": 0, "fusion_lon": 0.0, "lat": 38.90425616666667, "rental_uris": {"ios": "https://dc.lft.to/lastmile_qr_scan", "android": "https://dc.lft.to/lastmile_qr_scan"}, "bike_id": "4f1277b4717755524006616f1995bebb", "fusion_lat": 0.0}, {"lon": -77.035941, "name": "133cd9b1ab569616d870547f36f8333d", "is_disabled": 0, "type": "electric_scooter", "is_reserved": 0, "fusion_lon": 0.0, "lat": 38.9027085, "rental_uris": {"ios": "https://dc.lft.to/lastmile_qr_scan", "android": "https://dc.lft.to/lastmile_qr_scan"}, "bike_id": "133cd9b1ab569616d870547f36f8333d", "fusion_lat": 0.0}, {"lon": -76.958326, "name": "f37ccb63440645234fdce82972126eab", "is_disabled": 0, "type": "electric_bike", "is_reserved": 0, "fusion_lon": 0.0, "lat": 38.85060933333333, "rental_uris": {"ios": "https://dc.lft.to/lastmile_qr_scan", "android": "https://dc.lft.to/lastmile_qr_scan"}, "bike_id": "f37ccb63440645234fdce82972126eab", "fusion_lat": 0.0}, {"lon": -77.03930416666667, "name": "0d0df043ed26ad956bcd767417fc1dab", "is_disabled": 0, "type": "electric_scooter", "is_reserved": 0, "fusion_lon": 0.0, "lat": 38.916275166666665, "rental_uris": {"ios": "https://dc.lft.to/lastmile_qr_scan", "android": "https://dc.lft.to/lastmile_qr_scan"}, "bike_id": "0d0df043ed26ad956bcd767417fc1dab", "fusion_lat": 0.0}, {"lon": -76.93742533333334, "name": "8156f0f11f71c25c8fa3cc09336c387a", "is_disabled": 0, "type": "electric_scooter", "is_reserved": 0, "fusion_lon": 0.0, "lat": 38.89015783333333, "rental_uris": {"ios": "https://dc.lft.to/lastmile_qr_scan", "android": "https://dc.lft.to/lastmile_qr_scan"}, "bike_id": "8156f0f11f71c25c8fa3cc09336c387a", "fusion_lat": 0.0}, {"lon": -77.03340666666666, "name": "99898761f0c955db8b8e630846c7a7d5", "is_disabled": 0, "type": "electric_scooter", "is_reserved": 0, "fusion_lon": 0.0, "lat": 38.928705, "rental_uris": {"ios": "https://dc.lft.to/lastmile_qr_scan", "android": "https://dc.lft.to/lastmile_qr_scan"}, "bike_id": "99898761f0c955db8b8e630846c7a7d5", "fusion_lat": 0.0}, {"lon": -76.98375766666666, "name": "14fe8acf5d589e3ba9f43454440ba36f", "is_disabled": 0, "type": "electric_scooter", "is_reserved": 0, "fusion_lon": 0.0, "lat": 38.860794166666665, "rental_uris": {"ios": "https://dc.lft.to/lastmile_qr_scan", "android": "https://dc.lft.to/lastmile_qr_scan"}, "bike_id": "14fe8acf5d589e3ba9f43454440ba36f", "fusion_lat": 0.0}, {"lon": -77.02174316666667, "name": "758ee536bba8f522ae82ea3fa28e417b", "is_disabled": 0, "type": "electric_scooter", "is_reserved": 0, "fusion_lon": 0.0, "lat": 38.8996445, "rental_uris": {"ios": "https://dc.lft.to/lastmile_qr_scan", "android": "https://dc.lft.to/lastmile_qr_scan"}, "bike_id": "758ee536bba8f522ae82ea3fa28e417b", "fusion_lat": 0.0}, {"lon": -77.02341966666667, "name": "4a3ad6fe3863438d93d18c5dcf2755c7", "is_disabled": 0, "type": "electric_scooter", "is_reserved": 0, "fusion_lon": 0.0, "lat": 38.91784116666667, "rental_uris": {"ios": "https://dc.lft.to/lastmile_qr_scan", "android": "https://dc.lft.to/lastmile_qr_scan"}, "bike_id": "4a3ad6fe3863438d93d18c5dcf2755c7", "fusion_lat": 0.0}, {"lon": -77.01791816666666, "name": "dfb986a540ed5c9e69a62989db7543a7", "is_disabled": 0, "type": "electric_scooter", "is_reserved": 0, "fusion_lon": 0.0, "lat": 38.91993983333333, "rental_uris": {"ios": "https://dc.lft.to/lastmile_qr_scan", "android": "https://dc.lft.to/lastmile_qr_scan"}, "bike_id": "dfb986a540ed5c9e69a62989db7543a7", "fusion_lat": 0.0}, {"lon": -77.04243016666666, "name": "8c9784e040ca04842d6b88f6edf28806", "is_disabled": 0, "type": "electric_scooter", "is_reserved": 0, "fusion_lon": 0.0, "lat": 38.9207045, "rental_uris": {"ios": "https://dc.lft.to/lastmile_qr_scan", "android": "https://dc.lft.to/lastmile_qr_scan"}, "bike_id": "8c9784e040ca04842d6b88f6edf28806", "fusion_lat": 0.0}, {"lon": -77.021981, "name": "410c3516fdf2ce8cd38e67637cc0daac", "is_disabled": 0, "type": "electric_scooter", "is_reserved": 0, "fusion_lon": 0.0, "lat": 38.905665, "rental_uris": {"ios": "https://dc.lft.to/lastmile_qr_scan", "android": "https://dc.lft.to/lastmile_qr_scan"}, "bike_id": "410c3516fdf2ce8cd38e67637cc0daac", "fusion_lat": 0.0}, {"lon": -77.01440883333333, "name": "06ded8c3395f254b9f27a4b18dee8f52", "is_disabled": 0, "type": "electric_scooter", "is_reserved": 0, "fusion_lon": 0.0, "lat": 38.919585166666664, "rental_uris": {"ios": "https://dc.lft.to/lastmile_qr_scan", "android": "https://dc.lft.to/lastmile_qr_scan"}, "bike_id": "06ded8c3395f254b9f27a4b18dee8f52", "fusion_lat": 0.0}, {"lon": -77.06381166666667, "name": "3db2a54061c286bc936ab3842a509e65", "is_disabled": 0, "type": "electric_scooter", "is_reserved": 0, "fusion_lon": 0.0, "lat": 38.905241333333336, "rental_uris": {"ios": "https://dc.lft.to/lastmile_qr_scan", "android": "https://dc.lft.to/lastmile_qr_scan"}, "bike_id": "3db2a54061c286bc936ab3842a509e65", "fusion_lat": 0.0}, {"lon": -76.98844383333333, "name": "a7cdf74b5043c0292e405981b6633e19", "is_disabled": 0, "type": "electric_scooter", "is_reserved": 0, "fusion_lon": 0.0, "lat": 38.901788833333335, "rental_uris": {"ios": "https://dc.lft.to/lastmile_qr_scan", "android": "https://dc.lft.to/lastmile_qr_scan"}, "bike_id": "a7cdf74b5043c0292e405981b6633e19", "fusion_lat": 0.0}, {"lon": -77.025058, "name": "4d8df63cd3fb10c5b4e892af5e0268fe", "is_disabled": 0, "type": "electric_scooter", "is_reserved": 0, "fusion_lon": 0.0, "lat": 38.92098816666667, "rental_uris": {"ios": "https://dc.lft.to/lastmile_qr_scan", "android": "https://dc.lft.to/lastmile_qr_scan"}, "bike_id": "4d8df63cd3fb10c5b4e892af5e0268fe", "fusion_lat": 0.0}, {"lon": -76.9837145, "name": "67e2b8ea62442c2c6d9a7579af01bbfa", "is_disabled": 0, "type": "electric_scooter", "is_reserved": 0, "fusion_lon": 0.0, "lat": 38.892700833333336, "rental_uris": {"ios": "https://dc.lft.to/lastmile_qr_scan", "android": "https://dc.lft.to/lastmile_qr_scan"}, "bike_id": "67e2b8ea62442c2c6d9a7579af01bbfa", "fusion_lat": 0.0}, {"lon": -77.03500333333334, "name": "04874856e9626b1c1a548587892b0e88", "is_disabled": 0, "type": "electric_scooter", "is_reserved": 0, "fusion_lon": 0.0, "lat": 38.916295, "rental_uris": {"ios": "https://dc.lft.to/lastmile_qr_scan", "android": "https://dc.lft.to/lastmile_qr_scan"}, "bike_id": "04874856e9626b1c1a548587892b0e88", "fusion_lat": 0.0}, {"lon": -77.02605733333333, "name": "2eff03a023784043f5d561c4fc6c1896", "is_disabled": 0, "type": "electric_scooter", "is_reserved": 0, "fusion_lon": 0.0, "lat": 38.89865183333333, "rental_uris": {"ios": "https://dc.lft.to/lastmile_qr_scan", "android": "https://dc.lft.to/lastmile_qr_scan"}, "bike_id": "2eff03a023784043f5d561c4fc6c1896", "fusion_lat": 0.0}, {"lon": -76.99790233333333, "name": "44bcbeba1e6496b37201547d30411400", "is_disabled": 0, "type": "electric_scooter", "is_reserved": 0, "fusion_lon": 0.0, "lat": 38.88002516666667, "rental_uris": {"ios": "https://dc.lft.to/lastmile_qr_scan", "android": "https://dc.lft.to/lastmile_qr_scan"}, "bike_id": "44bcbeba1e6496b37201547d30411400", "fusion_lat": 0.0}, {"lon": -77.02414033333334, "name": "ec0db9a5a3381419dc8b518d82108dfa", "is_disabled": 0, "type": "electric_scooter", "is_reserved": 0, "fusion_lon": 0.0, "lat": 38.920877833333336, "rental_uris": {"ios": "https://dc.lft.to/lastmile_qr_scan", "android": "https://dc.lft.to/lastmile_qr_scan"}, "bike_id": "ec0db9a5a3381419dc8b518d82108dfa", "fusion_lat": 0.0}, {"lon": -77.03678733333334, "name": "27db8d4717dda20f91ebcfa1dc2baf39", "is_disabled": 0, "type": "electric_scooter", "is_reserved": 0, "fusion_lon": 0.0, "lat": 38.902921166666665, "rental_uris": {"ios": "https://dc.lft.to/lastmile_qr_scan", "android": "https://dc.lft.to/lastmile_qr_scan"}, "bike_id": "27db8d4717dda20f91ebcfa1dc2baf39", "fusion_lat": 0.0}, {"lon": -77.02209133333334, "name": "1c6f44be90f8147f2e00f07571ca9a9a", "is_disabled": 0, "type": "electric_scooter", "is_reserved": 0, "fusion_lon": 0.0, "lat": 38.88617133333333, "rental_uris": {"ios": "https://dc.lft.to/lastmile_qr_scan", "android": "https://dc.lft.to/lastmile_qr_scan"}, "bike_id": "1c6f44be90f8147f2e00f07571ca9a9a", "fusion_lat": 0.0}, {"lon": -77.0294355, "name": "7d00e1f6561df16dad6a6096a2db3199", "is_disabled": 0, "type": "electric_scooter", "is_reserved": 0, "fusion_lon": 0.0, "lat": 38.939689333333334, "rental_uris": {"ios": "https://dc.lft.to/lastmile_qr_scan", "android": "https://dc.lft.to/lastmile_qr_scan"}, "bike_id": "7d00e1f6561df16dad6a6096a2db3199", "fusion_lat": 0.0}, {"lon": -77.03172416666666, "name": "1474482365b6590ef05e32f001cbf8d8", "is_disabled": 0, "type": "electric_scooter", "is_reserved": 0, "fusion_lon": 0.0, "lat": 38.915650166666666, "rental_uris": {"ios": "https://dc.lft.to/lastmile_qr_scan", "android": "https://dc.lft.to/lastmile_qr_scan"}, "bike_id": "1474482365b6590ef05e32f001cbf8d8", "fusion_lat": 0.0}, {"lon": -77.0259035, "name": "d8403a561be93c389f4513d67fc9d0f7", "is_disabled": 0, "type": "electric_scooter", "is_reserved": 0, "fusion_lon": 0.0, "lat": 38.905907666666664, "rental_uris": {"ios": "https://dc.lft.to/lastmile_qr_scan", "android": "https://dc.lft.to/lastmile_qr_scan"}, "bike_id": "d8403a561be93c389f4513d67fc9d0f7", "fusion_lat": 0.0}, {"lon": -77.0417195, "name": "73b2b55a20586c9e0b94a194dd24e256", "is_disabled": 0, "type": "electric_scooter", "is_reserved": 0, "fusion_lon": 0.0, "lat": 38.916497666666665, "rental_uris": {"ios": "https://dc.lft.to/lastmile_qr_scan", "android": "https://dc.lft.to/lastmile_qr_scan"}, "bike_id": "73b2b55a20586c9e0b94a194dd24e256", "fusion_lat": 0.0}, {"lon": -77.01952433333334, "name": "0e7192d6ee0813fd6c0a5c6172329c52", "is_disabled": 0, "type": "electric_scooter", "is_reserved": 0, "fusion_lon": 0.0, "lat": 38.924207833333334, "rental_uris": {"ios": "https://dc.lft.to/lastmile_qr_scan", "android": "https://dc.lft.to/lastmile_qr_scan"}, "bike_id": "0e7192d6ee0813fd6c0a5c6172329c52", "fusion_lat": 0.0}, {"lon": -77.01946883333333, "name": "568a5a5b6f172f647f4054f54c173c2a", "is_disabled": 0, "type": "electric_scooter", "is_reserved": 0, "fusion_lon": 0.0, "lat": 38.92413833333333, "rental_uris": {"ios": "https://dc.lft.to/lastmile_qr_scan", "android": "https://dc.lft.to/lastmile_qr_scan"}, "bike_id": "568a5a5b6f172f647f4054f54c173c2a", "fusion_lat": 0.0}, {"lon": -77.043397, "name": "1c8c9dd237e1da08bada006910c87efc", "is_disabled": 0, "type": "electric_scooter", "is_reserved": 0, "fusion_lon": 0.0, "lat": 38.905349666666666, "rental_uris": {"ios": "https://dc.lft.to/lastmile_qr_scan", "android": "https://dc.lft.to/lastmile_qr_scan"}, "bike_id": "1c8c9dd237e1da08bada006910c87efc", "fusion_lat": 0.0}, {"lon": -76.93213116666666, "name": "dcc976578fdf0952e062099f1a17ac1b", "is_disabled": 0, "type": "electric_scooter", "is_reserved": 0, "fusion_lon": 0.0, "lat": 38.89673, "rental_uris": {"ios": "https://dc.lft.to/lastmile_qr_scan", "android": "https://dc.lft.to/lastmile_qr_scan"}, "bike_id": "dcc976578fdf0952e062099f1a17ac1b", "fusion_lat": 0.0}, {"lon": -77.00414983333333, "name": "3bb19a90f596db11266730284a7db210", "is_disabled": 0, "type": "electric_bike", "is_reserved": 0, "fusion_lon": 0.0, "lat": 38.98528916666667, "rental_uris": {"ios": "https://dc.lft.to/lastmile_qr_scan", "android": "https://dc.lft.to/lastmile_qr_scan"}, "bike_id": "3bb19a90f596db11266730284a7db210", "fusion_lat": 0.0}, {"lon": -77.04912733333333, "name": "c499534f610e01af2d1c405e703614a3", "is_disabled": 0, "type": "electric_scooter", "is_reserved": 0, "fusion_lon": 0.0, "lat": 38.91593833333334, "rental_uris": {"ios": "https://dc.lft.to/lastmile_qr_scan", "android": "https://dc.lft.to/lastmile_qr_scan"}, "bike_id": "c499534f610e01af2d1c405e703614a3", "fusion_lat": 0.0}, {"lon": -77.02370666666667, "name": "43471b272656503c5c1e454f5486447d", "is_disabled": 0, "type": "electric_scooter", "is_reserved": 0, "fusion_lon": 0.0, "lat": 38.908702166666664, "rental_uris": {"ios": "https://dc.lft.to/lastmile_qr_scan", "android": "https://dc.lft.to/lastmile_qr_scan"}, "bike_id": "43471b272656503c5c1e454f5486447d", "fusion_lat": 0.0}, {"lon": -77.00894783333334, "name": "ac026fae096a9bfc31e46bb2f20dd111", "is_disabled": 0, "type": "electric_scooter", "is_reserved": 0, "fusion_lon": 0.0, "lat": 38.9095065, "rental_uris": {"ios": "https://dc.lft.to/lastmile_qr_scan", "android": "https://dc.lft.to/lastmile_qr_scan"}, "bike_id": "ac026fae096a9bfc31e46bb2f20dd111", "fusion_lat": 0.0}, {"lon": -77.013802, "name": "d7a09bbc17298343a57bbcee6ead4e39", "is_disabled": 0, "type": "electric_scooter", "is_reserved": 0, "fusion_lon": 0.0, "lat": 38.91036416666667, "rental_uris": {"ios": "https://dc.lft.to/lastmile_qr_scan", "android": "https://dc.lft.to/lastmile_qr_scan"}, "bike_id": "d7a09bbc17298343a57bbcee6ead4e39", "fusion_lat": 0.0}, {"lon": -76.9900635, "name": "09161255db1464a6ea9e4c2a8b3016b9", "is_disabled": 0, "type": "electric_scooter", "is_reserved": 0, "fusion_lon": 0.0, "lat": 38.903915166666664, "rental_uris": {"ios": "https://dc.lft.to/lastmile_qr_scan", "android": "https://dc.lft.to/lastmile_qr_scan"}, "bike_id": "09161255db1464a6ea9e4c2a8b3016b9", "fusion_lat": 0.0}, {"lon": -77.04028033333333, "name": "3f9e90565822c8593a7aed7b2bf299df", "is_disabled": 0, "type": "electric_scooter", "is_reserved": 0, "fusion_lon": 0.0, "lat": 38.903530833333335, "rental_uris": {"ios": "https://dc.lft.to/lastmile_qr_scan", "android": "https://dc.lft.to/lastmile_qr_scan"}, "bike_id": "3f9e90565822c8593a7aed7b2bf299df", "fusion_lat": 0.0}, {"lon": -77.003785, "name": "310c0b80c312fa403a7d2ca2b7e0ebc9", "is_disabled": 0, "type": "electric_bike", "is_reserved": 0, "fusion_lon": 0.0, "lat": 38.836027666666666, "rental_uris": {"ios": "https://dc.lft.to/lastmile_qr_scan", "android": "https://dc.lft.to/lastmile_qr_scan"}, "bike_id": "310c0b80c312fa403a7d2ca2b7e0ebc9", "fusion_lat": 0.0}, {"lon": -77.02796983333333, "name": "fa0eeb82ea3a8002f18ac5b358b6c2fa", "is_disabled": 0, "type": "electric_scooter", "is_reserved": 0, "fusion_lon": 0.0, "lat": 38.9307965, "rental_uris": {"ios": "https://dc.lft.to/lastmile_qr_scan", "android": "https://dc.lft.to/lastmile_qr_scan"}, "bike_id": "fa0eeb82ea3a8002f18ac5b358b6c2fa", "fusion_lat": 0.0}, {"lon": -77.04720883333333, "name": "4c9ccf2142c8c27ad5e815a3fd7ffd02", "is_disabled": 0, "type": "electric_scooter", "is_reserved": 0, "fusion_lon": 0.0, "lat": 38.899695666666666, "rental_uris": {"ios": "https://dc.lft.to/lastmile_qr_scan", "android": "https://dc.lft.to/lastmile_qr_scan"}, "bike_id": "4c9ccf2142c8c27ad5e815a3fd7ffd02", "fusion_lat": 0.0}, {"lon": -77.04020666666666, "name": "dccb387fe2660f037886da8b418fcfb8", "is_disabled": 0, "type": "electric_scooter", "is_reserved": 0, "fusion_lon": 0.0, "lat": 38.92170333333333, "rental_uris": {"ios": "https://dc.lft.to/lastmile_qr_scan", "android": "https://dc.lft.to/lastmile_qr_scan"}, "bike_id": "dccb387fe2660f037886da8b418fcfb8", "fusion_lat": 0.0}, {"lon": -76.9901965, "name": "c2841d1d1358f640abd849bf52b28b25", "is_disabled": 0, "type": "electric_scooter", "is_reserved": 0, "fusion_lon": 0.0, "lat": 38.86518183333333, "rental_uris": {"ios": "https://dc.lft.to/lastmile_qr_scan", "android": "https://dc.lft.to/lastmile_qr_scan"}, "bike_id": "c2841d1d1358f640abd849bf52b28b25", "fusion_lat": 0.0}, {"lon": -77.0328895, "name": "a901d87dc3d550e128190f77baab660f", "is_disabled": 0, "type": "electric_scooter", "is_reserved": 0, "fusion_lon": 0.0, "lat": 38.92044516666667, "rental_uris": {"ios": "https://dc.lft.to/lastmile_qr_scan", "android": "https://dc.lft.to/lastmile_qr_scan"}, "bike_id": "a901d87dc3d550e128190f77baab660f", "fusion_lat": 0.0}, {"lon": -77.02747816666667, "name": "c0531fc7f3b7a81a6998fc0341c3b456", "is_disabled": 0, "type": "electric_scooter", "is_reserved": 0, "fusion_lon": 0.0, "lat": 38.96645933333333, "rental_uris": {"ios": "https://dc.lft.to/lastmile_qr_scan", "android": "https://dc.lft.to/lastmile_qr_scan"}, "bike_id": "c0531fc7f3b7a81a6998fc0341c3b456", "fusion_lat": 0.0}, {"lon": -77.02225666666666, "name": "60e644d8ea357d832d5f41a5535d6afa", "is_disabled": 0, "type": "electric_scooter", "is_reserved": 0, "fusion_lon": 0.0, "lat": 38.89984666666667, "rental_uris": {"ios": "https://dc.lft.to/lastmile_qr_scan", "android": "https://dc.lft.to/lastmile_qr_scan"}, "bike_id": "60e644d8ea357d832d5f41a5535d6afa", "fusion_lat": 0.0}, {"lon": -76.98549833333334, "name": "634d3d108df7643c40620dd5cce4e61b", "is_disabled": 0, "type": "electric_scooter", "is_reserved": 0, "fusion_lon": 0.0, "lat": 38.8860865, "rental_uris": {"ios": "https://dc.lft.to/lastmile_qr_scan", "android": "https://dc.lft.to/lastmile_qr_scan"}, "bike_id": "634d3d108df7643c40620dd5cce4e61b", "fusion_lat": 0.0}, {"lon": -77.02163333333333, "name": "6bdcaebd5e0c7eae8c3a161aafb5add4", "is_disabled": 0, "type": "electric_scooter", "is_reserved": 0, "fusion_lon": 0.0, "lat": 38.893824333333335, "rental_uris": {"ios": "https://dc.lft.to/lastmile_qr_scan", "android": "https://dc.lft.to/lastmile_qr_scan"}, "bike_id": "6bdcaebd5e0c7eae8c3a161aafb5add4", "fusion_lat": 0.0}, {"lon": -76.97210766666667, "name": "c12f2d9600cb916d4451b678164255c2", "is_disabled": 0, "type": "electric_scooter", "is_reserved": 0, "fusion_lon": 0.0, "lat": 38.925515833333336, "rental_uris": {"ios": "https://dc.lft.to/lastmile_qr_scan", "android": "https://dc.lft.to/lastmile_qr_scan"}, "bike_id": "c12f2d9600cb916d4451b678164255c2", "fusion_lat": 0.0}, {"lon": -77.04081283333333, "name": "cf665a781c265af76d1301b1db23c6d0", "is_disabled": 0, "type": "electric_bike", "is_reserved": 0, "fusion_lon": 0.0, "lat": 38.83065083333334, "rental_uris": {"ios": "https://dc.lft.to/lastmile_qr_scan", "android": "https://dc.lft.to/lastmile_qr_scan"}, "bike_id": "cf665a781c265af76d1301b1db23c6d0", "fusion_lat": 0.0}, {"lon": -77.02723616666667, "name": "d2d352c73e25f4748c0571e83c0f1c42", "is_disabled": 0, "type": "electric_scooter", "is_reserved": 0, "fusion_lon": 0.0, "lat": 38.92482833333333, "rental_uris": {"ios": "https://dc.lft.to/lastmile_qr_scan", "android": "https://dc.lft.to/lastmile_qr_scan"}, "bike_id": "d2d352c73e25f4748c0571e83c0f1c42", "fusion_lat": 0.0}, {"lon": -77.0413965, "name": "6fa60fc5cc38be7344e7a43e58d55678", "is_disabled": 0, "type": "electric_scooter", "is_reserved": 0, "fusion_lon": 0.0, "lat": 38.9346805, "rental_uris": {"ios": "https://dc.lft.to/lastmile_qr_scan", "android": "https://dc.lft.to/lastmile_qr_scan"}, "bike_id": "6fa60fc5cc38be7344e7a43e58d55678", "fusion_lat": 0.0}, {"lon": -77.02799733333333, "name": "335f4504ad1033bbd3d83d3be9f4e865", "is_disabled": 0, "type": "electric_scooter", "is_reserved": 0, "fusion_lon": 0.0, "lat": 38.9247125, "rental_uris": {"ios": "https://dc.lft.to/lastmile_qr_scan", "android": "https://dc.lft.to/lastmile_qr_scan"}, "bike_id": "335f4504ad1033bbd3d83d3be9f4e865", "fusion_lat": 0.0}, {"lon": -77.02316583333334, "name": "04ac4cb32ea0c90254652d811c801c7e", "is_disabled": 0, "type": "electric_scooter", "is_reserved": 0, "fusion_lon": 0.0, "lat": 38.9207575, "rental_uris": {"ios": "https://dc.lft.to/lastmile_qr_scan", "android": "https://dc.lft.to/lastmile_qr_scan"}, "bike_id": "04ac4cb32ea0c90254652d811c801c7e", "fusion_lat": 0.0}, {"lon": -76.96790533333333, "name": "af6a176e83fb828c707401c130730dc2", "is_disabled": 0, "type": "electric_scooter", "is_reserved": 0, "fusion_lon": 0.0, "lat": 38.873379666666665, "rental_uris": {"ios": "https://dc.lft.to/lastmile_qr_scan", "android": "https://dc.lft.to/lastmile_qr_scan"}, "bike_id": "af6a176e83fb828c707401c130730dc2", "fusion_lat": 0.0}, {"lon": -77.02301616666666, "name": "4e0333615f01603660bbe7abb29e61bc", "is_disabled": 0, "type": "electric_bike", "is_reserved": 0, "fusion_lon": 0.0, "lat": 38.966725333333336, "rental_uris": {"ios": "https://dc.lft.to/lastmile_qr_scan", "android": "https://dc.lft.to/lastmile_qr_scan"}, "bike_id": "4e0333615f01603660bbe7abb29e61bc", "fusion_lat": 0.0}, {"lon": -77.06433333333334, "name": "4eb5bd8c107e433f4291d6bb8870613a", "is_disabled": 0, "type": "electric_scooter", "is_reserved": 0, "fusion_lon": 0.0, "lat": 38.90528, "rental_uris": {"ios": "https://dc.lft.to/lastmile_qr_scan", "android": "https://dc.lft.to/lastmile_qr_scan"}, "bike_id": "4eb5bd8c107e433f4291d6bb8870613a", "fusion_lat": 0.0}, {"lon": -77.02133633333334, "name": "7903946f850a94fb4bb60e04178dede3", "is_disabled": 0, "type": "electric_scooter", "is_reserved": 0, "fusion_lon": 0.0, "lat": 38.924160666666666, "rental_uris": {"ios": "https://dc.lft.to/lastmile_qr_scan", "android": "https://dc.lft.to/lastmile_qr_scan"}, "bike_id": "7903946f850a94fb4bb60e04178dede3", "fusion_lat": 0.0}, {"lon": -77.04566166666666, "name": "3ae409754b5a97ec9e0c6c0e4660e1aa", "is_disabled": 0, "type": "electric_scooter", "is_reserved": 0, "fusion_lon": 0.0, "lat": 38.91060383333333, "rental_uris": {"ios": "https://dc.lft.to/lastmile_qr_scan", "android": "https://dc.lft.to/lastmile_qr_scan"}, "bike_id": "3ae409754b5a97ec9e0c6c0e4660e1aa", "fusion_lat": 0.0}, {"lon": -77.03200183333334, "name": "f1047319b1213166bfc392dea3e77c97", "is_disabled": 0, "type": "electric_scooter", "is_reserved": 0, "fusion_lon": 0.0, "lat": 38.89347983333333, "rental_uris": {"ios": "https://dc.lft.to/lastmile_qr_scan", "android": "https://dc.lft.to/lastmile_qr_scan"}, "bike_id": "f1047319b1213166bfc392dea3e77c97", "fusion_lat": 0.0}, {"lon": -77.026145, "name": "d0214f3ef63a3624fbdb562ccd78411b", "is_disabled": 0, "type": "electric_scooter", "is_reserved": 0, "fusion_lon": 0.0, "lat": 38.900524833333336, "rental_uris": {"ios": "https://dc.lft.to/lastmile_qr_scan", "android": "https://dc.lft.to/lastmile_qr_scan"}, "bike_id": "d0214f3ef63a3624fbdb562ccd78411b", "fusion_lat": 0.0}, {"lon": -77.03933283333333, "name": "611521fb56dbefa8232fa78bfa3ef1d8", "is_disabled": 0, "type": "electric_scooter", "is_reserved": 0, "fusion_lon": 0.0, "lat": 38.92489883333333, "rental_uris": {"ios": "https://dc.lft.to/lastmile_qr_scan", "android": "https://dc.lft.to/lastmile_qr_scan"}, "bike_id": "611521fb56dbefa8232fa78bfa3ef1d8", "fusion_lat": 0.0}, {"lon": -77.00211983333334, "name": "279b147139300bbb3788f9862342fc7a", "is_disabled": 0, "type": "electric_scooter", "is_reserved": 0, "fusion_lon": 0.0, "lat": 38.924550833333335, "rental_uris": {"ios": "https://dc.lft.to/lastmile_qr_scan", "android": "https://dc.lft.to/lastmile_qr_scan"}, "bike_id": "279b147139300bbb3788f9862342fc7a", "fusion_lat": 0.0}, {"lon": -77.04688066666667, "name": "9c7aa8c6e9e6733cb27d67e4e833f07e", "is_disabled": 0, "type": "electric_scooter", "is_reserved": 0, "fusion_lon": 0.0, "lat": 38.89223066666667, "rental_uris": {"ios": "https://dc.lft.to/lastmile_qr_scan", "android": "https://dc.lft.to/lastmile_qr_scan"}, "bike_id": "9c7aa8c6e9e6733cb27d67e4e833f07e", "fusion_lat": 0.0}, {"lon": -76.9950755, "name": "3f42528511139ee8bde81f096d628b31", "is_disabled": 0, "type": "electric_scooter", "is_reserved": 0, "fusion_lon": 0.0, "lat": 38.880002833333336, "rental_uris": {"ios": "https://dc.lft.to/lastmile_qr_scan", "android": "https://dc.lft.to/lastmile_qr_scan"}, "bike_id": "3f42528511139ee8bde81f096d628b31", "fusion_lat": 0.0}, {"lon": -77.038873, "name": "0f0d61f96d74a2e94e9e43e66480f52f", "is_disabled": 0, "type": "electric_scooter", "is_reserved": 0, "fusion_lon": 0.0, "lat": 38.91755366666667, "rental_uris": {"ios": "https://dc.lft.to/lastmile_qr_scan", "android": "https://dc.lft.to/lastmile_qr_scan"}, "bike_id": "0f0d61f96d74a2e94e9e43e66480f52f", "fusion_lat": 0.0}, {"lon": -77.01415733333333, "name": "f348c26b5c44fd41f6e251f2fe3d9159", "is_disabled": 0, "type": "electric_scooter", "is_reserved": 0, "fusion_lon": 0.0, "lat": 38.92860066666667, "rental_uris": {"ios": "https://dc.lft.to/lastmile_qr_scan", "android": "https://dc.lft.to/lastmile_qr_scan"}, "bike_id": "f348c26b5c44fd41f6e251f2fe3d9159", "fusion_lat": 0.0}, {"lon": -76.9472675, "name": "ae99cd2698c822691ea921935427e0f0", "is_disabled": 0, "type": "electric_bike", "is_reserved": 0, "fusion_lon": 0.0, "lat": 38.983803333333334, "rental_uris": {"ios": "https://dc.lft.to/lastmile_qr_scan", "android": "https://dc.lft.to/lastmile_qr_scan"}, "bike_id": "ae99cd2698c822691ea921935427e0f0", "fusion_lat": 0.0}, {"lon": -77.07643233333333, "name": "904deda5cd25aa9dd2af2460b4362165", "is_disabled": 0, "type": "electric_scooter", "is_reserved": 0, "fusion_lon": 0.0, "lat": 38.92359966666667, "rental_uris": {"ios": "https://dc.lft.to/lastmile_qr_scan", "android": "https://dc.lft.to/lastmile_qr_scan"}, "bike_id": "904deda5cd25aa9dd2af2460b4362165", "fusion_lat": 0.0}, {"lon": -77.00206866666667, "name": "cd3ea2cf74a886bed6459dec6068a9ed", "is_disabled": 0, "type": "electric_scooter", "is_reserved": 0, "fusion_lon": 0.0, "lat": 38.90508666666667, "rental_uris": {"ios": "https://dc.lft.to/lastmile_qr_scan", "android": "https://dc.lft.to/lastmile_qr_scan"}, "bike_id": "cd3ea2cf74a886bed6459dec6068a9ed", "fusion_lat": 0.0}, {"lon": -77.01247533333333, "name": "4082d6a7c666f1c7ed5c0f7ecca1cdd5", "is_disabled": 0, "type": "electric_scooter", "is_reserved": 0, "fusion_lon": 0.0, "lat": 38.915698666666664, "rental_uris": {"ios": "https://dc.lft.to/lastmile_qr_scan", "android": "https://dc.lft.to/lastmile_qr_scan"}, "bike_id": "4082d6a7c666f1c7ed5c0f7ecca1cdd5", "fusion_lat": 0.0}, {"lon": -77.00746883333333, "name": "b1828de38b28a133e57c1e58fefa99ab", "is_disabled": 0, "type": "electric_scooter", "is_reserved": 0, "fusion_lon": 0.0, "lat": 38.9095525, "rental_uris": {"ios": "https://dc.lft.to/lastmile_qr_scan", "android": "https://dc.lft.to/lastmile_qr_scan"}, "bike_id": "b1828de38b28a133e57c1e58fefa99ab", "fusion_lat": 0.0}, {"lon": -77.0437285, "name": "b5df787cf028a62ca897dbd77c9d99b7", "is_disabled": 0, "type": "electric_scooter", "is_reserved": 0, "fusion_lon": 0.0, "lat": 38.920636, "rental_uris": {"ios": "https://dc.lft.to/lastmile_qr_scan", "android": "https://dc.lft.to/lastmile_qr_scan"}, "bike_id": "b5df787cf028a62ca897dbd77c9d99b7", "fusion_lat": 0.0}, {"lon": -77.026243, "name": "a071997348fa70027b839ab9b02f25dc", "is_disabled": 0, "type": "electric_scooter", "is_reserved": 0, "fusion_lon": 0.0, "lat": 38.883712, "rental_uris": {"ios": "https://dc.lft.to/lastmile_qr_scan", "android": "https://dc.lft.to/lastmile_qr_scan"}, "bike_id": "a071997348fa70027b839ab9b02f25dc", "fusion_lat": 0.0}, {"lon": -77.027827, "name": "5bef1a2fbcac65c1516b156bc1d77136", "is_disabled": 0, "type": "electric_scooter", "is_reserved": 0, "fusion_lon": 0.0, "lat": 38.9277505, "rental_uris": {"ios": "https://dc.lft.to/lastmile_qr_scan", "android": "https://dc.lft.to/lastmile_qr_scan"}, "bike_id": "5bef1a2fbcac65c1516b156bc1d77136", "fusion_lat": 0.0}, {"lon": -77.05879566666667, "name": "c8940136ad759c10fdb6bf8f00dc641d", "is_disabled": 0, "type": "electric_bike", "is_reserved": 0, "fusion_lon": 0.0, "lat": 38.827063833333334, "rental_uris": {"ios": "https://dc.lft.to/lastmile_qr_scan", "android": "https://dc.lft.to/lastmile_qr_scan"}, "bike_id": "c8940136ad759c10fdb6bf8f00dc641d", "fusion_lat": 0.0}, {"lon": -77.0373965, "name": "8b009b855206bb6e86826c95fdc112a2", "is_disabled": 0, "type": "electric_scooter", "is_reserved": 0, "fusion_lon": 0.0, "lat": 38.9285935, "rental_uris": {"ios": "https://dc.lft.to/lastmile_qr_scan", "android": "https://dc.lft.to/lastmile_qr_scan"}, "bike_id": "8b009b855206bb6e86826c95fdc112a2", "fusion_lat": 0.0}, {"lon": -76.99224666666667, "name": "290ebe5bc18e43114413e3a67e7898d8", "is_disabled": 0, "type": "electric_scooter", "is_reserved": 0, "fusion_lon": 0.0, "lat": 38.8973395, "rental_uris": {"ios": "https://dc.lft.to/lastmile_qr_scan", "android": "https://dc.lft.to/lastmile_qr_scan"}, "bike_id": "290ebe5bc18e43114413e3a67e7898d8", "fusion_lat": 0.0}, {"lon": -77.02264316666667, "name": "aa68bcb55a0cca99af3b74c4e1802dd8", "is_disabled": 0, "type": "electric_scooter", "is_reserved": 0, "fusion_lon": 0.0, "lat": 38.92739983333333, "rental_uris": {"ios": "https://dc.lft.to/lastmile_qr_scan", "android": "https://dc.lft.to/lastmile_qr_scan"}, "bike_id": "aa68bcb55a0cca99af3b74c4e1802dd8", "fusion_lat": 0.0}, {"lon": -77.00152083333333, "name": "371a85e91b353866487b4d61e2c01d52", "is_disabled": 0, "type": "electric_scooter", "is_reserved": 0, "fusion_lon": 0.0, "lat": 38.89474883333333, "rental_uris": {"ios": "https://dc.lft.to/lastmile_qr_scan", "android": "https://dc.lft.to/lastmile_qr_scan"}, "bike_id": "371a85e91b353866487b4d61e2c01d52", "fusion_lat": 0.0}, {"lon": -77.0218405, "name": "d131561d56b157d37bd5ad378a12d7c3", "is_disabled": 0, "type": "electric_scooter", "is_reserved": 0, "fusion_lon": 0.0, "lat": 38.9058925, "rental_uris": {"ios": "https://dc.lft.to/lastmile_qr_scan", "android": "https://dc.lft.to/lastmile_qr_scan"}, "bike_id": "d131561d56b157d37bd5ad378a12d7c3", "fusion_lat": 0.0}, {"lon": -77.04159116666666, "name": "304db8bd8c93b2c6ad68ea779d1de078", "is_disabled": 0, "type": "electric_scooter", "is_reserved": 0, "fusion_lon": 0.0, "lat": 38.915955333333336, "rental_uris": {"ios": "https://dc.lft.to/lastmile_qr_scan", "android": "https://dc.lft.to/lastmile_qr_scan"}, "bike_id": "304db8bd8c93b2c6ad68ea779d1de078", "fusion_lat": 0.0}, {"lon": -77.02169183333334, "name": "e56f5de23e3efe857de5bedecba7c8cd", "is_disabled": 0, "type": "electric_scooter", "is_reserved": 0, "fusion_lon": 0.0, "lat": 38.9200275, "rental_uris": {"ios": "https://dc.lft.to/lastmile_qr_scan", "android": "https://dc.lft.to/lastmile_qr_scan"}, "bike_id": "e56f5de23e3efe857de5bedecba7c8cd", "fusion_lat": 0.0}, {"lon": -77.0319555, "name": "8cf4a47395d1ef06b0ed8f91170040a9", "is_disabled": 0, "type": "electric_scooter", "is_reserved": 0, "fusion_lon": 0.0, "lat": 38.90747666666667, "rental_uris": {"ios": "https://dc.lft.to/lastmile_qr_scan", "android": "https://dc.lft.to/lastmile_qr_scan"}, "bike_id": "8cf4a47395d1ef06b0ed8f91170040a9", "fusion_lat": 0.0}, {"lon": -77.02523016666666, "name": "e4a7a7ff5efd40a9d0dfd1ee6d2f79fd", "is_disabled": 0, "type": "electric_scooter", "is_reserved": 0, "fusion_lon": 0.0, "lat": 38.92091333333333, "rental_uris": {"ios": "https://dc.lft.to/lastmile_qr_scan", "android": "https://dc.lft.to/lastmile_qr_scan"}, "bike_id": "e4a7a7ff5efd40a9d0dfd1ee6d2f79fd", "fusion_lat": 0.0}, {"lon": -77.074723, "name": "0bd5a3294e7b64eec4230a4b30d78640", "is_disabled": 0, "type": "electric_scooter", "is_reserved": 0, "fusion_lon": 0.0, "lat": 38.92241166666667, "rental_uris": {"ios": "https://dc.lft.to/lastmile_qr_scan", "android": "https://dc.lft.to/lastmile_qr_scan"}, "bike_id": "0bd5a3294e7b64eec4230a4b30d78640", "fusion_lat": 0.0}, {"lon": -77.04079116666666, "name": "3ddf775b5f8bdf2d9c5954714469d071", "is_disabled": 0, "type": "electric_scooter", "is_reserved": 0, "fusion_lon": 0.0, "lat": 38.9288595, "rental_uris": {"ios": "https://dc.lft.to/lastmile_qr_scan", "android": "https://dc.lft.to/lastmile_qr_scan"}, "bike_id": "3ddf775b5f8bdf2d9c5954714469d071", "fusion_lat": 0.0}, {"lon": -77.0417585, "name": "0c087f60b04c27094329875277ee32f1", "is_disabled": 0, "type": "electric_scooter", "is_reserved": 0, "fusion_lon": 0.0, "lat": 38.9170495, "rental_uris": {"ios": "https://dc.lft.to/lastmile_qr_scan", "android": "https://dc.lft.to/lastmile_qr_scan"}, "bike_id": "0c087f60b04c27094329875277ee32f1", "fusion_lat": 0.0}, {"lon": -77.04598716666666, "name": "7cba04f6751b2762c53fbeb21cf23a72", "is_disabled": 0, "type": "electric_scooter", "is_reserved": 0, "fusion_lon": 0.0, "lat": 38.89614916666667, "rental_uris": {"ios": "https://dc.lft.to/lastmile_qr_scan", "android": "https://dc.lft.to/lastmile_qr_scan"}, "bike_id": "7cba04f6751b2762c53fbeb21cf23a72", "fusion_lat": 0.0}, {"lon": -77.02709733333333, "name": "e991debcfd240c366848abb6adbd18af", "is_disabled": 0, "type": "electric_scooter", "is_reserved": 0, "fusion_lon": 0.0, "lat": 38.9169185, "rental_uris": {"ios": "https://dc.lft.to/lastmile_qr_scan", "android": "https://dc.lft.to/lastmile_qr_scan"}, "bike_id": "e991debcfd240c366848abb6adbd18af", "fusion_lat": 0.0}, {"lon": -77.01923866666667, "name": "5234604040d723193dd047ef395ce148", "is_disabled": 0, "type": "electric_scooter", "is_reserved": 0, "fusion_lon": 0.0, "lat": 38.932632166666664, "rental_uris": {"ios": "https://dc.lft.to/lastmile_qr_scan", "android": "https://dc.lft.to/lastmile_qr_scan"}, "bike_id": "5234604040d723193dd047ef395ce148", "fusion_lat": 0.0}, {"lon": -77.0188015, "name": "cce9a2c54516ec476fe64950cd58fc82", "is_disabled": 0, "type": "electric_scooter", "is_reserved": 0, "fusion_lon": 0.0, "lat": 38.91108, "rental_uris": {"ios": "https://dc.lft.to/lastmile_qr_scan", "android": "https://dc.lft.to/lastmile_qr_scan"}, "bike_id": "cce9a2c54516ec476fe64950cd58fc82", "fusion_lat": 0.0}, {"lon": -76.9733855, "name": "9be99b38abf185e7921ebe5f25bcbfba", "is_disabled": 0, "type": "electric_scooter", "is_reserved": 0, "fusion_lon": 0.0, "lat": 38.904061166666665, "rental_uris": {"ios": "https://dc.lft.to/lastmile_qr_scan", "android": "https://dc.lft.to/lastmile_qr_scan"}, "bike_id": "9be99b38abf185e7921ebe5f25bcbfba", "fusion_lat": 0.0}, {"lon": -76.96107933333333, "name": "fac7139c4e9226533bd84dae99662e3a", "is_disabled": 0, "type": "electric_scooter", "is_reserved": 0, "fusion_lon": 0.0, "lat": 38.89205183333333, "rental_uris": {"ios": "https://dc.lft.to/lastmile_qr_scan", "android": "https://dc.lft.to/lastmile_qr_scan"}, "bike_id": "fac7139c4e9226533bd84dae99662e3a", "fusion_lat": 0.0}, {"lon": -76.9860255, "name": "44c54f8661382a306a427a106b96de0d", "is_disabled": 0, "type": "electric_scooter", "is_reserved": 0, "fusion_lon": 0.0, "lat": 38.90654283333333, "rental_uris": {"ios": "https://dc.lft.to/lastmile_qr_scan", "android": "https://dc.lft.to/lastmile_qr_scan"}, "bike_id": "44c54f8661382a306a427a106b96de0d", "fusion_lat": 0.0}, {"lon": -76.983789, "name": "f99949e937f7ba503bd9dc6fb77639e9", "is_disabled": 0, "type": "electric_scooter", "is_reserved": 0, "fusion_lon": 0.0, "lat": 38.90650516666667, "rental_uris": {"ios": "https://dc.lft.to/lastmile_qr_scan", "android": "https://dc.lft.to/lastmile_qr_scan"}, "bike_id": "f99949e937f7ba503bd9dc6fb77639e9", "fusion_lat": 0.0}, {"lon": -77.0220395, "name": "47096f177256955b833202cd83f0fee2", "is_disabled": 0, "type": "electric_scooter", "is_reserved": 0, "fusion_lon": 0.0, "lat": 38.9247275, "rental_uris": {"ios": "https://dc.lft.to/lastmile_qr_scan", "android": "https://dc.lft.to/lastmile_qr_scan"}, "bike_id": "47096f177256955b833202cd83f0fee2", "fusion_lat": 0.0}, {"lon": -77.02113066666666, "name": "89ae55598b42178129845ee9ffbb5b56", "is_disabled": 0, "type": "electric_scooter", "is_reserved": 0, "fusion_lon": 0.0, "lat": 38.9278395, "rental_uris": {"ios": "https://dc.lft.to/lastmile_qr_scan", "android": "https://dc.lft.to/lastmile_qr_scan"}, "bike_id": "89ae55598b42178129845ee9ffbb5b56", "fusion_lat": 0.0}, {"lon": -76.99804533333334, "name": "094fc00a2d3cfc180b2b63552eed5a89", "is_disabled": 0, "type": "electric_bike", "is_reserved": 0, "fusion_lon": 0.0, "lat": 38.99797366666667, "rental_uris": {"ios": "https://dc.lft.to/lastmile_qr_scan", "android": "https://dc.lft.to/lastmile_qr_scan"}, "bike_id": "094fc00a2d3cfc180b2b63552eed5a89", "fusion_lat": 0.0}, {"lon": -77.03338783333334, "name": "eec451395b961f8266e61af370a9d3bc", "is_disabled": 0, "type": "electric_scooter", "is_reserved": 0, "fusion_lon": 0.0, "lat": 38.917990333333336, "rental_uris": {"ios": "https://dc.lft.to/lastmile_qr_scan", "android": "https://dc.lft.to/lastmile_qr_scan"}, "bike_id": "eec451395b961f8266e61af370a9d3bc", "fusion_lat": 0.0}, {"lon": -77.02544333333333, "name": "b287e404a25c390522961e9629180e08", "is_disabled": 0, "type": "electric_scooter", "is_reserved": 0, "fusion_lon": 0.0, "lat": 38.922430166666665, "rental_uris": {"ios": "https://dc.lft.to/lastmile_qr_scan", "android": "https://dc.lft.to/lastmile_qr_scan"}, "bike_id": "b287e404a25c390522961e9629180e08", "fusion_lat": 0.0}, {"lon": -77.028159, "name": "c1689add5e04ca9e43ff00057e2eb216", "is_disabled": 0, "type": "electric_scooter", "is_reserved": 0, "fusion_lon": 0.0, "lat": 38.907010166666666, "rental_uris": {"ios": "https://dc.lft.to/lastmile_qr_scan", "android": "https://dc.lft.to/lastmile_qr_scan"}, "bike_id": "c1689add5e04ca9e43ff00057e2eb216", "fusion_lat": 0.0}, {"lon": -77.03200233333334, "name": "9fd640ca03d6e9d32cff64f0e85252cd", "is_disabled": 0, "type": "electric_scooter", "is_reserved": 0, "fusion_lon": 0.0, "lat": 38.9162875, "rental_uris": {"ios": "https://dc.lft.to/lastmile_qr_scan", "android": "https://dc.lft.to/lastmile_qr_scan"}, "bike_id": "9fd640ca03d6e9d32cff64f0e85252cd", "fusion_lat": 0.0}, {"lon": -76.99068733333333, "name": "44faf2df6128e6e1f189bc284d8ff739", "is_disabled": 0, "type": "electric_scooter", "is_reserved": 0, "fusion_lon": 0.0, "lat": 38.856288166666666, "rental_uris": {"ios": "https://dc.lft.to/lastmile_qr_scan", "android": "https://dc.lft.to/lastmile_qr_scan"}, "bike_id": "44faf2df6128e6e1f189bc284d8ff739", "fusion_lat": 0.0}, {"lon": -77.03280266666667, "name": "29d0dc4097ad54722038a244ab26c5d9", "is_disabled": 0, "type": "electric_scooter", "is_reserved": 0, "fusion_lon": 0.0, "lat": 38.898921333333334, "rental_uris": {"ios": "https://dc.lft.to/lastmile_qr_scan", "android": "https://dc.lft.to/lastmile_qr_scan"}, "bike_id": "29d0dc4097ad54722038a244ab26c5d9", "fusion_lat": 0.0}, {"lon": -77.04734, "name": "98e2dab468c7be95e8c2042f24b2babc", "is_disabled": 0, "type": "electric_scooter", "is_reserved": 0, "fusion_lon": 0.0, "lat": 38.900440333333336, "rental_uris": {"ios": "https://dc.lft.to/lastmile_qr_scan", "android": "https://dc.lft.to/lastmile_qr_scan"}, "bike_id": "98e2dab468c7be95e8c2042f24b2babc", "fusion_lat": 0.0}, {"lon": -77.01739516666666, "name": "79afb974861f66b4d30f92b4272df3e4", "is_disabled": 0, "type": "electric_scooter", "is_reserved": 0, "fusion_lon": 0.0, "lat": 38.90282716666667, "rental_uris": {"ios": "https://dc.lft.to/lastmile_qr_scan", "android": "https://dc.lft.to/lastmile_qr_scan"}, "bike_id": "79afb974861f66b4d30f92b4272df3e4", "fusion_lat": 0.0}, {"lon": -77.0189445, "name": "260c06fa7be80f3a8fafeae79d34df34", "is_disabled": 0, "type": "electric_scooter", "is_reserved": 0, "fusion_lon": 0.0, "lat": 38.9148125, "rental_uris": {"ios": "https://dc.lft.to/lastmile_qr_scan", "android": "https://dc.lft.to/lastmile_qr_scan"}, "bike_id": "260c06fa7be80f3a8fafeae79d34df34", "fusion_lat": 0.0}, {"lon": -77.02409166666666, "name": "2e90161ea7db498afd12132ec2c225e1", "is_disabled": 0, "type": "electric_scooter", "is_reserved": 0, "fusion_lon": 0.0, "lat": 38.93704066666667, "rental_uris": {"ios": "https://dc.lft.to/lastmile_qr_scan", "android": "https://dc.lft.to/lastmile_qr_scan"}, "bike_id": "2e90161ea7db498afd12132ec2c225e1", "fusion_lat": 0.0}, {"lon": -77.01273966666666, "name": "b45ce91cba261f82f2442f43b4c4cd22", "is_disabled": 0, "type": "electric_scooter", "is_reserved": 0, "fusion_lon": 0.0, "lat": 38.91543516666667, "rental_uris": {"ios": "https://dc.lft.to/lastmile_qr_scan", "android": "https://dc.lft.to/lastmile_qr_scan"}, "bike_id": "b45ce91cba261f82f2442f43b4c4cd22", "fusion_lat": 0.0}, {"lon": -77.00220716666666, "name": "95032c1a45c0dc1d9b674c294c5540b3", "is_disabled": 0, "type": "electric_scooter", "is_reserved": 0, "fusion_lon": 0.0, "lat": 38.901858833333335, "rental_uris": {"ios": "https://dc.lft.to/lastmile_qr_scan", "android": "https://dc.lft.to/lastmile_qr_scan"}, "bike_id": "95032c1a45c0dc1d9b674c294c5540b3", "fusion_lat": 0.0}, {"lon": -77.04641833333334, "name": "d46c1cbb6e10b5598f30bf49251788a7", "is_disabled": 0, "type": "electric_scooter", "is_reserved": 0, "fusion_lon": 0.0, "lat": 38.914293666666666, "rental_uris": {"ios": "https://dc.lft.to/lastmile_qr_scan", "android": "https://dc.lft.to/lastmile_qr_scan"}, "bike_id": "d46c1cbb6e10b5598f30bf49251788a7", "fusion_lat": 0.0}, {"lon": -77.02855716666667, "name": "a802b575b9e52c071c065976cc1c4d10", "is_disabled": 0, "type": "electric_scooter", "is_reserved": 0, "fusion_lon": 0.0, "lat": 38.8887935, "rental_uris": {"ios": "https://dc.lft.to/lastmile_qr_scan", "android": "https://dc.lft.to/lastmile_qr_scan"}, "bike_id": "a802b575b9e52c071c065976cc1c4d10", "fusion_lat": 0.0}, {"lon": -76.99288533333333, "name": "027e5b51b53bc78a28e367f889b7c0d0", "is_disabled": 0, "type": "electric_scooter", "is_reserved": 0, "fusion_lon": 0.0, "lat": 38.904103666666664, "rental_uris": {"ios": "https://dc.lft.to/lastmile_qr_scan", "android": "https://dc.lft.to/lastmile_qr_scan"}, "bike_id": "027e5b51b53bc78a28e367f889b7c0d0", "fusion_lat": 0.0}, {"lon": -77.03350383333333, "name": "8f09f9d95d940a81630a66472f54d159", "is_disabled": 0, "type": "electric_scooter", "is_reserved": 0, "fusion_lon": 0.0, "lat": 38.884726, "rental_uris": {"ios": "https://dc.lft.to/lastmile_qr_scan", "android": "https://dc.lft.to/lastmile_qr_scan"}, "bike_id": "8f09f9d95d940a81630a66472f54d159", "fusion_lat": 0.0}, {"lon": -77.06514183333333, "name": "99eff5d835b03fe4cf769db6368933f1", "is_disabled": 0, "type": "electric_scooter", "is_reserved": 0, "fusion_lon": 0.0, "lat": 38.903966833333335, "rental_uris": {"ios": "https://dc.lft.to/lastmile_qr_scan", "android": "https://dc.lft.to/lastmile_qr_scan"}, "bike_id": "99eff5d835b03fe4cf769db6368933f1", "fusion_lat": 0.0}, {"lon": -77.03411916666667, "name": "7cfed3173fb91841b01b4efcdd2b0aa3", "is_disabled": 0, "type": "electric_scooter", "is_reserved": 0, "fusion_lon": 0.0, "lat": 38.91934333333333, "rental_uris": {"ios": "https://dc.lft.to/lastmile_qr_scan", "android": "https://dc.lft.to/lastmile_qr_scan"}, "bike_id": "7cfed3173fb91841b01b4efcdd2b0aa3", "fusion_lat": 0.0}, {"lon": -77.00948183333334, "name": "95005df99373daa2ffb5a6281eef05df", "is_disabled": 0, "type": "electric_scooter", "is_reserved": 0, "fusion_lon": 0.0, "lat": 38.9156235, "rental_uris": {"ios": "https://dc.lft.to/lastmile_qr_scan", "android": "https://dc.lft.to/lastmile_qr_scan"}, "bike_id": "95005df99373daa2ffb5a6281eef05df", "fusion_lat": 0.0}, {"lon": -77.03380016666667, "name": "c6bff651e916a6599bd383b216fbd2d1", "is_disabled": 0, "type": "electric_scooter", "is_reserved": 0, "fusion_lon": 0.0, "lat": 38.921556333333335, "rental_uris": {"ios": "https://dc.lft.to/lastmile_qr_scan", "android": "https://dc.lft.to/lastmile_qr_scan"}, "bike_id": "c6bff651e916a6599bd383b216fbd2d1", "fusion_lat": 0.0}, {"lon": -77.0018505, "name": "4ee5e8fa8c3d7867cd6b11cc1adf6e96", "is_disabled": 0, "type": "electric_scooter", "is_reserved": 0, "fusion_lon": 0.0, "lat": 38.888593, "rental_uris": {"ios": "https://dc.lft.to/lastmile_qr_scan", "android": "https://dc.lft.to/lastmile_qr_scan"}, "bike_id": "4ee5e8fa8c3d7867cd6b11cc1adf6e96", "fusion_lat": 0.0}, {"lon": -77.017248, "name": "f8f39e4fbe3c0e07a638c82426220887", "is_disabled": 0, "type": "electric_scooter", "is_reserved": 0, "fusion_lon": 0.0, "lat": 38.913626, "rental_uris": {"ios": "https://dc.lft.to/lastmile_qr_scan", "android": "https://dc.lft.to/lastmile_qr_scan"}, "bike_id": "f8f39e4fbe3c0e07a638c82426220887", "fusion_lat": 0.0}, {"lon": -77.02274933333334, "name": "6adcbc58cd8c72504dc695a9b36c15b6", "is_disabled": 0, "type": "electric_scooter", "is_reserved": 0, "fusion_lon": 0.0, "lat": 38.91664466666667, "rental_uris": {"ios": "https://dc.lft.to/lastmile_qr_scan", "android": "https://dc.lft.to/lastmile_qr_scan"}, "bike_id": "6adcbc58cd8c72504dc695a9b36c15b6", "fusion_lat": 0.0}, {"lon": -77.00575883333333, "name": "65946f16f0fd19d38585f8a18c3d476e", "is_disabled": 0, "type": "electric_scooter", "is_reserved": 0, "fusion_lon": 0.0, "lat": 38.8721235, "rental_uris": {"ios": "https://dc.lft.to/lastmile_qr_scan", "android": "https://dc.lft.to/lastmile_qr_scan"}, "bike_id": "65946f16f0fd19d38585f8a18c3d476e", "fusion_lat": 0.0}, {"lon": -77.01840533333333, "name": "c17e17cfff9eeecac30594686b777328", "is_disabled": 0, "type": "electric_scooter", "is_reserved": 0, "fusion_lon": 0.0, "lat": 38.89744816666666, "rental_uris": {"ios": "https://dc.lft.to/lastmile_qr_scan", "android": "https://dc.lft.to/lastmile_qr_scan"}, "bike_id": "c17e17cfff9eeecac30594686b777328", "fusion_lat": 0.0}, {"lon": -77.02640383333333, "name": "7a81359d5cf4a889371cde8193d4f810", "is_disabled": 0, "type": "electric_scooter", "is_reserved": 0, "fusion_lon": 0.0, "lat": 38.911022833333334, "rental_uris": {"ios": "https://dc.lft.to/lastmile_qr_scan", "android": "https://dc.lft.to/lastmile_qr_scan"}, "bike_id": "7a81359d5cf4a889371cde8193d4f810", "fusion_lat": 0.0}, {"lon": -77.078728, "name": "c0e7b22cb6c9852d554e8095bd8e0da2", "is_disabled": 0, "type": "electric_scooter", "is_reserved": 0, "fusion_lon": 0.0, "lat": 38.91958983333333, "rental_uris": {"ios": "https://dc.lft.to/lastmile_qr_scan", "android": "https://dc.lft.to/lastmile_qr_scan"}, "bike_id": "c0e7b22cb6c9852d554e8095bd8e0da2", "fusion_lat": 0.0}, {"lon": -77.04999966666666, "name": "8502803c49722bf005090fb52442c1e5", "is_disabled": 0, "type": "electric_scooter", "is_reserved": 0, "fusion_lon": 0.0, "lat": 38.892310333333334, "rental_uris": {"ios": "https://dc.lft.to/lastmile_qr_scan", "android": "https://dc.lft.to/lastmile_qr_scan"}, "bike_id": "8502803c49722bf005090fb52442c1e5", "fusion_lat": 0.0}, {"lon": -77.0366355, "name": "ea58fa2b53a3a16c950f582613f2a1c5", "is_disabled": 0, "type": "electric_scooter", "is_reserved": 0, "fusion_lon": 0.0, "lat": 38.91778266666667, "rental_uris": {"ios": "https://dc.lft.to/lastmile_qr_scan", "android": "https://dc.lft.to/lastmile_qr_scan"}, "bike_id": "ea58fa2b53a3a16c950f582613f2a1c5", "fusion_lat": 0.0}, {"lon": -76.99843683333333, "name": "775737b4e64c462a9e43902e6aa11bad", "is_disabled": 0, "type": "electric_scooter", "is_reserved": 0, "fusion_lon": 0.0, "lat": 38.90004233333333, "rental_uris": {"ios": "https://dc.lft.to/lastmile_qr_scan", "android": "https://dc.lft.to/lastmile_qr_scan"}, "bike_id": "775737b4e64c462a9e43902e6aa11bad", "fusion_lat": 0.0}, {"lon": -77.06126383333333, "name": "dc7d1fa7d72d544e5bd27ffb74d575b0", "is_disabled": 0, "type": "electric_scooter", "is_reserved": 0, "fusion_lon": 0.0, "lat": 38.940868, "rental_uris": {"ios": "https://dc.lft.to/lastmile_qr_scan", "android": "https://dc.lft.to/lastmile_qr_scan"}, "bike_id": "dc7d1fa7d72d544e5bd27ffb74d575b0", "fusion_lat": 0.0}, {"lon": -77.02949366666667, "name": "05bb5396a68411fbded7a311497299e4", "is_disabled": 0, "type": "electric_scooter", "is_reserved": 0, "fusion_lon": 0.0, "lat": 38.92772, "rental_uris": {"ios": "https://dc.lft.to/lastmile_qr_scan", "android": "https://dc.lft.to/lastmile_qr_scan"}, "bike_id": "05bb5396a68411fbded7a311497299e4", "fusion_lat": 0.0}, {"lon": -77.01880233333333, "name": "9ff31fae5d10f58ce73fb2e730f2f568", "is_disabled": 0, "type": "electric_scooter", "is_reserved": 0, "fusion_lon": 0.0, "lat": 38.9193665, "rental_uris": {"ios": "https://dc.lft.to/lastmile_qr_scan", "android": "https://dc.lft.to/lastmile_qr_scan"}, "bike_id": "9ff31fae5d10f58ce73fb2e730f2f568", "fusion_lat": 0.0}, {"lon": -77.0320695, "name": "6598c770b8ddee12cfa29307d66064d7", "is_disabled": 0, "type": "electric_scooter", "is_reserved": 0, "fusion_lon": 0.0, "lat": 38.91679633333333, "rental_uris": {"ios": "https://dc.lft.to/lastmile_qr_scan", "android": "https://dc.lft.to/lastmile_qr_scan"}, "bike_id": "6598c770b8ddee12cfa29307d66064d7", "fusion_lat": 0.0}, {"lon": -77.03903883333334, "name": "a5e70a344d76eb6ed8b664f126254b67", "is_disabled": 0, "type": "electric_scooter", "is_reserved": 0, "fusion_lon": 0.0, "lat": 38.922374, "rental_uris": {"ios": "https://dc.lft.to/lastmile_qr_scan", "android": "https://dc.lft.to/lastmile_qr_scan"}, "bike_id": "a5e70a344d76eb6ed8b664f126254b67", "fusion_lat": 0.0}, {"lon": -76.92933866666667, "name": "ee322a1ad6349c2da19d521171cddb2f", "is_disabled": 0, "type": "electric_scooter", "is_reserved": 0, "fusion_lon": 0.0, "lat": 38.90097633333333, "rental_uris": {"ios": "https://dc.lft.to/lastmile_qr_scan", "android": "https://dc.lft.to/lastmile_qr_scan"}, "bike_id": "ee322a1ad6349c2da19d521171cddb2f", "fusion_lat": 0.0}, {"lon": -77.00220516666667, "name": "8e26511f26f43f2771b1737ea54e8370", "is_disabled": 0, "type": "electric_scooter", "is_reserved": 0, "fusion_lon": 0.0, "lat": 38.901913, "rental_uris": {"ios": "https://dc.lft.to/lastmile_qr_scan", "android": "https://dc.lft.to/lastmile_qr_scan"}, "bike_id": "8e26511f26f43f2771b1737ea54e8370", "fusion_lat": 0.0}, {"lon": -77.03278266666666, "name": "6ed5ccb64f400a35f0cad030568e3f4a", "is_disabled": 0, "type": "electric_bike", "is_reserved": 0, "fusion_lon": 0.0, "lat": 38.961268833333335, "rental_uris": {"ios": "https://dc.lft.to/lastmile_qr_scan", "android": "https://dc.lft.to/lastmile_qr_scan"}, "bike_id": "6ed5ccb64f400a35f0cad030568e3f4a", "fusion_lat": 0.0}, {"lon": -76.98118716666667, "name": "6a1ea3dce2e34b1b2ab51034926da0e9", "is_disabled": 0, "type": "electric_bike", "is_reserved": 0, "fusion_lon": 0.0, "lat": 38.94570733333333, "rental_uris": {"ios": "https://dc.lft.to/lastmile_qr_scan", "android": "https://dc.lft.to/lastmile_qr_scan"}, "bike_id": "6a1ea3dce2e34b1b2ab51034926da0e9", "fusion_lat": 0.0}, {"lon": -77.019573, "name": "ef3fd13c4dd9f49d8b0a4291f9326797", "is_disabled": 0, "type": "electric_scooter", "is_reserved": 0, "fusion_lon": 0.0, "lat": 38.922516, "rental_uris": {"ios": "https://dc.lft.to/lastmile_qr_scan", "android": "https://dc.lft.to/lastmile_qr_scan"}, "bike_id": "ef3fd13c4dd9f49d8b0a4291f9326797", "fusion_lat": 0.0}, {"lon": -77.06018866666666, "name": "9ce28b41f5a826aa2393302d104fcdbc", "is_disabled": 0, "type": "electric_bike", "is_reserved": 0, "fusion_lon": 0.0, "lat": 38.857273, "rental_uris": {"ios": "https://dc.lft.to/lastmile_qr_scan", "android": "https://dc.lft.to/lastmile_qr_scan"}, "bike_id": "9ce28b41f5a826aa2393302d104fcdbc", "fusion_lat": 0.0}, {"lon": -77.03207783333333, "name": "febaad18b32206c1ea811b647183ef8f", "is_disabled": 0, "type": "electric_scooter", "is_reserved": 0, "fusion_lon": 0.0, "lat": 38.916161833333334, "rental_uris": {"ios": "https://dc.lft.to/lastmile_qr_scan", "android": "https://dc.lft.to/lastmile_qr_scan"}, "bike_id": "febaad18b32206c1ea811b647183ef8f", "fusion_lat": 0.0}, {"lon": -77.01986216666667, "name": "045332e80dfdd65a46064e8afa3633fc", "is_disabled": 0, "type": "electric_scooter", "is_reserved": 0, "fusion_lon": 0.0, "lat": 38.915593, "rental_uris": {"ios": "https://dc.lft.to/lastmile_qr_scan", "android": "https://dc.lft.to/lastmile_qr_scan"}, "bike_id": "045332e80dfdd65a46064e8afa3633fc", "fusion_lat": 0.0}, {"lon": -77.024356, "name": "d91759511400924e3b307ca3e0b1c22d", "is_disabled": 0, "type": "electric_scooter", "is_reserved": 0, "fusion_lon": 0.0, "lat": 38.9678725, "rental_uris": {"ios": "https://dc.lft.to/lastmile_qr_scan", "android": "https://dc.lft.to/lastmile_qr_scan"}, "bike_id": "d91759511400924e3b307ca3e0b1c22d", "fusion_lat": 0.0}, {"lon": -77.03890083333333, "name": "f6774cfa2b5985bd58a28b285e69d3aa", "is_disabled": 0, "type": "electric_scooter", "is_reserved": 0, "fusion_lon": 0.0, "lat": 38.920386, "rental_uris": {"ios": "https://dc.lft.to/lastmile_qr_scan", "android": "https://dc.lft.to/lastmile_qr_scan"}, "bike_id": "f6774cfa2b5985bd58a28b285e69d3aa", "fusion_lat": 0.0}, {"lon": -77.02849566666667, "name": "4ad0206f9240dd8c26d5d10046bb262d", "is_disabled": 0, "type": "electric_scooter", "is_reserved": 0, "fusion_lon": 0.0, "lat": 38.944931833333335, "rental_uris": {"ios": "https://dc.lft.to/lastmile_qr_scan", "android": "https://dc.lft.to/lastmile_qr_scan"}, "bike_id": "4ad0206f9240dd8c26d5d10046bb262d", "fusion_lat": 0.0}, {"lon": -77.03561, "name": "db024c9507a88b9228750cae66f6fb98", "is_disabled": 0, "type": "electric_bike", "is_reserved": 0, "fusion_lon": 0.0, "lat": 38.931330833333334, "rental_uris": {"ios": "https://dc.lft.to/lastmile_qr_scan", "android": "https://dc.lft.to/lastmile_qr_scan"}, "bike_id": "db024c9507a88b9228750cae66f6fb98", "fusion_lat": 0.0}, {"lon": -77.03201966666667, "name": "339d9faa3215f0d92811de00a60cf7c0", "is_disabled": 0, "type": "electric_scooter", "is_reserved": 0, "fusion_lon": 0.0, "lat": 38.918072333333335, "rental_uris": {"ios": "https://dc.lft.to/lastmile_qr_scan", "android": "https://dc.lft.to/lastmile_qr_scan"}, "bike_id": "339d9faa3215f0d92811de00a60cf7c0", "fusion_lat": 0.0}, {"lon": -76.93722700000001, "name": "f41ec3bfe3020f5faf5e06cef0e4ffd7", "is_disabled": 0, "type": "electric_scooter", "is_reserved": 0, "fusion_lon": 0.0, "lat": 38.886640666666665, "rental_uris": {"ios": "https://dc.lft.to/lastmile_qr_scan", "android": "https://dc.lft.to/lastmile_qr_scan"}, "bike_id": "f41ec3bfe3020f5faf5e06cef0e4ffd7", "fusion_lat": 0.0}, {"lon": -77.022614, "name": "a984cb99929899d685484f0b9f394a35", "is_disabled": 0, "type": "electric_scooter", "is_reserved": 0, "fusion_lon": 0.0, "lat": 38.92825716666667, "rental_uris": {"ios": "https://dc.lft.to/lastmile_qr_scan", "android": "https://dc.lft.to/lastmile_qr_scan"}, "bike_id": "a984cb99929899d685484f0b9f394a35", "fusion_lat": 0.0}, {"lon": -77.00918933333334, "name": "b8771359d18db55afdcf37bd9869fa69", "is_disabled": 0, "type": "electric_scooter", "is_reserved": 0, "fusion_lon": 0.0, "lat": 38.8955595, "rental_uris": {"ios": "https://dc.lft.to/lastmile_qr_scan", "android": "https://dc.lft.to/lastmile_qr_scan"}, "bike_id": "b8771359d18db55afdcf37bd9869fa69", "fusion_lat": 0.0}, {"lon": -77.04685983333333, "name": "3f5cfee84fbf3ef8ebeb930977180940", "is_disabled": 0, "type": "electric_scooter", "is_reserved": 0, "fusion_lon": 0.0, "lat": 38.8922325, "rental_uris": {"ios": "https://dc.lft.to/lastmile_qr_scan", "android": "https://dc.lft.to/lastmile_qr_scan"}, "bike_id": "3f5cfee84fbf3ef8ebeb930977180940", "fusion_lat": 0.0}, {"lon": -77.02158066666667, "name": "6a5cbb5b74356740583704bfcea56df8", "is_disabled": 0, "type": "electric_scooter", "is_reserved": 0, "fusion_lon": 0.0, "lat": 38.92602933333333, "rental_uris": {"ios": "https://dc.lft.to/lastmile_qr_scan", "android": "https://dc.lft.to/lastmile_qr_scan"}, "bike_id": "6a5cbb5b74356740583704bfcea56df8", "fusion_lat": 0.0}, {"lon": -77.0357795, "name": "6ae7c35c72655c08fa3cb65a3de3f6d2", "is_disabled": 0, "type": "electric_scooter", "is_reserved": 0, "fusion_lon": 0.0, "lat": 38.91919216666667, "rental_uris": {"ios": "https://dc.lft.to/lastmile_qr_scan", "android": "https://dc.lft.to/lastmile_qr_scan"}, "bike_id": "6ae7c35c72655c08fa3cb65a3de3f6d2", "fusion_lat": 0.0}, {"lon": -77.02218116666667, "name": "b15bcdc8a5d60d4a5cf68cb91516321b", "is_disabled": 0, "type": "electric_scooter", "is_reserved": 0, "fusion_lon": 0.0, "lat": 38.899911, "rental_uris": {"ios": "https://dc.lft.to/lastmile_qr_scan", "android": "https://dc.lft.to/lastmile_qr_scan"}, "bike_id": "b15bcdc8a5d60d4a5cf68cb91516321b", "fusion_lat": 0.0}, {"lon": -77.02307833333333, "name": "fd2821fe22a1d4c6ec4d66ad0e5d290e", "is_disabled": 0, "type": "electric_scooter", "is_reserved": 0, "fusion_lon": 0.0, "lat": 38.9008565, "rental_uris": {"ios": "https://dc.lft.to/lastmile_qr_scan", "android": "https://dc.lft.to/lastmile_qr_scan"}, "bike_id": "fd2821fe22a1d4c6ec4d66ad0e5d290e", "fusion_lat": 0.0}, {"lon": -77.02162483333333, "name": "5125a0b7c879320ae9cf1d14a6470e97", "is_disabled": 0, "type": "electric_scooter", "is_reserved": 0, "fusion_lon": 0.0, "lat": 38.930657833333335, "rental_uris": {"ios": "https://dc.lft.to/lastmile_qr_scan", "android": "https://dc.lft.to/lastmile_qr_scan"}, "bike_id": "5125a0b7c879320ae9cf1d14a6470e97", "fusion_lat": 0.0}, {"lon": -77.02821066666667, "name": "34b4e380a666d0af8494186c9f65121a", "is_disabled": 0, "type": "electric_scooter", "is_reserved": 0, "fusion_lon": 0.0, "lat": 38.92237333333333, "rental_uris": {"ios": "https://dc.lft.to/lastmile_qr_scan", "android": "https://dc.lft.to/lastmile_qr_scan"}, "bike_id": "34b4e380a666d0af8494186c9f65121a", "fusion_lat": 0.0}, {"lon": -77.027075, "name": "f4a2c7cc1d90338b1762ffb454c722ef", "is_disabled": 0, "type": "electric_bike", "is_reserved": 0, "fusion_lon": 0.0, "lat": 38.94986033333333, "rental_uris": {"ios": "https://dc.lft.to/lastmile_qr_scan", "android": "https://dc.lft.to/lastmile_qr_scan"}, "bike_id": "f4a2c7cc1d90338b1762ffb454c722ef", "fusion_lat": 0.0}, {"lon": -77.0317735, "name": "c31ae5e3b68a7e18f04a6634530f5a5e", "is_disabled": 0, "type": "electric_scooter", "is_reserved": 0, "fusion_lon": 0.0, "lat": 38.8923955, "rental_uris": {"ios": "https://dc.lft.to/lastmile_qr_scan", "android": "https://dc.lft.to/lastmile_qr_scan"}, "bike_id": "c31ae5e3b68a7e18f04a6634530f5a5e", "fusion_lat": 0.0}, {"lon": -76.99610283333334, "name": "9fb8880f38c98cd9142768a53ef28258", "is_disabled": 0, "type": "electric_scooter", "is_reserved": 0, "fusion_lon": 0.0, "lat": 38.901428333333335, "rental_uris": {"ios": "https://dc.lft.to/lastmile_qr_scan", "android": "https://dc.lft.to/lastmile_qr_scan"}, "bike_id": "9fb8880f38c98cd9142768a53ef28258", "fusion_lat": 0.0}, {"lon": -77.0398625, "name": "1dd077498a77f0de8f9ad6d3ad8ec3ed", "is_disabled": 0, "type": "electric_bike", "is_reserved": 0, "fusion_lon": 0.0, "lat": 38.93337, "rental_uris": {"ios": "https://dc.lft.to/lastmile_qr_scan", "android": "https://dc.lft.to/lastmile_qr_scan"}, "bike_id": "1dd077498a77f0de8f9ad6d3ad8ec3ed", "fusion_lat": 0.0}, {"lon": -77.02693666666667, "name": "f9f66d12e59d9fe748443f2a11e07b62", "is_disabled": 0, "type": "electric_scooter", "is_reserved": 0, "fusion_lon": 0.0, "lat": 38.90588783333333, "rental_uris": {"ios": "https://dc.lft.to/lastmile_qr_scan", "android": "https://dc.lft.to/lastmile_qr_scan"}, "bike_id": "f9f66d12e59d9fe748443f2a11e07b62", "fusion_lat": 0.0}, {"lon": -77.0445535, "name": "2856e6bf3e82c91fe346b382f27e7e6f", "is_disabled": 0, "type": "electric_scooter", "is_reserved": 0, "fusion_lon": 0.0, "lat": 38.915307166666665, "rental_uris": {"ios": "https://dc.lft.to/lastmile_qr_scan", "android": "https://dc.lft.to/lastmile_qr_scan"}, "bike_id": "2856e6bf3e82c91fe346b382f27e7e6f", "fusion_lat": 0.0}, {"lon": -77.01035366666666, "name": "e1ba228f233f3c7f649166620e0f629e", "is_disabled": 0, "type": "electric_bike", "is_reserved": 0, "fusion_lon": 0.0, "lat": 38.95879216666667, "rental_uris": {"ios": "https://dc.lft.to/lastmile_qr_scan", "android": "https://dc.lft.to/lastmile_qr_scan"}, "bike_id": "e1ba228f233f3c7f649166620e0f629e", "fusion_lat": 0.0}, {"lon": -77.02883733333333, "name": "33fdb66048cfa0196f1e76e40cc5b446", "is_disabled": 0, "type": "electric_scooter", "is_reserved": 0, "fusion_lon": 0.0, "lat": 38.91632366666666, "rental_uris": {"ios": "https://dc.lft.to/lastmile_qr_scan", "android": "https://dc.lft.to/lastmile_qr_scan"}, "bike_id": "33fdb66048cfa0196f1e76e40cc5b446", "fusion_lat": 0.0}, {"lon": -77.0718795, "name": "c569db9442af8a3d1fcfcb8a284a25b4", "is_disabled": 0, "type": "electric_scooter", "is_reserved": 0, "fusion_lon": 0.0, "lat": 38.90680833333333, "rental_uris": {"ios": "https://dc.lft.to/lastmile_qr_scan", "android": "https://dc.lft.to/lastmile_qr_scan"}, "bike_id": "c569db9442af8a3d1fcfcb8a284a25b4", "fusion_lat": 0.0}, {"lon": -76.98713933333333, "name": "9a7ba86877c100cdad3d2f14ec3cf744", "is_disabled": 0, "type": "electric_scooter", "is_reserved": 0, "fusion_lon": 0.0, "lat": 38.90494433333333, "rental_uris": {"ios": "https://dc.lft.to/lastmile_qr_scan", "android": "https://dc.lft.to/lastmile_qr_scan"}, "bike_id": "9a7ba86877c100cdad3d2f14ec3cf744", "fusion_lat": 0.0}, {"lon": -77.01905283333333, "name": "65e18835cd888db9b7d632b97b010129", "is_disabled": 0, "type": "electric_scooter", "is_reserved": 0, "fusion_lon": 0.0, "lat": 38.9173325, "rental_uris": {"ios": "https://dc.lft.to/lastmile_qr_scan", "android": "https://dc.lft.to/lastmile_qr_scan"}, "bike_id": "65e18835cd888db9b7d632b97b010129", "fusion_lat": 0.0}, {"lon": -77.0320035, "name": "0e291e5be67bf70152d06c466bf65986", "is_disabled": 0, "type": "electric_scooter", "is_reserved": 0, "fusion_lon": 0.0, "lat": 38.918027, "rental_uris": {"ios": "https://dc.lft.to/lastmile_qr_scan", "android": "https://dc.lft.to/lastmile_qr_scan"}, "bike_id": "0e291e5be67bf70152d06c466bf65986", "fusion_lat": 0.0}, {"lon": -77.02207166666666, "name": "d668949be2e2eb481fe45c600f7328ab", "is_disabled": 0, "type": "electric_scooter", "is_reserved": 0, "fusion_lon": 0.0, "lat": 38.89996716666667, "rental_uris": {"ios": "https://dc.lft.to/lastmile_qr_scan", "android": "https://dc.lft.to/lastmile_qr_scan"}, "bike_id": "d668949be2e2eb481fe45c600f7328ab", "fusion_lat": 0.0}, {"lon": -77.0344365, "name": "b379da4c3fa30666224f58a3a72c5cec", "is_disabled": 0, "type": "electric_scooter", "is_reserved": 0, "fusion_lon": 0.0, "lat": 38.92862133333333, "rental_uris": {"ios": "https://dc.lft.to/lastmile_qr_scan", "android": "https://dc.lft.to/lastmile_qr_scan"}, "bike_id": "b379da4c3fa30666224f58a3a72c5cec", "fusion_lat": 0.0}, {"lon": -76.98416283333333, "name": "561bf907857054d13bc2b922e8a37c26", "is_disabled": 0, "type": "electric_scooter", "is_reserved": 0, "fusion_lon": 0.0, "lat": 38.91391333333333, "rental_uris": {"ios": "https://dc.lft.to/lastmile_qr_scan", "android": "https://dc.lft.to/lastmile_qr_scan"}, "bike_id": "561bf907857054d13bc2b922e8a37c26", "fusion_lat": 0.0}, {"lon": -77.04964916666667, "name": "e8e18fe9b0b2c4377579db24989e4f31", "is_disabled": 0, "type": "electric_scooter", "is_reserved": 0, "fusion_lon": 0.0, "lat": 38.905335, "rental_uris": {"ios": "https://dc.lft.to/lastmile_qr_scan", "android": "https://dc.lft.to/lastmile_qr_scan"}, "bike_id": "e8e18fe9b0b2c4377579db24989e4f31", "fusion_lat": 0.0}, {"lon": -77.04004, "name": "66cceedc96a35dd7285da0f4b01b9ff6", "is_disabled": 0, "type": "electric_scooter", "is_reserved": 0, "fusion_lon": 0.0, "lat": 38.91693866666667, "rental_uris": {"ios": "https://dc.lft.to/lastmile_qr_scan", "android": "https://dc.lft.to/lastmile_qr_scan"}, "bike_id": "66cceedc96a35dd7285da0f4b01b9ff6", "fusion_lat": 0.0}, {"lon": -77.02983566666667, "name": "cb3cfd8434b4954d7cfb45b6bd53eeb0", "is_disabled": 0, "type": "electric_scooter", "is_reserved": 0, "fusion_lon": 0.0, "lat": 38.9435105, "rental_uris": {"ios": "https://dc.lft.to/lastmile_qr_scan", "android": "https://dc.lft.to/lastmile_qr_scan"}, "bike_id": "cb3cfd8434b4954d7cfb45b6bd53eeb0", "fusion_lat": 0.0}, {"lon": -77.002948, "name": "4d9c5dc03df2ba2e353bad90789a0ea7", "is_disabled": 0, "type": "electric_scooter", "is_reserved": 0, "fusion_lon": 0.0, "lat": 38.892320166666664, "rental_uris": {"ios": "https://dc.lft.to/lastmile_qr_scan", "android": "https://dc.lft.to/lastmile_qr_scan"}, "bike_id": "4d9c5dc03df2ba2e353bad90789a0ea7", "fusion_lat": 0.0}, {"lon": -77.04721283333333, "name": "b52c3147cf149002262af1f64f7cb95f", "is_disabled": 0, "type": "electric_scooter", "is_reserved": 0, "fusion_lon": 0.0, "lat": 38.899713166666665, "rental_uris": {"ios": "https://dc.lft.to/lastmile_qr_scan", "android": "https://dc.lft.to/lastmile_qr_scan"}, "bike_id": "b52c3147cf149002262af1f64f7cb95f", "fusion_lat": 0.0}, {"lon": -77.00445933333333, "name": "9937235323c44e734177397154da7d93", "is_disabled": 0, "type": "electric_scooter", "is_reserved": 0, "fusion_lon": 0.0, "lat": 38.87825816666667, "rental_uris": {"ios": "https://dc.lft.to/lastmile_qr_scan", "android": "https://dc.lft.to/lastmile_qr_scan"}, "bike_id": "9937235323c44e734177397154da7d93", "fusion_lat": 0.0}, {"lon": -77.02087083333333, "name": "cd4ba7f56c1b1cccc4fc8ea0b7eaa223", "is_disabled": 0, "type": "electric_scooter", "is_reserved": 0, "fusion_lon": 0.0, "lat": 38.92156333333333, "rental_uris": {"ios": "https://dc.lft.to/lastmile_qr_scan", "android": "https://dc.lft.to/lastmile_qr_scan"}, "bike_id": "cd4ba7f56c1b1cccc4fc8ea0b7eaa223", "fusion_lat": 0.0}, {"lon": -76.9848955, "name": "798fae2a925f8a8389920afb8d1145ba", "is_disabled": 0, "type": "electric_scooter", "is_reserved": 0, "fusion_lon": 0.0, "lat": 38.92032316666667, "rental_uris": {"ios": "https://dc.lft.to/lastmile_qr_scan", "android": "https://dc.lft.to/lastmile_qr_scan"}, "bike_id": "798fae2a925f8a8389920afb8d1145ba", "fusion_lat": 0.0}, {"lon": -77.02213966666666, "name": "a3df7eea1f5d249258ec9f936ebae1b4", "is_disabled": 0, "type": "electric_scooter", "is_reserved": 0, "fusion_lon": 0.0, "lat": 38.912696833333335, "rental_uris": {"ios": "https://dc.lft.to/lastmile_qr_scan", "android": "https://dc.lft.to/lastmile_qr_scan"}, "bike_id": "a3df7eea1f5d249258ec9f936ebae1b4", "fusion_lat": 0.0}, {"lon": -77.002092, "name": "22e16fc263205b6205ba7865647d5e9a", "is_disabled": 0, "type": "electric_scooter", "is_reserved": 0, "fusion_lon": 0.0, "lat": 38.898036833333336, "rental_uris": {"ios": "https://dc.lft.to/lastmile_qr_scan", "android": "https://dc.lft.to/lastmile_qr_scan"}, "bike_id": "22e16fc263205b6205ba7865647d5e9a", "fusion_lat": 0.0}, {"lon": -77.02519033333333, "name": "ae02d86acaa8ccafba83f0d7eb1f006d", "is_disabled": 0, "type": "electric_scooter", "is_reserved": 0, "fusion_lon": 0.0, "lat": 38.92074083333333, "rental_uris": {"ios": "https://dc.lft.to/lastmile_qr_scan", "android": "https://dc.lft.to/lastmile_qr_scan"}, "bike_id": "ae02d86acaa8ccafba83f0d7eb1f006d", "fusion_lat": 0.0}, {"lon": -77.01367016666667, "name": "dca1b8b53a62ea595e75d419b0e0e0f1", "is_disabled": 0, "type": "electric_scooter", "is_reserved": 0, "fusion_lon": 0.0, "lat": 38.913304833333335, "rental_uris": {"ios": "https://dc.lft.to/lastmile_qr_scan", "android": "https://dc.lft.to/lastmile_qr_scan"}, "bike_id": "dca1b8b53a62ea595e75d419b0e0e0f1", "fusion_lat": 0.0}, {"lon": -77.03511783333333, "name": "82734830d09665bd70027d30faea94fc", "is_disabled": 0, "type": "electric_scooter", "is_reserved": 0, "fusion_lon": 0.0, "lat": 38.901521833333334, "rental_uris": {"ios": "https://dc.lft.to/lastmile_qr_scan", "android": "https://dc.lft.to/lastmile_qr_scan"}, "bike_id": "82734830d09665bd70027d30faea94fc", "fusion_lat": 0.0}, {"lon": -76.99574866666667, "name": "6db08da060c60a9fae0ba16b4058f575", "is_disabled": 0, "type": "electric_bike", "is_reserved": 0, "fusion_lon": 0.0, "lat": 38.831572, "rental_uris": {"ios": "https://dc.lft.to/lastmile_qr_scan", "android": "https://dc.lft.to/lastmile_qr_scan"}, "bike_id": "6db08da060c60a9fae0ba16b4058f575", "fusion_lat": 0.0}, {"lon": -77.03258766666667, "name": "9a7e296f3905f5de5638619548483d28", "is_disabled": 0, "type": "electric_scooter", "is_reserved": 0, "fusion_lon": 0.0, "lat": 38.93250416666667, "rental_uris": {"ios": "https://dc.lft.to/lastmile_qr_scan", "android": "https://dc.lft.to/lastmile_qr_scan"}, "bike_id": "9a7e296f3905f5de5638619548483d28", "fusion_lat": 0.0}, {"lon": -77.02487033333334, "name": "de89873261b545a10c632ee8aba36dc0", "is_disabled": 0, "type": "electric_scooter", "is_reserved": 0, "fusion_lon": 0.0, "lat": 38.91815016666666, "rental_uris": {"ios": "https://dc.lft.to/lastmile_qr_scan", "android": "https://dc.lft.to/lastmile_qr_scan"}, "bike_id": "de89873261b545a10c632ee8aba36dc0", "fusion_lat": 0.0}, {"lon": -77.00924783333333, "name": "af8cac9fc427e94e2ec88146f5475f8d", "is_disabled": 0, "type": "electric_scooter", "is_reserved": 0, "fusion_lon": 0.0, "lat": 38.900745, "rental_uris": {"ios": "https://dc.lft.to/lastmile_qr_scan", "android": "https://dc.lft.to/lastmile_qr_scan"}, "bike_id": "af8cac9fc427e94e2ec88146f5475f8d", "fusion_lat": 0.0}, {"lon": -77.0668135, "name": "95920142d419ad0b6021c135a2951c97", "is_disabled": 0, "type": "electric_scooter", "is_reserved": 0, "fusion_lon": 0.0, "lat": 38.91422883333333, "rental_uris": {"ios": "https://dc.lft.to/lastmile_qr_scan", "android": "https://dc.lft.to/lastmile_qr_scan"}, "bike_id": "95920142d419ad0b6021c135a2951c97", "fusion_lat": 0.0}, {"lon": -77.01978933333334, "name": "2a4740320abbd9903ad7c9aaa70a4a71", "is_disabled": 0, "type": "electric_scooter", "is_reserved": 0, "fusion_lon": 0.0, "lat": 38.88559016666667, "rental_uris": {"ios": "https://dc.lft.to/lastmile_qr_scan", "android": "https://dc.lft.to/lastmile_qr_scan"}, "bike_id": "2a4740320abbd9903ad7c9aaa70a4a71", "fusion_lat": 0.0}, {"lon": -77.07547516666666, "name": "28fa72b0cc8ede5205e8e78207097a05", "is_disabled": 0, "type": "electric_scooter", "is_reserved": 0, "fusion_lon": 0.0, "lat": 38.9153065, "rental_uris": {"ios": "https://dc.lft.to/lastmile_qr_scan", "android": "https://dc.lft.to/lastmile_qr_scan"}, "bike_id": "28fa72b0cc8ede5205e8e78207097a05", "fusion_lat": 0.0}, {"lon": -77.0337825, "name": "0b25a6e4b8c24ad31bceb764cc2c9cfd", "is_disabled": 0, "type": "electric_scooter", "is_reserved": 0, "fusion_lon": 0.0, "lat": 38.909637333333336, "rental_uris": {"ios": "https://dc.lft.to/lastmile_qr_scan", "android": "https://dc.lft.to/lastmile_qr_scan"}, "bike_id": "0b25a6e4b8c24ad31bceb764cc2c9cfd", "fusion_lat": 0.0}, {"lon": -77.0177495, "name": "3c0ad9b336b6635bb82f2e5cad7ad1c7", "is_disabled": 0, "type": "electric_scooter", "is_reserved": 0, "fusion_lon": 0.0, "lat": 38.920319166666665, "rental_uris": {"ios": "https://dc.lft.to/lastmile_qr_scan", "android": "https://dc.lft.to/lastmile_qr_scan"}, "bike_id": "3c0ad9b336b6635bb82f2e5cad7ad1c7", "fusion_lat": 0.0}, {"lon": -77.03378166666667, "name": "08acc7eb37e89c58aa93425fdb98443e", "is_disabled": 0, "type": "electric_scooter", "is_reserved": 0, "fusion_lon": 0.0, "lat": 38.92466733333333, "rental_uris": {"ios": "https://dc.lft.to/lastmile_qr_scan", "android": "https://dc.lft.to/lastmile_qr_scan"}, "bike_id": "08acc7eb37e89c58aa93425fdb98443e", "fusion_lat": 0.0}, {"lon": -77.06601266666667, "name": "aa8fa728da77a4d7c58dabf094a9a682", "is_disabled": 0, "type": "electric_scooter", "is_reserved": 0, "fusion_lon": 0.0, "lat": 38.9122485, "rental_uris": {"ios": "https://dc.lft.to/lastmile_qr_scan", "android": "https://dc.lft.to/lastmile_qr_scan"}, "bike_id": "aa8fa728da77a4d7c58dabf094a9a682", "fusion_lat": 0.0}, {"lon": -77.01224316666666, "name": "613db24df6cea9312e1efb7ea3a2fa07", "is_disabled": 0, "type": "electric_scooter", "is_reserved": 0, "fusion_lon": 0.0, "lat": 38.90011066666667, "rental_uris": {"ios": "https://dc.lft.to/lastmile_qr_scan", "android": "https://dc.lft.to/lastmile_qr_scan"}, "bike_id": "613db24df6cea9312e1efb7ea3a2fa07", "fusion_lat": 0.0}, {"lon": -77.021304, "name": "22868493f12108e1e906df77bdd759eb", "is_disabled": 0, "type": "electric_scooter", "is_reserved": 0, "fusion_lon": 0.0, "lat": 38.923957333333334, "rental_uris": {"ios": "https://dc.lft.to/lastmile_qr_scan", "android": "https://dc.lft.to/lastmile_qr_scan"}, "bike_id": "22868493f12108e1e906df77bdd759eb", "fusion_lat": 0.0}, {"lon": -76.98421933333333, "name": "89f2477cd6ba545be542825cad3f73fa", "is_disabled": 0, "type": "electric_bike", "is_reserved": 0, "fusion_lon": 0.0, "lat": 38.910014, "rental_uris": {"ios": "https://dc.lft.to/lastmile_qr_scan", "android": "https://dc.lft.to/lastmile_qr_scan"}, "bike_id": "89f2477cd6ba545be542825cad3f73fa", "fusion_lat": 0.0}, {"lon": -77.02033283333333, "name": "2660a043621bd0ca2aadeab69eb2f1dd", "is_disabled": 0, "type": "electric_scooter", "is_reserved": 0, "fusion_lon": 0.0, "lat": 38.9243745, "rental_uris": {"ios": "https://dc.lft.to/lastmile_qr_scan", "android": "https://dc.lft.to/lastmile_qr_scan"}, "bike_id": "2660a043621bd0ca2aadeab69eb2f1dd", "fusion_lat": 0.0}, {"lon": -76.98201, "name": "7ff3b4789c0128d98eec0bcbd7c8051a", "is_disabled": 0, "type": "electric_bike", "is_reserved": 0, "fusion_lon": 0.0, "lat": 38.9850475, "rental_uris": {"ios": "https://dc.lft.to/lastmile_qr_scan", "android": "https://dc.lft.to/lastmile_qr_scan"}, "bike_id": "7ff3b4789c0128d98eec0bcbd7c8051a", "fusion_lat": 0.0}, {"lon": -77.0352685, "name": "23c662b4af0c63785a1bbeb6bb707039", "is_disabled": 0, "type": "electric_scooter", "is_reserved": 0, "fusion_lon": 0.0, "lat": 38.9224595, "rental_uris": {"ios": "https://dc.lft.to/lastmile_qr_scan", "android": "https://dc.lft.to/lastmile_qr_scan"}, "bike_id": "23c662b4af0c63785a1bbeb6bb707039", "fusion_lat": 0.0}, {"lon": -77.02201883333333, "name": "1fae9a27b995a9e18189aa4a20db476d", "is_disabled": 0, "type": "electric_scooter", "is_reserved": 0, "fusion_lon": 0.0, "lat": 38.911263166666664, "rental_uris": {"ios": "https://dc.lft.to/lastmile_qr_scan", "android": "https://dc.lft.to/lastmile_qr_scan"}, "bike_id": "1fae9a27b995a9e18189aa4a20db476d", "fusion_lat": 0.0}, {"lon": -76.99860683333333, "name": "dc25304daeaba18816c7e3e9d003f2db", "is_disabled": 0, "type": "electric_scooter", "is_reserved": 0, "fusion_lon": 0.0, "lat": 38.902564166666664, "rental_uris": {"ios": "https://dc.lft.to/lastmile_qr_scan", "android": "https://dc.lft.to/lastmile_qr_scan"}, "bike_id": "dc25304daeaba18816c7e3e9d003f2db", "fusion_lat": 0.0}, {"lon": -77.02294383333333, "name": "8b6bd3de1a003cb3dacffb5b1be3c5bb", "is_disabled": 0, "type": "electric_scooter", "is_reserved": 0, "fusion_lon": 0.0, "lat": 38.916452, "rental_uris": {"ios": "https://dc.lft.to/lastmile_qr_scan", "android": "https://dc.lft.to/lastmile_qr_scan"}, "bike_id": "8b6bd3de1a003cb3dacffb5b1be3c5bb", "fusion_lat": 0.0},