{"data": {"bikes": [{"rental_uris": {"ios": "https://dc.lft.to/lastmile_qr_scan", "android": "https://dc.lft.to/lastmile_qr_scan"}, "type": "electric_scooter", "name": "c4fd77e12a098950a512d027e740bad3", "is_reserved": 0, "lon": -76.991792, "is_disabled": 0, "fusion_lat": 0.0, "lat": 38.905044833333335, "bike_id": "c4fd77e12a098950a512d027e740bad3", "fusion_lon": 0.0}, {"rental_uris": {"ios": "https://dc.lft.to/lastmile_qr_scan", "android": "https://dc.lft.to/lastmile_qr_scan"}, "type": "electric_scooter", "name": "44e44787ea3c82e6f121c260c2292d74", "is_reserved": 0, "lon": -76.99589316666666, "is_disabled": 0, "fusion_lat": 0.0, "lat": 38.90945683333333, "bike_id": "44e44787ea3c82e6f121c260c2292d74", "fusion_lon": 0.0}, {"rental_uris": {"ios": "https://dc.lft.to/lastmile_qr_scan", "android": "https://dc.lft.to/lastmile_qr_scan"}, "type": "electric_scooter", "name": "e4600047d0b237f78dd971c5c111965b", "is_reserved": 0, "lon": -76.97326633333333, "is_disabled": 0, "fusion_lat": 0.0, "lat": 38.904072, "bike_id": "e4600047d0b237f78dd971c5c111965b", "fusion_lon": 0.0}, {"rental_uris": {"ios": "https://dc.lft.to/lastmile_qr_scan", "android": "https://dc.lft.to/lastmile_qr_scan"}, "type": "electric_scooter", "name": "165e19288fda06692b9431185deeefc8", "is_reserved": 0, "lon": -77.03964033333334, "is_disabled": 0, "fusion_lat": 0.0, "lat": 38.93155216666667, "bike_id": "165e19288fda06692b9431185deeefc8", "fusion_lon": 0.0}, {"rental_uris": {"ios": "https://dc.lft.to/lastmile_qr_scan", "android": "https://dc.lft.to/lastmile_qr_scan"}, "type": "electric_scooter", "name": "3868e04647963f7f3733e18ec50e38de", "is_reserved": 0, "lon": -77.01074433333334, "is_disabled": 0, "fusion_lat": 0.0, "lat": 38.911884666666666, "bike_id": "3868e04647963f7f3733e18ec50e38de", "fusion_lon": 0.0}, {"rental_uris": {"ios": "https://dc.lft.to/lastmile_qr_scan", "android": "https://dc.lft.to/lastmile_qr_scan"}, "type": "electric_scooter", "name": "6a37f6911c231f96fc8327a7b00a2ebb", "is_reserved": 0, "lon": -77.04565166666667, "is_disabled": 0, "fusion_lat": 0.0, "lat": 38.9183235, "bike_id": "6a37f6911c231f96fc8327a7b00a2ebb", "fusion_lon": 0.0}, {"rental_uris": {"ios": "https://dc.lft.to/lastmile_qr_scan", "android": "https://dc.lft.to/lastmile_qr_scan"}, "type": "electric_scooter", "name": "a02bc3efcb7deed388589930fea2b0cc", "is_reserved": 0, "lon": -77.046699, "is_disabled": 0, "fusion_lat": 0.0, "lat": 38.8961985, "bike_id": "a02bc3efcb7deed388589930fea2b0cc", "fusion_lon": 0.0}, {"rental_uris": {"ios": "https://dc.lft.to/lastmile_qr_scan", "android": "https://dc.lft.to/lastmile_qr_scan"}, "type": "electric_bike", "name": "cbf83c1932e1cdadb1ada5c0819ce971", "is_reserved": 0, "lon": -77.0695145, "is_disabled": 0, "fusion_lat": 0.0, "lat": 38.83630266666667, "bike_id": "cbf83c1932e1cdadb1ada5c0819ce971", "fusion_lon": 0.0}, {"rental_uris": {"ios": "https://dc.lft.to/lastmile_qr_scan", "android": "https://dc.lft.to/lastmile_qr_scan"}, "type": "electric_scooter", "name": "149b4d77d6f7da77c5992aaf136f131a", "is_reserved": 0, "lon": -77.03248933333333, "is_disabled": 0, "fusion_lat": 0.0, "lat": 38.9171305, "bike_id": "149b4d77d6f7da77c5992aaf136f131a", "fusion_lon": 0.0}, {"rental_uris": {"ios": "https://dc.lft.to/lastmile_qr_scan", "android": "https://dc.lft.to/lastmile_qr_scan"}, "type": "electric_scooter", "name": "c18c2dd8bb105832a72f9106132409af", "is_reserved": 0, "lon": -77.02417733333333, "is_disabled": 0, "fusion_lat": 0.0, "lat": 38.929998, "bike_id": "c18c2dd8bb105832a72f9106132409af", "fusion_lon": 0.0}, {"rental_uris": {"ios": "https://dc.lft.to/lastmile_qr_scan", "android": "https://dc.lft.to/lastmile_qr_scan"}, "type": "electric_bike", "name": "80e67ac363e9418203e0f77e53c22ff2", "is_reserved": 0, "lon": -76.99350966666667, "is_disabled": 0, "fusion_lat": 0.0, "lat": 38.84509216666667, "bike_id": "80e67ac363e9418203e0f77e53c22ff2", "fusion_lon": 0.0}, {"rental_uris": {"ios": "https://dc.lft.to/lastmile_qr_scan", "android": "https://dc.lft.to/lastmile_qr_scan"}, "type": "electric_scooter", "name": "b12d5fc3ccd7bd44eb8c3287f1ff1acf", "is_reserved": 0, "lon": -77.0482135, "is_disabled": 0, "fusion_lat": 0.0, "lat": 38.9149175, "bike_id": "b12d5fc3ccd7bd44eb8c3287f1ff1acf", "fusion_lon": 0.0}, {"rental_uris": {"ios": "https://dc.lft.to/lastmile_qr_scan", "android": "https://dc.lft.to/lastmile_qr_scan"}, "type": "electric_scooter", "name": "d68af3b725f0ed0834570d7def04e1d1", "is_reserved": 0, "lon": -77.00714516666666, "is_disabled": 0, "fusion_lat": 0.0, "lat": 38.876883166666666, "bike_id": "d68af3b725f0ed0834570d7def04e1d1", "fusion_lon": 0.0}, {"rental_uris": {"ios": "https://dc.lft.to/lastmile_qr_scan", "android": "https://dc.lft.to/lastmile_qr_scan"}, "type": "electric_scooter", "name": "d925e2064e7b3f5be07d9bd907df2fd3", "is_reserved": 0, "lon": -77.01794633333333, "is_disabled": 0, "fusion_lat": 0.0, "lat": 38.9198635, "bike_id": "d925e2064e7b3f5be07d9bd907df2fd3", "fusion_lon": 0.0}, {"rental_uris": {"ios": "https://dc.lft.to/lastmile_qr_scan", "android": "https://dc.lft.to/lastmile_qr_scan"}, "type": "electric_bike", "name": "659335fe390ca8425b607d4de6e9dda5", "is_reserved": 0, "lon": -76.98688666666666, "is_disabled": 0, "fusion_lat": 0.0, "lat": 38.94474816666666, "bike_id": "659335fe390ca8425b607d4de6e9dda5", "fusion_lon": 0.0}, {"rental_uris": {"ios": "https://dc.lft.to/lastmile_qr_scan", "android": "https://dc.lft.to/lastmile_qr_scan"}, "type": "electric_scooter", "name": "c3fa94be3de43253cf3ef4d2e006e306", "is_reserved": 0, "lon": -77.03797666666667, "is_disabled": 0, "fusion_lat": 0.0, "lat": 38.915388, "bike_id": "c3fa94be3de43253cf3ef4d2e006e306", "fusion_lon": 0.0}, {"rental_uris": {"ios": "https://dc.lft.to/lastmile_qr_scan", "android": "https://dc.lft.to/lastmile_qr_scan"}, "type": "electric_scooter", "name": "42f45321bce8c9c1c24788e19aef7fa1", "is_reserved": 0, "lon": -77.03221466666666, "is_disabled": 0, "fusion_lat": 0.0, "lat": 38.896296666666665, "bike_id": "42f45321bce8c9c1c24788e19aef7fa1", "fusion_lon": 0.0}, {"rental_uris": {"ios": "https://dc.lft.to/lastmile_qr_scan", "android": "https://dc.lft.to/lastmile_qr_scan"}, "type": "electric_scooter", "name": "917b8ce682fce9eb92b445cf64dd7dbd", "is_reserved": 0, "lon": -77.02693516666666, "is_disabled": 0, "fusion_lat": 0.0, "lat": 38.9498075, "bike_id": "917b8ce682fce9eb92b445cf64dd7dbd", "fusion_lon": 0.0}, {"rental_uris": {"ios": "https://dc.lft.to/lastmile_qr_scan", "android": "https://dc.lft.to/lastmile_qr_scan"}, "type": "electric_scooter", "name": "2c283639c4489387ab9f4cdd89e841d3", "is_reserved": 0, "lon": -76.99863083333334, "is_disabled": 0, "fusion_lat": 0.0, "lat": 38.90033916666667, "bike_id": "2c283639c4489387ab9f4cdd89e841d3", "fusion_lon": 0.0}, {"rental_uris": {"ios": "https://dc.lft.to/lastmile_qr_scan", "android": "https://dc.lft.to/lastmile_qr_scan"}, "type": "electric_scooter", "name": "9e51d114ecab8ce990df17c8430275ad", "is_reserved": 0, "lon": -77.0130875, "is_disabled": 0, "fusion_lat": 0.0, "lat": 38.90188666666667, "bike_id": "9e51d114ecab8ce990df17c8430275ad", "fusion_lon": 0.0}, {"rental_uris": {"ios": "https://dc.lft.to/lastmile_qr_scan", "android": "https://dc.lft.to/lastmile_qr_scan"}, "type": "electric_scooter", "name": "b30f1acba8f6a413aed3fa405e50df78", "is_reserved": 0, "lon": -77.03809416666667, "is_disabled": 0, "fusion_lat": 0.0, "lat": 38.911939333333336, "bike_id": "b30f1acba8f6a413aed3fa405e50df78", "fusion_lon": 0.0}, {"rental_uris": {"ios": "https://dc.lft.to/lastmile_qr_scan", "android": "https://dc.lft.to/lastmile_qr_scan"}, "type": "electric_scooter", "name": "c65c691ed304fadc7156594f50c2117e", "is_reserved": 0, "lon": -77.02095483333333, "is_disabled": 0, "fusion_lat": 0.0, "lat": 38.9300805, "bike_id": "c65c691ed304fadc7156594f50c2117e", "fusion_lon": 0.0}, {"rental_uris": {"ios": "https://dc.lft.to/lastmile_qr_scan", "android": "https://dc.lft.to/lastmile_qr_scan"}, "type": "electric_scooter", "name": "caf15e0f2f623ec9ccc1688ff0bad26e", "is_reserved": 0, "lon": -77.04800883333333, "is_disabled": 0, "fusion_lat": 0.0, "lat": 38.911036333333335, "bike_id": "caf15e0f2f623ec9ccc1688ff0bad26e", "fusion_lon": 0.0}, {"rental_uris": {"ios": "https://dc.lft.to/lastmile_qr_scan", "android": "https://dc.lft.to/lastmile_qr_scan"}, "type": "electric_scooter", "name": "88717c33de21c611066c18fc4c0e296a", "is_reserved": 0, "lon": -77.02137783333333, "is_disabled": 0, "fusion_lat": 0.0, "lat": 38.905653666666666, "bike_id": "88717c33de21c611066c18fc4c0e296a", "fusion_lon": 0.0}, {"rental_uris": {"ios": "https://dc.lft.to/lastmile_qr_scan", "android": "https://dc.lft.to/lastmile_qr_scan"}, "type": "electric_scooter", "name": "9139bf5b0e8b52b0ba4929abd47b9d42", "is_reserved": 0, "lon": -77.06114933333333, "is_disabled": 0, "fusion_lat": 0.0, "lat": 38.904982, "bike_id": "9139bf5b0e8b52b0ba4929abd47b9d42", "fusion_lon": 0.0}, {"rental_uris": {"ios": "https://dc.lft.to/lastmile_qr_scan", "android": "https://dc.lft.to/lastmile_qr_scan"}, "type": "electric_scooter", "name": "086a42663104c8467aa5c05c210eb85e", "is_reserved": 0, "lon": -77.029636, "is_disabled": 0, "fusion_lat": 0.0, "lat": 38.904925166666665, "bike_id": "086a42663104c8467aa5c05c210eb85e", "fusion_lon": 0.0}, {"rental_uris": {"ios": "https://dc.lft.to/lastmile_qr_scan", "android": "https://dc.lft.to/lastmile_qr_scan"}, "type": "electric_scooter", "name": "c0fe1ac8e943bfa21b639cc19ac9494b", "is_reserved": 0, "lon": -77.01902766666667, "is_disabled": 0, "fusion_lat": 0.0, "lat": 38.898011333333336, "bike_id": "c0fe1ac8e943bfa21b639cc19ac9494b", "fusion_lon": 0.0}, {"rental_uris": {"ios": "https://dc.lft.to/lastmile_qr_scan", "android": "https://dc.lft.to/lastmile_qr_scan"}, "type": "electric_scooter", "name": "494ca7600032572a271b9cd6a3a844a6", "is_reserved": 0, "lon": -77.052144, "is_disabled": 0, "fusion_lat": 0.0, "lat": 38.924332666666665, "bike_id": "494ca7600032572a271b9cd6a3a844a6", "fusion_lon": 0.0}, {"rental_uris": {"ios": "https://dc.lft.to/lastmile_qr_scan", "android": "https://dc.lft.to/lastmile_qr_scan"}, "type": "electric_scooter", "name": "42c662d13ddeaec015223bf829b6c6a2", "is_reserved": 0, "lon": -77.0304025, "is_disabled": 0, "fusion_lat": 0.0, "lat": 38.92260983333333, "bike_id": "42c662d13ddeaec015223bf829b6c6a2", "fusion_lon": 0.0}, {"rental_uris": {"ios": "https://dc.lft.to/lastmile_qr_scan", "android": "https://dc.lft.to/lastmile_qr_scan"}, "type": "electric_scooter", "name": "f6cd441fa502ab254f64366d63240d55", "is_reserved": 0, "lon": -77.00208216666667, "is_disabled": 0, "fusion_lat": 0.0, "lat": 38.90028133333333, "bike_id": "f6cd441fa502ab254f64366d63240d55", "fusion_lon": 0.0}, {"rental_uris": {"ios": "https://dc.lft.to/lastmile_qr_scan", "android": "https://dc.lft.to/lastmile_qr_scan"}, "type": "electric_scooter", "name": "e091a653e95386e6fe475e074b209642", "is_reserved": 0, "lon": -77.0262205, "is_disabled": 0, "fusion_lat": 0.0, "lat": 38.89221783333333, "bike_id": "e091a653e95386e6fe475e074b209642", "fusion_lon": 0.0}, {"rental_uris": {"ios": "https://dc.lft.to/lastmile_qr_scan", "android": "https://dc.lft.to/lastmile_qr_scan"}, "type": "electric_bike", "name": "78c9fef94cd3229a14d6cce5b4482e37", "is_reserved": 0, "lon": -77.06698266666666, "is_disabled": 0, "fusion_lat": 0.0, "lat": 38.83174866666667, "bike_id": "78c9fef94cd3229a14d6cce5b4482e37", "fusion_lon": 0.0}, {"rental_uris": {"ios": "https://dc.lft.to/lastmile_qr_scan", "android": "https://dc.lft.to/lastmile_qr_scan"}, "type": "electric_scooter", "name": "ba2898c2e1a3c836acf30e008dd818d4", "is_reserved": 0, "lon": -76.9705505, "is_disabled": 0, "fusion_lat": 0.0, "lat": 38.87326983333333, "bike_id": "ba2898c2e1a3c836acf30e008dd818d4", "fusion_lon": 0.0}, {"rental_uris": {"ios": "https://dc.lft.to/lastmile_qr_scan", "android": "https://dc.lft.to/lastmile_qr_scan"}, "type": "electric_scooter", "name": "2a1db64f1dabb297f6bc9584d42bd078", "is_reserved": 0, "lon": -77.03957366666667, "is_disabled": 0, "fusion_lat": 0.0, "lat": 38.89242083333333, "bike_id": "2a1db64f1dabb297f6bc9584d42bd078", "fusion_lon": 0.0}, {"rental_uris": {"ios": "https://dc.lft.to/lastmile_qr_scan", "android": "https://dc.lft.to/lastmile_qr_scan"}, "type": "electric_scooter", "name": "1bd6d3ffe32cf46889b5a986177b0131", "is_reserved": 0, "lon": -77.02908816666667, "is_disabled": 0, "fusion_lat": 0.0, "lat": 38.94040716666667, "bike_id": "1bd6d3ffe32cf46889b5a986177b0131", "fusion_lon": 0.0}, {"rental_uris": {"ios": "https://dc.lft.to/lastmile_qr_scan", "android": "https://dc.lft.to/lastmile_qr_scan"}, "type": "electric_scooter", "name": "b4c123d76a7169c190c98096a1045619", "is_reserved": 0, "lon": -76.98591133333333, "is_disabled": 0, "fusion_lat": 0.0, "lat": 38.87841566666667, "bike_id": "b4c123d76a7169c190c98096a1045619", "fusion_lon": 0.0}, {"rental_uris": {"ios": "https://dc.lft.to/lastmile_qr_scan", "android": "https://dc.lft.to/lastmile_qr_scan"}, "type": "electric_scooter", "name": "2ee16e36510cedcce265c40b1adab448", "is_reserved": 0, "lon": -77.00170283333334, "is_disabled": 0, "fusion_lat": 0.0, "lat": 38.8748845, "bike_id": "2ee16e36510cedcce265c40b1adab448", "fusion_lon": 0.0}, {"rental_uris": {"ios": "https://dc.lft.to/lastmile_qr_scan", "android": "https://dc.lft.to/lastmile_qr_scan"}, "type": "electric_scooter", "name": "f797a119fad59ff71278b60abd1c475f", "is_reserved": 0, "lon": -77.07881, "is_disabled": 0, "fusion_lat": 0.0, "lat": 38.9461055, "bike_id": "f797a119fad59ff71278b60abd1c475f", "fusion_lon": 0.0}, {"rental_uris": {"ios": "https://dc.lft.to/lastmile_qr_scan", "android": "https://dc.lft.to/lastmile_qr_scan"}, "type": "electric_scooter", "name": "694f2e7cb8a19fbeefbbba23c5e6b6f2", "is_reserved": 0, "lon": -77.02395366666667, "is_disabled": 0, "fusion_lat": 0.0, "lat": 38.95715633333333, "bike_id": "694f2e7cb8a19fbeefbbba23c5e6b6f2", "fusion_lon": 0.0}, {"rental_uris": {"ios": "https://dc.lft.to/lastmile_qr_scan", "android": "https://dc.lft.to/lastmile_qr_scan"}, "type": "electric_scooter", "name": "66fa761ad343278ed175da39340bb379", "is_reserved": 0, "lon": -77.025694, "is_disabled": 0, "fusion_lat": 0.0, "lat": 38.923904, "bike_id": "66fa761ad343278ed175da39340bb379", "fusion_lon": 0.0}, {"rental_uris": {"ios": "https://dc.lft.to/lastmile_qr_scan", "android": "https://dc.lft.to/lastmile_qr_scan"}, "type": "electric_scooter", "name": "96b6d0e560b100ae0eaa7e1fde7f06dc", "is_reserved": 0, "lon": -77.02157316666667, "is_disabled": 0, "fusion_lat": 0.0, "lat": 38.92608, "bike_id": "96b6d0e560b100ae0eaa7e1fde7f06dc", "fusion_lon": 0.0}, {"rental_uris": {"ios": "https://dc.lft.to/lastmile_qr_scan", "android": "https://dc.lft.to/lastmile_qr_scan"}, "type": "electric_bike", "name": "00940e926c749b5b3009677c3aa96934", "is_reserved": 0, "lon": -77.0945225, "is_disabled": 0, "fusion_lat": 0.0, "lat": 38.807557333333335, "bike_id": "00940e926c749b5b3009677c3aa96934", "fusion_lon": 0.0}, {"rental_uris": {"ios": "https://dc.lft.to/lastmile_qr_scan", "android": "https://dc.lft.to/lastmile_qr_scan"}, "type": "electric_bike", "name": "f5ba9aa8d05f81619e843b489424fdac", "is_reserved": 0, "lon": -77.020077, "is_disabled": 0, "fusion_lat": 0.0, "lat": 38.964448, "bike_id": "f5ba9aa8d05f81619e843b489424fdac", "fusion_lon": 0.0}, {"rental_uris": {"ios": "https://dc.lft.to/lastmile_qr_scan", "android": "https://dc.lft.to/lastmile_qr_scan"}, "type": "electric_scooter", "name": "52680ec9be491d61768b0c498396e321", "is_reserved": 0, "lon": -77.03661483333333, "is_disabled": 0, "fusion_lat": 0.0, "lat": 38.92286983333334, "bike_id": "52680ec9be491d61768b0c498396e321", "fusion_lon": 0.0}, {"rental_uris": {"ios": "https://dc.lft.to/lastmile_qr_scan", "android": "https://dc.lft.to/lastmile_qr_scan"}, "type": "electric_scooter", "name": "f16fb24dc28ffd47c911b991b7f7cb3e", "is_reserved": 0, "lon": -77.02043666666667, "is_disabled": 0, "fusion_lat": 0.0, "lat": 38.92249116666667, "bike_id": "f16fb24dc28ffd47c911b991b7f7cb3e", "fusion_lon": 0.0}, {"rental_uris": {"ios": "https://dc.lft.to/lastmile_qr_scan", "android": "https://dc.lft.to/lastmile_qr_scan"}, "type": "electric_scooter", "name": "151b2d2210e3eafbe75e9de3e5b2f384", "is_reserved": 0, "lon": -77.00098816666667, "is_disabled": 0, "fusion_lat": 0.0, "lat": 38.8812075, "bike_id": "151b2d2210e3eafbe75e9de3e5b2f384", "fusion_lon": 0.0}, {"rental_uris": {"ios": "https://dc.lft.to/lastmile_qr_scan", "android": "https://dc.lft.to/lastmile_qr_scan"}, "type": "electric_scooter", "name": "4cf9036aa70f5a87ce7fc0c615034919", "is_reserved": 0, "lon": -77.019706, "is_disabled": 0, "fusion_lat": 0.0, "lat": 38.89929883333333, "bike_id": "4cf9036aa70f5a87ce7fc0c615034919", "fusion_lon": 0.0}, {"rental_uris": {"ios": "https://dc.lft.to/lastmile_qr_scan", "android": "https://dc.lft.to/lastmile_qr_scan"}, "type": "electric_scooter", "name": "efc483b89fee23909b2d3a3dfe4de6a4", "is_reserved": 0, "lon": -77.018577, "is_disabled": 0, "fusion_lat": 0.0, "lat": 38.94889, "bike_id": "efc483b89fee23909b2d3a3dfe4de6a4", "fusion_lon": 0.0}, {"rental_uris": {"ios": "https://dc.lft.to/lastmile_qr_scan", "android": "https://dc.lft.to/lastmile_qr_scan"}, "type": "electric_scooter", "name": "28b2cfd2f8e84381c56d11eafef7536d", "is_reserved": 0, "lon": -77.02330533333334, "is_disabled": 0, "fusion_lat": 0.0, "lat": 38.92300383333333, "bike_id": "28b2cfd2f8e84381c56d11eafef7536d", "fusion_lon": 0.0}, {"rental_uris": {"ios": "https://dc.lft.to/lastmile_qr_scan", "android": "https://dc.lft.to/lastmile_qr_scan"}, "type": "electric_scooter", "name": "8b564b1e7588ca783a1e88dfb80a6f2c", "is_reserved": 0, "lon": -77.030371, "is_disabled": 0, "fusion_lat": 0.0, "lat": 38.8840655, "bike_id": "8b564b1e7588ca783a1e88dfb80a6f2c", "fusion_lon": 0.0}, {"rental_uris": {"ios": "https://dc.lft.to/lastmile_qr_scan", "android": "https://dc.lft.to/lastmile_qr_scan"}, "type": "electric_bike", "name": "da06d37af0452bef5f9bb550eb6fa0ec", "is_reserved": 0, "lon": -77.07947616666667, "is_disabled": 0, "fusion_lat": 0.0, "lat": 38.84902833333334, "bike_id": "da06d37af0452bef5f9bb550eb6fa0ec", "fusion_lon": 0.0}, {"rental_uris": {"ios": "https://dc.lft.to/lastmile_qr_scan", "android": "https://dc.lft.to/lastmile_qr_scan"}, "type": "electric_scooter", "name": "a366ff1d0011bee0cd7416fc4cc08006", "is_reserved": 0, "lon": -76.9826005, "is_disabled": 0, "fusion_lat": 0.0, "lat": 38.86633716666667, "bike_id": "a366ff1d0011bee0cd7416fc4cc08006", "fusion_lon": 0.0}, {"rental_uris": {"ios": "https://dc.lft.to/lastmile_qr_scan", "android": "https://dc.lft.to/lastmile_qr_scan"}, "type": "electric_scooter", "name": "5f6975fe2ac33e1666e2ce7dd649af55", "is_reserved": 0, "lon": -77.042151, "is_disabled": 0, "fusion_lat": 0.0, "lat": 38.921383, "bike_id": "5f6975fe2ac33e1666e2ce7dd649af55", "fusion_lon": 0.0}, {"rental_uris": {"ios": "https://dc.lft.to/lastmile_qr_scan", "android": "https://dc.lft.to/lastmile_qr_scan"}, "type": "electric_scooter", "name": "697d01ec4ccb66ccfc5b7b11ab01bb53", "is_reserved": 0, "lon": -77.045084, "is_disabled": 0, "fusion_lat": 0.0, "lat": 38.90378833333333, "bike_id": "697d01ec4ccb66ccfc5b7b11ab01bb53", "fusion_lon": 0.0}, {"rental_uris": {"ios": "https://dc.lft.to/lastmile_qr_scan", "android": "https://dc.lft.to/lastmile_qr_scan"}, "type": "electric_bike", "name": "2426d99e39cf2008eaaef9db5ae867aa", "is_reserved": 0, "lon": -76.98695583333334, "is_disabled": 0, "fusion_lat": 0.0, "lat": 38.944742166666664, "bike_id": "2426d99e39cf2008eaaef9db5ae867aa", "fusion_lon": 0.0}, {"rental_uris": {"ios": "https://dc.lft.to/lastmile_qr_scan", "android": "https://dc.lft.to/lastmile_qr_scan"}, "type": "electric_bike", "name": "254d21294828e114bbf98fb6ef9c61ae", "is_reserved": 0, "lon": -76.9366885, "is_disabled": 0, "fusion_lat": 0.0, "lat": 38.894591166666665, "bike_id": "254d21294828e114bbf98fb6ef9c61ae", "fusion_lon": 0.0}, {"rental_uris": {"ios": "https://dc.lft.to/lastmile_qr_scan", "android": "https://dc.lft.to/lastmile_qr_scan"}, "type": "electric_scooter", "name": "2e7b3aff48a52ec8bc9a9f2a553ad659", "is_reserved": 0, "lon": -77.02777783333333, "is_disabled": 0, "fusion_lat": 0.0, "lat": 38.962423333333334, "bike_id": "2e7b3aff48a52ec8bc9a9f2a553ad659", "fusion_lon": 0.0}, {"rental_uris": {"ios": "https://dc.lft.to/lastmile_qr_scan", "android": "https://dc.lft.to/lastmile_qr_scan"}, "type": "electric_scooter", "name": "77902feb5a6bdf693685ef3dae5faca4", "is_reserved": 0, "lon": -77.01209183333333, "is_disabled": 0, "fusion_lat": 0.0, "lat": 38.91195483333333, "bike_id": "77902feb5a6bdf693685ef3dae5faca4", "fusion_lon": 0.0}, {"rental_uris": {"ios": "https://dc.lft.to/lastmile_qr_scan", "android": "https://dc.lft.to/lastmile_qr_scan"}, "type": "electric_scooter", "name": "de6967fd586f523e9e79b8cb6368c43f", "is_reserved": 0, "lon": -76.98514933333334, "is_disabled": 0, "fusion_lat": 0.0, "lat": 38.87989316666667, "bike_id": "de6967fd586f523e9e79b8cb6368c43f", "fusion_lon": 0.0}, {"rental_uris": {"ios": "https://dc.lft.to/lastmile_qr_scan", "android": "https://dc.lft.to/lastmile_qr_scan"}, "type": "electric_scooter", "name": "1ad2f07f27d231bc4086ba4fb511f1d6", "is_reserved": 0, "lon": -77.0157965, "is_disabled": 0, "fusion_lat": 0.0, "lat": 38.916828, "bike_id": "1ad2f07f27d231bc4086ba4fb511f1d6", "fusion_lon": 0.0}, {"rental_uris": {"ios": "https://dc.lft.to/lastmile_qr_scan", "android": "https://dc.lft.to/lastmile_qr_scan"}, "type": "electric_scooter", "name": "f4efd69a08db199ec4418e7425b2a3ec", "is_reserved": 0, "lon": -77.012098, "is_disabled": 0, "fusion_lat": 0.0, "lat": 38.9212315, "bike_id": "f4efd69a08db199ec4418e7425b2a3ec", "fusion_lon": 0.0}, {"rental_uris": {"ios": "https://dc.lft.to/lastmile_qr_scan", "android": "https://dc.lft.to/lastmile_qr_scan"}, "type": "electric_bike", "name": "0b531ae1c60a96288095941a75798eec", "is_reserved": 0, "lon": -76.962676, "is_disabled": 0, "fusion_lat": 0.0, "lat": 38.9678715, "bike_id": "0b531ae1c60a96288095941a75798eec", "fusion_lon": 0.0}, {"rental_uris": {"ios": "https://dc.lft.to/lastmile_qr_scan", "android": "https://dc.lft.to/lastmile_qr_scan"}, "type": "electric_scooter", "name": "3fba519b48d771ff02db7c19b6802cb1", "is_reserved": 0, "lon": -77.04605183333334, "is_disabled": 0, "fusion_lat": 0.0, "lat": 38.90232433333333, "bike_id": "3fba519b48d771ff02db7c19b6802cb1", "fusion_lon": 0.0}, {"rental_uris": {"ios": "https://dc.lft.to/lastmile_qr_scan", "android": "https://dc.lft.to/lastmile_qr_scan"}, "type": "electric_scooter", "name": "9c500141b2a9b8279da20c9a225a4406", "is_reserved": 0, "lon": -77.04278366666666, "is_disabled": 0, "fusion_lat": 0.0, "lat": 38.91795833333333, "bike_id": "9c500141b2a9b8279da20c9a225a4406", "fusion_lon": 0.0}, {"rental_uris": {"ios": "https://dc.lft.to/lastmile_qr_scan", "android": "https://dc.lft.to/lastmile_qr_scan"}, "type": "electric_scooter", "name": "e8ed395d77bef553ee57e943701b91e2", "is_reserved": 0, "lon": -77.05154983333334, "is_disabled": 0, "fusion_lat": 0.0, "lat": 38.90520383333333, "bike_id": "e8ed395d77bef553ee57e943701b91e2", "fusion_lon": 0.0}, {"rental_uris": {"ios": "https://dc.lft.to/lastmile_qr_scan", "android": "https://dc.lft.to/lastmile_qr_scan"}, "type": "electric_scooter", "name": "35568061b174d5e56372c7b583e7772f", "is_reserved": 0, "lon": -76.98211433333333, "is_disabled": 0, "fusion_lat": 0.0, "lat": 38.89545833333333, "bike_id": "35568061b174d5e56372c7b583e7772f", "fusion_lon": 0.0}, {"rental_uris": {"ios": "https://dc.lft.to/lastmile_qr_scan", "android": "https://dc.lft.to/lastmile_qr_scan"}, "type": "electric_scooter", "name": "5e6e28ba2713fae04ab770a903feb449", "is_reserved": 0, "lon": -76.92624316666667, "is_disabled": 0, "fusion_lat": 0.0, "lat": 38.899712, "bike_id": "5e6e28ba2713fae04ab770a903feb449", "fusion_lon": 0.0}, {"rental_uris": {"ios": "https://dc.lft.to/lastmile_qr_scan", "android": "https://dc.lft.to/lastmile_qr_scan"}, "type": "electric_scooter", "name": "01a2d1e4ecce088ce68638b71e26961b", "is_reserved": 0, "lon": -77.00178466666667, "is_disabled": 0, "fusion_lat": 0.0, "lat": 38.911805, "bike_id": "01a2d1e4ecce088ce68638b71e26961b", "fusion_lon": 0.0}, {"rental_uris": {"ios": "https://dc.lft.to/lastmile_qr_scan", "android": "https://dc.lft.to/lastmile_qr_scan"}, "type": "electric_scooter", "name": "c84884042217bc7ee535fb23e73d808d", "is_reserved": 0, "lon": -77.03863866666667, "is_disabled": 0, "fusion_lat": 0.0, "lat": 38.91118733333333, "bike_id": "c84884042217bc7ee535fb23e73d808d", "fusion_lon": 0.0}, {"rental_uris": {"ios": "https://dc.lft.to/lastmile_qr_scan", "android": "https://dc.lft.to/lastmile_qr_scan"}, "type": "electric_scooter", "name": "15e55a10b1bff0672858db2a0002c01e", "is_reserved": 0, "lon": -77.0816295, "is_disabled": 0, "fusion_lat": 0.0, "lat": 38.919585833333336, "bike_id": "15e55a10b1bff0672858db2a0002c01e", "fusion_lon": 0.0}, {"rental_uris": {"ios": "https://dc.lft.to/lastmile_qr_scan", "android": "https://dc.lft.to/lastmile_qr_scan"}, "type": "electric_scooter", "name": "179b23c20c1d35ba0c7ee9ad5231c3af", "is_reserved": 0, "lon": -77.03352216666667, "is_disabled": 0, "fusion_lat": 0.0, "lat": 38.954777166666666, "bike_id": "179b23c20c1d35ba0c7ee9ad5231c3af", "fusion_lon": 0.0}, {"rental_uris": {"ios": "https://dc.lft.to/lastmile_qr_scan", "android": "https://dc.lft.to/lastmile_qr_scan"}, "type": "electric_bike", "name": "cd7d0946808bf8b9ad574f62d750b52b", "is_reserved": 0, "lon": -76.98213483333333, "is_disabled": 0, "fusion_lat": 0.0, "lat": 38.85696183333334, "bike_id": "cd7d0946808bf8b9ad574f62d750b52b", "fusion_lon": 0.0}, {"rental_uris": {"ios": "https://dc.lft.to/lastmile_qr_scan", "android": "https://dc.lft.to/lastmile_qr_scan"}, "type": "electric_scooter", "name": "7b0c78c6e755ed9c71ec31911f4c2560", "is_reserved": 0, "lon": -77.01227583333333, "is_disabled": 0, "fusion_lat": 0.0, "lat": 38.9168745, "bike_id": "7b0c78c6e755ed9c71ec31911f4c2560", "fusion_lon": 0.0}, {"rental_uris": {"ios": "https://dc.lft.to/lastmile_qr_scan", "android": "https://dc.lft.to/lastmile_qr_scan"}, "type": "electric_scooter", "name": "49cc92060c9b4327597d80736dfcf732", "is_reserved": 0, "lon": -77.03343316666667, "is_disabled": 0, "fusion_lat": 0.0, "lat": 38.91404516666667, "bike_id": "49cc92060c9b4327597d80736dfcf732", "fusion_lon": 0.0}, {"rental_uris": {"ios": "https://dc.lft.to/lastmile_qr_scan", "android": "https://dc.lft.to/lastmile_qr_scan"}, "type": "electric_scooter", "name": "08a730d8a1cbf51882e2f5e9867d331e", "is_reserved": 0, "lon": -77.01790983333333, "is_disabled": 0, "fusion_lat": 0.0, "lat": 38.91992716666667, "bike_id": "08a730d8a1cbf51882e2f5e9867d331e", "fusion_lon": 0.0}, {"rental_uris": {"ios": "https://dc.lft.to/lastmile_qr_scan", "android": "https://dc.lft.to/lastmile_qr_scan"}, "type": "electric_scooter", "name": "483f8145481cbc5460ed30b2987cb3e3", "is_reserved": 0, "lon": -77.04653483333334, "is_disabled": 0, "fusion_lat": 0.0, "lat": 38.9119385, "bike_id": "483f8145481cbc5460ed30b2987cb3e3", "fusion_lon": 0.0}, {"rental_uris": {"ios": "https://dc.lft.to/lastmile_qr_scan", "android": "https://dc.lft.to/lastmile_qr_scan"}, "type": "electric_scooter", "name": "910b00f5a963f45a756d65f8983afb22", "is_reserved": 0, "lon": -77.05551833333334, "is_disabled": 0, "fusion_lat": 0.0, "lat": 38.89982533333333, "bike_id": "910b00f5a963f45a756d65f8983afb22", "fusion_lon": 0.0}, {"rental_uris": {"ios": "https://dc.lft.to/lastmile_qr_scan", "android": "https://dc.lft.to/lastmile_qr_scan"}, "type": "electric_scooter", "name": "da75dc03b2750e9bec51873969f717eb", "is_reserved": 0, "lon": -76.95203633333334, "is_disabled": 0, "fusion_lat": 0.0, "lat": 38.905125166666664, "bike_id": "da75dc03b2750e9bec51873969f717eb", "fusion_lon": 0.0}, {"rental_uris": {"ios": "https://dc.lft.to/lastmile_qr_scan", "android": "https://dc.lft.to/lastmile_qr_scan"}, "type": "electric_scooter", "name": "15db5f4103d8ee514565674379d0cef3", "is_reserved": 0, "lon": -76.99930166666667, "is_disabled": 0, "fusion_lat": 0.0, "lat": 38.957604333333336, "bike_id": "15db5f4103d8ee514565674379d0cef3", "fusion_lon": 0.0}, {"rental_uris": {"ios": "https://dc.lft.to/lastmile_qr_scan", "android": "https://dc.lft.to/lastmile_qr_scan"}, "type": "electric_scooter", "name": "e7408f2e64247cd38cf39debd89d3834", "is_reserved": 0, "lon": -77.0325415, "is_disabled": 0, "fusion_lat": 0.0, "lat": 38.9041395, "bike_id": "e7408f2e64247cd38cf39debd89d3834", "fusion_lon": 0.0}, {"rental_uris": {"ios": "https://dc.lft.to/lastmile_qr_scan", "android": "https://dc.lft.to/lastmile_qr_scan"}, "type": "electric_scooter", "name": "491cfd865065df0c754553509630dc51", "is_reserved": 0, "lon": -77.00777266666667, "is_disabled": 0, "fusion_lat": 0.0, "lat": 38.8973905, "bike_id": "491cfd865065df0c754553509630dc51", "fusion_lon": 0.0}, {"rental_uris": {"ios": "https://dc.lft.to/lastmile_qr_scan", "android": "https://dc.lft.to/lastmile_qr_scan"}, "type": "electric_scooter", "name": "58f4e2394eb837c33769557491fddd08", "is_reserved": 0, "lon": -77.03660783333333, "is_disabled": 0, "fusion_lat": 0.0, "lat": 38.936308833333335, "bike_id": "58f4e2394eb837c33769557491fddd08", "fusion_lon": 0.0}, {"rental_uris": {"ios": "https://dc.lft.to/lastmile_qr_scan", "android": "https://dc.lft.to/lastmile_qr_scan"}, "type": "electric_scooter", "name": "c3ed9953845a4c544f1fed49a1ef2856", "is_reserved": 0, "lon": -77.032064, "is_disabled": 0, "fusion_lat": 0.0, "lat": 38.920666833333335, "bike_id": "c3ed9953845a4c544f1fed49a1ef2856", "fusion_lon": 0.0}, {"rental_uris": {"ios": "https://dc.lft.to/lastmile_qr_scan", "android": "https://dc.lft.to/lastmile_qr_scan"}, "type": "electric_scooter", "name": "4d8c87f08d28b437e8f64ab56160898e", "is_reserved": 0, "lon": -77.013557, "is_disabled": 0, "fusion_lat": 0.0, "lat": 38.8958725, "bike_id": "4d8c87f08d28b437e8f64ab56160898e", "fusion_lon": 0.0}, {"rental_uris": {"ios": "https://dc.lft.to/lastmile_qr_scan", "android": "https://dc.lft.to/lastmile_qr_scan"}, "type": "electric_scooter", "name": "b178eea4636c3b98d5883a4fd951cd6f", "is_reserved": 0, "lon": -77.04243883333334, "is_disabled": 0, "fusion_lat": 0.0, "lat": 38.90437033333333, "bike_id": "b178eea4636c3b98d5883a4fd951cd6f", "fusion_lon": 0.0}, {"rental_uris": {"ios": "https://dc.lft.to/lastmile_qr_scan", "android": "https://dc.lft.to/lastmile_qr_scan"}, "type": "electric_bike", "name": "729757795bd9c3b1e1821f6eeb2da41e", "is_reserved": 0, "lon": -76.93747716666667, "is_disabled": 0, "fusion_lat": 0.0, "lat": 38.87147916666667, "bike_id": "729757795bd9c3b1e1821f6eeb2da41e", "fusion_lon": 0.0}, {"rental_uris": {"ios": "https://dc.lft.to/lastmile_qr_scan", "android": "https://dc.lft.to/lastmile_qr_scan"}, "type": "electric_scooter", "name": "0ba5c47bd90700a5884d33381c407f9a", "is_reserved": 0, "lon": -77.03053316666667, "is_disabled": 0, "fusion_lat": 0.0, "lat": 38.924708833333334, "bike_id": "0ba5c47bd90700a5884d33381c407f9a", "fusion_lon": 0.0}, {"rental_uris": {"ios": "https://dc.lft.to/lastmile_qr_scan", "android": "https://dc.lft.to/lastmile_qr_scan"}, "type": "electric_scooter", "name": "174142269770dd01c9bcc3cafd2fce37", "is_reserved": 0, "lon": -77.02710166666667, "is_disabled": 0, "fusion_lat": 0.0, "lat": 38.9122415, "bike_id": "174142269770dd01c9bcc3cafd2fce37", "fusion_lon": 0.0}, {"rental_uris": {"ios": "https://dc.lft.to/lastmile_qr_scan", "android": "https://dc.lft.to/lastmile_qr_scan"}, "type": "electric_scooter", "name": "eecfd54aa83429b1b0ed967c3dad4bb0", "is_reserved": 0, "lon": -77.02121433333333, "is_disabled": 0, "fusion_lat": 0.0, "lat": 38.894031, "bike_id": "eecfd54aa83429b1b0ed967c3dad4bb0", "fusion_lon": 0.0}, {"rental_uris": {"ios": "https://dc.lft.to/lastmile_qr_scan", "android": "https://dc.lft.to/lastmile_qr_scan"}, "type": "electric_scooter", "name": "3835131207e56a88cb45890f83311aa8", "is_reserved": 0, "lon": -77.04138233333333, "is_disabled": 0, "fusion_lat": 0.0, "lat": 38.93464066666667, "bike_id": "3835131207e56a88cb45890f83311aa8", "fusion_lon": 0.0}, {"rental_uris": {"ios": "https://dc.lft.to/lastmile_qr_scan", "android": "https://dc.lft.to/lastmile_qr_scan"}, "type": "electric_scooter", "name": "00bdbfcb7be3e6d55f4af8ca8c5c678f", "is_reserved": 0, "lon": -77.03401416666667, "is_disabled": 0, "fusion_lat": 0.0, "lat": 38.9197285, "bike_id": "00bdbfcb7be3e6d55f4af8ca8c5c678f", "fusion_lon": 0.0}, {"rental_uris": {"ios": "https://dc.lft.to/lastmile_qr_scan", "android": "https://dc.lft.to/lastmile_qr_scan"}, "type": "electric_scooter", "name": "16c8168a4ff01c431abdd87efdb7d087", "is_reserved": 0, "lon": -77.02304583333333, "is_disabled": 0, "fusion_lat": 0.0, "lat": 38.96127, "bike_id": "16c8168a4ff01c431abdd87efdb7d087", "fusion_lon": 0.0}, {"rental_uris": {"ios": "https://dc.lft.to/lastmile_qr_scan", "android": "https://dc.lft.to/lastmile_qr_scan"}, "type": "electric_scooter", "name": "c060a8e977b07430b116c39cd496a573", "is_reserved": 0, "lon": -77.03176966666666, "is_disabled": 0, "fusion_lat": 0.0, "lat": 38.9200935, "bike_id": "c060a8e977b07430b116c39cd496a573", "fusion_lon": 0.0}, {"rental_uris": {"ios": "https://dc.lft.to/lastmile_qr_scan", "android": "https://dc.lft.to/lastmile_qr_scan"}, "type": "electric_scooter", "name": "f7e45d6d0c0ca00f24901dde283260cb", "is_reserved": 0, "lon": -77.0421605, "is_disabled": 0, "fusion_lat": 0.0, "lat": 38.921016333333334, "bike_id": "f7e45d6d0c0ca00f24901dde283260cb", "fusion_lon": 0.0}, {"rental_uris": {"ios": "https://dc.lft.to/lastmile_qr_scan", "android": "https://dc.lft.to/lastmile_qr_scan"}, "type": "electric_scooter", "name": "e0c89ab3b7d83f600a9b63d71e9451b1", "is_reserved": 0, "lon": -77.02510016666666, "is_disabled": 0, "fusion_lat": 0.0, "lat": 38.920663, "bike_id": "e0c89ab3b7d83f600a9b63d71e9451b1", "fusion_lon": 0.0}, {"rental_uris": {"ios": "https://dc.lft.to/lastmile_qr_scan", "android": "https://dc.lft.to/lastmile_qr_scan"}, "type": "electric_bike", "name": "1472de2fa3c4f39e9d9b18a43dacb88e", "is_reserved": 0, "lon": -77.02818383333333, "is_disabled": 0, "fusion_lat": 0.0, "lat": 38.965308666666665, "bike_id": "1472de2fa3c4f39e9d9b18a43dacb88e", "fusion_lon": 0.0}, {"rental_uris": {"ios": "https://dc.lft.to/lastmile_qr_scan", "android": "https://dc.lft.to/lastmile_qr_scan"}, "type": "electric_scooter", "name": "bcf96b84a320d645b17ec5ec030f2290", "is_reserved": 0, "lon": -77.00711666666666, "is_disabled": 0, "fusion_lat": 0.0, "lat": 38.90634633333333, "bike_id": "bcf96b84a320d645b17ec5ec030f2290", "fusion_lon": 0.0}, {"rental_uris": {"ios": "https://dc.lft.to/lastmile_qr_scan", "android": "https://dc.lft.to/lastmile_qr_scan"}, "type": "electric_scooter", "name": "b6b845173ad124e84c3468f93358839c", "is_reserved": 0, "lon": -77.01204666666666, "is_disabled": 0, "fusion_lat": 0.0, "lat": 38.911089, "bike_id": "b6b845173ad124e84c3468f93358839c", "fusion_lon": 0.0}, {"rental_uris": {"ios": "https://dc.lft.to/lastmile_qr_scan", "android": "https://dc.lft.to/lastmile_qr_scan"}, "type": "electric_scooter", "name": "df1079d98a77ca4ae1e9cdad3e9ab599", "is_reserved": 0, "lon": -77.00721066666667, "is_disabled": 0, "fusion_lat": 0.0, "lat": 38.91107516666667, "bike_id": "df1079d98a77ca4ae1e9cdad3e9ab599", "fusion_lon": 0.0}, {"rental_uris": {"ios": "https://dc.lft.to/lastmile_qr_scan", "android": "https://dc.lft.to/lastmile_qr_scan"}, "type": "electric_scooter", "name": "f46f5c630fd3f08d573bf866f2100c1a", "is_reserved": 0, "lon": -77.03706233333334, "is_disabled": 0, "fusion_lat": 0.0, "lat": 38.92779183333333, "bike_id": "f46f5c630fd3f08d573bf866f2100c1a", "fusion_lon": 0.0}, {"rental_uris": {"ios": "https://dc.lft.to/lastmile_qr_scan", "android": "https://dc.lft.to/lastmile_qr_scan"}, "type": "electric_scooter", "name": "9db1d1229db6c2bd5572628aba72943e", "is_reserved": 0, "lon": -77.02591616666666, "is_disabled": 0, "fusion_lat": 0.0, "lat": 38.92526866666667, "bike_id": "9db1d1229db6c2bd5572628aba72943e", "fusion_lon": 0.0}, {"rental_uris": {"ios": "https://dc.lft.to/lastmile_qr_scan", "android": "https://dc.lft.to/lastmile_qr_scan"}, "type": "electric_scooter", "name": "b65dacdfadfc24504f03f61b7e879fbb", "is_reserved": 0, "lon": -77.03829866666666, "is_disabled": 0, "fusion_lat": 0.0, "lat": 38.912575833333335, "bike_id": "b65dacdfadfc24504f03f61b7e879fbb", "fusion_lon": 0.0}, {"rental_uris": {"ios": "https://dc.lft.to/lastmile_qr_scan", "android": "https://dc.lft.to/lastmile_qr_scan"}, "type": "electric_scooter", "name": "bc4809d9e6c19a889189b875da395858", "is_reserved": 0, "lon": -77.03248783333333, "is_disabled": 0, "fusion_lat": 0.0, "lat": 38.93255583333333, "bike_id": "bc4809d9e6c19a889189b875da395858", "fusion_lon": 0.0}, {"rental_uris": {"ios": "https://dc.lft.to/lastmile_qr_scan", "android": "https://dc.lft.to/lastmile_qr_scan"}, "type": "electric_scooter", "name": "e04a4ae7fae76ac9c0be047432d6b6ef", "is_reserved": 0, "lon": -77.043802, "is_disabled": 0, "fusion_lat": 0.0, "lat": 38.9296585, "bike_id": "e04a4ae7fae76ac9c0be047432d6b6ef", "fusion_lon": 0.0}, {"rental_uris": {"ios": "https://dc.lft.to/lastmile_qr_scan", "android": "https://dc.lft.to/lastmile_qr_scan"}, "type": "electric_bike", "name": "b035d98cdfa8d1f8bf23c2fff999ef9a", "is_reserved": 0, "lon": -76.977757, "is_disabled": 0, "fusion_lat": 0.0, "lat": 38.857278666666666, "bike_id": "b035d98cdfa8d1f8bf23c2fff999ef9a", "fusion_lon": 0.0}, {"rental_uris": {"ios": "https://dc.lft.to/lastmile_qr_scan", "android": "https://dc.lft.to/lastmile_qr_scan"}, "type": "electric_bike", "name": "4bfa4be7e0226a7cf0b43fcfe9836852", "is_reserved": 0, "lon": -76.99988533333334, "is_disabled": 0, "fusion_lat": 0.0, "lat": 38.96406233333333, "bike_id": "4bfa4be7e0226a7cf0b43fcfe9836852", "fusion_lon": 0.0}, {"rental_uris": {"ios": "https://dc.lft.to/lastmile_qr_scan", "android": "https://dc.lft.to/lastmile_qr_scan"}, "type": "electric_scooter", "name": "149462b674eb4a000deb34e61bfdc9cf", "is_reserved": 0, "lon": -77.04566233333334, "is_disabled": 0, "fusion_lat": 0.0, "lat": 38.91318366666667, "bike_id": "149462b674eb4a000deb34e61bfdc9cf", "fusion_lon": 0.0}, {"rental_uris": {"ios": "https://dc.lft.to/lastmile_qr_scan", "android": "https://dc.lft.to/lastmile_qr_scan"}, "type": "electric_scooter", "name": "5c8a798c91d5c4d55c5c23932b6de92a", "is_reserved": 0, "lon": -77.02501066666666, "is_disabled": 0, "fusion_lat": 0.0, "lat": 38.9421335, "bike_id": "5c8a798c91d5c4d55c5c23932b6de92a", "fusion_lon": 0.0}, {"rental_uris": {"ios": "https://dc.lft.to/lastmile_qr_scan", "android": "https://dc.lft.to/lastmile_qr_scan"}, "type": "electric_scooter", "name": "e98b7db5babfbb469cb2aa99ebf2aba8", "is_reserved": 0, "lon": -77.032494, "is_disabled": 0, "fusion_lat": 0.0, "lat": 38.919863166666666, "bike_id": "e98b7db5babfbb469cb2aa99ebf2aba8", "fusion_lon": 0.0}, {"rental_uris": {"ios": "https://dc.lft.to/lastmile_qr_scan", "android": "https://dc.lft.to/lastmile_qr_scan"}, "type": "electric_scooter", "name": "4dbf28d54cf342d5bce609109f18d56f", "is_reserved": 0, "lon": -77.04119333333334, "is_disabled": 0, "fusion_lat": 0.0, "lat": 38.93359516666666, "bike_id": "4dbf28d54cf342d5bce609109f18d56f", "fusion_lon": 0.0}, {"rental_uris": {"ios": "https://dc.lft.to/lastmile_qr_scan", "android": "https://dc.lft.to/lastmile_qr_scan"}, "type": "electric_scooter", "name": "526ba4ecd979e8159446c9c67b47ff38", "is_reserved": 0, "lon": -77.03873483333334, "is_disabled": 0, "fusion_lat": 0.0, "lat": 38.91191166666667, "bike_id": "526ba4ecd979e8159446c9c67b47ff38", "fusion_lon": 0.0}, {"rental_uris": {"ios": "https://dc.lft.to/lastmile_qr_scan", "android": "https://dc.lft.to/lastmile_qr_scan"}, "type": "electric_bike", "name": "af0dfa18ff7ad9ca647c6508b60ceea5", "is_reserved": 0, "lon": -76.917175, "is_disabled": 0, "fusion_lat": 0.0, "lat": 38.880287, "bike_id": "af0dfa18ff7ad9ca647c6508b60ceea5", "fusion_lon": 0.0}, {"rental_uris": {"ios": "https://dc.lft.to/lastmile_qr_scan", "android": "https://dc.lft.to/lastmile_qr_scan"}, "type": "electric_scooter", "name": "0f935faef23bfa44c2ffe5774df361ad", "is_reserved": 0, "lon": -77.0436135, "is_disabled": 0, "fusion_lat": 0.0, "lat": 38.92676483333334, "bike_id": "0f935faef23bfa44c2ffe5774df361ad", "fusion_lon": 0.0}, {"rental_uris": {"ios": "https://dc.lft.to/lastmile_qr_scan", "android": "https://dc.lft.to/lastmile_qr_scan"}, "type": "electric_scooter", "name": "6c0872050db0634f3da9034a9891e91c", "is_reserved": 0, "lon": -77.0071875, "is_disabled": 0, "fusion_lat": 0.0, "lat": 38.90607583333333, "bike_id": "6c0872050db0634f3da9034a9891e91c", "fusion_lon": 0.0}, {"rental_uris": {"ios": "https://dc.lft.to/lastmile_qr_scan", "android": "https://dc.lft.to/lastmile_qr_scan"}, "type": "electric_scooter", "name": "243dc8c077a862d8b9ca498edff828df", "is_reserved": 0, "lon": -77.02068333333334, "is_disabled": 0, "fusion_lat": 0.0, "lat": 38.92730933333333, "bike_id": "243dc8c077a862d8b9ca498edff828df", "fusion_lon": 0.0}, {"rental_uris": {"ios": "https://dc.lft.to/lastmile_qr_scan", "android": "https://dc.lft.to/lastmile_qr_scan"}, "type": "electric_scooter", "name": "00dd988ef05aa489d270044f7324c29e", "is_reserved": 0, "lon": -76.98064283333333, "is_disabled": 0, "fusion_lat": 0.0, "lat": 38.901676333333334, "bike_id": "00dd988ef05aa489d270044f7324c29e", "fusion_lon": 0.0}, {"rental_uris": {"ios": "https://dc.lft.to/lastmile_qr_scan", "android": "https://dc.lft.to/lastmile_qr_scan"}, "type": "electric_scooter", "name": "632c0691423c97908c5ba4bb06734ee4", "is_reserved": 0, "lon": -77.033886, "is_disabled": 0, "fusion_lat": 0.0, "lat": 38.902708, "bike_id": "632c0691423c97908c5ba4bb06734ee4", "fusion_lon": 0.0}, {"rental_uris": {"ios": "https://dc.lft.to/lastmile_qr_scan", "android": "https://dc.lft.to/lastmile_qr_scan"}, "type": "electric_scooter", "name": "f2437f2e8eb502336a53df48a2b91069", "is_reserved": 0, "lon": -77.02224, "is_disabled": 0, "fusion_lat": 0.0, "lat": 38.92090866666667, "bike_id": "f2437f2e8eb502336a53df48a2b91069", "fusion_lon": 0.0}, {"rental_uris": {"ios": "https://dc.lft.to/lastmile_qr_scan", "android": "https://dc.lft.to/lastmile_qr_scan"}, "type": "electric_scooter", "name": "b8dc445ee96ea9c8d37e9a1a1c095de6", "is_reserved": 0, "lon": -77.03403716666666, "is_disabled": 0, "fusion_lat": 0.0, "lat": 38.935328, "bike_id": "b8dc445ee96ea9c8d37e9a1a1c095de6", "fusion_lon": 0.0}, {"rental_uris": {"ios": "https://dc.lft.to/lastmile_qr_scan", "android": "https://dc.lft.to/lastmile_qr_scan"}, "type": "electric_scooter", "name": "247c837be413fff6b36ca7e319e8deab", "is_reserved": 0, "lon": -77.0724935, "is_disabled": 0, "fusion_lat": 0.0, "lat": 38.93319016666667, "bike_id": "247c837be413fff6b36ca7e319e8deab", "fusion_lon": 0.0}, {"rental_uris": {"ios": "https://dc.lft.to/lastmile_qr_scan", "android": "https://dc.lft.to/lastmile_qr_scan"}, "type": "electric_scooter", "name": "d0026e9d17b424553bef1df20596c7ca", "is_reserved": 0, "lon": -77.02386883333334, "is_disabled": 0, "fusion_lat": 0.0, "lat": 38.91960666666667, "bike_id": "d0026e9d17b424553bef1df20596c7ca", "fusion_lon": 0.0}, {"rental_uris": {"ios": "https://dc.lft.to/lastmile_qr_scan", "android": "https://dc.lft.to/lastmile_qr_scan"}, "type": "electric_scooter", "name": "95dd04c52de8b8179c2ac1d2508fd60f", "is_reserved": 0, "lon": -77.03544133333334, "is_disabled": 0, "fusion_lat": 0.0, "lat": 38.936043, "bike_id": "95dd04c52de8b8179c2ac1d2508fd60f", "fusion_lon": 0.0}, {"rental_uris": {"ios": "https://dc.lft.to/lastmile_qr_scan", "android": "https://dc.lft.to/lastmile_qr_scan"}, "type": "electric_scooter", "name": "29d01d8d2c6135f614a2e57241ce1a32", "is_reserved": 0, "lon": -76.99009433333333, "is_disabled": 0, "fusion_lat": 0.0, "lat": 38.8999645, "bike_id": "29d01d8d2c6135f614a2e57241ce1a32", "fusion_lon": 0.0}, {"rental_uris": {"ios": "https://dc.lft.to/lastmile_qr_scan", "android": "https://dc.lft.to/lastmile_qr_scan"}, "type": "electric_scooter", "name": "741f22cafdff8a2aee7a11c93f9ccca3", "is_reserved": 0, "lon": -76.97801116666666, "is_disabled": 0, "fusion_lat": 0.0, "lat": 38.9031105, "bike_id": "741f22cafdff8a2aee7a11c93f9ccca3", "fusion_lon": 0.0}, {"rental_uris": {"ios": "https://dc.lft.to/lastmile_qr_scan", "android": "https://dc.lft.to/lastmile_qr_scan"}, "type": "electric_scooter", "name": "422a9b0db9f6ce5744edcd23f9b60006", "is_reserved": 0, "lon": -77.023025, "is_disabled": 0, "fusion_lat": 0.0, "lat": 38.9139615, "bike_id": "422a9b0db9f6ce5744edcd23f9b60006", "fusion_lon": 0.0}, {"rental_uris": {"ios": "https://dc.lft.to/lastmile_qr_scan", "android": "https://dc.lft.to/lastmile_qr_scan"}, "type": "electric_scooter", "name": "021b29dae1efc481a3416b417393eb6d", "is_reserved": 0, "lon": -77.04494133333333, "is_disabled": 0, "fusion_lat": 0.0, "lat": 38.91938016666667, "bike_id": "021b29dae1efc481a3416b417393eb6d", "fusion_lon": 0.0}, {"rental_uris": {"ios": "https://dc.lft.to/lastmile_qr_scan", "android": "https://dc.lft.to/lastmile_qr_scan"}, "type": "electric_scooter", "name": "da38952c3d25c8da5a485274166d2b70", "is_reserved": 0, "lon": -77.02552366666667, "is_disabled": 0, "fusion_lat": 0.0, "lat": 38.9308995, "bike_id": "da38952c3d25c8da5a485274166d2b70", "fusion_lon": 0.0}, {"rental_uris": {"ios": "https://dc.lft.to/lastmile_qr_scan", "android": "https://dc.lft.to/lastmile_qr_scan"}, "type": "electric_scooter", "name": "b17a8487705fe664caaf250cfcced4e2", "is_reserved": 0, "lon": -77.01431366666667, "is_disabled": 0, "fusion_lat": 0.0, "lat": 38.91464633333333, "bike_id": "b17a8487705fe664caaf250cfcced4e2", "fusion_lon": 0.0}, {"rental_uris": {"ios": "https://dc.lft.to/lastmile_qr_scan", "android": "https://dc.lft.to/lastmile_qr_scan"}, "type": "electric_scooter", "name": "804dd53338723b1e1ad6e226d464577b", "is_reserved": 0, "lon": -77.0407915, "is_disabled": 0, "fusion_lat": 0.0, "lat": 38.947757833333334, "bike_id": "804dd53338723b1e1ad6e226d464577b", "fusion_lon": 0.0}, {"rental_uris": {"ios": "https://dc.lft.to/lastmile_qr_scan", "android": "https://dc.lft.to/lastmile_qr_scan"}, "type": "electric_scooter", "name": "ec73d4fd6421bd5ec549f52de5788c91", "is_reserved": 0, "lon": -77.03959366666666, "is_disabled": 0, "fusion_lat": 0.0, "lat": 38.89249683333333, "bike_id": "ec73d4fd6421bd5ec549f52de5788c91", "fusion_lon": 0.0}, {"rental_uris": {"ios": "https://dc.lft.to/lastmile_qr_scan", "android": "https://dc.lft.to/lastmile_qr_scan"}, "type": "electric_scooter", "name": "2203ddf17e24cdcd5c2d55e2d41b690c", "is_reserved": 0, "lon": -77.04944116666667, "is_disabled": 0, "fusion_lat": 0.0, "lat": 38.900924333333336, "bike_id": "2203ddf17e24cdcd5c2d55e2d41b690c", "fusion_lon": 0.0}, {"rental_uris": {"ios": "https://dc.lft.to/lastmile_qr_scan", "android": "https://dc.lft.to/lastmile_qr_scan"}, "type": "electric_scooter", "name": "bb73ef8c63a2eb3efa5227b8d990310e", "is_reserved": 0, "lon": -77.00727333333333, "is_disabled": 0, "fusion_lat": 0.0, "lat": 38.897091, "bike_id": "bb73ef8c63a2eb3efa5227b8d990310e", "fusion_lon": 0.0}, {"rental_uris": {"ios": "https://dc.lft.to/lastmile_qr_scan", "android": "https://dc.lft.to/lastmile_qr_scan"}, "type": "electric_scooter", "name": "2acbbe045cdd06ffa04d0ef7b975da2c", "is_reserved": 0, "lon": -77.03172183333334, "is_disabled": 0, "fusion_lat": 0.0, "lat": 38.921165, "bike_id": "2acbbe045cdd06ffa04d0ef7b975da2c", "fusion_lon": 0.0}, {"rental_uris": {"ios": "https://dc.lft.to/lastmile_qr_scan", "android": "https://dc.lft.to/lastmile_qr_scan"}, "type": "electric_scooter", "name": "216f11539a583b9d50f63dd1b582fd3e", "is_reserved": 0, "lon": -77.0343545, "is_disabled": 0, "fusion_lat": 0.0, "lat": 38.90581483333333, "bike_id": "216f11539a583b9d50f63dd1b582fd3e", "fusion_lon": 0.0}, {"rental_uris": {"ios": "https://dc.lft.to/lastmile_qr_scan", "android": "https://dc.lft.to/lastmile_qr_scan"}, "type": "electric_scooter", "name": "4a1df0cb733063dcd578bf432eb61d5d", "is_reserved": 0, "lon": -77.01969833333334, "is_disabled": 0, "fusion_lat": 0.0, "lat": 38.956513, "bike_id": "4a1df0cb733063dcd578bf432eb61d5d", "fusion_lon": 0.0}, {"rental_uris": {"ios": "https://dc.lft.to/lastmile_qr_scan", "android": "https://dc.lft.to/lastmile_qr_scan"}, "type": "electric_scooter", "name": "e0febebe66ef17bdb8489504b69cd69f", "is_reserved": 0, "lon": -77.00693383333333, "is_disabled": 0, "fusion_lat": 0.0, "lat": 38.87171683333333, "bike_id": "e0febebe66ef17bdb8489504b69cd69f", "fusion_lon": 0.0}, {"rental_uris": {"ios": "https://dc.lft.to/lastmile_qr_scan", "android": "https://dc.lft.to/lastmile_qr_scan"}, "type": "electric_scooter", "name": "1f229bd8ed4297ead6ee3ef32492d04b", "is_reserved": 0, "lon": -77.03662933333334, "is_disabled": 0, "fusion_lat": 0.0, "lat": 38.918250666666665, "bike_id": "1f229bd8ed4297ead6ee3ef32492d04b", "fusion_lon": 0.0}, {"rental_uris": {"ios": "https://dc.lft.to/lastmile_qr_scan", "android": "https://dc.lft.to/lastmile_qr_scan"}, "type": "electric_bike", "name": "20a03f1d82c64646ec5b384969a810ea", "is_reserved": 0, "lon": -77.02582133333334, "is_disabled": 0, "fusion_lat": 0.0, "lat": 38.97877316666667, "bike_id": "20a03f1d82c64646ec5b384969a810ea", "fusion_lon": 0.0}, {"rental_uris": {"ios": "https://dc.lft.to/lastmile_qr_scan", "android": "https://dc.lft.to/lastmile_qr_scan"}, "type": "electric_scooter", "name": "31d2af9679911edaff1e26e78fad97dc", "is_reserved": 0, "lon": -76.97836216666667, "is_disabled": 0, "fusion_lat": 0.0, "lat": 38.872100833333334, "bike_id": "31d2af9679911edaff1e26e78fad97dc", "fusion_lon": 0.0}, {"rental_uris": {"ios": "https://dc.lft.to/lastmile_qr_scan", "android": "https://dc.lft.to/lastmile_qr_scan"}, "type": "electric_scooter", "name": "9b66c848c8c071a585c558be54c52fd7", "is_reserved": 0, "lon": -77.02305266666667, "is_disabled": 0, "fusion_lat": 0.0, "lat": 38.911106333333336, "bike_id": "9b66c848c8c071a585c558be54c52fd7", "fusion_lon": 0.0}, {"rental_uris": {"ios": "https://dc.lft.to/lastmile_qr_scan", "android": "https://dc.lft.to/lastmile_qr_scan"}, "type": "electric_bike", "name": "78ee3988d9c95962d437702e925177e8", "is_reserved": 0, "lon": -76.99911383333334, "is_disabled": 0, "fusion_lat": 0.0, "lat": 38.86449666666667, "bike_id": "78ee3988d9c95962d437702e925177e8", "fusion_lon": 0.0}, {"rental_uris": {"ios": "https://dc.lft.to/lastmile_qr_scan", "android": "https://dc.lft.to/lastmile_qr_scan"}, "type": "electric_scooter", "name": "d370b706d72489f7b1c08fe391cc6f3f", "is_reserved": 0, "lon": -77.0325095, "is_disabled": 0, "fusion_lat": 0.0, "lat": 38.917137333333336, "bike_id": "d370b706d72489f7b1c08fe391cc6f3f", "fusion_lon": 0.0}, {"rental_uris": {"ios": "https://dc.lft.to/lastmile_qr_scan", "android": "https://dc.lft.to/lastmile_qr_scan"}, "type": "electric_scooter", "name": "68db64322c30b52c33c7ef1a53aa503a", "is_reserved": 0, "lon": -76.99593466666667, "is_disabled": 0, "fusion_lat": 0.0, "lat": 38.90029416666667, "bike_id": "68db64322c30b52c33c7ef1a53aa503a", "fusion_lon": 0.0}, {"rental_uris": {"ios": "https://dc.lft.to/lastmile_qr_scan", "android": "https://dc.lft.to/lastmile_qr_scan"}, "type": "electric_scooter", "name": "75a1698afaffd22094bd5cef059dd2f5", "is_reserved": 0, "lon": -77.08780266666666, "is_disabled": 0, "fusion_lat": 0.0, "lat": 38.93559716666667, "bike_id": "75a1698afaffd22094bd5cef059dd2f5", "fusion_lon": 0.0}, {"rental_uris": {"ios": "https://dc.lft.to/lastmile_qr_scan", "android": "https://dc.lft.to/lastmile_qr_scan"}, "type": "electric_scooter", "name": "7c21f52858b4f47c400137268e31e5ce", "is_reserved": 0, "lon": -77.063227, "is_disabled": 0, "fusion_lat": 0.0, "lat": 38.913403333333335, "bike_id": "7c21f52858b4f47c400137268e31e5ce", "fusion_lon": 0.0}, {"rental_uris": {"ios": "https://dc.lft.to/lastmile_qr_scan", "android": "https://dc.lft.to/lastmile_qr_scan"}, "type": "electric_bike", "name": "18bf340d3531f4c3c148ff7e6b90e7bf", "is_reserved": 0, "lon": -77.1117155, "is_disabled": 0, "fusion_lat": 0.0, "lat": 38.827876833333335, "bike_id": "18bf340d3531f4c3c148ff7e6b90e7bf", "fusion_lon": 0.0}, {"rental_uris": {"ios": "https://dc.lft.to/lastmile_qr_scan", "android": "https://dc.lft.to/lastmile_qr_scan"}, "type": "electric_scooter", "name": "7330c937ad9b776d268735a8019415ea", "is_reserved": 0, "lon": -77.0178065, "is_disabled": 0, "fusion_lat": 0.0, "lat": 38.900733833333334, "bike_id": "7330c937ad9b776d268735a8019415ea", "fusion_lon": 0.0}, {"rental_uris": {"ios": "https://dc.lft.to/lastmile_qr_scan", "android": "https://dc.lft.to/lastmile_qr_scan"}, "type": "electric_scooter", "name": "1be8f7969cc307ba5b17ce4e979c7b39", "is_reserved": 0, "lon": -77.02974433333333, "is_disabled": 0, "fusion_lat": 0.0, "lat": 38.904725666666664, "bike_id": "1be8f7969cc307ba5b17ce4e979c7b39", "fusion_lon": 0.0}, {"rental_uris": {"ios": "https://dc.lft.to/lastmile_qr_scan", "android": "https://dc.lft.to/lastmile_qr_scan"}, "type": "electric_scooter", "name": "7b1083736d8a4568542b30cb7bdf3fd0", "is_reserved": 0, "lon": -77.00672016666667, "is_disabled": 0, "fusion_lat": 0.0, "lat": 38.90575583333333, "bike_id": "7b1083736d8a4568542b30cb7bdf3fd0", "fusion_lon": 0.0}, {"rental_uris": {"ios": "https://dc.lft.to/lastmile_qr_scan", "android": "https://dc.lft.to/lastmile_qr_scan"}, "type": "electric_scooter", "name": "d0cf8c365931c663a077edeeff9c4a92", "is_reserved": 0, "lon": -77.040436, "is_disabled": 0, "fusion_lat": 0.0, "lat": 38.924596333333334, "bike_id": "d0cf8c365931c663a077edeeff9c4a92", "fusion_lon": 0.0}, {"rental_uris": {"ios": "https://dc.lft.to/lastmile_qr_scan", "android": "https://dc.lft.to/lastmile_qr_scan"}, "type": "electric_scooter", "name": "39fcd61ab3fcd4cfdefebb52488c3c00", "is_reserved": 0, "lon": -77.04411783333333, "is_disabled": 0, "fusion_lat": 0.0, "lat": 38.92579283333333, "bike_id": "39fcd61ab3fcd4cfdefebb52488c3c00", "fusion_lon": 0.0}, {"rental_uris": {"ios": "https://dc.lft.to/lastmile_qr_scan", "android": "https://dc.lft.to/lastmile_qr_scan"}, "type": "electric_bike", "name": "974de5e9ac8cc16f526bcfc5357eb2ee", "is_reserved": 0, "lon": -77.0724495, "is_disabled": 0, "fusion_lat": 0.0, "lat": 38.813652, "bike_id": "974de5e9ac8cc16f526bcfc5357eb2ee", "fusion_lon": 0.0}, {"rental_uris": {"ios": "https://dc.lft.to/lastmile_qr_scan", "android": "https://dc.lft.to/lastmile_qr_scan"}, "type": "electric_scooter", "name": "f8d63172ae91386424651f7c8b3c7b0b", "is_reserved": 0, "lon": -77.016274, "is_disabled": 0, "fusion_lat": 0.0, "lat": 38.90251816666667, "bike_id": "f8d63172ae91386424651f7c8b3c7b0b", "fusion_lon": 0.0}, {"rental_uris": {"ios": "https://dc.lft.to/lastmile_qr_scan", "android": "https://dc.lft.to/lastmile_qr_scan"}, "type": "electric_scooter", "name": "cf325a288cde52a14652172cbc35a1e0", "is_reserved": 0, "lon": -77.02817216666666, "is_disabled": 0, "fusion_lat": 0.0, "lat": 38.910968, "bike_id": "cf325a288cde52a14652172cbc35a1e0", "fusion_lon": 0.0}, {"rental_uris": {"ios": "https://dc.lft.to/lastmile_qr_scan", "android": "https://dc.lft.to/lastmile_qr_scan"}, "type": "electric_scooter", "name": "3227066d0857ffc2cdba65f3640fbbb7", "is_reserved": 0, "lon": -77.04716166666667, "is_disabled": 0, "fusion_lat": 0.0, "lat": 38.9017195, "bike_id": "3227066d0857ffc2cdba65f3640fbbb7", "fusion_lon": 0.0}, {"rental_uris": {"ios": "https://dc.lft.to/lastmile_qr_scan", "android": "https://dc.lft.to/lastmile_qr_scan"}, "type": "electric_scooter", "name": "5464abab76edef5b05f95423a27d2eda", "is_reserved": 0, "lon": -76.94321383333333, "is_disabled": 0, "fusion_lat": 0.0, "lat": 38.879191166666665, "bike_id": "5464abab76edef5b05f95423a27d2eda", "fusion_lon": 0.0}, {"rental_uris": {"ios": "https://dc.lft.to/lastmile_qr_scan", "android": "https://dc.lft.to/lastmile_qr_scan"}, "type": "electric_scooter", "name": "9be2a4ec68a9b0c0b4f1a4c66ef72531", "is_reserved": 0, "lon": -77.0276325, "is_disabled": 0, "fusion_lat": 0.0, "lat": 38.91344616666667, "bike_id": "9be2a4ec68a9b0c0b4f1a4c66ef72531", "fusion_lon": 0.0}, {"rental_uris": {"ios": "https://dc.lft.to/lastmile_qr_scan", "android": "https://dc.lft.to/lastmile_qr_scan"}, "type": "electric_scooter", "name": "b52667e565d6ee7d35286f60712022c7", "is_reserved": 0, "lon": -77.0482365, "is_disabled": 0, "fusion_lat": 0.0, "lat": 38.909666333333334, "bike_id": "b52667e565d6ee7d35286f60712022c7", "fusion_lon": 0.0}, {"rental_uris": {"ios": "https://dc.lft.to/lastmile_qr_scan", "android": "https://dc.lft.to/lastmile_qr_scan"}, "type": "electric_scooter", "name": "57df93c12152cf239d2d6b49a018bff7", "is_reserved": 0, "lon": -77.02045933333333, "is_disabled": 0, "fusion_lat": 0.0, "lat": 38.91113383333333, "bike_id": "57df93c12152cf239d2d6b49a018bff7", "fusion_lon": 0.0}, {"rental_uris": {"ios": "https://dc.lft.to/lastmile_qr_scan", "android": "https://dc.lft.to/lastmile_qr_scan"}, "type": "electric_scooter", "name": "2ff25e88c8f90d80dd6d5ba53e66f830", "is_reserved": 0, "lon": -76.9856815, "is_disabled": 0, "fusion_lat": 0.0, "lat": 38.8961905, "bike_id": "2ff25e88c8f90d80dd6d5ba53e66f830", "fusion_lon": 0.0}, {"rental_uris": {"ios": "https://dc.lft.to/lastmile_qr_scan", "android": "https://dc.lft.to/lastmile_qr_scan"}, "type": "electric_scooter", "name": "89b8c37b8963ef89c1fd340557dcbbf7", "is_reserved": 0, "lon": -77.03083133333334, "is_disabled": 0, "fusion_lat": 0.0, "lat": 38.938804, "bike_id": "89b8c37b8963ef89c1fd340557dcbbf7", "fusion_lon": 0.0}, {"rental_uris": {"ios": "https://dc.lft.to/lastmile_qr_scan", "android": "https://dc.lft.to/lastmile_qr_scan"}, "type": "electric_scooter", "name": "4fe0fba108fe32682e83c14c79ad6043", "is_reserved": 0, "lon": -76.99751033333334, "is_disabled": 0, "fusion_lat": 0.0, "lat": 38.90043266666667, "bike_id": "4fe0fba108fe32682e83c14c79ad6043", "fusion_lon": 0.0}, {"rental_uris": {"ios": "https://dc.lft.to/lastmile_qr_scan", "android": "https://dc.lft.to/lastmile_qr_scan"}, "type": "electric_scooter", "name": "0a6c6ae55e44ad4fcd2499024c6eb490", "is_reserved": 0, "lon": -76.99881933333333, "is_disabled": 0, "fusion_lat": 0.0, "lat": 38.920581166666665, "bike_id": "0a6c6ae55e44ad4fcd2499024c6eb490", "fusion_lon": 0.0}, {"rental_uris": {"ios": "https://dc.lft.to/lastmile_qr_scan", "android": "https://dc.lft.to/lastmile_qr_scan"}, "type": "electric_scooter", "name": "d4f3af542b164fd095dff6660f86f1f7", "is_reserved": 0, "lon": -77.077186, "is_disabled": 0, "fusion_lat": 0.0, "lat": 38.942903333333334, "bike_id": "d4f3af542b164fd095dff6660f86f1f7", "fusion_lon": 0.0}, {"rental_uris": {"ios": "https://dc.lft.to/lastmile_qr_scan", "android": "https://dc.lft.to/lastmile_qr_scan"}, "type": "electric_bike", "name": "e21de78ac7cd5d2b7ef378ddb76b021f", "is_reserved": 0, "lon": -76.97536116666667, "is_disabled": 0, "fusion_lat": 0.0, "lat": 38.90334333333333, "bike_id": "e21de78ac7cd5d2b7ef378ddb76b021f", "fusion_lon": 0.0}, {"rental_uris": {"ios": "https://dc.lft.to/lastmile_qr_scan", "android": "https://dc.lft.to/lastmile_qr_scan"}, "type": "electric_scooter", "name": "85773278f81c5c50d65d87beca2cb228", "is_reserved": 0, "lon": -77.022128, "is_disabled": 0, "fusion_lat": 0.0, "lat": 38.8873695, "bike_id": "85773278f81c5c50d65d87beca2cb228", "fusion_lon": 0.0}, {"rental_uris": {"ios": "https://dc.lft.to/lastmile_qr_scan", "android": "https://dc.lft.to/lastmile_qr_scan"}, "type": "electric_scooter", "name": "e36d6667457adb448841a98e24f487ae", "is_reserved": 0, "lon": -77.048595, "is_disabled": 0, "fusion_lat": 0.0, "lat": 38.8989505, "bike_id": "e36d6667457adb448841a98e24f487ae", "fusion_lon": 0.0}, {"rental_uris": {"ios": "https://dc.lft.to/lastmile_qr_scan", "android": "https://dc.lft.to/lastmile_qr_scan"}, "type": "electric_scooter", "name": "2124abcd24a7332e9c98495391f1e774", "is_reserved": 0, "lon": -77.018235, "is_disabled": 0, "fusion_lat": 0.0, "lat": 38.91112283333333, "bike_id": "2124abcd24a7332e9c98495391f1e774", "fusion_lon": 0.0}, {"rental_uris": {"ios": "https://dc.lft.to/lastmile_qr_scan", "android": "https://dc.lft.to/lastmile_qr_scan"}, "type": "electric_scooter", "name": "d768d5a007760615809836ea19e39311", "is_reserved": 0, "lon": -77.03139666666667, "is_disabled": 0, "fusion_lat": 0.0, "lat": 38.91266516666666, "bike_id": "d768d5a007760615809836ea19e39311", "fusion_lon": 0.0}, {"rental_uris": {"ios": "https://dc.lft.to/lastmile_qr_scan", "android": "https://dc.lft.to/lastmile_qr_scan"}, "type": "electric_bike", "name": "46c7b05ae6813168fac12cad6874b8d6", "is_reserved": 0, "lon": -76.9742585, "is_disabled": 0, "fusion_lat": 0.0, "lat": 38.93238016666667, "bike_id": "46c7b05ae6813168fac12cad6874b8d6", "fusion_lon": 0.0}, {"rental_uris": {"ios": "https://dc.lft.to/lastmile_qr_scan", "android": "https://dc.lft.to/lastmile_qr_scan"}, "type": "electric_scooter", "name": "fc8accd84111b870742dc01a1736c5af", "is_reserved": 0, "lon": -77.03456433333334, "is_disabled": 0, "fusion_lat": 0.0, "lat": 38.934285, "bike_id": "fc8accd84111b870742dc01a1736c5af", "fusion_lon": 0.0}, {"rental_uris": {"ios": "https://dc.lft.to/lastmile_qr_scan", "android": "https://dc.lft.to/lastmile_qr_scan"}, "type": "electric_scooter", "name": "87ee2f14ade181fb2f2cf0a9e0998291", "is_reserved": 0, "lon": -77.05686183333333, "is_disabled": 0, "fusion_lat": 0.0, "lat": 38.93390616666667, "bike_id": "87ee2f14ade181fb2f2cf0a9e0998291", "fusion_lon": 0.0}, {"rental_uris": {"ios": "https://dc.lft.to/lastmile_qr_scan", "android": "https://dc.lft.to/lastmile_qr_scan"}, "type": "electric_scooter", "name": "563d1356c40bcd50709595a5943546cb", "is_reserved": 0, "lon": -76.99386216666667, "is_disabled": 0, "fusion_lat": 0.0, "lat": 38.91014166666667, "bike_id": "563d1356c40bcd50709595a5943546cb", "fusion_lon": 0.0}, {"rental_uris": {"ios": "https://dc.lft.to/lastmile_qr_scan", "android": "https://dc.lft.to/lastmile_qr_scan"}, "type": "electric_scooter", "name": "799053922f72fbdf9f13d583fd4f0eee", "is_reserved": 0, "lon": -77.02625183333333, "is_disabled": 0, "fusion_lat": 0.0, "lat": 38.89226016666667, "bike_id": "799053922f72fbdf9f13d583fd4f0eee", "fusion_lon": 0.0}, {"rental_uris": {"ios": "https://dc.lft.to/lastmile_qr_scan", "android": "https://dc.lft.to/lastmile_qr_scan"}, "type": "electric_scooter", "name": "2b357dee54f340b97f10891ac87c8417", "is_reserved": 0, "lon": -77.02263033333334, "is_disabled": 0, "fusion_lat": 0.0, "lat": 38.92740166666667, "bike_id": "2b357dee54f340b97f10891ac87c8417", "fusion_lon": 0.0}, {"rental_uris": {"ios": "https://dc.lft.to/lastmile_qr_scan", "android": "https://dc.lft.to/lastmile_qr_scan"}, "type": "electric_scooter", "name": "16bb61624c1301f6a6a71252684a79fa", "is_reserved": 0, "lon": -77.04985366666666, "is_disabled": 0, "fusion_lat": 0.0, "lat": 38.905408333333334, "bike_id": "16bb61624c1301f6a6a71252684a79fa", "fusion_lon": 0.0}, {"rental_uris": {"ios": "https://dc.lft.to/lastmile_qr_scan", "android": "https://dc.lft.to/lastmile_qr_scan"}, "type": "electric_scooter", "name": "6d4efa07321a450afcc70bfdf043a7c5", "is_reserved": 0, "lon": -76.98211133333334, "is_disabled": 0, "fusion_lat": 0.0, "lat": 38.886425833333334, "bike_id": "6d4efa07321a450afcc70bfdf043a7c5", "fusion_lon": 0.0}, {"rental_uris": {"ios": "https://dc.lft.to/lastmile_qr_scan", "android": "https://dc.lft.to/lastmile_qr_scan"}, "type": "electric_scooter", "name": "f4490c6ced7d0c32bcd1a5021a9565ce", "is_reserved": 0, "lon": -77.022022, "is_disabled": 0, "fusion_lat": 0.0, "lat": 38.887139833333336, "bike_id": "f4490c6ced7d0c32bcd1a5021a9565ce", "fusion_lon": 0.0}, {"rental_uris": {"ios": "https://dc.lft.to/lastmile_qr_scan", "android": "https://dc.lft.to/lastmile_qr_scan"}, "type": "electric_scooter", "name": "cc98b9fe0bc68534d72180a5f0073097", "is_reserved": 0, "lon": -77.0326225, "is_disabled": 0, "fusion_lat": 0.0, "lat": 38.9096485, "bike_id": "cc98b9fe0bc68534d72180a5f0073097", "fusion_lon": 0.0}, {"rental_uris": {"ios": "https://dc.lft.to/lastmile_qr_scan", "android": "https://dc.lft.to/lastmile_qr_scan"}, "type": "electric_scooter", "name": "01402ddcedc262791f5a498254adbef1", "is_reserved": 0, "lon": -77.0365895, "is_disabled": 0, "fusion_lat": 0.0, "lat": 38.91856416666667, "bike_id": "01402ddcedc262791f5a498254adbef1", "fusion_lon": 0.0}, {"rental_uris": {"ios": "https://dc.lft.to/lastmile_qr_scan", "android": "https://dc.lft.to/lastmile_qr_scan"}, "type": "electric_scooter", "name": "d877c2dbb809da50ea703eb074059b73", "is_reserved": 0, "lon": -77.04531583333333, "is_disabled": 0, "fusion_lat": 0.0, "lat": 38.897264166666666, "bike_id": "d877c2dbb809da50ea703eb074059b73", "fusion_lon": 0.0}, {"rental_uris": {"ios": "https://dc.lft.to/lastmile_qr_scan", "android": "https://dc.lft.to/lastmile_qr_scan"}, "type": "electric_scooter", "name": "2ade7a3f9277fbf17bb78c9f00d12c18", "is_reserved": 0, "lon": -77.0196245, "is_disabled": 0, "fusion_lat": 0.0, "lat": 38.933834166666664, "bike_id": "2ade7a3f9277fbf17bb78c9f00d12c18", "fusion_lon": 0.0}, {"rental_uris": {"ios": "https://dc.lft.to/lastmile_qr_scan", "android": "https://dc.lft.to/lastmile_qr_scan"}, "type": "electric_scooter", "name": "f563e9a27c95204cfc0e4a66b9f3da30", "is_reserved": 0, "lon": -77.025874, "is_disabled": 0, "fusion_lat": 0.0, "lat": 38.92041366666667, "bike_id": "f563e9a27c95204cfc0e4a66b9f3da30", "fusion_lon": 0.0}, {"rental_uris": {"ios": "https://dc.lft.to/lastmile_qr_scan", "android": "https://dc.lft.to/lastmile_qr_scan"}, "type": "electric_scooter", "name": "00edd01e797c50f9b6973d7a5540fdc7", "is_reserved": 0, "lon": -77.06518666666666, "is_disabled": 0, "fusion_lat": 0.0, "lat": 38.9498975, "bike_id": "00edd01e797c50f9b6973d7a5540fdc7", "fusion_lon": 0.0}, {"rental_uris": {"ios": "https://dc.lft.to/lastmile_qr_scan", "android": "https://dc.lft.to/lastmile_qr_scan"}, "type": "electric_scooter", "name": "39de15bef91188679e0423a51cc4d5df", "is_reserved": 0, "lon": -77.03278016666667, "is_disabled": 0, "fusion_lat": 0.0, "lat": 38.927517, "bike_id": "39de15bef91188679e0423a51cc4d5df", "fusion_lon": 0.0}, {"rental_uris": {"ios": "https://dc.lft.to/lastmile_qr_scan", "android": "https://dc.lft.to/lastmile_qr_scan"}, "type": "electric_scooter", "name": "ce98f804ed9d55a695882daf24ab5f6c", "is_reserved": 0, "lon": -76.9898515, "is_disabled": 0, "fusion_lat": 0.0, "lat": 38.865032166666666, "bike_id": "ce98f804ed9d55a695882daf24ab5f6c", "fusion_lon": 0.0}, {"rental_uris": {"ios": "https://dc.lft.to/lastmile_qr_scan", "android": "https://dc.lft.to/lastmile_qr_scan"}, "type": "electric_scooter", "name": "cf8137da11e408504cfb0bed1ced0633", "is_reserved": 0, "lon": -77.040328, "is_disabled": 0, "fusion_lat": 0.0, "lat": 38.90474916666667, "bike_id": "cf8137da11e408504cfb0bed1ced0633", "fusion_lon": 0.0}, {"rental_uris": {"ios": "https://dc.lft.to/lastmile_qr_scan", "android": "https://dc.lft.to/lastmile_qr_scan"}, "type": "electric_scooter", "name": "e1be9d055bdbeb76709f12673a6f4ed3", "is_reserved": 0, "lon": -77.046766, "is_disabled": 0, "fusion_lat": 0.0, "lat": 38.91793533333333, "bike_id": "e1be9d055bdbeb76709f12673a6f4ed3", "fusion_lon": 0.0}, {"rental_uris": {"ios": "https://dc.lft.to/lastmile_qr_scan", "android": "https://dc.lft.to/lastmile_qr_scan"}, "type": "electric_scooter", "name": "a3b342cef00d8e1c8f8d66cd8763f2dc", "is_reserved": 0, "lon": -77.04099866666667, "is_disabled": 0, "fusion_lat": 0.0, "lat": 38.92118416666667, "bike_id": "a3b342cef00d8e1c8f8d66cd8763f2dc", "fusion_lon": 0.0}, {"rental_uris": {"ios": "https://dc.lft.to/lastmile_qr_scan", "android": "https://dc.lft.to/lastmile_qr_scan"}, "type": "electric_scooter", "name": "fca8a9ed054db79738cce67b6eff27ae", "is_reserved": 0, "lon": -77.03717683333333, "is_disabled": 0, "fusion_lat": 0.0, "lat": 38.91187716666666, "bike_id": "fca8a9ed054db79738cce67b6eff27ae", "fusion_lon": 0.0}, {"rental_uris": {"ios": "https://dc.lft.to/lastmile_qr_scan", "android": "https://dc.lft.to/lastmile_qr_scan"}, "type": "electric_scooter", "name": "d01a36ca9e10cd851c122b825d46bb8c", "is_reserved": 0, "lon": -77.03666166666666, "is_disabled": 0, "fusion_lat": 0.0, "lat": 38.923827333333335, "bike_id": "d01a36ca9e10cd851c122b825d46bb8c", "fusion_lon": 0.0}, {"rental_uris": {"ios": "https://dc.lft.to/lastmile_qr_scan", "android": "https://dc.lft.to/lastmile_qr_scan"}, "type": "electric_scooter", "name": "206982a5e16879e8af32a12c8dd4980e", "is_reserved": 0, "lon": -77.00797316666667, "is_disabled": 0, "fusion_lat": 0.0, "lat": 38.91265516666667, "bike_id": "206982a5e16879e8af32a12c8dd4980e", "fusion_lon": 0.0}, {"rental_uris": {"ios": "https://dc.lft.to/lastmile_qr_scan", "android": "https://dc.lft.to/lastmile_qr_scan"}, "type": "electric_scooter", "name": "5968343b0960724d084da01b26caa7f8", "is_reserved": 0, "lon": -77.0319585, "is_disabled": 0, "fusion_lat": 0.0, "lat": 38.887029166666665, "bike_id": "5968343b0960724d084da01b26caa7f8", "fusion_lon": 0.0}, {"rental_uris": {"ios": "https://dc.lft.to/lastmile_qr_scan", "android": "https://dc.lft.to/lastmile_qr_scan"}, "type": "electric_scooter", "name": "7eccf916d95dbe370889266d64aad0b1", "is_reserved": 0, "lon": -77.053728, "is_disabled": 0, "fusion_lat": 0.0, "lat": 38.92331266666667, "bike_id": "7eccf916d95dbe370889266d64aad0b1", "fusion_lon": 0.0}, {"rental_uris": {"ios": "https://dc.lft.to/lastmile_qr_scan", "android": "https://dc.lft.to/lastmile_qr_scan"}, "type": "electric_scooter", "name": "43506da5851da3d24724bb31dc2946dc", "is_reserved": 0, "lon": -77.01260183333333, "is_disabled": 0, "fusion_lat": 0.0, "lat": 38.89717816666667, "bike_id": "43506da5851da3d24724bb31dc2946dc", "fusion_lon": 0.0}, {"rental_uris": {"ios": "https://dc.lft.to/lastmile_qr_scan", "android": "https://dc.lft.to/lastmile_qr_scan"}, "type": "electric_scooter", "name": "8c4fdf8ab5dfb034a331e91b3d0f042c", "is_reserved": 0, "lon": -77.01912016666667, "is_disabled": 0, "fusion_lat": 0.0, "lat": 38.93719933333333, "bike_id": "8c4fdf8ab5dfb034a331e91b3d0f042c", "fusion_lon": 0.0}, {"rental_uris": {"ios": "https://dc.lft.to/lastmile_qr_scan", "android": "https://dc.lft.to/lastmile_qr_scan"}, "type": "electric_scooter", "name": "23f30c3630e631d382efb4cdedf3a256", "is_reserved": 0, "lon": -77.0107915, "is_disabled": 0, "fusion_lat": 0.0, "lat": 38.8953985, "bike_id": "23f30c3630e631d382efb4cdedf3a256", "fusion_lon": 0.0}, {"rental_uris": {"ios": "https://dc.lft.to/lastmile_qr_scan", "android": "https://dc.lft.to/lastmile_qr_scan"}, "type": "electric_scooter", "name": "43af7ad15f3beec2eb5fe98144e571ac", "is_reserved": 0, "lon": -77.03660766666667, "is_disabled": 0, "fusion_lat": 0.0, "lat": 38.91320066666667, "bike_id": "43af7ad15f3beec2eb5fe98144e571ac", "fusion_lon": 0.0}, {"rental_uris": {"ios": "https://dc.lft.to/lastmile_qr_scan", "android": "https://dc.lft.to/lastmile_qr_scan"}, "type": "electric_scooter", "name": "4fadd8925f2d242fbc1d0edf174547c3", "is_reserved": 0, "lon": -77.03763, "is_disabled": 0, "fusion_lat": 0.0, "lat": 38.9232525, "bike_id": "4fadd8925f2d242fbc1d0edf174547c3", "fusion_lon": 0.0}, {"rental_uris": {"ios": "https://dc.lft.to/lastmile_qr_scan", "android": "https://dc.lft.to/lastmile_qr_scan"}, "type": "electric_scooter", "name": "a81d15b62258fb672fddc58ac1419f7f", "is_reserved": 0, "lon": -77.0297665, "is_disabled": 0, "fusion_lat": 0.0, "lat": 38.9225635, "bike_id": "a81d15b62258fb672fddc58ac1419f7f", "fusion_lon": 0.0}, {"rental_uris": {"ios": "https://dc.lft.to/lastmile_qr_scan", "android": "https://dc.lft.to/lastmile_qr_scan"}, "type": "electric_scooter", "name": "7065b6d2ce7dafbb730b65ce65fc1c74", "is_reserved": 0, "lon": -76.97151616666666, "is_disabled": 0, "fusion_lat": 0.0, "lat": 38.916189833333334, "bike_id": "7065b6d2ce7dafbb730b65ce65fc1c74", "fusion_lon": 0.0}, {"rental_uris": {"ios": "https://dc.lft.to/lastmile_qr_scan", "android": "https://dc.lft.to/lastmile_qr_scan"}, "type": "electric_scooter", "name": "da780ce1f67452ff63df285c1cdae74e", "is_reserved": 0, "lon": -77.00210866666667, "is_disabled": 0, "fusion_lat": 0.0, "lat": 38.900285333333336, "bike_id": "da780ce1f67452ff63df285c1cdae74e", "fusion_lon": 0.0}, {"rental_uris": {"ios": "https://dc.lft.to/lastmile_qr_scan", "android": "https://dc.lft.to/lastmile_qr_scan"}, "type": "electric_scooter", "name": "191baaf23d43c7b0347f32cb362c3512", "is_reserved": 0, "lon": -77.00576016666666, "is_disabled": 0, "fusion_lat": 0.0, "lat": 38.90005, "bike_id": "191baaf23d43c7b0347f32cb362c3512", "fusion_lon": 0.0}, {"rental_uris": {"ios": "https://dc.lft.to/lastmile_qr_scan", "android": "https://dc.lft.to/lastmile_qr_scan"}, "type": "electric_scooter", "name": "405359b8c5c1a777ccfb955be037909e", "is_reserved": 0, "lon": -77.01342316666667, "is_disabled": 0, "fusion_lat": 0.0, "lat": 38.9191415, "bike_id": "405359b8c5c1a777ccfb955be037909e", "fusion_lon": 0.0}, {"rental_uris": {"ios": "https://dc.lft.to/lastmile_qr_scan", "android": "https://dc.lft.to/lastmile_qr_scan"}, "type": "electric_scooter", "name": "0eba35ea1b4c8d25aa5189387bb376b3", "is_reserved": 0, "lon": -76.93041133333334, "is_disabled": 0, "fusion_lat": 0.0, "lat": 38.8839825, "bike_id": "0eba35ea1b4c8d25aa5189387bb376b3", "fusion_lon": 0.0}, {"rental_uris": {"ios": "https://dc.lft.to/lastmile_qr_scan", "android": "https://dc.lft.to/lastmile_qr_scan"}, "type": "electric_bike", "name": "158ea1a139fb2cc77e7b5509da84d876", "is_reserved": 0, "lon": -77.22825133333333, "is_disabled": 0, "fusion_lat": 0.0, "lat": 38.88267783333333, "bike_id": "158ea1a139fb2cc77e7b5509da84d876", "fusion_lon": 0.0}, {"rental_uris": {"ios": "https://dc.lft.to/lastmile_qr_scan", "android": "https://dc.lft.to/lastmile_qr_scan"}, "type": "electric_scooter", "name": "bc7fa149ed60b20155b77ee96aa607e3", "is_reserved": 0, "lon": -77.03866766666667, "is_disabled": 0, "fusion_lat": 0.0, "lat": 38.90649533333333, "bike_id": "bc7fa149ed60b20155b77ee96aa607e3", "fusion_lon": 0.0}, {"rental_uris": {"ios": "https://dc.lft.to/lastmile_qr_scan", "android": "https://dc.lft.to/lastmile_qr_scan"}, "type": "electric_scooter", "name": "72715e5a60bd27b3a8c86e3dbd1504cc", "is_reserved": 0, "lon": -77.01944033333334, "is_disabled": 0, "fusion_lat": 0.0, "lat": 38.94697333333333, "bike_id": "72715e5a60bd27b3a8c86e3dbd1504cc", "fusion_lon": 0.0}, {"rental_uris": {"ios": "https://dc.lft.to/lastmile_qr_scan", "android": "https://dc.lft.to/lastmile_qr_scan"}, "type": "electric_scooter", "name": "321860b1b1b883b0d2f8b617b787da6a", "is_reserved": 0, "lon": -77.01817966666667, "is_disabled": 0, "fusion_lat": 0.0, "lat": 38.901042833333335, "bike_id": "321860b1b1b883b0d2f8b617b787da6a", "fusion_lon": 0.0}, {"rental_uris": {"ios": "https://dc.lft.to/lastmile_qr_scan", "android": "https://dc.lft.to/lastmile_qr_scan"}, "type": "electric_scooter", "name": "618ce6d03bc46f5d596fbf03b8f6773f", "is_reserved": 0, "lon": -77.0259535, "is_disabled": 0, "fusion_lat": 0.0, "lat": 38.90511566666667, "bike_id": "618ce6d03bc46f5d596fbf03b8f6773f", "fusion_lon": 0.0}, {"rental_uris": {"ios": "https://dc.lft.to/lastmile_qr_scan", "android": "https://dc.lft.to/lastmile_qr_scan"}, "type": "electric_scooter", "name": "1efa4bec8ff6696638f2daf3d83b45fa", "is_reserved": 0, "lon": -77.04337116666666, "is_disabled": 0, "fusion_lat": 0.0, "lat": 38.8922375, "bike_id": "1efa4bec8ff6696638f2daf3d83b45fa", "fusion_lon": 0.0}, {"rental_uris": {"ios": "https://dc.lft.to/lastmile_qr_scan", "android": "https://dc.lft.to/lastmile_qr_scan"}, "type": "electric_scooter", "name": "2a7623060ce5b79ba8a7c53271b67592", "is_reserved": 0, "lon": -77.03087616666667, "is_disabled": 0, "fusion_lat": 0.0, "lat": 38.933051666666664, "bike_id": "2a7623060ce5b79ba8a7c53271b67592", "fusion_lon": 0.0}, {"rental_uris": {"ios": "https://dc.lft.to/lastmile_qr_scan", "android": "https://dc.lft.to/lastmile_qr_scan"}, "type": "electric_scooter", "name": "7ad80c8b013faa6d9190ffad352b58bb", "is_reserved": 0, "lon": -77.0077555, "is_disabled": 0, "fusion_lat": 0.0, "lat": 38.95246366666667, "bike_id": "7ad80c8b013faa6d9190ffad352b58bb", "fusion_lon": 0.0}, {"rental_uris": {"ios": "https://dc.lft.to/lastmile_qr_scan", "android": "https://dc.lft.to/lastmile_qr_scan"}, "type": "electric_scooter", "name": "59d288480c1806c32210200b5e3779fd", "is_reserved": 0, "lon": -76.94824916666667, "is_disabled": 0, "fusion_lat": 0.0, "lat": 38.885175333333336, "bike_id": "59d288480c1806c32210200b5e3779fd", "fusion_lon": 0.0}, {"rental_uris": {"ios": "https://dc.lft.to/lastmile_qr_scan", "android": "https://dc.lft.to/lastmile_qr_scan"}, "type": "electric_scooter", "name": "1e2343b630ba3b2d147c17c2b6646e24", "is_reserved": 0, "lon": -77.02836433333333, "is_disabled": 0, "fusion_lat": 0.0, "lat": 38.914077166666665, "bike_id": "1e2343b630ba3b2d147c17c2b6646e24", "fusion_lon": 0.0}, {"rental_uris": {"ios": "https://dc.lft.to/lastmile_qr_scan", "android": "https://dc.lft.to/lastmile_qr_scan"}, "type": "electric_bike", "name": "260d088fd4a3bcc5fb68ccb006840e1f", "is_reserved": 0, "lon": -76.9756055, "is_disabled": 0, "fusion_lat": 0.0, "lat": 38.904433833333336, "bike_id": "260d088fd4a3bcc5fb68ccb006840e1f", "fusion_lon": 0.0}, {"rental_uris": {"ios": "https://dc.lft.to/lastmile_qr_scan", "android": "https://dc.lft.to/lastmile_qr_scan"}, "type": "electric_scooter", "name": "01aecded499f2616fece304071ac64cc", "is_reserved": 0, "lon": -77.03589383333333, "is_disabled": 0, "fusion_lat": 0.0, "lat": 38.90458666666667, "bike_id": "01aecded499f2616fece304071ac64cc", "fusion_lon": 0.0}, {"rental_uris": {"ios": "https://dc.lft.to/lastmile_qr_scan", "android": "https://dc.lft.to/lastmile_qr_scan"}, "type": "electric_bike", "name": "fa3efa55b3c9a9f3d84e0aeaf7559820", "is_reserved": 0, "lon": -77.0143675, "is_disabled": 0, "fusion_lat": 0.0, "lat": 38.87679, "bike_id": "fa3efa55b3c9a9f3d84e0aeaf7559820", "fusion_lon": 0.0}, {"rental_uris": {"ios": "https://dc.lft.to/lastmile_qr_scan", "android": "https://dc.lft.to/lastmile_qr_scan"}, "type": "electric_bike", "name": "33502f038e8d0e6df6468ed37110fd3e", "is_reserved": 0, "lon": -76.951619, "is_disabled": 0, "fusion_lat": 0.0, "lat": 39.08434, "bike_id": "33502f038e8d0e6df6468ed37110fd3e", "fusion_lon": 0.0}, {"rental_uris": {"ios": "https://dc.lft.to/lastmile_qr_scan", "android": "https://dc.lft.to/lastmile_qr_scan"}, "type": "electric_scooter", "name": "c7461f5adf23d0abc71f38c958a503f2", "is_reserved": 0, "lon": -77.04947816666666, "is_disabled": 0, "fusion_lat": 0.0, "lat": 38.92019616666666, "bike_id": "c7461f5adf23d0abc71f38c958a503f2", "fusion_lon": 0.0}, {"rental_uris": {"ios": "https://dc.lft.to/lastmile_qr_scan", "android": "https://dc.lft.to/lastmile_qr_scan"}, "type": "electric_scooter", "name": "f6c7bed858486e27f64b6fe6f140a86e", "is_reserved": 0, "lon": -77.01815516666667, "is_disabled": 0, "fusion_lat": 0.0, "lat": 38.900901833333336, "bike_id": "f6c7bed858486e27f64b6fe6f140a86e", "fusion_lon": 0.0}, {"rental_uris": {"ios": "https://dc.lft.to/lastmile_qr_scan", "android": "https://dc.lft.to/lastmile_qr_scan"}, "type": "electric_scooter", "name": "9e9a71c19af9c5bd943d6b9529307054", "is_reserved": 0, "lon": -77.0015665, "is_disabled": 0, "fusion_lat": 0.0, "lat": 38.821354, "bike_id": "9e9a71c19af9c5bd943d6b9529307054", "fusion_lon": 0.0}, {"rental_uris": {"ios": "https://dc.lft.to/lastmile_qr_scan", "android": "https://dc.lft.to/lastmile_qr_scan"}, "type": "electric_scooter", "name": "9d518ec1c1927d4fe8e372502a9af558", "is_reserved": 0, "lon": -77.027621, "is_disabled": 0, "fusion_lat": 0.0, "lat": 38.92384066666666, "bike_id": "9d518ec1c1927d4fe8e372502a9af558", "fusion_lon": 0.0}, {"rental_uris": {"ios": "https://dc.lft.to/lastmile_qr_scan", "android": "https://dc.lft.to/lastmile_qr_scan"}, "type": "electric_scooter", "name": "daceeb70116d6dd87280c7441de9c1f7", "is_reserved": 0, "lon": -77.0122175, "is_disabled": 0, "fusion_lat": 0.0, "lat": 38.916831, "bike_id": "daceeb70116d6dd87280c7441de9c1f7", "fusion_lon": 0.0}, {"rental_uris": {"ios": "https://dc.lft.to/lastmile_qr_scan", "android": "https://dc.lft.to/lastmile_qr_scan"}, "type": "electric_scooter", "name": "c1f55fe6657aeb3a7013309e5d672060", "is_reserved": 0, "lon": -77.03334083333333, "is_disabled": 0, "fusion_lat": 0.0, "lat": 38.89634183333333, "bike_id": "c1f55fe6657aeb3a7013309e5d672060", "fusion_lon": 0.0}, {"rental_uris": {"ios": "https://dc.lft.to/lastmile_qr_scan", "android": "https://dc.lft.to/lastmile_qr_scan"}, "type": "electric_scooter", "name": "0eee9c74632d7a43bc8e0833168f1bcd", "is_reserved": 0, "lon": -76.9698425, "is_disabled": 0, "fusion_lat": 0.0, "lat": 38.87403883333333, "bike_id": "0eee9c74632d7a43bc8e0833168f1bcd", "fusion_lon": 0.0}, {"rental_uris": {"ios": "https://dc.lft.to/lastmile_qr_scan", "android": "https://dc.lft.to/lastmile_qr_scan"}, "type": "electric_scooter", "name": "157984db11559989cf1bdc7a49722646", "is_reserved": 0, "lon": -77.03083866666667, "is_disabled": 0, "fusion_lat": 0.0, "lat": 38.93166316666667, "bike_id": "157984db11559989cf1bdc7a49722646", "fusion_lon": 0.0}, {"rental_uris": {"ios": "https://dc.lft.to/lastmile_qr_scan", "android": "https://dc.lft.to/lastmile_qr_scan"}, "type": "electric_scooter", "name": "2627398df22337c7da2305e05575c837", "is_reserved": 0, "lon": -76.96155066666667, "is_disabled": 0, "fusion_lat": 0.0, "lat": 38.883599333333336, "bike_id": "2627398df22337c7da2305e05575c837", "fusion_lon": 0.0}, {"rental_uris": {"ios": "https://dc.lft.to/lastmile_qr_scan", "android": "https://dc.lft.to/lastmile_qr_scan"}, "type": "electric_scooter", "name": "c4bffb4b23c0aa5dc1222eb852a555a7", "is_reserved": 0, "lon": -77.04389516666667, "is_disabled": 0, "fusion_lat": 0.0, "lat": 38.91656166666667, "bike_id": "c4bffb4b23c0aa5dc1222eb852a555a7", "fusion_lon": 0.0}, {"rental_uris": {"ios": "https://dc.lft.to/lastmile_qr_scan", "android": "https://dc.lft.to/lastmile_qr_scan"}, "type": "electric_scooter", "name": "27443844371ebf7a56d9bbe34f3bd0fb", "is_reserved": 0, "lon": -76.97801583333333, "is_disabled": 0, "fusion_lat": 0.0, "lat": 38.903084, "bike_id": "27443844371ebf7a56d9bbe34f3bd0fb", "fusion_lon": 0.0}, {"rental_uris": {"ios": "https://dc.lft.to/lastmile_qr_scan", "android": "https://dc.lft.to/lastmile_qr_scan"}, "type": "electric_scooter", "name": "cadbef4b2771f46008c1ed051184971a", "is_reserved": 0, "lon": -77.0244325, "is_disabled": 0, "fusion_lat": 0.0, "lat": 38.9232405, "bike_id": "cadbef4b2771f46008c1ed051184971a", "fusion_lon": 0.0}, {"rental_uris": {"ios": "https://dc.lft.to/lastmile_qr_scan", "android": "https://dc.lft.to/lastmile_qr_scan"}, "type": "electric_scooter", "name": "247dcf7bd8f7b7bdb871b7d913985116", "is_reserved": 0, "lon": -77.03182116666666, "is_disabled": 0, "fusion_lat": 0.0, "lat": 38.909477333333335, "bike_id": "247dcf7bd8f7b7bdb871b7d913985116", "fusion_lon": 0.0}, {"rental_uris": {"ios": "https://dc.lft.to/lastmile_qr_scan", "android": "https://dc.lft.to/lastmile_qr_scan"}, "type": "electric_scooter", "name": "4be2ad1d5be1c4f02d6d48be05363223", "is_reserved": 0, "lon": -76.9798385, "is_disabled": 0, "fusion_lat": 0.0, "lat": 38.897374166666665, "bike_id": "4be2ad1d5be1c4f02d6d48be05363223", "fusion_lon": 0.0}, {"rental_uris": {"ios": "https://dc.lft.to/lastmile_qr_scan", "android": "https://dc.lft.to/lastmile_qr_scan"}, "type": "electric_scooter", "name": "2c6edc5db797e3d1e9efe6aecd49afbd", "is_reserved": 0, "lon": -77.036568, "is_disabled": 0, "fusion_lat": 0.0, "lat": 38.91331916666667, "bike_id": "2c6edc5db797e3d1e9efe6aecd49afbd", "fusion_lon": 0.0}, {"rental_uris": {"ios": "https://dc.lft.to/lastmile_qr_scan", "android": "https://dc.lft.to/lastmile_qr_scan"}, "type": "electric_bike", "name": "4ad0e2961bf67873da15acdad2d15252", "is_reserved": 0, "lon": -76.907397, "is_disabled": 0, "fusion_lat": 0.0, "lat": 38.896205333333334, "bike_id": "4ad0e2961bf67873da15acdad2d15252", "fusion_lon": 0.0}, {"rental_uris": {"ios": "https://dc.lft.to/lastmile_qr_scan", "android": "https://dc.lft.to/lastmile_qr_scan"}, "type": "electric_scooter", "name": "529b1556ad133f6b92a64d0192fb611d", "is_reserved": 0, "lon": -77.032527, "is_disabled": 0, "fusion_lat": 0.0, "lat": 38.8994585, "bike_id": "529b1556ad133f6b92a64d0192fb611d", "fusion_lon": 0.0}, {"rental_uris": {"ios": "https://dc.lft.to/lastmile_qr_scan", "android": "https://dc.lft.to/lastmile_qr_scan"}, "type": "electric_scooter", "name": "a05545ff295b62517c4a6d536951a68d", "is_reserved": 0, "lon": -77.045681, "is_disabled": 0, "fusion_lat": 0.0, "lat": 38.914065, "bike_id": "a05545ff295b62517c4a6d536951a68d", "fusion_lon": 0.0}, {"rental_uris": {"ios": "https://dc.lft.to/lastmile_qr_scan", "android": "https://dc.lft.to/lastmile_qr_scan"}, "type": "electric_scooter", "name": "0cbd6f89399f7725d58b10c4d2e96144", "is_reserved": 0, "lon": -77.02708283333334, "is_disabled": 0, "fusion_lat": 0.0, "lat": 38.93579033333333, "bike_id": "0cbd6f89399f7725d58b10c4d2e96144", "fusion_lon": 0.0}, {"rental_uris": {"ios": "https://dc.lft.to/lastmile_qr_scan", "android": "https://dc.lft.to/lastmile_qr_scan"}, "type": "electric_scooter", "name": "327866f1a38144dc25973c28f2d31e23", "is_reserved": 0, "lon": -77.05795683333334, "is_disabled": 0, "fusion_lat": 0.0, "lat": 38.93479466666667, "bike_id": "327866f1a38144dc25973c28f2d31e23", "fusion_lon": 0.0}, {"rental_uris": {"ios": "https://dc.lft.to/lastmile_qr_scan", "android": "https://dc.lft.to/lastmile_qr_scan"}, "type": "electric_bike", "name": "d84ff796a5a82f8952d4861cfd344617", "is_reserved": 0, "lon": -76.99496616666667, "is_disabled": 0, "fusion_lat": 0.0, "lat": 38.86219166666667, "bike_id": "d84ff796a5a82f8952d4861cfd344617", "fusion_lon": 0.0}, {"rental_uris": {"ios": "https://dc.lft.to/lastmile_qr_scan", "android": "https://dc.lft.to/lastmile_qr_scan"}, "type": "electric_scooter", "name": "2cf72943feebcedc6c2ae93e9a5c4b6e", "is_reserved": 0, "lon": -77.02274566666667, "is_disabled": 0, "fusion_lat": 0.0, "lat": 38.92421266666667, "bike_id": "2cf72943feebcedc6c2ae93e9a5c4b6e", "fusion_lon": 0.0}, {"rental_uris": {"ios": "https://dc.lft.to/lastmile_qr_scan", "android": "https://dc.lft.to/lastmile_qr_scan"}, "type": "electric_scooter", "name": "af78ab253e171a3f397a448b573d8e61", "is_reserved": 0, "lon": -77.01623816666667, "is_disabled": 0, "fusion_lat": 0.0, "lat": 38.90659633333333, "bike_id": "af78ab253e171a3f397a448b573d8e61", "fusion_lon": 0.0}, {"rental_uris": {"ios": "https://dc.lft.to/lastmile_qr_scan", "android": "https://dc.lft.to/lastmile_qr_scan"}, "type": "electric_scooter", "name": "9603432f1d9a9eac16070ef17fc780df", "is_reserved": 0, "lon": -77.0433635, "is_disabled": 0, "fusion_lat": 0.0, "lat": 38.892245, "bike_id": "9603432f1d9a9eac16070ef17fc780df", "fusion_lon": 0.0}, {"rental_uris": {"ios": "https://dc.lft.to/lastmile_qr_scan", "android": "https://dc.lft.to/lastmile_qr_scan"}, "type": "electric_scooter", "name": "76bdfb602df52f881724c68e8995b91f", "is_reserved": 0, "lon": -77.02482566666667, "is_disabled": 0, "fusion_lat": 0.0, "lat": 38.93518383333333, "bike_id": "76bdfb602df52f881724c68e8995b91f", "fusion_lon": 0.0}, {"rental_uris": {"ios": "https://dc.lft.to/lastmile_qr_scan", "android": "https://dc.lft.to/lastmile_qr_scan"}, "type": "electric_scooter", "name": "48f48fe3a3b700dbfcb19c0177b8bf6c", "is_reserved": 0, "lon": -77.0225905, "is_disabled": 0, "fusion_lat": 0.0, "lat": 38.92821383333333, "bike_id": "48f48fe3a3b700dbfcb19c0177b8bf6c", "fusion_lon": 0.0}, {"rental_uris": {"ios": "https://dc.lft.to/lastmile_qr_scan", "android": "https://dc.lft.to/lastmile_qr_scan"}, "type": "electric_scooter", "name": "6cd818d51bcddf6caaa6dc533e748d46", "is_reserved": 0, "lon": -77.00746366666667, "is_disabled": 0, "fusion_lat": 0.0, "lat": 38.91105483333333, "bike_id": "6cd818d51bcddf6caaa6dc533e748d46", "fusion_lon": 0.0}, {"rental_uris": {"ios": "https://dc.lft.to/lastmile_qr_scan", "android": "https://dc.lft.to/lastmile_qr_scan"}, "type": "electric_scooter", "name": "0fc283c7202a694af20e78242ddd4762", "is_reserved": 0, "lon": -77.0344615, "is_disabled": 0, "fusion_lat": 0.0, "lat": 38.90568566666666, "bike_id": "0fc283c7202a694af20e78242ddd4762", "fusion_lon": 0.0}, {"rental_uris": {"ios": "https://dc.lft.to/lastmile_qr_scan", "android": "https://dc.lft.to/lastmile_qr_scan"}, "type": "electric_scooter", "name": "98297c95d80db839aa25250503286e11", "is_reserved": 0, "lon": -77.0402035, "is_disabled": 0, "fusion_lat": 0.0, "lat": 38.92158083333333, "bike_id": "98297c95d80db839aa25250503286e11", "fusion_lon": 0.0}, {"rental_uris": {"ios": "https://dc.lft.to/lastmile_qr_scan", "android": "https://dc.lft.to/lastmile_qr_scan"}, "type": "electric_scooter", "name": "bfd594a52fb245a6758fb3aa619491e9", "is_reserved": 0, "lon": -77.02612466666666, "is_disabled": 0, "fusion_lat": 0.0, "lat": 38.8842915, "bike_id": "bfd594a52fb245a6758fb3aa619491e9", "fusion_lon": 0.0}, {"rental_uris": {"ios": "https://dc.lft.to/lastmile_qr_scan", "android": "https://dc.lft.to/lastmile_qr_scan"}, "type": "electric_bike", "name": "95c57c12b572c71ffdd4c53583a3c47a", "is_reserved": 0, "lon": -76.98022616666667, "is_disabled": 0, "fusion_lat": 0.0, "lat": 38.853098833333334, "bike_id": "95c57c12b572c71ffdd4c53583a3c47a", "fusion_lon": 0.0}, {"rental_uris": {"ios": "https://dc.lft.to/lastmile_qr_scan", "android": "https://dc.lft.to/lastmile_qr_scan"}, "type": "electric_scooter", "name": "bf63faba03e171de76cc861f0ae641c8", "is_reserved": 0, "lon": -77.04082866666667, "is_disabled": 0, "fusion_lat": 0.0, "lat": 38.94788583333333, "bike_id": "bf63faba03e171de76cc861f0ae641c8", "fusion_lon": 0.0}, {"rental_uris": {"ios": "https://dc.lft.to/lastmile_qr_scan", "android": "https://dc.lft.to/lastmile_qr_scan"}, "type": "electric_scooter", "name": "9053c7e058edee71c0e776e4d03cd11e", "is_reserved": 0, "lon": -77.03398866666667, "is_disabled": 0, "fusion_lat": 0.0, "lat": 38.924035833333335, "bike_id": "9053c7e058edee71c0e776e4d03cd11e", "fusion_lon": 0.0}, {"rental_uris": {"ios": "https://dc.lft.to/lastmile_qr_scan", "android": "https://dc.lft.to/lastmile_qr_scan"}, "type": "electric_scooter", "name": "94777ce758cb0cab52e24b892617d03e", "is_reserved": 0, "lon": -77.043703, "is_disabled": 0, "fusion_lat": 0.0, "lat": 38.8973045, "bike_id": "94777ce758cb0cab52e24b892617d03e", "fusion_lon": 0.0}, {"rental_uris": {"ios": "https://dc.lft.to/lastmile_qr_scan", "android": "https://dc.lft.to/lastmile_qr_scan"}, "type": "electric_scooter", "name": "8b664a828c1ebb58f3539f1cc341fc8a", "is_reserved": 0, "lon": -77.0243475, "is_disabled": 0, "fusion_lat": 0.0, "lat": 38.920546, "bike_id": "8b664a828c1ebb58f3539f1cc341fc8a", "fusion_lon": 0.0}, {"rental_uris": {"ios": "https://dc.lft.to/lastmile_qr_scan", "android": "https://dc.lft.to/lastmile_qr_scan"}, "type": "electric_scooter", "name": "477f61ff3428ab748f34e76e3c32f86f", "is_reserved": 0, "lon": -77.025746, "is_disabled": 0, "fusion_lat": 0.0, "lat": 38.88743483333333, "bike_id": "477f61ff3428ab748f34e76e3c32f86f", "fusion_lon": 0.0}, {"rental_uris": {"ios": "https://dc.lft.to/lastmile_qr_scan", "android": "https://dc.lft.to/lastmile_qr_scan"}, "type": "electric_scooter", "name": "afedc56fca2367eed4d61ee0d8db71f2", "is_reserved": 0, "lon": -77.02505466666666, "is_disabled": 0, "fusion_lat": 0.0, "lat": 38.94216133333333, "bike_id": "afedc56fca2367eed4d61ee0d8db71f2", "fusion_lon": 0.0}, {"rental_uris": {"ios": "https://dc.lft.to/lastmile_qr_scan", "android": "https://dc.lft.to/lastmile_qr_scan"}, "type": "electric_bike", "name": "64ab79136a42188770c9e9239e4627a2", "is_reserved": 0, "lon": -77.00725316666667, "is_disabled": 0, "fusion_lat": 0.0, "lat": 38.832449, "bike_id": "64ab79136a42188770c9e9239e4627a2", "fusion_lon": 0.0}, {"rental_uris": {"ios": "https://dc.lft.to/lastmile_qr_scan", "android": "https://dc.lft.to/lastmile_qr_scan"}, "type": "electric_scooter", "name": "f98045341a4be04b00e30e5a280c9854", "is_reserved": 0, "lon": -76.9831425, "is_disabled": 0, "fusion_lat": 0.0, "lat": 38.92588966666667, "bike_id": "f98045341a4be04b00e30e5a280c9854", "fusion_lon": 0.0}, {"rental_uris": {"ios": "https://dc.lft.to/lastmile_qr_scan", "android": "https://dc.lft.to/lastmile_qr_scan"}, "type": "electric_scooter", "name": "8c004ace95ed5e91aa052ce4dc6ff05d", "is_reserved": 0, "lon": -77.03657916666667, "is_disabled": 0, "fusion_lat": 0.0, "lat": 38.917252500000004, "bike_id": "8c004ace95ed5e91aa052ce4dc6ff05d", "fusion_lon": 0.0}, {"rental_uris": {"ios": "https://dc.lft.to/lastmile_qr_scan", "android": "https://dc.lft.to/lastmile_qr_scan"}, "type": "electric_scooter", "name": "5ed32302bf875dfc5fcdeea26e446828", "is_reserved": 0, "lon": -77.0261255, "is_disabled": 0, "fusion_lat": 0.0, "lat": 38.9518335, "bike_id": "5ed32302bf875dfc5fcdeea26e446828", "fusion_lon": 0.0}, {"rental_uris": {"ios": "https://dc.lft.to/lastmile_qr_scan", "android": "https://dc.lft.to/lastmile_qr_scan"}, "type": "electric_scooter", "name": "960591ca0f1a01cd8387892dfb4750df", "is_reserved": 0, "lon": -77.03956583333333, "is_disabled": 0, "fusion_lat": 0.0, "lat": 38.892447833333335, "bike_id": "960591ca0f1a01cd8387892dfb4750df", "fusion_lon": 0.0}, {"rental_uris": {"ios": "https://dc.lft.to/lastmile_qr_scan", "android": "https://dc.lft.to/lastmile_qr_scan"}, "type": "electric_scooter", "name": "9aa9abfee0b6a36cd6c633c40880d137", "is_reserved": 0, "lon": -77.01761733333333, "is_disabled": 0, "fusion_lat": 0.0, "lat": 38.902703, "bike_id": "9aa9abfee0b6a36cd6c633c40880d137", "fusion_lon": 0.0}, {"rental_uris": {"ios": "https://dc.lft.to/lastmile_qr_scan", "android": "https://dc.lft.to/lastmile_qr_scan"}, "type": "electric_scooter", "name": "8103eb1150ec87caa77504ff0f022f6b", "is_reserved": 0, "lon": -77.03974566666666, "is_disabled": 0, "fusion_lat": 0.0, "lat": 38.9027585, "bike_id": "8103eb1150ec87caa77504ff0f022f6b", "fusion_lon": 0.0}, {"rental_uris": {"ios": "https://dc.lft.to/lastmile_qr_scan", "android": "https://dc.lft.to/lastmile_qr_scan"}, "type": "electric_scooter", "name": "764b6482cccf67d74715b8361a561649", "is_reserved": 0, "lon": -76.99229933333334, "is_disabled": 0, "fusion_lat": 0.0, "lat": 38.887534333333335, "bike_id": "764b6482cccf67d74715b8361a561649", "fusion_lon": 0.0}, {"rental_uris": {"ios": "https://dc.lft.to/lastmile_qr_scan", "android": "https://dc.lft.to/lastmile_qr_scan"}, "type": "electric_scooter", "name": "c01a2a4459126bf8d7b4620556ade06c", "is_reserved": 0, "lon": -77.02181633333333, "is_disabled": 0, "fusion_lat": 0.0, "lat": 38.91008466666667, "bike_id": "c01a2a4459126bf8d7b4620556ade06c", "fusion_lon": 0.0}, {"rental_uris": {"ios": "https://dc.lft.to/lastmile_qr_scan", "android": "https://dc.lft.to/lastmile_qr_scan"}, "type": "electric_scooter", "name": "6c7010ff7d5168724f911ca07c5c2eac", "is_reserved": 0, "lon": -77.0335355, "is_disabled": 0, "fusion_lat": 0.0, "lat": 38.92886133333333, "bike_id": "6c7010ff7d5168724f911ca07c5c2eac", "fusion_lon": 0.0}, {"rental_uris": {"ios": "https://dc.lft.to/lastmile_qr_scan", "android": "https://dc.lft.to/lastmile_qr_scan"}, "type": "electric_scooter", "name": "ce168a27a32c33fe9c5554d542a1ac25", "is_reserved": 0, "lon": -77.00832966666667, "is_disabled": 0, "fusion_lat": 0.0, "lat": 38.9136775, "bike_id": "ce168a27a32c33fe9c5554d542a1ac25", "fusion_lon": 0.0}, {"rental_uris": {"ios": "https://dc.lft.to/lastmile_qr_scan", "android": "https://dc.lft.to/lastmile_qr_scan"}, "type": "electric_scooter", "name": "dc398672d9291782da9db83eb73ff506", "is_reserved": 0, "lon": -77.031799, "is_disabled": 0, "fusion_lat": 0.0, "lat": 38.88735583333333, "bike_id": "dc398672d9291782da9db83eb73ff506", "fusion_lon": 0.0}, {"rental_uris": {"ios": "https://dc.lft.to/lastmile_qr_scan", "android": "https://dc.lft.to/lastmile_qr_scan"}, "type": "electric_scooter", "name": "811e1e36878f8a2f9aa0bdd2d2f333fc", "is_reserved": 0, "lon": -77.0247025, "is_disabled": 0, "fusion_lat": 0.0, "lat": 38.93955616666667, "bike_id": "811e1e36878f8a2f9aa0bdd2d2f333fc", "fusion_lon": 0.0}, {"rental_uris": {"ios": "https://dc.lft.to/lastmile_qr_scan", "android": "https://dc.lft.to/lastmile_qr_scan"}, "type": "electric_scooter", "name": "e4c62dc93e94597474575e9d917eef19", "is_reserved": 0, "lon": -76.9795595, "is_disabled": 0, "fusion_lat": 0.0, "lat": 38.89617466666667, "bike_id": "e4c62dc93e94597474575e9d917eef19", "fusion_lon": 0.0}, {"rental_uris": {"ios": "https://dc.lft.to/lastmile_qr_scan", "android": "https://dc.lft.to/lastmile_qr_scan"}, "type": "electric_scooter", "name": "44634e20376c8e0ef26f8fb51614923d", "is_reserved": 0, "lon": -77.00772666666667, "is_disabled": 0, "fusion_lat": 0.0, "lat": 38.907392333333334, "bike_id": "44634e20376c8e0ef26f8fb51614923d", "fusion_lon": 0.0}, {"rental_uris": {"ios": "https://dc.lft.to/lastmile_qr_scan", "android": "https://dc.lft.to/lastmile_qr_scan"}, "type": "electric_scooter", "name": "9dc20e8b818aba0edcd345db3ac92f99", "is_reserved": 0, "lon": -76.99841166666667, "is_disabled": 0, "fusion_lat": 0.0, "lat": 38.891899333333335, "bike_id": "9dc20e8b818aba0edcd345db3ac92f99", "fusion_lon": 0.0}, {"rental_uris": {"ios": "https://dc.lft.to/lastmile_qr_scan", "android": "https://dc.lft.to/lastmile_qr_scan"}, "type": "electric_scooter", "name": "416e623e5df3eb7f3db8c59cc354056b", "is_reserved": 0, "lon": -77.05617783333334, "is_disabled": 0, "fusion_lat": 0.0, "lat": 38.906893, "bike_id": "416e623e5df3eb7f3db8c59cc354056b", "fusion_lon": 0.0}, {"rental_uris": {"ios": "https://dc.lft.to/lastmile_qr_scan", "android": "https://dc.lft.to/lastmile_qr_scan"}, "type": "electric_bike", "name": "e1c8553d717ad21d857244ad35cef606", "is_reserved": 0, "lon": -76.90732783333333, "is_disabled": 0, "fusion_lat": 0.0, "lat": 38.896187166666664, "bike_id": "e1c8553d717ad21d857244ad35cef606", "fusion_lon": 0.0}, {"rental_uris": {"ios": "https://dc.lft.to/lastmile_qr_scan", "android": "https://dc.lft.to/lastmile_qr_scan"}, "type": "electric_scooter", "name": "95754659d036323d5cc278836720a887", "is_reserved": 0, "lon": -77.0350165, "is_disabled": 0, "fusion_lat": 0.0, "lat": 38.934625, "bike_id": "95754659d036323d5cc278836720a887", "fusion_lon": 0.0}, {"rental_uris": {"ios": "https://dc.lft.to/lastmile_qr_scan", "android": "https://dc.lft.to/lastmile_qr_scan"}, "type": "electric_bike", "name": "49c0bbf8127881334649992afa3f6adc", "is_reserved": 0, "lon": -77.00130783333333, "is_disabled": 0, "fusion_lat": 0.0, "lat": 38.995018333333334, "bike_id": "49c0bbf8127881334649992afa3f6adc", "fusion_lon": 0.0}, {"rental_uris": {"ios": "https://dc.lft.to/lastmile_qr_scan", "android": "https://dc.lft.to/lastmile_qr_scan"}, "type": "electric_scooter", "name": "556408330f189dbbb56f5fee65716531", "is_reserved": 0, "lon": -76.9756875, "is_disabled": 0, "fusion_lat": 0.0, "lat": 38.9442645, "bike_id": "556408330f189dbbb56f5fee65716531", "fusion_lon": 0.0}, {"rental_uris": {"ios": "https://dc.lft.to/lastmile_qr_scan", "android": "https://dc.lft.to/lastmile_qr_scan"}, "type": "electric_bike", "name": "cb69270389ecb9e75dcd6eb891c2104e", "is_reserved": 0, "lon": -76.957955, "is_disabled": 0, "fusion_lat": 0.0, "lat": 38.98046933333333, "bike_id": "cb69270389ecb9e75dcd6eb891c2104e", "fusion_lon": 0.0}, {"rental_uris": {"ios": "https://dc.lft.to/lastmile_qr_scan", "android": "https://dc.lft.to/lastmile_qr_scan"}, "type": "electric_scooter", "name": "6406f7d98a7e24dd52beb3ef557b524b", "is_reserved": 0, "lon": -76.997912, "is_disabled": 0, "fusion_lat": 0.0, "lat": 38.876322, "bike_id": "6406f7d98a7e24dd52beb3ef557b524b", "fusion_lon": 0.0}, {"rental_uris": {"ios": "https://dc.lft.to/lastmile_qr_scan", "android": "https://dc.lft.to/lastmile_qr_scan"}, "type": "electric_scooter", "name": "18ca69fc25fa5ba14f8abe439ff226a2", "is_reserved": 0, "lon": -77.02500783333333, "is_disabled": 0, "fusion_lat": 0.0, "lat": 38.92079283333333, "bike_id": "18ca69fc25fa5ba14f8abe439ff226a2", "fusion_lon": 0.0}, {"rental_uris": {"ios": "https://dc.lft.to/lastmile_qr_scan", "android": "https://dc.lft.to/lastmile_qr_scan"}, "type": "electric_scooter", "name": "2357f810a5550dbd62b00628d6b8508d", "is_reserved": 0, "lon": -77.032207, "is_disabled": 0, "fusion_lat": 0.0, "lat": 38.908683333333336, "bike_id": "2357f810a5550dbd62b00628d6b8508d", "fusion_lon": 0.0}, {"rental_uris": {"ios": "https://dc.lft.to/lastmile_qr_scan", "android": "https://dc.lft.to/lastmile_qr_scan"}, "type": "electric_scooter", "name": "58051f16c014ca7e7f1e8907573148b9", "is_reserved": 0, "lon": -77.07761766666667, "is_disabled": 0, "fusion_lat": 0.0, "lat": 38.9255975, "bike_id": "58051f16c014ca7e7f1e8907573148b9", "fusion_lon": 0.0}, {"rental_uris": {"ios": "https://dc.lft.to/lastmile_qr_scan", "android": "https://dc.lft.to/lastmile_qr_scan"},