{"data": {"bikes": [{"lon": -77.02793733333333, "bike_id": "9f1d3f22bf8661134b09fac88b6cf0f8", "lat": 38.95686, "fusion_lon": 0.0, "fusion_lat": 0.0, "type": "electric_scooter", "name": "9f1d3f22bf8661134b09fac88b6cf0f8", "is_disabled": 0, "rental_uris": {"ios": "https://dc.lft.to/lastmile_qr_scan", "android": "https://dc.lft.to/lastmile_qr_scan"}, "is_reserved": 0}, {"lon": -77.0029255, "bike_id": "dcc07ce7ead8e634857882c77c20a00a", "lat": 38.90737633333333, "fusion_lon": 0.0, "fusion_lat": 0.0, "type": "electric_bike", "name": "dcc07ce7ead8e634857882c77c20a00a", "is_disabled": 0, "rental_uris": {"ios": "https://dc.lft.to/lastmile_qr_scan", "android": "https://dc.lft.to/lastmile_qr_scan"}, "is_reserved": 0}, {"lon": -77.0257115, "bike_id": "6e8ced623986870a8400dfaf4fc3b665", "lat": 38.92573766666667, "fusion_lon": 0.0, "fusion_lat": 0.0, "type": "electric_scooter", "name": "6e8ced623986870a8400dfaf4fc3b665", "is_disabled": 0, "rental_uris": {"ios": "https://dc.lft.to/lastmile_qr_scan", "android": "https://dc.lft.to/lastmile_qr_scan"}, "is_reserved": 0}, {"lon": -77.05234783333333, "bike_id": "c04e4b61d8214ca92ea46f0f3dd86131", "lat": 38.924683, "fusion_lon": 0.0, "fusion_lat": 0.0, "type": "electric_scooter", "name": "c04e4b61d8214ca92ea46f0f3dd86131", "is_disabled": 0, "rental_uris": {"ios": "https://dc.lft.to/lastmile_qr_scan", "android": "https://dc.lft.to/lastmile_qr_scan"}, "is_reserved": 0}, {"lon": -77.02266133333333, "bike_id": "b1cc1afbbdf71d0200ba10fabccaa1b3", "lat": 38.937679833333334, "fusion_lon": 0.0, "fusion_lat": 0.0, "type": "electric_scooter", "name": "b1cc1afbbdf71d0200ba10fabccaa1b3", "is_disabled": 0, "rental_uris": {"ios": "https://dc.lft.to/lastmile_qr_scan", "android": "https://dc.lft.to/lastmile_qr_scan"}, "is_reserved": 0}, {"lon": -77.045773, "bike_id": "e67fd2d8f14b89a332909cc95be0f276", "lat": 38.9213565, "fusion_lon": 0.0, "fusion_lat": 0.0, "type": "electric_scooter", "name": "e67fd2d8f14b89a332909cc95be0f276", "is_disabled": 0, "rental_uris": {"ios": "https://dc.lft.to/lastmile_qr_scan", "android": "https://dc.lft.to/lastmile_qr_scan"}, "is_reserved": 0}, {"lon": -77.050188, "bike_id": "0ee053c28fdf4f2b097d8b62485e3840", "lat": 38.89690216666666, "fusion_lon": 0.0, "fusion_lat": 0.0, "type": "electric_scooter", "name": "0ee053c28fdf4f2b097d8b62485e3840", "is_disabled": 0, "rental_uris": {"ios": "https://dc.lft.to/lastmile_qr_scan", "android": "https://dc.lft.to/lastmile_qr_scan"}, "is_reserved": 0}, {"lon": -77.04246866666666, "bike_id": "fd3a84fd8afe4771d337a131626833d3", "lat": 38.926423166666666, "fusion_lon": 0.0, "fusion_lat": 0.0, "type": "electric_scooter", "name": "fd3a84fd8afe4771d337a131626833d3", "is_disabled": 0, "rental_uris": {"ios": "https://dc.lft.to/lastmile_qr_scan", "android": "https://dc.lft.to/lastmile_qr_scan"}, "is_reserved": 0}, {"lon": -77.041905, "bike_id": "249c894151bdbab3bd7d11c8009570c5", "lat": 38.920543, "fusion_lon": 0.0, "fusion_lat": 0.0, "type": "electric_scooter", "name": "249c894151bdbab3bd7d11c8009570c5", "is_disabled": 0, "rental_uris": {"ios": "https://dc.lft.to/lastmile_qr_scan", "android": "https://dc.lft.to/lastmile_qr_scan"}, "is_reserved": 0}, {"lon": -77.05236516666666, "bike_id": "0d3bd1758d35d77ad092ea9ddeaa4e0d", "lat": 38.924678166666666, "fusion_lon": 0.0, "fusion_lat": 0.0, "type": "electric_scooter", "name": "0d3bd1758d35d77ad092ea9ddeaa4e0d", "is_disabled": 0, "rental_uris": {"ios": "https://dc.lft.to/lastmile_qr_scan", "android": "https://dc.lft.to/lastmile_qr_scan"}, "is_reserved": 0}, {"lon": -77.04399983333333, "bike_id": "5c8e2583003144c1d5950d87d836c72f", "lat": 38.933249, "fusion_lon": 0.0, "fusion_lat": 0.0, "type": "electric_scooter", "name": "5c8e2583003144c1d5950d87d836c72f", "is_disabled": 0, "rental_uris": {"ios": "https://dc.lft.to/lastmile_qr_scan", "android": "https://dc.lft.to/lastmile_qr_scan"}, "is_reserved": 0}, {"lon": -77.027356, "bike_id": "fcfa3639b497e45e2a66584d7d6690fd", "lat": 38.9320795, "fusion_lon": 0.0, "fusion_lat": 0.0, "type": "electric_scooter", "name": "fcfa3639b497e45e2a66584d7d6690fd", "is_disabled": 0, "rental_uris": {"ios": "https://dc.lft.to/lastmile_qr_scan", "android": "https://dc.lft.to/lastmile_qr_scan"}, "is_reserved": 0}, {"lon": -77.01475833333333, "bike_id": "6bd5c84d44f7e6fc95050697677aa84e", "lat": 38.917698, "fusion_lon": 0.0, "fusion_lat": 0.0, "type": "electric_scooter", "name": "6bd5c84d44f7e6fc95050697677aa84e", "is_disabled": 0, "rental_uris": {"ios": "https://dc.lft.to/lastmile_qr_scan", "android": "https://dc.lft.to/lastmile_qr_scan"}, "is_reserved": 0}, {"lon": -77.010919, "bike_id": "06efc1d79b1ec0a8edd90cc11e12c3df", "lat": 38.915584833333334, "fusion_lon": 0.0, "fusion_lat": 0.0, "type": "electric_scooter", "name": "06efc1d79b1ec0a8edd90cc11e12c3df", "is_disabled": 0, "rental_uris": {"ios": "https://dc.lft.to/lastmile_qr_scan", "android": "https://dc.lft.to/lastmile_qr_scan"}, "is_reserved": 0}, {"lon": -77.05262033333334, "bike_id": "698e02de4ce8c24f6bfa979b808d8d68", "lat": 38.91013733333333, "fusion_lon": 0.0, "fusion_lat": 0.0, "type": "electric_scooter", "name": "698e02de4ce8c24f6bfa979b808d8d68", "is_disabled": 0, "rental_uris": {"ios": "https://dc.lft.to/lastmile_qr_scan", "android": "https://dc.lft.to/lastmile_qr_scan"}, "is_reserved": 0}, {"lon": -77.027996, "bike_id": "ddc5628d0812f2d32bf4c1075cd2220b", "lat": 38.920246, "fusion_lon": 0.0, "fusion_lat": 0.0, "type": "electric_scooter", "name": "ddc5628d0812f2d32bf4c1075cd2220b", "is_disabled": 0, "rental_uris": {"ios": "https://dc.lft.to/lastmile_qr_scan", "android": "https://dc.lft.to/lastmile_qr_scan"}, "is_reserved": 0}, {"lon": -77.06493416666666, "bike_id": "89c51a3bfb3cdf30ed338193930a601c", "lat": 38.929076333333335, "fusion_lon": 0.0, "fusion_lat": 0.0, "type": "electric_scooter", "name": "89c51a3bfb3cdf30ed338193930a601c", "is_disabled": 0, "rental_uris": {"ios": "https://dc.lft.to/lastmile_qr_scan", "android": "https://dc.lft.to/lastmile_qr_scan"}, "is_reserved": 0}, {"lon": -76.990386, "bike_id": "9ed2b416d3af72314f4282de8fea9049", "lat": 38.8875695, "fusion_lon": 0.0, "fusion_lat": 0.0, "type": "electric_scooter", "name": "9ed2b416d3af72314f4282de8fea9049", "is_disabled": 0, "rental_uris": {"ios": "https://dc.lft.to/lastmile_qr_scan", "android": "https://dc.lft.to/lastmile_qr_scan"}, "is_reserved": 0}, {"lon": -77.00885283333334, "bike_id": "0222af20b871306fa2ba8b5e0f8b60e0", "lat": 38.91713683333333, "fusion_lon": 0.0, "fusion_lat": 0.0, "type": "electric_scooter", "name": "0222af20b871306fa2ba8b5e0f8b60e0", "is_disabled": 0, "rental_uris": {"ios": "https://dc.lft.to/lastmile_qr_scan", "android": "https://dc.lft.to/lastmile_qr_scan"}, "is_reserved": 0}, {"lon": -77.03556183333333, "bike_id": "fc074142ab4df4a9270e9c056cbc877f", "lat": 38.927463, "fusion_lon": 0.0, "fusion_lat": 0.0, "type": "electric_scooter", "name": "fc074142ab4df4a9270e9c056cbc877f", "is_disabled": 0, "rental_uris": {"ios": "https://dc.lft.to/lastmile_qr_scan", "android": "https://dc.lft.to/lastmile_qr_scan"}, "is_reserved": 0}, {"lon": -76.99033416666667, "bike_id": "bcf723f8a9d8dd32dd5236f39ff584e5", "lat": 38.8985245, "fusion_lon": 0.0, "fusion_lat": 0.0, "type": "electric_scooter", "name": "bcf723f8a9d8dd32dd5236f39ff584e5", "is_disabled": 0, "rental_uris": {"ios": "https://dc.lft.to/lastmile_qr_scan", "android": "https://dc.lft.to/lastmile_qr_scan"}, "is_reserved": 0}, {"lon": -77.02176033333333, "bike_id": "762ba1611d2ab442a447cce2644d4ec2", "lat": 38.909455333333334, "fusion_lon": 0.0, "fusion_lat": 0.0, "type": "electric_scooter", "name": "762ba1611d2ab442a447cce2644d4ec2", "is_disabled": 0, "rental_uris": {"ios": "https://dc.lft.to/lastmile_qr_scan", "android": "https://dc.lft.to/lastmile_qr_scan"}, "is_reserved": 0}, {"lon": -77.03393983333333, "bike_id": "647c9c310610a6e310b50887a846d59b", "lat": 38.93119383333333, "fusion_lon": 0.0, "fusion_lat": 0.0, "type": "electric_scooter", "name": "647c9c310610a6e310b50887a846d59b", "is_disabled": 0, "rental_uris": {"ios": "https://dc.lft.to/lastmile_qr_scan", "android": "https://dc.lft.to/lastmile_qr_scan"}, "is_reserved": 0}, {"lon": -77.04799183333333, "bike_id": "df5184fc27fea5251d80172763ea8bb0", "lat": 38.9140455, "fusion_lon": 0.0, "fusion_lat": 0.0, "type": "electric_scooter", "name": "df5184fc27fea5251d80172763ea8bb0", "is_disabled": 0, "rental_uris": {"ios": "https://dc.lft.to/lastmile_qr_scan", "android": "https://dc.lft.to/lastmile_qr_scan"}, "is_reserved": 0}, {"lon": -77.0057355, "bike_id": "849b8b3b6b7227fa95c0b09e55052c00", "lat": 38.90553716666667, "fusion_lon": 0.0, "fusion_lat": 0.0, "type": "electric_scooter", "name": "849b8b3b6b7227fa95c0b09e55052c00", "is_disabled": 0, "rental_uris": {"ios": "https://dc.lft.to/lastmile_qr_scan", "android": "https://dc.lft.to/lastmile_qr_scan"}, "is_reserved": 0}, {"lon": -77.01933333333334, "bike_id": "028397d687fcefd55db3e3c63679ff09", "lat": 38.87744083333333, "fusion_lon": 0.0, "fusion_lat": 0.0, "type": "electric_scooter", "name": "028397d687fcefd55db3e3c63679ff09", "is_disabled": 0, "rental_uris": {"ios": "https://dc.lft.to/lastmile_qr_scan", "android": "https://dc.lft.to/lastmile_qr_scan"}, "is_reserved": 0}, {"lon": -77.03862833333334, "bike_id": "b20f5b25163440f073bad5e9567bda77", "lat": 38.91557983333333, "fusion_lon": 0.0, "fusion_lat": 0.0, "type": "electric_scooter", "name": "b20f5b25163440f073bad5e9567bda77", "is_disabled": 0, "rental_uris": {"ios": "https://dc.lft.to/lastmile_qr_scan", "android": "https://dc.lft.to/lastmile_qr_scan"}, "is_reserved": 0}, {"lon": -76.98237216666666, "bike_id": "c7dc6be65e078c6f2b9ff6cb433bbba0", "lat": 38.888642833333336, "fusion_lon": 0.0, "fusion_lat": 0.0, "type": "electric_scooter", "name": "c7dc6be65e078c6f2b9ff6cb433bbba0", "is_disabled": 0, "rental_uris": {"ios": "https://dc.lft.to/lastmile_qr_scan", "android": "https://dc.lft.to/lastmile_qr_scan"}, "is_reserved": 0}, {"lon": -77.026691, "bike_id": "18ddcda8fd044c3fdd92610b26000e7a", "lat": 38.971896666666666, "fusion_lon": 0.0, "fusion_lat": 0.0, "type": "electric_scooter", "name": "18ddcda8fd044c3fdd92610b26000e7a", "is_disabled": 0, "rental_uris": {"ios": "https://dc.lft.to/lastmile_qr_scan", "android": "https://dc.lft.to/lastmile_qr_scan"}, "is_reserved": 0}, {"lon": -77.033629, "bike_id": "d8343710d3a5a226d439821e3de2ed8f", "lat": 38.923582333333336, "fusion_lon": 0.0, "fusion_lat": 0.0, "type": "electric_scooter", "name": "d8343710d3a5a226d439821e3de2ed8f", "is_disabled": 0, "rental_uris": {"ios": "https://dc.lft.to/lastmile_qr_scan", "android": "https://dc.lft.to/lastmile_qr_scan"}, "is_reserved": 0}, {"lon": -77.004483, "bike_id": "c8e833d7433319dd5e4d0bd66f334f44", "lat": 38.9176075, "fusion_lon": 0.0, "fusion_lat": 0.0, "type": "electric_scooter", "name": "c8e833d7433319dd5e4d0bd66f334f44", "is_disabled": 0, "rental_uris": {"ios": "https://dc.lft.to/lastmile_qr_scan", "android": "https://dc.lft.to/lastmile_qr_scan"}, "is_reserved": 0}, {"lon": -77.00576466666666, "bike_id": "dadf73a49df007ae4c43586a2a18dce8", "lat": 38.905485166666665, "fusion_lon": 0.0, "fusion_lat": 0.0, "type": "electric_scooter", "name": "dadf73a49df007ae4c43586a2a18dce8", "is_disabled": 0, "rental_uris": {"ios": "https://dc.lft.to/lastmile_qr_scan", "android": "https://dc.lft.to/lastmile_qr_scan"}, "is_reserved": 0}, {"lon": -77.03467216666667, "bike_id": "f12df569eb17ff423fbb413a60075da5", "lat": 38.926460166666665, "fusion_lon": 0.0, "fusion_lat": 0.0, "type": "electric_scooter", "name": "f12df569eb17ff423fbb413a60075da5", "is_disabled": 0, "rental_uris": {"ios": "https://dc.lft.to/lastmile_qr_scan", "android": "https://dc.lft.to/lastmile_qr_scan"}, "is_reserved": 0}, {"lon": -77.023464, "bike_id": "53daf13944ab2c87c32d766af9afe6d2", "lat": 38.896236333333334, "fusion_lon": 0.0, "fusion_lat": 0.0, "type": "electric_scooter", "name": "53daf13944ab2c87c32d766af9afe6d2", "is_disabled": 0, "rental_uris": {"ios": "https://dc.lft.to/lastmile_qr_scan", "android": "https://dc.lft.to/lastmile_qr_scan"}, "is_reserved": 0}, {"lon": -77.0316635, "bike_id": "a33f1e127a76c67488d8368fa9c7eeb0", "lat": 38.92118466666667, "fusion_lon": 0.0, "fusion_lat": 0.0, "type": "electric_scooter", "name": "a33f1e127a76c67488d8368fa9c7eeb0", "is_disabled": 0, "rental_uris": {"ios": "https://dc.lft.to/lastmile_qr_scan", "android": "https://dc.lft.to/lastmile_qr_scan"}, "is_reserved": 0}, {"lon": -77.026934, "bike_id": "b13a39b790ad7a3f03c99b428c782c24", "lat": 38.8976405, "fusion_lon": 0.0, "fusion_lat": 0.0, "type": "electric_scooter", "name": "b13a39b790ad7a3f03c99b428c782c24", "is_disabled": 0, "rental_uris": {"ios": "https://dc.lft.to/lastmile_qr_scan", "android": "https://dc.lft.to/lastmile_qr_scan"}, "is_reserved": 0}, {"lon": -77.03078033333334, "bike_id": "a637f1899b2b5ca90b5cca004c1ae296", "lat": 38.8803845, "fusion_lon": 0.0, "fusion_lat": 0.0, "type": "electric_scooter", "name": "a637f1899b2b5ca90b5cca004c1ae296", "is_disabled": 0, "rental_uris": {"ios": "https://dc.lft.to/lastmile_qr_scan", "android": "https://dc.lft.to/lastmile_qr_scan"}, "is_reserved": 0}, {"lon": -77.04282533333334, "bike_id": "63af458ad728407442ef4996eef71b27", "lat": 38.93415233333333, "fusion_lon": 0.0, "fusion_lat": 0.0, "type": "electric_scooter", "name": "63af458ad728407442ef4996eef71b27", "is_disabled": 0, "rental_uris": {"ios": "https://dc.lft.to/lastmile_qr_scan", "android": "https://dc.lft.to/lastmile_qr_scan"}, "is_reserved": 0}, {"lon": -77.03844683333334, "bike_id": "5d53399dae50ccdf5d1a4478640e3136", "lat": 38.9166535, "fusion_lon": 0.0, "fusion_lat": 0.0, "type": "electric_scooter", "name": "5d53399dae50ccdf5d1a4478640e3136", "is_disabled": 0, "rental_uris": {"ios": "https://dc.lft.to/lastmile_qr_scan", "android": "https://dc.lft.to/lastmile_qr_scan"}, "is_reserved": 0}, {"lon": -77.02217233333333, "bike_id": "322704fb5df8daab9a96bd692e7ed13b", "lat": 38.940969333333335, "fusion_lon": 0.0, "fusion_lat": 0.0, "type": "electric_scooter", "name": "322704fb5df8daab9a96bd692e7ed13b", "is_disabled": 0, "rental_uris": {"ios": "https://dc.lft.to/lastmile_qr_scan", "android": "https://dc.lft.to/lastmile_qr_scan"}, "is_reserved": 0}, {"lon": -77.029546, "bike_id": "45c4efa7abf6c017b16b5765a1689439", "lat": 38.9050095, "fusion_lon": 0.0, "fusion_lat": 0.0, "type": "electric_scooter", "name": "45c4efa7abf6c017b16b5765a1689439", "is_disabled": 0, "rental_uris": {"ios": "https://dc.lft.to/lastmile_qr_scan", "android": "https://dc.lft.to/lastmile_qr_scan"}, "is_reserved": 0}, {"lon": -76.98881066666667, "bike_id": "b0ebd8342b1b2b67d169b3844b5581db", "lat": 38.86657483333333, "fusion_lon": 0.0, "fusion_lat": 0.0, "type": "electric_scooter", "name": "b0ebd8342b1b2b67d169b3844b5581db", "is_disabled": 0, "rental_uris": {"ios": "https://dc.lft.to/lastmile_qr_scan", "android": "https://dc.lft.to/lastmile_qr_scan"}, "is_reserved": 0}, {"lon": -77.02581666666667, "bike_id": "a959611ef9cc2d680c87edf7e6254fad", "lat": 38.88738516666667, "fusion_lon": 0.0, "fusion_lat": 0.0, "type": "electric_scooter", "name": "a959611ef9cc2d680c87edf7e6254fad", "is_disabled": 0, "rental_uris": {"ios": "https://dc.lft.to/lastmile_qr_scan", "android": "https://dc.lft.to/lastmile_qr_scan"}, "is_reserved": 0}, {"lon": -76.994651, "bike_id": "5914bbe598a0167bacd584899f5023bf", "lat": 38.940665833333334, "fusion_lon": 0.0, "fusion_lat": 0.0, "type": "electric_bike", "name": "5914bbe598a0167bacd584899f5023bf", "is_disabled": 0, "rental_uris": {"ios": "https://dc.lft.to/lastmile_qr_scan", "android": "https://dc.lft.to/lastmile_qr_scan"}, "is_reserved": 0}, {"lon": -77.0010255, "bike_id": "5bbbab31a4fc97b3539cd03b9b37aee6", "lat": 38.917052, "fusion_lon": 0.0, "fusion_lat": 0.0, "type": "electric_scooter", "name": "5bbbab31a4fc97b3539cd03b9b37aee6", "is_disabled": 0, "rental_uris": {"ios": "https://dc.lft.to/lastmile_qr_scan", "android": "https://dc.lft.to/lastmile_qr_scan"}, "is_reserved": 0}, {"lon": -77.1160115, "bike_id": "71f248cfe2f2e9adee6a9fd684dec213", "lat": 38.85480116666667, "fusion_lon": 0.0, "fusion_lat": 0.0, "type": "electric_bike", "name": "71f248cfe2f2e9adee6a9fd684dec213", "is_disabled": 0, "rental_uris": {"ios": "https://dc.lft.to/lastmile_qr_scan", "android": "https://dc.lft.to/lastmile_qr_scan"}, "is_reserved": 0}, {"lon": -77.03261916666666, "bike_id": "d7e24cf534ee53fb113ebf45de4c409a", "lat": 38.932646, "fusion_lon": 0.0, "fusion_lat": 0.0, "type": "electric_scooter", "name": "d7e24cf534ee53fb113ebf45de4c409a", "is_disabled": 0, "rental_uris": {"ios": "https://dc.lft.to/lastmile_qr_scan", "android": "https://dc.lft.to/lastmile_qr_scan"}, "is_reserved": 0}, {"lon": -77.0372765, "bike_id": "5405603cfd2d0a97bc3e253fe89d626e", "lat": 38.914827, "fusion_lon": 0.0, "fusion_lat": 0.0, "type": "electric_scooter", "name": "5405603cfd2d0a97bc3e253fe89d626e", "is_disabled": 0, "rental_uris": {"ios": "https://dc.lft.to/lastmile_qr_scan", "android": "https://dc.lft.to/lastmile_qr_scan"}, "is_reserved": 0}, {"lon": -77.02706666666667, "bike_id": "a0a9cc499f963bb6569ac6873f212903", "lat": 38.906702333333335, "fusion_lon": 0.0, "fusion_lat": 0.0, "type": "electric_scooter", "name": "a0a9cc499f963bb6569ac6873f212903", "is_disabled": 0, "rental_uris": {"ios": "https://dc.lft.to/lastmile_qr_scan", "android": "https://dc.lft.to/lastmile_qr_scan"}, "is_reserved": 0}, {"lon": -77.034414, "bike_id": "194e140f77f03d66c8eb4ecb2966d1a9", "lat": 38.909782, "fusion_lon": 0.0, "fusion_lat": 0.0, "type": "electric_scooter", "name": "194e140f77f03d66c8eb4ecb2966d1a9", "is_disabled": 0, "rental_uris": {"ios": "https://dc.lft.to/lastmile_qr_scan", "android": "https://dc.lft.to/lastmile_qr_scan"}, "is_reserved": 0}, {"lon": -77.01890433333334, "bike_id": "7c9f06fb5adff5897eeef301bdf79b25", "lat": 38.874624833333336, "fusion_lon": 0.0, "fusion_lat": 0.0, "type": "electric_scooter", "name": "7c9f06fb5adff5897eeef301bdf79b25", "is_disabled": 0, "rental_uris": {"ios": "https://dc.lft.to/lastmile_qr_scan", "android": "https://dc.lft.to/lastmile_qr_scan"}, "is_reserved": 0}, {"lon": -77.00258233333334, "bike_id": "281a0300324cbe2de25a48434613c0db", "lat": 38.918167, "fusion_lon": 0.0, "fusion_lat": 0.0, "type": "electric_scooter", "name": "281a0300324cbe2de25a48434613c0db", "is_disabled": 0, "rental_uris": {"ios": "https://dc.lft.to/lastmile_qr_scan", "android": "https://dc.lft.to/lastmile_qr_scan"}, "is_reserved": 0}, {"lon": -76.94178266666667, "bike_id": "0b1144496726f3eba3237feff4d7a044", "lat": 38.892737, "fusion_lon": 0.0, "fusion_lat": 0.0, "type": "electric_scooter", "name": "0b1144496726f3eba3237feff4d7a044", "is_disabled": 0, "rental_uris": {"ios": "https://dc.lft.to/lastmile_qr_scan", "android": "https://dc.lft.to/lastmile_qr_scan"}, "is_reserved": 0}, {"lon": -77.040646, "bike_id": "e578d1d4723fc2fba27609ae84cd133d", "lat": 38.900261666666665, "fusion_lon": 0.0, "fusion_lat": 0.0, "type": "electric_scooter", "name": "e578d1d4723fc2fba27609ae84cd133d", "is_disabled": 0, "rental_uris": {"ios": "https://dc.lft.to/lastmile_qr_scan", "android": "https://dc.lft.to/lastmile_qr_scan"}, "is_reserved": 0}, {"lon": -77.07116783333333, "bike_id": "6a6b2886115801bf13f4cb02f68b7bfe", "lat": 38.919670333333336, "fusion_lon": 0.0, "fusion_lat": 0.0, "type": "electric_scooter", "name": "6a6b2886115801bf13f4cb02f68b7bfe", "is_disabled": 0, "rental_uris": {"ios": "https://dc.lft.to/lastmile_qr_scan", "android": "https://dc.lft.to/lastmile_qr_scan"}, "is_reserved": 0}, {"lon": -77.0237095, "bike_id": "10f780e3468c869e6477564556c668a6", "lat": 38.892221166666666, "fusion_lon": 0.0, "fusion_lat": 0.0, "type": "electric_scooter", "name": "10f780e3468c869e6477564556c668a6", "is_disabled": 0, "rental_uris": {"ios": "https://dc.lft.to/lastmile_qr_scan", "android": "https://dc.lft.to/lastmile_qr_scan"}, "is_reserved": 0}, {"lon": -76.99683883333333, "bike_id": "319c27defde90534a154dc8ab7442d16", "lat": 38.86019783333333, "fusion_lon": 0.0, "fusion_lat": 0.0, "type": "electric_scooter", "name": "319c27defde90534a154dc8ab7442d16", "is_disabled": 0, "rental_uris": {"ios": "https://dc.lft.to/lastmile_qr_scan", "android": "https://dc.lft.to/lastmile_qr_scan"}, "is_reserved": 0}, {"lon": -77.05055166666666, "bike_id": "518dd4472037d369e6ab1dd276e5df91", "lat": 38.907212, "fusion_lon": 0.0, "fusion_lat": 0.0, "type": "electric_scooter", "name": "518dd4472037d369e6ab1dd276e5df91", "is_disabled": 0, "rental_uris": {"ios": "https://dc.lft.to/lastmile_qr_scan", "android": "https://dc.lft.to/lastmile_qr_scan"}, "is_reserved": 0}, {"lon": -77.0365195, "bike_id": "393228cbd7c06fdd036e22eccc2540a4", "lat": 38.92108483333333, "fusion_lon": 0.0, "fusion_lat": 0.0, "type": "electric_scooter", "name": "393228cbd7c06fdd036e22eccc2540a4", "is_disabled": 0, "rental_uris": {"ios": "https://dc.lft.to/lastmile_qr_scan", "android": "https://dc.lft.to/lastmile_qr_scan"}, "is_reserved": 0}, {"lon": -77.04866016666666, "bike_id": "f352b790816626ecb98dad257efa62b0", "lat": 38.90398583333333, "fusion_lon": 0.0, "fusion_lat": 0.0, "type": "electric_scooter", "name": "f352b790816626ecb98dad257efa62b0", "is_disabled": 0, "rental_uris": {"ios": "https://dc.lft.to/lastmile_qr_scan", "android": "https://dc.lft.to/lastmile_qr_scan"}, "is_reserved": 0}, {"lon": -77.05315666666667, "bike_id": "50760e57d69a0d928c430952ebcc8685", "lat": 38.9007945, "fusion_lon": 0.0, "fusion_lat": 0.0, "type": "electric_scooter", "name": "50760e57d69a0d928c430952ebcc8685", "is_disabled": 0, "rental_uris": {"ios": "https://dc.lft.to/lastmile_qr_scan", "android": "https://dc.lft.to/lastmile_qr_scan"}, "is_reserved": 0}, {"lon": -76.97523233333334, "bike_id": "88092ab5fb050d03f4883405bd3dd892", "lat": 38.966976833333334, "fusion_lon": 0.0, "fusion_lat": 0.0, "type": "electric_bike", "name": "88092ab5fb050d03f4883405bd3dd892", "is_disabled": 0, "rental_uris": {"ios": "https://dc.lft.to/lastmile_qr_scan", "android": "https://dc.lft.to/lastmile_qr_scan"}, "is_reserved": 0}, {"lon": -77.04144383333333, "bike_id": "b5af20c3469550a204f6213abbe93d36", "lat": 38.9073065, "fusion_lon": 0.0, "fusion_lat": 0.0, "type": "electric_scooter", "name": "b5af20c3469550a204f6213abbe93d36", "is_disabled": 0, "rental_uris": {"ios": "https://dc.lft.to/lastmile_qr_scan", "android": "https://dc.lft.to/lastmile_qr_scan"}, "is_reserved": 0}, {"lon": -77.02085466666666, "bike_id": "a150a3e03ca7c7b4441d0be813ce31a2", "lat": 38.957462666666665, "fusion_lon": 0.0, "fusion_lat": 0.0, "type": "electric_scooter", "name": "a150a3e03ca7c7b4441d0be813ce31a2", "is_disabled": 0, "rental_uris": {"ios": "https://dc.lft.to/lastmile_qr_scan", "android": "https://dc.lft.to/lastmile_qr_scan"}, "is_reserved": 0}, {"lon": -76.9964405, "bike_id": "5b0f004e5e0f74455bebac7f13a7d9b8", "lat": 38.988222, "fusion_lon": 0.0, "fusion_lat": 0.0, "type": "electric_bike", "name": "5b0f004e5e0f74455bebac7f13a7d9b8", "is_disabled": 0, "rental_uris": {"ios": "https://dc.lft.to/lastmile_qr_scan", "android": "https://dc.lft.to/lastmile_qr_scan"}, "is_reserved": 0}, {"lon": -77.00053, "bike_id": "597e588d46169966578945316485f544", "lat": 38.89491366666667, "fusion_lon": 0.0, "fusion_lat": 0.0, "type": "electric_scooter", "name": "597e588d46169966578945316485f544", "is_disabled": 0, "rental_uris": {"ios": "https://dc.lft.to/lastmile_qr_scan", "android": "https://dc.lft.to/lastmile_qr_scan"}, "is_reserved": 0}, {"lon": -76.99511933333334, "bike_id": "ea61a0dd601b1d656f44bb815e7646bf", "lat": 38.8777935, "fusion_lon": 0.0, "fusion_lat": 0.0, "type": "electric_scooter", "name": "ea61a0dd601b1d656f44bb815e7646bf", "is_disabled": 0, "rental_uris": {"ios": "https://dc.lft.to/lastmile_qr_scan", "android": "https://dc.lft.to/lastmile_qr_scan"}, "is_reserved": 0}, {"lon": -77.03756816666667, "bike_id": "e92121667f5c6816bc4ff664726023aa", "lat": 38.9077735, "fusion_lon": 0.0, "fusion_lat": 0.0, "type": "electric_scooter", "name": "e92121667f5c6816bc4ff664726023aa", "is_disabled": 0, "rental_uris": {"ios": "https://dc.lft.to/lastmile_qr_scan", "android": "https://dc.lft.to/lastmile_qr_scan"}, "is_reserved": 0}, {"lon": -77.03099666666667, "bike_id": "83ff005788cdaf7ca4e443035103082c", "lat": 38.92865183333333, "fusion_lon": 0.0, "fusion_lat": 0.0, "type": "electric_scooter", "name": "83ff005788cdaf7ca4e443035103082c", "is_disabled": 0, "rental_uris": {"ios": "https://dc.lft.to/lastmile_qr_scan", "android": "https://dc.lft.to/lastmile_qr_scan"}, "is_reserved": 0}, {"lon": -77.01212766666667, "bike_id": "9db0c3aee195db368ea0ac054e0d8bd7", "lat": 38.92122783333333, "fusion_lon": 0.0, "fusion_lat": 0.0, "type": "electric_scooter", "name": "9db0c3aee195db368ea0ac054e0d8bd7", "is_disabled": 0, "rental_uris": {"ios": "https://dc.lft.to/lastmile_qr_scan", "android": "https://dc.lft.to/lastmile_qr_scan"}, "is_reserved": 0}, {"lon": -76.97306383333333, "bike_id": "800b6d2d66063e056c9a5696bd36be39", "lat": 38.8657685, "fusion_lon": 0.0, "fusion_lat": 0.0, "type": "electric_scooter", "name": "800b6d2d66063e056c9a5696bd36be39", "is_disabled": 0, "rental_uris": {"ios": "https://dc.lft.to/lastmile_qr_scan", "android": "https://dc.lft.to/lastmile_qr_scan"}, "is_reserved": 0}, {"lon": -77.03176416666666, "bike_id": "c1b8f7554d268b8c1eb8c473fe2946e0", "lat": 38.93688983333333, "fusion_lon": 0.0, "fusion_lat": 0.0, "type": "electric_scooter", "name": "c1b8f7554d268b8c1eb8c473fe2946e0", "is_disabled": 0, "rental_uris": {"ios": "https://dc.lft.to/lastmile_qr_scan", "android": "https://dc.lft.to/lastmile_qr_scan"}, "is_reserved": 0}, {"lon": -77.05159783333333, "bike_id": "d148768891fdc2ef274e42c665c91ddd", "lat": 39.04303616666667, "fusion_lon": 0.0, "fusion_lat": 0.0, "type": "electric_bike", "name": "d148768891fdc2ef274e42c665c91ddd", "is_disabled": 0, "rental_uris": {"ios": "https://dc.lft.to/lastmile_qr_scan", "android": "https://dc.lft.to/lastmile_qr_scan"}, "is_reserved": 0}, {"lon": -77.02583183333333, "bike_id": "2a1a237c3032d0eba7d85c8012dfccb6", "lat": 38.930823, "fusion_lon": 0.0, "fusion_lat": 0.0, "type": "electric_scooter", "name": "2a1a237c3032d0eba7d85c8012dfccb6", "is_disabled": 0, "rental_uris": {"ios": "https://dc.lft.to/lastmile_qr_scan", "android": "https://dc.lft.to/lastmile_qr_scan"}, "is_reserved": 0}, {"lon": -77.03348716666666, "bike_id": "cd0f8132ce23f240501e2fb9205a45cc", "lat": 38.907174833333336, "fusion_lon": 0.0, "fusion_lat": 0.0, "type": "electric_scooter", "name": "cd0f8132ce23f240501e2fb9205a45cc", "is_disabled": 0, "rental_uris": {"ios": "https://dc.lft.to/lastmile_qr_scan", "android": "https://dc.lft.to/lastmile_qr_scan"}, "is_reserved": 0}, {"lon": -77.072609, "bike_id": "0207177cd58832478329679c66e5cf1d", "lat": 38.93471516666666, "fusion_lon": 0.0, "fusion_lat": 0.0, "type": "electric_scooter", "name": "0207177cd58832478329679c66e5cf1d", "is_disabled": 0, "rental_uris": {"ios": "https://dc.lft.to/lastmile_qr_scan", "android": "https://dc.lft.to/lastmile_qr_scan"}, "is_reserved": 0}, {"lon": -77.01873316666666, "bike_id": "dfcbad6aa174da1a7973a6eece29911a", "lat": 38.918329666666665, "fusion_lon": 0.0, "fusion_lat": 0.0, "type": "electric_scooter", "name": "dfcbad6aa174da1a7973a6eece29911a", "is_disabled": 0, "rental_uris": {"ios": "https://dc.lft.to/lastmile_qr_scan", "android": "https://dc.lft.to/lastmile_qr_scan"}, "is_reserved": 0}, {"lon": -77.11144383333334, "bike_id": "56f44b1a7da31413aa828d6ade9b0134", "lat": 38.855152833333335, "fusion_lon": 0.0, "fusion_lat": 0.0, "type": "electric_bike", "name": "56f44b1a7da31413aa828d6ade9b0134", "is_disabled": 0, "rental_uris": {"ios": "https://dc.lft.to/lastmile_qr_scan", "android": "https://dc.lft.to/lastmile_qr_scan"}, "is_reserved": 0}, {"lon": -76.9301565, "bike_id": "e371342a6730f7ebef7d6ad7469140b9", "lat": 38.89194166666667, "fusion_lon": 0.0, "fusion_lat": 0.0, "type": "electric_scooter", "name": "e371342a6730f7ebef7d6ad7469140b9", "is_disabled": 0, "rental_uris": {"ios": "https://dc.lft.to/lastmile_qr_scan", "android": "https://dc.lft.to/lastmile_qr_scan"}, "is_reserved": 0}, {"lon": -77.1049045, "bike_id": "4e1331dcb790143b27a12da0181bea5a", "lat": 38.8560695, "fusion_lon": 0.0, "fusion_lat": 0.0, "type": "electric_bike", "name": "4e1331dcb790143b27a12da0181bea5a", "is_disabled": 0, "rental_uris": {"ios": "https://dc.lft.to/lastmile_qr_scan", "android": "https://dc.lft.to/lastmile_qr_scan"}, "is_reserved": 0}, {"lon": -77.05693783333334, "bike_id": "17835aebca479a9dd8121f084c791959", "lat": 38.93714716666667, "fusion_lon": 0.0, "fusion_lat": 0.0, "type": "electric_scooter", "name": "17835aebca479a9dd8121f084c791959", "is_disabled": 0, "rental_uris": {"ios": "https://dc.lft.to/lastmile_qr_scan", "android": "https://dc.lft.to/lastmile_qr_scan"}, "is_reserved": 0}, {"lon": -77.00626933333334, "bike_id": "22f0f004463b79d046ade4e915845ebc", "lat": 38.91256666666666, "fusion_lon": 0.0, "fusion_lat": 0.0, "type": "electric_scooter", "name": "22f0f004463b79d046ade4e915845ebc", "is_disabled": 0, "rental_uris": {"ios": "https://dc.lft.to/lastmile_qr_scan", "android": "https://dc.lft.to/lastmile_qr_scan"}, "is_reserved": 0}, {"lon": -77.05508966666666, "bike_id": "ef57bdb8676c1a89d5ac0d52fa198504", "lat": 38.900018333333335, "fusion_lon": 0.0, "fusion_lat": 0.0, "type": "electric_scooter", "name": "ef57bdb8676c1a89d5ac0d52fa198504", "is_disabled": 0, "rental_uris": {"ios": "https://dc.lft.to/lastmile_qr_scan", "android": "https://dc.lft.to/lastmile_qr_scan"}, "is_reserved": 0}, {"lon": -76.98231216666667, "bike_id": "cbf44a8ba4e4fc328a931150be40f23d", "lat": 38.88643783333333, "fusion_lon": 0.0, "fusion_lat": 0.0, "type": "electric_scooter", "name": "cbf44a8ba4e4fc328a931150be40f23d", "is_disabled": 0, "rental_uris": {"ios": "https://dc.lft.to/lastmile_qr_scan", "android": "https://dc.lft.to/lastmile_qr_scan"}, "is_reserved": 0}, {"lon": -77.05726716666666, "bike_id": "f720f5be58a29f516dddd6a123e5a5fe", "lat": 38.93367116666667, "fusion_lon": 0.0, "fusion_lat": 0.0, "type": "electric_scooter", "name": "f720f5be58a29f516dddd6a123e5a5fe", "is_disabled": 0, "rental_uris": {"ios": "https://dc.lft.to/lastmile_qr_scan", "android": "https://dc.lft.to/lastmile_qr_scan"}, "is_reserved": 0}, {"lon": -77.04416983333333, "bike_id": "c2a2f7be05a0c136c72f50c0bccbd002", "lat": 38.9211525, "fusion_lon": 0.0, "fusion_lat": 0.0, "type": "electric_scooter", "name": "c2a2f7be05a0c136c72f50c0bccbd002", "is_disabled": 0, "rental_uris": {"ios": "https://dc.lft.to/lastmile_qr_scan", "android": "https://dc.lft.to/lastmile_qr_scan"}, "is_reserved": 0}, {"lon": -76.99529733333334, "bike_id": "2fdf506c8d01e4bc8ea13bf92ec91285", "lat": 38.883715333333335, "fusion_lon": 0.0, "fusion_lat": 0.0, "type": "electric_scooter", "name": "2fdf506c8d01e4bc8ea13bf92ec91285", "is_disabled": 0, "rental_uris": {"ios": "https://dc.lft.to/lastmile_qr_scan", "android": "https://dc.lft.to/lastmile_qr_scan"}, "is_reserved": 0}, {"lon": -77.03604433333334, "bike_id": "0db7373f6832627858e210bad91df315", "lat": 38.917789, "fusion_lon": 0.0, "fusion_lat": 0.0, "type": "electric_scooter", "name": "0db7373f6832627858e210bad91df315", "is_disabled": 0, "rental_uris": {"ios": "https://dc.lft.to/lastmile_qr_scan", "android": "https://dc.lft.to/lastmile_qr_scan"}, "is_reserved": 0}, {"lon": -77.02383333333333, "bike_id": "924a9072a9485fc602af9124c1b16e0c", "lat": 38.90730766666667, "fusion_lon": 0.0, "fusion_lat": 0.0, "type": "electric_scooter", "name": "924a9072a9485fc602af9124c1b16e0c", "is_disabled": 0, "rental_uris": {"ios": "https://dc.lft.to/lastmile_qr_scan", "android": "https://dc.lft.to/lastmile_qr_scan"}, "is_reserved": 0}, {"lon": -76.97842216666666, "bike_id": "46829120be0a425a44b925f1885e047c", "lat": 38.865701333333334, "fusion_lon": 0.0, "fusion_lat": 0.0, "type": "electric_scooter", "name": "46829120be0a425a44b925f1885e047c", "is_disabled": 0, "rental_uris": {"ios": "https://dc.lft.to/lastmile_qr_scan", "android": "https://dc.lft.to/lastmile_qr_scan"}, "is_reserved": 0}, {"lon": -76.94895216666667, "bike_id": "07cd7f7d1d285eab143e4d283c257ab8", "lat": 38.89531133333333, "fusion_lon": 0.0, "fusion_lat": 0.0, "type": "electric_scooter", "name": "07cd7f7d1d285eab143e4d283c257ab8", "is_disabled": 0, "rental_uris": {"ios": "https://dc.lft.to/lastmile_qr_scan", "android": "https://dc.lft.to/lastmile_qr_scan"}, "is_reserved": 0}, {"lon": -77.03896883333333, "bike_id": "8a429163a0cb34452a80c59ee7932934", "lat": 38.923349333333334, "fusion_lon": 0.0, "fusion_lat": 0.0, "type": "electric_scooter", "name": "8a429163a0cb34452a80c59ee7932934", "is_disabled": 0, "rental_uris": {"ios": "https://dc.lft.to/lastmile_qr_scan", "android": "https://dc.lft.to/lastmile_qr_scan"}, "is_reserved": 0}, {"lon": -76.97007366666666, "bike_id": "42249ebbeb334c04a320422d3cad9a5a", "lat": 38.8637005, "fusion_lon": 0.0, "fusion_lat": 0.0, "type": "electric_bike", "name": "42249ebbeb334c04a320422d3cad9a5a", "is_disabled": 0, "rental_uris": {"ios": "https://dc.lft.to/lastmile_qr_scan", "android": "https://dc.lft.to/lastmile_qr_scan"}, "is_reserved": 0}, {"lon": -77.024423, "bike_id": "faf0f03c1e000d49e93db885223b67ed", "lat": 38.935984, "fusion_lon": 0.0, "fusion_lat": 0.0, "type": "electric_scooter", "name": "faf0f03c1e000d49e93db885223b67ed", "is_disabled": 0, "rental_uris": {"ios": "https://dc.lft.to/lastmile_qr_scan", "android": "https://dc.lft.to/lastmile_qr_scan"}, "is_reserved": 0}, {"lon": -77.02475, "bike_id": "89b23a942d352992d3dd511e4f82fd0a", "lat": 38.9258695, "fusion_lon": 0.0, "fusion_lat": 0.0, "type": "electric_scooter", "name": "89b23a942d352992d3dd511e4f82fd0a", "is_disabled": 0, "rental_uris": {"ios": "https://dc.lft.to/lastmile_qr_scan", "android": "https://dc.lft.to/lastmile_qr_scan"}, "is_reserved": 0}, {"lon": -77.02810466666666, "bike_id": "44c4cdad696c11e96acc3445761fdd3e", "lat": 38.941922166666664, "fusion_lon": 0.0, "fusion_lat": 0.0, "type": "electric_scooter", "name": "44c4cdad696c11e96acc3445761fdd3e", "is_disabled": 0, "rental_uris": {"ios": "https://dc.lft.to/lastmile_qr_scan", "android": "https://dc.lft.to/lastmile_qr_scan"}, "is_reserved": 0}, {"lon": -77.02708133333333, "bike_id": "962e8fae3914268928a736c3f5e1d2e9", "lat": 38.897236166666666, "fusion_lon": 0.0, "fusion_lat": 0.0, "type": "electric_scooter", "name": "962e8fae3914268928a736c3f5e1d2e9", "is_disabled": 0, "rental_uris": {"ios": "https://dc.lft.to/lastmile_qr_scan", "android": "https://dc.lft.to/lastmile_qr_scan"}, "is_reserved": 0}, {"lon": -76.9818655, "bike_id": "7121fca21fbb307cbbe4806df3239705", "lat": 38.92608283333333, "fusion_lon": 0.0, "fusion_lat": 0.0, "type": "electric_scooter", "name": "7121fca21fbb307cbbe4806df3239705", "is_disabled": 0, "rental_uris": {"ios": "https://dc.lft.to/lastmile_qr_scan", "android": "https://dc.lft.to/lastmile_qr_scan"}, "is_reserved": 0}, {"lon": -77.1264605, "bike_id": "f73d20c27a53906975d4e8de230e573d", "lat": 38.81513316666667, "fusion_lon": 0.0, "fusion_lat": 0.0, "type": "electric_bike", "name": "f73d20c27a53906975d4e8de230e573d", "is_disabled": 0, "rental_uris": {"ios": "https://dc.lft.to/lastmile_qr_scan", "android": "https://dc.lft.to/lastmile_qr_scan"}, "is_reserved": 0}, {"lon": -77.04497216666667, "bike_id": "2c76549dccd0884c899dc8bb8416f04f", "lat": 38.91613433333333, "fusion_lon": 0.0, "fusion_lat": 0.0, "type": "electric_scooter", "name": "2c76549dccd0884c899dc8bb8416f04f", "is_disabled": 0, "rental_uris": {"ios": "https://dc.lft.to/lastmile_qr_scan", "android": "https://dc.lft.to/lastmile_qr_scan"}, "is_reserved": 0}, {"lon": -77.04631916666666, "bike_id": "10b67a9bd8077775da0d082e7334c3cd", "lat": 38.9191805, "fusion_lon": 0.0, "fusion_lat": 0.0, "type": "electric_scooter", "name": "10b67a9bd8077775da0d082e7334c3cd", "is_disabled": 0, "rental_uris": {"ios": "https://dc.lft.to/lastmile_qr_scan", "android": "https://dc.lft.to/lastmile_qr_scan"}, "is_reserved": 0}, {"lon": -77.00211933333334, "bike_id": "86fdf2877dcbf95a4602331e11a59643", "lat": 38.88129566666667, "fusion_lon": 0.0, "fusion_lat": 0.0, "type": "electric_scooter", "name": "86fdf2877dcbf95a4602331e11a59643", "is_disabled": 0, "rental_uris": {"ios": "https://dc.lft.to/lastmile_qr_scan", "android": "https://dc.lft.to/lastmile_qr_scan"}, "is_reserved": 0}, {"lon": -77.02345233333334, "bike_id": "58665e4d8a63b86337db2d7a1dce4779", "lat": 38.935374833333334, "fusion_lon": 0.0, "fusion_lat": 0.0, "type": "electric_scooter", "name": "58665e4d8a63b86337db2d7a1dce4779", "is_disabled": 0, "rental_uris": {"ios": "https://dc.lft.to/lastmile_qr_scan", "android": "https://dc.lft.to/lastmile_qr_scan"}, "is_reserved": 0}, {"lon": -77.04450666666666, "bike_id": "692c0e3c69bf5253b359ef67ea0c4c66", "lat": 38.918766833333336, "fusion_lon": 0.0, "fusion_lat": 0.0, "type": "electric_scooter", "name": "692c0e3c69bf5253b359ef67ea0c4c66", "is_disabled": 0, "rental_uris": {"ios": "https://dc.lft.to/lastmile_qr_scan", "android": "https://dc.lft.to/lastmile_qr_scan"}, "is_reserved": 0}, {"lon": -77.02348866666667, "bike_id": "7e63d21daf18c36ee67eaf1187b596a7", "lat": 38.920667, "fusion_lon": 0.0, "fusion_lat": 0.0, "type": "electric_scooter", "name": "7e63d21daf18c36ee67eaf1187b596a7", "is_disabled": 0, "rental_uris": {"ios": "https://dc.lft.to/lastmile_qr_scan", "android": "https://dc.lft.to/lastmile_qr_scan"}, "is_reserved": 0}, {"lon": -76.93346416666667, "bike_id": "45096c187344e4578174c9e94ae82b39", "lat": 38.89910283333333, "fusion_lon": 0.0, "fusion_lat": 0.0, "type": "electric_scooter", "name": "45096c187344e4578174c9e94ae82b39", "is_disabled": 0, "rental_uris": {"ios": "https://dc.lft.to/lastmile_qr_scan", "android": "https://dc.lft.to/lastmile_qr_scan"}, "is_reserved": 0}, {"lon": -76.93331833333333, "bike_id": "9037637b981a17253232eeb4fd707688", "lat": 38.910673833333334, "fusion_lon": 0.0, "fusion_lat": 0.0, "type": "electric_scooter", "name": "9037637b981a17253232eeb4fd707688", "is_disabled": 0, "rental_uris": {"ios": "https://dc.lft.to/lastmile_qr_scan", "android": "https://dc.lft.to/lastmile_qr_scan"}, "is_reserved": 0}, {"lon": -77.04799766666666, "bike_id": "b8882fe8842aa317bc429f0f1ae9bf63", "lat": 38.909599, "fusion_lon": 0.0, "fusion_lat": 0.0, "type": "electric_scooter", "name": "b8882fe8842aa317bc429f0f1ae9bf63", "is_disabled": 0, "rental_uris": {"ios": "https://dc.lft.to/lastmile_qr_scan", "android": "https://dc.lft.to/lastmile_qr_scan"}, "is_reserved": 0}, {"lon": -77.02711366666666, "bike_id": "318afcdbd3665273d12f67bcfad4ac9d", "lat": 38.927714, "fusion_lon": 0.0, "fusion_lat": 0.0, "type": "electric_scooter", "name": "318afcdbd3665273d12f67bcfad4ac9d", "is_disabled": 0, "rental_uris": {"ios": "https://dc.lft.to/lastmile_qr_scan", "android": "https://dc.lft.to/lastmile_qr_scan"}, "is_reserved": 0}, {"lon": -76.927373, "bike_id": "010a8b5a64de9cddcd9ffc1fbcce42ab", "lat": 38.88965016666667, "fusion_lon": 0.0, "fusion_lat": 0.0, "type": "electric_scooter", "name": "010a8b5a64de9cddcd9ffc1fbcce42ab", "is_disabled": 0, "rental_uris": {"ios": "https://dc.lft.to/lastmile_qr_scan", "android": "https://dc.lft.to/lastmile_qr_scan"}, "is_reserved": 0}, {"lon": -76.985631, "bike_id": "990fee5649fb26f9558eb7556a160527", "lat": 38.899511, "fusion_lon": 0.0, "fusion_lat": 0.0, "type": "electric_scooter", "name": "990fee5649fb26f9558eb7556a160527", "is_disabled": 0, "rental_uris": {"ios": "https://dc.lft.to/lastmile_qr_scan", "android": "https://dc.lft.to/lastmile_qr_scan"}, "is_reserved": 0}, {"lon": -76.99109216666666, "bike_id": "b12494162f2ec589b208ee13beebe0c8", "lat": 38.90320583333333, "fusion_lon": 0.0, "fusion_lat": 0.0, "type": "electric_scooter", "name": "b12494162f2ec589b208ee13beebe0c8", "is_disabled": 0, "rental_uris": {"ios": "https://dc.lft.to/lastmile_qr_scan", "android": "https://dc.lft.to/lastmile_qr_scan"}, "is_reserved": 0}, {"lon": -76.99293983333334, "bike_id": "8b3cd75c2746b4b950408bdffd801f46", "lat": 38.898885666666665, "fusion_lon": 0.0, "fusion_lat": 0.0, "type": "electric_scooter", "name": "8b3cd75c2746b4b950408bdffd801f46", "is_disabled": 0, "rental_uris": {"ios": "https://dc.lft.to/lastmile_qr_scan", "android": "https://dc.lft.to/lastmile_qr_scan"}, "is_reserved": 0}, {"lon": -77.0320295, "bike_id": "7c574f9973ea11717efc220187872c11", "lat": 38.92788216666667, "fusion_lon": 0.0, "fusion_lat": 0.0, "type": "electric_scooter", "name": "7c574f9973ea11717efc220187872c11", "is_disabled": 0, "rental_uris": {"ios": "https://dc.lft.to/lastmile_qr_scan", "android": "https://dc.lft.to/lastmile_qr_scan"}, "is_reserved": 0}, {"lon": -77.0353555, "bike_id": "ba9d965a5965d2702398af8e697e6108", "lat": 38.9256795, "fusion_lon": 0.0, "fusion_lat": 0.0, "type": "electric_scooter", "name": "ba9d965a5965d2702398af8e697e6108", "is_disabled": 0, "rental_uris": {"ios": "https://dc.lft.to/lastmile_qr_scan", "android": "https://dc.lft.to/lastmile_qr_scan"}, "is_reserved": 0}, {"lon": -77.02742266666667, "bike_id": "8b830488fb5f2a0a205735f5aba4c80c", "lat": 38.93336716666666, "fusion_lon": 0.0, "fusion_lat": 0.0, "type": "electric_scooter", "name": "8b830488fb5f2a0a205735f5aba4c80c", "is_disabled": 0, "rental_uris": {"ios": "https://dc.lft.to/lastmile_qr_scan", "android": "https://dc.lft.to/lastmile_qr_scan"}, "is_reserved": 0}, {"lon": -76.983808, "bike_id": "1a83deac3942080cd2f3be26fec3c8ec", "lat": 38.89607933333333, "fusion_lon": 0.0, "fusion_lat": 0.0, "type": "electric_scooter", "name": "1a83deac3942080cd2f3be26fec3c8ec", "is_disabled": 0, "rental_uris": {"ios": "https://dc.lft.to/lastmile_qr_scan", "android": "https://dc.lft.to/lastmile_qr_scan"}, "is_reserved": 0}, {"lon": -77.04179783333333, "bike_id": "a799e488dacaa16c087071a53cc87cb1", "lat": 38.905484333333334, "fusion_lon": 0.0, "fusion_lat": 0.0, "type": "electric_scooter", "name": "a799e488dacaa16c087071a53cc87cb1", "is_disabled": 0, "rental_uris": {"ios": "https://dc.lft.to/lastmile_qr_scan", "android": "https://dc.lft.to/lastmile_qr_scan"}, "is_reserved": 0}, {"lon": -77.0376345, "bike_id": "8c243203b9f757e880e51014d1abe7f2", "lat": 38.920088, "fusion_lon": 0.0, "fusion_lat": 0.0, "type": "electric_scooter", "name": "8c243203b9f757e880e51014d1abe7f2", "is_disabled": 0, "rental_uris": {"ios": "https://dc.lft.to/lastmile_qr_scan", "android": "https://dc.lft.to/lastmile_qr_scan"}, "is_reserved": 0}, {"lon": -77.021665, "bike_id": "758163f67e0f21fdb82d65a873e239ea", "lat": 38.9299685, "fusion_lon": 0.0, "fusion_lat": 0.0, "type": "electric_scooter", "name": "758163f67e0f21fdb82d65a873e239ea", "is_disabled": 0, "rental_uris": {"ios": "https://dc.lft.to/lastmile_qr_scan", "android": "https://dc.lft.to/lastmile_qr_scan"}, "is_reserved": 0}, {"lon": -77.04674633333333, "bike_id": "f3600df575972d3fde8382895b99a7fd", "lat": 38.9071825, "fusion_lon": 0.0, "fusion_lat": 0.0, "type": "electric_scooter", "name": "f3600df575972d3fde8382895b99a7fd", "is_disabled": 0, "rental_uris": {"ios": "https://dc.lft.to/lastmile_qr_scan", "android": "https://dc.lft.to/lastmile_qr_scan"}, "is_reserved": 0}, {"lon": -77.032648, "bike_id": "0ac151cbad7996dee2432248eee1a287", "lat": 38.93241583333333, "fusion_lon": 0.0, "fusion_lat": 0.0, "type": "electric_scooter", "name": "0ac151cbad7996dee2432248eee1a287", "is_disabled": 0, "rental_uris": {"ios": "https://dc.lft.to/lastmile_qr_scan", "android": "https://dc.lft.to/lastmile_qr_scan"}, "is_reserved": 0}, {"lon": -77.03575916666667, "bike_id": "abe82944b11c89b6f452bfef4a9a5f08", "lat": 38.91040133333333, "fusion_lon": 0.0, "fusion_lat": 0.0, "type": "electric_scooter", "name": "abe82944b11c89b6f452bfef4a9a5f08", "is_disabled": 0, "rental_uris": {"ios": "https://dc.lft.to/lastmile_qr_scan", "android": "https://dc.lft.to/lastmile_qr_scan"}, "is_reserved": 0}, {"lon": -77.044251, "bike_id": "a92a7f0b40d1b7bc2ee2450ce28e9e2d", "lat": 38.91127933333333, "fusion_lon": 0.0, "fusion_lat": 0.0, "type": "electric_scooter", "name": "a92a7f0b40d1b7bc2ee2450ce28e9e2d", "is_disabled": 0, "rental_uris": {"ios": "https://dc.lft.to/lastmile_qr_scan", "android": "https://dc.lft.to/lastmile_qr_scan"}, "is_reserved": 0}, {"lon": -77.03264116666666, "bike_id": "7f18666885fae4077fbc22b7f6f56bc8", "lat": 38.937733333333334, "fusion_lon": 0.0, "fusion_lat": 0.0, "type": "electric_scooter", "name": "7f18666885fae4077fbc22b7f6f56bc8", "is_disabled": 0, "rental_uris": {"ios": "https://dc.lft.to/lastmile_qr_scan", "android": "https://dc.lft.to/lastmile_qr_scan"}, "is_reserved": 0}, {"lon": -77.033277, "bike_id": "435af4913f4d7c029c6d3a3d3563c32a", "lat": 38.94713933333333, "fusion_lon": 0.0, "fusion_lat": 0.0, "type": "electric_scooter", "name": "435af4913f4d7c029c6d3a3d3563c32a", "is_disabled": 0, "rental_uris": {"ios": "https://dc.lft.to/lastmile_qr_scan", "android": "https://dc.lft.to/lastmile_qr_scan"}, "is_reserved": 0}, {"lon": -77.0319885, "bike_id": "1f61f4db75909541489f15826a8a48b0", "lat": 38.91731433333333, "fusion_lon": 0.0, "fusion_lat": 0.0, "type": "electric_scooter", "name": "1f61f4db75909541489f15826a8a48b0", "is_disabled": 0, "rental_uris": {"ios": "https://dc.lft.to/lastmile_qr_scan", "android": "https://dc.lft.to/lastmile_qr_scan"}, "is_reserved": 0}, {"lon": -77.0422105, "bike_id": "2224fc3b80550eec80cea439fc5304a7", "lat": 38.913373666666665, "fusion_lon": 0.0, "fusion_lat": 0.0, "type": "electric_scooter", "name": "2224fc3b80550eec80cea439fc5304a7", "is_disabled": 0, "rental_uris": {"ios": "https://dc.lft.to/lastmile_qr_scan", "android": "https://dc.lft.to/lastmile_qr_scan"}, "is_reserved": 0}, {"lon": -76.99016916666666, "bike_id": "391123861192adb524d415b6619d3fe7", "lat": 38.866448166666665, "fusion_lon": 0.0, "fusion_lat": 0.0, "type": "electric_scooter", "name": "391123861192adb524d415b6619d3fe7", "is_disabled": 0, "rental_uris": {"ios": "https://dc.lft.to/lastmile_qr_scan", "android": "https://dc.lft.to/lastmile_qr_scan"}, "is_reserved": 0}, {"lon": -77.03868066666666, "bike_id": "9e257270540c451ad9791dffb07ac214", "lat": 38.915569, "fusion_lon": 0.0, "fusion_lat": 0.0, "type": "electric_scooter", "name": "9e257270540c451ad9791dffb07ac214", "is_disabled": 0, "rental_uris": {"ios": "https://dc.lft.to/lastmile_qr_scan", "android": "https://dc.lft.to/lastmile_qr_scan"}, "is_reserved": 0}, {"lon": -76.9908505, "bike_id": "f30cbea7a27dd15e0839f1c30ced8c20", "lat": 38.862362833333336, "fusion_lon": 0.0, "fusion_lat": 0.0, "type": "electric_bike", "name": "f30cbea7a27dd15e0839f1c30ced8c20", "is_disabled": 0, "rental_uris": {"ios": "https://dc.lft.to/lastmile_qr_scan", "android": "https://dc.lft.to/lastmile_qr_scan"}, "is_reserved": 0}, {"lon": -76.99531183333333, "bike_id": "15f8de472b568804610659c33726dc8f", "lat": 38.883711, "fusion_lon": 0.0, "fusion_lat": 0.0, "type": "electric_scooter", "name": "15f8de472b568804610659c33726dc8f", "is_disabled": 0, "rental_uris": {"ios": "https://dc.lft.to/lastmile_qr_scan", "android": "https://dc.lft.to/lastmile_qr_scan"}, "is_reserved": 0}, {"lon": -77.0193625, "bike_id": "c55b5f5a5796b5420dc621a50b3196c3", "lat": 38.935229666666665, "fusion_lon": 0.0, "fusion_lat": 0.0, "type": "electric_scooter", "name": "c55b5f5a5796b5420dc621a50b3196c3", "is_disabled": 0, "rental_uris": {"ios": "https://dc.lft.to/lastmile_qr_scan", "android": "https://dc.lft.to/lastmile_qr_scan"}, "is_reserved": 0}, {"lon": -77.08071066666666, "bike_id": "48c02f62bd6feacc028c571985b5ee70", "lat": 39.05282966666667, "fusion_lon": 0.0, "fusion_lat": 0.0, "type": "electric_bike", "name": "48c02f62bd6feacc028c571985b5ee70", "is_disabled": 0, "rental_uris": {"ios": "https://dc.lft.to/lastmile_qr_scan", "android": "https://dc.lft.to/lastmile_qr_scan"}, "is_reserved": 0}, {"lon": -77.048698, "bike_id": "9d4828ba708b93adbef36757aaa040f9", "lat": 38.8922095, "fusion_lon": 0.0, "fusion_lat": 0.0, "type": "electric_scooter", "name": "9d4828ba708b93adbef36757aaa040f9", "is_disabled": 0, "rental_uris": {"ios": "https://dc.lft.to/lastmile_qr_scan", "android": "https://dc.lft.to/lastmile_qr_scan"}, "is_reserved": 0}, {"lon": -77.03448133333333, "bike_id": "30b61ffc0ad517ec1a3ef2d9d7e41f2c", "lat": 38.90971483333333, "fusion_lon": 0.0, "fusion_lat": 0.0, "type": "electric_scooter", "name": "30b61ffc0ad517ec1a3ef2d9d7e41f2c", "is_disabled": 0, "rental_uris": {"ios": "https://dc.lft.to/lastmile_qr_scan", "android": "https://dc.lft.to/lastmile_qr_scan"}, "is_reserved": 0}, {"lon": -77.00226416666666, "bike_id": "39f7a4441eec4f93357ee826c0425240", "lat": 38.900162333333334, "fusion_lon": 0.0, "fusion_lat": 0.0, "type": "electric_scooter", "name": "39f7a4441eec4f93357ee826c0425240", "is_disabled": 0, "rental_uris": {"ios": "https://dc.lft.to/lastmile_qr_scan", "android": "https://dc.lft.to/lastmile_qr_scan"}, "is_reserved": 0}, {"lon": -76.974818, "bike_id": "de8b7609fd4fadb805763c8d894d1212", "lat": 38.903517666666666, "fusion_lon": 0.0, "fusion_lat": 0.0, "type": "electric_scooter", "name": "de8b7609fd4fadb805763c8d894d1212", "is_disabled": 0, "rental_uris": {"ios": "https://dc.lft.to/lastmile_qr_scan", "android": "https://dc.lft.to/lastmile_qr_scan"}, "is_reserved": 0}, {"lon": -77.00647866666667, "bike_id": "010d1d2bdf88cd9187a0a02c0b319ee4", "lat": 38.926213, "fusion_lon": 0.0, "fusion_lat": 0.0, "type": "electric_scooter", "name": "010d1d2bdf88cd9187a0a02c0b319ee4", "is_disabled": 0, "rental_uris": {"ios": "https://dc.lft.to/lastmile_qr_scan", "android": "https://dc.lft.to/lastmile_qr_scan"}, "is_reserved": 0}, {"lon": -77.034254, "bike_id": "8c9e3de7690fc1e49401662b0f360bd9", "lat": 38.905607, "fusion_lon": 0.0, "fusion_lat": 0.0, "type": "electric_scooter", "name": "8c9e3de7690fc1e49401662b0f360bd9", "is_disabled": 0, "rental_uris": {"ios": "https://dc.lft.to/lastmile_qr_scan", "android": "https://dc.lft.to/lastmile_qr_scan"}, "is_reserved": 0}, {"lon": -77.06511716666667, "bike_id": "379656d9928b225ec6a1d8bf6bb4d704", "lat": 38.90391533333333, "fusion_lon": 0.0, "fusion_lat": 0.0, "type": "electric_scooter", "name": "379656d9928b225ec6a1d8bf6bb4d704", "is_disabled": 0, "rental_uris": {"ios": "https://dc.lft.to/lastmile_qr_scan", "android": "https://dc.lft.to/lastmile_qr_scan"}, "is_reserved": 0}, {"lon": -77.0129095, "bike_id": "a006c69b0fe4353d5816dec9745fd01c", "lat": 38.920201166666665, "fusion_lon": 0.0, "fusion_lat": 0.0, "type": "electric_scooter", "name": "a006c69b0fe4353d5816dec9745fd01c", "is_disabled": 0, "rental_uris": {"ios": "https://dc.lft.to/lastmile_qr_scan", "android": "https://dc.lft.to/lastmile_qr_scan"}, "is_reserved": 0}, {"lon": -77.010008, "bike_id": "b4611ff22ffdeb08e9b24e409db60a07", "lat": 38.91922616666667, "fusion_lon": 0.0, "fusion_lat": 0.0, "type": "electric_scooter", "name": "b4611ff22ffdeb08e9b24e409db60a07", "is_disabled": 0, "rental_uris": {"ios": "https://dc.lft.to/lastmile_qr_scan", "android": "https://dc.lft.to/lastmile_qr_scan"}, "is_reserved": 0}, {"lon": -77.0327105, "bike_id": "d8dbeee6cbb6aa4656377028289210db", "lat": 38.93252916666667, "fusion_lon": 0.0, "fusion_lat": 0.0, "type": "electric_scooter", "name": "d8dbeee6cbb6aa4656377028289210db", "is_disabled": 0, "rental_uris": {"ios": "https://dc.lft.to/lastmile_qr_scan", "android": "https://dc.lft.to/lastmile_qr_scan"}, "is_reserved": 0}, {"lon": -77.025122, "bike_id": "d5796d404ba94dc1f83e3c15e54403cf", "lat": 38.930967333333335, "fusion_lon": 0.0, "fusion_lat": 0.0, "type": "electric_scooter", "name": "d5796d404ba94dc1f83e3c15e54403cf", "is_disabled": 0, "rental_uris": {"ios": "https://dc.lft.to/lastmile_qr_scan", "android": "https://dc.lft.to/lastmile_qr_scan"}, "is_reserved": 0}, {"lon": -77.02953883333333, "bike_id": "0b59b2723171f7f57c85f961eae12b04", "lat": 38.923745, "fusion_lon": 0.0, "fusion_lat": 0.0, "type": "electric_scooter", "name": "0b59b2723171f7f57c85f961eae12b04", "is_disabled": 0, "rental_uris": {"ios": "https://dc.lft.to/lastmile_qr_scan", "android": "https://dc.lft.to/lastmile_qr_scan"}, "is_reserved": 0}, {"lon": -77.03175233333333, "bike_id": "5117842d4a498f72980242de4ff0c20c", "lat": 38.91413516666667, "fusion_lon": 0.0, "fusion_lat": 0.0, "type": "electric_scooter", "name": "5117842d4a498f72980242de4ff0c20c", "is_disabled": 0, "rental_uris": {"ios": "https://dc.lft.to/lastmile_qr_scan", "android": "https://dc.lft.to/lastmile_qr_scan"}, "is_reserved": 0}, {"lon": -77.04814, "bike_id": "27123f48f49c186d722c8899aa4f7f6a", "lat": 38.9094975, "fusion_lon": 0.0, "fusion_lat": 0.0, "type": "electric_scooter", "name": "27123f48f49c186d722c8899aa4f7f6a", "is_disabled": 0, "rental_uris": {"ios": "https://dc.lft.to/lastmile_qr_scan", "android": "https://dc.lft.to/lastmile_qr_scan"}, "is_reserved": 0}, {"lon": -76.93359266666667, "bike_id": "44457285d5fd5f3340e698217082c941", "lat": 38.887959333333335, "fusion_lon": 0.0, "fusion_lat": 0.0, "type": "electric_scooter", "name": "44457285d5fd5f3340e698217082c941", "is_disabled": 0, "rental_uris": {"ios": "https://dc.lft.to/lastmile_qr_scan", "android": "https://dc.lft.to/lastmile_qr_scan"}, "is_reserved": 0}, {"lon": -77.04256333333333, "bike_id": "4946ac6ee28a79821a4e35e5bbc00e77", "lat": 38.90718866666667, "fusion_lon": 0.0, "fusion_lat": 0.0, "type": "electric_scooter", "name": "4946ac6ee28a79821a4e35e5bbc00e77", "is_disabled": 0, "rental_uris": {"ios": "https://dc.lft.to/lastmile_qr_scan", "android": "https://dc.lft.to/lastmile_qr_scan"}, "is_reserved": 0}, {"lon": -77.01206066666667, "bike_id": "3902dc38528de04f2a9f9cedede0f2cc", "lat": 38.915945666666666, "fusion_lon": 0.0, "fusion_lat": 0.0, "type": "electric_scooter", "name": "3902dc38528de04f2a9f9cedede0f2cc", "is_disabled": 0, "rental_uris": {"ios": "https://dc.lft.to/lastmile_qr_scan", "android": "https://dc.lft.to/lastmile_qr_scan"}, "is_reserved": 0}, {"lon": -76.9766825, "bike_id": "120f46fedcf828dfa1cd2b40dc24da69", "lat": 38.9451955, "fusion_lon": 0.0, "fusion_lat": 0.0, "type": "electric_bike", "name": "120f46fedcf828dfa1cd2b40dc24da69", "is_disabled": 0, "rental_uris": {"ios": "https://dc.lft.to/lastmile_qr_scan", "android": "https://dc.lft.to/lastmile_qr_scan"}, "is_reserved": 0}, {"lon": -77.0305595, "bike_id": "187787b231d49bbb277abb33e73726a9", "lat": 38.9171695, "fusion_lon": 0.0, "fusion_lat": 0.0, "type": "electric_scooter", "name": "187787b231d49bbb277abb33e73726a9", "is_disabled": 0, "rental_uris": {"ios": "https://dc.lft.to/lastmile_qr_scan", "android": "https://dc.lft.to/lastmile_qr_scan"}, "is_reserved": 0}, {"lon": -77.03167683333334, "bike_id": "d91cc729c187d8ef9b3cc8aa881b7a12", "lat": 38.9210825, "fusion_lon": 0.0, "fusion_lat": 0.0, "type": "electric_scooter", "name": "d91cc729c187d8ef9b3cc8aa881b7a12", "is_disabled": 0, "rental_uris": {"ios": "https://dc.lft.to/lastmile_qr_scan", "android": "https://dc.lft.to/lastmile_qr_scan"}, "is_reserved": 0}, {"lon": -77.0383645, "bike_id": "95173031f4ad35c46e460414f3b0f8cf", "lat": 38.90372216666667, "fusion_lon": 0.0, "fusion_lat": 0.0, "type": "electric_scooter", "name": "95173031f4ad35c46e460414f3b0f8cf", "is_disabled": 0, "rental_uris": {"ios": "https://dc.lft.to/lastmile_qr_scan", "android": "https://dc.lft.to/lastmile_qr_scan"}, "is_reserved": 0}, {"lon": -76.988854, "bike_id": "052430810daf7284db1dcb1cab1bfeb7", "lat": 38.86656116666666, "fusion_lon": 0.0, "fusion_lat": 0.0, "type": "electric_scooter", "name": "052430810daf7284db1dcb1cab1bfeb7", "is_disabled": 0, "rental_uris": {"ios": "https://dc.lft.to/lastmile_qr_scan", "android": "https://dc.lft.to/lastmile_qr_scan"}, "is_reserved": 0}, {"lon": -77.02115, "bike_id": "dc63a331c510322400ff072c9bc30a1e", "lat": 38.93576483333333, "fusion_lon": 0.0, "fusion_lat": 0.0, "type": "electric_bike", "name": "dc63a331c510322400ff072c9bc30a1e", "is_disabled": 0, "rental_uris": {"ios": "https://dc.lft.to/lastmile_qr_scan", "android": "https://dc.lft.to/lastmile_qr_scan"}, "is_reserved": 0}, {"lon": -77.04018466666666, "bike_id": "74b1993e3e26ae69a69edefe118b3d01", "lat": 38.9245185, "fusion_lon": 0.0, "fusion_lat": 0.0, "type": "electric_scooter", "name": "74b1993e3e26ae69a69edefe118b3d01", "is_disabled": 0, "rental_uris": {"ios": "https://dc.lft.to/lastmile_qr_scan", "android": "https://dc.lft.to/lastmile_qr_scan"}, "is_reserved": 0}, {"lon": -77.0218995, "bike_id": "3813d08cec32730123b98338b82d1330", "lat": 38.895072166666665, "fusion_lon": 0.0, "fusion_lat": 0.0, "type": "electric_scooter", "name": "3813d08cec32730123b98338b82d1330", "is_disabled": 0, "rental_uris": {"ios": "https://dc.lft.to/lastmile_qr_scan", "android": "https://dc.lft.to/lastmile_qr_scan"}, "is_reserved": 0}, {"lon": -76.987085, "bike_id": "6ad1c7eadcca6936860f1be0123c0b23", "lat": 38.8670425, "fusion_lon": 0.0, "fusion_lat": 0.0, "type": "electric_scooter", "name": "6ad1c7eadcca6936860f1be0123c0b23", "is_disabled": 0, "rental_uris": {"ios": "https://dc.lft.to/lastmile_qr_scan", "android": "https://dc.lft.to/lastmile_qr_scan"}, "is_reserved": 0}, {"lon": -77.017419, "bike_id": "8e8114574906184c9827f0533fd2e1d0", "lat": 38.902452833333335, "fusion_lon": 0.0, "fusion_lat": 0.0, "type": "electric_scooter", "name": "8e8114574906184c9827f0533fd2e1d0", "is_disabled": 0, "rental_uris": {"ios": "https://dc.lft.to/lastmile_qr_scan", "android": "https://dc.lft.to/lastmile_qr_scan"}, "is_reserved": 0}, {"lon": -77.03762166666667, "bike_id": "f238c3d0d2d5229c8d7be52cb3848ad8", "lat": 38.92884433333333, "fusion_lon": 0.0, "fusion_lat": 0.0, "type": "electric_scooter", "name": "f238c3d0d2d5229c8d7be52cb3848ad8", "is_disabled": 0, "rental_uris": {"ios": "https://dc.lft.to/lastmile_qr_scan", "android": "https://dc.lft.to/lastmile_qr_scan"}, "is_reserved": 0}, {"lon": -77.0223, "bike_id": "ad1ca3a91014768d654a25124c4edcc9", "lat": 38.926227833333336, "fusion_lon": 0.0, "fusion_lat": 0.0, "type": "electric_scooter", "name": "ad1ca3a91014768d654a25124c4edcc9", "is_disabled": 0, "rental_uris": {"ios": "https://dc.lft.to/lastmile_qr_scan", "android": "https://dc.lft.to/lastmile_qr_scan"}, "is_reserved": 0}, {"lon": -77.03189233333333, "bike_id": "a591f870baded51839d906a3ba2f2f82", "lat": 38.90975266666667, "fusion_lon": 0.0, "fusion_lat": 0.0, "type": "electric_scooter", "name": "a591f870baded51839d906a3ba2f2f82", "is_disabled": 0, "rental_uris": {"ios": "https://dc.lft.to/lastmile_qr_scan", "android": "https://dc.lft.to/lastmile_qr_scan"}, "is_reserved": 0}, {"lon": -77.0525465, "bike_id": "ccba786bfb5e744eb7feae5e39adde2d", "lat": 38.899997666666664, "fusion_lon": 0.0, "fusion_lat": 0.0, "type": "electric_scooter", "name": "ccba786bfb5e744eb7feae5e39adde2d", "is_disabled": 0, "rental_uris": {"ios": "https://dc.lft.to/lastmile_qr_scan", "android": "https://dc.lft.to/lastmile_qr_scan"}, "is_reserved": 0}, {"lon": -77.04390633333334, "bike_id": "1e0036d769071ce518917b464dea7f14", "lat": 39.047156, "fusion_lon": 0.0, "fusion_lat": 0.0, "type": "electric_bike", "name": "1e0036d769071ce518917b464dea7f14", "is_disabled": 0, "rental_uris": {"ios": "https://dc.lft.to/lastmile_qr_scan", "android": "https://dc.lft.to/lastmile_qr_scan"}, "is_reserved": 0}, {"lon": -77.02839, "bike_id": "d5dfb5a7c7f40ba6817230f1e5fae84f", "lat": 38.9256665, "fusion_lon": 0.0, "fusion_lat": 0.0, "type": "electric_scooter", "name": "d5dfb5a7c7f40ba6817230f1e5fae84f", "is_disabled": 0, "rental_uris": {"ios": "https://dc.lft.to/lastmile_qr_scan", "android": "https://dc.lft.to/lastmile_qr_scan"}, "is_reserved": 0}, {"lon": -76.98922066666667, "bike_id": "3d4dd006fadc1bac5f7ab0ca99859436", "lat": 38.8580895, "fusion_lon": 0.0, "fusion_lat": 0.0, "type": "electric_scooter", "name": "3d4dd006fadc1bac5f7ab0ca99859436", "is_disabled": 0, "rental_uris": {"ios": "https://dc.lft.to/lastmile_qr_scan", "android": "https://dc.lft.to/lastmile_qr_scan"}, "is_reserved": 0}, {"lon": -76.97191466666666, "bike_id": "23cbb16a21ad650806c712f607a58ce6", "lat": 38.87393566666667, "fusion_lon": 0.0, "fusion_lat": 0.0, "type": "electric_scooter", "name": "23cbb16a21ad650806c712f607a58ce6", "is_disabled": 0, "rental_uris": {"ios": "https://dc.lft.to/lastmile_qr_scan", "android": "https://dc.lft.to/lastmile_qr_scan"}, "is_reserved": 0}, {"lon": -77.021078, "bike_id": "6be3c7be5bfd466e25b794f41fd5c0bb", "lat": 38.906137333333334, "fusion_lon": 0.0, "fusion_lat": 0.0, "type": "electric_scooter", "name": "6be3c7be5bfd466e25b794f41fd5c0bb", "is_disabled": 0, "rental_uris": {"ios": "https://dc.lft.to/lastmile_qr_scan", "android": "https://dc.lft.to/lastmile_qr_scan"}, "is_reserved": 0}, {"lon": -77.02240416666666, "bike_id": "58ee82295a979898bfebbb932f1ae7cc", "lat": 38.96209316666667, "fusion_lon": 0.0, "fusion_lat": 0.0, "type": "electric_bike", "name": "58ee82295a979898bfebbb932f1ae7cc", "is_disabled": 0, "rental_uris": {"ios": "https://dc.lft.to/lastmile_qr_scan", "android": "https://dc.lft.to/lastmile_qr_scan"}, "is_reserved": 0}, {"lon": -77.02399266666667, "bike_id": "8245e54e8dfd08cc2a3eaf212c6119d2", "lat": 38.92082083333333, "fusion_lon": 0.0, "fusion_lat": 0.0, "type": "electric_scooter", "name": "8245e54e8dfd08cc2a3eaf212c6119d2", "is_disabled": 0, "rental_uris": {"ios": "https://dc.lft.to/lastmile_qr_scan", "android": "https://dc.lft.to/lastmile_qr_scan"}, "is_reserved": 0}, {"lon": -77.03449733333333, "bike_id": "811510404683ca0373e1906ff580402b", "lat": 38.90952466666667, "fusion_lon": 0.0, "fusion_lat": 0.0, "type": "electric_scooter", "name": "811510404683ca0373e1906ff580402b", "is_disabled": 0, "rental_uris": {"ios": "https://dc.lft.to/lastmile_qr_scan", "android": "https://dc.lft.to/lastmile_qr_scan"}, "is_reserved": 0}, {"lon": -77.04348016666667, "bike_id": "536c433e13f30edd70ed7fcd8aefddc0", "lat": 38.90721083333333, "fusion_lon": 0.0, "fusion_lat": 0.0, "type": "electric_scooter", "name": "536c433e13f30edd70ed7fcd8aefddc0", "is_disabled": 0, "rental_uris": {"ios": "https://dc.lft.to/lastmile_qr_scan", "android": "https://dc.lft.to/lastmile_qr_scan"}, "is_reserved": 0}, {"lon": -76.95234483333333, "bike_id": "e4fa586658e2eb2f2469f7b777c44898", "lat": 38.8909945, "fusion_lon": 0.0, "fusion_lat": 0.0, "type": "electric_scooter", "name": "e4fa586658e2eb2f2469f7b777c44898", "is_disabled": 0, "rental_uris": {"ios": "https://dc.lft.to/lastmile_qr_scan", "android": "https://dc.lft.to/lastmile_qr_scan"}, "is_reserved": 0}, {"lon": -77.03181883333333, "bike_id": "46708ef00a7c24a93651a5f3556d38a7", "lat": 38.905156833333336, "fusion_lon": 0.0, "fusion_lat": 0.0, "type": "electric_scooter", "name": "46708ef00a7c24a93651a5f3556d38a7", "is_disabled": 0, "rental_uris": {"ios": "https://dc.lft.to/lastmile_qr_scan", "android": "https://dc.lft.to/lastmile_qr_scan"}, "is_reserved": 0}, {"lon": -76.976201, "bike_id": "269c8a3cf50a5fc002b639270458d69f", "lat": 38.92653383333333, "fusion_lon": 0.0, "fusion_lat": 0.0, "type": "electric_scooter", "name": "269c8a3cf50a5fc002b639270458d69f", "is_disabled": 0, "rental_uris": {"ios": "https://dc.lft.to/lastmile_qr_scan", "android": "https://dc.lft.to/lastmile_qr_scan"}, "is_reserved": 0}, {"lon": -77.01869016666667, "bike_id": "0e3441b8480447873c0cbbdacd8d810a", "lat": 38.951520333333335, "fusion_lon": 0.0, "fusion_lat": 0.0, "type": "electric_scooter", "name": "0e3441b8480447873c0cbbdacd8d810a", "is_disabled": 0, "rental_uris": {"ios": "https://dc.lft.to/lastmile_qr_scan", "android": "https://dc.lft.to/lastmile_qr_scan"}, "is_reserved": 0}, {"lon": -77.059626, "bike_id": "fd8c24ffb7d2dd7698ce071c1981ba5f", "lat": 38.807337, "fusion_lon": 0.0, "fusion_lat": 0.0, "type": "electric_bike", "name": "fd8c24ffb7d2dd7698ce071c1981ba5f", "is_disabled": 0, "rental_uris": {"ios": "https://dc.lft.to/lastmile_qr_scan", "android": "https://dc.lft.to/lastmile_qr_scan"}, "is_reserved": 0}, {"lon": -77.04185, "bike_id": "4b3253d1a6d068e9b057ed50a794c37e", "lat": 38.92621666666667, "fusion_lon": 0.0, "fusion_lat": 0.0, "type": "electric_scooter", "name": "4b3253d1a6d068e9b057ed50a794c37e", "is_disabled": 0, "rental_uris": {"ios": "https://dc.lft.to/lastmile_qr_scan", "android": "https://dc.lft.to/lastmile_qr_scan"}, "is_reserved": 0}, {"lon": -76.991026, "bike_id": "0b3ecff5fc1ededc40b6dd5c592b2bc0", "lat": 38.90320416666667, "fusion_lon": 0.0, "fusion_lat": 0.0, "type": "electric_scooter", "name": "0b3ecff5fc1ededc40b6dd5c592b2bc0", "is_disabled": 0, "rental_uris": {"ios": "https://dc.lft.to/lastmile_qr_scan", "android": "https://dc.lft.to/lastmile_qr_scan"}, "is_reserved": 0}, {"lon": -77.08810966666667, "bike_id": "7c86ad1188e1047c83ceb1255a10ec1d", "lat": 38.911759333333336, "fusion_lon": 0.0, "fusion_lat": 0.0, "type": "electric_bike", "name": "7c86ad1188e1047c83ceb1255a10ec1d", "is_disabled": 0, "rental_uris": {"ios": "https://dc.lft.to/lastmile_qr_scan", "android": "https://dc.lft.to/lastmile_qr_scan"}, "is_reserved": 0}, {"lon": -77.03917533333333, "bike_id": "b4b7b10899fa0445d436417e1a1a557a", "lat": 38.927981333333335, "fusion_lon": 0.0, "fusion_lat": 0.0, "type": "electric_scooter", "name": "b4b7b10899fa0445d436417e1a1a557a", "is_disabled": 0, "rental_uris": {"ios": "https://dc.lft.to/lastmile_qr_scan", "android": "https://dc.lft.to/lastmile_qr_scan"}, "is_reserved": 0}, {"lon": -77.00700066666667, "bike_id": "dec2b2b261907a1ac0df3a20e8a1f67e", "lat": 38.900225166666665, "fusion_lon": 0.0, "fusion_lat": 0.0, "type": "electric_scooter", "name": "dec2b2b261907a1ac0df3a20e8a1f67e", "is_disabled": 0, "rental_uris": {"ios": "https://dc.lft.to/lastmile_qr_scan", "android": "https://dc.lft.to/lastmile_qr_scan"}, "is_reserved": 0}, {"lon": -77.03633366666666, "bike_id": "a8751a00c08f79714ed43aac39f23117", "lat": 38.924662, "fusion_lon": 0.0, "fusion_lat": 0.0, "type": "electric_scooter", "name": "a8751a00c08f79714ed43aac39f23117", "is_disabled": 0, "rental_uris": {"ios": "https://dc.lft.to/lastmile_qr_scan", "android": "https://dc.lft.to/lastmile_qr_scan"}, "is_reserved": 0}, {"lon": -77.03668083333334, "bike_id": "6ba520caeccab06d556d30b5bfc65f21", "lat": 38.92325666666667, "fusion_lon": 0.0, "fusion_lat": 0.0, "type": "electric_scooter", "name": "6ba520caeccab06d556d30b5bfc65f21", "is_disabled": 0, "rental_uris": {"ios": "https://dc.lft.to/lastmile_qr_scan", "android": "https://dc.lft.to/lastmile_qr_scan"}, "is_reserved": 0}, {"lon": -77.02532333333333, "bike_id": "de6bfde013d8bfb62d66e277cc96d090", "lat": 38.943009, "fusion_lon": 0.0, "fusion_lat": 0.0, "type": "electric_scooter", "name": "de6bfde013d8bfb62d66e277cc96d090", "is_disabled": 0, "rental_uris": {"ios": "https://dc.lft.to/lastmile_qr_scan", "android": "https://dc.lft.to/lastmile_qr_scan"}, "is_reserved": 0}, {"lon": -77.02461033333333, "bike_id": "faadc79b6536b96d05c6e810efe826f6", "lat": 38.8842695, "fusion_lon": 0.0, "fusion_lat": 0.0, "type": "electric_scooter", "name": "faadc79b6536b96d05c6e810efe826f6", "is_disabled": 0, "rental_uris": {"ios": "https://dc.lft.to/lastmile_qr_scan", "android": "https://dc.lft.to/lastmile_qr_scan"}, "is_reserved": 0}, {"lon": -76.969895, "bike_id": "c6d84b4d7948b18eb78f3cb80a966f46", "lat": 38.87372083333333, "fusion_lon": 0.0, "fusion_lat": 0.0, "type": "electric_scooter", "name": "c6d84b4d7948b18eb78f3cb80a966f46", "is_disabled": 0, "rental_uris": {"ios": "https://dc.lft.to/lastmile_qr_scan", "android": "https://dc.lft.to/lastmile_qr_scan"}, "is_reserved": 0}, {"lon": -77.0613425, "bike_id": "f328c699400f3ef2252cbf7d227f433a", "lat": 38.943626333333334, "fusion_lon": 0.0, "fusion_lat": 0.0, "type": "electric_scooter", "name": "f328c699400f3ef2252cbf7d227f433a", "is_disabled": 0, "rental_uris": {"ios": "https://dc.lft.to/lastmile_qr_scan", "android": "https://dc.lft.to/lastmile_qr_scan"}, "is_reserved": 0}, {"lon": -77.01670416666667, "bike_id": "d5cbe2bf1e9435f6e2be82c0cf35a93f", "lat": 38.881135, "fusion_lon": 0.0, "fusion_lat": 0.0, "type": "electric_bike", "name": "d5cbe2bf1e9435f6e2be82c0cf35a93f", "is_disabled": 0, "rental_uris": {"ios": "https://dc.lft.to/lastmile_qr_scan", "android": "https://dc.lft.to/lastmile_qr_scan"}, "is_reserved": 0}, {"lon": -76.9962475, "bike_id": "0bbf7cfa68f9b6400ef94904b9da5b3e", "lat": 38.908988666666666, "fusion_lon": 0.0, "fusion_lat": 0.0, "type": "electric_scooter", "name": "0bbf7cfa68f9b6400ef94904b9da5b3e", "is_disabled": 0, "rental_uris": {"ios": "https://dc.lft.to/lastmile_qr_scan", "android": "https://dc.lft.to/lastmile_qr_scan"}, "is_reserved": 0}, {"lon": -77.03480266666666, "bike_id": "fb7c945b39acdfdb8b32dc237080cb78", "lat": 38.927456666666664, "fusion_lon": 0.0, "fusion_lat": 0.0, "type": "electric_scooter", "name": "fb7c945b39acdfdb8b32dc237080cb78", "is_disabled": 0, "rental_uris": {"ios": "https://dc.lft.to/lastmile_qr_scan", "android": "https://dc.lft.to/lastmile_qr_scan"}, "is_reserved": 0}, {"lon": -77.042174, "bike_id": "330db394605b609a4bf1b539e8cd310e", "lat": 38.91342816666667, "fusion_lon": 0.0, "fusion_lat": 0.0, "type": "electric_scooter", "name": "330db394605b609a4bf1b539e8cd310e", "is_disabled": 0, "rental_uris": {"ios": "https://dc.lft.to/lastmile_qr_scan", "android": "https://dc.lft.to/lastmile_qr_scan"}, "is_reserved": 0}, {"lon": -77.03857866666667, "bike_id": "31f279f37c86018a625be655047c76b2", "lat": 38.916842833333334, "fusion_lon": 0.0, "fusion_lat": 0.0, "type": "electric_scooter", "name": "31f279f37c86018a625be655047c76b2", "is_disabled": 0, "rental_uris": {"ios": "https://dc.lft.to/lastmile_qr_scan", "android": "https://dc.lft.to/lastmile_qr_scan"}, "is_reserved": 0}, {"lon": -77.025503, "bike_id": "a6ec831a6f9a5f3f337587af8dbbadc9", "lat": 38.904197833333335, "fusion_lon": 0.0, "fusion_lat": 0.0, "type": "electric_scooter", "name": "a6ec831a6f9a5f3f337587af8dbbadc9", "is_disabled": 0, "rental_uris": {"ios": "https://dc.lft.to/lastmile_qr_scan", "android": "https://dc.lft.to/lastmile_qr_scan"}, "is_reserved": 0}, {"lon": -77.03142816666667, "bike_id": "8b71a51a11f8e7a5b8328409af1e3548", "lat": 38.91561083333333, "fusion_lon": 0.0, "fusion_lat": 0.0, "type": "electric_scooter", "name": "8b71a51a11f8e7a5b8328409af1e3548", "is_disabled": 0, "rental_uris": {"ios": "https://dc.lft.to/lastmile_qr_scan", "android": "https://dc.lft.to/lastmile_qr_scan"}, "is_reserved": 0}, {"lon": -77.07798316666667, "bike_id": "f358aa29c651f95cc9e916aa08b0217d", "lat": 38.996042, "fusion_lon": 0.0, "fusion_lat": 0.0, "type": "electric_bike", "name": "f358aa29c651f95cc9e916aa08b0217d", "is_disabled": 0, "rental_uris": {"ios": "https://dc.lft.to/lastmile_qr_scan", "android": "https://dc.lft.to/lastmile_qr_scan"}, "is_reserved": 0}, {"lon": -77.00131516666667, "bike_id": "106178c13efbe99b6ee5754608365773", "lat": 38.88524133333333, "fusion_lon": 0.0, "fusion_lat": 0.0, "type": "electric_scooter", "name": "106178c13efbe99b6ee5754608365773", "is_disabled": 0, "rental_uris": {"ios": "https://dc.lft.to/lastmile_qr_scan", "android": "https://dc.lft.to/lastmile_qr_scan"}, "is_reserved": 0}, {"lon": -76.977758, "bike_id": "78b86c854a6bf312f8b7d8ecf30810bc", "lat": 38.8990065, "fusion_lon": 0.0, "fusion_lat": 0.0, "type": "electric_scooter", "name": "78b86c854a6bf312f8b7d8ecf30810bc", "is_disabled": 0, "rental_uris": {"ios": "https://dc.lft.to/lastmile_qr_scan", "android": "https://dc.lft.to/lastmile_qr_scan"}, "is_reserved": 0}, {"lon": -77.0497655, "bike_id": "d71cc2bb9fc688b2deec8efed628a450", "lat": 38.899926666666666, "fusion_lon": 0.0, "fusion_lat": 0.0, "type": "electric_scooter", "name": "d71cc2bb9fc688b2deec8efed628a450", "is_disabled": 0, "rental_uris": {"ios": "https://dc.lft.to/lastmile_qr_scan", "android": "https://dc.lft.to/lastmile_qr_scan"}, "is_reserved": 0}, {"lon": -77.03626716666666, "bike_id": "90559a1a1174c8bd5d0fa8e68f7fe0fc", "lat": 38.93297833333333, "fusion_lon": 0.0, "fusion_lat": 0.0, "type": "electric_scooter", "name": "90559a1a1174c8bd5d0fa8e68f7fe0fc", "is_disabled": 0, "rental_uris": {"ios": "https://dc.lft.to/lastmile_qr_scan", "android": "https://dc.lft.to/lastmile_qr_scan"}, "is_reserved": 0}, {"lon": -77.028551, "bike_id": "37d0f5c030b42a3f885deee92761bb5e", "lat": 38.887436666666666, "fusion_lon": 0.0, "fusion_lat": 0.0, "type": "electric_scooter", "name": "37d0f5c030b42a3f885deee92761bb5e", "is_disabled": 0, "rental_uris": {"ios": "https://dc.lft.to/lastmile_qr_scan", "android": "https://dc.lft.to/lastmile_qr_scan"}, "is_reserved": 0}, {"lon": -76.97628516666667, "bike_id": "f1f36d127acbeb6d9d83a93c13317c7c", "lat": 38.90572916666667, "fusion_lon": 0.0, "fusion_lat": 0.0, "type": "electric_scooter", "name": "f1f36d127acbeb6d9d83a93c13317c7c", "is_disabled": 0, "rental_uris": {"ios": "https://dc.lft.to/lastmile_qr_scan", "android": "https://dc.lft.to/lastmile_qr_scan"}, "is_reserved": 0}, {"lon": -77.02510366666667, "bike_id": "b2486ad5c61923e0230c978b02dd80bd", "lat": 38.939687666666664, "fusion_lon": 0.0, "fusion_lat": 0.0, "type": "electric_scooter", "name": "b2486ad5c61923e0230c978b02dd80bd", "is_disabled": 0, "rental_uris": {"ios": "https://dc.lft.to/lastmile_qr_scan", "android": "https://dc.lft.to/lastmile_qr_scan"}, "is_reserved": 0}, {"lon": -77.0344305, "bike_id": "f188032e456fc08b7fdc7a4a7f1e60d6", "lat": 38.909747, "fusion_lon": 0.0, "fusion_lat": 0.0, "type": "electric_scooter", "name": "f188032e456fc08b7fdc7a4a7f1e60d6", "is_disabled": 0, "rental_uris": {"ios": "https://dc.lft.to/lastmile_qr_scan", "android": "https://dc.lft.to/lastmile_qr_scan"}, "is_reserved": 0}, {"lon": -77.074541, "bike_id": "cca4b763d503d02752e58d71796c1353", "lat": 38.9451135, "fusion_lon": 0.0, "fusion_lat": 0.0, "type": "electric_scooter", "name": "cca4b763d503d02752e58d71796c1353", "is_disabled": 0, "rental_uris": {"ios": "https://dc.lft.to/lastmile_qr_scan", "android": "https://dc.lft.to/lastmile_qr_scan"}, "is_reserved": 0}, {"lon": -76.99935016666667, "bike_id": "03a0dec4387b17a9ea2e644afb6d8709", "lat": 38.843145, "fusion_lon": 0.0, "fusion_lat": 0.0, "type": "electric_scooter", "name": "03a0dec4387b17a9ea2e644afb6d8709", "is_disabled": 0, "rental_uris": {"ios": "https://dc.lft.to/lastmile_qr_scan", "android": "https://dc.lft.to/lastmile_qr_scan"}, "is_reserved": 0}, {"lon": -77.027033, "bike_id": "12838f41b0eb632f2acf7f0083f85a60", "lat": 38.906689666666665, "fusion_lon": 0.0, "fusion_lat": 0.0, "type": "electric_scooter", "name": "12838f41b0eb632f2acf7f0083f85a60", "is_disabled": 0, "rental_uris": {"ios": "https://dc.lft.to/lastmile_qr_scan", "android": "https://dc.lft.to/lastmile_qr_scan"}, "is_reserved": 0}, {"lon": -77.12530933333333, "bike_id": "16b665304c29a811588149268661d2cd", "lat": 39.05636766666667, "fusion_lon": 0.0, "fusion_lat": 0.0, "type": "electric_bike", "name": "16b665304c29a811588149268661d2cd", "is_disabled": 0, "rental_uris": {"ios": "https://dc.lft.to/lastmile_qr_scan", "android": "https://dc.lft.to/lastmile_qr_scan"}, "is_reserved": 0}, {"lon": -77.036568, "bike_id": "802dac9648de7d77194e721f048673ee", "lat": 38.91747083333333, "fusion_lon": 0.0, "fusion_lat": 0.0, "type": "electric_scooter", "name": "802dac9648de7d77194e721f048673ee", "is_disabled": 0, "rental_uris": {"ios": "https://dc.lft.to/lastmile_qr_scan", "android": "https://dc.lft.to/lastmile_qr_scan"}, "is_reserved": 0}, {"lon": -77.10908433333333, "bike_id": "636d70b06f70a01a597f93e5130b30a6", "lat": 39.051969666666665, "fusion_lon": 0.0, "fusion_lat": 0.0, "type": "electric_bike", "name": "636d70b06f70a01a597f93e5130b30a6", "is_disabled": 0, "rental_uris": {"ios": "https://dc.lft.to/lastmile_qr_scan", "android": "https://dc.lft.to/lastmile_qr_scan"}, "is_reserved": 0}, {"lon": -77.0142245, "bike_id": "c748f087367102c2495c8d9852a47173", "lat": 38.928015333333335, "fusion_lon": 0.0, "fusion_lat": 0.0, "type": "electric_scooter", "name": "c748f087367102c2495c8d9852a47173", "is_disabled": 0, "rental_uris": {"ios": "https://dc.lft.to/lastmile_qr_scan", "android": "https://dc.lft.to/lastmile_qr_scan"}, "is_reserved": 0}, {"lon": -77.0211825, "bike_id": "ccfa9fc2c8e90a952da40dbecc3ad5a6", "lat": 38.9530345, "fusion_lon": 0.0, "fusion_lat": 0.0, "type": "electric_bike", "name": "ccfa9fc2c8e90a952da40dbecc3ad5a6", "is_disabled": 0, "rental_uris": {"ios": "https://dc.lft.to/lastmile_qr_scan", "android": "https://dc.lft.to/lastmile_qr_scan"}, "is_reserved": 0}, {"lon": -77.04509633333333, "bike_id": "d37fea073d76e2fcaa8a2b64115287d3", "lat": 38.886040333333334, "fusion_lon": 0.0, "fusion_lat": 0.0, "type": "electric_scooter", "name": "d37fea073d76e2fcaa8a2b64115287d3", "is_disabled": 0, "rental_uris": {"ios": "https://dc.lft.to/lastmile_qr_scan", "android": "https://dc.lft.to/lastmile_qr_scan"}, "is_reserved": 0}, {"lon": -77.03228466666667, "bike_id": "440332fc6447f8cf55544e243c8cc63b", "lat": 38.896234, "fusion_lon": 0.0, "fusion_lat": 0.0, "type": "electric_scooter", "name": "440332fc6447f8cf55544e243c8cc63b", "is_disabled": 0, "rental_uris": {"ios": "https://dc.lft.to/lastmile_qr_scan", "android": "https://dc.lft.to/lastmile_qr_scan"}, "is_reserved": 0}, {"lon": -77.0388165, "bike_id": "08d82c95400daf24b7b67ccd81ec4966", "lat": 38.920056833333334, "fusion_lon": 0.0, "fusion_lat": 0.0, "type": "electric_scooter", "name": "08d82c95400daf24b7b67ccd81ec4966", "is_disabled": 0, "rental_uris": {"ios": "https://dc.lft.to/lastmile_qr_scan", "android": "https://dc.lft.to/lastmile_qr_scan"}, "is_reserved": 0}, {"lon": -77.02707566666666, "bike_id": "7bd7eb37cfa5b92ea3e0fac351492421", "lat": 38.92772866666667, "fusion_lon": 0.0, "fusion_lat": 0.0, "type": "electric_scooter", "name": "7bd7eb37cfa5b92ea3e0fac351492421", "is_disabled": 0, "rental_uris": {"ios": "https://dc.lft.to/lastmile_qr_scan", "android": "https://dc.lft.to/lastmile_qr_scan"}, "is_reserved": 0}, {"lon": -77.03659066666667, "bike_id": "f3916cc96e443b9aa414e67ab0b53721", "lat": 38.91747083333333, "fusion_lon": 0.0, "fusion_lat": 0.0, "type": "electric_scooter", "name": "f3916cc96e443b9aa414e67ab0b53721", "is_disabled": 0, "rental_uris": {"ios": "https://dc.lft.to/lastmile_qr_scan", "android": "https://dc.lft.to/lastmile_qr_scan"}, "is_reserved": 0}, {"lon": -76.92993783333333, "bike_id": "7d484794ac129b55ef6f4b16b6e8a6fe", "lat": 38.901876333333334, "fusion_lon": 0.0, "fusion_lat": 0.0, "type": "electric_scooter", "name": "7d484794ac129b55ef6f4b16b6e8a6fe", "is_disabled": 0, "rental_uris": {"ios": "https://dc.lft.to/lastmile_qr_scan", "android": "https://dc.lft.to/lastmile_qr_scan"}, "is_reserved": 0}, {"lon": -77.035849, "bike_id": "4e7b22ad62fe58318185971a4d8531f2", "lat": 38.91760266666667, "fusion_lon": 0.0, "fusion_lat": 0.0, "type": "electric_scooter", "name": "4e7b22ad62fe58318185971a4d8531f2", "is_disabled": 0, "rental_uris": {"ios": "https://dc.lft.to/lastmile_qr_scan", "android": "https://dc.lft.to/lastmile_qr_scan"}, "is_reserved": 0}, {"lon": -77.02287166666666, "bike_id": "7fb6847036a04446a549c93c3fb73fcd", "lat": 38.916805333333336, "fusion_lon": 0.0, "fusion_lat": 0.0, "type": "electric_scooter", "name": "7fb6847036a04446a549c93c3fb73fcd", "is_disabled": 0, "rental_uris": {"ios": "https://dc.lft.to/lastmile_qr_scan", "android": "https://dc.lft.to/lastmile_qr_scan"}, "is_reserved": 0}, {"lon": -77.04337666666666, "bike_id": "9aecc15607fbf49ded7637f19ce39001", "lat": 38.9072865, "fusion_lon": 0.0, "fusion_lat": 0.0, "type": "electric_scooter", "name": "9aecc15607fbf49ded7637f19ce39001", "is_disabled": 0, "rental_uris": {"ios": "https://dc.lft.to/lastmile_qr_scan", "android": "https://dc.lft.to/lastmile_qr_scan"}, "is_reserved": 0}, {"lon": -77.04028766666667, "bike_id": "fde9841e3d989091350d12263e448c9c", "lat": 38.911102166666666, "fusion_lon": 0.0, "fusion_lat": 0.0, "type": "electric_scooter", "name": "fde9841e3d989091350d12263e448c9c", "is_disabled": 0, "rental_uris": {"ios": "https://dc.lft.to/lastmile_qr_scan", "android": "https://dc.lft.to/lastmile_qr_scan"}, "is_reserved": 0}, {"lon": -77.02973933333334, "bike_id": "0188b1aa02014b475639072f51b57a7b", "lat": 38.939356333333336, "fusion_lon": 0.0, "fusion_lat": 0.0, "type": "electric_scooter", "name": "0188b1aa02014b475639072f51b57a7b", "is_disabled": 0, "rental_uris": {"ios": "https://dc.lft.to/lastmile_qr_scan", "android": "https://dc.lft.to/lastmile_qr_scan"}, "is_reserved": 0}, {"lon": -77.02106516666667, "bike_id": "8c0a526fe541a54357912e1667151649", "lat": 38.90561066666667, "fusion_lon": 0.0, "fusion_lat": 0.0, "type": "electric_scooter", "name": "8c0a526fe541a54357912e1667151649", "is_disabled": 0, "rental_uris": {"ios": "https://dc.lft.to/lastmile_qr_scan", "android": "https://dc.lft.to/lastmile_qr_scan"}, "is_reserved": 0}, {"lon": -77.06416966666667, "bike_id": "d7ab62e1b48d195d74d945f04964eebc", "lat": 38.99334366666667, "fusion_lon": 0.0, "fusion_lat": 0.0, "type": "electric_scooter", "name": "d7ab62e1b48d195d74d945f04964eebc", "is_disabled": 0, "rental_uris": {"ios": "https://dc.lft.to/lastmile_qr_scan", "android": "https://dc.lft.to/lastmile_qr_scan"}, "is_reserved": 0}, {"lon": -76.965221, "bike_id": "a9c425ff86d870c191a2cdd08e640615", "lat": 38.876252, "fusion_lon": 0.0, "fusion_lat": 0.0, "type": "electric_scooter", "name": "a9c425ff86d870c191a2cdd08e640615", "is_disabled": 0, "rental_uris": {"ios": "https://dc.lft.to/lastmile_qr_scan", "android": "https://dc.lft.to/lastmile_qr_scan"}, "is_reserved": 0}, {"lon": -77.05549183333333, "bike_id": "2c7fa5d0ceee12291cb3daace8024ec4", "lat": 38.9300835, "fusion_lon": 0.0, "fusion_lat": 0.0, "type": "electric_scooter", "name": "2c7fa5d0ceee12291cb3daace8024ec4", "is_disabled": 0, "rental_uris": {"ios": "https://dc.lft.to/lastmile_qr_scan", "android": "https://dc.lft.to/lastmile_qr_scan"}, "is_reserved": 0}, {"lon": -77.03631916666667, "bike_id": "a8c61b021007bc5fbc5ea21cb523096e", "lat": 38.94501183333333, "fusion_lon": 0.0, "fusion_lat": 0.0, "type": "electric_scooter", "name": "a8c61b021007bc5fbc5ea21cb523096e", "is_disabled": 0, "rental_uris": {"ios": "https://dc.lft.to/lastmile_qr_scan", "android": "https://dc.lft.to/lastmile_qr_scan"}, "is_reserved": 0}, {"lon": -77.02322066666666, "bike_id": "0a9cadfff3f1ae9a7ee7effe25c50a41", "lat": 38.92407683333333, "fusion_lon": 0.0, "fusion_lat": 0.0, "type": "electric_scooter", "name": "0a9cadfff3f1ae9a7ee7effe25c50a41", "is_disabled": 0, "rental_uris": {"ios": "https://dc.lft.to/lastmile_qr_scan", "android": "https://dc.lft.to/lastmile_qr_scan"}, "is_reserved": 0}, {"lon": -77.03669083333334, "bike_id": "48f38be881e61f28a01b45b27406416c", "lat": 38.939287666666665, "fusion_lon": 0.0, "fusion_lat": 0.0, "type": "electric_scooter", "name": "48f38be881e61f28a01b45b27406416c", "is_disabled": 0, "rental_uris": {"ios": "https://dc.lft.to/lastmile_qr_scan", "android": "https://dc.lft.to/lastmile_qr_scan"}, "is_reserved": 0}, {"lon": -77.03515083333333, "bike_id": "d91c8f3196e8005a13845aa2b3f94983", "lat": 38.92723066666667, "fusion_lon": 0.0, "fusion_lat": 0.0, "type": "electric_scooter", "name": "d91c8f3196e8005a13845aa2b3f94983", "is_disabled": 0, "rental_uris": {"ios": "https://dc.lft.to/lastmile_qr_scan", "android": "https://dc.lft.to/lastmile_qr_scan"}, "is_reserved": 0}, {"lon": -76.9754575, "bike_id": "c0aa1f7434e212ff4f5738c797b02f68", "lat": 38.903179, "fusion_lon": 0.0, "fusion_lat": 0.0, "type": "electric_scooter", "name": "c0aa1f7434e212ff4f5738c797b02f68", "is_disabled": 0, "rental_uris": {"ios": "https://dc.lft.to/lastmile_qr_scan", "android": "https://dc.lft.to/lastmile_qr_scan"}, "is_reserved": 0}, {"lon": -77.039585, "bike_id": "a64bdb60b49a900eda9301b60961cbe4", "lat": 38.915599666666665, "fusion_lon": 0.0, "fusion_lat": 0.0, "type": "electric_scooter", "name": "a64bdb60b49a900eda9301b60961cbe4", "is_disabled": 0, "rental_uris": {"ios": "https://dc.lft.to/lastmile_qr_scan", "android": "https://dc.lft.to/lastmile_qr_scan"}, "is_reserved": 0}, {"lon": -76.987338, "bike_id": "59ef17ca6e1a56dc69e009e6bad30841", "lat": 38.865797666666666, "fusion_lon": 0.0, "fusion_lat": 0.0, "type": "electric_bike", "name": "59ef17ca6e1a56dc69e009e6bad30841", "is_disabled": 0, "rental_uris": {"ios": "https://dc.lft.to/lastmile_qr_scan", "android": "https://dc.lft.to/lastmile_qr_scan"}, "is_reserved": 0}, {"lon": -77.03792, "bike_id": "cc4fb211004085e4e3108b2da1e3a929", "lat": 38.92572333333333, "fusion_lon": 0.0, "fusion_lat": 0.0, "type": "electric_scooter", "name": "cc4fb211004085e4e3108b2da1e3a929", "is_disabled": 0, "rental_uris": {"ios": "https://dc.lft.to/lastmile_qr_scan", "android": "https://dc.lft.to/lastmile_qr_scan"}, "is_reserved": 0}, {"lon": -77.02361183333333, "bike_id": "3d9fbf4010a42ee4832858185a66d5e1", "lat": 38.92222683333333, "fusion_lon": 0.0, "fusion_lat": 0.0, "type": "electric_scooter", "name": "3d9fbf4010a42ee4832858185a66d5e1", "is_disabled": 0, "rental_uris": {"ios": "https://dc.lft.to/lastmile_qr_scan", "android": "https://dc.lft.to/lastmile_qr_scan"}, "is_reserved": 0}, {"lon": -77.02648933333333, "bike_id": "986a18e72dfef8c48623f897e693b651", "lat": 38.8812025, "fusion_lon": 0.0, "fusion_lat": 0.0, "type": "electric_scooter", "name": "986a18e72dfef8c48623f897e693b651", "is_disabled": 0, "rental_uris": {"ios": "https://dc.lft.to/lastmile_qr_scan", "android": "https://dc.lft.to/lastmile_qr_scan"}, "is_reserved": 0}, {"lon": -77.04048483333334, "bike_id": "69182542ea73558aa62efe235c2dd832", "lat": 38.9287415, "fusion_lon": 0.0, "fusion_lat": 0.0, "type": "electric_scooter", "name": "69182542ea73558aa62efe235c2dd832", "is_disabled": 0, "rental_uris": {"ios": "https://dc.lft.to/lastmile_qr_scan", "android": "https://dc.lft.to/lastmile_qr_scan"}, "is_reserved": 0}, {"lon": -77.03202466666667, "bike_id": "92363812972e99b83fa76b78c04f3792", "lat": 38.907313333333335, "fusion_lon": 0.0, "fusion_lat": 0.0, "type": "electric_scooter", "name": "92363812972e99b83fa76b78c04f3792", "is_disabled": 0, "rental_uris": {"ios": "https://dc.lft.to/lastmile_qr_scan", "android": "https://dc.lft.to/lastmile_qr_scan"}, "is_reserved": 0}, {"lon": -77.03188866666666, "bike_id": "a3032bbf2aa10935ebbf6cc3a8dd29f3", "lat": 38.9097625, "fusion_lon": 0.0, "fusion_lat": 0.0, "type": "electric_scooter", "name": "a3032bbf2aa10935ebbf6cc3a8dd29f3", "is_disabled": 0, "rental_uris": {"ios": "https://dc.lft.to/lastmile_qr_scan", "android": "https://dc.lft.to/lastmile_qr_scan"}, "is_reserved": 0}, {"lon": -77.03169566666666, "bike_id": "e79626da66f161ba12f7fba8f98b8b8e", "lat": 38.89758333333333, "fusion_lon": 0.0, "fusion_lat": 0.0, "type": "electric_scooter", "name": "e79626da66f161ba12f7fba8f98b8b8e", "is_disabled": 0, "rental_uris": {"ios": "https://dc.lft.to/lastmile_qr_scan", "android": "https://dc.lft.to/lastmile_qr_scan"}, "is_reserved": 0}, {"lon": -77.00050883333333, "bike_id": "672a989a55dda433db028279d445cce5", "lat": 38.92393416666667, "fusion_lon": 0.0, "fusion_lat": 0.0, "type": "electric_scooter", "name": "672a989a55dda433db028279d445cce5", "is_disabled": 0, "rental_uris": {"ios": "https://dc.lft.to/lastmile_qr_scan", "android": "https://dc.lft.to/lastmile_qr_scan"}, "is_reserved": 0}, {"lon": -77.023077, "bike_id": "b5f9bfcb41eca727d893449fbf15a5c6", "lat": 38.894703, "fusion_lon": 0.0, "fusion_lat": 0.0, "type": "electric_scooter", "name": "b5f9bfcb41eca727d893449fbf15a5c6", "is_disabled": 0, "rental_uris": {"ios": "https://dc.lft.to/lastmile_qr_scan", "android": "https://dc.lft.to/lastmile_qr_scan"}, "is_reserved": 0}, {"lon": -77.04763066666666, "bike_id": "46cde5d151518abf671a4a0f5adab3a0", "lat": 38.91763233333333, "fusion_lon": 0.0, "fusion_lat": 0.0, "type": "electric_scooter", "name": "46cde5d151518abf671a4a0f5adab3a0", "is_disabled": 0, "rental_uris": {"ios": "https://dc.lft.to/lastmile_qr_scan", "android": "https://dc.lft.to/lastmile_qr_scan"}, "is_reserved": 0}, {"lon": -77.01201866666666, "bike_id": "e0d38d89707ad39cdc943854a1e80443", "lat": 38.8240735, "fusion_lon": 0.0, "fusion_lat": 0.0, "type": "electric_bike", "name": "e0d38d89707ad39cdc943854a1e80443", "is_disabled": 0, "rental_uris": {"ios": "https://dc.lft.to/lastmile_qr_scan", "android": "https://dc.lft.to/lastmile_qr_scan"}, "is_reserved": 0}, {"lon": -77.00145133333334, "bike_id": "0ea3f85d393834535e4c14ebedc96375", "lat": 38.910764666666665, "fusion_lon": 0.0, "fusion_lat": 0.0, "type": "electric_scooter", "name": "0ea3f85d393834535e4c14ebedc96375", "is_disabled": 0, "rental_uris": {"ios": "https://dc.lft.to/lastmile_qr_scan", "android": "https://dc.lft.to/lastmile_qr_scan"}, "is_reserved": 0}, {"lon": -76.98526016666666, "bike_id": "74b81efaab6a9443de8c49faa9de58b7", "lat": 38.90457333333333, "fusion_lon": 0.0, "fusion_lat": 0.0, "type": "electric_scooter", "name": "74b81efaab6a9443de8c49faa9de58b7", "is_disabled": 0, "rental_uris": {"ios": "https://dc.lft.to/lastmile_qr_scan", "android": "https://dc.lft.to/lastmile_qr_scan"}, "is_reserved": 0}, {"lon": -77.032075, "bike_id": "a967cbb0713137e0e272a29734f4bc9e", "lat": 38.91922683333333, "fusion_lon": 0.0, "fusion_lat": 0.0, "type": "electric_scooter", "name": "a967cbb0713137e0e272a29734f4bc9e", "is_disabled": 0, "rental_uris": {"ios": "https://dc.lft.to/lastmile_qr_scan", "android": "https://dc.lft.to/lastmile_qr_scan"}, "is_reserved": 0}, {"lon": -77.04595966666666, "bike_id": "ab01934436c59906a19b5d2734c25639", "lat": 38.913629666666665, "fusion_lon": 0.0, "fusion_lat": 0.0, "type": "electric_scooter", "name": "ab01934436c59906a19b5d2734c25639", "is_disabled": 0, "rental_uris": {"ios": "https://dc.lft.to/lastmile_qr_scan", "android": "https://dc.lft.to/lastmile_qr_scan"}, "is_reserved": 0}, {"lon": -76.95744633333334, "bike_id": "17ee291123f4000f4da7e70169393dcd", "lat": 38.88424216666667, "fusion_lon": 0.0, "fusion_lat": 0.0, "type": "electric_scooter", "name": "17ee291123f4000f4da7e70169393dcd", "is_disabled": 0, "rental_uris": {"ios": "https://dc.lft.to/lastmile_qr_scan", "android": "https://dc.lft.to/lastmile_qr_scan"}, "is_reserved": 0}, {"lon": -77.11709666666667, "bike_id": "41e4c713ca2457e3a6496b315b2434f8", "lat": 38.867461166666665, "fusion_lon": 0.0, "fusion_lat": 0.0, "type": "electric_bike", "name": "41e4c713ca2457e3a6496b315b2434f8", "is_disabled": 0, "rental_uris": {"ios": "https://dc.lft.to/lastmile_qr_scan", "android": "https://dc.lft.to/lastmile_qr_scan"}, "is_reserved": 0}, {"lon": -77.0033915, "bike_id": "efda319482982f72a236dd97e33ffb29", "lat": 38.89188683333333, "fusion_lon": 0.0, "fusion_lat": 0.0, "type": "electric_scooter", "name": "efda319482982f72a236dd97e33ffb29", "is_disabled": 0, "rental_uris": {"ios": "https://dc.lft.to/lastmile_qr_scan", "android": "https://dc.lft.to/lastmile_qr_scan"}, "is_reserved": 0}, {"lon": -77.03864966666667, "bike_id": "95559658d98cb72e945da9bf0112f881", "lat": 38.944996833333335, "fusion_lon": 0.0, "fusion_lat": 0.0, "type": "electric_scooter", "name": "95559658d98cb72e945da9bf0112f881", "is_disabled": 0, "rental_uris": {"ios": "https://dc.lft.to/lastmile_qr_scan", "android": "https://dc.lft.to/lastmile_qr_scan"}, "is_reserved": 0}, {"lon": -77.03454083333334, "bike_id": "de59e7d5664152445ffa22feb1ebf3e1", "lat": 38.902289833333334, "fusion_lon": 0.0, "fusion_lat": 0.0, "type": "electric_scooter", "name": "de59e7d5664152445ffa22feb1ebf3e1", "is_disabled": 0, "rental_uris": {"ios": "https://dc.lft.to/lastmile_qr_scan", "android": "https://dc.lft.to/lastmile_qr_scan"}, "is_reserved": 0}, {"lon": -76.93540016666667, "bike_id": "375a346943bd50995aefc9d4029ea737", "lat": 38.896809833333336, "fusion_lon": 0.0, "fusion_lat": 0.0, "type": "electric_scooter", "name": "375a346943bd50995aefc9d4029ea737", "is_disabled": 0, "rental_uris": {"ios": "https://dc.lft.to/lastmile_qr_scan", "android": "https://dc.lft.to/lastmile_qr_scan"}, "is_reserved": 0}, {"lon": -76.98102133333333, "bike_id": "b146920c1bff5acb71ddcb1a172f11c7", "lat": 38.8954975, "fusion_lon": 0.0, "fusion_lat": 0.0, "type": "electric_scooter", "name": "b146920c1bff5acb71ddcb1a172f11c7", "is_disabled": 0, "rental_uris": {"ios": "https://dc.lft.to/lastmile_qr_scan", "android": "https://dc.lft.to/lastmile_qr_scan"}, "is_reserved": 0}, {"lon": -77.027154, "bike_id": "6890143fec251a1fde295e2f26accb3b", "lat": 38.924681166666666, "fusion_lon": 0.0, "fusion_lat": 0.0, "type": "electric_scooter", "name": "6890143fec251a1fde295e2f26accb3b", "is_disabled": 0, "rental_uris": {"ios": "https://dc.lft.to/lastmile_qr_scan", "android": "https://dc.lft.to/lastmile_qr_scan"}, "is_reserved": 0}, {"lon": -76.96151783333333, "bike_id": "077ba6430b27d27548a57e8b6b665e6a", "lat": 38.88358483333333, "fusion_lon": 0.0, "fusion_lat": 0.0, "type": "electric_scooter", "name": "077ba6430b27d27548a57e8b6b665e6a", "is_disabled": 0, "rental_uris": {"ios": "https://dc.lft.to/lastmile_qr_scan", "android": "https://dc.lft.to/lastmile_qr_scan"}, "is_reserved": 0}, {"lon": -77.03187366666667, "bike_id": "1c0bd953e06f6c5e3416c9f92605c60e", "lat": 38.919233, "fusion_lon": 0.0, "fusion_lat": 0.0, "type": "electric_scooter", "name": "1c0bd953e06f6c5e3416c9f92605c60e", "is_disabled": 0, "rental_uris": {"ios": "https://dc.lft.to/lastmile_qr_scan", "android": "https://dc.lft.to/lastmile_qr_scan"}, "is_reserved": 0}, {"lon": -76.99048833333333, "bike_id": "63c3eb4ee0f7787f9d7681d4f343628f", "lat": 38.887651, "fusion_lon": 0.0, "fusion_lat": 0.0, "type": "electric_scooter", "name": "63c3eb4ee0f7787f9d7681d4f343628f", "is_disabled": 0, "rental_uris": {"ios": "https://dc.lft.to/lastmile_qr_scan", "android": "https://dc.lft.to/lastmile_qr_scan"}, "is_reserved": 0}, {"lon": -76.96784066666666, "bike_id": "3b32bf19a7f03575941a8035f56d5118", "lat": 38.868466833333336, "fusion_lon": 0.0, "fusion_lat": 0.0, "type": "electric_scooter", "name": "3b32bf19a7f03575941a8035f56d5118", "is_disabled": 0, "rental_uris": {"ios": "https://dc.lft.to/lastmile_qr_scan", "android": "https://dc.lft.to/lastmile_qr_scan"}, "is_reserved": 0}, {"lon": -77.008126, "bike_id": "b56e7bfac035dfa3030567af19320b24", "lat": 38.905669, "fusion_lon": 0.0, "fusion_lat": 0.0, "type": "electric_scooter", "name": "b56e7bfac035dfa3030567af19320b24", "is_disabled": 0, "rental_uris": {"ios": "https://dc.lft.to/lastmile_qr_scan", "android": "https://dc.lft.to/lastmile_qr_scan"}, "is_reserved": 0}, {"lon": -77.03549333333333, "bike_id": "d1a3dddd9a2a7f9952dec3414d000ce7", "lat": 38.908426666666664, "fusion_lon": 0.0, "fusion_lat": 0.0, "type": "electric_scooter", "name": "d1a3dddd9a2a7f9952dec3414d000ce7", "is_disabled": 0, "rental_uris": {"ios": "https://dc.lft.to/lastmile_qr_scan", "android": "https://dc.lft.to/lastmile_qr_scan"}, "is_reserved": 0}, {"lon": -77.01229, "bike_id": "aae005a10945e55787278e13d14482b8", "lat": 38.892906333333336, "fusion_lon": 0.0, "fusion_lat": 0.0, "type": "electric_scooter", "name": "aae005a10945e55787278e13d14482b8", "is_disabled": 0, "rental_uris": {"ios": "https://dc.lft.to/lastmile_qr_scan", "android": "https://dc.lft.to/lastmile_qr_scan"}, "is_reserved": 0}, {"lon": -77.0358595, "bike_id": "0b3d0b67a9632844d2a9856d6584beb4", "lat": 38.917616, "fusion_lon": 0.0, "fusion_lat": 0.0, "type": "electric_scooter", "name": "0b3d0b67a9632844d2a9856d6584beb4", "is_disabled": 0, "rental_uris": {"ios": "https://dc.lft.to/lastmile_qr_scan", "android": "https://dc.lft.to/lastmile_qr_scan"}, "is_reserved": 0}, {"lon": -76.9994565, "bike_id": "dff5bf3a0e060b5d8e474a0f631a6269", "lat": 38.90625283333333, "fusion_lon": 0.0, "fusion_lat": 0.0, "type": "electric_scooter", "name": "dff5bf3a0e060b5d8e474a0f631a6269", "is_disabled": 0, "rental_uris": {"ios": "https://dc.lft.to/lastmile_qr_scan", "android": "https://dc.lft.to/lastmile_qr_scan"}, "is_reserved": 0}, {"lon": -77.0318, "bike_id": "e2395f576b2f6b5b0e09bb72a8363794", "lat": 38.89222133333333, "fusion_lon": 0.0, "fusion_lat": 0.0, "type": "electric_scooter", "name": "e2395f576b2f6b5b0e09bb72a8363794", "is_disabled": 0, "rental_uris": {"ios": "https://dc.lft.to/lastmile_qr_scan", "android": "https://dc.lft.to/lastmile_qr_scan"}, "is_reserved": 0}, {"lon": -77.03906533333334, "bike_id": "9b30b8817bc5e67c652a8ed38a0cb570", "lat": 38.918432, "fusion_lon": 0.0, "fusion_lat": 0.0, "type": "electric_scooter", "name": "9b30b8817bc5e67c652a8ed38a0cb570", "is_disabled": 0, "rental_uris": {"ios": "https://dc.lft.to/lastmile_qr_scan", "android": "https://dc.lft.to/lastmile_qr_scan"}, "is_reserved": 0}, {"lon": -77.0162755, "bike_id": "fd628b90e1fd86f66f07a9b783b51f7d", "lat": 38.90571516666667, "fusion_lon": 0.0, "fusion_lat": 0.0, "type": "electric_scooter", "name": "fd628b90e1fd86f66f07a9b783b51f7d", "is_disabled": 0, "rental_uris": {"ios": "https://dc.lft.to/lastmile_qr_scan", "android": "https://dc.lft.to/lastmile_qr_scan"}, "is_reserved": 0}, {"lon": -77.03280916666667, "bike_id": "22e326134a3363dc96939aab29a89390", "lat": 38.940952333333335, "fusion_lon": 0.0, "fusion_lat": 0.0, "type": "electric_scooter", "name": "22e326134a3363dc96939aab29a89390", "is_disabled": 0, "rental_uris": {"ios": "https://dc.lft.to/lastmile_qr_scan", "android": "https://dc.lft.to/lastmile_qr_scan"}, "is_reserved": 0}, {"lon": -77.03762516666667, "bike_id": "246054294c519ffc264b0db7c4efec14", "lat": 38.9290785, "fusion_lon": 0.0, "fusion_lat": 0.0, "type": "electric_scooter", "name": "246054294c519ffc264b0db7c4efec14", "is_disabled": 0, "rental_uris": {"ios": "https://dc.lft.to/lastmile_qr_scan", "android": "https://dc.lft.to/lastmile_qr_scan"}, "is_reserved": 0}, {"lon": -77.04652633333333, "bike_id": "fe6b2068b504559b16336791f4dc592c", "lat": 38.9136255, "fusion_lon": 0.0, "fusion_lat": 0.0, "type": "electric_scooter", "name": "fe6b2068b504559b16336791f4dc592c", "is_disabled": 0, "rental_uris": {"ios": "https://dc.lft.to/lastmile_qr_scan", "android": "https://dc.lft.to/lastmile_qr_scan"}, "is_reserved": 0}, {"lon": -77.03169533333333, "bike_id": "a4772605204923786440bab1173a83e8", "lat": 38.914128833333336, "fusion_lon": 0.0, "fusion_lat": 0.0, "type": "electric_scooter", "name": "a4772605204923786440bab1173a83e8", "is_disabled": 0, "rental_uris": {"ios": "https://dc.lft.to/lastmile_qr_scan", "android": "https://dc.lft.to/lastmile_qr_scan"}, "is_reserved": 0}, {"lon": -77.16626266666667, "bike_id": "4e41bb6e3d8a950628ec619447b553ba", "lat": 38.888375333333336, "fusion_lon": 0.0, "fusion_lat": 0.0, "type": "electric_bike", "name": "4e41bb6e3d8a950628ec619447b553ba", "is_disabled": 0, "rental_uris": {"ios": "https://dc.lft.to/lastmile_qr_scan", "android": "https://dc.lft.to/lastmile_qr_scan"}, "is_reserved": 0}, {"lon": -76.99605833333334, "bike_id": "f522df745fc2c6459a60ad37db4ae18b", "lat": 38.93081016666667, "fusion_lon": 0.0, "fusion_lat": 0.0, "type": "electric_scooter", "name": "f522df745fc2c6459a60ad37db4ae18b", "is_disabled": 0, "rental_uris": {"ios": "https://dc.lft.to/lastmile_qr_scan", "android": "https://dc.lft.to/lastmile_qr_scan"}, "is_reserved": 0}, {"lon": -77.02499016666667, "bike_id": "71fd17ada15356fb517f80b93729085f", "lat": 38.92594116666667, "fusion_lon": 0.0, "fusion_lat": 0.0, "type": "electric_scooter", "name": "71fd17ada15356fb517f80b93729085f", "is_disabled": 0, "rental_uris": {"ios": "https://dc.lft.to/lastmile_qr_scan", "android": "https://dc.lft.to/lastmile_qr_scan"}, "is_reserved": 0}, {"lon": -77.032482, "bike_id": "c8ad5706ea53f3635c6e00c2a79a9baa", "lat": 38.93013233333333, "fusion_lon": 0.0, "fusion_lat": 0.0, "type": "electric_scooter", "name": "c8ad5706ea53f3635c6e00c2a79a9baa", "is_disabled": 0, "rental_uris": {"ios": "https://dc.lft.to/lastmile_qr_scan", "android": "https://dc.lft.to/lastmile_qr_scan"}, "is_reserved": 0}, {"lon": -77.04656183333333, "bike_id": "87728de9d8b10f7a97b7e84f78206881", "lat": 38.907811333333335, "fusion_lon": 0.0, "fusion_lat": 0.0, "type": "electric_scooter", "name": "87728de9d8b10f7a97b7e84f78206881", "is_disabled": 0, "rental_uris": {"ios": "https://dc.lft.to/lastmile_qr_scan", "android": "https://dc.lft.to/lastmile_qr_scan"}, "is_reserved": 0}, {"lon": -76.98656616666666, "bike_id": "e5e67b0c927d1423169e76813a4fc0ea", "lat": 38.867385666666664, "fusion_lon": 0.0, "fusion_lat": 0.0, "type": "electric_scooter", "name": "e5e67b0c927d1423169e76813a4fc0ea", "is_disabled": 0, "rental_uris": {"ios": "https://dc.lft.to/lastmile_qr_scan", "android": "https://dc.lft.to/lastmile_qr_scan"}, "is_reserved": 0}, {"lon": -77.0413545, "bike_id": "fc75a006f301b0d20a0aac08b50b5eb6", "lat": 38.942625166666666, "fusion_lon": 0.0, "fusion_lat": 0.0, "type": "electric_scooter", "name": "fc75a006f301b0d20a0aac08b50b5eb6", "is_disabled": 0, "rental_uris": {"ios": "https://dc.lft.to/lastmile_qr_scan", "android": "https://dc.lft.to/lastmile_qr_scan"}, "is_reserved": 0},