{"data": {"bikes": [{"is_reserved": 0, "fusion_lon": 0.0, "fusion_lat": 0.0, "name": "f412d9e9db866010f679eeca4166aebd", "type": "electric_bike", "is_disabled": 0, "lat": 38.96212966666667, "rental_uris": {"android": "https://dc.lft.to/lastmile_qr_scan", "ios": "https://dc.lft.to/lastmile_qr_scan"}, "bike_id": "f412d9e9db866010f679eeca4166aebd", "lon": -77.02629733333333}, {"is_reserved": 0, "fusion_lon": 0.0, "fusion_lat": 0.0, "name": "a8c26780556a7913794ad2abf6c8bd27", "type": "electric_scooter", "is_disabled": 0, "lat": 38.927458666666666, "rental_uris": {"android": "https://dc.lft.to/lastmile_qr_scan", "ios": "https://dc.lft.to/lastmile_qr_scan"}, "bike_id": "a8c26780556a7913794ad2abf6c8bd27", "lon": -77.02535083333333}, {"is_reserved": 0, "fusion_lon": 0.0, "fusion_lat": 0.0, "name": "e3a6e697ac3d929063af347f69130c3e", "type": "electric_scooter", "is_disabled": 0, "lat": 38.90971966666667, "rental_uris": {"android": "https://dc.lft.to/lastmile_qr_scan", "ios": "https://dc.lft.to/lastmile_qr_scan"}, "bike_id": "e3a6e697ac3d929063af347f69130c3e", "lon": -77.03214033333333}, {"is_reserved": 0, "fusion_lon": 0.0, "fusion_lat": 0.0, "name": "741289f02d9846eac8feaacaea9129b1", "type": "electric_scooter", "is_disabled": 0, "lat": 38.8637885, "rental_uris": {"android": "https://dc.lft.to/lastmile_qr_scan", "ios": "https://dc.lft.to/lastmile_qr_scan"}, "bike_id": "741289f02d9846eac8feaacaea9129b1", "lon": -76.98923483333333}, {"is_reserved": 0, "fusion_lon": 0.0, "fusion_lat": 0.0, "name": "e7403d1639975d8f7d24ceef6b32661e", "type": "electric_scooter", "is_disabled": 0, "lat": 38.918683333333334, "rental_uris": {"android": "https://dc.lft.to/lastmile_qr_scan", "ios": "https://dc.lft.to/lastmile_qr_scan"}, "bike_id": "e7403d1639975d8f7d24ceef6b32661e", "lon": -77.04443733333333}, {"is_reserved": 0, "fusion_lon": 0.0, "fusion_lat": 0.0, "name": "87a489df3ded63ed9b4afbfb36907db3", "type": "electric_bike", "is_disabled": 0, "lat": 38.858932, "rental_uris": {"android": "https://dc.lft.to/lastmile_qr_scan", "ios": "https://dc.lft.to/lastmile_qr_scan"}, "bike_id": "87a489df3ded63ed9b4afbfb36907db3", "lon": -77.11862533333333}, {"is_reserved": 0, "fusion_lon": 0.0, "fusion_lat": 0.0, "name": "a21ff90b5ac91b250288d44691a6ed30", "type": "electric_scooter", "is_disabled": 0, "lat": 38.907174, "rental_uris": {"android": "https://dc.lft.to/lastmile_qr_scan", "ios": "https://dc.lft.to/lastmile_qr_scan"}, "bike_id": "a21ff90b5ac91b250288d44691a6ed30", "lon": -77.0382135}, {"is_reserved": 0, "fusion_lon": 0.0, "fusion_lat": 0.0, "name": "14112e58b06e857953e67edb9e858a4d", "type": "electric_scooter", "is_disabled": 0, "lat": 38.91545933333333, "rental_uris": {"android": "https://dc.lft.to/lastmile_qr_scan", "ios": "https://dc.lft.to/lastmile_qr_scan"}, "bike_id": "14112e58b06e857953e67edb9e858a4d", "lon": -77.0379145}, {"is_reserved": 0, "fusion_lon": 0.0, "fusion_lat": 0.0, "name": "d66ac247a8a4a118dd7c52c8c08d8223", "type": "electric_scooter", "is_disabled": 0, "lat": 38.9215945, "rental_uris": {"android": "https://dc.lft.to/lastmile_qr_scan", "ios": "https://dc.lft.to/lastmile_qr_scan"}, "bike_id": "d66ac247a8a4a118dd7c52c8c08d8223", "lon": -77.033342}, {"is_reserved": 0, "fusion_lon": 0.0, "fusion_lat": 0.0, "name": "a08f25d9476d3bf0581c9c2f97fd2acb", "type": "electric_scooter", "is_disabled": 0, "lat": 38.905576, "rental_uris": {"android": "https://dc.lft.to/lastmile_qr_scan", "ios": "https://dc.lft.to/lastmile_qr_scan"}, "bike_id": "a08f25d9476d3bf0581c9c2f97fd2acb", "lon": -77.03436133333334}, {"is_reserved": 0, "fusion_lon": 0.0, "fusion_lat": 0.0, "name": "325ca82586dc46b5b2e81e19d03a532b", "type": "electric_scooter", "is_disabled": 0, "lat": 38.892267833333335, "rental_uris": {"android": "https://dc.lft.to/lastmile_qr_scan", "ios": "https://dc.lft.to/lastmile_qr_scan"}, "bike_id": "325ca82586dc46b5b2e81e19d03a532b", "lon": -77.03187083333333}, {"is_reserved": 0, "fusion_lon": 0.0, "fusion_lat": 0.0, "name": "583e4cc5e844fa9b3a9310cf29fb90db", "type": "electric_scooter", "is_disabled": 0, "lat": 38.945082166666666, "rental_uris": {"android": "https://dc.lft.to/lastmile_qr_scan", "ios": "https://dc.lft.to/lastmile_qr_scan"}, "bike_id": "583e4cc5e844fa9b3a9310cf29fb90db", "lon": -77.03316616666666}, {"is_reserved": 0, "fusion_lon": 0.0, "fusion_lat": 0.0, "name": "800b4fdad908abc23daea4b7e788af83", "type": "electric_scooter", "is_disabled": 0, "lat": 38.90808883333333, "rental_uris": {"android": "https://dc.lft.to/lastmile_qr_scan", "ios": "https://dc.lft.to/lastmile_qr_scan"}, "bike_id": "800b4fdad908abc23daea4b7e788af83", "lon": -77.04354783333334}, {"is_reserved": 0, "fusion_lon": 0.0, "fusion_lat": 0.0, "name": "ddf8c7acee747f92f0c99e03b8988e83", "type": "electric_scooter", "is_disabled": 0, "lat": 38.92876066666667, "rental_uris": {"android": "https://dc.lft.to/lastmile_qr_scan", "ios": "https://dc.lft.to/lastmile_qr_scan"}, "bike_id": "ddf8c7acee747f92f0c99e03b8988e83", "lon": -77.03325966666667}, {"is_reserved": 0, "fusion_lon": 0.0, "fusion_lat": 0.0, "name": "020fd543e1f145562ff181d56c13f72b", "type": "electric_scooter", "is_disabled": 0, "lat": 38.90789433333333, "rental_uris": {"android": "https://dc.lft.to/lastmile_qr_scan", "ios": "https://dc.lft.to/lastmile_qr_scan"}, "bike_id": "020fd543e1f145562ff181d56c13f72b", "lon": -77.038609}, {"is_reserved": 0, "fusion_lon": 0.0, "fusion_lat": 0.0, "name": "c517244abe9d445c992abc60904a6f09", "type": "electric_scooter", "is_disabled": 0, "lat": 38.911113, "rental_uris": {"android": "https://dc.lft.to/lastmile_qr_scan", "ios": "https://dc.lft.to/lastmile_qr_scan"}, "bike_id": "c517244abe9d445c992abc60904a6f09", "lon": -77.031507}, {"is_reserved": 0, "fusion_lon": 0.0, "fusion_lat": 0.0, "name": "4a02d406a36f558503baf3dc1f6aeb51", "type": "electric_scooter", "is_disabled": 0, "lat": 38.92310783333333, "rental_uris": {"android": "https://dc.lft.to/lastmile_qr_scan", "ios": "https://dc.lft.to/lastmile_qr_scan"}, "bike_id": "4a02d406a36f558503baf3dc1f6aeb51", "lon": -77.027508}, {"is_reserved": 0, "fusion_lon": 0.0, "fusion_lat": 0.0, "name": "61d3282a86cbc2776657ede8462730c1", "type": "electric_scooter", "is_disabled": 0, "lat": 38.9072815, "rental_uris": {"android": "https://dc.lft.to/lastmile_qr_scan", "ios": "https://dc.lft.to/lastmile_qr_scan"}, "bike_id": "61d3282a86cbc2776657ede8462730c1", "lon": -77.01132333333334}, {"is_reserved": 0, "fusion_lon": 0.0, "fusion_lat": 0.0, "name": "e145a1d66c10901d98e3e6a54c8f2f87", "type": "electric_scooter", "is_disabled": 0, "lat": 38.86533083333333, "rental_uris": {"android": "https://dc.lft.to/lastmile_qr_scan", "ios": "https://dc.lft.to/lastmile_qr_scan"}, "bike_id": "e145a1d66c10901d98e3e6a54c8f2f87", "lon": -76.98705266666667}, {"is_reserved": 0, "fusion_lon": 0.0, "fusion_lat": 0.0, "name": "e677a0b02d74d080891bad346c2e9c51", "type": "electric_scooter", "is_disabled": 0, "lat": 38.91554766666667, "rental_uris": {"android": "https://dc.lft.to/lastmile_qr_scan", "ios": "https://dc.lft.to/lastmile_qr_scan"}, "bike_id": "e677a0b02d74d080891bad346c2e9c51", "lon": -77.031635}, {"is_reserved": 0, "fusion_lon": 0.0, "fusion_lat": 0.0, "name": "3a452a662215522f1cff2bcf91d370da", "type": "electric_scooter", "is_disabled": 0, "lat": 38.9420445, "rental_uris": {"android": "https://dc.lft.to/lastmile_qr_scan", "ios": "https://dc.lft.to/lastmile_qr_scan"}, "bike_id": "3a452a662215522f1cff2bcf91d370da", "lon": -77.025148}, {"is_reserved": 0, "fusion_lon": 0.0, "fusion_lat": 0.0, "name": "366a575b8eb49008292b2b544701603f", "type": "electric_scooter", "is_disabled": 0, "lat": 38.9276275, "rental_uris": {"android": "https://dc.lft.to/lastmile_qr_scan", "ios": "https://dc.lft.to/lastmile_qr_scan"}, "bike_id": "366a575b8eb49008292b2b544701603f", "lon": -77.02787933333333}, {"is_reserved": 0, "fusion_lon": 0.0, "fusion_lat": 0.0, "name": "908fb9abace4dba69421e8fdd13a508d", "type": "electric_bike", "is_disabled": 0, "lat": 38.8727625, "rental_uris": {"android": "https://dc.lft.to/lastmile_qr_scan", "ios": "https://dc.lft.to/lastmile_qr_scan"}, "bike_id": "908fb9abace4dba69421e8fdd13a508d", "lon": -77.23317283333333}, {"is_reserved": 0, "fusion_lon": 0.0, "fusion_lat": 0.0, "name": "0a5d2842bdef8803f83037b0a7dbccb9", "type": "electric_scooter", "is_disabled": 0, "lat": 38.86697266666667, "rental_uris": {"android": "https://dc.lft.to/lastmile_qr_scan", "ios": "https://dc.lft.to/lastmile_qr_scan"}, "bike_id": "0a5d2842bdef8803f83037b0a7dbccb9", "lon": -76.98590683333333}, {"is_reserved": 0, "fusion_lon": 0.0, "fusion_lat": 0.0, "name": "a47af5c097085512a0c573449b7c37be", "type": "electric_bike", "is_disabled": 0, "lat": 38.961392000000004, "rental_uris": {"android": "https://dc.lft.to/lastmile_qr_scan", "ios": "https://dc.lft.to/lastmile_qr_scan"}, "bike_id": "a47af5c097085512a0c573449b7c37be", "lon": -77.0228995}, {"is_reserved": 0, "fusion_lon": 0.0, "fusion_lat": 0.0, "name": "24d95511272036c86d7628bc8cbc25f2", "type": "electric_scooter", "is_disabled": 0, "lat": 38.90380583333334, "rental_uris": {"android": "https://dc.lft.to/lastmile_qr_scan", "ios": "https://dc.lft.to/lastmile_qr_scan"}, "bike_id": "24d95511272036c86d7628bc8cbc25f2", "lon": -77.03834516666667}, {"is_reserved": 0, "fusion_lon": 0.0, "fusion_lat": 0.0, "name": "d8a62dea2f15af7453a6353cfae9b8d3", "type": "electric_scooter", "is_disabled": 0, "lat": 38.924463833333334, "rental_uris": {"android": "https://dc.lft.to/lastmile_qr_scan", "ios": "https://dc.lft.to/lastmile_qr_scan"}, "bike_id": "d8a62dea2f15af7453a6353cfae9b8d3", "lon": -77.04116966666666}, {"is_reserved": 0, "fusion_lon": 0.0, "fusion_lat": 0.0, "name": "b4538109950d112132becfa23f732dcc", "type": "electric_scooter", "is_disabled": 0, "lat": 38.8749655, "rental_uris": {"android": "https://dc.lft.to/lastmile_qr_scan", "ios": "https://dc.lft.to/lastmile_qr_scan"}, "bike_id": "b4538109950d112132becfa23f732dcc", "lon": -76.999775}, {"is_reserved": 0, "fusion_lon": 0.0, "fusion_lat": 0.0, "name": "751530be85978dd8445985a94f98ea51", "type": "electric_scooter", "is_disabled": 0, "lat": 38.8872545, "rental_uris": {"android": "https://dc.lft.to/lastmile_qr_scan", "ios": "https://dc.lft.to/lastmile_qr_scan"}, "bike_id": "751530be85978dd8445985a94f98ea51", "lon": -77.0281935}, {"is_reserved": 0, "fusion_lon": 0.0, "fusion_lat": 0.0, "name": "13e91e520f621d28ff7c758e54663823", "type": "electric_scooter", "is_disabled": 0, "lat": 38.89557283333333, "rental_uris": {"android": "https://dc.lft.to/lastmile_qr_scan", "ios": "https://dc.lft.to/lastmile_qr_scan"}, "bike_id": "13e91e520f621d28ff7c758e54663823", "lon": -77.04672983333333}, {"is_reserved": 0, "fusion_lon": 0.0, "fusion_lat": 0.0, "name": "9bb6704f4f019320a4a9be6223876367", "type": "electric_bike", "is_disabled": 0, "lat": 38.91013133333333, "rental_uris": {"android": "https://dc.lft.to/lastmile_qr_scan", "ios": "https://dc.lft.to/lastmile_qr_scan"}, "bike_id": "9bb6704f4f019320a4a9be6223876367", "lon": -77.228006}, {"is_reserved": 0, "fusion_lon": 0.0, "fusion_lat": 0.0, "name": "ead36959dddb90e440ee2f6845cd74f3", "type": "electric_scooter", "is_disabled": 0, "lat": 38.900382666666665, "rental_uris": {"android": "https://dc.lft.to/lastmile_qr_scan", "ios": "https://dc.lft.to/lastmile_qr_scan"}, "bike_id": "ead36959dddb90e440ee2f6845cd74f3", "lon": -77.01186266666667}, {"is_reserved": 0, "fusion_lon": 0.0, "fusion_lat": 0.0, "name": "cce04ab8207c4c53b7c9bdc29ec6972b", "type": "electric_scooter", "is_disabled": 0, "lat": 38.90786116666666, "rental_uris": {"android": "https://dc.lft.to/lastmile_qr_scan", "ios": "https://dc.lft.to/lastmile_qr_scan"}, "bike_id": "cce04ab8207c4c53b7c9bdc29ec6972b", "lon": -77.03865266666666}, {"is_reserved": 0, "fusion_lon": 0.0, "fusion_lat": 0.0, "name": "52a3a9c52724f93fda55ff76bff5e51c", "type": "electric_bike", "is_disabled": 0, "lat": 38.88057533333333, "rental_uris": {"android": "https://dc.lft.to/lastmile_qr_scan", "ios": "https://dc.lft.to/lastmile_qr_scan"}, "bike_id": "52a3a9c52724f93fda55ff76bff5e51c", "lon": -76.962354}, {"is_reserved": 0, "fusion_lon": 0.0, "fusion_lat": 0.0, "name": "d450a2b4db3acbdfb769cb41653e2943", "type": "electric_scooter", "is_disabled": 0, "lat": 38.9353555, "rental_uris": {"android": "https://dc.lft.to/lastmile_qr_scan", "ios": "https://dc.lft.to/lastmile_qr_scan"}, "bike_id": "d450a2b4db3acbdfb769cb41653e2943", "lon": -77.02346883333334}, {"is_reserved": 0, "fusion_lon": 0.0, "fusion_lat": 0.0, "name": "6ad4ea58f23c791d244f3a47fdee2514", "type": "electric_scooter", "is_disabled": 0, "lat": 38.9184905, "rental_uris": {"android": "https://dc.lft.to/lastmile_qr_scan", "ios": "https://dc.lft.to/lastmile_qr_scan"}, "bike_id": "6ad4ea58f23c791d244f3a47fdee2514", "lon": -77.0166895}, {"is_reserved": 0, "fusion_lon": 0.0, "fusion_lat": 0.0, "name": "7512945eb48694d3022e006573703719", "type": "electric_scooter", "is_disabled": 0, "lat": 38.91413683333333, "rental_uris": {"android": "https://dc.lft.to/lastmile_qr_scan", "ios": "https://dc.lft.to/lastmile_qr_scan"}, "bike_id": "7512945eb48694d3022e006573703719", "lon": -77.049161}, {"is_reserved": 0, "fusion_lon": 0.0, "fusion_lat": 0.0, "name": "7069dde7d5abd9507a281294e569289a", "type": "electric_scooter", "is_disabled": 0, "lat": 38.874680833333336, "rental_uris": {"android": "https://dc.lft.to/lastmile_qr_scan", "ios": "https://dc.lft.to/lastmile_qr_scan"}, "bike_id": "7069dde7d5abd9507a281294e569289a", "lon": -77.0055285}, {"is_reserved": 0, "fusion_lon": 0.0, "fusion_lat": 0.0, "name": "d39f7ddb124b8b78a790fcfe8df64f66", "type": "electric_scooter", "is_disabled": 0, "lat": 38.883846, "rental_uris": {"android": "https://dc.lft.to/lastmile_qr_scan", "ios": "https://dc.lft.to/lastmile_qr_scan"}, "bike_id": "d39f7ddb124b8b78a790fcfe8df64f66", "lon": -77.030342}, {"is_reserved": 0, "fusion_lon": 0.0, "fusion_lat": 0.0, "name": "89e2c6db09fa30c3c448d16d5990432d", "type": "electric_scooter", "is_disabled": 0, "lat": 38.87629583333333, "rental_uris": {"android": "https://dc.lft.to/lastmile_qr_scan", "ios": "https://dc.lft.to/lastmile_qr_scan"}, "bike_id": "89e2c6db09fa30c3c448d16d5990432d", "lon": -77.01256883333333}, {"is_reserved": 0, "fusion_lon": 0.0, "fusion_lat": 0.0, "name": "40226b75a8c34e362c90da578e114df0", "type": "electric_scooter", "is_disabled": 0, "lat": 38.916179666666665, "rental_uris": {"android": "https://dc.lft.to/lastmile_qr_scan", "ios": "https://dc.lft.to/lastmile_qr_scan"}, "bike_id": "40226b75a8c34e362c90da578e114df0", "lon": -77.03192566666667}, {"is_reserved": 0, "fusion_lon": 0.0, "fusion_lat": 0.0, "name": "fd9539724d6f5b299b5671bd8085ec3c", "type": "electric_scooter", "is_disabled": 0, "lat": 38.86005383333333, "rental_uris": {"android": "https://dc.lft.to/lastmile_qr_scan", "ios": "https://dc.lft.to/lastmile_qr_scan"}, "bike_id": "fd9539724d6f5b299b5671bd8085ec3c", "lon": -76.98517216666667}, {"is_reserved": 0, "fusion_lon": 0.0, "fusion_lat": 0.0, "name": "483f8f7b9247c886c587cf4761b25110", "type": "electric_scooter", "is_disabled": 0, "lat": 38.87714866666666, "rental_uris": {"android": "https://dc.lft.to/lastmile_qr_scan", "ios": "https://dc.lft.to/lastmile_qr_scan"}, "bike_id": "483f8f7b9247c886c587cf4761b25110", "lon": -77.01664316666667}, {"is_reserved": 0, "fusion_lon": 0.0, "fusion_lat": 0.0, "name": "919456d75508e3bd803b94e232788b3b", "type": "electric_scooter", "is_disabled": 0, "lat": 38.893515, "rental_uris": {"android": "https://dc.lft.to/lastmile_qr_scan", "ios": "https://dc.lft.to/lastmile_qr_scan"}, "bike_id": "919456d75508e3bd803b94e232788b3b", "lon": -77.003324}, {"is_reserved": 0, "fusion_lon": 0.0, "fusion_lat": 0.0, "name": "b08737920bb6c09c05a72fbff614fb88", "type": "electric_scooter", "is_disabled": 0, "lat": 38.89876566666667, "rental_uris": {"android": "https://dc.lft.to/lastmile_qr_scan", "ios": "https://dc.lft.to/lastmile_qr_scan"}, "bike_id": "b08737920bb6c09c05a72fbff614fb88", "lon": -76.93185266666667}, {"is_reserved": 0, "fusion_lon": 0.0, "fusion_lat": 0.0, "name": "48700df47f1a3d59b5a55009f130dc53", "type": "electric_scooter", "is_disabled": 0, "lat": 38.880831, "rental_uris": {"android": "https://dc.lft.to/lastmile_qr_scan", "ios": "https://dc.lft.to/lastmile_qr_scan"}, "bike_id": "48700df47f1a3d59b5a55009f130dc53", "lon": -76.99835116666667}, {"is_reserved": 0, "fusion_lon": 0.0, "fusion_lat": 0.0, "name": "de0982221127b7657e8286e859eaeb13", "type": "electric_bike", "is_disabled": 0, "lat": 38.90398666666667, "rental_uris": {"android": "https://dc.lft.to/lastmile_qr_scan", "ios": "https://dc.lft.to/lastmile_qr_scan"}, "bike_id": "de0982221127b7657e8286e859eaeb13", "lon": -77.04481116666666}, {"is_reserved": 0, "fusion_lon": 0.0, "fusion_lat": 0.0, "name": "29b79595941cfc14c0d7acc081f1e489", "type": "electric_scooter", "is_disabled": 0, "lat": 38.905572166666666, "rental_uris": {"android": "https://dc.lft.to/lastmile_qr_scan", "ios": "https://dc.lft.to/lastmile_qr_scan"}, "bike_id": "29b79595941cfc14c0d7acc081f1e489", "lon": -77.00581833333334}, {"is_reserved": 0, "fusion_lon": 0.0, "fusion_lat": 0.0, "name": "6f3275c580016ed8b76d0363d6fd7329", "type": "electric_bike", "is_disabled": 0, "lat": 38.818373333333334, "rental_uris": {"android": "https://dc.lft.to/lastmile_qr_scan", "ios": "https://dc.lft.to/lastmile_qr_scan"}, "bike_id": "6f3275c580016ed8b76d0363d6fd7329", "lon": -77.10571666666667}, {"is_reserved": 0, "fusion_lon": 0.0, "fusion_lat": 0.0, "name": "9fda5ca3ebb115dd9c73e33f528e8572", "type": "electric_scooter", "is_disabled": 0, "lat": 38.90613416666667, "rental_uris": {"android": "https://dc.lft.to/lastmile_qr_scan", "ios": "https://dc.lft.to/lastmile_qr_scan"}, "bike_id": "9fda5ca3ebb115dd9c73e33f528e8572", "lon": -76.986847}, {"is_reserved": 0, "fusion_lon": 0.0, "fusion_lat": 0.0, "name": "4f0cd40427b0e9dc9ce62a5ebc7fb9bd", "type": "electric_scooter", "is_disabled": 0, "lat": 38.935370166666665, "rental_uris": {"android": "https://dc.lft.to/lastmile_qr_scan", "ios": "https://dc.lft.to/lastmile_qr_scan"}, "bike_id": "4f0cd40427b0e9dc9ce62a5ebc7fb9bd", "lon": -77.057472}, {"is_reserved": 0, "fusion_lon": 0.0, "fusion_lat": 0.0, "name": "285c8366be0cca9aa6ad09af7803786b", "type": "electric_scooter", "is_disabled": 0, "lat": 38.905564166666665, "rental_uris": {"android": "https://dc.lft.to/lastmile_qr_scan", "ios": "https://dc.lft.to/lastmile_qr_scan"}, "bike_id": "285c8366be0cca9aa6ad09af7803786b", "lon": -77.04151066666667}, {"is_reserved": 0, "fusion_lon": 0.0, "fusion_lat": 0.0, "name": "ad602195e8bf770cac35c725964c1cbf", "type": "electric_scooter", "is_disabled": 0, "lat": 38.91034766666667, "rental_uris": {"android": "https://dc.lft.to/lastmile_qr_scan", "ios": "https://dc.lft.to/lastmile_qr_scan"}, "bike_id": "ad602195e8bf770cac35c725964c1cbf", "lon": -76.99336516666666}, {"is_reserved": 0, "fusion_lon": 0.0, "fusion_lat": 0.0, "name": "3ea7788866d24dc8012950b026c7a7b2", "type": "electric_scooter", "is_disabled": 0, "lat": 38.895335833333334, "rental_uris": {"android": "https://dc.lft.to/lastmile_qr_scan", "ios": "https://dc.lft.to/lastmile_qr_scan"}, "bike_id": "3ea7788866d24dc8012950b026c7a7b2", "lon": -77.00344633333333}, {"is_reserved": 0, "fusion_lon": 0.0, "fusion_lat": 0.0, "name": "a80d5dc30d3a1b7b02d4223b8894752f", "type": "electric_scooter", "is_disabled": 0, "lat": 38.922486166666665, "rental_uris": {"android": "https://dc.lft.to/lastmile_qr_scan", "ios": "https://dc.lft.to/lastmile_qr_scan"}, "bike_id": "a80d5dc30d3a1b7b02d4223b8894752f", "lon": -77.0194965}, {"is_reserved": 0, "fusion_lon": 0.0, "fusion_lat": 0.0, "name": "c01d1cf397788bb9afd0d1e9862e032f", "type": "electric_scooter", "is_disabled": 0, "lat": 38.914928, "rental_uris": {"android": "https://dc.lft.to/lastmile_qr_scan", "ios": "https://dc.lft.to/lastmile_qr_scan"}, "bike_id": "c01d1cf397788bb9afd0d1e9862e032f", "lon": -77.01863033333333}, {"is_reserved": 0, "fusion_lon": 0.0, "fusion_lat": 0.0, "name": "2bfa0d52be2757b1e084ae0cde8cb317", "type": "electric_scooter", "is_disabled": 0, "lat": 38.892197833333334, "rental_uris": {"android": "https://dc.lft.to/lastmile_qr_scan", "ios": "https://dc.lft.to/lastmile_qr_scan"}, "bike_id": "2bfa0d52be2757b1e084ae0cde8cb317", "lon": -77.0426235}, {"is_reserved": 0, "fusion_lon": 0.0, "fusion_lat": 0.0, "name": "5fd681bfa2fc4b955d36bed0684dba9f", "type": "electric_scooter", "is_disabled": 0, "lat": 38.910521333333335, "rental_uris": {"android": "https://dc.lft.to/lastmile_qr_scan", "ios": "https://dc.lft.to/lastmile_qr_scan"}, "bike_id": "5fd681bfa2fc4b955d36bed0684dba9f", "lon": -77.02190683333333}, {"is_reserved": 0, "fusion_lon": 0.0, "fusion_lat": 0.0, "name": "945c5b794637d333d45a84e0f506a552", "type": "electric_scooter", "is_disabled": 0, "lat": 38.87795366666667, "rental_uris": {"android": "https://dc.lft.to/lastmile_qr_scan", "ios": "https://dc.lft.to/lastmile_qr_scan"}, "bike_id": "945c5b794637d333d45a84e0f506a552", "lon": -76.93091216666667}, {"is_reserved": 0, "fusion_lon": 0.0, "fusion_lat": 0.0, "name": "03155e1e685d63d55ecc7a1b74bf7bc0", "type": "electric_scooter", "is_disabled": 0, "lat": 38.8859375, "rental_uris": {"android": "https://dc.lft.to/lastmile_qr_scan", "ios": "https://dc.lft.to/lastmile_qr_scan"}, "bike_id": "03155e1e685d63d55ecc7a1b74bf7bc0", "lon": -76.99623316666667}, {"is_reserved": 0, "fusion_lon": 0.0, "fusion_lat": 0.0, "name": "87dce10e2be0defa1b12afe3acef1b63", "type": "electric_scooter", "is_disabled": 0, "lat": 38.901135333333336, "rental_uris": {"android": "https://dc.lft.to/lastmile_qr_scan", "ios": "https://dc.lft.to/lastmile_qr_scan"}, "bike_id": "87dce10e2be0defa1b12afe3acef1b63", "lon": -77.04624183333334}, {"is_reserved": 0, "fusion_lon": 0.0, "fusion_lat": 0.0, "name": "b4f9d6b9594f0cf79e59626e9c65a15d", "type": "electric_scooter", "is_disabled": 0, "lat": 38.91715933333333, "rental_uris": {"android": "https://dc.lft.to/lastmile_qr_scan", "ios": "https://dc.lft.to/lastmile_qr_scan"}, "bike_id": "b4f9d6b9594f0cf79e59626e9c65a15d", "lon": -77.02968916666667}, {"is_reserved": 0, "fusion_lon": 0.0, "fusion_lat": 0.0, "name": "39e4eb296aa6ac089d7971bd9252b307", "type": "electric_scooter", "is_disabled": 0, "lat": 38.865036833333335, "rental_uris": {"android": "https://dc.lft.to/lastmile_qr_scan", "ios": "https://dc.lft.to/lastmile_qr_scan"}, "bike_id": "39e4eb296aa6ac089d7971bd9252b307", "lon": -76.99000933333333}, {"is_reserved": 0, "fusion_lon": 0.0, "fusion_lat": 0.0, "name": "11d518f225eae476ae29c0ff108faad1", "type": "electric_scooter", "is_disabled": 0, "lat": 38.92331433333333, "rental_uris": {"android": "https://dc.lft.to/lastmile_qr_scan", "ios": "https://dc.lft.to/lastmile_qr_scan"}, "bike_id": "11d518f225eae476ae29c0ff108faad1", "lon": -77.04307766666666}, {"is_reserved": 0, "fusion_lon": 0.0, "fusion_lat": 0.0, "name": "9ab7c6e962af39301b983a0c8dbe2ce5", "type": "electric_scooter", "is_disabled": 0, "lat": 38.939592833333336, "rental_uris": {"android": "https://dc.lft.to/lastmile_qr_scan", "ios": "https://dc.lft.to/lastmile_qr_scan"}, "bike_id": "9ab7c6e962af39301b983a0c8dbe2ce5", "lon": -77.02747333333333}, {"is_reserved": 0, "fusion_lon": 0.0, "fusion_lat": 0.0, "name": "d8d32d13b400a7d0487630b702ae82fa", "type": "electric_scooter", "is_disabled": 0, "lat": 38.923346333333335, "rental_uris": {"android": "https://dc.lft.to/lastmile_qr_scan", "ios": "https://dc.lft.to/lastmile_qr_scan"}, "bike_id": "d8d32d13b400a7d0487630b702ae82fa", "lon": -77.04787416666667}, {"is_reserved": 0, "fusion_lon": 0.0, "fusion_lat": 0.0, "name": "582572ae7cc0af4d0c50aeaad0d27637", "type": "electric_scooter", "is_disabled": 0, "lat": 38.90954883333333, "rental_uris": {"android": "https://dc.lft.to/lastmile_qr_scan", "ios": "https://dc.lft.to/lastmile_qr_scan"}, "bike_id": "582572ae7cc0af4d0c50aeaad0d27637", "lon": -77.02201433333333}, {"is_reserved": 0, "fusion_lon": 0.0, "fusion_lat": 0.0, "name": "2ebbe1bc7eaeec56cd855576126b285a", "type": "electric_scooter", "is_disabled": 0, "lat": 38.90724083333333, "rental_uris": {"android": "https://dc.lft.to/lastmile_qr_scan", "ios": "https://dc.lft.to/lastmile_qr_scan"}, "bike_id": "2ebbe1bc7eaeec56cd855576126b285a", "lon": -77.03290266666667}, {"is_reserved": 0, "fusion_lon": 0.0, "fusion_lat": 0.0, "name": "784876aef682d35b97e37319b28cbbf7", "type": "electric_scooter", "is_disabled": 0, "lat": 38.860581333333336, "rental_uris": {"android": "https://dc.lft.to/lastmile_qr_scan", "ios": "https://dc.lft.to/lastmile_qr_scan"}, "bike_id": "784876aef682d35b97e37319b28cbbf7", "lon": -76.9842195}, {"is_reserved": 0, "fusion_lon": 0.0, "fusion_lat": 0.0, "name": "d8c3f891753ca032a367fea4229a13b5", "type": "electric_scooter", "is_disabled": 0, "lat": 38.928970166666666, "rental_uris": {"android": "https://dc.lft.to/lastmile_qr_scan", "ios": "https://dc.lft.to/lastmile_qr_scan"}, "bike_id": "d8c3f891753ca032a367fea4229a13b5", "lon": -77.03280866666667}, {"is_reserved": 0, "fusion_lon": 0.0, "fusion_lat": 0.0, "name": "1f952465314de0797eeb33ded5d5a348", "type": "electric_bike", "is_disabled": 0, "lat": 38.87727866666667, "rental_uris": {"android": "https://dc.lft.to/lastmile_qr_scan", "ios": "https://dc.lft.to/lastmile_qr_scan"}, "bike_id": "1f952465314de0797eeb33ded5d5a348", "lon": -76.98104716666667}, {"is_reserved": 0, "fusion_lon": 0.0, "fusion_lat": 0.0, "name": "e5bf947699876c252f6097fb4e6bf430", "type": "electric_scooter", "is_disabled": 0, "lat": 38.88046116666666, "rental_uris": {"android": "https://dc.lft.to/lastmile_qr_scan", "ios": "https://dc.lft.to/lastmile_qr_scan"}, "bike_id": "e5bf947699876c252f6097fb4e6bf430", "lon": -77.0199555}, {"is_reserved": 0, "fusion_lon": 0.0, "fusion_lat": 0.0, "name": "132515d0ff6164e538118c47ec4d8b1e", "type": "electric_scooter", "is_disabled": 0, "lat": 38.9386155, "rental_uris": {"android": "https://dc.lft.to/lastmile_qr_scan", "ios": "https://dc.lft.to/lastmile_qr_scan"}, "bike_id": "132515d0ff6164e538118c47ec4d8b1e", "lon": -77.02650666666666}, {"is_reserved": 0, "fusion_lon": 0.0, "fusion_lat": 0.0, "name": "e4e0dd2eec44e9de14219ada91ba76ee", "type": "electric_scooter", "is_disabled": 0, "lat": 38.899747166666664, "rental_uris": {"android": "https://dc.lft.to/lastmile_qr_scan", "ios": "https://dc.lft.to/lastmile_qr_scan"}, "bike_id": "e4e0dd2eec44e9de14219ada91ba76ee", "lon": -77.0334805}, {"is_reserved": 0, "fusion_lon": 0.0, "fusion_lat": 0.0, "name": "d7d5745d727e31ca358406af61d0980e", "type": "electric_scooter", "is_disabled": 0, "lat": 38.898908166666665, "rental_uris": {"android": "https://dc.lft.to/lastmile_qr_scan", "ios": "https://dc.lft.to/lastmile_qr_scan"}, "bike_id": "d7d5745d727e31ca358406af61d0980e", "lon": -76.93397266666666}, {"is_reserved": 0, "fusion_lon": 0.0, "fusion_lat": 0.0, "name": "1128b12b3500b6e7baac3edf7a97f608", "type": "electric_scooter", "is_disabled": 0, "lat": 38.902814, "rental_uris": {"android": "https://dc.lft.to/lastmile_qr_scan", "ios": "https://dc.lft.to/lastmile_qr_scan"}, "bike_id": "1128b12b3500b6e7baac3edf7a97f608", "lon": -77.04586233333333}, {"is_reserved": 0, "fusion_lon": 0.0, "fusion_lat": 0.0, "name": "7a19cf0a452203c2727f13bd34cf4392", "type": "electric_scooter", "is_disabled": 0, "lat": 38.93479033333333, "rental_uris": {"android": "https://dc.lft.to/lastmile_qr_scan", "ios": "https://dc.lft.to/lastmile_qr_scan"}, "bike_id": "7a19cf0a452203c2727f13bd34cf4392", "lon": -77.057907}, {"is_reserved": 0, "fusion_lon": 0.0, "fusion_lat": 0.0, "name": "0e73ce2aab0fb3d9335d07a621a7f9e5", "type": "electric_scooter", "is_disabled": 0, "lat": 38.89352183333333, "rental_uris": {"android": "https://dc.lft.to/lastmile_qr_scan", "ios": "https://dc.lft.to/lastmile_qr_scan"}, "bike_id": "0e73ce2aab0fb3d9335d07a621a7f9e5", "lon": -77.00329733333334}, {"is_reserved": 0, "fusion_lon": 0.0, "fusion_lat": 0.0, "name": "d8abb1ed9c1459cbcdfd4443ef40ca5f", "type": "electric_scooter", "is_disabled": 0, "lat": 38.903372166666664, "rental_uris": {"android": "https://dc.lft.to/lastmile_qr_scan", "ios": "https://dc.lft.to/lastmile_qr_scan"}, "bike_id": "d8abb1ed9c1459cbcdfd4443ef40ca5f", "lon": -77.0434985}, {"is_reserved": 0, "fusion_lon": 0.0, "fusion_lat": 0.0, "name": "482e2d87848db7e9b489535c88452c0a", "type": "electric_scooter", "is_disabled": 0, "lat": 38.92059583333333, "rental_uris": {"android": "https://dc.lft.to/lastmile_qr_scan", "ios": "https://dc.lft.to/lastmile_qr_scan"}, "bike_id": "482e2d87848db7e9b489535c88452c0a", "lon": -77.0256035}, {"is_reserved": 0, "fusion_lon": 0.0, "fusion_lat": 0.0, "name": "95cd8cead3e26b260d5c7e8bafa06b21", "type": "electric_scooter", "is_disabled": 0, "lat": 38.90555466666667, "rental_uris": {"android": "https://dc.lft.to/lastmile_qr_scan", "ios": "https://dc.lft.to/lastmile_qr_scan"}, "bike_id": "95cd8cead3e26b260d5c7e8bafa06b21", "lon": -77.00588733333333}, {"is_reserved": 0, "fusion_lon": 0.0, "fusion_lat": 0.0, "name": "60c646d62ce8fa0df711889e0e2fb90d", "type": "electric_scooter", "is_disabled": 0, "lat": 38.923241166666664, "rental_uris": {"android": "https://dc.lft.to/lastmile_qr_scan", "ios": "https://dc.lft.to/lastmile_qr_scan"}, "bike_id": "60c646d62ce8fa0df711889e0e2fb90d", "lon": -76.99899733333334}, {"is_reserved": 0, "fusion_lon": 0.0, "fusion_lat": 0.0, "name": "02ee8378cc90e5ea85e75e33357a8401", "type": "electric_scooter", "is_disabled": 0, "lat": 38.9082235, "rental_uris": {"android": "https://dc.lft.to/lastmile_qr_scan", "ios": "https://dc.lft.to/lastmile_qr_scan"}, "bike_id": "02ee8378cc90e5ea85e75e33357a8401", "lon": -77.03934016666666}, {"is_reserved": 0, "fusion_lon": 0.0, "fusion_lat": 0.0, "name": "8e4b9e9b9c5c803a450c2864c4687bff", "type": "electric_scooter", "is_disabled": 0, "lat": 38.9191445, "rental_uris": {"android": "https://dc.lft.to/lastmile_qr_scan", "ios": "https://dc.lft.to/lastmile_qr_scan"}, "bike_id": "8e4b9e9b9c5c803a450c2864c4687bff", "lon": -77.048093}, {"is_reserved": 0, "fusion_lon": 0.0, "fusion_lat": 0.0, "name": "49f81d66a80a681787d3482bf03246de", "type": "electric_scooter", "is_disabled": 0, "lat": 38.880252666666664, "rental_uris": {"android": "https://dc.lft.to/lastmile_qr_scan", "ios": "https://dc.lft.to/lastmile_qr_scan"}, "bike_id": "49f81d66a80a681787d3482bf03246de", "lon": -76.98489583333334}, {"is_reserved": 0, "fusion_lon": 0.0, "fusion_lat": 0.0, "name": "d7ff6ecba07f5a7f2dba85790c8c7a6b", "type": "electric_scooter", "is_disabled": 0, "lat": 38.88053983333333, "rental_uris": {"android": "https://dc.lft.to/lastmile_qr_scan", "ios": "https://dc.lft.to/lastmile_qr_scan"}, "bike_id": "d7ff6ecba07f5a7f2dba85790c8c7a6b", "lon": -77.00572566666666}, {"is_reserved": 0, "fusion_lon": 0.0, "fusion_lat": 0.0, "name": "3eb30352c561771c642dbb4561e2cbda", "type": "electric_bike", "is_disabled": 0, "lat": 38.88244266666667, "rental_uris": {"android": "https://dc.lft.to/lastmile_qr_scan", "ios": "https://dc.lft.to/lastmile_qr_scan"}, "bike_id": "3eb30352c561771c642dbb4561e2cbda", "lon": -76.96251866666667}, {"is_reserved": 0, "fusion_lon": 0.0, "fusion_lat": 0.0, "name": "30c2db01c3e39953491a554bbef4a348", "type": "electric_scooter", "is_disabled": 0, "lat": 38.905786, "rental_uris": {"android": "https://dc.lft.to/lastmile_qr_scan", "ios": "https://dc.lft.to/lastmile_qr_scan"}, "bike_id": "30c2db01c3e39953491a554bbef4a348", "lon": -77.00883133333333}, {"is_reserved": 0, "fusion_lon": 0.0, "fusion_lat": 0.0, "name": "01af438afeebf1da41044589feb8887a", "type": "electric_scooter", "is_disabled": 0, "lat": 38.9085775, "rental_uris": {"android": "https://dc.lft.to/lastmile_qr_scan", "ios": "https://dc.lft.to/lastmile_qr_scan"}, "bike_id": "01af438afeebf1da41044589feb8887a", "lon": -77.04046966666667}, {"is_reserved": 0, "fusion_lon": 0.0, "fusion_lat": 0.0, "name": "ec598ff0fc7c9772760a10e3ad145a80", "type": "electric_scooter", "is_disabled": 0, "lat": 38.91911, "rental_uris": {"android": "https://dc.lft.to/lastmile_qr_scan", "ios": "https://dc.lft.to/lastmile_qr_scan"}, "bike_id": "ec598ff0fc7c9772760a10e3ad145a80", "lon": -77.02408216666667}, {"is_reserved": 0, "fusion_lon": 0.0, "fusion_lat": 0.0, "name": "15057ff21b43c35cb7fb5a149fd69bd5", "type": "electric_scooter", "is_disabled": 0, "lat": 38.90363333333333, "rental_uris": {"android": "https://dc.lft.to/lastmile_qr_scan", "ios": "https://dc.lft.to/lastmile_qr_scan"}, "bike_id": "15057ff21b43c35cb7fb5a149fd69bd5", "lon": -77.04194116666666}, {"is_reserved": 0, "fusion_lon": 0.0, "fusion_lat": 0.0, "name": "8236bcb1ca84c415792019d5dd7dec2c", "type": "electric_scooter", "is_disabled": 0, "lat": 38.9005205, "rental_uris": {"android": "https://dc.lft.to/lastmile_qr_scan", "ios": "https://dc.lft.to/lastmile_qr_scan"}, "bike_id": "8236bcb1ca84c415792019d5dd7dec2c", "lon": -77.04843433333333}, {"is_reserved": 0, "fusion_lon": 0.0, "fusion_lat": 0.0, "name": "e5e9859d96a2ad39b3ac4e38b3349372", "type": "electric_bike", "is_disabled": 0, "lat": 38.902469333333336, "rental_uris": {"android": "https://dc.lft.to/lastmile_qr_scan", "ios": "https://dc.lft.to/lastmile_qr_scan"}, "bike_id": "e5e9859d96a2ad39b3ac4e38b3349372", "lon": -77.04524416666666}, {"is_reserved": 0, "fusion_lon": 0.0, "fusion_lat": 0.0, "name": "dd4ba11affb8bf01dcb0f807d68fd175", "type": "electric_scooter", "is_disabled": 0, "lat": 38.90519616666667, "rental_uris": {"android": "https://dc.lft.to/lastmile_qr_scan", "ios": "https://dc.lft.to/lastmile_qr_scan"}, "bike_id": "dd4ba11affb8bf01dcb0f807d68fd175", "lon": -77.0638215}, {"is_reserved": 0, "fusion_lon": 0.0, "fusion_lat": 0.0, "name": "a94e494e7b921a55259e4f85a2500564", "type": "electric_scooter", "is_disabled": 0, "lat": 38.96112183333334, "rental_uris": {"android": "https://dc.lft.to/lastmile_qr_scan", "ios": "https://dc.lft.to/lastmile_qr_scan"}, "bike_id": "a94e494e7b921a55259e4f85a2500564", "lon": -77.00941783333333}, {"is_reserved": 0, "fusion_lon": 0.0, "fusion_lat": 0.0, "name": "774e3db6844d59e9214d12e70c9654f0", "type": "electric_scooter", "is_disabled": 0, "lat": 38.9037, "rental_uris": {"android": "https://dc.lft.to/lastmile_qr_scan", "ios": "https://dc.lft.to/lastmile_qr_scan"}, "bike_id": "774e3db6844d59e9214d12e70c9654f0", "lon": -77.04013916666666}, {"is_reserved": 0, "fusion_lon": 0.0, "fusion_lat": 0.0, "name": "64d802c92f510b1511abbcf80665094e", "type": "electric_scooter", "is_disabled": 0, "lat": 38.900825, "rental_uris": {"android": "https://dc.lft.to/lastmile_qr_scan", "ios": "https://dc.lft.to/lastmile_qr_scan"}, "bike_id": "64d802c92f510b1511abbcf80665094e", "lon": -77.0506095}, {"is_reserved": 0, "fusion_lon": 0.0, "fusion_lat": 0.0, "name": "7ff8ced571493127acdb11870a192e83", "type": "electric_scooter", "is_disabled": 0, "lat": 38.916905, "rental_uris": {"android": "https://dc.lft.to/lastmile_qr_scan", "ios": "https://dc.lft.to/lastmile_qr_scan"}, "bike_id": "7ff8ced571493127acdb11870a192e83", "lon": -77.025971}, {"is_reserved": 0, "fusion_lon": 0.0, "fusion_lat": 0.0, "name": "9ed6170420d4c174ae899cdf77e89468", "type": "electric_scooter", "is_disabled": 0, "lat": 38.906825833333336, "rental_uris": {"android": "https://dc.lft.to/lastmile_qr_scan", "ios": "https://dc.lft.to/lastmile_qr_scan"}, "bike_id": "9ed6170420d4c174ae899cdf77e89468", "lon": -77.04328416666667}, {"is_reserved": 0, "fusion_lon": 0.0, "fusion_lat": 0.0, "name": "1459e6daf3b304971305efb03bb6ca26", "type": "electric_scooter", "is_disabled": 0, "lat": 38.904706, "rental_uris": {"android": "https://dc.lft.to/lastmile_qr_scan", "ios": "https://dc.lft.to/lastmile_qr_scan"}, "bike_id": "1459e6daf3b304971305efb03bb6ca26", "lon": -77.05149033333333}, {"is_reserved": 0, "fusion_lon": 0.0, "fusion_lat": 0.0, "name": "b288bdfd6902341014b538dcd2c0a01a", "type": "electric_scooter", "is_disabled": 0, "lat": 38.900363, "rental_uris": {"android": "https://dc.lft.to/lastmile_qr_scan", "ios": "https://dc.lft.to/lastmile_qr_scan"}, "bike_id": "b288bdfd6902341014b538dcd2c0a01a", "lon": -77.03959283333333}, {"is_reserved": 0, "fusion_lon": 0.0, "fusion_lat": 0.0, "name": "16b151a5a9275682413c7f41603b9463", "type": "electric_scooter", "is_disabled": 0, "lat": 38.902776833333334, "rental_uris": {"android": "https://dc.lft.to/lastmile_qr_scan", "ios": "https://dc.lft.to/lastmile_qr_scan"}, "bike_id": "16b151a5a9275682413c7f41603b9463", "lon": -77.05917483333333}, {"is_reserved": 0, "fusion_lon": 0.0, "fusion_lat": 0.0, "name": "73889924e68a7774af5d5da42ce27884", "type": "electric_scooter", "is_disabled": 0, "lat": 38.92443866666667, "rental_uris": {"android": "https://dc.lft.to/lastmile_qr_scan", "ios": "https://dc.lft.to/lastmile_qr_scan"}, "bike_id": "73889924e68a7774af5d5da42ce27884", "lon": -77.02149266666666}, {"is_reserved": 0, "fusion_lon": 0.0, "fusion_lat": 0.0, "name": "0bc83cf397d62957eb976c4a44286191", "type": "electric_scooter", "is_disabled": 0, "lat": 38.92745383333333, "rental_uris": {"android": "https://dc.lft.to/lastmile_qr_scan", "ios": "https://dc.lft.to/lastmile_qr_scan"}, "bike_id": "0bc83cf397d62957eb976c4a44286191", "lon": -77.021468}, {"is_reserved": 0, "fusion_lon": 0.0, "fusion_lat": 0.0, "name": "c2ace54c29f11dbd0362c7b26119a113", "type": "electric_scooter", "is_disabled": 0, "lat": 38.918156333333336, "rental_uris": {"android": "https://dc.lft.to/lastmile_qr_scan", "ios": "https://dc.lft.to/lastmile_qr_scan"}, "bike_id": "c2ace54c29f11dbd0362c7b26119a113", "lon": -77.034579}, {"is_reserved": 0, "fusion_lon": 0.0, "fusion_lat": 0.0, "name": "881bb86b71ed34e8ca7a98f38427d80b", "type": "electric_scooter", "is_disabled": 0, "lat": 38.851760166666665, "rental_uris": {"android": "https://dc.lft.to/lastmile_qr_scan", "ios": "https://dc.lft.to/lastmile_qr_scan"}, "bike_id": "881bb86b71ed34e8ca7a98f38427d80b", "lon": -76.99580133333333}, {"is_reserved": 0, "fusion_lon": 0.0, "fusion_lat": 0.0, "name": "24fad88bdbdda26b72ad55765906d7fa", "type": "electric_scooter", "is_disabled": 0, "lat": 38.900858, "rental_uris": {"android": "https://dc.lft.to/lastmile_qr_scan", "ios": "https://dc.lft.to/lastmile_qr_scan"}, "bike_id": "24fad88bdbdda26b72ad55765906d7fa", "lon": -77.020941}, {"is_reserved": 0, "fusion_lon": 0.0, "fusion_lat": 0.0, "name": "961edf1354d07110920b4a016ed972f5", "type": "electric_bike", "is_disabled": 0, "lat": 38.829475, "rental_uris": {"android": "https://dc.lft.to/lastmile_qr_scan", "ios": "https://dc.lft.to/lastmile_qr_scan"}, "bike_id": "961edf1354d07110920b4a016ed972f5", "lon": -77.12355766666667}, {"is_reserved": 0, "fusion_lon": 0.0, "fusion_lat": 0.0, "name": "38f573bd0fec043ca40e7f1a6143bcb9", "type": "electric_scooter", "is_disabled": 0, "lat": 38.91694566666666, "rental_uris": {"android": "https://dc.lft.to/lastmile_qr_scan", "ios": "https://dc.lft.to/lastmile_qr_scan"}, "bike_id": "38f573bd0fec043ca40e7f1a6143bcb9", "lon": -77.03202633333333}, {"is_reserved": 0, "fusion_lon": 0.0, "fusion_lat": 0.0, "name": "29072e3136f7e1654283df0c9b298589", "type": "electric_scooter", "is_disabled": 0, "lat": 38.936095, "rental_uris": {"android": "https://dc.lft.to/lastmile_qr_scan", "ios": "https://dc.lft.to/lastmile_qr_scan"}, "bike_id": "29072e3136f7e1654283df0c9b298589", "lon": -77.03802283333333}, {"is_reserved": 0, "fusion_lon": 0.0, "fusion_lat": 0.0, "name": "492313c6416c9a849a271b082db7acbd", "type": "electric_scooter", "is_disabled": 0, "lat": 38.926766666666666, "rental_uris": {"android": "https://dc.lft.to/lastmile_qr_scan", "ios": "https://dc.lft.to/lastmile_qr_scan"}, "bike_id": "492313c6416c9a849a271b082db7acbd", "lon": -77.01491}, {"is_reserved": 0, "fusion_lon": 0.0, "fusion_lat": 0.0, "name": "03fcc7090a54f688827e9880e4630167", "type": "electric_scooter", "is_disabled": 0, "lat": 38.93534966666667, "rental_uris": {"android": "https://dc.lft.to/lastmile_qr_scan", "ios": "https://dc.lft.to/lastmile_qr_scan"}, "bike_id": "03fcc7090a54f688827e9880e4630167", "lon": -77.023473}, {"is_reserved": 0, "fusion_lon": 0.0, "fusion_lat": 0.0, "name": "f8ac48c4ce8ffad319fcec01ed9e8ae0", "type": "electric_scooter", "is_disabled": 0, "lat": 38.920449833333336, "rental_uris": {"android": "https://dc.lft.to/lastmile_qr_scan", "ios": "https://dc.lft.to/lastmile_qr_scan"}, "bike_id": "f8ac48c4ce8ffad319fcec01ed9e8ae0", "lon": -76.9894275}, {"is_reserved": 0, "fusion_lon": 0.0, "fusion_lat": 0.0, "name": "000ca0c1c737ab55fe46284f9bcd20e6", "type": "electric_scooter", "is_disabled": 0, "lat": 38.90230533333333, "rental_uris": {"android": "https://dc.lft.to/lastmile_qr_scan", "ios": "https://dc.lft.to/lastmile_qr_scan"}, "bike_id": "000ca0c1c737ab55fe46284f9bcd20e6", "lon": -76.98932066666667}, {"is_reserved": 0, "fusion_lon": 0.0, "fusion_lat": 0.0, "name": "cb70c61846111ddea9c0c4df53b7b271", "type": "electric_scooter", "is_disabled": 0, "lat": 38.9047815, "rental_uris": {"android": "https://dc.lft.to/lastmile_qr_scan", "ios": "https://dc.lft.to/lastmile_qr_scan"}, "bike_id": "cb70c61846111ddea9c0c4df53b7b271", "lon": -77.03563}, {"is_reserved": 0, "fusion_lon": 0.0, "fusion_lat": 0.0, "name": "05f204f0625cab907e9d165fbff63022", "type": "electric_scooter", "is_disabled": 0, "lat": 38.912561833333335, "rental_uris": {"android": "https://dc.lft.to/lastmile_qr_scan", "ios": "https://dc.lft.to/lastmile_qr_scan"}, "bike_id": "05f204f0625cab907e9d165fbff63022", "lon": -77.03071533333333}, {"is_reserved": 0, "fusion_lon": 0.0, "fusion_lat": 0.0, "name": "1a512185af6ceb4d30e610738b4b12de", "type": "electric_scooter", "is_disabled": 0, "lat": 38.903841666666665, "rental_uris": {"android": "https://dc.lft.to/lastmile_qr_scan", "ios": "https://dc.lft.to/lastmile_qr_scan"}, "bike_id": "1a512185af6ceb4d30e610738b4b12de", "lon": -77.038324}, {"is_reserved": 0, "fusion_lon": 0.0, "fusion_lat": 0.0, "name": "38d2ed67dd14756f01ed2f7a8c4f22b4", "type": "electric_scooter", "is_disabled": 0, "lat": 38.90007333333333, "rental_uris": {"android": "https://dc.lft.to/lastmile_qr_scan", "ios": "https://dc.lft.to/lastmile_qr_scan"}, "bike_id": "38d2ed67dd14756f01ed2f7a8c4f22b4", "lon": -77.00303383333333}, {"is_reserved": 0, "fusion_lon": 0.0, "fusion_lat": 0.0, "name": "e963f3342eae98e4fc9b63b9d7131481", "type": "electric_scooter", "is_disabled": 0, "lat": 38.902468, "rental_uris": {"android": "https://dc.lft.to/lastmile_qr_scan", "ios": "https://dc.lft.to/lastmile_qr_scan"}, "bike_id": "e963f3342eae98e4fc9b63b9d7131481", "lon": -77.038853}, {"is_reserved": 0, "fusion_lon": 0.0, "fusion_lat": 0.0, "name": "ffc2612d504a23efe5b1db8adf60129b", "type": "electric_scooter", "is_disabled": 0, "lat": 38.90749733333333, "rental_uris": {"android": "https://dc.lft.to/lastmile_qr_scan", "ios": "https://dc.lft.to/lastmile_qr_scan"}, "bike_id": "ffc2612d504a23efe5b1db8adf60129b", "lon": -77.04546583333334}, {"is_reserved": 0, "fusion_lon": 0.0, "fusion_lat": 0.0, "name": "32b3140be99321133cc484e76653e3d8", "type": "electric_scooter", "is_disabled": 0, "lat": 38.91704083333333, "rental_uris": {"android": "https://dc.lft.to/lastmile_qr_scan", "ios": "https://dc.lft.to/lastmile_qr_scan"}, "bike_id": "32b3140be99321133cc484e76653e3d8", "lon": -77.03500316666667}, {"is_reserved": 0, "fusion_lon": 0.0, "fusion_lat": 0.0, "name": "350956a97dec411e78b4995dc9fadac2", "type": "electric_scooter", "is_disabled": 0, "lat": 38.914570166666664, "rental_uris": {"android": "https://dc.lft.to/lastmile_qr_scan", "ios": "https://dc.lft.to/lastmile_qr_scan"}, "bike_id": "350956a97dec411e78b4995dc9fadac2", "lon": -77.02179016666666}, {"is_reserved": 0, "fusion_lon": 0.0, "fusion_lat": 0.0, "name": "898d727f2c059242ebecf6b4ca032bca", "type": "electric_scooter", "is_disabled": 0, "lat": 38.93426066666667, "rental_uris": {"android": "https://dc.lft.to/lastmile_qr_scan", "ios": "https://dc.lft.to/lastmile_qr_scan"}, "bike_id": "898d727f2c059242ebecf6b4ca032bca", "lon": -77.04003383333334}, {"is_reserved": 0, "fusion_lon": 0.0, "fusion_lat": 0.0, "name": "cf9477f50186411b6df1017d02ffc02c", "type": "electric_scooter", "is_disabled": 0, "lat": 38.955261166666666, "rental_uris": {"android": "https://dc.lft.to/lastmile_qr_scan", "ios": "https://dc.lft.to/lastmile_qr_scan"}, "bike_id": "cf9477f50186411b6df1017d02ffc02c", "lon": -77.02213866666666}, {"is_reserved": 0, "fusion_lon": 0.0, "fusion_lat": 0.0, "name": "9ea7d19800ae2f7a9ee634988a25b3fa", "type": "electric_scooter", "is_disabled": 0, "lat": 38.8985465, "rental_uris": {"android": "https://dc.lft.to/lastmile_qr_scan", "ios": "https://dc.lft.to/lastmile_qr_scan"}, "bike_id": "9ea7d19800ae2f7a9ee634988a25b3fa", "lon": -76.9901615}, {"is_reserved": 0, "fusion_lon": 0.0, "fusion_lat": 0.0, "name": "807f887e23048b7385905c247a7f0114", "type": "electric_scooter", "is_disabled": 0, "lat": 38.892199833333336, "rental_uris": {"android": "https://dc.lft.to/lastmile_qr_scan", "ios": "https://dc.lft.to/lastmile_qr_scan"}, "bike_id": "807f887e23048b7385905c247a7f0114", "lon": -77.04308316666666}, {"is_reserved": 0, "fusion_lon": 0.0, "fusion_lat": 0.0, "name": "9d7945b2dddb624514c3d7ca9be3d2ea", "type": "electric_scooter", "is_disabled": 0, "lat": 38.89225583333333, "rental_uris": {"android": "https://dc.lft.to/lastmile_qr_scan", "ios": "https://dc.lft.to/lastmile_qr_scan"}, "bike_id": "9d7945b2dddb624514c3d7ca9be3d2ea", "lon": -77.04508533333333}, {"is_reserved": 0, "fusion_lon": 0.0, "fusion_lat": 0.0, "name": "ae36c162eb17a77fbb60fd4a47b0a56f", "type": "electric_scooter", "is_disabled": 0, "lat": 38.884902333333336, "rental_uris": {"android": "https://dc.lft.to/lastmile_qr_scan", "ios": "https://dc.lft.to/lastmile_qr_scan"}, "bike_id": "ae36c162eb17a77fbb60fd4a47b0a56f", "lon": -77.00708483333334}, {"is_reserved": 0, "fusion_lon": 0.0, "fusion_lat": 0.0, "name": "ed68a68a1aede43f331a388401208c7a", "type": "electric_scooter", "is_disabled": 0, "lat": 38.91458083333333, "rental_uris": {"android": "https://dc.lft.to/lastmile_qr_scan", "ios": "https://dc.lft.to/lastmile_qr_scan"}, "bike_id": "ed68a68a1aede43f331a388401208c7a", "lon": -77.03636383333334}, {"is_reserved": 0, "fusion_lon": 0.0, "fusion_lat": 0.0, "name": "dcfe777685271aa19789d9dec5e0716c", "type": "electric_scooter", "is_disabled": 0, "lat": 38.89235266666667, "rental_uris": {"android": "https://dc.lft.to/lastmile_qr_scan", "ios": "https://dc.lft.to/lastmile_qr_scan"}, "bike_id": "dcfe777685271aa19789d9dec5e0716c", "lon": -77.0320915}, {"is_reserved": 0, "fusion_lon": 0.0, "fusion_lat": 0.0, "name": "aaaa178ee2afd36a319422ae2a0257ff", "type": "electric_scooter", "is_disabled": 0, "lat": 38.901629166666666, "rental_uris": {"android": "https://dc.lft.to/lastmile_qr_scan", "ios": "https://dc.lft.to/lastmile_qr_scan"}, "bike_id": "aaaa178ee2afd36a319422ae2a0257ff", "lon": -76.98010366666666}, {"is_reserved": 0, "fusion_lon": 0.0, "fusion_lat": 0.0, "name": "192bf01ee7f2a555d3554a0ed3d96174", "type": "electric_scooter", "is_disabled": 0, "lat": 38.93532316666667, "rental_uris": {"android": "https://dc.lft.to/lastmile_qr_scan", "ios": "https://dc.lft.to/lastmile_qr_scan"}, "bike_id": "192bf01ee7f2a555d3554a0ed3d96174", "lon": -77.02346166666666}, {"is_reserved": 0, "fusion_lon": 0.0, "fusion_lat": 0.0, "name": "30db1e17785b57903f2f11a30dbc4f6d", "type": "electric_bike", "is_disabled": 0, "lat": 38.96783666666666, "rental_uris": {"android": "https://dc.lft.to/lastmile_qr_scan", "ios": "https://dc.lft.to/lastmile_qr_scan"}, "bike_id": "30db1e17785b57903f2f11a30dbc4f6d", "lon": -77.00032}, {"is_reserved": 0, "fusion_lon": 0.0, "fusion_lat": 0.0, "name": "fb53bbf92c475f95032e825e9178b236", "type": "electric_scooter", "is_disabled": 0, "lat": 38.928745, "rental_uris": {"android": "https://dc.lft.to/lastmile_qr_scan", "ios": "https://dc.lft.to/lastmile_qr_scan"}, "bike_id": "fb53bbf92c475f95032e825e9178b236", "lon": -77.013653}, {"is_reserved": 0, "fusion_lon": 0.0, "fusion_lat": 0.0, "name": "153b1ef7d609ea3db11634fec9aa497e", "type": "electric_scooter", "is_disabled": 0, "lat": 38.89743983333334, "rental_uris": {"android": "https://dc.lft.to/lastmile_qr_scan", "ios": "https://dc.lft.to/lastmile_qr_scan"}, "bike_id": "153b1ef7d609ea3db11634fec9aa497e", "lon": -77.0334445}, {"is_reserved": 0, "fusion_lon": 0.0, "fusion_lat": 0.0, "name": "9d6e6c9463550456005a674252d6a89a", "type": "electric_scooter", "is_disabled": 0, "lat": 38.91767266666667, "rental_uris": {"android": "https://dc.lft.to/lastmile_qr_scan", "ios": "https://dc.lft.to/lastmile_qr_scan"}, "bike_id": "9d6e6c9463550456005a674252d6a89a", "lon": -77.040596}, {"is_reserved": 0, "fusion_lon": 0.0, "fusion_lat": 0.0, "name": "c8fe84c609ed03e67c1c33e7d78e9aa6", "type": "electric_scooter", "is_disabled": 0, "lat": 38.961227, "rental_uris": {"android": "https://dc.lft.to/lastmile_qr_scan", "ios": "https://dc.lft.to/lastmile_qr_scan"}, "bike_id": "c8fe84c609ed03e67c1c33e7d78e9aa6", "lon": -77.02788633333333}, {"is_reserved": 0, "fusion_lon": 0.0, "fusion_lat": 0.0, "name": "4f4f8f9d8e77816bf3c29f9124f3aaea", "type": "electric_scooter", "is_disabled": 0, "lat": 38.895241, "rental_uris": {"android": "https://dc.lft.to/lastmile_qr_scan", "ios": "https://dc.lft.to/lastmile_qr_scan"}, "bike_id": "4f4f8f9d8e77816bf3c29f9124f3aaea", "lon": -77.00338166666667}, {"is_reserved": 0, "fusion_lon": 0.0, "fusion_lat": 0.0, "name": "97dc679abb0b464bcbd354867e601d32", "type": "electric_scooter", "is_disabled": 0, "lat": 38.900389833333335, "rental_uris": {"android": "https://dc.lft.to/lastmile_qr_scan", "ios": "https://dc.lft.to/lastmile_qr_scan"}, "bike_id": "97dc679abb0b464bcbd354867e601d32", "lon": -77.04318416666666}, {"is_reserved": 0, "fusion_lon": 0.0, "fusion_lat": 0.0, "name": "2fc24bf60968b1dd7f9d9d19c03475ed", "type": "electric_scooter", "is_disabled": 0, "lat": 38.90325933333333, "rental_uris": {"android": "https://dc.lft.to/lastmile_qr_scan", "ios": "https://dc.lft.to/lastmile_qr_scan"}, "bike_id": "2fc24bf60968b1dd7f9d9d19c03475ed", "lon": -77.03851283333333}, {"is_reserved": 0, "fusion_lon": 0.0, "fusion_lat": 0.0, "name": "ca7fadb09ad6dd759afca15a29d78d35", "type": "electric_scooter", "is_disabled": 0, "lat": 38.884785, "rental_uris": {"android": "https://dc.lft.to/lastmile_qr_scan", "ios": "https://dc.lft.to/lastmile_qr_scan"}, "bike_id": "ca7fadb09ad6dd759afca15a29d78d35", "lon": -77.02579283333333}, {"is_reserved": 0, "fusion_lon": 0.0, "fusion_lat": 0.0, "name": "e284732064860ef640c82a416bcaa23e", "type": "electric_scooter", "is_disabled": 0, "lat": 38.901447833333336, "rental_uris": {"android": "https://dc.lft.to/lastmile_qr_scan", "ios": "https://dc.lft.to/lastmile_qr_scan"}, "bike_id": "e284732064860ef640c82a416bcaa23e", "lon": -77.0284965}, {"is_reserved": 0, "fusion_lon": 0.0, "fusion_lat": 0.0, "name": "c339dbf4ce91b4b0d363f66325eefd2d", "type": "electric_scooter", "is_disabled": 0, "lat": 38.9304105, "rental_uris": {"android": "https://dc.lft.to/lastmile_qr_scan", "ios": "https://dc.lft.to/lastmile_qr_scan"}, "bike_id": "c339dbf4ce91b4b0d363f66325eefd2d", "lon": -77.01224233333333}, {"is_reserved": 0, "fusion_lon": 0.0, "fusion_lat": 0.0, "name": "a8d24bafd37f84d5e81fcb14bc9fb566", "type": "electric_bike", "is_disabled": 0, "lat": 38.96320983333333, "rental_uris": {"android": "https://dc.lft.to/lastmile_qr_scan", "ios": "https://dc.lft.to/lastmile_qr_scan"}, "bike_id": "a8d24bafd37f84d5e81fcb14bc9fb566", "lon": -76.97363266666666}, {"is_reserved": 0, "fusion_lon": 0.0, "fusion_lat": 0.0, "name": "3074c7f3e186c12b393ccca3f2adeb11", "type": "electric_scooter", "is_disabled": 0, "lat": 38.918123666666666, "rental_uris": {"android": "https://dc.lft.to/lastmile_qr_scan", "ios": "https://dc.lft.to/lastmile_qr_scan"}, "bike_id": "3074c7f3e186c12b393ccca3f2adeb11", "lon": -77.08955616666667}, {"is_reserved": 0, "fusion_lon": 0.0, "fusion_lat": 0.0, "name": "a57db3dab2f59033a9bd0dc09d6dfccc", "type": "electric_scooter", "is_disabled": 0, "lat": 38.908649833333335, "rental_uris": {"android": "https://dc.lft.to/lastmile_qr_scan", "ios": "https://dc.lft.to/lastmile_qr_scan"}, "bike_id": "a57db3dab2f59033a9bd0dc09d6dfccc", "lon": -77.0859505}, {"is_reserved": 0, "fusion_lon": 0.0, "fusion_lat": 0.0, "name": "36f532adf58851397f70d8b89a91ae67", "type": "electric_bike", "is_disabled": 0, "lat": 38.963029666666664, "rental_uris": {"android": "https://dc.lft.to/lastmile_qr_scan", "ios": "https://dc.lft.to/lastmile_qr_scan"}, "bike_id": "36f532adf58851397f70d8b89a91ae67", "lon": -77.01120516666667}, {"is_reserved": 0, "fusion_lon": 0.0, "fusion_lat": 0.0, "name": "38d367a43456c3f681eb86636aa13948", "type": "electric_scooter", "is_disabled": 0, "lat": 38.936014666666665, "rental_uris": {"android": "https://dc.lft.to/lastmile_qr_scan", "ios": "https://dc.lft.to/lastmile_qr_scan"}, "bike_id": "38d367a43456c3f681eb86636aa13948", "lon": -77.03784833333333}, {"is_reserved": 0, "fusion_lon": 0.0, "fusion_lat": 0.0, "name": "8a259052f45c9de4735ca748147cabe1", "type": "electric_scooter", "is_disabled": 0, "lat": 38.8961835, "rental_uris": {"android": "https://dc.lft.to/lastmile_qr_scan", "ios": "https://dc.lft.to/lastmile_qr_scan"}, "bike_id": "8a259052f45c9de4735ca748147cabe1", "lon": -77.02373983333334}, {"is_reserved": 0, "fusion_lon": 0.0, "fusion_lat": 0.0, "name": "07a6e779a3654e8e4774c4a4662304e0", "type": "electric_scooter", "is_disabled": 0, "lat": 38.90398316666667, "rental_uris": {"android": "https://dc.lft.to/lastmile_qr_scan", "ios": "https://dc.lft.to/lastmile_qr_scan"}, "bike_id": "07a6e779a3654e8e4774c4a4662304e0", "lon": -77.03437083333333}, {"is_reserved": 0, "fusion_lon": 0.0, "fusion_lat": 0.0, "name": "1553e8a9e48035053b82a3107523a080", "type": "electric_scooter", "is_disabled": 0, "lat": 38.928804166666666, "rental_uris": {"android": "https://dc.lft.to/lastmile_qr_scan", "ios": "https://dc.lft.to/lastmile_qr_scan"}, "bike_id": "1553e8a9e48035053b82a3107523a080", "lon": -77.03652233333334}, {"is_reserved": 0, "fusion_lon": 0.0, "fusion_lat": 0.0, "name": "161a31f8cc929c66a19b051263c149b6", "type": "electric_bike", "is_disabled": 0, "lat": 39.034277, "rental_uris": {"android": "https://dc.lft.to/lastmile_qr_scan", "ios": "https://dc.lft.to/lastmile_qr_scan"}, "bike_id": "161a31f8cc929c66a19b051263c149b6", "lon": -77.04094566666667}, {"is_reserved": 0, "fusion_lon": 0.0, "fusion_lat": 0.0, "name": "442d44ded10f5d81e5805aa7cb48f6d9", "type": "electric_scooter", "is_disabled": 0, "lat": 38.926591333333334, "rental_uris": {"android": "https://dc.lft.to/lastmile_qr_scan", "ios": "https://dc.lft.to/lastmile_qr_scan"}, "bike_id": "442d44ded10f5d81e5805aa7cb48f6d9", "lon": -77.00866766666667}, {"is_reserved": 0, "fusion_lon": 0.0, "fusion_lat": 0.0, "name": "5f0c9dadbdbcfa16ee25c12b87ced278", "type": "electric_scooter", "is_disabled": 0, "lat": 38.90644833333333, "rental_uris": {"android": "https://dc.lft.to/lastmile_qr_scan", "ios": "https://dc.lft.to/lastmile_qr_scan"}, "bike_id": "5f0c9dadbdbcfa16ee25c12b87ced278", "lon": -77.05127766666666}, {"is_reserved": 0, "fusion_lon": 0.0, "fusion_lat": 0.0, "name": "d4df30d3f0d5a41a065c8b422bb87609", "type": "electric_scooter", "is_disabled": 0, "lat": 38.912759, "rental_uris": {"android": "https://dc.lft.to/lastmile_qr_scan", "ios": "https://dc.lft.to/lastmile_qr_scan"}, "bike_id": "d4df30d3f0d5a41a065c8b422bb87609", "lon": -77.02240666666667}, {"is_reserved": 0, "fusion_lon": 0.0, "fusion_lat": 0.0, "name": "86d0873015e65fd5bb702ad0d41eca34", "type": "electric_bike", "is_disabled": 0, "lat": 38.88333683333333, "rental_uris": {"android": "https://dc.lft.to/lastmile_qr_scan", "ios": "https://dc.lft.to/lastmile_qr_scan"}, "bike_id": "86d0873015e65fd5bb702ad0d41eca34", "lon": -77.0656605}, {"is_reserved": 0, "fusion_lon": 0.0, "fusion_lat": 0.0, "name": "df95f27574d4d7240b75f6da87504f20", "type": "electric_bike", "is_disabled": 0, "lat": 38.90857783333333, "rental_uris": {"android": "https://dc.lft.to/lastmile_qr_scan", "ios": "https://dc.lft.to/lastmile_qr_scan"}, "bike_id": "df95f27574d4d7240b75f6da87504f20", "lon": -76.940066}, {"is_reserved": 0, "fusion_lon": 0.0, "fusion_lat": 0.0, "name": "0975b8b08a92a2ff41514eeda2c3ce59", "type": "electric_scooter", "is_disabled": 0, "lat": 38.902357333333335, "rental_uris": {"android": "https://dc.lft.to/lastmile_qr_scan", "ios": "https://dc.lft.to/lastmile_qr_scan"}, "bike_id": "0975b8b08a92a2ff41514eeda2c3ce59", "lon": -77.00201416666667}, {"is_reserved": 0, "fusion_lon": 0.0, "fusion_lat": 0.0, "name": "295e88c5311a7bef9a0d6cc0c800017d", "type": "electric_scooter", "is_disabled": 0, "lat": 38.91565533333333, "rental_uris": {"android": "https://dc.lft.to/lastmile_qr_scan", "ios": "https://dc.lft.to/lastmile_qr_scan"}, "bike_id": "295e88c5311a7bef9a0d6cc0c800017d", "lon": -77.03207016666667}, {"is_reserved": 0, "fusion_lon": 0.0, "fusion_lat": 0.0, "name": "a2159a233f1f2ef0708010f6540aac7b", "type": "electric_scooter", "is_disabled": 0, "lat": 38.90861483333333, "rental_uris": {"android": "https://dc.lft.to/lastmile_qr_scan", "ios": "https://dc.lft.to/lastmile_qr_scan"}, "bike_id": "a2159a233f1f2ef0708010f6540aac7b", "lon": -77.04267683333333}, {"is_reserved": 0, "fusion_lon": 0.0, "fusion_lat": 0.0, "name": "33de9b4753c945d1e3f5ad939dc71ea1", "type": "electric_bike", "is_disabled": 0, "lat": 38.9350975, "rental_uris": {"android": "https://dc.lft.to/lastmile_qr_scan", "ios": "https://dc.lft.to/lastmile_qr_scan"}, "bike_id": "33de9b4753c945d1e3f5ad939dc71ea1", "lon": -76.997987}, {"is_reserved": 0, "fusion_lon": 0.0, "fusion_lat": 0.0, "name": "ff6e64c7243261badfe47749c709737b", "type": "electric_scooter", "is_disabled": 0, "lat": 38.917196833333335, "rental_uris": {"android": "https://dc.lft.to/lastmile_qr_scan", "ios": "https://dc.lft.to/lastmile_qr_scan"}, "bike_id": "ff6e64c7243261badfe47749c709737b", "lon": -77.03657816666667}, {"is_reserved": 0, "fusion_lon": 0.0, "fusion_lat": 0.0, "name": "3d57ed7359f60cba18534390c3862ad4", "type": "electric_scooter", "is_disabled": 0, "lat": 38.90860383333333, "rental_uris": {"android": "https://dc.lft.to/lastmile_qr_scan", "ios": "https://dc.lft.to/lastmile_qr_scan"}, "bike_id": "3d57ed7359f60cba18534390c3862ad4", "lon": -77.03443716666666}, {"is_reserved": 0, "fusion_lon": 0.0, "fusion_lat": 0.0, "name": "bb0cef49b146674678396349a97e36eb", "type": "electric_scooter", "is_disabled": 0, "lat": 38.90235833333333, "rental_uris": {"android": "https://dc.lft.to/lastmile_qr_scan", "ios": "https://dc.lft.to/lastmile_qr_scan"}, "bike_id": "bb0cef49b146674678396349a97e36eb", "lon": -77.0019825}, {"is_reserved": 0, "fusion_lon": 0.0, "fusion_lat": 0.0, "name": "d8d05dab17031e504be94bf1e7eed80d", "type": "electric_scooter", "is_disabled": 0, "lat": 38.95496266666667, "rental_uris": {"android": "https://dc.lft.to/lastmile_qr_scan", "ios": "https://dc.lft.to/lastmile_qr_scan"}, "bike_id": "d8d05dab17031e504be94bf1e7eed80d", "lon": -77.02959016666667}, {"is_reserved": 0, "fusion_lon": 0.0, "fusion_lat": 0.0, "name": "35a27d49f95e1da19f310ce8a9aec32b", "type": "electric_scooter", "is_disabled": 0, "lat": 38.90640883333333, "rental_uris": {"android": "https://dc.lft.to/lastmile_qr_scan", "ios": "https://dc.lft.to/lastmile_qr_scan"}, "bike_id": "35a27d49f95e1da19f310ce8a9aec32b", "lon": -77.06895416666667}, {"is_reserved": 0, "fusion_lon": 0.0, "fusion_lat": 0.0, "name": "4a44c73749650346645bfe890adab60a", "type": "electric_scooter", "is_disabled": 0, "lat": 38.900631833333335, "rental_uris": {"android": "https://dc.lft.to/lastmile_qr_scan", "ios": "https://dc.lft.to/lastmile_qr_scan"}, "bike_id": "4a44c73749650346645bfe890adab60a", "lon": -77.0453315}, {"is_reserved": 0, "fusion_lon": 0.0, "fusion_lat": 0.0, "name": "018555a91210530c62be3c03d70514a6", "type": "electric_scooter", "is_disabled": 0, "lat": 38.930956, "rental_uris": {"android": "https://dc.lft.to/lastmile_qr_scan", "ios": "https://dc.lft.to/lastmile_qr_scan"}, "bike_id": "018555a91210530c62be3c03d70514a6", "lon": -77.02793866666667}, {"is_reserved": 0, "fusion_lon": 0.0, "fusion_lat": 0.0, "name": "c4e7d505e95357e73358a9e28e3a3cbd", "type": "electric_scooter", "is_disabled": 0, "lat": 38.916985333333336, "rental_uris": {"android": "https://dc.lft.to/lastmile_qr_scan", "ios": "https://dc.lft.to/lastmile_qr_scan"}, "bike_id": "c4e7d505e95357e73358a9e28e3a3cbd", "lon": -77.03314716666667}, {"is_reserved": 0, "fusion_lon": 0.0, "fusion_lat": 0.0, "name": "8b4a82921b812f6c0f5efd53f702d11e", "type": "electric_scooter", "is_disabled": 0, "lat": 38.904421, "rental_uris": {"android": "https://dc.lft.to/lastmile_qr_scan", "ios": "https://dc.lft.to/lastmile_qr_scan"}, "bike_id": "8b4a82921b812f6c0f5efd53f702d11e", "lon": -77.04342616666666}, {"is_reserved": 0, "fusion_lon": 0.0, "fusion_lat": 0.0, "name": "a6f773a5ebb0a17470a9fc0a704b9615", "type": "electric_scooter", "is_disabled": 0, "lat": 38.8901045, "rental_uris": {"android": "https://dc.lft.to/lastmile_qr_scan", "ios": "https://dc.lft.to/lastmile_qr_scan"}, "bike_id": "a6f773a5ebb0a17470a9fc0a704b9615", "lon": -76.93729066666667}, {"is_reserved": 0, "fusion_lon": 0.0, "fusion_lat": 0.0, "name": "2c6390155161ee27f714d29d1b528bce", "type": "electric_scooter", "is_disabled": 0, "lat": 38.902700333333335, "rental_uris": {"android": "https://dc.lft.to/lastmile_qr_scan", "ios": "https://dc.lft.to/lastmile_qr_scan"}, "bike_id": "2c6390155161ee27f714d29d1b528bce", "lon": -77.04597766666667}, {"is_reserved": 0, "fusion_lon": 0.0, "fusion_lat": 0.0, "name": "9d09f11cc6962e5b839c7cdcdfe3777a", "type": "electric_scooter", "is_disabled": 0, "lat": 38.9345195, "rental_uris": {"android": "https://dc.lft.to/lastmile_qr_scan", "ios": "https://dc.lft.to/lastmile_qr_scan"}, "bike_id": "9d09f11cc6962e5b839c7cdcdfe3777a", "lon": -77.03753583333334}, {"is_reserved": 0, "fusion_lon": 0.0, "fusion_lat": 0.0, "name": "99029d381e317476e2cfd1e2d084c427", "type": "electric_scooter", "is_disabled": 0, "lat": 38.907611, "rental_uris": {"android": "https://dc.lft.to/lastmile_qr_scan", "ios": "https://dc.lft.to/lastmile_qr_scan"}, "bike_id": "99029d381e317476e2cfd1e2d084c427", "lon": -77.04151583333334}, {"is_reserved": 0, "fusion_lon": 0.0, "fusion_lat": 0.0, "name": "97ba84304ec6c53d0810aee2102e7117", "type": "electric_scooter", "is_disabled": 0, "lat": 38.90421966666667, "rental_uris": {"android": "https://dc.lft.to/lastmile_qr_scan", "ios": "https://dc.lft.to/lastmile_qr_scan"}, "bike_id": "97ba84304ec6c53d0810aee2102e7117", "lon": -77.04351516666667}, {"is_reserved": 0, "fusion_lon": 0.0, "fusion_lat": 0.0, "name": "0e8ccac5abfc099455985dfc5e084366", "type": "electric_scooter", "is_disabled": 0, "lat": 38.90516916666667, "rental_uris": {"android": "https://dc.lft.to/lastmile_qr_scan", "ios": "https://dc.lft.to/lastmile_qr_scan"}, "bike_id": "0e8ccac5abfc099455985dfc5e084366", "lon": -77.04153933333333}, {"is_reserved": 0, "fusion_lon": 0.0, "fusion_lat": 0.0, "name": "81dce71f1522ad61c6ed79bbc96175c5", "type": "electric_scooter", "is_disabled": 0, "lat": 38.936231, "rental_uris": {"android": "https://dc.lft.to/lastmile_qr_scan", "ios": "https://dc.lft.to/lastmile_qr_scan"}, "bike_id": "81dce71f1522ad61c6ed79bbc96175c5", "lon": -77.05894216666667}, {"is_reserved": 0, "fusion_lon": 0.0, "fusion_lat": 0.0, "name": "819ca1c879801829e918975697a5ab04", "type": "electric_bike", "is_disabled": 0, "lat": 38.9059955, "rental_uris": {"android": "https://dc.lft.to/lastmile_qr_scan", "ios": "https://dc.lft.to/lastmile_qr_scan"}, "bike_id": "819ca1c879801829e918975697a5ab04", "lon": -77.0415685}, {"is_reserved": 0, "fusion_lon": 0.0, "fusion_lat": 0.0, "name": "74d7e8e6aeed72090d0ade11cef8eee2", "type": "electric_scooter", "is_disabled": 0, "lat": 38.92247716666667, "rental_uris": {"android": "https://dc.lft.to/lastmile_qr_scan", "ios": "https://dc.lft.to/lastmile_qr_scan"}, "bike_id": "74d7e8e6aeed72090d0ade11cef8eee2", "lon": -77.0295955}, {"is_reserved": 0, "fusion_lon": 0.0, "fusion_lat": 0.0, "name": "d0a7eaed128dc75f4a48085324d14890", "type": "electric_scooter", "is_disabled": 0, "lat": 38.921655333333334, "rental_uris": {"android": "https://dc.lft.to/lastmile_qr_scan", "ios": "https://dc.lft.to/lastmile_qr_scan"}, "bike_id": "d0a7eaed128dc75f4a48085324d14890", "lon": -77.032594}, {"is_reserved": 0, "fusion_lon": 0.0, "fusion_lat": 0.0, "name": "0449241df01d6515bbbd85ae2c2054d4", "type": "electric_scooter", "is_disabled": 0, "lat": 38.909780166666664, "rental_uris": {"android": "https://dc.lft.to/lastmile_qr_scan", "ios": "https://dc.lft.to/lastmile_qr_scan"}, "bike_id": "0449241df01d6515bbbd85ae2c2054d4", "lon": -77.048725}, {"is_reserved": 0, "fusion_lon": 0.0, "fusion_lat": 0.0, "name": "542e93ca6d64f2b862b27f2688419a2e", "type": "electric_scooter", "is_disabled": 0, "lat": 38.8921995, "rental_uris": {"android": "https://dc.lft.to/lastmile_qr_scan", "ios": "https://dc.lft.to/lastmile_qr_scan"}, "bike_id": "542e93ca6d64f2b862b27f2688419a2e", "lon": -77.0222635}, {"is_reserved": 0, "fusion_lon": 0.0, "fusion_lat": 0.0, "name": "aa41ddbe501a320443759a6601131a44", "type": "electric_scooter", "is_disabled": 0, "lat": 38.9026035, "rental_uris": {"android": "https://dc.lft.to/lastmile_qr_scan", "ios": "https://dc.lft.to/lastmile_qr_scan"}, "bike_id": "aa41ddbe501a320443759a6601131a44", "lon": -77.03142266666667}, {"is_reserved": 0, "fusion_lon": 0.0, "fusion_lat": 0.0, "name": "fdcb40e2946b1194829725c4a8973adb", "type": "electric_scooter", "is_disabled": 0, "lat": 38.899201833333336, "rental_uris": {"android": "https://dc.lft.to/lastmile_qr_scan", "ios": "https://dc.lft.to/lastmile_qr_scan"}, "bike_id": "fdcb40e2946b1194829725c4a8973adb", "lon": -77.003641}, {"is_reserved": 0, "fusion_lon": 0.0, "fusion_lat": 0.0, "name": "e910702529057c03a59afe55cda5e7b5", "type": "electric_scooter", "is_disabled": 0, "lat": 38.86627433333334, "rental_uris": {"android": "https://dc.lft.to/lastmile_qr_scan", "ios": "https://dc.lft.to/lastmile_qr_scan"}, "bike_id": "e910702529057c03a59afe55cda5e7b5", "lon": -76.9890455}, {"is_reserved": 0, "fusion_lon": 0.0, "fusion_lat": 0.0, "name": "03e5f2315b88fcf2f6c2518d26372807", "type": "electric_scooter", "is_disabled": 0, "lat": 38.88386533333333, "rental_uris": {"android": "https://dc.lft.to/lastmile_qr_scan", "ios": "https://dc.lft.to/lastmile_qr_scan"}, "bike_id": "03e5f2315b88fcf2f6c2518d26372807", "lon": -76.95445316666667}, {"is_reserved": 0, "fusion_lon": 0.0, "fusion_lat": 0.0, "name": "74bf16399b17a73105c26dcdd21edb36", "type": "electric_bike", "is_disabled": 0, "lat": 38.9369065, "rental_uris": {"android": "https://dc.lft.to/lastmile_qr_scan", "ios": "https://dc.lft.to/lastmile_qr_scan"}, "bike_id": "74bf16399b17a73105c26dcdd21edb36", "lon": -76.9905955}, {"is_reserved": 0, "fusion_lon": 0.0, "fusion_lat": 0.0, "name": "bfb879d75006c0080130319f0942448c", "type": "electric_scooter", "is_disabled": 0, "lat": 38.922951, "rental_uris": {"android": "https://dc.lft.to/lastmile_qr_scan", "ios": "https://dc.lft.to/lastmile_qr_scan"}, "bike_id": "bfb879d75006c0080130319f0942448c", "lon": -77.04264216666667}, {"is_reserved": 0, "fusion_lon": 0.0, "fusion_lat": 0.0, "name": "e83fa4524e7887b33369f0a524e00522", "type": "electric_scooter", "is_disabled": 0, "lat": 38.89300566666667, "rental_uris": {"android": "https://dc.lft.to/lastmile_qr_scan", "ios": "https://dc.lft.to/lastmile_qr_scan"}, "bike_id": "e83fa4524e7887b33369f0a524e00522", "lon": -76.99823283333333}, {"is_reserved": 0, "fusion_lon": 0.0, "fusion_lat": 0.0, "name": "80e66261bcc1e26ebd325f5b645c5af0", "type": "electric_scooter", "is_disabled": 0, "lat": 38.951890166666665, "rental_uris": {"android": "https://dc.lft.to/lastmile_qr_scan", "ios": "https://dc.lft.to/lastmile_qr_scan"}, "bike_id": "80e66261bcc1e26ebd325f5b645c5af0", "lon": -77.02613383333333}, {"is_reserved": 0, "fusion_lon": 0.0, "fusion_lat": 0.0, "name": "31f8e8afdf2f257145debd78d29b1a77", "type": "electric_scooter", "is_disabled": 0, "lat": 38.922963333333335, "rental_uris": {"android": "https://dc.lft.to/lastmile_qr_scan", "ios": "https://dc.lft.to/lastmile_qr_scan"}, "bike_id": "31f8e8afdf2f257145debd78d29b1a77", "lon": -77.04299416666667}, {"is_reserved": 0, "fusion_lon": 0.0, "fusion_lat": 0.0, "name": "01641c52440e8a882c4a735177ce2a81", "type": "electric_scooter", "is_disabled": 0, "lat": 38.8847725, "rental_uris": {"android": "https://dc.lft.to/lastmile_qr_scan", "ios": "https://dc.lft.to/lastmile_qr_scan"}, "bike_id": "01641c52440e8a882c4a735177ce2a81", "lon": -77.02656516666667}, {"is_reserved": 0, "fusion_lon": 0.0, "fusion_lat": 0.0, "name": "c96b4248608891d407690cb40f024e1d", "type": "electric_scooter", "is_disabled": 0, "lat": 38.89361533333334, "rental_uris": {"android": "https://dc.lft.to/lastmile_qr_scan", "ios": "https://dc.lft.to/lastmile_qr_scan"}, "bike_id": "c96b4248608891d407690cb40f024e1d", "lon": -77.0549305}, {"is_reserved": 0, "fusion_lon": 0.0, "fusion_lat": 0.0, "name": "6b4ed95cc4007087ca263c96bb427dca", "type": "electric_scooter", "is_disabled": 0, "lat": 38.903661666666665, "rental_uris": {"android": "https://dc.lft.to/lastmile_qr_scan", "ios": "https://dc.lft.to/lastmile_qr_scan"}, "bike_id": "6b4ed95cc4007087ca263c96bb427dca", "lon": -77.0402}, {"is_reserved": 0, "fusion_lon": 0.0, "fusion_lat": 0.0, "name": "c5823bb28d63a2591ffea1377a72f133", "type": "electric_scooter", "is_disabled": 0, "lat": 38.918162833333334, "rental_uris": {"android": "https://dc.lft.to/lastmile_qr_scan", "ios": "https://dc.lft.to/lastmile_qr_scan"}, "bike_id": "c5823bb28d63a2591ffea1377a72f133", "lon": -77.03251483333334}, {"is_reserved": 0, "fusion_lon": 0.0, "fusion_lat": 0.0, "name": "6e20139a3d92156e090b08ee0cf81b7f", "type": "electric_scooter", "is_disabled": 0, "lat": 38.8979475, "rental_uris": {"android": "https://dc.lft.to/lastmile_qr_scan", "ios": "https://dc.lft.to/lastmile_qr_scan"}, "bike_id": "6e20139a3d92156e090b08ee0cf81b7f", "lon": -77.0248}, {"is_reserved": 0, "fusion_lon": 0.0, "fusion_lat": 0.0, "name": "cd1790a7cbb9f98b4765b7b33c31e1a4", "type": "electric_scooter", "is_disabled": 0, "lat": 38.90797633333333, "rental_uris": {"android": "https://dc.lft.to/lastmile_qr_scan", "ios": "https://dc.lft.to/lastmile_qr_scan"}, "bike_id": "cd1790a7cbb9f98b4765b7b33c31e1a4", "lon": -77.03192433333334}, {"is_reserved": 0, "fusion_lon": 0.0, "fusion_lat": 0.0, "name": "a08f44b8996b846262f696da1dd36ee6", "type": "electric_scooter", "is_disabled": 0, "lat": 38.90775566666667, "rental_uris": {"android": "https://dc.lft.to/lastmile_qr_scan", "ios": "https://dc.lft.to/lastmile_qr_scan"}, "bike_id": "a08f44b8996b846262f696da1dd36ee6", "lon": -77.0382535}, {"is_reserved": 0, "fusion_lon": 0.0, "fusion_lat": 0.0, "name": "333391605bf02b1d416c2e56553da124", "type": "electric_scooter", "is_disabled": 0, "lat": 38.909488, "rental_uris": {"android": "https://dc.lft.to/lastmile_qr_scan", "ios": "https://dc.lft.to/lastmile_qr_scan"}, "bike_id": "333391605bf02b1d416c2e56553da124", "lon": -77.03201283333334}, {"is_reserved": 0, "fusion_lon": 0.0, "fusion_lat": 0.0, "name": "a9592645b4aae58f9c763607c597c246", "type": "electric_scooter", "is_disabled": 0, "lat": 38.89614783333333, "rental_uris": {"android": "https://dc.lft.to/lastmile_qr_scan", "ios": "https://dc.lft.to/lastmile_qr_scan"}, "bike_id": "a9592645b4aae58f9c763607c597c246", "lon": -76.9816445}, {"is_reserved": 0, "fusion_lon": 0.0, "fusion_lat": 0.0, "name": "43991e4276cec5262e9b2eec6df9f807", "type": "electric_scooter", "is_disabled": 0, "lat": 38.926433, "rental_uris": {"android": "https://dc.lft.to/lastmile_qr_scan", "ios": "https://dc.lft.to/lastmile_qr_scan"}, "bike_id": "43991e4276cec5262e9b2eec6df9f807", "lon": -77.04138733333333}, {"is_reserved": 0, "fusion_lon": 0.0, "fusion_lat": 0.0, "name": "d4b85ad91189998de5278f1eb2255418", "type": "electric_scooter", "is_disabled": 0, "lat": 38.92405316666667, "rental_uris": {"android": "https://dc.lft.to/lastmile_qr_scan", "ios": "https://dc.lft.to/lastmile_qr_scan"}, "bike_id": "d4b85ad91189998de5278f1eb2255418", "lon": -77.020892}, {"is_reserved": 0, "fusion_lon": 0.0, "fusion_lat": 0.0, "name": "9dd7d3aab2b01b0b9be46bceb7aa7c17", "type": "electric_scooter", "is_disabled": 0, "lat": 38.90561533333333, "rental_uris": {"android": "https://dc.lft.to/lastmile_qr_scan", "ios": "https://dc.lft.to/lastmile_qr_scan"}, "bike_id": "9dd7d3aab2b01b0b9be46bceb7aa7c17", "lon": -77.045123}, {"is_reserved": 0, "fusion_lon": 0.0, "fusion_lat": 0.0, "name": "fa014af9e7e33a1cdab7d41b0fae8eec", "type": "electric_scooter", "is_disabled": 0, "lat": 38.90957783333333, "rental_uris": {"android": "https://dc.lft.to/lastmile_qr_scan", "ios": "https://dc.lft.to/lastmile_qr_scan"}, "bike_id": "fa014af9e7e33a1cdab7d41b0fae8eec", "lon": -77.03864333333334}, {"is_reserved": 0, "fusion_lon": 0.0, "fusion_lat": 0.0, "name": "ba01057c95dceda05212b1f4224e2032", "type": "electric_scooter", "is_disabled": 0, "lat": 38.899794, "rental_uris": {"android": "https://dc.lft.to/lastmile_qr_scan", "ios": "https://dc.lft.to/lastmile_qr_scan"}, "bike_id": "ba01057c95dceda05212b1f4224e2032", "lon": -77.02707183333334}, {"is_reserved": 0, "fusion_lon": 0.0, "fusion_lat": 0.0, "name": "abb2416df01c3209040ff5a1ba85c8e0", "type": "electric_scooter", "is_disabled": 0, "lat": 38.89568716666667, "rental_uris": {"android": "https://dc.lft.to/lastmile_qr_scan", "ios": "https://dc.lft.to/lastmile_qr_scan"}, "bike_id": "abb2416df01c3209040ff5a1ba85c8e0", "lon": -77.04677716666667}, {"is_reserved": 0, "fusion_lon": 0.0, "fusion_lat": 0.0, "name": "ced295582268a12fb9775e7b030129b1", "type": "electric_scooter", "is_disabled": 0, "lat": 38.880865, "rental_uris": {"android": "https://dc.lft.to/lastmile_qr_scan", "ios": "https://dc.lft.to/lastmile_qr_scan"}, "bike_id": "ced295582268a12fb9775e7b030129b1", "lon": -76.9850245}, {"is_reserved": 0, "fusion_lon": 0.0, "fusion_lat": 0.0, "name": "5ffbe7cc73987f29d36c3e768f590e1f", "type": "electric_scooter", "is_disabled": 0, "lat": 38.9179855, "rental_uris": {"android": "https://dc.lft.to/lastmile_qr_scan", "ios": "https://dc.lft.to/lastmile_qr_scan"}, "bike_id": "5ffbe7cc73987f29d36c3e768f590e1f", "lon": -77.03203783333333}, {"is_reserved": 0, "fusion_lon": 0.0, "fusion_lat": 0.0, "name": "a6c269dd49ca1d0743bb1bdc6ff66bed", "type": "electric_scooter", "is_disabled": 0, "lat": 38.95050233333333, "rental_uris": {"android": "https://dc.lft.to/lastmile_qr_scan", "ios": "https://dc.lft.to/lastmile_qr_scan"}, "bike_id": "a6c269dd49ca1d0743bb1bdc6ff66bed", "lon": -77.00723383333333}, {"is_reserved": 0, "fusion_lon": 0.0, "fusion_lat": 0.0, "name": "15e43010d37f107e781be070fabeea16", "type": "electric_scooter", "is_disabled": 0, "lat": 38.89615116666667, "rental_uris": {"android": "https://dc.lft.to/lastmile_qr_scan", "ios": "https://dc.lft.to/lastmile_qr_scan"}, "bike_id": "15e43010d37f107e781be070fabeea16", "lon": -76.99295216666667}, {"is_reserved": 0, "fusion_lon": 0.0, "fusion_lat": 0.0, "name": "c28e99c85f1657080b14566843cd3b5a", "type": "electric_scooter", "is_disabled": 0, "lat": 38.91329433333333, "rental_uris": {"android": "https://dc.lft.to/lastmile_qr_scan", "ios": "https://dc.lft.to/lastmile_qr_scan"}, "bike_id": "c28e99c85f1657080b14566843cd3b5a", "lon": -77.04814983333333}, {"is_reserved": 0, "fusion_lon": 0.0, "fusion_lat": 0.0, "name": "d8d6b0899ad4019b1b05e0c1d7862130", "type": "electric_scooter", "is_disabled": 0, "lat": 38.90198016666667, "rental_uris": {"android": "https://dc.lft.to/lastmile_qr_scan", "ios": "https://dc.lft.to/lastmile_qr_scan"}, "bike_id": "d8d6b0899ad4019b1b05e0c1d7862130", "lon": -77.02170983333333}, {"is_reserved": 0, "fusion_lon": 0.0, "fusion_lat": 0.0, "name": "7aab5d2589dc390d5c7a505660afb925", "type": "electric_scooter", "is_disabled": 0, "lat": 38.8921945, "rental_uris": {"android": "https://dc.lft.to/lastmile_qr_scan", "ios": "https://dc.lft.to/lastmile_qr_scan"}, "bike_id": "7aab5d2589dc390d5c7a505660afb925", "lon": -77.031599}, {"is_reserved": 0, "fusion_lon": 0.0, "fusion_lat": 0.0, "name": "5c19384ceac5ad8f339cadbe76c5fcd9", "type": "electric_scooter", "is_disabled": 0, "lat": 38.9017285, "rental_uris": {"android": "https://dc.lft.to/lastmile_qr_scan", "ios": "https://dc.lft.to/lastmile_qr_scan"}, "bike_id": "5c19384ceac5ad8f339cadbe76c5fcd9", "lon": -77.05088116666667}, {"is_reserved": 0, "fusion_lon": 0.0, "fusion_lat": 0.0, "name": "1d1266fc173377030306d007edc3cc95", "type": "electric_scooter", "is_disabled": 0, "lat": 38.889895333333335, "rental_uris": {"android": "https://dc.lft.to/lastmile_qr_scan", "ios": "https://dc.lft.to/lastmile_qr_scan"}, "bike_id": "1d1266fc173377030306d007edc3cc95", "lon": -76.93109283333334}, {"is_reserved": 0, "fusion_lon": 0.0, "fusion_lat": 0.0, "name": "3441646d7d76d857ea0e81cccccbe113", "type": "electric_scooter", "is_disabled": 0, "lat": 38.9407535, "rental_uris": {"android": "https://dc.lft.to/lastmile_qr_scan", "ios": "https://dc.lft.to/lastmile_qr_scan"}, "bike_id": "3441646d7d76d857ea0e81cccccbe113", "lon": -77.02981966666667}, {"is_reserved": 0, "fusion_lon": 0.0, "fusion_lat": 0.0, "name": "1700e057ecbb14d1c3c92ae309f5a995", "type": "electric_scooter", "is_disabled": 0, "lat": 38.922294, "rental_uris": {"android": "https://dc.lft.to/lastmile_qr_scan", "ios": "https://dc.lft.to/lastmile_qr_scan"}, "bike_id": "1700e057ecbb14d1c3c92ae309f5a995", "lon": -76.97532666666666}, {"is_reserved": 0, "fusion_lon": 0.0, "fusion_lat": 0.0, "name": "5ef7ce8950205c93f3d35863eb304ee3", "type": "electric_scooter", "is_disabled": 0, "lat": 38.908811666666665, "rental_uris": {"android": "https://dc.lft.to/lastmile_qr_scan", "ios": "https://dc.lft.to/lastmile_qr_scan"}, "bike_id": "5ef7ce8950205c93f3d35863eb304ee3", "lon": -77.07312966666667}, {"is_reserved": 0, "fusion_lon": 0.0, "fusion_lat": 0.0, "name": "854d3c9f309f729df983709db315981f", "type": "electric_scooter", "is_disabled": 0, "lat": 38.91692316666666, "rental_uris": {"android": "https://dc.lft.to/lastmile_qr_scan", "ios": "https://dc.lft.to/lastmile_qr_scan"}, "bike_id": "854d3c9f309f729df983709db315981f", "lon": -77.03213383333333}, {"is_reserved": 0, "fusion_lon": 0.0, "fusion_lat": 0.0, "name": "0336cad30fc769f1d9bbf7e5a585c87f", "type": "electric_scooter", "is_disabled": 0, "lat": 38.89218366666667, "rental_uris": {"android": "https://dc.lft.to/lastmile_qr_scan", "ios": "https://dc.lft.to/lastmile_qr_scan"}, "bike_id": "0336cad30fc769f1d9bbf7e5a585c87f", "lon": -77.04376716666667}, {"is_reserved": 0, "fusion_lon": 0.0, "fusion_lat": 0.0, "name": "b350cef08bcd65e9ed7b61c707bb038a", "type": "electric_scooter", "is_disabled": 0, "lat": 38.90303983333333, "rental_uris": {"android": "https://dc.lft.to/lastmile_qr_scan", "ios": "https://dc.lft.to/lastmile_qr_scan"}, "bike_id": "b350cef08bcd65e9ed7b61c707bb038a", "lon": -77.050433}, {"is_reserved": 0, "fusion_lon": 0.0, "fusion_lat": 0.0, "name": "21500102c2aeef0e6ac6c92a240fbfc1", "type": "electric_scooter", "is_disabled": 0, "lat": 38.94522466666667, "rental_uris": {"android": "https://dc.lft.to/lastmile_qr_scan", "ios": "https://dc.lft.to/lastmile_qr_scan"}, "bike_id": "21500102c2aeef0e6ac6c92a240fbfc1", "lon": -77.0208405}, {"is_reserved": 0, "fusion_lon": 0.0, "fusion_lat": 0.0, "name": "ddd3e6b5aee488040903feb91146e97a", "type": "electric_scooter", "is_disabled": 0, "lat": 38.905996, "rental_uris": {"android": "https://dc.lft.to/lastmile_qr_scan", "ios": "https://dc.lft.to/lastmile_qr_scan"}, "bike_id": "ddd3e6b5aee488040903feb91146e97a", "lon": -76.98515133333333}, {"is_reserved": 0, "fusion_lon": 0.0, "fusion_lat": 0.0, "name": "9e7a541731c7b6bb4c81c71c3ea55219", "type": "electric_scooter", "is_disabled": 0, "lat": 38.9156265, "rental_uris": {"android": "https://dc.lft.to/lastmile_qr_scan", "ios": "https://dc.lft.to/lastmile_qr_scan"}, "bike_id": "9e7a541731c7b6bb4c81c71c3ea55219", "lon": -77.03186483333333}, {"is_reserved": 0, "fusion_lon": 0.0, "fusion_lat": 0.0, "name": "0dd084b7211d2134815fa28e2507c62f", "type": "electric_bike", "is_disabled": 0, "lat": 38.87017783333334, "rental_uris": {"android": "https://dc.lft.to/lastmile_qr_scan", "ios": "https://dc.lft.to/lastmile_qr_scan"}, "bike_id": "0dd084b7211d2134815fa28e2507c62f", "lon": -77.157605}, {"is_reserved": 0, "fusion_lon": 0.0, "fusion_lat": 0.0, "name": "43c5a62ad58029a12c217c728dad4822", "type": "electric_scooter", "is_disabled": 0, "lat": 38.89725166666667, "rental_uris": {"android": "https://dc.lft.to/lastmile_qr_scan", "ios": "https://dc.lft.to/lastmile_qr_scan"}, "bike_id": "43c5a62ad58029a12c217c728dad4822", "lon": -77.02142783333333}, {"is_reserved": 0, "fusion_lon": 0.0, "fusion_lat": 0.0, "name": "7fae2b9c1275cc064dd1a17fa8572d3a", "type": "electric_scooter", "is_disabled": 0, "lat": 38.90007683333333, "rental_uris": {"android": "https://dc.lft.to/lastmile_qr_scan", "ios": "https://dc.lft.to/lastmile_qr_scan"}, "bike_id": "7fae2b9c1275cc064dd1a17fa8572d3a", "lon": -76.99839533333333}, {"is_reserved": 0, "fusion_lon": 0.0, "fusion_lat": 0.0, "name": "9de2baefb7f9fc0cbf9558c4583b5405", "type": "electric_scooter", "is_disabled": 0, "lat": 38.8955025, "rental_uris": {"android": "https://dc.lft.to/lastmile_qr_scan", "ios": "https://dc.lft.to/lastmile_qr_scan"}, "bike_id": "9de2baefb7f9fc0cbf9558c4583b5405", "lon": -77.028009}, {"is_reserved": 0, "fusion_lon": 0.0, "fusion_lat": 0.0, "name": "3e7bc9f173447769c82ac36844d0cc80", "type": "electric_scooter", "is_disabled": 0, "lat": 38.91705266666666, "rental_uris": {"android": "https://dc.lft.to/lastmile_qr_scan", "ios": "https://dc.lft.to/lastmile_qr_scan"}, "bike_id": "3e7bc9f173447769c82ac36844d0cc80", "lon": -77.02417166666666}, {"is_reserved": 0, "fusion_lon": 0.0, "fusion_lat": 0.0, "name": "801f62866a3101e7e6e16beddbc70207", "type": "electric_scooter", "is_disabled": 0, "lat": 38.910160166666664, "rental_uris": {"android": "https://dc.lft.to/lastmile_qr_scan", "ios": "https://dc.lft.to/lastmile_qr_scan"}, "bike_id": "801f62866a3101e7e6e16beddbc70207", "lon": -77.0649095}, {"is_reserved": 0, "fusion_lon": 0.0, "fusion_lat": 0.0, "name": "e499b03144a3443ab4a53104f34bb6dc", "type": "electric_bike", "is_disabled": 0, "lat": 38.900303, "rental_uris": {"android": "https://dc.lft.to/lastmile_qr_scan", "ios": "https://dc.lft.to/lastmile_qr_scan"}, "bike_id": "e499b03144a3443ab4a53104f34bb6dc", "lon": -76.9722505}, {"is_reserved": 0, "fusion_lon": 0.0, "fusion_lat": 0.0, "name": "435ac33594a77046a6ff885924eb0875", "type": "electric_scooter", "is_disabled": 0, "lat": 38.90559416666667, "rental_uris": {"android": "https://dc.lft.to/lastmile_qr_scan", "ios": "https://dc.lft.to/lastmile_qr_scan"}, "bike_id": "435ac33594a77046a6ff885924eb0875", "lon": -77.0345355}, {"is_reserved": 0, "fusion_lon": 0.0, "fusion_lat": 0.0, "name": "0f0f13ba50853172fdf3d4b27fec8b31", "type": "electric_scooter", "is_disabled": 0, "lat": 38.90712516666667, "rental_uris": {"android": "https://dc.lft.to/lastmile_qr_scan", "ios": "https://dc.lft.to/lastmile_qr_scan"}, "bike_id": "0f0f13ba50853172fdf3d4b27fec8b31", "lon": -77.02385816666667}, {"is_reserved": 0, "fusion_lon": 0.0, "fusion_lat": 0.0, "name": "af6e8aa409e868acf24adf4c41a061f8", "type": "electric_scooter", "is_disabled": 0, "lat": 38.908067333333335, "rental_uris": {"android": "https://dc.lft.to/lastmile_qr_scan", "ios": "https://dc.lft.to/lastmile_qr_scan"}, "bike_id": "af6e8aa409e868acf24adf4c41a061f8", "lon": -77.04354033333334}, {"is_reserved": 0, "fusion_lon": 0.0, "fusion_lat": 0.0, "name": "858fdbaf80d95c917ecb749d9bce0029", "type": "electric_scooter", "is_disabled": 0, "lat": 38.925713, "rental_uris": {"android": "https://dc.lft.to/lastmile_qr_scan", "ios": "https://dc.lft.to/lastmile_qr_scan"}, "bike_id": "858fdbaf80d95c917ecb749d9bce0029", "lon": -77.05269066666666}, {"is_reserved": 0, "fusion_lon": 0.0, "fusion_lat": 0.0, "name": "71773d618e3ccd33488d767267149065", "type": "electric_scooter", "is_disabled": 0, "lat": 38.90030183333333, "rental_uris": {"android": "https://dc.lft.to/lastmile_qr_scan", "ios": "https://dc.lft.to/lastmile_qr_scan"}, "bike_id": "71773d618e3ccd33488d767267149065", "lon": -76.98858383333334}, {"is_reserved": 0, "fusion_lon": 0.0, "fusion_lat": 0.0, "name": "ead3478ed612a77cc44e7ea2aaa0feda", "type": "electric_scooter", "is_disabled": 0, "lat": 38.90446633333333, "rental_uris": {"android": "https://dc.lft.to/lastmile_qr_scan", "ios": "https://dc.lft.to/lastmile_qr_scan"}, "bike_id": "ead3478ed612a77cc44e7ea2aaa0feda", "lon": -76.99619766666666}, {"is_reserved": 0, "fusion_lon": 0.0, "fusion_lat": 0.0, "name": "6d4c870fc4d1f308f07c7eedab75c773", "type": "electric_scooter", "is_disabled": 0, "lat": 38.92468916666667, "rental_uris": {"android": "https://dc.lft.to/lastmile_qr_scan", "ios": "https://dc.lft.to/lastmile_qr_scan"}, "bike_id": "6d4c870fc4d1f308f07c7eedab75c773", "lon": -77.02211283333334}, {"is_reserved": 0, "fusion_lon": 0.0, "fusion_lat": 0.0, "name": "92f2ee8e5c22d0a95c19bbfa898cf0db", "type": "electric_scooter", "is_disabled": 0, "lat": 38.89603016666667, "rental_uris": {"android": "https://dc.lft.to/lastmile_qr_scan", "ios": "https://dc.lft.to/lastmile_qr_scan"}, "bike_id": "92f2ee8e5c22d0a95c19bbfa898cf0db", "lon": -77.0317195}, {"is_reserved": 0, "fusion_lon": 0.0, "fusion_lat": 0.0, "name": "4ef6d6196180af7393a5106a5beb3d9c", "type": "electric_scooter", "is_disabled": 0, "lat": 38.91737333333333, "rental_uris": {"android": "https://dc.lft.to/lastmile_qr_scan", "ios": "https://dc.lft.to/lastmile_qr_scan"}, "bike_id": "4ef6d6196180af7393a5106a5beb3d9c", "lon": -77.02116716666667}, {"is_reserved": 0, "fusion_lon": 0.0, "fusion_lat": 0.0, "name": "b4d3110494de45ceb9d55b2151a0d88c", "type": "electric_bike", "is_disabled": 0, "lat": 38.98816383333333, "rental_uris": {"android": "https://dc.lft.to/lastmile_qr_scan", "ios": "https://dc.lft.to/lastmile_qr_scan"}, "bike_id": "b4d3110494de45ceb9d55b2151a0d88c", "lon": -77.0265075}, {"is_reserved": 0, "fusion_lon": 0.0, "fusion_lat": 0.0, "name": "76ecc429ea14cb5967499ee5b2b1add1", "type": "electric_scooter", "is_disabled": 0, "lat": 38.93273666666666, "rental_uris": {"android": "https://dc.lft.to/lastmile_qr_scan", "ios": "https://dc.lft.to/lastmile_qr_scan"}, "bike_id": "76ecc429ea14cb5967499ee5b2b1add1", "lon": -77.0284885}, {"is_reserved": 0, "fusion_lon": 0.0, "fusion_lat": 0.0, "name": "5d4debe3124a96498e37cc6dfdb06b10", "type": "electric_scooter", "is_disabled": 0, "lat": 38.90676716666667, "rental_uris": {"android": "https://dc.lft.to/lastmile_qr_scan", "ios": "https://dc.lft.to/lastmile_qr_scan"}, "bike_id": "5d4debe3124a96498e37cc6dfdb06b10", "lon": -77.03838816666666}, {"is_reserved": 0, "fusion_lon": 0.0, "fusion_lat": 0.0, "name": "d411a94b6f29c05222252293403114a8", "type": "electric_scooter", "is_disabled": 0, "lat": 38.86657433333333, "rental_uris": {"android": "https://dc.lft.to/lastmile_qr_scan", "ios": "https://dc.lft.to/lastmile_qr_scan"}, "bike_id": "d411a94b6f29c05222252293403114a8", "lon": -76.9888315}, {"is_reserved": 0, "fusion_lon": 0.0, "fusion_lat": 0.0, "name": "cd7fe3e25ac2211c0a93dec71cd5c5cc", "type": "electric_scooter", "is_disabled": 0, "lat": 38.90466383333333, "rental_uris": {"android": "https://dc.lft.to/lastmile_qr_scan", "ios": "https://dc.lft.to/lastmile_qr_scan"}, "bike_id": "cd7fe3e25ac2211c0a93dec71cd5c5cc", "lon": -77.03782316666667}, {"is_reserved": 0, "fusion_lon": 0.0, "fusion_lat": 0.0, "name": "c927c75a6ca7039bbdd9519f7d5df9df", "type": "electric_scooter", "is_disabled": 0, "lat": 38.90049, "rental_uris": {"android": "https://dc.lft.to/lastmile_qr_scan", "ios": "https://dc.lft.to/lastmile_qr_scan"}, "bike_id": "c927c75a6ca7039bbdd9519f7d5df9df", "lon": -77.01526083333333}, {"is_reserved": 0, "fusion_lon": 0.0, "fusion_lat": 0.0, "name": "c2ada72f19d09cc8377ec060149945f2", "type": "electric_scooter", "is_disabled": 0, "lat": 38.91921683333333, "rental_uris": {"android": "https://dc.lft.to/lastmile_qr_scan", "ios": "https://dc.lft.to/lastmile_qr_scan"}, "bike_id": "c2ada72f19d09cc8377ec060149945f2", "lon": -77.03173866666667}, {"is_reserved": 0, "fusion_lon": 0.0, "fusion_lat": 0.0, "name": "be7da5f49fdecf0fbc886465608fa635", "type": "electric_scooter", "is_disabled": 0, "lat": 38.918162, "rental_uris": {"android": "https://dc.lft.to/lastmile_qr_scan", "ios": "https://dc.lft.to/lastmile_qr_scan"}, "bike_id": "be7da5f49fdecf0fbc886465608fa635", "lon": -77.03688566666666}, {"is_reserved": 0, "fusion_lon": 0.0, "fusion_lat": 0.0, "name": "4e9b87e184be848eb36b240d78f126fc", "type": "electric_bike", "is_disabled": 0, "lat": 38.956492, "rental_uris": {"android": "https://dc.lft.to/lastmile_qr_scan", "ios": "https://dc.lft.to/lastmile_qr_scan"}, "bike_id": "4e9b87e184be848eb36b240d78f126fc", "lon": -77.012787}, {"is_reserved": 0, "fusion_lon": 0.0, "fusion_lat": 0.0, "name": "06df591c880191f82b46b45590758cce", "type": "electric_scooter", "is_disabled": 0, "lat": 38.8713465, "rental_uris": {"android": "https://dc.lft.to/lastmile_qr_scan", "ios": "https://dc.lft.to/lastmile_qr_scan"}, "bike_id": "06df591c880191f82b46b45590758cce", "lon": -77.00699633333333}, {"is_reserved": 0, "fusion_lon": 0.0, "fusion_lat": 0.0, "name": "9e6cf0fb1996038e61592aa316dde951", "type": "electric_scooter", "is_disabled": 0, "lat": 38.94290733333333, "rental_uris": {"android": "https://dc.lft.to/lastmile_qr_scan", "ios": "https://dc.lft.to/lastmile_qr_scan"}, "bike_id": "9e6cf0fb1996038e61592aa316dde951", "lon": -77.02169933333333}, {"is_reserved": 0, "fusion_lon": 0.0, "fusion_lat": 0.0, "name": "5e2b7685e675ce9d2e89ec5b0eea8b55", "type": "electric_scooter", "is_disabled": 0, "lat": 38.90017533333334, "rental_uris": {"android": "https://dc.lft.to/lastmile_qr_scan", "ios": "https://dc.lft.to/lastmile_qr_scan"}, "bike_id": "5e2b7685e675ce9d2e89ec5b0eea8b55", "lon": -77.02397333333333}, {"is_reserved": 0, "fusion_lon": 0.0, "fusion_lat": 0.0, "name": "8a3959770467209792c364b24cd51ae6", "type": "electric_scooter", "is_disabled": 0, "lat": 38.898837666666665, "rental_uris": {"android": "https://dc.lft.to/lastmile_qr_scan", "ios": "https://dc.lft.to/lastmile_qr_scan"}, "bike_id": "8a3959770467209792c364b24cd51ae6", "lon": -77.03187783333334}, {"is_reserved": 0, "fusion_lon": 0.0, "fusion_lat": 0.0, "name": "c57f6f8c45de0d5050e6940bfa88ce25", "type": "electric_scooter", "is_disabled": 0, "lat": 38.95934233333333, "rental_uris": {"android": "https://dc.lft.to/lastmile_qr_scan", "ios": "https://dc.lft.to/lastmile_qr_scan"}, "bike_id": "c57f6f8c45de0d5050e6940bfa88ce25", "lon": -77.031223}, {"is_reserved": 0, "fusion_lon": 0.0, "fusion_lat": 0.0, "name": "060f8780aa67c21edc9c8c6d5ad8e8f0", "type": "electric_scooter", "is_disabled": 0, "lat": 38.90776533333333, "rental_uris": {"android": "https://dc.lft.to/lastmile_qr_scan", "ios": "https://dc.lft.to/lastmile_qr_scan"}, "bike_id": "060f8780aa67c21edc9c8c6d5ad8e8f0", "lon": -77.03822383333333}, {"is_reserved": 0, "fusion_lon": 0.0, "fusion_lat": 0.0, "name": "5251fef0605a21d7f3a4067511c8bae5", "type": "electric_scooter", "is_disabled": 0, "lat": 38.87367116666667, "rental_uris": {"android": "https://dc.lft.to/lastmile_qr_scan", "ios": "https://dc.lft.to/lastmile_qr_scan"}, "bike_id": "5251fef0605a21d7f3a4067511c8bae5", "lon": -76.97021433333333}, {"is_reserved": 0, "fusion_lon": 0.0, "fusion_lat": 0.0, "name": "f01364e39aebbec8861652e3024d19f2", "type": "electric_scooter", "is_disabled": 0, "lat": 38.895516666666666, "rental_uris": {"android": "https://dc.lft.to/lastmile_qr_scan", "ios": "https://dc.lft.to/lastmile_qr_scan"}, "bike_id": "f01364e39aebbec8861652e3024d19f2", "lon": -76.9984235}, {"is_reserved": 0, "fusion_lon": 0.0, "fusion_lat": 0.0, "name": "1e0d27f917d3dde74d080e3d72823927", "type": "electric_scooter", "is_disabled": 0, "lat": 38.92392533333334, "rental_uris": {"android": "https://dc.lft.to/lastmile_qr_scan", "ios": "https://dc.lft.to/lastmile_qr_scan"}, "bike_id": "1e0d27f917d3dde74d080e3d72823927", "lon": -77.02451616666667}, {"is_reserved": 0, "fusion_lon": 0.0, "fusion_lat": 0.0, "name": "fc4519b70f7891d034df4171c6127375", "type": "electric_scooter", "is_disabled": 0, "lat": 38.9019815, "rental_uris": {"android": "https://dc.lft.to/lastmile_qr_scan", "ios": "https://dc.lft.to/lastmile_qr_scan"}, "bike_id": "fc4519b70f7891d034df4171c6127375", "lon": -77.02175883333334}, {"is_reserved": 0, "fusion_lon": 0.0, "fusion_lat": 0.0, "name": "23fd039299bfa97b428095e30319b75d", "type": "electric_scooter", "is_disabled": 0, "lat": 38.88723816666667, "rental_uris": {"android": "https://dc.lft.to/lastmile_qr_scan", "ios": "https://dc.lft.to/lastmile_qr_scan"}, "bike_id": "23fd039299bfa97b428095e30319b75d", "lon": -77.021865}, {"is_reserved": 0, "fusion_lon": 0.0, "fusion_lat": 0.0, "name": "40b5d5dc55ab5a771c53c5c33a4d517f", "type": "electric_bike", "is_disabled": 0, "lat": 38.800105, "rental_uris": {"android": "https://dc.lft.to/lastmile_qr_scan", "ios": "https://dc.lft.to/lastmile_qr_scan"}, "bike_id": "40b5d5dc55ab5a771c53c5c33a4d517f", "lon": -77.05481433333334}, {"is_reserved": 0, "fusion_lon": 0.0, "fusion_lat": 0.0, "name": "346083a7db7b59202455a6edea20a340", "type": "electric_scooter", "is_disabled": 0, "lat": 38.923599333333335, "rental_uris": {"android": "https://dc.lft.to/lastmile_qr_scan", "ios": "https://dc.lft.to/lastmile_qr_scan"}, "bike_id": "346083a7db7b59202455a6edea20a340", "lon": -77.0423585}, {"is_reserved": 0, "fusion_lon": 0.0, "fusion_lat": 0.0, "name": "8b337b614b66d41b18ed2443ec90b3c0", "type": "electric_scooter", "is_disabled": 0, "lat": 38.911187166666664, "rental_uris": {"android": "https://dc.lft.to/lastmile_qr_scan", "ios": "https://dc.lft.to/lastmile_qr_scan"}, "bike_id": "8b337b614b66d41b18ed2443ec90b3c0", "lon": -77.03828583333333}, {"is_reserved": 0, "fusion_lon": 0.0, "fusion_lat": 0.0, "name": "3ace7042d0f2664fce6952672dee24a4", "type": "electric_scooter", "is_disabled": 0, "lat": 38.916547, "rental_uris": {"android": "https://dc.lft.to/lastmile_qr_scan", "ios": "https://dc.lft.to/lastmile_qr_scan"}, "bike_id": "3ace7042d0f2664fce6952672dee24a4", "lon": -77.02968583333333}, {"is_reserved": 0, "fusion_lon": 0.0, "fusion_lat": 0.0, "name": "4d20d6407f654b7fde582e0f3d45af34", "type": "electric_scooter", "is_disabled": 0, "lat": 38.95730116666667, "rental_uris": {"android": "https://dc.lft.to/lastmile_qr_scan", "ios": "https://dc.lft.to/lastmile_qr_scan"}, "bike_id": "4d20d6407f654b7fde582e0f3d45af34", "lon": -77.02401416666666}, {"is_reserved": 0, "fusion_lon": 0.0, "fusion_lat": 0.0, "name": "bdce81921dda68c2afe455ee75b007de", "type": "electric_scooter", "is_disabled": 0, "lat": 38.903828, "rental_uris": {"android": "https://dc.lft.to/lastmile_qr_scan", "ios": "https://dc.lft.to/lastmile_qr_scan"}, "bike_id": "bdce81921dda68c2afe455ee75b007de", "lon": -77.0421785}, {"is_reserved": 0, "fusion_lon": 0.0, "fusion_lat": 0.0, "name": "8e1a2d396a3253625a3591bfe8e3df3e", "type": "electric_scooter", "is_disabled": 0, "lat": 38.89641483333333, "rental_uris": {"android": "https://dc.lft.to/lastmile_qr_scan", "ios": "https://dc.lft.to/lastmile_qr_scan"}, "bike_id": "8e1a2d396a3253625a3591bfe8e3df3e", "lon": -77.033075}, {"is_reserved": 0, "fusion_lon": 0.0, "fusion_lat": 0.0, "name": "f682b028165156959d9b18030b5ca072", "type": "electric_scooter", "is_disabled": 0, "lat": 38.920054666666665, "rental_uris": {"android": "https://dc.lft.to/lastmile_qr_scan", "ios": "https://dc.lft.to/lastmile_qr_scan"}, "bike_id": "f682b028165156959d9b18030b5ca072", "lon": -77.03883883333333}, {"is_reserved": 0, "fusion_lon": 0.0, "fusion_lat": 0.0, "name": "99373f8e0bd81d7fb30da6ff6b66f300", "type": "electric_scooter", "is_disabled": 0, "lat": 38.9060505, "rental_uris": {"android": "https://dc.lft.to/lastmile_qr_scan", "ios": "https://dc.lft.to/lastmile_qr_scan"}, "bike_id": "99373f8e0bd81d7fb30da6ff6b66f300", "lon": -77.00359416666667}, {"is_reserved": 0, "fusion_lon": 0.0, "fusion_lat": 0.0, "name": "223c4ec8295d3672508ce3c7563ff1fa", "type": "electric_scooter", "is_disabled": 0, "lat": 38.9353765, "rental_uris": {"android": "https://dc.lft.to/lastmile_qr_scan", "ios": "https://dc.lft.to/lastmile_qr_scan"}, "bike_id": "223c4ec8295d3672508ce3c7563ff1fa", "lon": -77.0347585}, {"is_reserved": 0, "fusion_lon": 0.0, "fusion_lat": 0.0, "name": "062449b289de850b8c092cd028eeecba", "type": "electric_scooter", "is_disabled": 0, "lat": 38.9317095, "rental_uris": {"android": "https://dc.lft.to/lastmile_qr_scan", "ios": "https://dc.lft.to/lastmile_qr_scan"}, "bike_id": "062449b289de850b8c092cd028eeecba", "lon": -77.02813466666667}, {"is_reserved": 0, "fusion_lon": 0.0, "fusion_lat": 0.0, "name": "1408513cc170e24ebe0eaa82c1bd9765", "type": "electric_scooter", "is_disabled": 0, "lat": 38.915823833333334, "rental_uris": {"android": "https://dc.lft.to/lastmile_qr_scan", "ios": "https://dc.lft.to/lastmile_qr_scan"}, "bike_id": "1408513cc170e24ebe0eaa82c1bd9765", "lon": -77.0317815}, {"is_reserved": 0, "fusion_lon": 0.0, "fusion_lat": 0.0, "name": "3bc7c1705e7c082f3870208cf995cbef", "type": "electric_bike", "is_disabled": 0, "lat": 38.8075975, "rental_uris": {"android": "https://dc.lft.to/lastmile_qr_scan", "ios": "https://dc.lft.to/lastmile_qr_scan"}, "bike_id": "3bc7c1705e7c082f3870208cf995cbef", "lon": -77.09491533333333}, {"is_reserved": 0, "fusion_lon": 0.0, "fusion_lat": 0.0, "name": "c01cb6d8838ab8e524a3efeeeecb11d2", "type": "electric_bike", "is_disabled": 0, "lat": 38.8974085, "rental_uris": {"android": "https://dc.lft.to/lastmile_qr_scan", "ios": "https://dc.lft.to/lastmile_qr_scan"}, "bike_id": "c01cb6d8838ab8e524a3efeeeecb11d2", "lon": -76.9922245}, {"is_reserved": 0, "fusion_lon": 0.0, "fusion_lat": 0.0, "name": "e327906398c207b84afd26748f90dbbe", "type": "electric_scooter", "is_disabled": 0, "lat": 38.898507333333335, "rental_uris": {"android": "https://dc.lft.to/lastmile_qr_scan", "ios": "https://dc.lft.to/lastmile_qr_scan"}, "bike_id": "e327906398c207b84afd26748f90dbbe", "lon": -77.04167216666667}, {"is_reserved": 0, "fusion_lon": 0.0, "fusion_lat": 0.0, "name": "2eded34ce2a2704b7cde4a146c89815e", "type": "electric_scooter", "is_disabled": 0, "lat": 38.9204705, "rental_uris": {"android": "https://dc.lft.to/lastmile_qr_scan", "ios": "https://dc.lft.to/lastmile_qr_scan"}, "bike_id": "2eded34ce2a2704b7cde4a146c89815e", "lon": -77.0166095}, {"is_reserved": 0, "fusion_lon": 0.0, "fusion_lat": 0.0, "name": "178dd47fad657d25990a0121f24652d5", "type": "electric_scooter", "is_disabled": 0, "lat": 38.89018033333333, "rental_uris": {"android": "https://dc.lft.to/lastmile_qr_scan", "ios": "https://dc.lft.to/lastmile_qr_scan"}, "bike_id": "178dd47fad657d25990a0121f24652d5", "lon": -76.9373265}, {"is_reserved": 0, "fusion_lon": 0.0, "fusion_lat": 0.0, "name": "b43fbc5430d80a4c77aaca58898e3892", "type": "electric_scooter", "is_disabled": 0, "lat": 38.900246833333334, "rental_uris": {"android": "https://dc.lft.to/lastmile_qr_scan", "ios": "https://dc.lft.to/lastmile_qr_scan"}, "bike_id": "b43fbc5430d80a4c77aaca58898e3892", "lon": -77.002064}, {"is_reserved": 0, "fusion_lon": 0.0, "fusion_lat": 0.0, "name": "4d786ac3669556fc6a0dab3c136b3b31", "type": "electric_scooter", "is_disabled": 0, "lat": 38.91083866666666, "rental_uris": {"android": "https://dc.lft.to/lastmile_qr_scan", "ios": "https://dc.lft.to/lastmile_qr_scan"}, "bike_id": "4d786ac3669556fc6a0dab3c136b3b31", "lon": -76.99267833333333}, {"is_reserved": 0, "fusion_lon": 0.0, "fusion_lat": 0.0, "name": "9c602b84345a97e39ad2c01c8050618e", "type": "electric_scooter", "is_disabled": 0, "lat": 38.89855716666667, "rental_uris": {"android": "https://dc.lft.to/lastmile_qr_scan", "ios": "https://dc.lft.to/lastmile_qr_scan"}, "bike_id": "9c602b84345a97e39ad2c01c8050618e", "lon": -77.03949233333333}, {"is_reserved": 0, "fusion_lon": 0.0, "fusion_lat": 0.0, "name": "abb6fad2797ce8e98e04a38235fc2636", "type": "electric_scooter", "is_disabled": 0, "lat": 38.92108316666667, "rental_uris": {"android": "https://dc.lft.to/lastmile_qr_scan", "ios": "https://dc.lft.to/lastmile_qr_scan"}, "bike_id": "abb6fad2797ce8e98e04a38235fc2636", "lon": -77.02047133333333}, {"is_reserved": 0, "fusion_lon": 0.0, "fusion_lat": 0.0, "name": "507370ae99df63a9b54a26f94c41a89e", "type": "electric_bike", "is_disabled": 0, "lat": 38.9953045, "rental_uris": {"android": "https://dc.lft.to/lastmile_qr_scan", "ios": "https://dc.lft.to/lastmile_qr_scan"}, "bike_id": "507370ae99df63a9b54a26f94c41a89e", "lon": -77.06939266666667},