{"data": {"bikes": [{"lat": 38.910480166666666, "is_disabled": 0, "type": "electric_scooter", "lon": -77.043478, "bike_id": "7fd1f110dc120255dcc640f4f725811f", "fusion_lat": 0.0, "name": "7fd1f110dc120255dcc640f4f725811f", "is_reserved": 0, "rental_uris": {"android": "https://dc.lft.to/lastmile_qr_scan", "ios": "https://dc.lft.to/lastmile_qr_scan"}, "fusion_lon": 0.0}, {"lat": 38.894814833333335, "is_disabled": 0, "type": "electric_scooter", "lon": -77.00226783333333, "bike_id": "75bb5de90f4b968b59b570cfbac49520", "fusion_lat": 0.0, "name": "75bb5de90f4b968b59b570cfbac49520", "is_reserved": 0, "rental_uris": {"android": "https://dc.lft.to/lastmile_qr_scan", "ios": "https://dc.lft.to/lastmile_qr_scan"}, "fusion_lon": 0.0}, {"lat": 38.917052, "is_disabled": 0, "type": "electric_scooter", "lon": -77.03924766666667, "bike_id": "020ac50452c9216e1cee795dba5deac4", "fusion_lat": 0.0, "name": "020ac50452c9216e1cee795dba5deac4", "is_reserved": 0, "rental_uris": {"android": "https://dc.lft.to/lastmile_qr_scan", "ios": "https://dc.lft.to/lastmile_qr_scan"}, "fusion_lon": 0.0}, {"lat": 38.906863666666666, "is_disabled": 0, "type": "electric_scooter", "lon": -77.03857416666666, "bike_id": "160e2c3d5562df44aec024d88eb41ab8", "fusion_lat": 0.0, "name": "160e2c3d5562df44aec024d88eb41ab8", "is_reserved": 0, "rental_uris": {"android": "https://dc.lft.to/lastmile_qr_scan", "ios": "https://dc.lft.to/lastmile_qr_scan"}, "fusion_lon": 0.0}, {"lat": 38.92483216666667, "is_disabled": 0, "type": "electric_scooter", "lon": -77.03483666666666, "bike_id": "c6a8b053c630af3b174a251a805ba9f2", "fusion_lat": 0.0, "name": "c6a8b053c630af3b174a251a805ba9f2", "is_reserved": 0, "rental_uris": {"android": "https://dc.lft.to/lastmile_qr_scan", "ios": "https://dc.lft.to/lastmile_qr_scan"}, "fusion_lon": 0.0}, {"lat": 38.9141615, "is_disabled": 0, "type": "electric_scooter", "lon": -77.02117116666666, "bike_id": "cf789addc90a2c483b4b74f67db473eb", "fusion_lat": 0.0, "name": "cf789addc90a2c483b4b74f67db473eb", "is_reserved": 0, "rental_uris": {"android": "https://dc.lft.to/lastmile_qr_scan", "ios": "https://dc.lft.to/lastmile_qr_scan"}, "fusion_lon": 0.0}, {"lat": 38.886246666666665, "is_disabled": 0, "type": "electric_scooter", "lon": -76.955244, "bike_id": "61ad80c1f8d7affc20d608463092a2f0", "fusion_lat": 0.0, "name": "61ad80c1f8d7affc20d608463092a2f0", "is_reserved": 0, "rental_uris": {"android": "https://dc.lft.to/lastmile_qr_scan", "ios": "https://dc.lft.to/lastmile_qr_scan"}, "fusion_lon": 0.0}, {"lat": 38.904772, "is_disabled": 0, "type": "electric_scooter", "lon": -76.97327566666667, "bike_id": "9c824c5056c4f689620f5fd836088778", "fusion_lat": 0.0, "name": "9c824c5056c4f689620f5fd836088778", "is_reserved": 0, "rental_uris": {"android": "https://dc.lft.to/lastmile_qr_scan", "ios": "https://dc.lft.to/lastmile_qr_scan"}, "fusion_lon": 0.0}, {"lat": 38.892236833333335, "is_disabled": 0, "type": "electric_scooter", "lon": -77.03337683333334, "bike_id": "ffb230a6af91b87c22be29e1802ed583", "fusion_lat": 0.0, "name": "ffb230a6af91b87c22be29e1802ed583", "is_reserved": 0, "rental_uris": {"android": "https://dc.lft.to/lastmile_qr_scan", "ios": "https://dc.lft.to/lastmile_qr_scan"}, "fusion_lon": 0.0}, {"lat": 38.9163395, "is_disabled": 0, "type": "electric_scooter", "lon": -77.03229183333333, "bike_id": "cddb2c7d025fd3d6c5fb499e0967660b", "fusion_lat": 0.0, "name": "cddb2c7d025fd3d6c5fb499e0967660b", "is_reserved": 0, "rental_uris": {"android": "https://dc.lft.to/lastmile_qr_scan", "ios": "https://dc.lft.to/lastmile_qr_scan"}, "fusion_lon": 0.0}, {"lat": 38.922517166666665, "is_disabled": 0, "type": "electric_scooter", "lon": -77.01932616666667, "bike_id": "136b7eaf2b04cc12cd0c2d9ccb8f0bd0", "fusion_lat": 0.0, "name": "136b7eaf2b04cc12cd0c2d9ccb8f0bd0", "is_reserved": 0, "rental_uris": {"android": "https://dc.lft.to/lastmile_qr_scan", "ios": "https://dc.lft.to/lastmile_qr_scan"}, "fusion_lon": 0.0}, {"lat": 38.90284416666667, "is_disabled": 0, "type": "electric_scooter", "lon": -77.036626, "bike_id": "7cb519503f5d7b12976bfbbcffa455d7", "fusion_lat": 0.0, "name": "7cb519503f5d7b12976bfbbcffa455d7", "is_reserved": 0, "rental_uris": {"android": "https://dc.lft.to/lastmile_qr_scan", "ios": "https://dc.lft.to/lastmile_qr_scan"}, "fusion_lon": 0.0}, {"lat": 38.91552433333333, "is_disabled": 0, "type": "electric_scooter", "lon": -77.03158916666666, "bike_id": "bf5d38fcce40ff7e5ecef5a96ee432b8", "fusion_lat": 0.0, "name": "bf5d38fcce40ff7e5ecef5a96ee432b8", "is_reserved": 0, "rental_uris": {"android": "https://dc.lft.to/lastmile_qr_scan", "ios": "https://dc.lft.to/lastmile_qr_scan"}, "fusion_lon": 0.0}, {"lat": 38.91730166666667, "is_disabled": 0, "type": "electric_scooter", "lon": -77.03642483333333, "bike_id": "62b6d9f5e13646523ad38c582574e76f", "fusion_lat": 0.0, "name": "62b6d9f5e13646523ad38c582574e76f", "is_reserved": 0, "rental_uris": {"android": "https://dc.lft.to/lastmile_qr_scan", "ios": "https://dc.lft.to/lastmile_qr_scan"}, "fusion_lon": 0.0}, {"lat": 38.9204195, "is_disabled": 0, "type": "electric_scooter", "lon": -77.033977, "bike_id": "18c43af47612f5061c25ad4819842e39", "fusion_lat": 0.0, "name": "18c43af47612f5061c25ad4819842e39", "is_reserved": 0, "rental_uris": {"android": "https://dc.lft.to/lastmile_qr_scan", "ios": "https://dc.lft.to/lastmile_qr_scan"}, "fusion_lon": 0.0}, {"lat": 38.90039516666667, "is_disabled": 0, "type": "electric_scooter", "lon": -76.9950805, "bike_id": "55033307306b7790cc21732520e9a9d6", "fusion_lat": 0.0, "name": "55033307306b7790cc21732520e9a9d6", "is_reserved": 0, "rental_uris": {"android": "https://dc.lft.to/lastmile_qr_scan", "ios": "https://dc.lft.to/lastmile_qr_scan"}, "fusion_lon": 0.0}, {"lat": 38.91008816666667, "is_disabled": 0, "type": "electric_scooter", "lon": -76.98494, "bike_id": "37924931b434d06ad3a895f0143a1214", "fusion_lat": 0.0, "name": "37924931b434d06ad3a895f0143a1214", "is_reserved": 0, "rental_uris": {"android": "https://dc.lft.to/lastmile_qr_scan", "ios": "https://dc.lft.to/lastmile_qr_scan"}, "fusion_lon": 0.0}, {"lat": 38.8398155, "is_disabled": 0, "type": "electric_bike", "lon": -77.005758, "bike_id": "aec475cb1bb6c3791e3d4811396e5b4e", "fusion_lat": 0.0, "name": "aec475cb1bb6c3791e3d4811396e5b4e", "is_reserved": 0, "rental_uris": {"android": "https://dc.lft.to/lastmile_qr_scan", "ios": "https://dc.lft.to/lastmile_qr_scan"}, "fusion_lon": 0.0}, {"lat": 38.88814566666667, "is_disabled": 0, "type": "electric_scooter", "lon": -76.93344316666666, "bike_id": "38412131a85d5fc233e0bf2486e5bc0d", "fusion_lat": 0.0, "name": "38412131a85d5fc233e0bf2486e5bc0d", "is_reserved": 0, "rental_uris": {"android": "https://dc.lft.to/lastmile_qr_scan", "ios": "https://dc.lft.to/lastmile_qr_scan"}, "fusion_lon": 0.0}, {"lat": 38.9239875, "is_disabled": 0, "type": "electric_scooter", "lon": -77.05263183333334, "bike_id": "cb767cd3a3fe3790594a3970ee421d59", "fusion_lat": 0.0, "name": "cb767cd3a3fe3790594a3970ee421d59", "is_reserved": 0, "rental_uris": {"android": "https://dc.lft.to/lastmile_qr_scan", "ios": "https://dc.lft.to/lastmile_qr_scan"}, "fusion_lon": 0.0}, {"lat": 38.876677, "is_disabled": 0, "type": "electric_bike", "lon": -77.01440533333333, "bike_id": "0a8ecec41f8d24b35c765a45154d8396", "fusion_lat": 0.0, "name": "0a8ecec41f8d24b35c765a45154d8396", "is_reserved": 0, "rental_uris": {"android": "https://dc.lft.to/lastmile_qr_scan", "ios": "https://dc.lft.to/lastmile_qr_scan"}, "fusion_lon": 0.0}, {"lat": 38.906709, "is_disabled": 0, "type": "electric_scooter", "lon": -77.0382465, "bike_id": "3b39d29ff13535f99bcf5a99f0e610e8", "fusion_lat": 0.0, "name": "3b39d29ff13535f99bcf5a99f0e610e8", "is_reserved": 0, "rental_uris": {"android": "https://dc.lft.to/lastmile_qr_scan", "ios": "https://dc.lft.to/lastmile_qr_scan"}, "fusion_lon": 0.0}, {"lat": 38.92034566666667, "is_disabled": 0, "type": "electric_bike", "lon": -77.03708583333334, "bike_id": "bf412d1f1cc9351a01889f71fee371e6", "fusion_lat": 0.0, "name": "bf412d1f1cc9351a01889f71fee371e6", "is_reserved": 0, "rental_uris": {"android": "https://dc.lft.to/lastmile_qr_scan", "ios": "https://dc.lft.to/lastmile_qr_scan"}, "fusion_lon": 0.0}, {"lat": 38.902365833333334, "is_disabled": 0, "type": "electric_scooter", "lon": -77.002015, "bike_id": "62be512f7a847ae2e8bd175bdfd31310", "fusion_lat": 0.0, "name": "62be512f7a847ae2e8bd175bdfd31310", "is_reserved": 0, "rental_uris": {"android": "https://dc.lft.to/lastmile_qr_scan", "ios": "https://dc.lft.to/lastmile_qr_scan"}, "fusion_lon": 0.0}, {"lat": 38.908297166666664, "is_disabled": 0, "type": "electric_scooter", "lon": -76.99701483333334, "bike_id": "eb408fd216da1ecd4f7134f3d59cb201", "fusion_lat": 0.0, "name": "eb408fd216da1ecd4f7134f3d59cb201", "is_reserved": 0, "rental_uris": {"android": "https://dc.lft.to/lastmile_qr_scan", "ios": "https://dc.lft.to/lastmile_qr_scan"}, "fusion_lon": 0.0}, {"lat": 38.90561266666667, "is_disabled": 0, "type": "electric_scooter", "lon": -77.0059815, "bike_id": "3f3f8fdf1a01a11863e9beaed09442b3", "fusion_lat": 0.0, "name": "3f3f8fdf1a01a11863e9beaed09442b3", "is_reserved": 0, "rental_uris": {"android": "https://dc.lft.to/lastmile_qr_scan", "ios": "https://dc.lft.to/lastmile_qr_scan"}, "fusion_lon": 0.0}, {"lat": 38.91706466666667, "is_disabled": 0, "type": "electric_scooter", "lon": -77.03897816666667, "bike_id": "b681ea45749078e23bedf9d0b22e92e2", "fusion_lat": 0.0, "name": "b681ea45749078e23bedf9d0b22e92e2", "is_reserved": 0, "rental_uris": {"android": "https://dc.lft.to/lastmile_qr_scan", "ios": "https://dc.lft.to/lastmile_qr_scan"}, "fusion_lon": 0.0}, {"lat": 38.9169475, "is_disabled": 0, "type": "electric_scooter", "lon": -77.032429, "bike_id": "e62dfd752761db280101d014bfbbe7b6", "fusion_lat": 0.0, "name": "e62dfd752761db280101d014bfbbe7b6", "is_reserved": 0, "rental_uris": {"android": "https://dc.lft.to/lastmile_qr_scan", "ios": "https://dc.lft.to/lastmile_qr_scan"}, "fusion_lon": 0.0}, {"lat": 38.900743, "is_disabled": 0, "type": "electric_scooter", "lon": -77.0261755, "bike_id": "fd9a453b4dd31c09a33f1c34c0815f21", "fusion_lat": 0.0, "name": "fd9a453b4dd31c09a33f1c34c0815f21", "is_reserved": 0, "rental_uris": {"android": "https://dc.lft.to/lastmile_qr_scan", "ios": "https://dc.lft.to/lastmile_qr_scan"}, "fusion_lon": 0.0}, {"lat": 38.9053595, "is_disabled": 0, "type": "electric_scooter", "lon": -77.04153183333334, "bike_id": "dfae9431547eac2532a5c8415129c645", "fusion_lat": 0.0, "name": "dfae9431547eac2532a5c8415129c645", "is_reserved": 0, "rental_uris": {"android": "https://dc.lft.to/lastmile_qr_scan", "ios": "https://dc.lft.to/lastmile_qr_scan"}, "fusion_lon": 0.0}, {"lat": 38.905839666666665, "is_disabled": 0, "type": "electric_scooter", "lon": -77.04445616666666, "bike_id": "4f874d933f61bcab0245770fb4545cd6", "fusion_lat": 0.0, "name": "4f874d933f61bcab0245770fb4545cd6", "is_reserved": 0, "rental_uris": {"android": "https://dc.lft.to/lastmile_qr_scan", "ios": "https://dc.lft.to/lastmile_qr_scan"}, "fusion_lon": 0.0}, {"lat": 38.92157183333333, "is_disabled": 0, "type": "electric_scooter", "lon": -77.0323855, "bike_id": "2a2a48b92aee83cb3e8cb766791494ed", "fusion_lat": 0.0, "name": "2a2a48b92aee83cb3e8cb766791494ed", "is_reserved": 0, "rental_uris": {"android": "https://dc.lft.to/lastmile_qr_scan", "ios": "https://dc.lft.to/lastmile_qr_scan"}, "fusion_lon": 0.0}, {"lat": 38.842524166666664, "is_disabled": 0, "type": "electric_bike", "lon": -77.05833966666667, "bike_id": "5acb2996a2200d7c251773b351a78487", "fusion_lat": 0.0, "name": "5acb2996a2200d7c251773b351a78487", "is_reserved": 0, "rental_uris": {"android": "https://dc.lft.to/lastmile_qr_scan", "ios": "https://dc.lft.to/lastmile_qr_scan"}, "fusion_lon": 0.0}, {"lat": 38.89219466666667, "is_disabled": 0, "type": "electric_scooter", "lon": -77.02317283333333, "bike_id": "395e0926472d483e08ba967f579c1afe", "fusion_lat": 0.0, "name": "395e0926472d483e08ba967f579c1afe", "is_reserved": 0, "rental_uris": {"android": "https://dc.lft.to/lastmile_qr_scan", "ios": "https://dc.lft.to/lastmile_qr_scan"}, "fusion_lon": 0.0}, {"lat": 38.916896, "is_disabled": 0, "type": "electric_scooter", "lon": -77.04278, "bike_id": "978cda78e15965f361d34b800e2723d3", "fusion_lat": 0.0, "name": "978cda78e15965f361d34b800e2723d3", "is_reserved": 0, "rental_uris": {"android": "https://dc.lft.to/lastmile_qr_scan", "ios": "https://dc.lft.to/lastmile_qr_scan"}, "fusion_lon": 0.0}, {"lat": 38.92460283333333, "is_disabled": 0, "type": "electric_bike", "lon": -77.20836783333333, "bike_id": "e61e784db3e33f4e3ea54db0f1a7bd2d", "fusion_lat": 0.0, "name": "e61e784db3e33f4e3ea54db0f1a7bd2d", "is_reserved": 0, "rental_uris": {"android": "https://dc.lft.to/lastmile_qr_scan", "ios": "https://dc.lft.to/lastmile_qr_scan"}, "fusion_lon": 0.0}, {"lat": 38.90272066666667, "is_disabled": 0, "type": "electric_scooter", "lon": -77.04358433333333, "bike_id": "62ff1bd452be01e8fbe5e8b58d6af1f7", "fusion_lat": 0.0, "name": "62ff1bd452be01e8fbe5e8b58d6af1f7", "is_reserved": 0, "rental_uris": {"android": "https://dc.lft.to/lastmile_qr_scan", "ios": "https://dc.lft.to/lastmile_qr_scan"}, "fusion_lon": 0.0}, {"lat": 38.8963575, "is_disabled": 0, "type": "electric_scooter", "lon": -77.00910983333333, "bike_id": "75b197114874af1a89d6478d00f9cf28", "fusion_lat": 0.0, "name": "75b197114874af1a89d6478d00f9cf28", "is_reserved": 0, "rental_uris": {"android": "https://dc.lft.to/lastmile_qr_scan", "ios": "https://dc.lft.to/lastmile_qr_scan"}, "fusion_lon": 0.0}, {"lat": 38.887003666666665, "is_disabled": 0, "type": "electric_scooter", "lon": -77.000595, "bike_id": "5a2e2e3b31ac1263c8747a151f00dc00", "fusion_lat": 0.0, "name": "5a2e2e3b31ac1263c8747a151f00dc00", "is_reserved": 0, "rental_uris": {"android": "https://dc.lft.to/lastmile_qr_scan", "ios": "https://dc.lft.to/lastmile_qr_scan"}, "fusion_lon": 0.0}, {"lat": 38.8762625, "is_disabled": 0, "type": "electric_scooter", "lon": -76.96530683333333, "bike_id": "bf2030aff498cec9ee03b56a1e3d52c1", "fusion_lat": 0.0, "name": "bf2030aff498cec9ee03b56a1e3d52c1", "is_reserved": 0, "rental_uris": {"android": "https://dc.lft.to/lastmile_qr_scan", "ios": "https://dc.lft.to/lastmile_qr_scan"}, "fusion_lon": 0.0}, {"lat": 38.911819666666666, "is_disabled": 0, "type": "electric_scooter", "lon": -77.00550816666667, "bike_id": "ee18f788c818395e6c30a223e05bfca8", "fusion_lat": 0.0, "name": "ee18f788c818395e6c30a223e05bfca8", "is_reserved": 0, "rental_uris": {"android": "https://dc.lft.to/lastmile_qr_scan", "ios": "https://dc.lft.to/lastmile_qr_scan"}, "fusion_lon": 0.0}, {"lat": 38.969388, "is_disabled": 0, "type": "electric_bike", "lon": -77.03348233333334, "bike_id": "2dd857984d4b0e04a3b4dcc72d86ffa4", "fusion_lat": 0.0, "name": "2dd857984d4b0e04a3b4dcc72d86ffa4", "is_reserved": 0, "rental_uris": {"android": "https://dc.lft.to/lastmile_qr_scan", "ios": "https://dc.lft.to/lastmile_qr_scan"}, "fusion_lon": 0.0}, {"lat": 38.962198666666666, "is_disabled": 0, "type": "electric_bike", "lon": -77.026304, "bike_id": "a81bd69c76f14fc4c9f8cb257ffe209c", "fusion_lat": 0.0, "name": "a81bd69c76f14fc4c9f8cb257ffe209c", "is_reserved": 0, "rental_uris": {"android": "https://dc.lft.to/lastmile_qr_scan", "ios": "https://dc.lft.to/lastmile_qr_scan"}, "fusion_lon": 0.0}, {"lat": 38.89219083333333, "is_disabled": 0, "type": "electric_bike", "lon": -77.107843, "bike_id": "503e58dddc91f05ce25336f1a8823c2b", "fusion_lat": 0.0, "name": "503e58dddc91f05ce25336f1a8823c2b", "is_reserved": 0, "rental_uris": {"android": "https://dc.lft.to/lastmile_qr_scan", "ios": "https://dc.lft.to/lastmile_qr_scan"}, "fusion_lon": 0.0}, {"lat": 38.890072833333335, "is_disabled": 0, "type": "electric_scooter", "lon": -76.93744383333333, "bike_id": "0ffb873cdea3375b46731c9145e90950", "fusion_lat": 0.0, "name": "0ffb873cdea3375b46731c9145e90950", "is_reserved": 0, "rental_uris": {"android": "https://dc.lft.to/lastmile_qr_scan", "ios": "https://dc.lft.to/lastmile_qr_scan"}, "fusion_lon": 0.0}, {"lat": 38.886586333333334, "is_disabled": 0, "type": "electric_scooter", "lon": -77.01364833333334, "bike_id": "91031aa9b531593168eac915a5b2586d", "fusion_lat": 0.0, "name": "91031aa9b531593168eac915a5b2586d", "is_reserved": 0, "rental_uris": {"android": "https://dc.lft.to/lastmile_qr_scan", "ios": "https://dc.lft.to/lastmile_qr_scan"}, "fusion_lon": 0.0}, {"lat": 38.935176166666665, "is_disabled": 0, "type": "electric_scooter", "lon": -77.032639, "bike_id": "54319825338d4e16bbbf10ab637c743d", "fusion_lat": 0.0, "name": "54319825338d4e16bbbf10ab637c743d", "is_reserved": 0, "rental_uris": {"android": "https://dc.lft.to/lastmile_qr_scan", "ios": "https://dc.lft.to/lastmile_qr_scan"}, "fusion_lon": 0.0}, {"lat": 38.910726333333336, "is_disabled": 0, "type": "electric_bike", "lon": -77.07535366666667, "bike_id": "137711579bf269c12b33d67a15d2524a", "fusion_lat": 0.0, "name": "137711579bf269c12b33d67a15d2524a", "is_reserved": 0, "rental_uris": {"android": "https://dc.lft.to/lastmile_qr_scan", "ios": "https://dc.lft.to/lastmile_qr_scan"}, "fusion_lon": 0.0}, {"lat": 38.91033216666666, "is_disabled": 0, "type": "electric_scooter", "lon": -77.032013, "bike_id": "694768941a8626d7b655237a05aa9f02", "fusion_lat": 0.0, "name": "694768941a8626d7b655237a05aa9f02", "is_reserved": 0, "rental_uris": {"android": "https://dc.lft.to/lastmile_qr_scan", "ios": "https://dc.lft.to/lastmile_qr_scan"}, "fusion_lon": 0.0}, {"lat": 38.904129166666664, "is_disabled": 0, "type": "electric_scooter", "lon": -77.02583633333333, "bike_id": "6f372242a655154d2e40e6543426c442", "fusion_lat": 0.0, "name": "6f372242a655154d2e40e6543426c442", "is_reserved": 0, "rental_uris": {"android": "https://dc.lft.to/lastmile_qr_scan", "ios": "https://dc.lft.to/lastmile_qr_scan"}, "fusion_lon": 0.0}, {"lat": 38.923859, "is_disabled": 0, "type": "electric_scooter", "lon": -77.05756566666666, "bike_id": "4cbb4f950e26cc7c460c36f5a19fe187", "fusion_lat": 0.0, "name": "4cbb4f950e26cc7c460c36f5a19fe187", "is_reserved": 0, "rental_uris": {"android": "https://dc.lft.to/lastmile_qr_scan", "ios": "https://dc.lft.to/lastmile_qr_scan"}, "fusion_lon": 0.0}, {"lat": 38.92418583333333, "is_disabled": 0, "type": "electric_scooter", "lon": -77.019503, "bike_id": "98f2151670aed50cb4ce370efe678483", "fusion_lat": 0.0, "name": "98f2151670aed50cb4ce370efe678483", "is_reserved": 0, "rental_uris": {"android": "https://dc.lft.to/lastmile_qr_scan", "ios": "https://dc.lft.to/lastmile_qr_scan"}, "fusion_lon": 0.0}, {"lat": 38.922929333333336, "is_disabled": 0, "type": "electric_scooter", "lon": -77.04147016666667, "bike_id": "06b79b4e1926dd2b5e45cfb2d17098eb", "fusion_lat": 0.0, "name": "06b79b4e1926dd2b5e45cfb2d17098eb", "is_reserved": 0, "rental_uris": {"android": "https://dc.lft.to/lastmile_qr_scan", "ios": "https://dc.lft.to/lastmile_qr_scan"}, "fusion_lon": 0.0}, {"lat": 38.92600816666667, "is_disabled": 0, "type": "electric_scooter", "lon": -77.02154416666667, "bike_id": "f41bab1c00b569c982f6253aaa46b155", "fusion_lat": 0.0, "name": "f41bab1c00b569c982f6253aaa46b155", "is_reserved": 0, "rental_uris": {"android": "https://dc.lft.to/lastmile_qr_scan", "ios": "https://dc.lft.to/lastmile_qr_scan"}, "fusion_lon": 0.0}, {"lat": 38.9074305, "is_disabled": 0, "type": "electric_scooter", "lon": -77.03437183333334, "bike_id": "02ea2ed05bbdec77aa73b6bc089ecf83", "fusion_lat": 0.0, "name": "02ea2ed05bbdec77aa73b6bc089ecf83", "is_reserved": 0, "rental_uris": {"android": "https://dc.lft.to/lastmile_qr_scan", "ios": "https://dc.lft.to/lastmile_qr_scan"}, "fusion_lon": 0.0}, {"lat": 38.91618966666667, "is_disabled": 0, "type": "electric_scooter", "lon": -77.0108035, "bike_id": "9ae429f6f500dbaa5ebea41f5ed63534", "fusion_lat": 0.0, "name": "9ae429f6f500dbaa5ebea41f5ed63534", "is_reserved": 0, "rental_uris": {"android": "https://dc.lft.to/lastmile_qr_scan", "ios": "https://dc.lft.to/lastmile_qr_scan"}, "fusion_lon": 0.0}, {"lat": 38.926068666666666, "is_disabled": 0, "type": "electric_scooter", "lon": -77.04144716666667, "bike_id": "73cecbfb88ea8470a7073158d3f94627", "fusion_lat": 0.0, "name": "73cecbfb88ea8470a7073158d3f94627", "is_reserved": 0, "rental_uris": {"android": "https://dc.lft.to/lastmile_qr_scan", "ios": "https://dc.lft.to/lastmile_qr_scan"}, "fusion_lon": 0.0}, {"lat": 38.89826133333333, "is_disabled": 0, "type": "electric_scooter", "lon": -77.04159866666667, "bike_id": "8ce86e67789437067e10cd95b8960677", "fusion_lat": 0.0, "name": "8ce86e67789437067e10cd95b8960677", "is_reserved": 0, "rental_uris": {"android": "https://dc.lft.to/lastmile_qr_scan", "ios": "https://dc.lft.to/lastmile_qr_scan"}, "fusion_lon": 0.0}, {"lat": 38.90069333333334, "is_disabled": 0, "type": "electric_scooter", "lon": -77.00203616666667, "bike_id": "161833e207354fc3f90ad41676c65099", "fusion_lat": 0.0, "name": "161833e207354fc3f90ad41676c65099", "is_reserved": 0, "rental_uris": {"android": "https://dc.lft.to/lastmile_qr_scan", "ios": "https://dc.lft.to/lastmile_qr_scan"}, "fusion_lon": 0.0}, {"lat": 38.9120085, "is_disabled": 0, "type": "electric_scooter", "lon": -77.032058, "bike_id": "ec6624516f1161ec870dfcdc2d68a745", "fusion_lat": 0.0, "name": "ec6624516f1161ec870dfcdc2d68a745", "is_reserved": 0, "rental_uris": {"android": "https://dc.lft.to/lastmile_qr_scan", "ios": "https://dc.lft.to/lastmile_qr_scan"}, "fusion_lon": 0.0}, {"lat": 38.92365316666667, "is_disabled": 0, "type": "electric_scooter", "lon": -77.05130183333333, "bike_id": "7840d40f24fcf280698f721f9486984a", "fusion_lat": 0.0, "name": "7840d40f24fcf280698f721f9486984a", "is_reserved": 0, "rental_uris": {"android": "https://dc.lft.to/lastmile_qr_scan", "ios": "https://dc.lft.to/lastmile_qr_scan"}, "fusion_lon": 0.0}, {"lat": 38.90369283333333, "is_disabled": 0, "type": "electric_scooter", "lon": -77.04502, "bike_id": "8b6f0d553764fbb2786680f6a86b71ff", "fusion_lat": 0.0, "name": "8b6f0d553764fbb2786680f6a86b71ff", "is_reserved": 0, "rental_uris": {"android": "https://dc.lft.to/lastmile_qr_scan", "ios": "https://dc.lft.to/lastmile_qr_scan"}, "fusion_lon": 0.0}, {"lat": 38.93358883333333, "is_disabled": 0, "type": "electric_bike", "lon": -77.0996385, "bike_id": "c31a4b6f8aef955d89872afc0087d5fe", "fusion_lat": 0.0, "name": "c31a4b6f8aef955d89872afc0087d5fe", "is_reserved": 0, "rental_uris": {"android": "https://dc.lft.to/lastmile_qr_scan", "ios": "https://dc.lft.to/lastmile_qr_scan"}, "fusion_lon": 0.0}, {"lat": 38.92196116666667, "is_disabled": 0, "type": "electric_scooter", "lon": -77.04259216666667, "bike_id": "1b750fc5a53fadb55ec296aa7306724c", "fusion_lat": 0.0, "name": "1b750fc5a53fadb55ec296aa7306724c", "is_reserved": 0, "rental_uris": {"android": "https://dc.lft.to/lastmile_qr_scan", "ios": "https://dc.lft.to/lastmile_qr_scan"}, "fusion_lon": 0.0}, {"lat": 38.91934466666667, "is_disabled": 0, "type": "electric_scooter", "lon": -77.03205183333333, "bike_id": "536fac3f6d83c3f7a98d8e97f2192cd4", "fusion_lat": 0.0, "name": "536fac3f6d83c3f7a98d8e97f2192cd4", "is_reserved": 0, "rental_uris": {"android": "https://dc.lft.to/lastmile_qr_scan", "ios": "https://dc.lft.to/lastmile_qr_scan"}, "fusion_lon": 0.0}, {"lat": 38.9318695, "is_disabled": 0, "type": "electric_scooter", "lon": -77.02827116666667, "bike_id": "b3a18e254c8406ab9bc296f81dd9a19f", "fusion_lat": 0.0, "name": "b3a18e254c8406ab9bc296f81dd9a19f", "is_reserved": 0, "rental_uris": {"android": "https://dc.lft.to/lastmile_qr_scan", "ios": "https://dc.lft.to/lastmile_qr_scan"}, "fusion_lon": 0.0}, {"lat": 38.903517666666666, "is_disabled": 0, "type": "electric_scooter", "lon": -77.04507916666667, "bike_id": "8f904bf18f874637e6fc853eae994638", "fusion_lat": 0.0, "name": "8f904bf18f874637e6fc853eae994638", "is_reserved": 0, "rental_uris": {"android": "https://dc.lft.to/lastmile_qr_scan", "ios": "https://dc.lft.to/lastmile_qr_scan"}, "fusion_lon": 0.0}, {"lat": 38.903294333333335, "is_disabled": 0, "type": "electric_scooter", "lon": -77.0330725, "bike_id": "a5ad3076227fd232dd4fb83ee7b8a25c", "fusion_lat": 0.0, "name": "a5ad3076227fd232dd4fb83ee7b8a25c", "is_reserved": 0, "rental_uris": {"android": "https://dc.lft.to/lastmile_qr_scan", "ios": "https://dc.lft.to/lastmile_qr_scan"}, "fusion_lon": 0.0}, {"lat": 38.9142105, "is_disabled": 0, "type": "electric_scooter", "lon": -77.03177566666666, "bike_id": "0e54663e2c4b01674153f210e73da00a", "fusion_lat": 0.0, "name": "0e54663e2c4b01674153f210e73da00a", "is_reserved": 0, "rental_uris": {"android": "https://dc.lft.to/lastmile_qr_scan", "ios": "https://dc.lft.to/lastmile_qr_scan"}, "fusion_lon": 0.0}, {"lat": 38.900071, "is_disabled": 0, "type": "electric_scooter", "lon": -76.9985785, "bike_id": "c9b64798d5408cf5e6337a7c644a1254", "fusion_lat": 0.0, "name": "c9b64798d5408cf5e6337a7c644a1254", "is_reserved": 0, "rental_uris": {"android": "https://dc.lft.to/lastmile_qr_scan", "ios": "https://dc.lft.to/lastmile_qr_scan"}, "fusion_lon": 0.0}, {"lat": 38.90212066666667, "is_disabled": 0, "type": "electric_scooter", "lon": -77.0488245, "bike_id": "153229707c61af00946141e4eb603931", "fusion_lat": 0.0, "name": "153229707c61af00946141e4eb603931", "is_reserved": 0, "rental_uris": {"android": "https://dc.lft.to/lastmile_qr_scan", "ios": "https://dc.lft.to/lastmile_qr_scan"}, "fusion_lon": 0.0}, {"lat": 38.93396666666666, "is_disabled": 0, "type": "electric_scooter", "lon": -77.04129816666666, "bike_id": "8918bfcf7044808998862e0b2affde01", "fusion_lat": 0.0, "name": "8918bfcf7044808998862e0b2affde01", "is_reserved": 0, "rental_uris": {"android": "https://dc.lft.to/lastmile_qr_scan", "ios": "https://dc.lft.to/lastmile_qr_scan"}, "fusion_lon": 0.0}, {"lat": 38.92592283333333, "is_disabled": 0, "type": "electric_scooter", "lon": -77.02145783333333, "bike_id": "b4c4bff512abb5ec3888b5c0f734b996", "fusion_lat": 0.0, "name": "b4c4bff512abb5ec3888b5c0f734b996", "is_reserved": 0, "rental_uris": {"android": "https://dc.lft.to/lastmile_qr_scan", "ios": "https://dc.lft.to/lastmile_qr_scan"}, "fusion_lon": 0.0}, {"lat": 38.960918166666666, "is_disabled": 0, "type": "electric_scooter", "lon": -77.08284366666666, "bike_id": "edb7516d3a2a84db27301ac1637ae3b2", "fusion_lat": 0.0, "name": "edb7516d3a2a84db27301ac1637ae3b2", "is_reserved": 0, "rental_uris": {"android": "https://dc.lft.to/lastmile_qr_scan", "ios": "https://dc.lft.to/lastmile_qr_scan"}, "fusion_lon": 0.0}, {"lat": 38.879225166666664, "is_disabled": 0, "type": "electric_bike", "lon": -77.02372066666666, "bike_id": "b97a4cd64860907ea81e72c132b733d0", "fusion_lat": 0.0, "name": "b97a4cd64860907ea81e72c132b733d0", "is_reserved": 0, "rental_uris": {"android": "https://dc.lft.to/lastmile_qr_scan", "ios": "https://dc.lft.to/lastmile_qr_scan"}, "fusion_lon": 0.0}, {"lat": 38.934833833333336, "is_disabled": 0, "type": "electric_scooter", "lon": -77.07273016666667, "bike_id": "d28f3dad29ded964f354d0cbd392de49", "fusion_lat": 0.0, "name": "d28f3dad29ded964f354d0cbd392de49", "is_reserved": 0, "rental_uris": {"android": "https://dc.lft.to/lastmile_qr_scan", "ios": "https://dc.lft.to/lastmile_qr_scan"}, "fusion_lon": 0.0}, {"lat": 38.90802466666667, "is_disabled": 0, "type": "electric_scooter", "lon": -77.04313583333334, "bike_id": "776445c0d9e8d07f16f0a1b76141a5c6", "fusion_lat": 0.0, "name": "776445c0d9e8d07f16f0a1b76141a5c6", "is_reserved": 0, "rental_uris": {"android": "https://dc.lft.to/lastmile_qr_scan", "ios": "https://dc.lft.to/lastmile_qr_scan"}, "fusion_lon": 0.0}, {"lat": 38.9006505, "is_disabled": 0, "type": "electric_scooter", "lon": -77.00755016666666, "bike_id": "093a1eee26acb7b79885ce784b7fb2c9", "fusion_lat": 0.0, "name": "093a1eee26acb7b79885ce784b7fb2c9", "is_reserved": 0, "rental_uris": {"android": "https://dc.lft.to/lastmile_qr_scan", "ios": "https://dc.lft.to/lastmile_qr_scan"}, "fusion_lon": 0.0}, {"lat": 38.863862166666664, "is_disabled": 0, "type": "electric_bike", "lon": -76.989916, "bike_id": "3af7b4ec529a757575db77dec6abe7d7", "fusion_lat": 0.0, "name": "3af7b4ec529a757575db77dec6abe7d7", "is_reserved": 0, "rental_uris": {"android": "https://dc.lft.to/lastmile_qr_scan", "ios": "https://dc.lft.to/lastmile_qr_scan"}, "fusion_lon": 0.0}, {"lat": 39.00011283333333, "is_disabled": 0, "type": "electric_bike", "lon": -76.91078166666667, "bike_id": "a7bee12c2b4212417fe26e0e852289ff", "fusion_lat": 0.0, "name": "a7bee12c2b4212417fe26e0e852289ff", "is_reserved": 0, "rental_uris": {"android": "https://dc.lft.to/lastmile_qr_scan", "ios": "https://dc.lft.to/lastmile_qr_scan"}, "fusion_lon": 0.0}, {"lat": 38.892174833333335, "is_disabled": 0, "type": "electric_scooter", "lon": -77.02787033333334, "bike_id": "e3dd9d3706a47602b6fa00a526b1767a", "fusion_lat": 0.0, "name": "e3dd9d3706a47602b6fa00a526b1767a", "is_reserved": 0, "rental_uris": {"android": "https://dc.lft.to/lastmile_qr_scan", "ios": "https://dc.lft.to/lastmile_qr_scan"}, "fusion_lon": 0.0}, {"lat": 38.88746866666666, "is_disabled": 0, "type": "electric_scooter", "lon": -77.03223816666667, "bike_id": "b69f473e39bab40e5e035d53a3433aad", "fusion_lat": 0.0, "name": "b69f473e39bab40e5e035d53a3433aad", "is_reserved": 0, "rental_uris": {"android": "https://dc.lft.to/lastmile_qr_scan", "ios": "https://dc.lft.to/lastmile_qr_scan"}, "fusion_lon": 0.0}, {"lat": 38.911120333333336, "is_disabled": 0, "type": "electric_scooter", "lon": -77.03291916666667, "bike_id": "b041f2e80ff8863538bcc6bcab7dbbc6", "fusion_lat": 0.0, "name": "b041f2e80ff8863538bcc6bcab7dbbc6", "is_reserved": 0, "rental_uris": {"android": "https://dc.lft.to/lastmile_qr_scan", "ios": "https://dc.lft.to/lastmile_qr_scan"}, "fusion_lon": 0.0}, {"lat": 38.865549, "is_disabled": 0, "type": "electric_scooter", "lon": -76.97399966666667, "bike_id": "f7219582eca03dc07fcbccc8abcc8311", "fusion_lat": 0.0, "name": "f7219582eca03dc07fcbccc8abcc8311", "is_reserved": 0, "rental_uris": {"android": "https://dc.lft.to/lastmile_qr_scan", "ios": "https://dc.lft.to/lastmile_qr_scan"}, "fusion_lon": 0.0}, {"lat": 38.89777516666667, "is_disabled": 0, "type": "electric_scooter", "lon": -77.02707533333333, "bike_id": "3623021bdf6c873bbae09b043a047848", "fusion_lat": 0.0, "name": "3623021bdf6c873bbae09b043a047848", "is_reserved": 0, "rental_uris": {"android": "https://dc.lft.to/lastmile_qr_scan", "ios": "https://dc.lft.to/lastmile_qr_scan"}, "fusion_lon": 0.0}, {"lat": 38.930495, "is_disabled": 0, "type": "electric_scooter", "lon": -77.041208, "bike_id": "ea6d644c198eab60983177ddb187ed52", "fusion_lat": 0.0, "name": "ea6d644c198eab60983177ddb187ed52", "is_reserved": 0, "rental_uris": {"android": "https://dc.lft.to/lastmile_qr_scan", "ios": "https://dc.lft.to/lastmile_qr_scan"}, "fusion_lon": 0.0}, {"lat": 38.96279333333333, "is_disabled": 0, "type": "electric_bike", "lon": -76.9829915, "bike_id": "a44727c62d86c3c8fc3b10549a3c22a6", "fusion_lat": 0.0, "name": "a44727c62d86c3c8fc3b10549a3c22a6", "is_reserved": 0, "rental_uris": {"android": "https://dc.lft.to/lastmile_qr_scan", "ios": "https://dc.lft.to/lastmile_qr_scan"}, "fusion_lon": 0.0}, {"lat": 38.94168116666667, "is_disabled": 0, "type": "electric_scooter", "lon": -77.04139883333333, "bike_id": "d36803ce406638d9731b5f0d8f9cb8a9", "fusion_lat": 0.0, "name": "d36803ce406638d9731b5f0d8f9cb8a9", "is_reserved": 0, "rental_uris": {"android": "https://dc.lft.to/lastmile_qr_scan", "ios": "https://dc.lft.to/lastmile_qr_scan"}, "fusion_lon": 0.0}, {"lat": 38.94421466666667, "is_disabled": 0, "type": "electric_scooter", "lon": -77.06285883333334, "bike_id": "b20f5060706ba45bcc0beb77592b158d", "fusion_lat": 0.0, "name": "b20f5060706ba45bcc0beb77592b158d", "is_reserved": 0, "rental_uris": {"android": "https://dc.lft.to/lastmile_qr_scan", "ios": "https://dc.lft.to/lastmile_qr_scan"}, "fusion_lon": 0.0}, {"lat": 38.894917666666665, "is_disabled": 0, "type": "electric_scooter", "lon": -77.00206183333333, "bike_id": "14ec9697176631b6be682f7e997e65ec", "fusion_lat": 0.0, "name": "14ec9697176631b6be682f7e997e65ec", "is_reserved": 0, "rental_uris": {"android": "https://dc.lft.to/lastmile_qr_scan", "ios": "https://dc.lft.to/lastmile_qr_scan"}, "fusion_lon": 0.0}, {"lat": 38.912540666666665, "is_disabled": 0, "type": "electric_scooter", "lon": -77.03870116666667, "bike_id": "868a026d6e221405adc38a4caee2893b", "fusion_lat": 0.0, "name": "868a026d6e221405adc38a4caee2893b", "is_reserved": 0, "rental_uris": {"android": "https://dc.lft.to/lastmile_qr_scan", "ios": "https://dc.lft.to/lastmile_qr_scan"}, "fusion_lon": 0.0}, {"lat": 38.91293666666667, "is_disabled": 0, "type": "electric_scooter", "lon": -77.0066215, "bike_id": "2cec1b336303c36c7b8c34ca847d8e23", "fusion_lat": 0.0, "name": "2cec1b336303c36c7b8c34ca847d8e23", "is_reserved": 0, "rental_uris": {"android": "https://dc.lft.to/lastmile_qr_scan", "ios": "https://dc.lft.to/lastmile_qr_scan"}, "fusion_lon": 0.0}, {"lat": 38.90677566666667, "is_disabled": 0, "type": "electric_scooter", "lon": -77.026956, "bike_id": "9878fb23bde8b449372121400da5ec1c", "fusion_lat": 0.0, "name": "9878fb23bde8b449372121400da5ec1c", "is_reserved": 0, "rental_uris": {"android": "https://dc.lft.to/lastmile_qr_scan", "ios": "https://dc.lft.to/lastmile_qr_scan"}, "fusion_lon": 0.0}, {"lat": 38.905766666666665, "is_disabled": 0, "type": "electric_scooter", "lon": -77.02706116666667, "bike_id": "b292c9aeed2e590a88f265c0432eef07", "fusion_lat": 0.0, "name": "b292c9aeed2e590a88f265c0432eef07", "is_reserved": 0, "rental_uris": {"android": "https://dc.lft.to/lastmile_qr_scan", "ios": "https://dc.lft.to/lastmile_qr_scan"}, "fusion_lon": 0.0}, {"lat": 38.926252833333336, "is_disabled": 0, "type": "electric_scooter", "lon": -77.04194816666667, "bike_id": "759d77e6de70dae2bb368ee40e772620", "fusion_lat": 0.0, "name": "759d77e6de70dae2bb368ee40e772620", "is_reserved": 0, "rental_uris": {"android": "https://dc.lft.to/lastmile_qr_scan", "ios": "https://dc.lft.to/lastmile_qr_scan"}, "fusion_lon": 0.0}, {"lat": 38.92872466666667, "is_disabled": 0, "type": "electric_bike", "lon": -77.01243383333333, "bike_id": "79270f9028bc180cc352c3b47a5559e2", "fusion_lat": 0.0, "name": "79270f9028bc180cc352c3b47a5559e2", "is_reserved": 0, "rental_uris": {"android": "https://dc.lft.to/lastmile_qr_scan", "ios": "https://dc.lft.to/lastmile_qr_scan"}, "fusion_lon": 0.0}, {"lat": 38.937453833333336, "is_disabled": 0, "type": "electric_scooter", "lon": -77.03459066666667, "bike_id": "fa7b30b742257fc76707774ecfaa68e7", "fusion_lat": 0.0, "name": "fa7b30b742257fc76707774ecfaa68e7", "is_reserved": 0, "rental_uris": {"android": "https://dc.lft.to/lastmile_qr_scan", "ios": "https://dc.lft.to/lastmile_qr_scan"}, "fusion_lon": 0.0}, {"lat": 38.907484, "is_disabled": 0, "type": "electric_scooter", "lon": -76.999085, "bike_id": "41247f5de0d4a5562b107df92ff37736", "fusion_lat": 0.0, "name": "41247f5de0d4a5562b107df92ff37736", "is_reserved": 0, "rental_uris": {"android": "https://dc.lft.to/lastmile_qr_scan", "ios": "https://dc.lft.to/lastmile_qr_scan"}, "fusion_lon": 0.0}, {"lat": 38.896224, "is_disabled": 0, "type": "electric_scooter", "lon": -77.04485116666666, "bike_id": "1415026febd3e7b1d28706150ae8474d", "fusion_lat": 0.0, "name": "1415026febd3e7b1d28706150ae8474d", "is_reserved": 0, "rental_uris": {"android": "https://dc.lft.to/lastmile_qr_scan", "ios": "https://dc.lft.to/lastmile_qr_scan"}, "fusion_lon": 0.0}, {"lat": 38.89743583333333, "is_disabled": 0, "type": "electric_scooter", "lon": -77.02405483333334, "bike_id": "051524d3b56b7f9ef624cf522e40e81d", "fusion_lat": 0.0, "name": "051524d3b56b7f9ef624cf522e40e81d", "is_reserved": 0, "rental_uris": {"android": "https://dc.lft.to/lastmile_qr_scan", "ios": "https://dc.lft.to/lastmile_qr_scan"}, "fusion_lon": 0.0}, {"lat": 38.89545566666666, "is_disabled": 0, "type": "electric_scooter", "lon": -77.00916883333333, "bike_id": "53e853de9ee9b6cb0f26c5de492f30ea", "fusion_lat": 0.0, "name": "53e853de9ee9b6cb0f26c5de492f30ea", "is_reserved": 0, "rental_uris": {"android": "https://dc.lft.to/lastmile_qr_scan", "ios": "https://dc.lft.to/lastmile_qr_scan"}, "fusion_lon": 0.0}, {"lat": 38.93540433333333, "is_disabled": 0, "type": "electric_scooter", "lon": -77.032666, "bike_id": "ab457f33f95df7798a4b4c2194c21a64", "fusion_lat": 0.0, "name": "ab457f33f95df7798a4b4c2194c21a64", "is_reserved": 0, "rental_uris": {"android": "https://dc.lft.to/lastmile_qr_scan", "ios": "https://dc.lft.to/lastmile_qr_scan"}, "fusion_lon": 0.0}, {"lat": 38.91336533333333, "is_disabled": 0, "type": "electric_scooter", "lon": -77.0317615, "bike_id": "29903fafc99afc11cef967d29723efb1", "fusion_lat": 0.0, "name": "29903fafc99afc11cef967d29723efb1", "is_reserved": 0, "rental_uris": {"android": "https://dc.lft.to/lastmile_qr_scan", "ios": "https://dc.lft.to/lastmile_qr_scan"}, "fusion_lon": 0.0}, {"lat": 38.90371233333333, "is_disabled": 0, "type": "electric_scooter", "lon": -76.99225633333333, "bike_id": "a99dea5f3ef6f26724b997e327220bb6", "fusion_lat": 0.0, "name": "a99dea5f3ef6f26724b997e327220bb6", "is_reserved": 0, "rental_uris": {"android": "https://dc.lft.to/lastmile_qr_scan", "ios": "https://dc.lft.to/lastmile_qr_scan"}, "fusion_lon": 0.0}, {"lat": 38.93528366666666, "is_disabled": 0, "type": "electric_scooter", "lon": -77.0729505, "bike_id": "83027df863ce159c22909d6e2a0245a6", "fusion_lat": 0.0, "name": "83027df863ce159c22909d6e2a0245a6", "is_reserved": 0, "rental_uris": {"android": "https://dc.lft.to/lastmile_qr_scan", "ios": "https://dc.lft.to/lastmile_qr_scan"}, "fusion_lon": 0.0}, {"lat": 38.92410483333333, "is_disabled": 0, "type": "electric_scooter", "lon": -77.04441316666667, "bike_id": "eb925568071f4dbd358d9e7f09eb756f", "fusion_lat": 0.0, "name": "eb925568071f4dbd358d9e7f09eb756f", "is_reserved": 0, "rental_uris": {"android": "https://dc.lft.to/lastmile_qr_scan", "ios": "https://dc.lft.to/lastmile_qr_scan"}, "fusion_lon": 0.0}, {"lat": 38.9030515, "is_disabled": 0, "type": "electric_scooter", "lon": -77.04181983333334, "bike_id": "9f1e1256b0f4c3a755d870e2b38005c4", "fusion_lat": 0.0, "name": "9f1e1256b0f4c3a755d870e2b38005c4", "is_reserved": 0, "rental_uris": {"android": "https://dc.lft.to/lastmile_qr_scan", "ios": "https://dc.lft.to/lastmile_qr_scan"}, "fusion_lon": 0.0}, {"lat": 38.93511216666667, "is_disabled": 0, "type": "electric_scooter", "lon": -77.03357733333333, "bike_id": "37b262844c6120d418c57c2761940e66", "fusion_lat": 0.0, "name": "37b262844c6120d418c57c2761940e66", "is_reserved": 0, "rental_uris": {"android": "https://dc.lft.to/lastmile_qr_scan", "ios": "https://dc.lft.to/lastmile_qr_scan"}, "fusion_lon": 0.0}, {"lat": 38.91708583333333, "is_disabled": 0, "type": "electric_scooter", "lon": -77.02877266666667, "bike_id": "0ddbd7b2c431d918883ab80b39356ff5", "fusion_lat": 0.0, "name": "0ddbd7b2c431d918883ab80b39356ff5", "is_reserved": 0, "rental_uris": {"android": "https://dc.lft.to/lastmile_qr_scan", "ios": "https://dc.lft.to/lastmile_qr_scan"}, "fusion_lon": 0.0}, {"lat": 38.922469, "is_disabled": 0, "type": "electric_scooter", "lon": -77.03471433333333, "bike_id": "459069ae09bf0308bde35918d9eaf3cc", "fusion_lat": 0.0, "name": "459069ae09bf0308bde35918d9eaf3cc", "is_reserved": 0, "rental_uris": {"android": "https://dc.lft.to/lastmile_qr_scan", "ios": "https://dc.lft.to/lastmile_qr_scan"}, "fusion_lon": 0.0}, {"lat": 38.904482333333334, "is_disabled": 0, "type": "electric_scooter", "lon": -77.06279433333333, "bike_id": "e66d29226cc707f4bc76af44960c9a8a", "fusion_lat": 0.0, "name": "e66d29226cc707f4bc76af44960c9a8a", "is_reserved": 0, "rental_uris": {"android": "https://dc.lft.to/lastmile_qr_scan", "ios": "https://dc.lft.to/lastmile_qr_scan"}, "fusion_lon": 0.0}, {"lat": 38.92286566666667, "is_disabled": 0, "type": "electric_scooter", "lon": -77.0319745, "bike_id": "f48476bb1d8fcea810aa89de3c75b7ae", "fusion_lat": 0.0, "name": "f48476bb1d8fcea810aa89de3c75b7ae", "is_reserved": 0, "rental_uris": {"android": "https://dc.lft.to/lastmile_qr_scan", "ios": "https://dc.lft.to/lastmile_qr_scan"}, "fusion_lon": 0.0}, {"lat": 38.9276425, "is_disabled": 0, "type": "electric_scooter", "lon": -77.026254, "bike_id": "dfe1861a4560f5232708eda4629147dd", "fusion_lat": 0.0, "name": "dfe1861a4560f5232708eda4629147dd", "is_reserved": 0, "rental_uris": {"android": "https://dc.lft.to/lastmile_qr_scan", "ios": "https://dc.lft.to/lastmile_qr_scan"}, "fusion_lon": 0.0}, {"lat": 38.959549833333334, "is_disabled": 0, "type": "electric_bike", "lon": -77.10089783333333, "bike_id": "a808eecad5feb58c3cf2c716db6f04e4", "fusion_lat": 0.0, "name": "a808eecad5feb58c3cf2c716db6f04e4", "is_reserved": 0, "rental_uris": {"android": "https://dc.lft.to/lastmile_qr_scan", "ios": "https://dc.lft.to/lastmile_qr_scan"}, "fusion_lon": 0.0}, {"lat": 38.9233485, "is_disabled": 0, "type": "electric_scooter", "lon": -77.03511916666666, "bike_id": "23b9c43da38392469fc95124ed7255b5", "fusion_lat": 0.0, "name": "23b9c43da38392469fc95124ed7255b5", "is_reserved": 0, "rental_uris": {"android": "https://dc.lft.to/lastmile_qr_scan", "ios": "https://dc.lft.to/lastmile_qr_scan"}, "fusion_lon": 0.0}, {"lat": 38.959573166666665, "is_disabled": 0, "type": "electric_scooter", "lon": -77.03313266666666, "bike_id": "bab1232eb2eac3d3c714fd0fcee065d3", "fusion_lat": 0.0, "name": "bab1232eb2eac3d3c714fd0fcee065d3", "is_reserved": 0, "rental_uris": {"android": "https://dc.lft.to/lastmile_qr_scan", "ios": "https://dc.lft.to/lastmile_qr_scan"}, "fusion_lon": 0.0}, {"lat": 38.92495566666667, "is_disabled": 0, "type": "electric_scooter", "lon": -77.02162416666667, "bike_id": "c46872cb4e7a8b0924ecd01cfffcbe29", "fusion_lat": 0.0, "name": "c46872cb4e7a8b0924ecd01cfffcbe29", "is_reserved": 0, "rental_uris": {"android": "https://dc.lft.to/lastmile_qr_scan", "ios": "https://dc.lft.to/lastmile_qr_scan"}, "fusion_lon": 0.0}, {"lat": 38.937398, "is_disabled": 0, "type": "electric_scooter", "lon": -77.03629633333334, "bike_id": "b42f4547b787f6ca25022da72fdb4d16", "fusion_lat": 0.0, "name": "b42f4547b787f6ca25022da72fdb4d16", "is_reserved": 0, "rental_uris": {"android": "https://dc.lft.to/lastmile_qr_scan", "ios": "https://dc.lft.to/lastmile_qr_scan"}, "fusion_lon": 0.0}, {"lat": 38.913294666666665, "is_disabled": 0, "type": "electric_scooter", "lon": -77.0326785, "bike_id": "bc09cfdca3f91f83f521e22357057010", "fusion_lat": 0.0, "name": "bc09cfdca3f91f83f521e22357057010", "is_reserved": 0, "rental_uris": {"android": "https://dc.lft.to/lastmile_qr_scan", "ios": "https://dc.lft.to/lastmile_qr_scan"}, "fusion_lon": 0.0}, {"lat": 38.919076833333335, "is_disabled": 0, "type": "electric_scooter", "lon": -77.0480265, "bike_id": "7296aa890b43a85ac4010e052c12f62e", "fusion_lat": 0.0, "name": "7296aa890b43a85ac4010e052c12f62e", "is_reserved": 0, "rental_uris": {"android": "https://dc.lft.to/lastmile_qr_scan", "ios": "https://dc.lft.to/lastmile_qr_scan"}, "fusion_lon": 0.0}, {"lat": 38.9054765, "is_disabled": 0, "type": "electric_scooter", "lon": -77.05711733333334, "bike_id": "361d030d6d188ad6d8382a6c76ebadea", "fusion_lat": 0.0, "name": "361d030d6d188ad6d8382a6c76ebadea", "is_reserved": 0, "rental_uris": {"android": "https://dc.lft.to/lastmile_qr_scan", "ios": "https://dc.lft.to/lastmile_qr_scan"}, "fusion_lon": 0.0}, {"lat": 38.905918, "is_disabled": 0, "type": "electric_scooter", "lon": -77.07010733333334, "bike_id": "19d9089db62d6ed0983da4138ef8f62e", "fusion_lat": 0.0, "name": "19d9089db62d6ed0983da4138ef8f62e", "is_reserved": 0, "rental_uris": {"android": "https://dc.lft.to/lastmile_qr_scan", "ios": "https://dc.lft.to/lastmile_qr_scan"}, "fusion_lon": 0.0}, {"lat": 38.89219083333333, "is_disabled": 0, "type": "electric_scooter", "lon": -77.046916, "bike_id": "fd1bace36976b3feddf291ddb3af2fb4", "fusion_lat": 0.0, "name": "fd1bace36976b3feddf291ddb3af2fb4", "is_reserved": 0, "rental_uris": {"android": "https://dc.lft.to/lastmile_qr_scan", "ios": "https://dc.lft.to/lastmile_qr_scan"}, "fusion_lon": 0.0}, {"lat": 38.922585166666664, "is_disabled": 0, "type": "electric_scooter", "lon": -77.0469065, "bike_id": "833e829928ed052e60b610bff7be6d9a", "fusion_lat": 0.0, "name": "833e829928ed052e60b610bff7be6d9a", "is_reserved": 0, "rental_uris": {"android": "https://dc.lft.to/lastmile_qr_scan", "ios": "https://dc.lft.to/lastmile_qr_scan"}, "fusion_lon": 0.0}, {"lat": 38.933666, "is_disabled": 0, "type": "electric_scooter", "lon": -77.05751016666666, "bike_id": "dd692770989530c235e9317d83de4950", "fusion_lat": 0.0, "name": "dd692770989530c235e9317d83de4950", "is_reserved": 0, "rental_uris": {"android": "https://dc.lft.to/lastmile_qr_scan", "ios": "https://dc.lft.to/lastmile_qr_scan"}, "fusion_lon": 0.0}, {"lat": 38.89564333333333, "is_disabled": 0, "type": "electric_scooter", "lon": -76.93038483333333, "bike_id": "531e2fbdb88901f1e1988dcc5c9b61e0", "fusion_lat": 0.0, "name": "531e2fbdb88901f1e1988dcc5c9b61e0", "is_reserved": 0, "rental_uris": {"android": "https://dc.lft.to/lastmile_qr_scan", "ios": "https://dc.lft.to/lastmile_qr_scan"}, "fusion_lon": 0.0}, {"lat": 38.903551, "is_disabled": 0, "type": "electric_scooter", "lon": -77.04486183333333, "bike_id": "c65e6137da09281a3d7489519b56136c", "fusion_lat": 0.0, "name": "c65e6137da09281a3d7489519b56136c", "is_reserved": 0, "rental_uris": {"android": "https://dc.lft.to/lastmile_qr_scan", "ios": "https://dc.lft.to/lastmile_qr_scan"}, "fusion_lon": 0.0}, {"lat": 38.902941166666665, "is_disabled": 0, "type": "electric_scooter", "lon": -77.038692, "bike_id": "7a412dbfa487fbf736d1f55ef82c7097", "fusion_lat": 0.0, "name": "7a412dbfa487fbf736d1f55ef82c7097", "is_reserved": 0, "rental_uris": {"android": "https://dc.lft.to/lastmile_qr_scan", "ios": "https://dc.lft.to/lastmile_qr_scan"}, "fusion_lon": 0.0}, {"lat": 38.8989995, "is_disabled": 0, "type": "electric_scooter", "lon": -76.9334795, "bike_id": "2d320ab16248951877822c99fcc09890", "fusion_lat": 0.0, "name": "2d320ab16248951877822c99fcc09890", "is_reserved": 0, "rental_uris": {"android": "https://dc.lft.to/lastmile_qr_scan", "ios": "https://dc.lft.to/lastmile_qr_scan"}, "fusion_lon": 0.0}, {"lat": 38.912815, "is_disabled": 0, "type": "electric_scooter", "lon": -77.04509516666667, "bike_id": "3492686defbb47f25cb8257dfc738b40", "fusion_lat": 0.0, "name": "3492686defbb47f25cb8257dfc738b40", "is_reserved": 0, "rental_uris": {"android": "https://dc.lft.to/lastmile_qr_scan", "ios": "https://dc.lft.to/lastmile_qr_scan"}, "fusion_lon": 0.0}, {"lat": 38.95288716666666, "is_disabled": 0, "type": "electric_bike", "lon": -76.946025, "bike_id": "395dad63feda97492163b03114a2907f", "fusion_lat": 0.0, "name": "395dad63feda97492163b03114a2907f", "is_reserved": 0, "rental_uris": {"android": "https://dc.lft.to/lastmile_qr_scan", "ios": "https://dc.lft.to/lastmile_qr_scan"}, "fusion_lon": 0.0}, {"lat": 38.935913666666664, "is_disabled": 0, "type": "electric_scooter", "lon": -77.0374, "bike_id": "93f57fb75c0b5f3b9fa84091cb556035", "fusion_lat": 0.0, "name": "93f57fb75c0b5f3b9fa84091cb556035", "is_reserved": 0, "rental_uris": {"android": "https://dc.lft.to/lastmile_qr_scan", "ios": "https://dc.lft.to/lastmile_qr_scan"}, "fusion_lon": 0.0}, {"lat": 38.914144, "is_disabled": 0, "type": "electric_scooter", "lon": -77.02956666666667, "bike_id": "9086b9961ef7d46557ea0ceebdc97594", "fusion_lat": 0.0, "name": "9086b9961ef7d46557ea0ceebdc97594", "is_reserved": 0, "rental_uris": {"android": "https://dc.lft.to/lastmile_qr_scan", "ios": "https://dc.lft.to/lastmile_qr_scan"}, "fusion_lon": 0.0}, {"lat": 38.98385366666667, "is_disabled": 0, "type": "electric_bike", "lon": -77.0053525, "bike_id": "312ef9d4fee73f7a36db68be42e251dc", "fusion_lat": 0.0, "name": "312ef9d4fee73f7a36db68be42e251dc", "is_reserved": 0, "rental_uris": {"android": "https://dc.lft.to/lastmile_qr_scan", "ios": "https://dc.lft.to/lastmile_qr_scan"}, "fusion_lon": 0.0}, {"lat": 38.939532166666666, "is_disabled": 0, "type": "electric_bike", "lon": -77.36102966666667, "bike_id": "f8527316602e69ff3901c6f824887f07", "fusion_lat": 0.0, "name": "f8527316602e69ff3901c6f824887f07", "is_reserved": 0, "rental_uris": {"android": "https://dc.lft.to/lastmile_qr_scan", "ios": "https://dc.lft.to/lastmile_qr_scan"}, "fusion_lon": 0.0}, {"lat": 38.893908, "is_disabled": 0, "type": "electric_scooter", "lon": -76.9499965, "bike_id": "fa0584fed7bf8c1cb1b73d093d731d5f", "fusion_lat": 0.0, "name": "fa0584fed7bf8c1cb1b73d093d731d5f", "is_reserved": 0, "rental_uris": {"android": "https://dc.lft.to/lastmile_qr_scan", "ios": "https://dc.lft.to/lastmile_qr_scan"}, "fusion_lon": 0.0}, {"lat": 38.91768733333333, "is_disabled": 0, "type": "electric_scooter", "lon": -77.03194816666667, "bike_id": "b0c9fb3124be4b7ebfde0690da06ad7f", "fusion_lat": 0.0, "name": "b0c9fb3124be4b7ebfde0690da06ad7f", "is_reserved": 0, "rental_uris": {"android": "https://dc.lft.to/lastmile_qr_scan", "ios": "https://dc.lft.to/lastmile_qr_scan"}, "fusion_lon": 0.0}, {"lat": 38.90259116666667, "is_disabled": 0, "type": "electric_scooter", "lon": -77.04617833333333, "bike_id": "6ca3e3be0506e1aa93af9d076cb801dd", "fusion_lat": 0.0, "name": "6ca3e3be0506e1aa93af9d076cb801dd", "is_reserved": 0, "rental_uris": {"android": "https://dc.lft.to/lastmile_qr_scan", "ios": "https://dc.lft.to/lastmile_qr_scan"}, "fusion_lon": 0.0}, {"lat": 38.93111733333333, "is_disabled": 0, "type": "electric_scooter", "lon": -77.03840516666666, "bike_id": "64cca801fef246a0cadd3ad9543c699d", "fusion_lat": 0.0, "name": "64cca801fef246a0cadd3ad9543c699d", "is_reserved": 0, "rental_uris": {"android": "https://dc.lft.to/lastmile_qr_scan", "ios": "https://dc.lft.to/lastmile_qr_scan"}, "fusion_lon": 0.0}, {"lat": 39.02931933333333, "is_disabled": 0, "type": "electric_bike", "lon": -77.04927033333334, "bike_id": "0c8fdb891ad0334dd857c3a3c1b58a16", "fusion_lat": 0.0, "name": "0c8fdb891ad0334dd857c3a3c1b58a16", "is_reserved": 0, "rental_uris": {"android": "https://dc.lft.to/lastmile_qr_scan", "ios": "https://dc.lft.to/lastmile_qr_scan"}, "fusion_lon": 0.0}, {"lat": 38.91552983333333, "is_disabled": 0, "type": "electric_scooter", "lon": -77.04189633333333, "bike_id": "f6f7e1bfa7f416a2da16ad36fe617733", "fusion_lat": 0.0, "name": "f6f7e1bfa7f416a2da16ad36fe617733", "is_reserved": 0, "rental_uris": {"android": "https://dc.lft.to/lastmile_qr_scan", "ios": "https://dc.lft.to/lastmile_qr_scan"}, "fusion_lon": 0.0}, {"lat": 38.884897, "is_disabled": 0, "type": "electric_scooter", "lon": -77.00713116666667, "bike_id": "8a57647481910fec5fd46cc7c1010b0e", "fusion_lat": 0.0, "name": "8a57647481910fec5fd46cc7c1010b0e", "is_reserved": 0, "rental_uris": {"android": "https://dc.lft.to/lastmile_qr_scan", "ios": "https://dc.lft.to/lastmile_qr_scan"}, "fusion_lon": 0.0}, {"lat": 38.911774, "is_disabled": 0, "type": "electric_scooter", "lon": -77.04846866666666, "bike_id": "57b199ec18dbad1fc40b2525ee425470", "fusion_lat": 0.0, "name": "57b199ec18dbad1fc40b2525ee425470", "is_reserved": 0, "rental_uris": {"android": "https://dc.lft.to/lastmile_qr_scan", "ios": "https://dc.lft.to/lastmile_qr_scan"}, "fusion_lon": 0.0}, {"lat": 38.89213183333333, "is_disabled": 0, "type": "electric_scooter", "lon": -76.99585633333334, "bike_id": "b37d29960d88b191bc88d05c8a2c2acd", "fusion_lat": 0.0, "name": "b37d29960d88b191bc88d05c8a2c2acd", "is_reserved": 0, "rental_uris": {"android": "https://dc.lft.to/lastmile_qr_scan", "ios": "https://dc.lft.to/lastmile_qr_scan"}, "fusion_lon": 0.0}, {"lat": 38.913451, "is_disabled": 0, "type": "electric_scooter", "lon": -77.04356216666666, "bike_id": "a119b79a921787e60f3998dc87133538", "fusion_lat": 0.0, "name": "a119b79a921787e60f3998dc87133538", "is_reserved": 0, "rental_uris": {"android": "https://dc.lft.to/lastmile_qr_scan", "ios": "https://dc.lft.to/lastmile_qr_scan"}, "fusion_lon": 0.0}, {"lat": 38.912643833333334, "is_disabled": 0, "type": "electric_scooter", "lon": -77.02247833333334, "bike_id": "4a3dd9ae3d2226fe854af356d12e645a", "fusion_lat": 0.0, "name": "4a3dd9ae3d2226fe854af356d12e645a", "is_reserved": 0, "rental_uris": {"android": "https://dc.lft.to/lastmile_qr_scan", "ios": "https://dc.lft.to/lastmile_qr_scan"}, "fusion_lon": 0.0}, {"lat": 38.88995966666667, "is_disabled": 0, "type": "electric_scooter", "lon": -76.9541735, "bike_id": "86d4f0dc5bcdaea05c1d945009a731ba", "fusion_lat": 0.0, "name": "86d4f0dc5bcdaea05c1d945009a731ba", "is_reserved": 0, "rental_uris": {"android": "https://dc.lft.to/lastmile_qr_scan", "ios": "https://dc.lft.to/lastmile_qr_scan"}, "fusion_lon": 0.0}, {"lat": 38.919906, "is_disabled": 0, "type": "electric_scooter", "lon": -77.032184, "bike_id": "a6f4bb20854b0c49bc2a0c40c4dc2c75", "fusion_lat": 0.0, "name": "a6f4bb20854b0c49bc2a0c40c4dc2c75", "is_reserved": 0, "rental_uris": {"android": "https://dc.lft.to/lastmile_qr_scan", "ios": "https://dc.lft.to/lastmile_qr_scan"}, "fusion_lon": 0.0}, {"lat": 38.882588166666665, "is_disabled": 0, "type": "electric_scooter", "lon": -77.00373933333333, "bike_id": "665558b0889be3913e447f3a852c14e4", "fusion_lat": 0.0, "name": "665558b0889be3913e447f3a852c14e4", "is_reserved": 0, "rental_uris": {"android": "https://dc.lft.to/lastmile_qr_scan", "ios": "https://dc.lft.to/lastmile_qr_scan"}, "fusion_lon": 0.0}, {"lat": 38.899347, "is_disabled": 0, "type": "electric_scooter", "lon": -77.02798516666667, "bike_id": "4ae6b28f874b0b2a3e236896f4720922", "fusion_lat": 0.0, "name": "4ae6b28f874b0b2a3e236896f4720922", "is_reserved": 0, "rental_uris": {"android": "https://dc.lft.to/lastmile_qr_scan", "ios": "https://dc.lft.to/lastmile_qr_scan"}, "fusion_lon": 0.0}, {"lat": 38.842733833333334, "is_disabled": 0, "type": "electric_bike", "lon": -76.9884285, "bike_id": "3addd76eed615b1c648d0e0d43aa23a3", "fusion_lat": 0.0, "name": "3addd76eed615b1c648d0e0d43aa23a3", "is_reserved": 0, "rental_uris": {"android": "https://dc.lft.to/lastmile_qr_scan", "ios": "https://dc.lft.to/lastmile_qr_scan"}, "fusion_lon": 0.0}, {"lat": 38.86619266666666, "is_disabled": 0, "type": "electric_scooter", "lon": -76.98703383333333, "bike_id": "d05f7eeb8281cb5c5771dc7bec991dd9", "fusion_lat": 0.0, "name": "d05f7eeb8281cb5c5771dc7bec991dd9", "is_reserved": 0, "rental_uris": {"android": "https://dc.lft.to/lastmile_qr_scan", "ios": "https://dc.lft.to/lastmile_qr_scan"}, "fusion_lon": 0.0}, {"lat": 38.8921725, "is_disabled": 0, "type": "electric_scooter", "lon": -77.02786666666667, "bike_id": "c86224f0b719d2409ee3748eb35b7301", "fusion_lat": 0.0, "name": "c86224f0b719d2409ee3748eb35b7301", "is_reserved": 0, "rental_uris": {"android": "https://dc.lft.to/lastmile_qr_scan", "ios": "https://dc.lft.to/lastmile_qr_scan"}, "fusion_lon": 0.0}, {"lat": 38.905387833333336, "is_disabled": 0, "type": "electric_scooter", "lon": -77.0436405, "bike_id": "49fd5a7154cb1209dad6eb046b3f5b9d", "fusion_lat": 0.0, "name": "49fd5a7154cb1209dad6eb046b3f5b9d", "is_reserved": 0, "rental_uris": {"android": "https://dc.lft.to/lastmile_qr_scan", "ios": "https://dc.lft.to/lastmile_qr_scan"}, "fusion_lon": 0.0}, {"lat": 38.90014333333333, "is_disabled": 0, "type": "electric_scooter", "lon": -76.99757216666667, "bike_id": "2a0ee6c2dec05e85a68e483d26e5a338", "fusion_lat": 0.0, "name": "2a0ee6c2dec05e85a68e483d26e5a338", "is_reserved": 0, "rental_uris": {"android": "https://dc.lft.to/lastmile_qr_scan", "ios": "https://dc.lft.to/lastmile_qr_scan"}, "fusion_lon": 0.0}, {"lat": 38.91362433333333, "is_disabled": 0, "type": "electric_scooter", "lon": -77.03956533333333, "bike_id": "22ea38ecfa1b1c74b2fde0852430a555", "fusion_lat": 0.0, "name": "22ea38ecfa1b1c74b2fde0852430a555", "is_reserved": 0, "rental_uris": {"android": "https://dc.lft.to/lastmile_qr_scan", "ios": "https://dc.lft.to/lastmile_qr_scan"}, "fusion_lon": 0.0}, {"lat": 38.90539666666667, "is_disabled": 0, "type": "electric_scooter", "lon": -77.04170016666667, "bike_id": "df33914d639d161103da8d2ac5f523c1", "fusion_lat": 0.0, "name": "df33914d639d161103da8d2ac5f523c1", "is_reserved": 0, "rental_uris": {"android": "https://dc.lft.to/lastmile_qr_scan", "ios": "https://dc.lft.to/lastmile_qr_scan"}, "fusion_lon": 0.0}, {"lat": 38.905339833333336, "is_disabled": 0, "type": "electric_scooter", "lon": -77.0417065, "bike_id": "ba164f91049cc33d7e4e72937366a62f", "fusion_lat": 0.0, "name": "ba164f91049cc33d7e4e72937366a62f", "is_reserved": 0, "rental_uris": {"android": "https://dc.lft.to/lastmile_qr_scan", "ios": "https://dc.lft.to/lastmile_qr_scan"}, "fusion_lon": 0.0}, {"lat": 38.949276166666664, "is_disabled": 0, "type": "electric_scooter", "lon": -77.01944233333333, "bike_id": "2f27f325f61f9d9c1004f0dba2db40d5", "fusion_lat": 0.0, "name": "2f27f325f61f9d9c1004f0dba2db40d5", "is_reserved": 0, "rental_uris": {"android": "https://dc.lft.to/lastmile_qr_scan", "ios": "https://dc.lft.to/lastmile_qr_scan"}, "fusion_lon": 0.0}, {"lat": 38.926112333333336, "is_disabled": 0, "type": "electric_scooter", "lon": -76.9960205, "bike_id": "53c635383dfb665beffd0297ca680a1c", "fusion_lat": 0.0, "name": "53c635383dfb665beffd0297ca680a1c", "is_reserved": 0, "rental_uris": {"android": "https://dc.lft.to/lastmile_qr_scan", "ios": "https://dc.lft.to/lastmile_qr_scan"}, "fusion_lon": 0.0}, {"lat": 38.915571666666665, "is_disabled": 0, "type": "electric_scooter", "lon": -77.0399355, "bike_id": "d234e7ca544bf0e7c250e92968cf3888", "fusion_lat": 0.0, "name": "d234e7ca544bf0e7c250e92968cf3888", "is_reserved": 0, "rental_uris": {"android": "https://dc.lft.to/lastmile_qr_scan", "ios": "https://dc.lft.to/lastmile_qr_scan"}, "fusion_lon": 0.0}, {"lat": 38.923529, "is_disabled": 0, "type": "electric_scooter", "lon": -77.05018866666667, "bike_id": "245940f401ac857771b6c639d86939e4", "fusion_lat": 0.0, "name": "245940f401ac857771b6c639d86939e4", "is_reserved": 0, "rental_uris": {"android": "https://dc.lft.to/lastmile_qr_scan", "ios": "https://dc.lft.to/lastmile_qr_scan"}, "fusion_lon": 0.0}, {"lat": 38.91811716666667, "is_disabled": 0, "type": "electric_scooter", "lon": -77.0367335, "bike_id": "493472139ea7227fffee92dedd8265ac", "fusion_lat": 0.0, "name": "493472139ea7227fffee92dedd8265ac", "is_reserved": 0, "rental_uris": {"android": "https://dc.lft.to/lastmile_qr_scan", "ios": "https://dc.lft.to/lastmile_qr_scan"}, "fusion_lon": 0.0}, {"lat": 38.9023305, "is_disabled": 0, "type": "electric_scooter", "lon": -77.06269533333334, "bike_id": "1549dcac4e0eaaee302f7071dd478620", "fusion_lat": 0.0, "name": "1549dcac4e0eaaee302f7071dd478620", "is_reserved": 0, "rental_uris": {"android": "https://dc.lft.to/lastmile_qr_scan", "ios": "https://dc.lft.to/lastmile_qr_scan"}, "fusion_lon": 0.0}, {"lat": 38.936046833333336, "is_disabled": 0, "type": "electric_scooter", "lon": -77.058621, "bike_id": "0bf1c68771952b29038cfce790d1e6dd", "fusion_lat": 0.0, "name": "0bf1c68771952b29038cfce790d1e6dd", "is_reserved": 0, "rental_uris": {"android": "https://dc.lft.to/lastmile_qr_scan", "ios": "https://dc.lft.to/lastmile_qr_scan"}, "fusion_lon": 0.0}, {"lat": 38.9236535, "is_disabled": 0, "type": "electric_scooter", "lon": -77.0505185, "bike_id": "f90453d1f9c3c8d9af9c801499e0e225", "fusion_lat": 0.0, "name": "f90453d1f9c3c8d9af9c801499e0e225", "is_reserved": 0, "rental_uris": {"android": "https://dc.lft.to/lastmile_qr_scan", "ios": "https://dc.lft.to/lastmile_qr_scan"}, "fusion_lon": 0.0}, {"lat": 38.906268, "is_disabled": 0, "type": "electric_scooter", "lon": -77.02187, "bike_id": "dd1efbddf162b77c9a5d48d6f136f928", "fusion_lat": 0.0, "name": "dd1efbddf162b77c9a5d48d6f136f928", "is_reserved": 0, "rental_uris": {"android": "https://dc.lft.to/lastmile_qr_scan", "ios": "https://dc.lft.to/lastmile_qr_scan"}, "fusion_lon": 0.0}, {"lat": 38.916079, "is_disabled": 0, "type": "electric_scooter", "lon": -77.01730183333333, "bike_id": "563ded659d6669c0a7f16c6194905b99", "fusion_lat": 0.0, "name": "563ded659d6669c0a7f16c6194905b99", "is_reserved": 0, "rental_uris": {"android": "https://dc.lft.to/lastmile_qr_scan", "ios": "https://dc.lft.to/lastmile_qr_scan"}, "fusion_lon": 0.0}, {"lat": 38.928276333333336, "is_disabled": 0, "type": "electric_scooter", "lon": -77.05442683333334, "bike_id": "34c6b32960bf9b8247c043846cc30d92", "fusion_lat": 0.0, "name": "34c6b32960bf9b8247c043846cc30d92", "is_reserved": 0, "rental_uris": {"android": "https://dc.lft.to/lastmile_qr_scan", "ios": "https://dc.lft.to/lastmile_qr_scan"}, "fusion_lon": 0.0}, {"lat": 38.8827035, "is_disabled": 0, "type": "electric_bike", "lon": -76.932532, "bike_id": "5e8bb095ecb6ced310e99147c237ee16", "fusion_lat": 0.0, "name": "5e8bb095ecb6ced310e99147c237ee16", "is_reserved": 0, "rental_uris": {"android": "https://dc.lft.to/lastmile_qr_scan", "ios": "https://dc.lft.to/lastmile_qr_scan"}, "fusion_lon": 0.0}, {"lat": 38.93576633333333, "is_disabled": 0, "type": "electric_scooter", "lon": -77.03755633333333, "bike_id": "69357bea9bd851be8acdd29c083d2d1a", "fusion_lat": 0.0, "name": "69357bea9bd851be8acdd29c083d2d1a", "is_reserved": 0, "rental_uris": {"android": "https://dc.lft.to/lastmile_qr_scan", "ios": "https://dc.lft.to/lastmile_qr_scan"}, "fusion_lon": 0.0}, {"lat": 38.870841666666664, "is_disabled": 0, "type": "electric_bike", "lon": -77.01209416666667, "bike_id": "a12d4362882d192b177e857fbc7a9560", "fusion_lat": 0.0, "name": "a12d4362882d192b177e857fbc7a9560", "is_reserved": 0, "rental_uris": {"android": "https://dc.lft.to/lastmile_qr_scan", "ios": "https://dc.lft.to/lastmile_qr_scan"}, "fusion_lon": 0.0}, {"lat": 38.950761, "is_disabled": 0, "type": "electric_bike", "lon": -77.01196416666667, "bike_id": "e999db32f1a942ddc483726c21221733", "fusion_lat": 0.0, "name": "e999db32f1a942ddc483726c21221733", "is_reserved": 0, "rental_uris": {"android": "https://dc.lft.to/lastmile_qr_scan", "ios": "https://dc.lft.to/lastmile_qr_scan"}, "fusion_lon": 0.0}, {"lat": 38.901401666666665, "is_disabled": 0, "type": "electric_scooter", "lon": -77.00305133333333, "bike_id": "ebb0a54264d7fdf8b4f39713f83cc19d", "fusion_lat": 0.0, "name": "ebb0a54264d7fdf8b4f39713f83cc19d", "is_reserved": 0, "rental_uris": {"android": "https://dc.lft.to/lastmile_qr_scan", "ios": "https://dc.lft.to/lastmile_qr_scan"}, "fusion_lon": 0.0}, {"lat": 38.902728, "is_disabled": 0, "type": "electric_scooter", "lon": -77.0403705, "bike_id": "d44c06ef43acb75e75f58cb6968ccf4f", "fusion_lat": 0.0, "name": "d44c06ef43acb75e75f58cb6968ccf4f", "is_reserved": 0, "rental_uris": {"android": "https://dc.lft.to/lastmile_qr_scan", "ios": "https://dc.lft.to/lastmile_qr_scan"}, "fusion_lon": 0.0}, {"lat": 38.91549283333333, "is_disabled": 0, "type": "electric_scooter", "lon": -77.0418115, "bike_id": "819c14246a3e8f23d1f4926029cdff4a", "fusion_lat": 0.0, "name": "819c14246a3e8f23d1f4926029cdff4a", "is_reserved": 0, "rental_uris": {"android": "https://dc.lft.to/lastmile_qr_scan", "ios": "https://dc.lft.to/lastmile_qr_scan"}, "fusion_lon": 0.0}, {"lat": 38.9110605, "is_disabled": 0, "type": "electric_scooter", "lon": -77.03861283333333, "bike_id": "dbe77ee40a37223aee8619107cc0f294", "fusion_lat": 0.0, "name": "dbe77ee40a37223aee8619107cc0f294", "is_reserved": 0, "rental_uris": {"android": "https://dc.lft.to/lastmile_qr_scan", "ios": "https://dc.lft.to/lastmile_qr_scan"}, "fusion_lon": 0.0}, {"lat": 38.866128333333336, "is_disabled": 0, "type": "electric_scooter", "lon": -76.98663416666666, "bike_id": "4981cf9cf81ab1672892372401597a34", "fusion_lat": 0.0, "name": "4981cf9cf81ab1672892372401597a34", "is_reserved": 0, "rental_uris": {"android": "https://dc.lft.to/lastmile_qr_scan", "ios": "https://dc.lft.to/lastmile_qr_scan"}, "fusion_lon": 0.0}, {"lat": 38.89635633333333, "is_disabled": 0, "type": "electric_scooter", "lon": -77.02693983333333, "bike_id": "24cdd393c5339a2402956aae0b50b0fa", "fusion_lat": 0.0, "name": "24cdd393c5339a2402956aae0b50b0fa", "is_reserved": 0, "rental_uris": {"android": "https://dc.lft.to/lastmile_qr_scan", "ios": "https://dc.lft.to/lastmile_qr_scan"}, "fusion_lon": 0.0}, {"lat": 38.91699633333333, "is_disabled": 0, "type": "electric_scooter", "lon": -77.02857366666667, "bike_id": "d92b7711c9fae9f184b5de733e15d5b9", "fusion_lat": 0.0, "name": "d92b7711c9fae9f184b5de733e15d5b9", "is_reserved": 0, "rental_uris": {"android": "https://dc.lft.to/lastmile_qr_scan", "ios": "https://dc.lft.to/lastmile_qr_scan"}, "fusion_lon": 0.0}, {"lat": 38.899478333333334, "is_disabled": 0, "type": "electric_scooter", "lon": -77.003461, "bike_id": "1c3d094a5b5bc8ef0c3be53339259343", "fusion_lat": 0.0, "name": "1c3d094a5b5bc8ef0c3be53339259343", "is_reserved": 0, "rental_uris": {"android": "https://dc.lft.to/lastmile_qr_scan", "ios": "https://dc.lft.to/lastmile_qr_scan"}, "fusion_lon": 0.0}, {"lat": 38.900066333333335, "is_disabled": 0, "type": "electric_scooter", "lon": -76.9222835, "bike_id": "f343c70495a1fc5e428257483f3e0a52", "fusion_lat": 0.0, "name": "f343c70495a1fc5e428257483f3e0a52", "is_reserved": 0, "rental_uris": {"android": "https://dc.lft.to/lastmile_qr_scan", "ios": "https://dc.lft.to/lastmile_qr_scan"}, "fusion_lon": 0.0}, {"lat": 38.90533383333333, "is_disabled": 0, "type": "electric_scooter", "lon": -77.04180383333333, "bike_id": "bff7ca1974ade081cccbc5eb3aca4cbe", "fusion_lat": 0.0, "name": "bff7ca1974ade081cccbc5eb3aca4cbe", "is_reserved": 0, "rental_uris": {"android": "https://dc.lft.to/lastmile_qr_scan", "ios": "https://dc.lft.to/lastmile_qr_scan"}, "fusion_lon": 0.0}, {"lat": 38.91701033333333, "is_disabled": 0, "type": "electric_scooter", "lon": -77.03340916666667, "bike_id": "80451359e1dd60c2447bfd2803ff17cf", "fusion_lat": 0.0, "name": "80451359e1dd60c2447bfd2803ff17cf", "is_reserved": 0, "rental_uris": {"android": "https://dc.lft.to/lastmile_qr_scan", "ios": "https://dc.lft.to/lastmile_qr_scan"}, "fusion_lon": 0.0}, {"lat": 38.93342033333333, "is_disabled": 0, "type": "electric_scooter", "lon": -76.99316433333334, "bike_id": "22c502d780478bf56fa12d987a97f02a", "fusion_lat": 0.0, "name": "22c502d780478bf56fa12d987a97f02a", "is_reserved": 0, "rental_uris": {"android": "https://dc.lft.to/lastmile_qr_scan", "ios": "https://dc.lft.to/lastmile_qr_scan"}, "fusion_lon": 0.0}, {"lat": 38.92328533333333, "is_disabled": 0, "type": "electric_scooter", "lon": -77.0320755, "bike_id": "8fb1d0e9314870b4d758fe14cdcc4c84", "fusion_lat": 0.0, "name": "8fb1d0e9314870b4d758fe14cdcc4c84", "is_reserved": 0, "rental_uris": {"android": "https://dc.lft.to/lastmile_qr_scan", "ios": "https://dc.lft.to/lastmile_qr_scan"}, "fusion_lon": 0.0}, {"lat": 38.923615166666664, "is_disabled": 0, "type": "electric_scooter", "lon": -77.05129833333334, "bike_id": "99d4f58d938980e7cf988750afd9baca", "fusion_lat": 0.0, "name": "99d4f58d938980e7cf988750afd9baca", "is_reserved": 0, "rental_uris": {"android": "https://dc.lft.to/lastmile_qr_scan", "ios": "https://dc.lft.to/lastmile_qr_scan"}, "fusion_lon": 0.0}, {"lat": 38.909573333333334, "is_disabled": 0, "type": "electric_scooter", "lon": -77.02163216666666, "bike_id": "a2cca7eadac7699b3e39ce35e33143cd", "fusion_lat": 0.0, "name": "a2cca7eadac7699b3e39ce35e33143cd", "is_reserved": 0, "rental_uris": {"android": "https://dc.lft.to/lastmile_qr_scan", "ios": "https://dc.lft.to/lastmile_qr_scan"}, "fusion_lon": 0.0}, {"lat": 38.930314833333334, "is_disabled": 0, "type": "electric_scooter", "lon": -77.03302166666667, "bike_id": "f927fb8b44a7a5f45de50d171309ef45", "fusion_lat": 0.0, "name": "f927fb8b44a7a5f45de50d171309ef45", "is_reserved": 0, "rental_uris": {"android": "https://dc.lft.to/lastmile_qr_scan", "ios": "https://dc.lft.to/lastmile_qr_scan"}, "fusion_lon": 0.0}, {"lat": 38.91823766666667, "is_disabled": 0, "type": "electric_scooter", "lon": -77.02284666666667, "bike_id": "1277601794cf295477e9f518a7c517bf", "fusion_lat": 0.0, "name": "1277601794cf295477e9f518a7c517bf", "is_reserved": 0, "rental_uris": {"android": "https://dc.lft.to/lastmile_qr_scan", "ios": "https://dc.lft.to/lastmile_qr_scan"}, "fusion_lon": 0.0}, {"lat": 38.909436166666666, "is_disabled": 0, "type": "electric_scooter", "lon": -76.9896435, "bike_id": "aa9ebc8c240cf33a48a757835e4d43ad", "fusion_lat": 0.0, "name": "aa9ebc8c240cf33a48a757835e4d43ad", "is_reserved": 0, "rental_uris": {"android": "https://dc.lft.to/lastmile_qr_scan", "ios": "https://dc.lft.to/lastmile_qr_scan"}, "fusion_lon": 0.0}, {"lat": 38.903567833333334, "is_disabled": 0, "type": "electric_scooter", "lon": -77.01102116666667, "bike_id": "92ffe41b7bf7ce1e5d58a845ed8632a8", "fusion_lat": 0.0, "name": "92ffe41b7bf7ce1e5d58a845ed8632a8", "is_reserved": 0, "rental_uris": {"android": "https://dc.lft.to/lastmile_qr_scan", "ios": "https://dc.lft.to/lastmile_qr_scan"}, "fusion_lon": 0.0}, {"lat": 38.900815333333334, "is_disabled": 0, "type": "electric_scooter", "lon": -77.02724033333334, "bike_id": "ae53a16c3c940b19f0a7d5b451560438", "fusion_lat": 0.0, "name": "ae53a16c3c940b19f0a7d5b451560438", "is_reserved": 0, "rental_uris": {"android": "https://dc.lft.to/lastmile_qr_scan", "ios": "https://dc.lft.to/lastmile_qr_scan"}, "fusion_lon": 0.0}, {"lat": 38.887426833333336, "is_disabled": 0, "type": "electric_scooter", "lon": -76.9835965, "bike_id": "02b3ad3aeb866fd80240b51e6729acaf", "fusion_lat": 0.0, "name": "02b3ad3aeb866fd80240b51e6729acaf", "is_reserved": 0, "rental_uris": {"android": "https://dc.lft.to/lastmile_qr_scan", "ios": "https://dc.lft.to/lastmile_qr_scan"}, "fusion_lon": 0.0}, {"lat": 38.89530716666667, "is_disabled": 0, "type": "electric_scooter", "lon": -76.94891166666666, "bike_id": "593a211ba7cceabb8d61896c190a2c2d", "fusion_lat": 0.0, "name": "593a211ba7cceabb8d61896c190a2c2d", "is_reserved": 0, "rental_uris": {"android": "https://dc.lft.to/lastmile_qr_scan", "ios": "https://dc.lft.to/lastmile_qr_scan"}, "fusion_lon": 0.0}, {"lat": 38.935274666666665, "is_disabled": 0, "type": "electric_scooter", "lon": -77.07303816666666, "bike_id": "3c3c1dede59c1afe7052071ca0447154", "fusion_lat": 0.0, "name": "3c3c1dede59c1afe7052071ca0447154", "is_reserved": 0, "rental_uris": {"android": "https://dc.lft.to/lastmile_qr_scan", "ios": "https://dc.lft.to/lastmile_qr_scan"}, "fusion_lon": 0.0}, {"lat": 38.8669585, "is_disabled": 0, "type": "electric_scooter", "lon": -76.987139, "bike_id": "b5c0af03e4ee28fb5897fb51668efe98", "fusion_lat": 0.0, "name": "b5c0af03e4ee28fb5897fb51668efe98", "is_reserved": 0, "rental_uris": {"android": "https://dc.lft.to/lastmile_qr_scan", "ios": "https://dc.lft.to/lastmile_qr_scan"}, "fusion_lon": 0.0}, {"lat": 38.8740975, "is_disabled": 0, "type": "electric_bike", "lon": -76.96577016666667, "bike_id": "db14caef6a38b2c2ee82f2c18cd4ac2d", "fusion_lat": 0.0, "name": "db14caef6a38b2c2ee82f2c18cd4ac2d", "is_reserved": 0, "rental_uris": {"android": "https://dc.lft.to/lastmile_qr_scan", "ios": "https://dc.lft.to/lastmile_qr_scan"}, "fusion_lon": 0.0}, {"lat": 38.840285, "is_disabled": 0, "type": "electric_bike", "lon": -76.97592133333333, "bike_id": "ba56a1209fd79d26d6367b2366c36dee", "fusion_lat": 0.0, "name": "ba56a1209fd79d26d6367b2366c36dee", "is_reserved": 0, "rental_uris": {"android": "https://dc.lft.to/lastmile_qr_scan", "ios": "https://dc.lft.to/lastmile_qr_scan"}, "fusion_lon": 0.0}, {"lat": 38.890479166666665, "is_disabled": 0, "type": "electric_scooter", "lon": -76.93751566666667, "bike_id": "d83475d404edd1700bbfaa40a2a0e774", "fusion_lat": 0.0, "name": "d83475d404edd1700bbfaa40a2a0e774", "is_reserved": 0, "rental_uris": {"android": "https://dc.lft.to/lastmile_qr_scan", "ios": "https://dc.lft.to/lastmile_qr_scan"}, "fusion_lon": 0.0}, {"lat": 38.9056045, "is_disabled": 0, "type": "electric_scooter", "lon": -77.01680183333333, "bike_id": "849c44c483f0feb3c9c9fc5f685b4af2", "fusion_lat": 0.0, "name": "849c44c483f0feb3c9c9fc5f685b4af2", "is_reserved": 0, "rental_uris": {"android": "https://dc.lft.to/lastmile_qr_scan", "ios": "https://dc.lft.to/lastmile_qr_scan"}, "fusion_lon": 0.0}, {"lat": 38.902734833333334, "is_disabled": 0, "type": "electric_scooter", "lon": -77.058192, "bike_id": "c6464b4d9bb1da4641969d35cf07480e", "fusion_lat": 0.0, "name": "c6464b4d9bb1da4641969d35cf07480e", "is_reserved": 0, "rental_uris": {"android": "https://dc.lft.to/lastmile_qr_scan", "ios": "https://dc.lft.to/lastmile_qr_scan"}, "fusion_lon": 0.0}, {"lat": 38.836723666666664, "is_disabled": 0, "type": "electric_scooter", "lon": -77.00594733333334, "bike_id": "1fc7604572f40faea194491d80a456db", "fusion_lat": 0.0, "name": "1fc7604572f40faea194491d80a456db", "is_reserved": 0, "rental_uris": {"android": "https://dc.lft.to/lastmile_qr_scan", "ios": "https://dc.lft.to/lastmile_qr_scan"}, "fusion_lon": 0.0}, {"lat": 38.90095816666667, "is_disabled": 0, "type": "electric_scooter", "lon": -76.98479183333333, "bike_id": "b39aa87327eff9eba0a7c69a0fb3a4b0", "fusion_lat": 0.0, "name": "b39aa87327eff9eba0a7c69a0fb3a4b0", "is_reserved": 0, "rental_uris": {"android": "https://dc.lft.to/lastmile_qr_scan", "ios": "https://dc.lft.to/lastmile_qr_scan"}, "fusion_lon": 0.0}, {"lat": 38.90861133333333, "is_disabled": 0, "type": "electric_scooter", "lon": -77.04598033333333, "bike_id": "f7cdd83fa422b622c87694e4f9131e7c", "fusion_lat": 0.0, "name": "f7cdd83fa422b622c87694e4f9131e7c", "is_reserved": 0, "rental_uris": {"android": "https://dc.lft.to/lastmile_qr_scan", "ios": "https://dc.lft.to/lastmile_qr_scan"}, "fusion_lon": 0.0}, {"lat": 38.908204, "is_disabled": 0, "type": "electric_scooter", "lon": -77.0179205, "bike_id": "914f10bb28f546127f4f923888041568", "fusion_lat": 0.0, "name": "914f10bb28f546127f4f923888041568", "is_reserved": 0, "rental_uris": {"android": "https://dc.lft.to/lastmile_qr_scan", "ios": "https://dc.lft.to/lastmile_qr_scan"}, "fusion_lon": 0.0}, {"lat": 38.90067283333333, "is_disabled": 0, "type": "electric_scooter", "lon": -77.00218283333334, "bike_id": "536775de08411d628d3d7b65338b7582", "fusion_lat": 0.0, "name": "536775de08411d628d3d7b65338b7582", "is_reserved": 0, "rental_uris": {"android": "https://dc.lft.to/lastmile_qr_scan", "ios": "https://dc.lft.to/lastmile_qr_scan"}, "fusion_lon": 0.0}, {"lat": 38.91555133333333, "is_disabled": 0, "type": "electric_scooter", "lon": -77.02055933333334, "bike_id": "77e58a23e70438a24c1647ad1e5dc465", "fusion_lat": 0.0, "name": "77e58a23e70438a24c1647ad1e5dc465", "is_reserved": 0, "rental_uris": {"android": "https://dc.lft.to/lastmile_qr_scan", "ios": "https://dc.lft.to/lastmile_qr_scan"}, "fusion_lon": 0.0}, {"lat": 38.909695166666666, "is_disabled": 0, "type": "electric_scooter", "lon": -77.03377783333333, "bike_id": "e459f2b51cef7b1639f1e62a770a0df3", "fusion_lat": 0.0, "name": "e459f2b51cef7b1639f1e62a770a0df3", "is_reserved": 0, "rental_uris": {"android": "https://dc.lft.to/lastmile_qr_scan", "ios": "https://dc.lft.to/lastmile_qr_scan"}, "fusion_lon": 0.0}, {"lat": 38.9133195, "is_disabled": 0, "type": "electric_scooter", "lon": -77.031998, "bike_id": "fd831279d4409865b514650eae96b1e5", "fusion_lat": 0.0, "name": "fd831279d4409865b514650eae96b1e5", "is_reserved": 0, "rental_uris": {"android": "https://dc.lft.to/lastmile_qr_scan", "ios": "https://dc.lft.to/lastmile_qr_scan"}, "fusion_lon": 0.0}, {"lat": 38.93249133333333, "is_disabled": 0, "type": "electric_scooter", "lon": -77.0328195, "bike_id": "a4b80f730db433c6e9059cbdad310925", "fusion_lat": 0.0, "name": "a4b80f730db433c6e9059cbdad310925", "is_reserved": 0, "rental_uris": {"android": "https://dc.lft.to/lastmile_qr_scan", "ios": "https://dc.lft.to/lastmile_qr_scan"}, "fusion_lon": 0.0}, {"lat": 38.923637, "is_disabled": 0, "type": "electric_scooter", "lon": -77.05132966666666, "bike_id": "573c877e09fcbaa2a4dc736100026a29", "fusion_lat": 0.0, "name": "573c877e09fcbaa2a4dc736100026a29", "is_reserved": 0, "rental_uris": {"android": "https://dc.lft.to/lastmile_qr_scan", "ios": "https://dc.lft.to/lastmile_qr_scan"}, "fusion_lon": 0.0}, {"lat": 38.9104935, "is_disabled": 0, "type": "electric_scooter", "lon": -77.05594866666667, "bike_id": "8c4f37b5afd05290d11f2a4cbf84af02", "fusion_lat": 0.0, "name": "8c4f37b5afd05290d11f2a4cbf84af02", "is_reserved": 0, "rental_uris": {"android": "https://dc.lft.to/lastmile_qr_scan", "ios": "https://dc.lft.to/lastmile_qr_scan"}, "fusion_lon": 0.0}, {"lat": 38.9360415, "is_disabled": 0, "type": "electric_scooter", "lon": -77.05859116666667, "bike_id": "b6409be1e7fa90ce23cb1d1c213219ee", "fusion_lat": 0.0, "name": "b6409be1e7fa90ce23cb1d1c213219ee", "is_reserved": 0, "rental_uris": {"android": "https://dc.lft.to/lastmile_qr_scan", "ios": "https://dc.lft.to/lastmile_qr_scan"}, "fusion_lon": 0.0}, {"lat": 38.91187766666667, "is_disabled": 0, "type": "electric_bike", "lon": -77.0401525, "bike_id": "76cc20a754f005621224417622aaec75", "fusion_lat": 0.0, "name": "76cc20a754f005621224417622aaec75", "is_reserved": 0, "rental_uris": {"android": "https://dc.lft.to/lastmile_qr_scan", "ios": "https://dc.lft.to/lastmile_qr_scan"}, "fusion_lon": 0.0}, {"lat": 38.883629, "is_disabled": 0, "type": "electric_scooter", "lon": -76.99514016666667, "bike_id": "07e1ddd229485a46dc1772ca300a7267", "fusion_lat": 0.0, "name": "07e1ddd229485a46dc1772ca300a7267", "is_reserved": 0, "rental_uris": {"android": "https://dc.lft.to/lastmile_qr_scan", "ios": "https://dc.lft.to/lastmile_qr_scan"}, "fusion_lon": 0.0}, {"lat": 38.958946166666664, "is_disabled": 0, "type": "electric_bike", "lon": -76.92493416666667, "bike_id": "b37da7bf943d421c5305370aba652170", "fusion_lat": 0.0, "name": "b37da7bf943d421c5305370aba652170", "is_reserved": 0, "rental_uris": {"android": "https://dc.lft.to/lastmile_qr_scan", "ios": "https://dc.lft.to/lastmile_qr_scan"}, "fusion_lon": 0.0}, {"lat": 38.9253785, "is_disabled": 0, "type": "electric_scooter", "lon": -77.0263675, "bike_id": "da1d4e1646b51d388a25e248edca59bb", "fusion_lat": 0.0, "name": "da1d4e1646b51d388a25e248edca59bb", "is_reserved": 0, "rental_uris": {"android": "https://dc.lft.to/lastmile_qr_scan", "ios": "https://dc.lft.to/lastmile_qr_scan"}, "fusion_lon": 0.0}, {"lat": 38.934044166666666, "is_disabled": 0, "type": "electric_scooter", "lon": -77.0328855, "bike_id": "5c7a5bf5460dd1cf7d53b5d5d3796a25", "fusion_lat": 0.0, "name": "5c7a5bf5460dd1cf7d53b5d5d3796a25", "is_reserved": 0, "rental_uris": {"android": "https://dc.lft.to/lastmile_qr_scan", "ios": "https://dc.lft.to/lastmile_qr_scan"}, "fusion_lon": 0.0}, {"lat": 38.9206165, "is_disabled": 0, "type": "electric_scooter", "lon": -77.078889, "bike_id": "56f9ac99cad96ab14e48427b5ad80bad", "fusion_lat": 0.0, "name": "56f9ac99cad96ab14e48427b5ad80bad", "is_reserved": 0, "rental_uris": {"android": "https://dc.lft.to/lastmile_qr_scan", "ios": "https://dc.lft.to/lastmile_qr_scan"}, "fusion_lon": 0.0}, {"lat": 38.876281, "is_disabled": 0, "type": "electric_scooter", "lon": -76.96526383333334, "bike_id": "c140939afc48cb333decd01eba294dd0", "fusion_lat": 0.0, "name": "c140939afc48cb333decd01eba294dd0", "is_reserved": 0, "rental_uris": {"android": "https://dc.lft.to/lastmile_qr_scan", "ios": "https://dc.lft.to/lastmile_qr_scan"}, "fusion_lon": 0.0}, {"lat": 38.9168175, "is_disabled": 0, "type": "electric_scooter", "lon": -77.00197016666667, "bike_id": "b0870f20ce829e4d87fdf70c8b3a3d47", "fusion_lat": 0.0, "name": "b0870f20ce829e4d87fdf70c8b3a3d47", "is_reserved": 0, "rental_uris": {"android": "https://dc.lft.to/lastmile_qr_scan", "ios": "https://dc.lft.to/lastmile_qr_scan"}, "fusion_lon": 0.0}, {"lat": 38.88363566666666, "is_disabled": 0, "type": "electric_scooter", "lon": -76.94155533333333, "bike_id": "f44342608735aaf735b001bd27828570", "fusion_lat": 0.0, "name": "f44342608735aaf735b001bd27828570", "is_reserved": 0, "rental_uris": {"android": "https://dc.lft.to/lastmile_qr_scan", "ios": "https://dc.lft.to/lastmile_qr_scan"}, "fusion_lon": 0.0}, {"lat": 39.030453333333334, "is_disabled": 0, "type": "electric_bike", "lon": -77.09484866666666, "bike_id": "ca32e6218a4c6f0121d7d576952f3b3e", "fusion_lat": 0.0, "name": "ca32e6218a4c6f0121d7d576952f3b3e", "is_reserved": 0, "rental_uris": {"android": "https://dc.lft.to/lastmile_qr_scan", "ios": "https://dc.lft.to/lastmile_qr_scan"}, "fusion_lon": 0.0}, {"lat": 38.9081585, "is_disabled": 0, "type": "electric_scooter", "lon": -77.03834333333333, "bike_id": "fb54532fc2bf76aca972cde258fcbc48", "fusion_lat": 0.0, "name": "fb54532fc2bf76aca972cde258fcbc48", "is_reserved": 0, "rental_uris": {"android": "https://dc.lft.to/lastmile_qr_scan", "ios": "https://dc.lft.to/lastmile_qr_scan"}, "fusion_lon": 0.0}, {"lat": 38.902423166666665, "is_disabled": 0, "type": "electric_scooter", "lon": -77.04366383333333, "bike_id": "759b8a1ba90ec834cdc1ff0e9d06d606", "fusion_lat": 0.0, "name": "759b8a1ba90ec834cdc1ff0e9d06d606", "is_reserved": 0, "rental_uris": {"android": "https://dc.lft.to/lastmile_qr_scan", "ios": "https://dc.lft.to/lastmile_qr_scan"}, "fusion_lon": 0.0}, {"lat": 38.885081, "is_disabled": 0, "type": "electric_scooter", "lon": -77.00678883333333, "bike_id": "9c106ad3719df0379b64d63c23a0899f", "fusion_lat": 0.0, "name": "9c106ad3719df0379b64d63c23a0899f", "is_reserved": 0, "rental_uris": {"android": "https://dc.lft.to/lastmile_qr_scan", "ios": "https://dc.lft.to/lastmile_qr_scan"}, "fusion_lon": 0.0}, {"lat": 38.895556166666665, "is_disabled": 0, "type": "electric_scooter", "lon": -77.04673533333333, "bike_id": "7796b2a297b711f87a42c07914f92204", "fusion_lat": 0.0, "name": "7796b2a297b711f87a42c07914f92204", "is_reserved": 0, "rental_uris": {"android": "https://dc.lft.to/lastmile_qr_scan", "ios": "https://dc.lft.to/lastmile_qr_scan"}, "fusion_lon": 0.0}, {"lat": 38.913367666666666, "is_disabled": 0, "type": "electric_scooter", "lon": -77.04884316666667, "bike_id": "140a6673836511625513064376bb5376", "fusion_lat": 0.0, "name": "140a6673836511625513064376bb5376", "is_reserved": 0, "rental_uris": {"android": "https://dc.lft.to/lastmile_qr_scan", "ios": "https://dc.lft.to/lastmile_qr_scan"}, "fusion_lon": 0.0}, {"lat": 38.903124166666665, "is_disabled": 0, "type": "electric_scooter", "lon": -77.03850983333334, "bike_id": "f7cc521df372e01624309b6d708427c2", "fusion_lat": 0.0, "name": "f7cc521df372e01624309b6d708427c2", "is_reserved": 0, "rental_uris": {"android": "https://dc.lft.to/lastmile_qr_scan", "ios": "https://dc.lft.to/lastmile_qr_scan"}, "fusion_lon": 0.0}, {"lat": 38.92745733333334, "is_disabled": 0, "type": "electric_scooter", "lon": -76.99722816666667, "bike_id": "1ee9864b0db796c98fbd8353e812a674", "fusion_lat": 0.0, "name": "1ee9864b0db796c98fbd8353e812a674", "is_reserved": 0, "rental_uris": {"android": "https://dc.lft.to/lastmile_qr_scan", "ios": "https://dc.lft.to/lastmile_qr_scan"}, "fusion_lon": 0.0}, {"lat": 38.904122666666666, "is_disabled": 0, "type": "electric_scooter", "lon": -77.025842, "bike_id": "1477b3deb4078b2a0c0b4b153a232a46", "fusion_lat": 0.0, "name": "1477b3deb4078b2a0c0b4b153a232a46", "is_reserved": 0, "rental_uris": {"android": "https://dc.lft.to/lastmile_qr_scan", "ios": "https://dc.lft.to/lastmile_qr_scan"}, "fusion_lon": 0.0}, {"lat": 38.91112583333334, "is_disabled": 0, "type": "electric_scooter", "lon": -77.044614, "bike_id": "bb2a4bc165f52e91b488ba435eb3f69d", "fusion_lat": 0.0, "name": "bb2a4bc165f52e91b488ba435eb3f69d", "is_reserved": 0, "rental_uris": {"android": "https://dc.lft.to/lastmile_qr_scan", "ios": "https://dc.lft.to/lastmile_qr_scan"}, "fusion_lon": 0.0}, {"lat": 38.933710166666664, "is_disabled": 0, "type": "electric_bike", "lon": -76.97227516666666, "bike_id": "0fb4fe17a6ba77b563ea8682558f5ee0", "fusion_lat": 0.0, "name": "0fb4fe17a6ba77b563ea8682558f5ee0", "is_reserved": 0, "rental_uris": {"android": "https://dc.lft.to/lastmile_qr_scan", "ios": "https://dc.lft.to/lastmile_qr_scan"}, "fusion_lon": 0.0}, {"lat": 38.87575966666667, "is_disabled": 0, "type": "electric_scooter", "lon": -77.02088216666667, "bike_id": "c57266719b960b83535f962756cd61d2", "fusion_lat": 0.0, "name": "c57266719b960b83535f962756cd61d2", "is_reserved": 0, "rental_uris": {"android": "https://dc.lft.to/lastmile_qr_scan", "ios": "https://dc.lft.to/lastmile_qr_scan"}, "fusion_lon": 0.0}, {"lat": 38.90381766666667, "is_disabled": 0, "type": "electric_scooter", "lon": -77.04911616666666, "bike_id": "f2ed8ea977cb3ff00e046c5ccf84151e", "fusion_lat": 0.0, "name": "f2ed8ea977cb3ff00e046c5ccf84151e", "is_reserved": 0, "rental_uris": {"android": "https://dc.lft.to/lastmile_qr_scan", "ios": "https://dc.lft.to/lastmile_qr_scan"}, "fusion_lon": 0.0}, {"lat": 38.904087, "is_disabled": 0, "type": "electric_scooter", "lon": -77.04062316666666, "bike_id": "b5dacd364a24d20a0a4081c8b231db26", "fusion_lat": 0.0, "name": "b5dacd364a24d20a0a4081c8b231db26", "is_reserved": 0, "rental_uris": {"android": "https://dc.lft.to/lastmile_qr_scan", "ios": "https://dc.lft.to/lastmile_qr_scan"}, "fusion_lon": 0.0}, {"lat": 38.85447333333333, "is_disabled": 0, "type": "electric_scooter", "lon": -76.97231783333334, "bike_id": "6bf507d2ccd5b565c0f0af57eb969793", "fusion_lat": 0.0, "name": "6bf507d2ccd5b565c0f0af57eb969793", "is_reserved": 0, "rental_uris": {"android": "https://dc.lft.to/lastmile_qr_scan", "ios": "https://dc.lft.to/lastmile_qr_scan"}, "fusion_lon": 0.0}, {"lat": 38.92236283333333, "is_disabled": 0, "type": "electric_scooter", "lon": -77.0730935, "bike_id": "4ea6cd75deb542b63b0af34ff5b7d3ff", "fusion_lat": 0.0, "name": "4ea6cd75deb542b63b0af34ff5b7d3ff", "is_reserved": 0, "rental_uris": {"android": "https://dc.lft.to/lastmile_qr_scan", "ios": "https://dc.lft.to/lastmile_qr_scan"}, "fusion_lon": 0.0}, {"lat": 38.907739166666666, "is_disabled": 0, "type": "electric_scooter", "lon": -77.00367566666667, "bike_id": "9ef1811c3ec5b548e2c549a6f31a33d1", "fusion_lat": 0.0, "name": "9ef1811c3ec5b548e2c549a6f31a33d1", "is_reserved": 0, "rental_uris": {"android": "https://dc.lft.to/lastmile_qr_scan", "ios": "https://dc.lft.to/lastmile_qr_scan"}, "fusion_lon": 0.0}, {"lat": 38.892197333333336, "is_disabled": 0, "type": "electric_scooter", "lon": -77.04871133333333, "bike_id": "565c6c15cd2daf0c85bc02f2c0d58525", "fusion_lat": 0.0, "name": "565c6c15cd2daf0c85bc02f2c0d58525", "is_reserved": 0, "rental_uris": {"android": "https://dc.lft.to/lastmile_qr_scan", "ios": "https://dc.lft.to/lastmile_qr_scan"}, "fusion_lon": 0.0}, {"lat": 38.859357333333335, "is_disabled": 0, "type": "electric_bike", "lon": -77.08607833333333, "bike_id": "33ded54cd8e21f210b3d3da8a316cc17", "fusion_lat": 0.0, "name": "33ded54cd8e21f210b3d3da8a316cc17", "is_reserved": 0, "rental_uris": {"android": "https://dc.lft.to/lastmile_qr_scan", "ios": "https://dc.lft.to/lastmile_qr_scan"}, "fusion_lon": 0.0}, {"lat": 38.933233666666666, "is_disabled": 0, "type": "electric_scooter", "lon": -77.04369016666666, "bike_id": "92e6b89c72a06852949fe85e6b704744", "fusion_lat": 0.0, "name": "92e6b89c72a06852949fe85e6b704744", "is_reserved": 0, "rental_uris": {"android": "https://dc.lft.to/lastmile_qr_scan", "ios": "https://dc.lft.to/lastmile_qr_scan"}, "fusion_lon": 0.0}, {"lat": 38.902308, "is_disabled": 0, "type": "electric_scooter", "lon": -77.06061816666667, "bike_id": "8bf1fbda0dfe0bca81f2d942352c23b5", "fusion_lat": 0.0, "name": "8bf1fbda0dfe0bca81f2d942352c23b5", "is_reserved": 0, "rental_uris": {"android": "https://dc.lft.to/lastmile_qr_scan", "ios": "https://dc.lft.to/lastmile_qr_scan"}, "fusion_lon": 0.0}, {"lat": 38.924854, "is_disabled": 0, "type": "electric_scooter", "lon": -77.05755466666666, "bike_id": "087b48bd6b8de57e0b19d0b1e433f9f3", "fusion_lat": 0.0, "name": "087b48bd6b8de57e0b19d0b1e433f9f3", "is_reserved": 0, "rental_uris": {"android": "https://dc.lft.to/lastmile_qr_scan", "ios": "https://dc.lft.to/lastmile_qr_scan"}, "fusion_lon": 0.0}, {"lat": 38.88525816666667, "is_disabled": 0, "type": "electric_scooter", "lon": -77.01134333333333, "bike_id": "5bcc3f0eb89b6d75a4b71bfe857c4208", "fusion_lat": 0.0, "name": "5bcc3f0eb89b6d75a4b71bfe857c4208", "is_reserved": 0, "rental_uris": {"android": "https://dc.lft.to/lastmile_qr_scan", "ios": "https://dc.lft.to/lastmile_qr_scan"}, "fusion_lon": 0.0}, {"lat": 38.936046, "is_disabled": 0, "type": "electric_scooter", "lon": -77.0585805, "bike_id": "3f48b7ee208daa02e69e12e545e467ed", "fusion_lat": 0.0, "name": "3f48b7ee208daa02e69e12e545e467ed", "is_reserved": 0, "rental_uris": {"android": "https://dc.lft.to/lastmile_qr_scan", "ios": "https://dc.lft.to/lastmile_qr_scan"}, "fusion_lon": 0.0}, {"lat": 38.922542, "is_disabled": 0, "type": "electric_scooter", "lon": -77.03521933333333, "bike_id": "8062afcdbd34ca50238984884e5d3b0a", "fusion_lat": 0.0, "name": "8062afcdbd34ca50238984884e5d3b0a", "is_reserved": 0, "rental_uris": {"android": "https://dc.lft.to/lastmile_qr_scan", "ios": "https://dc.lft.to/lastmile_qr_scan"}, "fusion_lon": 0.0}, {"lat": 38.92067733333333, "is_disabled": 0, "type": "electric_scooter", "lon": -77.0319375, "bike_id": "4983fa10cf4248beb74764642e202772", "fusion_lat": 0.0, "name": "4983fa10cf4248beb74764642e202772", "is_reserved": 0, "rental_uris": {"android": "https://dc.lft.to/lastmile_qr_scan", "ios": "https://dc.lft.to/lastmile_qr_scan"}, "fusion_lon": 0.0}, {"lat": 38.92402466666667, "is_disabled": 0, "type": "electric_scooter", "lon": -77.025394, "bike_id": "88a4bfc485bbc07d532749b79cb065d2", "fusion_lat": 0.0, "name": "88a4bfc485bbc07d532749b79cb065d2", "is_reserved": 0, "rental_uris": {"android": "https://dc.lft.to/lastmile_qr_scan", "ios": "https://dc.lft.to/lastmile_qr_scan"}, "fusion_lon": 0.0}, {"lat": 38.879157666666664, "is_disabled": 0, "type": "electric_scooter", "lon": -76.99508133333333, "bike_id": "167e2ff0f54b4f944cf37d8f325f4700", "fusion_lat": 0.0, "name": "167e2ff0f54b4f944cf37d8f325f4700", "is_reserved": 0, "rental_uris": {"android": "https://dc.lft.to/lastmile_qr_scan", "ios": "https://dc.lft.to/lastmile_qr_scan"}, "fusion_lon": 0.0}, {"lat": 38.918336333333336, "is_disabled": 0, "type": "electric_scooter", "lon": -76.96544683333333, "bike_id": "dd4c5ade29274913e4985516a3b6c002", "fusion_lat": 0.0, "name": "dd4c5ade29274913e4985516a3b6c002", "is_reserved": 0, "rental_uris": {"android": "https://dc.lft.to/lastmile_qr_scan", "ios": "https://dc.lft.to/lastmile_qr_scan"}, "fusion_lon": 0.0}, {"lat": 38.890023666666664, "is_disabled": 0, "type": "electric_scooter", "lon": -76.93742, "bike_id": "d3a726b54e89ba6aed4b5bdf2cc0d5ec", "fusion_lat": 0.0, "name": "d3a726b54e89ba6aed4b5bdf2cc0d5ec", "is_reserved": 0, "rental_uris": {"android": "https://dc.lft.to/lastmile_qr_scan", "ios": "https://dc.lft.to/lastmile_qr_scan"}, "fusion_lon": 0.0}, {"lat": 38.92675916666666, "is_disabled": 0, "type": "electric_scooter", "lon": -77.0263445, "bike_id": "f28687044c99c516f9500eebb16a2206", "fusion_lat": 0.0, "name": "f28687044c99c516f9500eebb16a2206", "is_reserved": 0, "rental_uris": {"android": "https://dc.lft.to/lastmile_qr_scan", "ios": "https://dc.lft.to/lastmile_qr_scan"}, "fusion_lon": 0.0}, {"lat": 38.9066215, "is_disabled": 0, "type": "electric_scooter", "lon": -77.04326483333334, "bike_id": "04b242eef934b3c65574e977bcfc493b", "fusion_lat": 0.0, "name": "04b242eef934b3c65574e977bcfc493b", "is_reserved": 0, "rental_uris": {"android": "https://dc.lft.to/lastmile_qr_scan", "ios": "https://dc.lft.to/lastmile_qr_scan"}, "fusion_lon": 0.0}, {"lat": 38.89763583333333, "is_disabled": 0, "type": "electric_scooter", "lon": -77.027094, "bike_id": "b652bb4938300ada1e207d5f8c8e0416", "fusion_lat": 0.0, "name": "b652bb4938300ada1e207d5f8c8e0416", "is_reserved": 0, "rental_uris": {"android": "https://dc.lft.to/lastmile_qr_scan", "ios": "https://dc.lft.to/lastmile_qr_scan"}, "fusion_lon": 0.0}, {"lat": 38.923125, "is_disabled": 0, "type": "electric_scooter", "lon": -77.03662516666667, "bike_id": "c68ee00e4647a300ec57b0b544d2d5a4", "fusion_lat": 0.0, "name": "c68ee00e4647a300ec57b0b544d2d5a4", "is_reserved": 0, "rental_uris": {"android": "https://dc.lft.to/lastmile_qr_scan", "ios": "https://dc.lft.to/lastmile_qr_scan"}, "fusion_lon": 0.0}, {"lat": 38.916895333333336, "is_disabled": 0, "type": "electric_scooter", "lon": -77.03759516666666, "bike_id": "d38b958857055003984979819ef06838", "fusion_lat": 0.0, "name": "d38b958857055003984979819ef06838", "is_reserved": 0, "rental_uris": {"android": "https://dc.lft.to/lastmile_qr_scan", "ios": "https://dc.lft.to/lastmile_qr_scan"}, "fusion_lon": 0.0}, {"lat": 38.93059083333333, "is_disabled": 0, "type": "electric_scooter", "lon": -77.04018316666667, "bike_id": "2aa3ff32e5604f0ba003923fefe26110", "fusion_lat": 0.0, "name": "2aa3ff32e5604f0ba003923fefe26110", "is_reserved": 0, "rental_uris": {"android": "https://dc.lft.to/lastmile_qr_scan", "ios": "https://dc.lft.to/lastmile_qr_scan"}, "fusion_lon": 0.0}, {"lat": 38.91990916666666, "is_disabled": 0, "type": "electric_scooter", "lon": -77.03964266666667, "bike_id": "f4d31a39c493a3c8dc89b1599adb2615", "fusion_lat": 0.0, "name": "f4d31a39c493a3c8dc89b1599adb2615", "is_reserved": 0, "rental_uris": {"android": "https://dc.lft.to/lastmile_qr_scan", "ios": "https://dc.lft.to/lastmile_qr_scan"}, "fusion_lon": 0.0}, {"lat": 38.90960533333333, "is_disabled": 0, "type": "electric_scooter", "lon": -77.03849416666667, "bike_id": "61604f8147f4870ca22c9b022c0b63bd", "fusion_lat": 0.0, "name": "61604f8147f4870ca22c9b022c0b63bd", "is_reserved": 0, "rental_uris": {"android": "https://dc.lft.to/lastmile_qr_scan", "ios": "https://dc.lft.to/lastmile_qr_scan"}, "fusion_lon": 0.0}, {"lat": 38.89617483333333, "is_disabled": 0, "type": "electric_scooter", "lon": -76.998436, "bike_id": "cd04bfb6385b8d472f613d75e5df3bb6", "fusion_lat": 0.0, "name": "cd04bfb6385b8d472f613d75e5df3bb6", "is_reserved": 0, "rental_uris": {"android": "https://dc.lft.to/lastmile_qr_scan", "ios": "https://dc.lft.to/lastmile_qr_scan"}, "fusion_lon": 0.0}, {"lat": 38.877329833333334, "is_disabled": 0, "type": "electric_bike", "lon": -77.11853233333333, "bike_id": "73fcaea87b57ce2a385206962a82a21e", "fusion_lat": 0.0, "name": "73fcaea87b57ce2a385206962a82a21e", "is_reserved": 0, "rental_uris": {"android": "https://dc.lft.to/lastmile_qr_scan", "ios": "https://dc.lft.to/lastmile_qr_scan"}, "fusion_lon": 0.0}, {"lat": 38.909198, "is_disabled": 0, "type": "electric_scooter", "lon": -77.080245, "bike_id": "dc9cd056055dbedc7000b902c9e5889a", "fusion_lat": 0.0, "name": "dc9cd056055dbedc7000b902c9e5889a", "is_reserved": 0, "rental_uris": {"android": "https://dc.lft.to/lastmile_qr_scan", "ios": "https://dc.lft.to/lastmile_qr_scan"}, "fusion_lon": 0.0}, {"lat": 38.926409666666665, "is_disabled": 0, "type": "electric_bike", "lon": -77.02840616666667, "bike_id": "6d16a8ae855e7e13a9fdfedf8ddb1dd1", "fusion_lat": 0.0, "name": "6d16a8ae855e7e13a9fdfedf8ddb1dd1", "is_reserved": 0, "rental_uris": {"android": "https://dc.lft.to/lastmile_qr_scan", "ios": "https://dc.lft.to/lastmile_qr_scan"}, "fusion_lon": 0.0}, {"lat": 38.951824, "is_disabled": 0, "type": "electric_bike", "lon": -76.93545416666667, "bike_id": "f43fcb26cdb31b5db40a438c1c1f39b7", "fusion_lat": 0.0, "name": "f43fcb26cdb31b5db40a438c1c1f39b7", "is_reserved": 0, "rental_uris": {"android": "https://dc.lft.to/lastmile_qr_scan", "ios": "https://dc.lft.to/lastmile_qr_scan"}, "fusion_lon": 0.0}, {"lat": 38.9462445, "is_disabled": 0, "type": "electric_scooter", "lon": -77.01847333333333, "bike_id": "7a4dbb7e00bb5a6aa10492faa3bc58a2", "fusion_lat": 0.0, "name": "7a4dbb7e00bb5a6aa10492faa3bc58a2", "is_reserved": 0, "rental_uris": {"android": "https://dc.lft.to/lastmile_qr_scan", "ios": "https://dc.lft.to/lastmile_qr_scan"}, "fusion_lon": 0.0}, {"lat": 38.867409333333335, "is_disabled": 0, "type": "electric_scooter", "lon": -76.9766705, "bike_id": "79be1d60b0fb1d90057ef4242b94aca4", "fusion_lat": 0.0, "name": "79be1d60b0fb1d90057ef4242b94aca4", "is_reserved": 0, "rental_uris": {"android": "https://dc.lft.to/lastmile_qr_scan", "ios": "https://dc.lft.to/lastmile_qr_scan"}, "fusion_lon": 0.0}, {"lat": 38.90857, "is_disabled": 0, "type": "electric_bike", "lon": -76.94007316666666, "bike_id": "78c4bb412276013de19595cdcd0cf764", "fusion_lat": 0.0, "name": "78c4bb412276013de19595cdcd0cf764", "is_reserved": 0, "rental_uris": {"android": "https://dc.lft.to/lastmile_qr_scan", "ios": "https://dc.lft.to/lastmile_qr_scan"}, "fusion_lon": 0.0}, {"lat": 38.90124816666667, "is_disabled": 0, "type": "electric_scooter", "lon": -77.04185083333333, "bike_id": "f3621f0da5cec7164f9571e839c978b7", "fusion_lat": 0.0, "name": "f3621f0da5cec7164f9571e839c978b7", "is_reserved": 0, "rental_uris": {"android": "https://dc.lft.to/lastmile_qr_scan", "ios": "https://dc.lft.to/lastmile_qr_scan"}, "fusion_lon": 0.0}, {"lat": 38.905834166666665, "is_disabled": 0, "type": "electric_scooter", "lon": -76.98622433333334, "bike_id": "15eecafc53a8653e1b55742263b3069f", "fusion_lat": 0.0, "name": "15eecafc53a8653e1b55742263b3069f", "is_reserved": 0, "rental_uris": {"android": "https://dc.lft.to/lastmile_qr_scan", "ios": "https://dc.lft.to/lastmile_qr_scan"}, "fusion_lon": 0.0}, {"lat": 38.90675183333333, "is_disabled": 0, "type": "electric_scooter", "lon": -77.02698016666666, "bike_id": "a58d21ccbfd49949daee3bf41e96caf0", "fusion_lat": 0.0, "name": "a58d21ccbfd49949daee3bf41e96caf0", "is_reserved": 0, "rental_uris": {"android": "https://dc.lft.to/lastmile_qr_scan", "ios": "https://dc.lft.to/lastmile_qr_scan"}, "fusion_lon": 0.0}, {"lat": 38.928244666666664, "is_disabled": 0, "type": "electric_scooter", "lon": -77.0544375, "bike_id": "c01e85a83c9add1f307ebdbc4691904c", "fusion_lat": 0.0, "name": "c01e85a83c9add1f307ebdbc4691904c", "is_reserved": 0, "rental_uris": {"android": "https://dc.lft.to/lastmile_qr_scan", "ios": "https://dc.lft.to/lastmile_qr_scan"}, "fusion_lon": 0.0}, {"lat": 38.885341333333336, "is_disabled": 0, "type": "electric_scooter", "lon": -76.998292, "bike_id": "1d7e8b4485694fdb53dbf79b6f22b65c", "fusion_lat": 0.0, "name": "1d7e8b4485694fdb53dbf79b6f22b65c", "is_reserved": 0, "rental_uris": {"android": "https://dc.lft.to/lastmile_qr_scan", "ios": "https://dc.lft.to/lastmile_qr_scan"}, "fusion_lon": 0.0}, {"lat": 38.8670885, "is_disabled": 0, "type": "electric_scooter", "lon": -76.987288, "bike_id": "eb70f04be59033b57945fcebf2f94978", "fusion_lat": 0.0, "name": "eb70f04be59033b57945fcebf2f94978", "is_reserved": 0, "rental_uris": {"android": "https://dc.lft.to/lastmile_qr_scan", "ios": "https://dc.lft.to/lastmile_qr_scan"}, "fusion_lon": 0.0}, {"lat": 38.845029, "is_disabled": 0, "type": "electric_bike", "lon": -76.99351266666666, "bike_id": "11a7fb16e091194cc708894331b34fd3", "fusion_lat": 0.0, "name": "11a7fb16e091194cc708894331b34fd3", "is_reserved": 0, "rental_uris": {"android": "https://dc.lft.to/lastmile_qr_scan", "ios": "https://dc.lft.to/lastmile_qr_scan"}, "fusion_lon": 0.0}, {"lat": 38.916903833333336, "is_disabled": 0, "type": "electric_scooter", "lon": -77.03597683333334, "bike_id": "baed586a8adaf4486b2ab6ca50845681", "fusion_lat": 0.0, "name": "baed586a8adaf4486b2ab6ca50845681", "is_reserved": 0, "rental_uris": {"android": "https://dc.lft.to/lastmile_qr_scan", "ios": "https://dc.lft.to/lastmile_qr_scan"}, "fusion_lon": 0.0}, {"lat": 38.9127955, "is_disabled": 0, "type": "electric_scooter", "lon": -77.04510416666666, "bike_id": "d0c01d434e81c409732c7adca46b2694", "fusion_lat": 0.0, "name": "d0c01d434e81c409732c7adca46b2694", "is_reserved": 0, "rental_uris": {"android": "https://dc.lft.to/lastmile_qr_scan", "ios": "https://dc.lft.to/lastmile_qr_scan"}, "fusion_lon": 0.0}, {"lat": 38.903672666666665, "is_disabled": 0, "type": "electric_scooter", "lon": -77.045032, "bike_id": "efdfe845b35240406f3a5d5bcc2ac188", "fusion_lat": 0.0, "name": "efdfe845b35240406f3a5d5bcc2ac188", "is_reserved": 0, "rental_uris": {"android": "https://dc.lft.to/lastmile_qr_scan", "ios": "https://dc.lft.to/lastmile_qr_scan"}, "fusion_lon": 0.0}, {"lat": 38.917415166666665, "is_disabled": 0, "type": "electric_scooter", "lon": -77.03200916666667, "bike_id": "3ed4ccca95c631492b2300a46f50b16f", "fusion_lat": 0.0, "name": "3ed4ccca95c631492b2300a46f50b16f", "is_reserved": 0, "rental_uris": {"android": "https://dc.lft.to/lastmile_qr_scan", "ios": "https://dc.lft.to/lastmile_qr_scan"}, "fusion_lon": 0.0}, {"lat": 38.88478583333333, "is_disabled": 0, "type": "electric_scooter", "lon": -76.9453005, "bike_id": "84378e99a9ff66f411668795717a7e33", "fusion_lat": 0.0, "name": "84378e99a9ff66f411668795717a7e33", "is_reserved": 0, "rental_uris": {"android": "https://dc.lft.to/lastmile_qr_scan", "ios": "https://dc.lft.to/lastmile_qr_scan"}, "fusion_lon": 0.0}, {"lat": 38.90200166666666, "is_disabled": 0, "type": "electric_scooter", "lon": -77.02325766666667, "bike_id": "0b8fcff0d1cddc43c6f48cd8420b5ca8", "fusion_lat": 0.0, "name": "0b8fcff0d1cddc43c6f48cd8420b5ca8", "is_reserved": 0, "rental_uris": {"android": "https://dc.lft.to/lastmile_qr_scan", "ios": "https://dc.lft.to/lastmile_qr_scan"}, "fusion_lon": 0.0},