{"data": {"bikes": [{"is_disabled": 0, "is_reserved": 0, "fusion_lat": 0.0, "lat": 39.042356833333336, "fusion_lon": 0.0, "rental_uris": {"ios": "https://dc.lft.to/lastmile_qr_scan", "android": "https://dc.lft.to/lastmile_qr_scan"}, "lon": -76.99735883333334, "bike_id": "c51a36594ed5ae6717566320348622d7", "type": "electric_bike", "name": "c51a36594ed5ae6717566320348622d7"}, {"is_disabled": 0, "is_reserved": 0, "fusion_lat": 0.0, "lat": 38.9128045, "fusion_lon": 0.0, "rental_uris": {"ios": "https://dc.lft.to/lastmile_qr_scan", "android": "https://dc.lft.to/lastmile_qr_scan"}, "lon": -77.04660383333334, "bike_id": "a907cea99db05bc8fb1766d993e071c9", "type": "electric_scooter", "name": "a907cea99db05bc8fb1766d993e071c9"}, {"is_disabled": 0, "is_reserved": 0, "fusion_lat": 0.0, "lat": 38.998518833333335, "fusion_lon": 0.0, "rental_uris": {"ios": "https://dc.lft.to/lastmile_qr_scan", "android": "https://dc.lft.to/lastmile_qr_scan"}, "lon": -77.00247783333333, "bike_id": "5ddb9674c9747a1d1165ed9c9f67a1e2", "type": "electric_bike", "name": "5ddb9674c9747a1d1165ed9c9f67a1e2"}, {"is_disabled": 0, "is_reserved": 0, "fusion_lat": 0.0, "lat": 38.89481983333334, "fusion_lon": 0.0, "rental_uris": {"ios": "https://dc.lft.to/lastmile_qr_scan", "android": "https://dc.lft.to/lastmile_qr_scan"}, "lon": -77.002665, "bike_id": "048c5da99bf88e88ad19f84cc9194ca5", "type": "electric_scooter", "name": "048c5da99bf88e88ad19f84cc9194ca5"}, {"is_disabled": 0, "is_reserved": 0, "fusion_lat": 0.0, "lat": 38.8756595, "fusion_lon": 0.0, "rental_uris": {"ios": "https://dc.lft.to/lastmile_qr_scan", "android": "https://dc.lft.to/lastmile_qr_scan"}, "lon": -77.047037, "bike_id": "cc981ecef13cf74dae37e097ad601d3c", "type": "electric_bike", "name": "cc981ecef13cf74dae37e097ad601d3c"}, {"is_disabled": 0, "is_reserved": 0, "fusion_lat": 0.0, "lat": 38.9089095, "fusion_lon": 0.0, "rental_uris": {"ios": "https://dc.lft.to/lastmile_qr_scan", "android": "https://dc.lft.to/lastmile_qr_scan"}, "lon": -77.04670583333333, "bike_id": "fc1e69813bb1d88933b41a90eb510318", "type": "electric_scooter", "name": "fc1e69813bb1d88933b41a90eb510318"}, {"is_disabled": 0, "is_reserved": 0, "fusion_lat": 0.0, "lat": 38.907523, "fusion_lon": 0.0, "rental_uris": {"ios": "https://dc.lft.to/lastmile_qr_scan", "android": "https://dc.lft.to/lastmile_qr_scan"}, "lon": -77.000232, "bike_id": "37a234274ec2f7dec9078466d654d954", "type": "electric_scooter", "name": "37a234274ec2f7dec9078466d654d954"}, {"is_disabled": 0, "is_reserved": 0, "fusion_lat": 0.0, "lat": 38.84675683333333, "fusion_lon": 0.0, "rental_uris": {"ios": "https://dc.lft.to/lastmile_qr_scan", "android": "https://dc.lft.to/lastmile_qr_scan"}, "lon": -77.1393455, "bike_id": "9f8197b2ceda194e60b6cb87e2df00dd", "type": "electric_bike", "name": "9f8197b2ceda194e60b6cb87e2df00dd"}, {"is_disabled": 0, "is_reserved": 0, "fusion_lat": 0.0, "lat": 38.9160465, "fusion_lon": 0.0, "rental_uris": {"ios": "https://dc.lft.to/lastmile_qr_scan", "android": "https://dc.lft.to/lastmile_qr_scan"}, "lon": -77.04351433333333, "bike_id": "0fefa29be4f1b962677918120a607bb7", "type": "electric_scooter", "name": "0fefa29be4f1b962677918120a607bb7"}, {"is_disabled": 0, "is_reserved": 0, "fusion_lat": 0.0, "lat": 38.917073, "fusion_lon": 0.0, "rental_uris": {"ios": "https://dc.lft.to/lastmile_qr_scan", "android": "https://dc.lft.to/lastmile_qr_scan"}, "lon": -77.03866033333334, "bike_id": "ad3e68e3050fee020120c9785f72a9c4", "type": "electric_scooter", "name": "ad3e68e3050fee020120c9785f72a9c4"}, {"is_disabled": 0, "is_reserved": 0, "fusion_lat": 0.0, "lat": 38.879314666666666, "fusion_lon": 0.0, "rental_uris": {"ios": "https://dc.lft.to/lastmile_qr_scan", "android": "https://dc.lft.to/lastmile_qr_scan"}, "lon": -77.0052305, "bike_id": "3e146ed9ebf014293053b0807c511c25", "type": "electric_scooter", "name": "3e146ed9ebf014293053b0807c511c25"}, {"is_disabled": 0, "is_reserved": 0, "fusion_lat": 0.0, "lat": 38.9155945, "fusion_lon": 0.0, "rental_uris": {"ios": "https://dc.lft.to/lastmile_qr_scan", "android": "https://dc.lft.to/lastmile_qr_scan"}, "lon": -77.05098766666667, "bike_id": "865a79a8fba23bb4e1b1803df20a6cc5", "type": "electric_scooter", "name": "865a79a8fba23bb4e1b1803df20a6cc5"}, {"is_disabled": 0, "is_reserved": 0, "fusion_lat": 0.0, "lat": 38.925781, "fusion_lon": 0.0, "rental_uris": {"ios": "https://dc.lft.to/lastmile_qr_scan", "android": "https://dc.lft.to/lastmile_qr_scan"}, "lon": -77.0378995, "bike_id": "ae4f3ccae8aa889d66fddd0de31842b4", "type": "electric_scooter", "name": "ae4f3ccae8aa889d66fddd0de31842b4"}, {"is_disabled": 0, "is_reserved": 0, "fusion_lat": 0.0, "lat": 38.876531666666665, "fusion_lon": 0.0, "rental_uris": {"ios": "https://dc.lft.to/lastmile_qr_scan", "android": "https://dc.lft.to/lastmile_qr_scan"}, "lon": -77.00890783333334, "bike_id": "298b68d3a44284288db2a5bfc34959f8", "type": "electric_scooter", "name": "298b68d3a44284288db2a5bfc34959f8"}, {"is_disabled": 0, "is_reserved": 0, "fusion_lat": 0.0, "lat": 38.974386, "fusion_lon": 0.0, "rental_uris": {"ios": "https://dc.lft.to/lastmile_qr_scan", "android": "https://dc.lft.to/lastmile_qr_scan"}, "lon": -77.09613133333333, "bike_id": "1c7f09db4f1cbdf78e049a2c501dfaa4", "type": "electric_bike", "name": "1c7f09db4f1cbdf78e049a2c501dfaa4"}, {"is_disabled": 0, "is_reserved": 0, "fusion_lat": 0.0, "lat": 38.89458966666667, "fusion_lon": 0.0, "rental_uris": {"ios": "https://dc.lft.to/lastmile_qr_scan", "android": "https://dc.lft.to/lastmile_qr_scan"}, "lon": -76.93679783333333, "bike_id": "af816ab136e4067af2dac35c3cbf05de", "type": "electric_bike", "name": "af816ab136e4067af2dac35c3cbf05de"}, {"is_disabled": 0, "is_reserved": 0, "fusion_lat": 0.0, "lat": 38.923103, "fusion_lon": 0.0, "rental_uris": {"ios": "https://dc.lft.to/lastmile_qr_scan", "android": "https://dc.lft.to/lastmile_qr_scan"}, "lon": -77.03399366666666, "bike_id": "625d89d1cd722173947c8f7de84143ee", "type": "electric_scooter", "name": "625d89d1cd722173947c8f7de84143ee"}, {"is_disabled": 0, "is_reserved": 0, "fusion_lat": 0.0, "lat": 38.8984495, "fusion_lon": 0.0, "rental_uris": {"ios": "https://dc.lft.to/lastmile_qr_scan", "android": "https://dc.lft.to/lastmile_qr_scan"}, "lon": -77.00210083333333, "bike_id": "5e67d763ada1feac520d4c0e2dd454ed", "type": "electric_scooter", "name": "5e67d763ada1feac520d4c0e2dd454ed"}, {"is_disabled": 0, "is_reserved": 0, "fusion_lat": 0.0, "lat": 38.91817783333333, "fusion_lon": 0.0, "rental_uris": {"ios": "https://dc.lft.to/lastmile_qr_scan", "android": "https://dc.lft.to/lastmile_qr_scan"}, "lon": -77.0272045, "bike_id": "256c5989b220279c9ed682597bf8bc7d", "type": "electric_scooter", "name": "256c5989b220279c9ed682597bf8bc7d"}, {"is_disabled": 0, "is_reserved": 0, "fusion_lat": 0.0, "lat": 38.891262833333336, "fusion_lon": 0.0, "rental_uris": {"ios": "https://dc.lft.to/lastmile_qr_scan", "android": "https://dc.lft.to/lastmile_qr_scan"}, "lon": -76.99941116666666, "bike_id": "2f5213690aaaac5d45730a786b9ccfd5", "type": "electric_scooter", "name": "2f5213690aaaac5d45730a786b9ccfd5"}, {"is_disabled": 0, "is_reserved": 0, "fusion_lat": 0.0, "lat": 38.90596083333333, "fusion_lon": 0.0, "rental_uris": {"ios": "https://dc.lft.to/lastmile_qr_scan", "android": "https://dc.lft.to/lastmile_qr_scan"}, "lon": -77.06739483333334, "bike_id": "8ce98d94e5bb93ba33ea139c9d68e6bc", "type": "electric_scooter", "name": "8ce98d94e5bb93ba33ea139c9d68e6bc"}, {"is_disabled": 0, "is_reserved": 0, "fusion_lat": 0.0, "lat": 38.90903483333334, "fusion_lon": 0.0, "rental_uris": {"ios": "https://dc.lft.to/lastmile_qr_scan", "android": "https://dc.lft.to/lastmile_qr_scan"}, "lon": -77.03519316666667, "bike_id": "0c19149bcc88624786ede9a020a84538", "type": "electric_scooter", "name": "0c19149bcc88624786ede9a020a84538"}, {"is_disabled": 0, "is_reserved": 0, "fusion_lat": 0.0, "lat": 38.912986833333335, "fusion_lon": 0.0, "rental_uris": {"ios": "https://dc.lft.to/lastmile_qr_scan", "android": "https://dc.lft.to/lastmile_qr_scan"}, "lon": -77.0433445, "bike_id": "4764d29b3427ee6e7e5496d8c25d2829", "type": "electric_scooter", "name": "4764d29b3427ee6e7e5496d8c25d2829"}, {"is_disabled": 0, "is_reserved": 0, "fusion_lat": 0.0, "lat": 38.8647025, "fusion_lon": 0.0, "rental_uris": {"ios": "https://dc.lft.to/lastmile_qr_scan", "android": "https://dc.lft.to/lastmile_qr_scan"}, "lon": -76.977562, "bike_id": "b841a5e773bc28d65624b6f9e6057261", "type": "electric_scooter", "name": "b841a5e773bc28d65624b6f9e6057261"}, {"is_disabled": 0, "is_reserved": 0, "fusion_lat": 0.0, "lat": 38.931459, "fusion_lon": 0.0, "rental_uris": {"ios": "https://dc.lft.to/lastmile_qr_scan", "android": "https://dc.lft.to/lastmile_qr_scan"}, "lon": -77.0569585, "bike_id": "08d67d77e0e10ce9a2c116f58c54aed0", "type": "electric_scooter", "name": "08d67d77e0e10ce9a2c116f58c54aed0"}, {"is_disabled": 0, "is_reserved": 0, "fusion_lat": 0.0, "lat": 38.831585833333335, "fusion_lon": 0.0, "rental_uris": {"ios": "https://dc.lft.to/lastmile_qr_scan", "android": "https://dc.lft.to/lastmile_qr_scan"}, "lon": -76.995476, "bike_id": "2776edc43c815d49a507a7beb73b67ff", "type": "electric_bike", "name": "2776edc43c815d49a507a7beb73b67ff"}, {"is_disabled": 0, "is_reserved": 0, "fusion_lat": 0.0, "lat": 38.876403833333335, "fusion_lon": 0.0, "rental_uris": {"ios": "https://dc.lft.to/lastmile_qr_scan", "android": "https://dc.lft.to/lastmile_qr_scan"}, "lon": -76.9929575, "bike_id": "453057c6aa4754794833f7ba200d032a", "type": "electric_scooter", "name": "453057c6aa4754794833f7ba200d032a"}, {"is_disabled": 0, "is_reserved": 0, "fusion_lat": 0.0, "lat": 38.9064115, "fusion_lon": 0.0, "rental_uris": {"ios": "https://dc.lft.to/lastmile_qr_scan", "android": "https://dc.lft.to/lastmile_qr_scan"}, "lon": -77.0690595, "bike_id": "910a0fb466513c8af5b2f0911fe785e5", "type": "electric_scooter", "name": "910a0fb466513c8af5b2f0911fe785e5"}, {"is_disabled": 0, "is_reserved": 0, "fusion_lat": 0.0, "lat": 38.92036816666667, "fusion_lon": 0.0, "rental_uris": {"ios": "https://dc.lft.to/lastmile_qr_scan", "android": "https://dc.lft.to/lastmile_qr_scan"}, "lon": -76.979528, "bike_id": "3e2fae7b7a3e318e263862d5c1986192", "type": "electric_bike", "name": "3e2fae7b7a3e318e263862d5c1986192"}, {"is_disabled": 0, "is_reserved": 0, "fusion_lat": 0.0, "lat": 38.939698166666666, "fusion_lon": 0.0, "rental_uris": {"ios": "https://dc.lft.to/lastmile_qr_scan", "android": "https://dc.lft.to/lastmile_qr_scan"}, "lon": -77.03425816666666, "bike_id": "0e4c4e534ea751365601a4e00fd705b6", "type": "electric_scooter", "name": "0e4c4e534ea751365601a4e00fd705b6"}, {"is_disabled": 0, "is_reserved": 0, "fusion_lat": 0.0, "lat": 38.926758166666666, "fusion_lon": 0.0, "rental_uris": {"ios": "https://dc.lft.to/lastmile_qr_scan", "android": "https://dc.lft.to/lastmile_qr_scan"}, "lon": -77.0380435, "bike_id": "f37fefa32b3855f934f263a6ff003196", "type": "electric_scooter", "name": "f37fefa32b3855f934f263a6ff003196"}, {"is_disabled": 0, "is_reserved": 0, "fusion_lat": 0.0, "lat": 38.91336833333333, "fusion_lon": 0.0, "rental_uris": {"ios": "https://dc.lft.to/lastmile_qr_scan", "android": "https://dc.lft.to/lastmile_qr_scan"}, "lon": -77.0432605, "bike_id": "3635013b0d660e842d31ed7a1eb292d6", "type": "electric_scooter", "name": "3635013b0d660e842d31ed7a1eb292d6"}, {"is_disabled": 0, "is_reserved": 0, "fusion_lat": 0.0, "lat": 39.003758166666664, "fusion_lon": 0.0, "rental_uris": {"ios": "https://dc.lft.to/lastmile_qr_scan", "android": "https://dc.lft.to/lastmile_qr_scan"}, "lon": -77.01288016666666, "bike_id": "7e9f32c6b48c27266a41dd5bf04b9693", "type": "electric_bike", "name": "7e9f32c6b48c27266a41dd5bf04b9693"}, {"is_disabled": 0, "is_reserved": 0, "fusion_lat": 0.0, "lat": 38.931169, "fusion_lon": 0.0, "rental_uris": {"ios": "https://dc.lft.to/lastmile_qr_scan", "android": "https://dc.lft.to/lastmile_qr_scan"}, "lon": -77.0302995, "bike_id": "bea9ffb988c3c84959cd50f508899c72", "type": "electric_scooter", "name": "bea9ffb988c3c84959cd50f508899c72"}, {"is_disabled": 0, "is_reserved": 0, "fusion_lat": 0.0, "lat": 38.89229066666667, "fusion_lon": 0.0, "rental_uris": {"ios": "https://dc.lft.to/lastmile_qr_scan", "android": "https://dc.lft.to/lastmile_qr_scan"}, "lon": -77.0500505, "bike_id": "8cce7c5f62eba8308b0a21d339036fd1", "type": "electric_scooter", "name": "8cce7c5f62eba8308b0a21d339036fd1"}, {"is_disabled": 0, "is_reserved": 0, "fusion_lat": 0.0, "lat": 38.9257285, "fusion_lon": 0.0, "rental_uris": {"ios": "https://dc.lft.to/lastmile_qr_scan", "android": "https://dc.lft.to/lastmile_qr_scan"}, "lon": -76.99496966666666, "bike_id": "cf7c78b148671cca2d36784705186e8e", "type": "electric_scooter", "name": "cf7c78b148671cca2d36784705186e8e"}, {"is_disabled": 0, "is_reserved": 0, "fusion_lat": 0.0, "lat": 38.928897166666665, "fusion_lon": 0.0, "rental_uris": {"ios": "https://dc.lft.to/lastmile_qr_scan", "android": "https://dc.lft.to/lastmile_qr_scan"}, "lon": -77.032325, "bike_id": "bea661c40d9d9011eeb8c2da761c74e3", "type": "electric_scooter", "name": "bea661c40d9d9011eeb8c2da761c74e3"}, {"is_disabled": 0, "is_reserved": 0, "fusion_lat": 0.0, "lat": 38.9167615, "fusion_lon": 0.0, "rental_uris": {"ios": "https://dc.lft.to/lastmile_qr_scan", "android": "https://dc.lft.to/lastmile_qr_scan"}, "lon": -77.09568816666666, "bike_id": "68a243f2a4533fd32c2f5bfd866a825c", "type": "electric_scooter", "name": "68a243f2a4533fd32c2f5bfd866a825c"}, {"is_disabled": 0, "is_reserved": 0, "fusion_lat": 0.0, "lat": 38.896733, "fusion_lon": 0.0, "rental_uris": {"ios": "https://dc.lft.to/lastmile_qr_scan", "android": "https://dc.lft.to/lastmile_qr_scan"}, "lon": -76.94912683333334, "bike_id": "e322d7f5bafe14a8a08cd72b83b0388b", "type": "electric_scooter", "name": "e322d7f5bafe14a8a08cd72b83b0388b"}, {"is_disabled": 0, "is_reserved": 0, "fusion_lat": 0.0, "lat": 38.903597166666664, "fusion_lon": 0.0, "rental_uris": {"ios": "https://dc.lft.to/lastmile_qr_scan", "android": "https://dc.lft.to/lastmile_qr_scan"}, "lon": -77.01673483333333, "bike_id": "b0a21795678d3cb2f90aebeb151c30ca", "type": "electric_scooter", "name": "b0a21795678d3cb2f90aebeb151c30ca"}, {"is_disabled": 0, "is_reserved": 0, "fusion_lat": 0.0, "lat": 38.9117595, "fusion_lon": 0.0, "rental_uris": {"ios": "https://dc.lft.to/lastmile_qr_scan", "android": "https://dc.lft.to/lastmile_qr_scan"}, "lon": -77.00450533333333, "bike_id": "0f7005ca1c9c11fe3a99d2f1ee16d240", "type": "electric_scooter", "name": "0f7005ca1c9c11fe3a99d2f1ee16d240"}, {"is_disabled": 0, "is_reserved": 0, "fusion_lat": 0.0, "lat": 38.903618333333334, "fusion_lon": 0.0, "rental_uris": {"ios": "https://dc.lft.to/lastmile_qr_scan", "android": "https://dc.lft.to/lastmile_qr_scan"}, "lon": -77.00343033333333, "bike_id": "de1a21501f305ec21c9ebc63b020c296", "type": "electric_scooter", "name": "de1a21501f305ec21c9ebc63b020c296"}, {"is_disabled": 0, "is_reserved": 0, "fusion_lat": 0.0, "lat": 38.91786066666667, "fusion_lon": 0.0, "rental_uris": {"ios": "https://dc.lft.to/lastmile_qr_scan", "android": "https://dc.lft.to/lastmile_qr_scan"}, "lon": -77.03443066666667, "bike_id": "da641d5e3d85a0d64eda3f1856d5d8ca", "type": "electric_scooter", "name": "da641d5e3d85a0d64eda3f1856d5d8ca"}, {"is_disabled": 0, "is_reserved": 0, "fusion_lat": 0.0, "lat": 38.934039166666665, "fusion_lon": 0.0, "rental_uris": {"ios": "https://dc.lft.to/lastmile_qr_scan", "android": "https://dc.lft.to/lastmile_qr_scan"}, "lon": -77.0352065, "bike_id": "20ad9169940e536f9365c9b16a4574ea", "type": "electric_scooter", "name": "20ad9169940e536f9365c9b16a4574ea"}, {"is_disabled": 0, "is_reserved": 0, "fusion_lat": 0.0, "lat": 38.91840633333333, "fusion_lon": 0.0, "rental_uris": {"ios": "https://dc.lft.to/lastmile_qr_scan", "android": "https://dc.lft.to/lastmile_qr_scan"}, "lon": -77.0230705, "bike_id": "d37e15663a7defac8c355fb41be43b84", "type": "electric_scooter", "name": "d37e15663a7defac8c355fb41be43b84"}, {"is_disabled": 0, "is_reserved": 0, "fusion_lat": 0.0, "lat": 38.90553766666667, "fusion_lon": 0.0, "rental_uris": {"ios": "https://dc.lft.to/lastmile_qr_scan", "android": "https://dc.lft.to/lastmile_qr_scan"}, "lon": -77.02600166666667, "bike_id": "04e032462b7cb19d1542e2595f5aa2a9", "type": "electric_scooter", "name": "04e032462b7cb19d1542e2595f5aa2a9"}, {"is_disabled": 0, "is_reserved": 0, "fusion_lat": 0.0, "lat": 38.900903166666666, "fusion_lon": 0.0, "rental_uris": {"ios": "https://dc.lft.to/lastmile_qr_scan", "android": "https://dc.lft.to/lastmile_qr_scan"}, "lon": -77.050344, "bike_id": "3f7974db098b912e35143a28bd5ad229", "type": "electric_scooter", "name": "3f7974db098b912e35143a28bd5ad229"}, {"is_disabled": 0, "is_reserved": 0, "fusion_lat": 0.0, "lat": 38.9339985, "fusion_lon": 0.0, "rental_uris": {"ios": "https://dc.lft.to/lastmile_qr_scan", "android": "https://dc.lft.to/lastmile_qr_scan"}, "lon": -77.02619516666667, "bike_id": "25377e3e713f6eea0f4e9925ebbf797c", "type": "electric_scooter", "name": "25377e3e713f6eea0f4e9925ebbf797c"}, {"is_disabled": 0, "is_reserved": 0, "fusion_lat": 0.0, "lat": 38.93209, "fusion_lon": 0.0, "rental_uris": {"ios": "https://dc.lft.to/lastmile_qr_scan", "android": "https://dc.lft.to/lastmile_qr_scan"}, "lon": -77.022868, "bike_id": "77fe61b09389976dc6cc4e66dbbf864e", "type": "electric_scooter", "name": "77fe61b09389976dc6cc4e66dbbf864e"}, {"is_disabled": 0, "is_reserved": 0, "fusion_lat": 0.0, "lat": 38.920544166666666, "fusion_lon": 0.0, "rental_uris": {"ios": "https://dc.lft.to/lastmile_qr_scan", "android": "https://dc.lft.to/lastmile_qr_scan"}, "lon": -77.02429833333333, "bike_id": "64f11bc7a02850d3d294c45bae98903a", "type": "electric_scooter", "name": "64f11bc7a02850d3d294c45bae98903a"}, {"is_disabled": 0, "is_reserved": 0, "fusion_lat": 0.0, "lat": 38.930683, "fusion_lon": 0.0, "rental_uris": {"ios": "https://dc.lft.to/lastmile_qr_scan", "android": "https://dc.lft.to/lastmile_qr_scan"}, "lon": -77.03192283333334, "bike_id": "e141f0b262a9d6ac55e0bd5c7b1a3c6d", "type": "electric_scooter", "name": "e141f0b262a9d6ac55e0bd5c7b1a3c6d"}, {"is_disabled": 0, "is_reserved": 0, "fusion_lat": 0.0, "lat": 38.90229433333333, "fusion_lon": 0.0, "rental_uris": {"ios": "https://dc.lft.to/lastmile_qr_scan", "android": "https://dc.lft.to/lastmile_qr_scan"}, "lon": -77.060655, "bike_id": "5c3ab3be4d6ec7e013d6325619f004c6", "type": "electric_scooter", "name": "5c3ab3be4d6ec7e013d6325619f004c6"}, {"is_disabled": 0, "is_reserved": 0, "fusion_lat": 0.0, "lat": 38.92532116666667, "fusion_lon": 0.0, "rental_uris": {"ios": "https://dc.lft.to/lastmile_qr_scan", "android": "https://dc.lft.to/lastmile_qr_scan"}, "lon": -77.02622333333333, "bike_id": "821902a03632676b4f0bfd83a67ed66f", "type": "electric_bike", "name": "821902a03632676b4f0bfd83a67ed66f"}, {"is_disabled": 0, "is_reserved": 0, "fusion_lat": 0.0, "lat": 38.80483233333333, "fusion_lon": 0.0, "rental_uris": {"ios": "https://dc.lft.to/lastmile_qr_scan", "android": "https://dc.lft.to/lastmile_qr_scan"}, "lon": -76.99107833333333, "bike_id": "bd62f3227cde86cd285761d5fadfd84d", "type": "electric_bike", "name": "bd62f3227cde86cd285761d5fadfd84d"}, {"is_disabled": 0, "is_reserved": 0, "fusion_lat": 0.0, "lat": 38.917378, "fusion_lon": 0.0, "rental_uris": {"ios": "https://dc.lft.to/lastmile_qr_scan", "android": "https://dc.lft.to/lastmile_qr_scan"}, "lon": -77.0688995, "bike_id": "274f80a43cfd2c53ec738d62d08f726b", "type": "electric_scooter", "name": "274f80a43cfd2c53ec738d62d08f726b"}, {"is_disabled": 0, "is_reserved": 0, "fusion_lat": 0.0, "lat": 39.000983833333336, "fusion_lon": 0.0, "rental_uris": {"ios": "https://dc.lft.to/lastmile_qr_scan", "android": "https://dc.lft.to/lastmile_qr_scan"}, "lon": -76.90984916666666, "bike_id": "a5512976ad13e31178d8290d2c596c7e", "type": "electric_bike", "name": "a5512976ad13e31178d8290d2c596c7e"}, {"is_disabled": 0, "is_reserved": 0, "fusion_lat": 0.0, "lat": 38.915585666666665, "fusion_lon": 0.0, "rental_uris": {"ios": "https://dc.lft.to/lastmile_qr_scan", "android": "https://dc.lft.to/lastmile_qr_scan"}, "lon": -77.02333466666667, "bike_id": "34d31f12461d4e1908a782fd8a3ea6dc", "type": "electric_scooter", "name": "34d31f12461d4e1908a782fd8a3ea6dc"}, {"is_disabled": 0, "is_reserved": 0, "fusion_lat": 0.0, "lat": 38.89243966666667, "fusion_lon": 0.0, "rental_uris": {"ios": "https://dc.lft.to/lastmile_qr_scan", "android": "https://dc.lft.to/lastmile_qr_scan"}, "lon": -77.03956233333334, "bike_id": "a1f141a1414a789ce30ee7d85d32d232", "type": "electric_scooter", "name": "a1f141a1414a789ce30ee7d85d32d232"}, {"is_disabled": 0, "is_reserved": 0, "fusion_lat": 0.0, "lat": 38.855939166666666, "fusion_lon": 0.0, "rental_uris": {"ios": "https://dc.lft.to/lastmile_qr_scan", "android": "https://dc.lft.to/lastmile_qr_scan"}, "lon": -76.97284283333333, "bike_id": "7457a52bab517b541df1af24fd18380a", "type": "electric_bike", "name": "7457a52bab517b541df1af24fd18380a"}, {"is_disabled": 0, "is_reserved": 0, "fusion_lat": 0.0, "lat": 38.90796233333333, "fusion_lon": 0.0, "rental_uris": {"ios": "https://dc.lft.to/lastmile_qr_scan", "android": "https://dc.lft.to/lastmile_qr_scan"}, "lon": -77.03842966666667, "bike_id": "16317372115809e893aa268806bc3640", "type": "electric_scooter", "name": "16317372115809e893aa268806bc3640"}, {"is_disabled": 0, "is_reserved": 0, "fusion_lat": 0.0, "lat": 38.930555, "fusion_lon": 0.0, "rental_uris": {"ios": "https://dc.lft.to/lastmile_qr_scan", "android": "https://dc.lft.to/lastmile_qr_scan"}, "lon": -77.026577, "bike_id": "fe8e59e67f65841ea6f053d8da2986b8", "type": "electric_scooter", "name": "fe8e59e67f65841ea6f053d8da2986b8"}, {"is_disabled": 0, "is_reserved": 0, "fusion_lat": 0.0, "lat": 38.91814433333333, "fusion_lon": 0.0, "rental_uris": {"ios": "https://dc.lft.to/lastmile_qr_scan", "android": "https://dc.lft.to/lastmile_qr_scan"}, "lon": -77.02527033333334, "bike_id": "2152c4df52f58d4be78492a1179d7bfb", "type": "electric_scooter", "name": "2152c4df52f58d4be78492a1179d7bfb"}, {"is_disabled": 0, "is_reserved": 0, "fusion_lat": 0.0, "lat": 39.0744835, "fusion_lon": 0.0, "rental_uris": {"ios": "https://dc.lft.to/lastmile_qr_scan", "android": "https://dc.lft.to/lastmile_qr_scan"}, "lon": -77.11523433333333, "bike_id": "6adc4a2040435bfa4367314ce450d4cc", "type": "electric_bike", "name": "6adc4a2040435bfa4367314ce450d4cc"}, {"is_disabled": 0, "is_reserved": 0, "fusion_lat": 0.0, "lat": 38.91802083333333, "fusion_lon": 0.0, "rental_uris": {"ios": "https://dc.lft.to/lastmile_qr_scan", "android": "https://dc.lft.to/lastmile_qr_scan"}, "lon": -77.03441833333333, "bike_id": "2d98b4b759d052f4075a3b9967566991", "type": "electric_scooter", "name": "2d98b4b759d052f4075a3b9967566991"}, {"is_disabled": 0, "is_reserved": 0, "fusion_lat": 0.0, "lat": 38.906517, "fusion_lon": 0.0, "rental_uris": {"ios": "https://dc.lft.to/lastmile_qr_scan", "android": "https://dc.lft.to/lastmile_qr_scan"}, "lon": -77.01175966666666, "bike_id": "b1a9521b7c8d10b7a0be8e073c7a68e2", "type": "electric_scooter", "name": "b1a9521b7c8d10b7a0be8e073c7a68e2"}, {"is_disabled": 0, "is_reserved": 0, "fusion_lat": 0.0, "lat": 38.92032116666667, "fusion_lon": 0.0, "rental_uris": {"ios": "https://dc.lft.to/lastmile_qr_scan", "android": "https://dc.lft.to/lastmile_qr_scan"}, "lon": -77.01115466666667, "bike_id": "08955f405bfa0b07a28ef30d34fb0007", "type": "electric_scooter", "name": "08955f405bfa0b07a28ef30d34fb0007"}, {"is_disabled": 0, "is_reserved": 0, "fusion_lat": 0.0, "lat": 38.8040195, "fusion_lon": 0.0, "rental_uris": {"ios": "https://dc.lft.to/lastmile_qr_scan", "android": "https://dc.lft.to/lastmile_qr_scan"}, "lon": -77.11339933333333, "bike_id": "a603547efcba93c4a79edcc305e79a25", "type": "electric_bike", "name": "a603547efcba93c4a79edcc305e79a25"}, {"is_disabled": 0, "is_reserved": 0, "fusion_lat": 0.0, "lat": 38.96162233333333, "fusion_lon": 0.0, "rental_uris": {"ios": "https://dc.lft.to/lastmile_qr_scan", "android": "https://dc.lft.to/lastmile_qr_scan"}, "lon": -77.02783416666666, "bike_id": "5a8ee0630b2af1e6909cb3e0878b0e1f", "type": "electric_scooter", "name": "5a8ee0630b2af1e6909cb3e0878b0e1f"}, {"is_disabled": 0, "is_reserved": 0, "fusion_lat": 0.0, "lat": 38.932674666666664, "fusion_lon": 0.0, "rental_uris": {"ios": "https://dc.lft.to/lastmile_qr_scan", "android": "https://dc.lft.to/lastmile_qr_scan"}, "lon": -77.02096283333333, "bike_id": "1fc183f86dabbeea5247e153c1aef135", "type": "electric_scooter", "name": "1fc183f86dabbeea5247e153c1aef135"}, {"is_disabled": 0, "is_reserved": 0, "fusion_lat": 0.0, "lat": 38.9414185, "fusion_lon": 0.0, "rental_uris": {"ios": "https://dc.lft.to/lastmile_qr_scan", "android": "https://dc.lft.to/lastmile_qr_scan"}, "lon": -77.02325066666667, "bike_id": "4faf10ec5820d27294137aa5e5d915c9", "type": "electric_scooter", "name": "4faf10ec5820d27294137aa5e5d915c9"}, {"is_disabled": 0, "is_reserved": 0, "fusion_lat": 0.0, "lat": 38.92485083333333, "fusion_lon": 0.0, "rental_uris": {"ios": "https://dc.lft.to/lastmile_qr_scan", "android": "https://dc.lft.to/lastmile_qr_scan"}, "lon": -77.026612, "bike_id": "795a4a4557c00727ed706c732ffebd72", "type": "electric_scooter", "name": "795a4a4557c00727ed706c732ffebd72"}, {"is_disabled": 0, "is_reserved": 0, "fusion_lat": 0.0, "lat": 38.922125666666666, "fusion_lon": 0.0, "rental_uris": {"ios": "https://dc.lft.to/lastmile_qr_scan", "android": "https://dc.lft.to/lastmile_qr_scan"}, "lon": -77.03778416666667, "bike_id": "1d2688e1f59a62ab645388a9a1c8872f", "type": "electric_scooter", "name": "1d2688e1f59a62ab645388a9a1c8872f"}, {"is_disabled": 0, "is_reserved": 0, "fusion_lat": 0.0, "lat": 38.928159, "fusion_lon": 0.0, "rental_uris": {"ios": "https://dc.lft.to/lastmile_qr_scan", "android": "https://dc.lft.to/lastmile_qr_scan"}, "lon": -77.0435605, "bike_id": "87349fcbcb48ffff0cefe73bda2e63b8", "type": "electric_scooter", "name": "87349fcbcb48ffff0cefe73bda2e63b8"}, {"is_disabled": 0, "is_reserved": 0, "fusion_lat": 0.0, "lat": 38.93533766666667, "fusion_lon": 0.0, "rental_uris": {"ios": "https://dc.lft.to/lastmile_qr_scan", "android": "https://dc.lft.to/lastmile_qr_scan"}, "lon": -77.02349833333334, "bike_id": "5b8dc94ddaec58510d75917f9e101951", "type": "electric_scooter", "name": "5b8dc94ddaec58510d75917f9e101951"}, {"is_disabled": 0, "is_reserved": 0, "fusion_lat": 0.0, "lat": 38.900767, "fusion_lon": 0.0, "rental_uris": {"ios": "https://dc.lft.to/lastmile_qr_scan", "android": "https://dc.lft.to/lastmile_qr_scan"}, "lon": -77.01874916666667, "bike_id": "58f9d85322570cc35b180088f897b0e7", "type": "electric_scooter", "name": "58f9d85322570cc35b180088f897b0e7"}, {"is_disabled": 0, "is_reserved": 0, "fusion_lat": 0.0, "lat": 38.92842866666667, "fusion_lon": 0.0, "rental_uris": {"ios": "https://dc.lft.to/lastmile_qr_scan", "android": "https://dc.lft.to/lastmile_qr_scan"}, "lon": -77.03625933333333, "bike_id": "573230fb97ae208c9afa74a8fa1281ab", "type": "electric_scooter", "name": "573230fb97ae208c9afa74a8fa1281ab"}, {"is_disabled": 0, "is_reserved": 0, "fusion_lat": 0.0, "lat": 38.941400333333334, "fusion_lon": 0.0, "rental_uris": {"ios": "https://dc.lft.to/lastmile_qr_scan", "android": "https://dc.lft.to/lastmile_qr_scan"}, "lon": -77.02323183333333, "bike_id": "e8a39daebcfb589d507d52954ee5b01b", "type": "electric_scooter", "name": "e8a39daebcfb589d507d52954ee5b01b"}, {"is_disabled": 0, "is_reserved": 0, "fusion_lat": 0.0, "lat": 38.942578166666664, "fusion_lon": 0.0, "rental_uris": {"ios": "https://dc.lft.to/lastmile_qr_scan", "android": "https://dc.lft.to/lastmile_qr_scan"}, "lon": -76.984577, "bike_id": "1d8de7c7bfc69c896af11e7dd3d47d95", "type": "electric_scooter", "name": "1d8de7c7bfc69c896af11e7dd3d47d95"}, {"is_disabled": 0, "is_reserved": 0, "fusion_lat": 0.0, "lat": 38.883576, "fusion_lon": 0.0, "rental_uris": {"ios": "https://dc.lft.to/lastmile_qr_scan", "android": "https://dc.lft.to/lastmile_qr_scan"}, "lon": -76.957686, "bike_id": "f0275e0a73103476433059d2b483895d", "type": "electric_scooter", "name": "f0275e0a73103476433059d2b483895d"}, {"is_disabled": 0, "is_reserved": 0, "fusion_lat": 0.0, "lat": 38.89662783333333, "fusion_lon": 0.0, "rental_uris": {"ios": "https://dc.lft.to/lastmile_qr_scan", "android": "https://dc.lft.to/lastmile_qr_scan"}, "lon": -77.051221, "bike_id": "4868c3fd83d2f46715c6bcfbbef44b97", "type": "electric_scooter", "name": "4868c3fd83d2f46715c6bcfbbef44b97"}, {"is_disabled": 0, "is_reserved": 0, "fusion_lat": 0.0, "lat": 38.88623316666666, "fusion_lon": 0.0, "rental_uris": {"ios": "https://dc.lft.to/lastmile_qr_scan", "android": "https://dc.lft.to/lastmile_qr_scan"}, "lon": -76.99021633333334, "bike_id": "80a329809bd84d9394889bf4000e9660", "type": "electric_bike", "name": "80a329809bd84d9394889bf4000e9660"}, {"is_disabled": 0, "is_reserved": 0, "fusion_lat": 0.0, "lat": 38.947178, "fusion_lon": 0.0, "rental_uris": {"ios": "https://dc.lft.to/lastmile_qr_scan", "android": "https://dc.lft.to/lastmile_qr_scan"}, "lon": -77.06800166666666, "bike_id": "7d49a7598d5400e88e799415e8b3a4ca", "type": "electric_scooter", "name": "7d49a7598d5400e88e799415e8b3a4ca"}, {"is_disabled": 0, "is_reserved": 0, "fusion_lat": 0.0, "lat": 38.906956666666666, "fusion_lon": 0.0, "rental_uris": {"ios": "https://dc.lft.to/lastmile_qr_scan", "android": "https://dc.lft.to/lastmile_qr_scan"}, "lon": -76.9525415, "bike_id": "31b9a4ca44dd60bf9992318270cd2676", "type": "electric_bike", "name": "31b9a4ca44dd60bf9992318270cd2676"}, {"is_disabled": 0, "is_reserved": 0, "fusion_lat": 0.0, "lat": 38.892373, "fusion_lon": 0.0, "rental_uris": {"ios": "https://dc.lft.to/lastmile_qr_scan", "android": "https://dc.lft.to/lastmile_qr_scan"}, "lon": -77.04995983333333, "bike_id": "5a736013afa1f58fb1850086b07a370e", "type": "electric_scooter", "name": "5a736013afa1f58fb1850086b07a370e"}, {"is_disabled": 0, "is_reserved": 0, "fusion_lat": 0.0, "lat": 38.928974333333336, "fusion_lon": 0.0, "rental_uris": {"ios": "https://dc.lft.to/lastmile_qr_scan", "android": "https://dc.lft.to/lastmile_qr_scan"}, "lon": -77.0375125, "bike_id": "5f92361c48097489e5f2a4c2b0dbf5b8", "type": "electric_scooter", "name": "5f92361c48097489e5f2a4c2b0dbf5b8"}, {"is_disabled": 0, "is_reserved": 0, "fusion_lat": 0.0, "lat": 38.911815833333335, "fusion_lon": 0.0, "rental_uris": {"ios": "https://dc.lft.to/lastmile_qr_scan", "android": "https://dc.lft.to/lastmile_qr_scan"}, "lon": -77.00178716666667, "bike_id": "1baceca29cd8cc05c176f72296bc02a7", "type": "electric_scooter", "name": "1baceca29cd8cc05c176f72296bc02a7"}, {"is_disabled": 0, "is_reserved": 0, "fusion_lat": 0.0, "lat": 38.88135783333333, "fusion_lon": 0.0, "rental_uris": {"ios": "https://dc.lft.to/lastmile_qr_scan", "android": "https://dc.lft.to/lastmile_qr_scan"}, "lon": -77.02267733333333, "bike_id": "2d75b3be4b5ce6b6666c43be6abdccac", "type": "electric_scooter", "name": "2d75b3be4b5ce6b6666c43be6abdccac"}, {"is_disabled": 0, "is_reserved": 0, "fusion_lat": 0.0, "lat": 38.88451166666667, "fusion_lon": 0.0, "rental_uris": {"ios": "https://dc.lft.to/lastmile_qr_scan", "android": "https://dc.lft.to/lastmile_qr_scan"}, "lon": -76.95096333333333, "bike_id": "c2928fd713d0fd835a322f755de3f584", "type": "electric_scooter", "name": "c2928fd713d0fd835a322f755de3f584"}, {"is_disabled": 0, "is_reserved": 0, "fusion_lat": 0.0, "lat": 38.94923266666667, "fusion_lon": 0.0, "rental_uris": {"ios": "https://dc.lft.to/lastmile_qr_scan", "android": "https://dc.lft.to/lastmile_qr_scan"}, "lon": -77.00798866666666, "bike_id": "7f0f00387417a92fac0454be07c7a8b2", "type": "electric_bike", "name": "7f0f00387417a92fac0454be07c7a8b2"}, {"is_disabled": 0, "is_reserved": 0, "fusion_lat": 0.0, "lat": 38.81330416666667, "fusion_lon": 0.0, "rental_uris": {"ios": "https://dc.lft.to/lastmile_qr_scan", "android": "https://dc.lft.to/lastmile_qr_scan"}, "lon": -77.050876, "bike_id": "44603d31d5b99e588dcf6db2507efe6f", "type": "electric_bike", "name": "44603d31d5b99e588dcf6db2507efe6f"}, {"is_disabled": 0, "is_reserved": 0, "fusion_lat": 0.0, "lat": 38.89848833333333, "fusion_lon": 0.0, "rental_uris": {"ios": "https://dc.lft.to/lastmile_qr_scan", "android": "https://dc.lft.to/lastmile_qr_scan"}, "lon": -77.02879733333333, "bike_id": "b89dd394db60ddd8a3242ebef1d6d636", "type": "electric_scooter", "name": "b89dd394db60ddd8a3242ebef1d6d636"}, {"is_disabled": 0, "is_reserved": 0, "fusion_lat": 0.0, "lat": 38.90437383333333, "fusion_lon": 0.0, "rental_uris": {"ios": "https://dc.lft.to/lastmile_qr_scan", "android": "https://dc.lft.to/lastmile_qr_scan"}, "lon": -77.04841066666667, "bike_id": "db54fce27b4cd29126dddc9eaa93576b", "type": "electric_scooter", "name": "db54fce27b4cd29126dddc9eaa93576b"}, {"is_disabled": 0, "is_reserved": 0, "fusion_lat": 0.0, "lat": 38.9288045, "fusion_lon": 0.0, "rental_uris": {"ios": "https://dc.lft.to/lastmile_qr_scan", "android": "https://dc.lft.to/lastmile_qr_scan"}, "lon": -77.03415366666667, "bike_id": "58ef460ec588329b4bfc6d1ceac8b612", "type": "electric_scooter", "name": "58ef460ec588329b4bfc6d1ceac8b612"}, {"is_disabled": 0, "is_reserved": 0, "fusion_lat": 0.0, "lat": 38.9497785, "fusion_lon": 0.0, "rental_uris": {"ios": "https://dc.lft.to/lastmile_qr_scan", "android": "https://dc.lft.to/lastmile_qr_scan"}, "lon": -77.02446133333333, "bike_id": "483e41a220c9e61419a576fb35a4d188", "type": "electric_scooter", "name": "483e41a220c9e61419a576fb35a4d188"}, {"is_disabled": 0, "is_reserved": 0, "fusion_lat": 0.0, "lat": 38.95345016666667, "fusion_lon": 0.0, "rental_uris": {"ios": "https://dc.lft.to/lastmile_qr_scan", "android": "https://dc.lft.to/lastmile_qr_scan"}, "lon": -77.08162283333333, "bike_id": "6ab70d5f1eca93d3822ec823db8d98b9", "type": "electric_scooter", "name": "6ab70d5f1eca93d3822ec823db8d98b9"}, {"is_disabled": 0, "is_reserved": 0, "fusion_lat": 0.0, "lat": 38.899643, "fusion_lon": 0.0, "rental_uris": {"ios": "https://dc.lft.to/lastmile_qr_scan", "android": "https://dc.lft.to/lastmile_qr_scan"}, "lon": -76.92620633333334, "bike_id": "53a5a3499a79f12ee35ebfa357c9ea7a", "type": "electric_scooter", "name": "53a5a3499a79f12ee35ebfa357c9ea7a"}, {"is_disabled": 0, "is_reserved": 0, "fusion_lat": 0.0, "lat": 38.92190216666667, "fusion_lon": 0.0, "rental_uris": {"ios": "https://dc.lft.to/lastmile_qr_scan", "android": "https://dc.lft.to/lastmile_qr_scan"}, "lon": -77.04028733333334, "bike_id": "3174d4532549b729f180fecc3540abda", "type": "electric_scooter", "name": "3174d4532549b729f180fecc3540abda"}, {"is_disabled": 0, "is_reserved": 0, "fusion_lat": 0.0, "lat": 38.894645, "fusion_lon": 0.0, "rental_uris": {"ios": "https://dc.lft.to/lastmile_qr_scan", "android": "https://dc.lft.to/lastmile_qr_scan"}, "lon": -77.00233333333334, "bike_id": "1db70c5858e02d37c84a5b5c3a7596a8", "type": "electric_scooter", "name": "1db70c5858e02d37c84a5b5c3a7596a8"}, {"is_disabled": 0, "is_reserved": 0, "fusion_lat": 0.0, "lat": 39.08475633333333, "fusion_lon": 0.0, "rental_uris": {"ios": "https://dc.lft.to/lastmile_qr_scan", "android": "https://dc.lft.to/lastmile_qr_scan"}, "lon": -76.950702, "bike_id": "480ac1e70a0f163d4b9794f1e4e5531b", "type": "electric_bike", "name": "480ac1e70a0f163d4b9794f1e4e5531b"}, {"is_disabled": 0, "is_reserved": 0, "fusion_lat": 0.0, "lat": 38.930011666666665, "fusion_lon": 0.0, "rental_uris": {"ios": "https://dc.lft.to/lastmile_qr_scan", "android": "https://dc.lft.to/lastmile_qr_scan"}, "lon": -77.037997, "bike_id": "963c082989b3d86d1da84ce723e8c4bb", "type": "electric_scooter", "name": "963c082989b3d86d1da84ce723e8c4bb"}, {"is_disabled": 0, "is_reserved": 0, "fusion_lat": 0.0, "lat": 38.9066005, "fusion_lon": 0.0, "rental_uris": {"ios": "https://dc.lft.to/lastmile_qr_scan", "android": "https://dc.lft.to/lastmile_qr_scan"}, "lon": -77.01625983333334, "bike_id": "a2cdd8b2da2be68461cb90a8b19d0ea4", "type": "electric_scooter", "name": "a2cdd8b2da2be68461cb90a8b19d0ea4"}, {"is_disabled": 0, "is_reserved": 0, "fusion_lat": 0.0, "lat": 38.88879416666666, "fusion_lon": 0.0, "rental_uris": {"ios": "https://dc.lft.to/lastmile_qr_scan", "android": "https://dc.lft.to/lastmile_qr_scan"}, "lon": -76.9903355, "bike_id": "9d542dc72102cbd324bf9292f5fcd804", "type": "electric_scooter", "name": "9d542dc72102cbd324bf9292f5fcd804"}, {"is_disabled": 0, "is_reserved": 0, "fusion_lat": 0.0, "lat": 38.93275633333333, "fusion_lon": 0.0, "rental_uris": {"ios": "https://dc.lft.to/lastmile_qr_scan", "android": "https://dc.lft.to/lastmile_qr_scan"}, "lon": -77.04141083333333, "bike_id": "810f1fcfbdd2f4e5e09bb73da8d800d4", "type": "electric_scooter", "name": "810f1fcfbdd2f4e5e09bb73da8d800d4"}, {"is_disabled": 0, "is_reserved": 0, "fusion_lat": 0.0, "lat": 39.0251925, "fusion_lon": 0.0, "rental_uris": {"ios": "https://dc.lft.to/lastmile_qr_scan", "android": "https://dc.lft.to/lastmile_qr_scan"}, "lon": -77.01966016666667, "bike_id": "766629780750bc7b3c2d529d749bc09b", "type": "electric_bike", "name": "766629780750bc7b3c2d529d749bc09b"}, {"is_disabled": 0, "is_reserved": 0, "fusion_lat": 0.0, "lat": 38.905704666666665, "fusion_lon": 0.0, "rental_uris": {"ios": "https://dc.lft.to/lastmile_qr_scan", "android": "https://dc.lft.to/lastmile_qr_scan"}, "lon": -77.0071355, "bike_id": "42204048c2018e74e72f45ba3d684d47", "type": "electric_scooter", "name": "42204048c2018e74e72f45ba3d684d47"}, {"is_disabled": 0, "is_reserved": 0, "fusion_lat": 0.0, "lat": 38.9028895, "fusion_lon": 0.0, "rental_uris": {"ios": "https://dc.lft.to/lastmile_qr_scan", "android": "https://dc.lft.to/lastmile_qr_scan"}, "lon": -77.03215533333334, "bike_id": "481551c7215811f12cee0eac97d3da7c", "type": "electric_scooter", "name": "481551c7215811f12cee0eac97d3da7c"}, {"is_disabled": 0, "is_reserved": 0, "fusion_lat": 0.0, "lat": 38.92350616666667, "fusion_lon": 0.0, "rental_uris": {"ios": "https://dc.lft.to/lastmile_qr_scan", "android": "https://dc.lft.to/lastmile_qr_scan"}, "lon": -76.97204116666667, "bike_id": "231c88d9278cb0fcf4ae30c37831c147", "type": "electric_scooter", "name": "231c88d9278cb0fcf4ae30c37831c147"}, {"is_disabled": 0, "is_reserved": 0, "fusion_lat": 0.0, "lat": 38.93660783333333, "fusion_lon": 0.0, "rental_uris": {"ios": "https://dc.lft.to/lastmile_qr_scan", "android": "https://dc.lft.to/lastmile_qr_scan"}, "lon": -77.06607316666667, "bike_id": "f9c317a08ffe7021e244bb6ac102836e", "type": "electric_scooter", "name": "f9c317a08ffe7021e244bb6ac102836e"}, {"is_disabled": 0, "is_reserved": 0, "fusion_lat": 0.0, "lat": 38.895042, "fusion_lon": 0.0, "rental_uris": {"ios": "https://dc.lft.to/lastmile_qr_scan", "android": "https://dc.lft.to/lastmile_qr_scan"}, "lon": -77.02277766666667, "bike_id": "619505488a8aec87b0e52c905b294327", "type": "electric_scooter", "name": "619505488a8aec87b0e52c905b294327"}, {"is_disabled": 0, "is_reserved": 0, "fusion_lat": 0.0, "lat": 38.91709216666667, "fusion_lon": 0.0, "rental_uris": {"ios": "https://dc.lft.to/lastmile_qr_scan", "android": "https://dc.lft.to/lastmile_qr_scan"}, "lon": -77.0286095, "bike_id": "de2d43fac4695e15164dbff0e51f46a3", "type": "electric_scooter", "name": "de2d43fac4695e15164dbff0e51f46a3"}, {"is_disabled": 0, "is_reserved": 0, "fusion_lat": 0.0, "lat": 38.92892716666667, "fusion_lon": 0.0, "rental_uris": {"ios": "https://dc.lft.to/lastmile_qr_scan", "android": "https://dc.lft.to/lastmile_qr_scan"}, "lon": -77.01940133333333, "bike_id": "cb609306aab0afe7ed767314531f88fb", "type": "electric_scooter", "name": "cb609306aab0afe7ed767314531f88fb"}, {"is_disabled": 0, "is_reserved": 0, "fusion_lat": 0.0, "lat": 38.953559166666665, "fusion_lon": 0.0, "rental_uris": {"ios": "https://dc.lft.to/lastmile_qr_scan", "android": "https://dc.lft.to/lastmile_qr_scan"}, "lon": -76.98088583333333, "bike_id": "24fe77ebeb30619d4e2d62a6fb7bd669", "type": "electric_bike", "name": "24fe77ebeb30619d4e2d62a6fb7bd669"}, {"is_disabled": 0, "is_reserved": 0, "fusion_lat": 0.0, "lat": 38.928507333333336, "fusion_lon": 0.0, "rental_uris": {"ios": "https://dc.lft.to/lastmile_qr_scan", "android": "https://dc.lft.to/lastmile_qr_scan"}, "lon": -77.0373365, "bike_id": "e47dcddef9fb5bfad979b86e42e28bd9", "type": "electric_scooter", "name": "e47dcddef9fb5bfad979b86e42e28bd9"}, {"is_disabled": 0, "is_reserved": 0, "fusion_lat": 0.0, "lat": 38.952227666666666, "fusion_lon": 0.0, "rental_uris": {"ios": "https://dc.lft.to/lastmile_qr_scan", "android": "https://dc.lft.to/lastmile_qr_scan"}, "lon": -77.08867666666667, "bike_id": "9186e1d78deb8597fdf8706c020e5178", "type": "electric_scooter", "name": "9186e1d78deb8597fdf8706c020e5178"}, {"is_disabled": 0, "is_reserved": 0, "fusion_lat": 0.0, "lat": 38.925721833333334, "fusion_lon": 0.0, "rental_uris": {"ios": "https://dc.lft.to/lastmile_qr_scan", "android": "https://dc.lft.to/lastmile_qr_scan"}, "lon": -77.031324, "bike_id": "8c6e82fc02be3d5f74055b94e6451c19", "type": "electric_scooter", "name": "8c6e82fc02be3d5f74055b94e6451c19"}, {"is_disabled": 0, "is_reserved": 0, "fusion_lat": 0.0, "lat": 38.943323, "fusion_lon": 0.0, "rental_uris": {"ios": "https://dc.lft.to/lastmile_qr_scan", "android": "https://dc.lft.to/lastmile_qr_scan"}, "lon": -77.0155315, "bike_id": "163732dba1b9681018390666a578cd66", "type": "electric_scooter", "name": "163732dba1b9681018390666a578cd66"}, {"is_disabled": 0, "is_reserved": 0, "fusion_lat": 0.0, "lat": 38.8830125, "fusion_lon": 0.0, "rental_uris": {"ios": "https://dc.lft.to/lastmile_qr_scan", "android": "https://dc.lft.to/lastmile_qr_scan"}, "lon": -76.93485083333333, "bike_id": "30e8129a018f3daf29baab4f4afa8c14", "type": "electric_scooter", "name": "30e8129a018f3daf29baab4f4afa8c14"}, {"is_disabled": 0, "is_reserved": 0, "fusion_lat": 0.0, "lat": 38.892310333333334, "fusion_lon": 0.0, "rental_uris": {"ios": "https://dc.lft.to/lastmile_qr_scan", "android": "https://dc.lft.to/lastmile_qr_scan"}, "lon": -77.032378, "bike_id": "c3f3cad4e1d39bde4a800fb4f6b31612", "type": "electric_scooter", "name": "c3f3cad4e1d39bde4a800fb4f6b31612"}, {"is_disabled": 0, "is_reserved": 0, "fusion_lat": 0.0, "lat": 38.8427765, "fusion_lon": 0.0, "rental_uris": {"ios": "https://dc.lft.to/lastmile_qr_scan", "android": "https://dc.lft.to/lastmile_qr_scan"}, "lon": -76.98839383333333, "bike_id": "81602dea206b20c1895cb96ec77cd7aa", "type": "electric_scooter", "name": "81602dea206b20c1895cb96ec77cd7aa"}, {"is_disabled": 0, "is_reserved": 0, "fusion_lat": 0.0, "lat": 38.920068666666666, "fusion_lon": 0.0, "rental_uris": {"ios": "https://dc.lft.to/lastmile_qr_scan", "android": "https://dc.lft.to/lastmile_qr_scan"}, "lon": -77.03229483333334, "bike_id": "efb349f8e9532978d2ca67e4b82ad0b3", "type": "electric_scooter", "name": "efb349f8e9532978d2ca67e4b82ad0b3"}, {"is_disabled": 0, "is_reserved": 0, "fusion_lat": 0.0, "lat": 38.906872, "fusion_lon": 0.0, "rental_uris": {"ios": "https://dc.lft.to/lastmile_qr_scan", "android": "https://dc.lft.to/lastmile_qr_scan"}, "lon": -77.0628935, "bike_id": "f76a99765973538f28e35cacc618a49b", "type": "electric_scooter", "name": "f76a99765973538f28e35cacc618a49b"}, {"is_disabled": 0, "is_reserved": 0, "fusion_lat": 0.0, "lat": 38.8969575, "fusion_lon": 0.0, "rental_uris": {"ios": "https://dc.lft.to/lastmile_qr_scan", "android": "https://dc.lft.to/lastmile_qr_scan"}, "lon": -77.0487345, "bike_id": "930e09c5d45e57a92219fda54f8987f3", "type": "electric_scooter", "name": "930e09c5d45e57a92219fda54f8987f3"}, {"is_disabled": 0, "is_reserved": 0, "fusion_lat": 0.0, "lat": 38.90639433333333, "fusion_lon": 0.0, "rental_uris": {"ios": "https://dc.lft.to/lastmile_qr_scan", "android": "https://dc.lft.to/lastmile_qr_scan"}, "lon": -77.04548466666667, "bike_id": "c7d2b2a1a2943e7bf611cd60004cd908", "type": "electric_scooter", "name": "c7d2b2a1a2943e7bf611cd60004cd908"}, {"is_disabled": 0, "is_reserved": 0, "fusion_lat": 0.0, "lat": 39.00650233333333, "fusion_lon": 0.0, "rental_uris": {"ios": "https://dc.lft.to/lastmile_qr_scan", "android": "https://dc.lft.to/lastmile_qr_scan"}, "lon": -76.90019233333334, "bike_id": "d550235c836a96e03b5a5e70335d46ac", "type": "electric_bike", "name": "d550235c836a96e03b5a5e70335d46ac"}, {"is_disabled": 0, "is_reserved": 0, "fusion_lat": 0.0, "lat": 38.901515333333336, "fusion_lon": 0.0, "rental_uris": {"ios": "https://dc.lft.to/lastmile_qr_scan", "android": "https://dc.lft.to/lastmile_qr_scan"}, "lon": -76.92985583333333, "bike_id": "b02fad6f9cc0f92acb9ad223a91ab72f", "type": "electric_scooter", "name": "b02fad6f9cc0f92acb9ad223a91ab72f"}, {"is_disabled": 0, "is_reserved": 0, "fusion_lat": 0.0, "lat": 38.9141095, "fusion_lon": 0.0, "rental_uris": {"ios": "https://dc.lft.to/lastmile_qr_scan", "android": "https://dc.lft.to/lastmile_qr_scan"}, "lon": -77.0242835, "bike_id": "aaf1583d551e2bc948c509f96cc8a9bf", "type": "electric_scooter", "name": "aaf1583d551e2bc948c509f96cc8a9bf"}, {"is_disabled": 0, "is_reserved": 0, "fusion_lat": 0.0, "lat": 38.85247316666667, "fusion_lon": 0.0, "rental_uris": {"ios": "https://dc.lft.to/lastmile_qr_scan", "android": "https://dc.lft.to/lastmile_qr_scan"}, "lon": -77.11408733333333, "bike_id": "ba6521754439c7c9502e25b948e5b7c3", "type": "electric_bike", "name": "ba6521754439c7c9502e25b948e5b7c3"}, {"is_disabled": 0, "is_reserved": 0, "fusion_lat": 0.0, "lat": 38.89528983333334, "fusion_lon": 0.0, "rental_uris": {"ios": "https://dc.lft.to/lastmile_qr_scan", "android": "https://dc.lft.to/lastmile_qr_scan"}, "lon": -77.02278866666667, "bike_id": "3fcabe9f58ad4e505ad60f452a75abcc", "type": "electric_scooter", "name": "3fcabe9f58ad4e505ad60f452a75abcc"}, {"is_disabled": 0, "is_reserved": 0, "fusion_lat": 0.0, "lat": 38.915467, "fusion_lon": 0.0, "rental_uris": {"ios": "https://dc.lft.to/lastmile_qr_scan", "android": "https://dc.lft.to/lastmile_qr_scan"}, "lon": -77.03851166666666, "bike_id": "e3a16e813afa67d850865247434f430c", "type": "electric_scooter", "name": "e3a16e813afa67d850865247434f430c"}, {"is_disabled": 0, "is_reserved": 0, "fusion_lat": 0.0, "lat": 38.91045716666667, "fusion_lon": 0.0, "rental_uris": {"ios": "https://dc.lft.to/lastmile_qr_scan", "android": "https://dc.lft.to/lastmile_qr_scan"}, "lon": -76.9980985, "bike_id": "8356c9b40626deeb27d3b8da1f99aa20", "type": "electric_scooter", "name": "8356c9b40626deeb27d3b8da1f99aa20"}, {"is_disabled": 0, "is_reserved": 0, "fusion_lat": 0.0, "lat": 38.923194, "fusion_lon": 0.0, "rental_uris": {"ios": "https://dc.lft.to/lastmile_qr_scan", "android": "https://dc.lft.to/lastmile_qr_scan"}, "lon": -77.02906616666667, "bike_id": "b0c2b3b1c31208c0ad197175388a5c5c", "type": "electric_scooter", "name": "b0c2b3b1c31208c0ad197175388a5c5c"}, {"is_disabled": 0, "is_reserved": 0, "fusion_lat": 0.0, "lat": 38.82767, "fusion_lon": 0.0, "rental_uris": {"ios": "https://dc.lft.to/lastmile_qr_scan", "android": "https://dc.lft.to/lastmile_qr_scan"}, "lon": -77.060106, "bike_id": "bb826af07394815ada037093a932eb8a", "type": "electric_bike", "name": "bb826af07394815ada037093a932eb8a"}, {"is_disabled": 0, "is_reserved": 0, "fusion_lat": 0.0, "lat": 38.91820883333333, "fusion_lon": 0.0, "rental_uris": {"ios": "https://dc.lft.to/lastmile_qr_scan", "android": "https://dc.lft.to/lastmile_qr_scan"}, "lon": -77.01211133333334, "bike_id": "9bdba6ca577047bd85e261a2cf4ba7a7", "type": "electric_scooter", "name": "9bdba6ca577047bd85e261a2cf4ba7a7"}, {"is_disabled": 0, "is_reserved": 0, "fusion_lat": 0.0, "lat": 38.93343566666667, "fusion_lon": 0.0, "rental_uris": {"ios": "https://dc.lft.to/lastmile_qr_scan", "android": "https://dc.lft.to/lastmile_qr_scan"}, "lon": -77.06043433333333, "bike_id": "83024d843220c212731379bb295e1b1d", "type": "electric_scooter", "name": "83024d843220c212731379bb295e1b1d"}, {"is_disabled": 0, "is_reserved": 0, "fusion_lat": 0.0, "lat": 38.9563455, "fusion_lon": 0.0, "rental_uris": {"ios": "https://dc.lft.to/lastmile_qr_scan", "android": "https://dc.lft.to/lastmile_qr_scan"}, "lon": -77.02211383333334, "bike_id": "58c66bbe2932ca23e35793267f5e8af1", "type": "electric_scooter", "name": "58c66bbe2932ca23e35793267f5e8af1"}, {"is_disabled": 0, "is_reserved": 0, "fusion_lat": 0.0, "lat": 38.951524166666665, "fusion_lon": 0.0, "rental_uris": {"ios": "https://dc.lft.to/lastmile_qr_scan", "android": "https://dc.lft.to/lastmile_qr_scan"}, "lon": -77.01864816666667, "bike_id": "85fac443603ac610993b1a089b3ed284", "type": "electric_scooter", "name": "85fac443603ac610993b1a089b3ed284"}, {"is_disabled": 0, "is_reserved": 0, "fusion_lat": 0.0, "lat": 38.90735166666666, "fusion_lon": 0.0, "rental_uris": {"ios": "https://dc.lft.to/lastmile_qr_scan", "android": "https://dc.lft.to/lastmile_qr_scan"}, "lon": -77.00134433333334, "bike_id": "12842fb7226457ae3916059f66f00311", "type": "electric_scooter", "name": "12842fb7226457ae3916059f66f00311"}, {"is_disabled": 0, "is_reserved": 0, "fusion_lat": 0.0, "lat": 38.899013833333335, "fusion_lon": 0.0, "rental_uris": {"ios": "https://dc.lft.to/lastmile_qr_scan", "android": "https://dc.lft.to/lastmile_qr_scan"}, "lon": -77.04991683333333, "bike_id": "4791acd843ff8e3f0cd5e86507cda9f7", "type": "electric_scooter", "name": "4791acd843ff8e3f0cd5e86507cda9f7"}, {"is_disabled": 0, "is_reserved": 0, "fusion_lat": 0.0, "lat": 38.923596, "fusion_lon": 0.0, "rental_uris": {"ios": "https://dc.lft.to/lastmile_qr_scan", "android": "https://dc.lft.to/lastmile_qr_scan"}, "lon": -77.05238983333334, "bike_id": "876622194017d6a4c485df3502cf1335", "type": "electric_scooter", "name": "876622194017d6a4c485df3502cf1335"}, {"is_disabled": 0, "is_reserved": 0, "fusion_lat": 0.0, "lat": 38.9312405, "fusion_lon": 0.0, "rental_uris": {"ios": "https://dc.lft.to/lastmile_qr_scan", "android": "https://dc.lft.to/lastmile_qr_scan"}, "lon": -77.0206805, "bike_id": "42257e5b0d01c2c7406f450349a1094f", "type": "electric_scooter", "name": "42257e5b0d01c2c7406f450349a1094f"}, {"is_disabled": 0, "is_reserved": 0, "fusion_lat": 0.0, "lat": 38.923519166666665, "fusion_lon": 0.0, "rental_uris": {"ios": "https://dc.lft.to/lastmile_qr_scan", "android": "https://dc.lft.to/lastmile_qr_scan"}, "lon": -77.043903, "bike_id": "6357741e2da2ad91c098790d3067fa88", "type": "electric_scooter", "name": "6357741e2da2ad91c098790d3067fa88"}, {"is_disabled": 0, "is_reserved": 0, "fusion_lat": 0.0, "lat": 38.926578166666665, "fusion_lon": 0.0, "rental_uris": {"ios": "https://dc.lft.to/lastmile_qr_scan", "android": "https://dc.lft.to/lastmile_qr_scan"}, "lon": -77.02424566666667, "bike_id": "8098aee5e227f0323d8a31bc76698635", "type": "electric_scooter", "name": "8098aee5e227f0323d8a31bc76698635"}, {"is_disabled": 0, "is_reserved": 0, "fusion_lat": 0.0, "lat": 38.9111575, "fusion_lon": 0.0, "rental_uris": {"ios": "https://dc.lft.to/lastmile_qr_scan", "android": "https://dc.lft.to/lastmile_qr_scan"}, "lon": -77.00378266666667, "bike_id": "3a954d692494b0045aeafa22dafa470f", "type": "electric_scooter", "name": "3a954d692494b0045aeafa22dafa470f"}, {"is_disabled": 0, "is_reserved": 0, "fusion_lat": 0.0, "lat": 38.92349, "fusion_lon": 0.0, "rental_uris": {"ios": "https://dc.lft.to/lastmile_qr_scan", "android": "https://dc.lft.to/lastmile_qr_scan"}, "lon": -77.07312883333333, "bike_id": "ca5086790c7333d8a9f603ea1565dea0", "type": "electric_scooter", "name": "ca5086790c7333d8a9f603ea1565dea0"}, {"is_disabled": 0, "is_reserved": 0, "fusion_lat": 0.0, "lat": 38.9359695, "fusion_lon": 0.0, "rental_uris": {"ios": "https://dc.lft.to/lastmile_qr_scan", "android": "https://dc.lft.to/lastmile_qr_scan"}, "lon": -77.0560235, "bike_id": "07e1f9af90e36de245037d7477700195", "type": "electric_scooter", "name": "07e1f9af90e36de245037d7477700195"}, {"is_disabled": 0, "is_reserved": 0, "fusion_lat": 0.0, "lat": 38.93699266666667, "fusion_lon": 0.0, "rental_uris": {"ios": "https://dc.lft.to/lastmile_qr_scan", "android": "https://dc.lft.to/lastmile_qr_scan"}, "lon": -77.0559535, "bike_id": "263facff149aba5756561d01722e8d79", "type": "electric_scooter", "name": "263facff149aba5756561d01722e8d79"}, {"is_disabled": 0, "is_reserved": 0, "fusion_lat": 0.0, "lat": 38.9142595, "fusion_lon": 0.0, "rental_uris": {"ios": "https://dc.lft.to/lastmile_qr_scan", "android": "https://dc.lft.to/lastmile_qr_scan"}, "lon": -77.04399133333334, "bike_id": "71424484b995d2ab1ec615265b08035c", "type": "electric_scooter", "name": "71424484b995d2ab1ec615265b08035c"}, {"is_disabled": 0, "is_reserved": 0, "fusion_lat": 0.0, "lat": 38.92651083333333, "fusion_lon": 0.0, "rental_uris": {"ios": "https://dc.lft.to/lastmile_qr_scan", "android": "https://dc.lft.to/lastmile_qr_scan"}, "lon": -77.024488, "bike_id": "42d13767f5795a3c28ab5dacd61276ee", "type": "electric_scooter", "name": "42d13767f5795a3c28ab5dacd61276ee"}, {"is_disabled": 0, "is_reserved": 0, "fusion_lat": 0.0, "lat": 38.917638333333336, "fusion_lon": 0.0, "rental_uris": {"ios": "https://dc.lft.to/lastmile_qr_scan", "android": "https://dc.lft.to/lastmile_qr_scan"}, "lon": -77.01495383333334, "bike_id": "ef3759744a3d24f758c5d02e17347486", "type": "electric_scooter", "name": "ef3759744a3d24f758c5d02e17347486"}, {"is_disabled": 0, "is_reserved": 0, "fusion_lat": 0.0, "lat": 38.92533733333333, "fusion_lon": 0.0, "rental_uris": {"ios": "https://dc.lft.to/lastmile_qr_scan", "android": "https://dc.lft.to/lastmile_qr_scan"}, "lon": -77.02559833333333, "bike_id": "2ac47e096b764dcd7678d8a90ddf31d4", "type": "electric_scooter", "name": "2ac47e096b764dcd7678d8a90ddf31d4"}, {"is_disabled": 0, "is_reserved": 0, "fusion_lat": 0.0, "lat": 38.89827183333333, "fusion_lon": 0.0, "rental_uris": {"ios": "https://dc.lft.to/lastmile_qr_scan", "android": "https://dc.lft.to/lastmile_qr_scan"}, "lon": -76.93002633333333, "bike_id": "6dc60ac463c90b2e0c62368f37448227", "type": "electric_scooter", "name": "6dc60ac463c90b2e0c62368f37448227"}, {"is_disabled": 0, "is_reserved": 0, "fusion_lat": 0.0, "lat": 38.809819833333336, "fusion_lon": 0.0, "rental_uris": {"ios": "https://dc.lft.to/lastmile_qr_scan", "android": "https://dc.lft.to/lastmile_qr_scan"}, "lon": -77.07662483333333, "bike_id": "6e40258abdf208262537db624a087e16", "type": "electric_bike", "name": "6e40258abdf208262537db624a087e16"}, {"is_disabled": 0, "is_reserved": 0, "fusion_lat": 0.0, "lat": 38.909867166666665, "fusion_lon": 0.0, "rental_uris": {"ios": "https://dc.lft.to/lastmile_qr_scan", "android": "https://dc.lft.to/lastmile_qr_scan"}, "lon": -77.0466635, "bike_id": "2efd61f773e6527eebfe7b3a70d8b4e1", "type": "electric_scooter", "name": "2efd61f773e6527eebfe7b3a70d8b4e1"}, {"is_disabled": 0, "is_reserved": 0, "fusion_lat": 0.0, "lat": 38.94978283333333, "fusion_lon": 0.0, "rental_uris": {"ios": "https://dc.lft.to/lastmile_qr_scan", "android": "https://dc.lft.to/lastmile_qr_scan"}, "lon": -77.02447183333334, "bike_id": "1a8c274344c8e5741885e9bd1da26e25", "type": "electric_scooter", "name": "1a8c274344c8e5741885e9bd1da26e25"}, {"is_disabled": 0, "is_reserved": 0, "fusion_lat": 0.0, "lat": 38.91805883333333, "fusion_lon": 0.0, "rental_uris": {"ios": "https://dc.lft.to/lastmile_qr_scan", "android": "https://dc.lft.to/lastmile_qr_scan"}, "lon": -77.03443383333334, "bike_id": "a8f249607da51bc1b238b8c9927e9d6f", "type": "electric_scooter", "name": "a8f249607da51bc1b238b8c9927e9d6f"}, {"is_disabled": 0, "is_reserved": 0, "fusion_lat": 0.0, "lat": 38.942153, "fusion_lon": 0.0, "rental_uris": {"ios": "https://dc.lft.to/lastmile_qr_scan", "android": "https://dc.lft.to/lastmile_qr_scan"}, "lon": -76.961313, "bike_id": "953e7e32d1d6dd4eac95e03863d19286", "type": "electric_bike", "name": "953e7e32d1d6dd4eac95e03863d19286"}, {"is_disabled": 0, "is_reserved": 0, "fusion_lat": 0.0, "lat": 38.90972583333333, "fusion_lon": 0.0, "rental_uris": {"ios": "https://dc.lft.to/lastmile_qr_scan", "android": "https://dc.lft.to/lastmile_qr_scan"}, "lon": -77.011051, "bike_id": "d3d8582331c3e2090c89e8747facd53f", "type": "electric_scooter", "name": "d3d8582331c3e2090c89e8747facd53f"}, {"is_disabled": 0, "is_reserved": 0, "fusion_lat": 0.0, "lat": 38.90401133333334, "fusion_lon": 0.0, "rental_uris": {"ios": "https://dc.lft.to/lastmile_qr_scan", "android": "https://dc.lft.to/lastmile_qr_scan"}, "lon": -77.01765016666667, "bike_id": "31f81e720ae8018e14ce9830bd804af6", "type": "electric_scooter", "name": "31f81e720ae8018e14ce9830bd804af6"}, {"is_disabled": 0, "is_reserved": 0, "fusion_lat": 0.0, "lat": 38.915527, "fusion_lon": 0.0, "rental_uris": {"ios": "https://dc.lft.to/lastmile_qr_scan", "android": "https://dc.lft.to/lastmile_qr_scan"}, "lon": -77.0383105, "bike_id": "9c9edcde5ab2238c9f957b7ebe7f2bc0", "type": "electric_scooter", "name": "9c9edcde5ab2238c9f957b7ebe7f2bc0"}, {"is_disabled": 0, "is_reserved": 0, "fusion_lat": 0.0, "lat": 38.887131, "fusion_lon": 0.0, "rental_uris": {"ios": "https://dc.lft.to/lastmile_qr_scan", "android": "https://dc.lft.to/lastmile_qr_scan"}, "lon": -76.983803, "bike_id": "859ba6dfc66e01864eb10d00a44b12c4", "type": "electric_scooter", "name": "859ba6dfc66e01864eb10d00a44b12c4"}, {"is_disabled": 0, "is_reserved": 0, "fusion_lat": 0.0, "lat": 38.92021, "fusion_lon": 0.0, "rental_uris": {"ios": "https://dc.lft.to/lastmile_qr_scan", "android": "https://dc.lft.to/lastmile_qr_scan"}, "lon": -76.9997675, "bike_id": "16c05f6e7567b1adf929c8089fceead2", "type": "electric_scooter", "name": "16c05f6e7567b1adf929c8089fceead2"}, {"is_disabled": 0, "is_reserved": 0, "fusion_lat": 0.0, "lat": 38.9573365, "fusion_lon": 0.0, "rental_uris": {"ios": "https://dc.lft.to/lastmile_qr_scan", "android": "https://dc.lft.to/lastmile_qr_scan"}, "lon": -77.02424116666667, "bike_id": "72022767fa9e28b887da442ec75d4b11", "type": "electric_scooter", "name": "72022767fa9e28b887da442ec75d4b11"}, {"is_disabled": 0, "is_reserved": 0, "fusion_lat": 0.0, "lat": 38.92171716666667, "fusion_lon": 0.0, "rental_uris": {"ios": "https://dc.lft.to/lastmile_qr_scan", "android": "https://dc.lft.to/lastmile_qr_scan"}, "lon": -77.01810916666666, "bike_id": "8d70b84cddf5787eb7dc3469e2fd084b", "type": "electric_scooter", "name": "8d70b84cddf5787eb7dc3469e2fd084b"}, {"is_disabled": 0, "is_reserved": 0, "fusion_lat": 0.0, "lat": 38.89844133333333, "fusion_lon": 0.0, "rental_uris": {"ios": "https://dc.lft.to/lastmile_qr_scan", "android": "https://dc.lft.to/lastmile_qr_scan"}, "lon": -77.00195883333333, "bike_id": "dbe090c289567f422770e0dcf210a05c", "type": "electric_scooter", "name": "dbe090c289567f422770e0dcf210a05c"}, {"is_disabled": 0, "is_reserved": 0, "fusion_lat": 0.0, "lat": 38.930405, "fusion_lon": 0.0, "rental_uris": {"ios": "https://dc.lft.to/lastmile_qr_scan", "android": "https://dc.lft.to/lastmile_qr_scan"}, "lon": -77.02960633333333, "bike_id": "0429cf10daebecc86704b05995ea5657", "type": "electric_scooter", "name": "0429cf10daebecc86704b05995ea5657"}, {"is_disabled": 0, "is_reserved": 0, "fusion_lat": 0.0, "lat": 38.92550766666667, "fusion_lon": 0.0, "rental_uris": {"ios": "https://dc.lft.to/lastmile_qr_scan", "android": "https://dc.lft.to/lastmile_qr_scan"}, "lon": -76.99607366666666, "bike_id": "7a7e27aa78f60dd3726354f87714efaa", "type": "electric_scooter", "name": "7a7e27aa78f60dd3726354f87714efaa"}, {"is_disabled": 0, "is_reserved": 0, "fusion_lat": 0.0, "lat": 38.91404383333333, "fusion_lon": 0.0, "rental_uris": {"ios": "https://dc.lft.to/lastmile_qr_scan", "android": "https://dc.lft.to/lastmile_qr_scan"}, "lon": -77.03084433333333, "bike_id": "f34d4f3cd00fe7f4add2cc3d83ea9858", "type": "electric_scooter", "name": "f34d4f3cd00fe7f4add2cc3d83ea9858"}, {"is_disabled": 0, "is_reserved": 0, "fusion_lat": 0.0, "lat": 38.960174, "fusion_lon": 0.0, "rental_uris": {"ios": "https://dc.lft.to/lastmile_qr_scan", "android": "https://dc.lft.to/lastmile_qr_scan"}, "lon": -77.02821216666666, "bike_id": "f6d0e790ae98f11a2eb6829908c7a261", "type": "electric_scooter", "name": "f6d0e790ae98f11a2eb6829908c7a261"}, {"is_disabled": 0, "is_reserved": 0, "fusion_lat": 0.0, "lat": 38.892066666666665, "fusion_lon": 0.0, "rental_uris": {"ios": "https://dc.lft.to/lastmile_qr_scan", "android": "https://dc.lft.to/lastmile_qr_scan"}, "lon": -76.92920966666667, "bike_id": "d6db3d33ee6a167ab775054911b2c90f", "type": "electric_scooter", "name": "d6db3d33ee6a167ab775054911b2c90f"}, {"is_disabled": 0, "is_reserved": 0, "fusion_lat": 0.0, "lat": 38.89390133333333, "fusion_lon": 0.0, "rental_uris": {"ios": "https://dc.lft.to/lastmile_qr_scan", "android": "https://dc.lft.to/lastmile_qr_scan"}, "lon": -77.02378633333333, "bike_id": "3aa4c0f6efbc4f90533a0e67c8c1d760", "type": "electric_scooter", "name": "3aa4c0f6efbc4f90533a0e67c8c1d760"}, {"is_disabled": 0, "is_reserved": 0, "fusion_lat": 0.0, "lat": 38.899299666666664, "fusion_lon": 0.0, "rental_uris": {"ios": "https://dc.lft.to/lastmile_qr_scan", "android": "https://dc.lft.to/lastmile_qr_scan"}, "lon": -77.00158, "bike_id": "df7a1560aeeecf8707be29e8aab615d4", "type": "electric_bike", "name": "df7a1560aeeecf8707be29e8aab615d4"}, {"is_disabled": 0, "is_reserved": 0, "fusion_lat": 0.0, "lat": 38.916687, "fusion_lon": 0.0, "rental_uris": {"ios": "https://dc.lft.to/lastmile_qr_scan", "android": "https://dc.lft.to/lastmile_qr_scan"}, "lon": -77.000496, "bike_id": "38ed6aff4c0fe91f845f9cec8b32d4be", "type": "electric_scooter", "name": "38ed6aff4c0fe91f845f9cec8b32d4be"}, {"is_disabled": 0, "is_reserved": 0, "fusion_lat": 0.0, "lat": 38.922354, "fusion_lon": 0.0, "rental_uris": {"ios": "https://dc.lft.to/lastmile_qr_scan", "android": "https://dc.lft.to/lastmile_qr_scan"}, "lon": -77.02297166666666, "bike_id": "807114d55c36db81cd01295a634afe97", "type": "electric_scooter", "name": "807114d55c36db81cd01295a634afe97"}, {"is_disabled": 0, "is_reserved": 0, "fusion_lat": 0.0, "lat": 38.909188666666665, "fusion_lon": 0.0, "rental_uris": {"ios": "https://dc.lft.to/lastmile_qr_scan", "android": "https://dc.lft.to/lastmile_qr_scan"}, "lon": -77.045808, "bike_id": "98147800ce4e9268975c5f4481d0e0c5", "type": "electric_scooter", "name": "98147800ce4e9268975c5f4481d0e0c5"}, {"is_disabled": 0, "is_reserved": 0, "fusion_lat": 0.0, "lat": 38.87688466666667, "fusion_lon": 0.0, "rental_uris": {"ios": "https://dc.lft.to/lastmile_qr_scan", "android": "https://dc.lft.to/lastmile_qr_scan"}, "lon": -77.017645, "bike_id": "9a82fb7889ec9e74fe0a224503e685e5", "type": "electric_scooter", "name": "9a82fb7889ec9e74fe0a224503e685e5"}, {"is_disabled": 0, "is_reserved": 0, "fusion_lat": 0.0, "lat": 38.94197533333333, "fusion_lon": 0.0, "rental_uris": {"ios": "https://dc.lft.to/lastmile_qr_scan", "android": "https://dc.lft.to/lastmile_qr_scan"}, "lon": -77.08820916666667, "bike_id": "1061b50cedbd418fb95ef6dfd60d621a", "type": "electric_scooter", "name": "1061b50cedbd418fb95ef6dfd60d621a"}, {"is_disabled": 0, "is_reserved": 0, "fusion_lat": 0.0, "lat": 38.90555416666667, "fusion_lon": 0.0, "rental_uris": {"ios": "https://dc.lft.to/lastmile_qr_scan", "android": "https://dc.lft.to/lastmile_qr_scan"}, "lon": -77.04848816666667, "bike_id": "23748fcce3d074858944daf449f1e10d", "type": "electric_scooter", "name": "23748fcce3d074858944daf449f1e10d"}, {"is_disabled": 0, "is_reserved": 0, "fusion_lat": 0.0, "lat": 38.89560683333333, "fusion_lon": 0.0, "rental_uris": {"ios": "https://dc.lft.to/lastmile_qr_scan", "android": "https://dc.lft.to/lastmile_qr_scan"}, "lon": -77.01616616666666, "bike_id": "82fe9fb50ce9ca23cdb2e67c367c3115", "type": "electric_scooter", "name": "82fe9fb50ce9ca23cdb2e67c367c3115"}, {"is_disabled": 0, "is_reserved": 0, "fusion_lat": 0.0, "lat": 38.918177666666665, "fusion_lon": 0.0, "rental_uris": {"ios": "https://dc.lft.to/lastmile_qr_scan", "android": "https://dc.lft.to/lastmile_qr_scan"}, "lon": -77.03195833333334, "bike_id": "5a54a1245a1fdddcd6103c00b6e7d170", "type": "electric_scooter", "name": "5a54a1245a1fdddcd6103c00b6e7d170"}, {"is_disabled": 0, "is_reserved": 0, "fusion_lat": 0.0, "lat": 38.92338933333333, "fusion_lon": 0.0, "rental_uris": {"ios": "https://dc.lft.to/lastmile_qr_scan", "android": "https://dc.lft.to/lastmile_qr_scan"}, "lon": -77.03527466666667, "bike_id": "aa3abf47bfd6efb6a6efab14c0e48fdc", "type": "electric_scooter", "name": "aa3abf47bfd6efb6a6efab14c0e48fdc"}, {"is_disabled": 0, "is_reserved": 0, "fusion_lat": 0.0, "lat": 38.925625833333335, "fusion_lon": 0.0, "rental_uris": {"ios": "https://dc.lft.to/lastmile_qr_scan", "android": "https://dc.lft.to/lastmile_qr_scan"}, "lon": -77.02284583333334, "bike_id": "60d655c9fa81a30412f873ca75ae6995", "type": "electric_scooter", "name": "60d655c9fa81a30412f873ca75ae6995"}, {"is_disabled": 0, "is_reserved": 0, "fusion_lat": 0.0, "lat": 38.91404766666667, "fusion_lon": 0.0, "rental_uris": {"ios": "https://dc.lft.to/lastmile_qr_scan", "android": "https://dc.lft.to/lastmile_qr_scan"}, "lon": -77.01018466666666, "bike_id": "6eb9834d28f196025a65a908ea4ae463", "type": "electric_scooter", "name": "6eb9834d28f196025a65a908ea4ae463"}, {"is_disabled": 0, "is_reserved": 0, "fusion_lat": 0.0, "lat": 38.94516, "fusion_lon": 0.0, "rental_uris": {"ios": "https://dc.lft.to/lastmile_qr_scan", "android": "https://dc.lft.to/lastmile_qr_scan"}, "lon": -77.023664, "bike_id": "abb5bb0ea65f3fa226111b289ee5362f", "type": "electric_bike", "name": "abb5bb0ea65f3fa226111b289ee5362f"}, {"is_disabled": 0, "is_reserved": 0, "fusion_lat": 0.0, "lat": 38.92863466666667, "fusion_lon": 0.0, "rental_uris": {"ios": "https://dc.lft.to/lastmile_qr_scan", "android": "https://dc.lft.to/lastmile_qr_scan"}, "lon": -77.0298865, "bike_id": "4effb37f6778c012db4eaf831a1e1d4f", "type": "electric_scooter", "name": "4effb37f6778c012db4eaf831a1e1d4f"}, {"is_disabled": 0, "is_reserved": 0, "fusion_lat": 0.0, "lat": 38.929081833333335, "fusion_lon": 0.0, "rental_uris": {"ios": "https://dc.lft.to/lastmile_qr_scan", "android": "https://dc.lft.to/lastmile_qr_scan"}, "lon": -77.02616466666667, "bike_id": "1de54788948d72504aaae16b0b769b23", "type": "electric_scooter", "name": "1de54788948d72504aaae16b0b769b23"}, {"is_disabled": 0, "is_reserved": 0, "fusion_lat": 0.0, "lat": 38.905715666666666, "fusion_lon": 0.0, "rental_uris": {"ios": "https://dc.lft.to/lastmile_qr_scan", "android": "https://dc.lft.to/lastmile_qr_scan"}, "lon": -77.02765316666667, "bike_id": "435477180ef16c1942f3c549de415255", "type": "electric_scooter", "name": "435477180ef16c1942f3c549de415255"}, {"is_disabled": 0, "is_reserved": 0, "fusion_lat": 0.0, "lat": 38.881509666666666, "fusion_lon": 0.0, "rental_uris": {"ios": "https://dc.lft.to/lastmile_qr_scan", "android": "https://dc.lft.to/lastmile_qr_scan"}, "lon": -77.01311116666666, "bike_id": "aab931435a718c8f5dd52a57c51f9281", "type": "electric_scooter", "name": "aab931435a718c8f5dd52a57c51f9281"}, {"is_disabled": 0, "is_reserved": 0, "fusion_lat": 0.0, "lat": 38.9223175, "fusion_lon": 0.0, "rental_uris": {"ios": "https://dc.lft.to/lastmile_qr_scan", "android": "https://dc.lft.to/lastmile_qr_scan"}, "lon": -77.03876516666666, "bike_id": "1fd576528b9c90a474dde0e2e62d3e5b", "type": "electric_scooter", "name": "1fd576528b9c90a474dde0e2e62d3e5b"}, {"is_disabled": 0, "is_reserved": 0, "fusion_lat": 0.0, "lat": 38.90976033333333, "fusion_lon": 0.0, "rental_uris": {"ios": "https://dc.lft.to/lastmile_qr_scan", "android": "https://dc.lft.to/lastmile_qr_scan"}, "lon": -77.02220633333333, "bike_id": "024e46e973732056c7a590974708d123", "type": "electric_scooter", "name": "024e46e973732056c7a590974708d123"}, {"is_disabled": 0, "is_reserved": 0, "fusion_lat": 0.0, "lat": 38.950732333333335, "fusion_lon": 0.0, "rental_uris": {"ios": "https://dc.lft.to/lastmile_qr_scan", "android": "https://dc.lft.to/lastmile_qr_scan"}, "lon": -76.9960135, "bike_id": "1636cbef3daf4811d93bb3e432b24c2f", "type": "electric_bike", "name": "1636cbef3daf4811d93bb3e432b24c2f"}, {"is_disabled": 0, "is_reserved": 0, "fusion_lat": 0.0, "lat": 38.8963615, "fusion_lon": 0.0, "rental_uris": {"ios": "https://dc.lft.to/lastmile_qr_scan", "android": "https://dc.lft.to/lastmile_qr_scan"}, "lon": -76.93928016666666, "bike_id": "8a141ac67358ee940497aeca9d8d9a33", "type": "electric_scooter", "name": "8a141ac67358ee940497aeca9d8d9a33"}, {"is_disabled": 0, "is_reserved": 0, "fusion_lat": 0.0, "lat": 38.95332033333333, "fusion_lon": 0.0, "rental_uris": {"ios": "https://dc.lft.to/lastmile_qr_scan", "android": "https://dc.lft.to/lastmile_qr_scan"}, "lon": -76.9825225, "bike_id": "65df54ffecf74a749a9c1c7b59aaecce", "type": "electric_bike", "name": "65df54ffecf74a749a9c1c7b59aaecce"}, {"is_disabled": 0, "is_reserved": 0, "fusion_lat": 0.0, "lat": 38.89830366666666, "fusion_lon": 0.0, "rental_uris": {"ios": "https://dc.lft.to/lastmile_qr_scan", "android": "https://dc.lft.to/lastmile_qr_scan"}, "lon": -77.04651716666666, "bike_id": "056a59faa747d92dc9f1af77184a57e5", "type": "electric_scooter", "name": "056a59faa747d92dc9f1af77184a57e5"}, {"is_disabled": 0, "is_reserved": 0, "fusion_lat": 0.0, "lat": 38.8976385, "fusion_lon": 0.0, "rental_uris": {"ios": "https://dc.lft.to/lastmile_qr_scan", "android": "https://dc.lft.to/lastmile_qr_scan"}, "lon": -77.05493666666666, "bike_id": "93878a358e458f2b012aded1998f8269", "type": "electric_scooter", "name": "93878a358e458f2b012aded1998f8269"}, {"is_disabled": 0, "is_reserved": 0, "fusion_lat": 0.0, "lat": 38.9144915, "fusion_lon": 0.0, "rental_uris": {"ios": "https://dc.lft.to/lastmile_qr_scan", "android": "https://dc.lft.to/lastmile_qr_scan"}, "lon": -77.00884066666667, "bike_id": "8cf8d91149891fe71a2135aa82c51ddf", "type": "electric_scooter", "name": "8cf8d91149891fe71a2135aa82c51ddf"}, {"is_disabled": 0, "is_reserved": 0, "fusion_lat": 0.0, "lat": 38.936632, "fusion_lon": 0.0, "rental_uris": {"ios": "https://dc.lft.to/lastmile_qr_scan", "android": "https://dc.lft.to/lastmile_qr_scan"}, "lon": -77.06608783333333, "bike_id": "e20a6896cffddeb40f31d47dd3ec1801", "type": "electric_scooter", "name": "e20a6896cffddeb40f31d47dd3ec1801"}, {"is_disabled": 0, "is_reserved": 0, "fusion_lat": 0.0, "lat": 38.925495166666664, "fusion_lon": 0.0, "rental_uris": {"ios": "https://dc.lft.to/lastmile_qr_scan", "android": "https://dc.lft.to/lastmile_qr_scan"}, "lon": -77.00323033333333, "bike_id": "91bc6cebfca2e3f757ff166f712d8615", "type": "electric_scooter", "name": "91bc6cebfca2e3f757ff166f712d8615"}, {"is_disabled": 0, "is_reserved": 0, "fusion_lat": 0.0, "lat": 38.93068933333333, "fusion_lon": 0.0, "rental_uris": {"ios": "https://dc.lft.to/lastmile_qr_scan", "android": "https://dc.lft.to/lastmile_qr_scan"}, "lon": -77.04029233333333, "bike_id": "d44ede964b3a838fc99a4c5c23029158", "type": "electric_scooter", "name": "d44ede964b3a838fc99a4c5c23029158"}, {"is_disabled": 0, "is_reserved": 0, "fusion_lat": 0.0, "lat": 38.8976825, "fusion_lon": 0.0, "rental_uris": {"ios": "https://dc.lft.to/lastmile_qr_scan", "android": "https://dc.lft.to/lastmile_qr_scan"}, "lon": -77.027217, "bike_id": "72531e830e918133f1f189ef3a4441e3", "type": "electric_scooter", "name": "72531e830e918133f1f189ef3a4441e3"}, {"is_disabled": 0, "is_reserved": 0, "fusion_lat": 0.0, "lat": 38.87776266666667, "fusion_lon": 0.0, "rental_uris": {"ios": "https://dc.lft.to/lastmile_qr_scan", "android": "https://dc.lft.to/lastmile_qr_scan"}, "lon": -77.00133083333333, "bike_id": "96207c113edb31a91724c6784a8d662e", "type": "electric_scooter", "name": "96207c113edb31a91724c6784a8d662e"}, {"is_disabled": 0, "is_reserved": 0, "fusion_lat": 0.0, "lat": 38.931192333333335, "fusion_lon": 0.0, "rental_uris": {"ios": "https://dc.lft.to/lastmile_qr_scan", "android": "https://dc.lft.to/lastmile_qr_scan"}, "lon": -77.02069716666666, "bike_id": "698e59f64277f169ea865ecc9bf3cab5", "type": "electric_scooter", "name": "698e59f64277f169ea865ecc9bf3cab5"}, {"is_disabled": 0, "is_reserved": 0, "fusion_lat": 0.0, "lat": 38.919302333333334, "fusion_lon": 0.0, "rental_uris": {"ios": "https://dc.lft.to/lastmile_qr_scan", "android": "https://dc.lft.to/lastmile_qr_scan"}, "lon": -77.04496216666666, "bike_id": "5ab72ea47d70672811d4e365f1dd8d31", "type": "electric_scooter", "name": "5ab72ea47d70672811d4e365f1dd8d31"}, {"is_disabled": 0, "is_reserved": 0, "fusion_lat": 0.0, "lat": 38.91335333333333, "fusion_lon": 0.0, "rental_uris": {"ios": "https://dc.lft.to/lastmile_qr_scan", "android": "https://dc.lft.to/lastmile_qr_scan"}, "lon": -77.016538, "bike_id": "a8150efa667d4cb94d16437e4affb51e", "type": "electric_scooter", "name": "a8150efa667d4cb94d16437e4affb51e"}, {"is_disabled": 0, "is_reserved": 0, "fusion_lat": 0.0, "lat": 38.916328166666666, "fusion_lon": 0.0, "rental_uris": {"ios": "https://dc.lft.to/lastmile_qr_scan", "android": "https://dc.lft.to/lastmile_qr_scan"}, "lon": -77.00853166666667, "bike_id": "b11d28a049cb7c937743880020b9f326", "type": "electric_scooter", "name": "b11d28a049cb7c937743880020b9f326"}, {"is_disabled": 0, "is_reserved": 0, "fusion_lat": 0.0, "lat": 38.906467666666664, "fusion_lon": 0.0, "rental_uris": {"ios": "https://dc.lft.to/lastmile_qr_scan", "android": "https://dc.lft.to/lastmile_qr_scan"}, "lon": -77.0111795, "bike_id": "811b30ab3a631fcd9b0fc6a728c04326", "type": "electric_scooter", "name": "811b30ab3a631fcd9b0fc6a728c04326"}, {"is_disabled": 0, "is_reserved": 0, "fusion_lat": 0.0, "lat": 38.93241533333333, "fusion_lon": 0.0, "rental_uris": {"ios": "https://dc.lft.to/lastmile_qr_scan", "android": "https://dc.lft.to/lastmile_qr_scan"}, "lon": -77.03411516666667, "bike_id": "afab05da1325dfccbb0cb6b44c06f87d", "type": "electric_scooter", "name": "afab05da1325dfccbb0cb6b44c06f87d"}, {"is_disabled": 0, "is_reserved": 0, "fusion_lat": 0.0, "lat": 38.950989666666665, "fusion_lon": 0.0, "rental_uris": {"ios": "https://dc.lft.to/lastmile_qr_scan", "android": "https://dc.lft.to/lastmile_qr_scan"}, "lon": -77.01911933333334, "bike_id": "84f1410eef2b9f3cb0772582fb971cff", "type": "electric_scooter", "name": "84f1410eef2b9f3cb0772582fb971cff"}, {"is_disabled": 0, "is_reserved": 0, "fusion_lat": 0.0, "lat": 38.9178625, "fusion_lon": 0.0, "rental_uris": {"ios": "https://dc.lft.to/lastmile_qr_scan", "android": "https://dc.lft.to/lastmile_qr_scan"}, "lon": -77.03585616666666, "bike_id": "692d994d3d02ee9d8a43ddf7136c2f2e", "type": "electric_scooter", "name": "692d994d3d02ee9d8a43ddf7136c2f2e"}, {"is_disabled": 0, "is_reserved": 0, "fusion_lat": 0.0, "lat": 38.90540416666666, "fusion_lon": 0.0, "rental_uris": {"ios": "https://dc.lft.to/lastmile_qr_scan", "android": "https://dc.lft.to/lastmile_qr_scan"}, "lon": -77.0569455, "bike_id": "9b11578e2f4fa35bd80de3a955a9919a", "type": "electric_scooter", "name": "9b11578e2f4fa35bd80de3a955a9919a"}, {"is_disabled": 0, "is_reserved": 0, "fusion_lat": 0.0, "lat": 38.913436833333336, "fusion_lon": 0.0, "rental_uris": {"ios": "https://dc.lft.to/lastmile_qr_scan", "android": "https://dc.lft.to/lastmile_qr_scan"}, "lon": -77.04429133333333, "bike_id": "002f1b5400274dc61053b8d438598cfc", "type": "electric_scooter", "name": "002f1b5400274dc61053b8d438598cfc"}, {"is_disabled": 0, "is_reserved": 0, "fusion_lat": 0.0, "lat": 38.94037766666667, "fusion_lon": 0.0, "rental_uris": {"ios": "https://dc.lft.to/lastmile_qr_scan", "android": "https://dc.lft.to/lastmile_qr_scan"}, "lon": -77.0252345, "bike_id": "180fe1a7237c098d5686581c68a71075", "type": "electric_scooter", "name": "180fe1a7237c098d5686581c68a71075"}, {"is_disabled": 0, "is_reserved": 0, "fusion_lat": 0.0, "lat": 38.923798, "fusion_lon": 0.0, "rental_uris": {"ios": "https://dc.lft.to/lastmile_qr_scan", "android": "https://dc.lft.to/lastmile_qr_scan"}, "lon": -77.02029016666667, "bike_id": "2ed11b1be28bcac52a57188bc140a816", "type": "electric_scooter", "name": "2ed11b1be28bcac52a57188bc140a816"}, {"is_disabled": 0, "is_reserved": 0, "fusion_lat": 0.0, "lat": 38.907438, "fusion_lon": 0.0, "rental_uris": {"ios": "https://dc.lft.to/lastmile_qr_scan", "android": "https://dc.lft.to/lastmile_qr_scan"}, "lon": -77.04811733333334, "bike_id": "6a583dd87dee3e5e334a253dac1f8321", "type": "electric_scooter", "name": "6a583dd87dee3e5e334a253dac1f8321"}, {"is_disabled": 0, "is_reserved": 0, "fusion_lat": 0.0, "lat": 38.90665116666667, "fusion_lon": 0.0, "rental_uris": {"ios": "https://dc.lft.to/lastmile_qr_scan", "android": "https://dc.lft.to/lastmile_qr_scan"}, "lon": -76.98599316666666, "bike_id": "b2b332e3c64b2f696385a25f7d3bf165", "type": "electric_scooter", "name": "b2b332e3c64b2f696385a25f7d3bf165"}, {"is_disabled": 0, "is_reserved": 0, "fusion_lat": 0.0, "lat": 38.930603833333336, "fusion_lon": 0.0, "rental_uris": {"ios": "https://dc.lft.to/lastmile_qr_scan", "android": "https://dc.lft.to/lastmile_qr_scan"}, "lon": -77.04218066666667, "bike_id": "e92645bd2734e1474ce71f8da4954758", "type": "electric_scooter", "name": "e92645bd2734e1474ce71f8da4954758"}, {"is_disabled": 0, "is_reserved": 0, "fusion_lat": 0.0, "lat": 38.919231333333336, "fusion_lon": 0.0, "rental_uris": {"ios": "https://dc.lft.to/lastmile_qr_scan", "android": "https://dc.lft.to/lastmile_qr_scan"}, "lon": -77.00972916666667, "bike_id": "670387767d8b0821819170faec847b3f", "type": "electric_scooter", "name": "670387767d8b0821819170faec847b3f"}, {"is_disabled": 0, "is_reserved": 0, "fusion_lat": 0.0, "lat": 38.924782, "fusion_lon": 0.0, "rental_uris": {"ios": "https://dc.lft.to/lastmile_qr_scan", "android": "https://dc.lft.to/lastmile_qr_scan"}, "lon": -77.02831716666667, "bike_id": "176be41d467124520c598e23be7f755e", "type": "electric_scooter", "name": "176be41d467124520c598e23be7f755e"}, {"is_disabled": 0, "is_reserved": 0, "fusion_lat": 0.0, "lat": 38.89749916666667, "fusion_lon": 0.0, "rental_uris": {"ios": "https://dc.lft.to/lastmile_qr_scan", "android": "https://dc.lft.to/lastmile_qr_scan"}, "lon": -77.04805083333333, "bike_id": "f1a0896b0b5f6dcec997f793423aa51f", "type": "electric_scooter", "name": "f1a0896b0b5f6dcec997f793423aa51f"}, {"is_disabled": 0, "is_reserved": 0, "fusion_lat": 0.0, "lat": 38.92136266666667, "fusion_lon": 0.0, "rental_uris": {"ios": "https://dc.lft.to/lastmile_qr_scan", "android": "https://dc.lft.to/lastmile_qr_scan"}, "lon": -77.04561, "bike_id": "7631bc3a970df0bf5988a9f25ad6c0c0", "type": "electric_scooter", "name": "7631bc3a970df0bf5988a9f25ad6c0c0"}, {"is_disabled": 0, "is_reserved": 0, "fusion_lat": 0.0, "lat": 38.91756616666667, "fusion_lon": 0.0, "rental_uris": {"ios": "https://dc.lft.to/lastmile_qr_scan", "android": "https://dc.lft.to/lastmile_qr_scan"}, "lon": -77.047638, "bike_id": "b1b9f8e5279b4fd7a07872b77b95fa3d", "type": "electric_scooter", "name": "b1b9f8e5279b4fd7a07872b77b95fa3d"}, {"is_disabled": 0, "is_reserved": 0, "fusion_lat": 0.0, "lat": 38.904195333333334, "fusion_lon": 0.0, "rental_uris": {"ios": "https://dc.lft.to/lastmile_qr_scan", "android": "https://dc.lft.to/lastmile_qr_scan"}, "lon": -77.031014, "bike_id": "6c47939b41bbee145eb54cbfbc959be1", "type": "electric_scooter", "name": "6c47939b41bbee145eb54cbfbc959be1"}, {"is_disabled": 0, "is_reserved": 0, "fusion_lat": 0.0, "lat": 38.8840915, "fusion_lon": 0.0, "rental_uris": {"ios": "https://dc.lft.to/lastmile_qr_scan", "android": "https://dc.lft.to/lastmile_qr_scan"}, "lon": -77.02527083333334, "bike_id": "d9ccb266dff3f496eea0a13073ec0131", "type": "electric_scooter", "name": "d9ccb266dff3f496eea0a13073ec0131"}, {"is_disabled": 0, "is_reserved": 0, "fusion_lat": 0.0, "lat": 38.90599316666667, "fusion_lon": 0.0, "rental_uris": {"ios": "https://dc.lft.to/lastmile_qr_scan", "android": "https://dc.lft.to/lastmile_qr_scan"}, "lon": -77.00721166666666, "bike_id": "a20dd21015e2a113a5f83df5cb41e71d", "type": "electric_scooter", "name": "a20dd21015e2a113a5f83df5cb41e71d"}, {"is_disabled": 0, "is_reserved": 0, "fusion_lat": 0.0, "lat": 38.96799516666667, "fusion_lon": 0.0, "rental_uris": {"ios": "https://dc.lft.to/lastmile_qr_scan", "android": "https://dc.lft.to/lastmile_qr_scan"}, "lon": -77.0255695, "bike_id": "b5f3467865241f482dd4cd58ddb623f4", "type": "electric_scooter", "name": "b5f3467865241f482dd4cd58ddb623f4"}, {"is_disabled": 0, "is_reserved": 0, "fusion_lat": 0.0, "lat": 38.92210733333334, "fusion_lon": 0.0, "rental_uris": {"ios": "https://dc.lft.to/lastmile_qr_scan", "android": "https://dc.lft.to/lastmile_qr_scan"}, "lon": -77.07442616666667, "bike_id": "56025cd03ff89a7bfc1fd4c848356d29", "type": "electric_scooter", "name": "56025cd03ff89a7bfc1fd4c848356d29"}, {"is_disabled": 0, "is_reserved": 0, "fusion_lat": 0.0, "lat": 38.905956, "fusion_lon": 0.0, "rental_uris": {"ios": "https://dc.lft.to/lastmile_qr_scan", "android": "https://dc.lft.to/lastmile_qr_scan"}, "lon": -77.01607983333334, "bike_id": "72623dea61385b2030d7d8295a6fd048", "type": "electric_scooter", "name": "72623dea61385b2030d7d8295a6fd048"}, {"is_disabled": 0, "is_reserved": 0, "fusion_lat": 0.0, "lat": 38.90214366666667, "fusion_lon": 0.0, "rental_uris": {"ios": "https://dc.lft.to/lastmile_qr_scan", "android": "https://dc.lft.to/lastmile_qr_scan"}, "lon": -76.94729683333334, "bike_id": "b4493232c9bb17118e7caa489bdde630", "type": "electric_scooter", "name": "b4493232c9bb17118e7caa489bdde630"}, {"is_disabled": 0, "is_reserved": 0, "fusion_lat": 0.0, "lat": 38.834913666666665, "fusion_lon": 0.0, "rental_uris": {"ios": "https://dc.lft.to/lastmile_qr_scan", "android": "https://dc.lft.to/lastmile_qr_scan"}, "lon": -77.00437483333333, "bike_id": "33c1ef0d33c5b9c27eba9e3daf88ab94", "type": "electric_bike", "name": "33c1ef0d33c5b9c27eba9e3daf88ab94"}, {"is_disabled": 0, "is_reserved": 0, "fusion_lat": 0.0, "lat": 38.974787666666664, "fusion_lon": 0.0, "rental_uris": {"ios": "https://dc.lft.to/lastmile_qr_scan", "android": "https://dc.lft.to/lastmile_qr_scan"}, "lon": -76.98670033333333, "bike_id": "3100d736a9555ae70d412ed0aa1fc6d1", "type": "electric_bike", "name": "3100d736a9555ae70d412ed0aa1fc6d1"}, {"is_disabled": 0, "is_reserved": 0, "fusion_lat": 0.0, "lat": 39.0229685, "fusion_lon": 0.0, "rental_uris": {"ios": "https://dc.lft.to/lastmile_qr_scan", "android": "https://dc.lft.to/lastmile_qr_scan"}, "lon": -77.021065, "bike_id": "7ff95c974831e4686117d88904edbdfe", "type": "electric_bike", "name": "7ff95c974831e4686117d88904edbdfe"}, {"is_disabled": 0, "is_reserved": 0, "fusion_lat": 0.0, "lat": 38.910404166666666, "fusion_lon": 0.0, "rental_uris": {"ios": "https://dc.lft.to/lastmile_qr_scan", "android": "https://dc.lft.to/lastmile_qr_scan"}, "lon": -77.009611, "bike_id": "8833352bccdf04091d16b67a2f6aab1a", "type": "electric_scooter", "name": "8833352bccdf04091d16b67a2f6aab1a"}, {"is_disabled": 0, "is_reserved": 0, "fusion_lat": 0.0, "lat": 38.92783633333333, "fusion_lon": 0.0, "rental_uris": {"ios": "https://dc.lft.to/lastmile_qr_scan", "android": "https://dc.lft.to/lastmile_qr_scan"}, "lon": -77.02963283333334, "bike_id": "b21036d04bb1c1a62a51464765bc1554", "type": "electric_bike", "name": "b21036d04bb1c1a62a51464765bc1554"}, {"is_disabled": 0, "is_reserved": 0, "fusion_lat": 0.0, "lat": 38.89849483333333, "fusion_lon": 0.0, "rental_uris": {"ios": "https://dc.lft.to/lastmile_qr_scan", "android": "https://dc.lft.to/lastmile_qr_scan"}, "lon": -77.00196416666667, "bike_id": "07c5ab9836c081b170c90db512f1fe09", "type": "electric_scooter", "name": "07c5ab9836c081b170c90db512f1fe09"}, {"is_disabled": 0, "is_reserved": 0, "fusion_lat": 0.0, "lat": 38.90583066666667, "fusion_lon": 0.0, "rental_uris": {"ios": "https://dc.lft.to/lastmile_qr_scan", "android": "https://dc.lft.to/lastmile_qr_scan"}, "lon": -76.981648, "bike_id": "d5276e80e5b947cc3bb04817b048ca47", "type": "electric_bike", "name": "d5276e80e5b947cc3bb04817b048ca47"}, {"is_disabled": 0, "is_reserved": 0, "fusion_lat": 0.0, "lat": 38.91769466666667, "fusion_lon": 0.0, "rental_uris": {"ios": "https://dc.lft.to/lastmile_qr_scan", "android": "https://dc.lft.to/lastmile_qr_scan"}, "lon": -77.04056683333333, "bike_id": "fadb7b5749936c544ba1adbd9058664c", "type": "electric_scooter", "name": "fadb7b5749936c544ba1adbd9058664c"}, {"is_disabled": 0, "is_reserved": 0, "fusion_lat": 0.0, "lat": 38.920594, "fusion_lon": 0.0, "rental_uris": {"ios": "https://dc.lft.to/lastmile_qr_scan", "android": "https://dc.lft.to/lastmile_qr_scan"}, "lon": -77.04546116666667, "bike_id": "52e328ddac392572b011ae45240332ce", "type": "electric_scooter", "name": "52e328ddac392572b011ae45240332ce"}, {"is_disabled": 0, "is_reserved": 0, "fusion_lat": 0.0, "lat": 38.90491, "fusion_lon": 0.0, "rental_uris": {"ios": "https://dc.lft.to/lastmile_qr_scan", "android": "https://dc.lft.to/lastmile_qr_scan"}, "lon": -77.025814, "bike_id": "9bb900ad82c0c0d05c7ac800fa26963a", "type": "electric_scooter", "name": "9bb900ad82c0c0d05c7ac800fa26963a"}, {"is_disabled": 0, "is_reserved": 0, "fusion_lat": 0.0, "lat": 38.846357166666664, "fusion_lon": 0.0, "rental_uris": {"ios": "https://dc.lft.to/lastmile_qr_scan", "android": "https://dc.lft.to/lastmile_qr_scan"}, "lon": -76.96903883333333, "bike_id": "d37d6dd85602e2348fc80ed1570bfe7f", "type": "electric_bike", "name": "d37d6dd85602e2348fc80ed1570bfe7f"}, {"is_disabled": 0, "is_reserved": 0, "fusion_lat": 0.0, "lat": 38.884835333333335, "fusion_lon": 0.0, "rental_uris": {"ios": "https://dc.lft.to/lastmile_qr_scan", "android": "https://dc.lft.to/lastmile_qr_scan"}, "lon": -77.03172083333334, "bike_id": "269c2d224b6b49c76a0ec844678959c7", "type": "electric_bike", "name": "269c2d224b6b49c76a0ec844678959c7"}, {"is_disabled": 0, "is_reserved": 0, "fusion_lat": 0.0, "lat": 38.963842666666665, "fusion_lon": 0.0, "rental_uris": {"ios": "https://dc.lft.to/lastmile_qr_scan", "android": "https://dc.lft.to/lastmile_qr_scan"}, "lon": -77.01974433333334, "bike_id": "3e1f4f185624fe34557baa798d49c31d", "type": "electric_bike", "name": "3e1f4f185624fe34557baa798d49c31d"}, {"is_disabled": 0, "is_reserved": 0, "fusion_lat": 0.0, "lat": 38.8793065, "fusion_lon": 0.0, "rental_uris": {"ios": "https://dc.lft.to/lastmile_qr_scan", "android": "https://dc.lft.to/lastmile_qr_scan"}, "lon": -77.004085, "bike_id": "202cc1576f53ed901d216f77f8102ec6", "type": "electric_scooter", "name": "202cc1576f53ed901d216f77f8102ec6"}, {"is_disabled": 0, "is_reserved": 0, "fusion_lat": 0.0, "lat": 38.951009166666665, "fusion_lon": 0.0, "rental_uris": {"ios": "https://dc.lft.to/lastmile_qr_scan", "android": "https://dc.lft.to/lastmile_qr_scan"}, "lon": -77.02192816666667, "bike_id": "06d9c67f541f922e9d120c86c9f1fca7", "type": "electric_scooter", "name": "06d9c67f541f922e9d120c86c9f1fca7"}, {"is_disabled": 0, "is_reserved": 0, "fusion_lat": 0.0, "lat": 38.93054866666667, "fusion_lon": 0.0, "rental_uris": {"ios": "https://dc.lft.to/lastmile_qr_scan", "android": "https://dc.lft.to/lastmile_qr_scan"}, "lon": -77.03366283333334, "bike_id": "1301a3e4397efa31531010d452ad1879", "type": "electric_scooter", "name": "1301a3e4397efa31531010d452ad1879"}, {"is_disabled": 0, "is_reserved": 0, "fusion_lat": 0.0, "lat": 38.918038833333334, "fusion_lon": 0.0, "rental_uris": {"ios": "https://dc.lft.to/lastmile_qr_scan", "android": "https://dc.lft.to/lastmile_qr_scan"}, "lon": -77.0344245, "bike_id": "46d8fef637c1fb2021af739513679f36", "type": "electric_scooter", "name": "46d8fef637c1fb2021af739513679f36"}, {"is_disabled": 0, "is_reserved": 0, "fusion_lat": 0.0, "lat": 38.92272366666667, "fusion_lon": 0.0, "rental_uris": {"ios": "https://dc.lft.to/lastmile_qr_scan", "android": "https://dc.lft.to/lastmile_qr_scan"}, "lon": -77.0297345, "bike_id": "15306c17479ba10192404b3a2a5502eb", "type": "electric_scooter", "name": "15306c17479ba10192404b3a2a5502eb"}, {"is_disabled": 0, "is_reserved": 0, "fusion_lat": 0.0, "lat": 38.947939833333336, "fusion_lon": 0.0, "rental_uris": {"ios": "https://dc.lft.to/lastmile_qr_scan", "android": "https://dc.lft.to/lastmile_qr_scan"}, "lon": -77.078957, "bike_id": "5a35af4ae86a20082d82f0ed091c39d3", "type": "electric_scooter", "name": "5a35af4ae86a20082d82f0ed091c39d3"}, {"is_disabled": 0, "is_reserved": 0, "fusion_lat": 0.0, "lat": 38.90184883333333, "fusion_lon": 0.0, "rental_uris": {"ios": "https://dc.lft.to/lastmile_qr_scan", "android": "https://dc.lft.to/lastmile_qr_scan"}, "lon": -76.9767165, "bike_id": "c1fa705c40fd860b20c96a180e6a75ab", "type": "electric_scooter", "name": "c1fa705c40fd860b20c96a180e6a75ab"}, {"is_disabled": 0, "is_reserved": 0, "fusion_lat": 0.0, "lat": 38.8871225, "fusion_lon": 0.0, "rental_uris": {"ios": "https://dc.lft.to/lastmile_qr_scan", "android": "https://dc.lft.to/lastmile_qr_scan"}, "lon": -76.98384266666666, "bike_id": "bd38174805705fd14c89dd4e8b350d28", "type": "electric_scooter", "name": "bd38174805705fd14c89dd4e8b350d28"}, {"is_disabled": 0, "is_reserved": 0, "fusion_lat": 0.0, "lat": 38.9111145, "fusion_lon": 0.0, "rental_uris": {"ios": "https://dc.lft.to/lastmile_qr_scan", "android": "https://dc.lft.to/lastmile_qr_scan"}, "lon": -77.04836316666666, "bike_id": "c34c1c85ad3bf024d2e4e5baa5dc1ab8", "type": "electric_scooter", "name": "c34c1c85ad3bf024d2e4e5baa5dc1ab8"}, {"is_disabled": 0, "is_reserved": 0, "fusion_lat": 0.0, "lat": 38.93444983333333, "fusion_lon": 0.0, "rental_uris": {"ios": "https://dc.lft.to/lastmile_qr_scan", "android": "https://dc.lft.to/lastmile_qr_scan"}, "lon": -77.02983216666667, "bike_id": "3d50408b5bf40bb5f08521a126a6e5cb", "type": "electric_scooter", "name": "3d50408b5bf40bb5f08521a126a6e5cb"}, {"is_disabled": 0, "is_reserved": 0, "fusion_lat": 0.0, "lat": 38.940847833333336, "fusion_lon": 0.0, "rental_uris": {"ios": "https://dc.lft.to/lastmile_qr_scan", "android": "https://dc.lft.to/lastmile_qr_scan"}, "lon": -77.00156233333334, "bike_id": "151c09fd4c3655f0dcbcc68d05609e52", "type": "electric_bike", "name": "151c09fd4c3655f0dcbcc68d05609e52"}, {"is_disabled": 0, "is_reserved": 0, "fusion_lat": 0.0, "lat": 38.906046833333335, "fusion_lon": 0.0, "rental_uris": {"ios": "https://dc.lft.to/lastmile_qr_scan", "android": "https://dc.lft.to/lastmile_qr_scan"}, "lon": -77.128788, "bike_id": "27497cca8aa533c73afb6d82d820c7a4", "type": "electric_bike", "name": "27497cca8aa533c73afb6d82d820c7a4"}, {"is_disabled": 0, "is_reserved": 0, "fusion_lat": 0.0, "lat": 38.90032, "fusion_lon": 0.0, "rental_uris": {"ios": "https://dc.lft.to/lastmile_qr_scan", "android": "https://dc.lft.to/lastmile_qr_scan"}, "lon": -77.0037495, "bike_id": "48daa683eb005a3c01ade2631575077d", "type": "electric_scooter", "name": "48daa683eb005a3c01ade2631575077d"}, {"is_disabled": 0, "is_reserved": 0, "fusion_lat": 0.0, "lat": 38.90271116666667, "fusion_lon": 0.0, "rental_uris": {"ios": "https://dc.lft.to/lastmile_qr_scan", "android": "https://dc.lft.to/lastmile_qr_scan"}, "lon": -77.011557, "bike_id": "7e91fbae7f149bae8cd278cb24ad1e37", "type": "electric_scooter", "name": "7e91fbae7f149bae8cd278cb24ad1e37"}, {"is_disabled": 0, "is_reserved": 0, "fusion_lat": 0.0, "lat": 38.9336275, "fusion_lon": 0.0, "rental_uris": {"ios": "https://dc.lft.to/lastmile_qr_scan", "android": "https://dc.lft.to/lastmile_qr_scan"}, "lon": -77.02644133333334, "bike_id": "ac29fcc2e19c483db5da6c5b5ac2b2b4", "type": "electric_scooter", "name": "ac29fcc2e19c483db5da6c5b5ac2b2b4"}, {"is_disabled": 0, "is_reserved": 0, "fusion_lat": 0.0, "lat": 38.91968766666667, "fusion_lon": 0.0, "rental_uris": {"ios": "https://dc.lft.to/lastmile_qr_scan", "android": "https://dc.lft.to/lastmile_qr_scan"}, "lon": -77.00214233333334, "bike_id": "9871da43050ebd6e9234031c3051181b", "type": "electric_scooter", "name": "9871da43050ebd6e9234031c3051181b"}, {"is_disabled": 0, "is_reserved": 0, "fusion_lat": 0.0, "lat": 38.92109816666667, "fusion_lon": 0.0, "rental_uris": {"ios": "https://dc.lft.to/lastmile_qr_scan", "android": "https://dc.lft.to/lastmile_qr_scan"}, "lon": -77.04695383333333, "bike_id": "81cc411dc5f7d88699b3c937895529e2", "type": "electric_scooter", "name": "81cc411dc5f7d88699b3c937895529e2"}, {"is_disabled": 0, "is_reserved": 0, "fusion_lat": 0.0, "lat": 38.911783166666666, "fusion_lon": 0.0, "rental_uris": {"ios": "https://dc.lft.to/lastmile_qr_scan", "android": "https://dc.lft.to/lastmile_qr_scan"}, "lon": -77.0283255, "bike_id": "4ade4edbbec628c1ad052a585257f131", "type": "electric_scooter", "name": "4ade4edbbec628c1ad052a585257f131"}, {"is_disabled": 0, "is_reserved": 0, "fusion_lat": 0.0, "lat": 38.933757166666666, "fusion_lon": 0.0, "rental_uris": {"ios": "https://dc.lft.to/lastmile_qr_scan", "android": "https://dc.lft.to/lastmile_qr_scan"}, "lon": -77.0272605, "bike_id": "6c83fa764af00e4a8e7446d40a710d60", "type": "electric_scooter", "name": "6c83fa764af00e4a8e7446d40a710d60"}, {"is_disabled": 0, "is_reserved": 0, "fusion_lat": 0.0, "lat": 38.90606483333333, "fusion_lon": 0.0, "rental_uris": {"ios": "https://dc.lft.to/lastmile_qr_scan", "android": "https://dc.lft.to/lastmile_qr_scan"}, "lon": -77.05647716666667, "bike_id": "445e27e42cac625bf489bd59cb835aca", "type": "electric_scooter", "name": "445e27e42cac625bf489bd59cb835aca"}, {"is_disabled": 0, "is_reserved": 0, "fusion_lat": 0.0, "lat": 38.897462166666664, "fusion_lon": 0.0, "rental_uris": {"ios": "https://dc.lft.to/lastmile_qr_scan", "android": "https://dc.lft.to/lastmile_qr_scan"}, "lon": -77.03337166666667, "bike_id": "a6ee6fb361188481706fb13f9b5af1a9", "type": "electric_scooter", "name": "a6ee6fb361188481706fb13f9b5af1a9"}, {"is_disabled": 0, "is_reserved": 0, "fusion_lat": 0.0, "lat": 38.96477983333333, "fusion_lon": 0.0, "rental_uris": {"ios": "https://dc.lft.to/lastmile_qr_scan", "android": "https://dc.lft.to/lastmile_qr_scan"}, "lon": -77.031779, "bike_id": "dc3452e23a831acc83e26cc1fb5caa4e", "type": "electric_bike", "name": "dc3452e23a831acc83e26cc1fb5caa4e"}, {"is_disabled": 0, "is_reserved": 0, "fusion_lat": 0.0, "lat": 38.92919033333333, "fusion_lon": 0.0, "rental_uris": {"ios": "https://dc.lft.to/lastmile_qr_scan", "android": "https://dc.lft.to/lastmile_qr_scan"}, "lon": -77.03216766666667, "bike_id": "a27b98ed98c6d6b8579fd0d59881a4c5", "type": "electric_scooter", "name": "a27b98ed98c6d6b8579fd0d59881a4c5"}, {"is_disabled": 0, "is_reserved": 0, "fusion_lat": 0.0, "lat": 38.955905666666666, "fusion_lon": 0.0, "rental_uris": {"ios": "https://dc.lft.to/lastmile_qr_scan", "android": "https://dc.lft.to/lastmile_qr_scan"}, "lon": -77.02806, "bike_id": "2f4b4b59900e259256c738bc11698377", "type": "electric_scooter", "name": "2f4b4b59900e259256c738bc11698377"}, {"is_disabled": 0, "is_reserved": 0, "fusion_lat": 0.0, "lat": 38.8895075, "fusion_lon": 0.0, "rental_uris": {"ios": "https://dc.lft.to/lastmile_qr_scan", "android": "https://dc.lft.to/lastmile_qr_scan"}, "lon": -77.07601933333333, "bike_id": "2ca4772aeb8bc225d0c2f01577c87a4e", "type": "electric_bike", "name": "2ca4772aeb8bc225d0c2f01577c87a4e"}, {"is_disabled": 0, "is_reserved": 0, "fusion_lat": 0.0, "lat": 38.939817166666664, "fusion_lon": 0.0, "rental_uris": {"ios": "https://dc.lft.to/lastmile_qr_scan", "android": "https://dc.lft.to/lastmile_qr_scan"}, "lon": -77.01908766666666, "bike_id": "b1cef16f3b059aedb42cf11931864155", "type": "electric_scooter", "name": "b1cef16f3b059aedb42cf11931864155"}, {"is_disabled": 0, "is_reserved": 0, "fusion_lat": 0.0, "lat": 38.951124, "fusion_lon": 0.0, "rental_uris": {"ios": "https://dc.lft.to/lastmile_qr_scan", "android": "https://dc.lft.to/lastmile_qr_scan"}, "lon": -77.018906, "bike_id": "97afeabc55b5747f27b7050584326c5c", "type": "electric_scooter", "name": "97afeabc55b5747f27b7050584326c5c"}, {"is_disabled": 0, "is_reserved": 0, "fusion_lat": 0.0, "lat": 38.982103333333335, "fusion_lon": 0.0, "rental_uris": {"ios": "https://dc.lft.to/lastmile_qr_scan", "android": "https://dc.lft.to/lastmile_qr_scan"}, "lon": -76.97816983333334, "bike_id": "de19bee6614eed8a0b8bb12054ce4a26", "type": "electric_bike", "name": "de19bee6614eed8a0b8bb12054ce4a26"}, {"is_disabled": 0, "is_reserved": 0, "fusion_lat": 0.0, "lat": 38.921482, "fusion_lon": 0.0, "rental_uris": {"ios": "https://dc.lft.to/lastmile_qr_scan", "android": "https://dc.lft.to/lastmile_qr_scan"}, "lon": -77.03648616666666, "bike_id": "2af7a22fb883b3014d77e7119bf6098d", "type": "electric_scooter", "name": "2af7a22fb883b3014d77e7119bf6098d"}, {"is_disabled": 0, "is_reserved": 0, "fusion_lat": 0.0, "lat": 38.893643, "fusion_lon": 0.0, "rental_uris": {"ios": "https://dc.lft.to/lastmile_qr_scan", "android": "https://dc.lft.to/lastmile_qr_scan"}, "lon": -77.0447515, "bike_id": "5be8683e5e6339fc95eb8e8e111279d9", "type": "electric_scooter", "name": "5be8683e5e6339fc95eb8e8e111279d9"}, {"is_disabled": 0, "is_reserved": 0, "fusion_lat": 0.0, "lat": 38.936110166666666, "fusion_lon": 0.0, "rental_uris": {"ios": "https://dc.lft.to/lastmile_qr_scan", "android": "https://dc.lft.to/lastmile_qr_scan"}, "lon": -77.05586116666667, "bike_id": "fffc94c927abdb03b6e8463fcdf321e6", "type": "electric_scooter", "name": "fffc94c927abdb03b6e8463fcdf321e6"}, {"is_disabled": 0, "is_reserved": 0, "fusion_lat": 0.0, "lat": 38.87833366666667, "fusion_lon": 0.0, "rental_uris": {"ios": "https://dc.lft.to/lastmile_qr_scan", "android": "https://dc.lft.to/lastmile_qr_scan"}, "lon": -76.98607416666667, "bike_id": "915a58d53c456d90100b22e275e5a715", "type": "electric_scooter", "name": "915a58d53c456d90100b22e275e5a715"}, {"is_disabled": 0, "is_reserved": 0, "fusion_lat": 0.0, "lat": 38.9277955, "fusion_lon": 0.0, "rental_uris": {"ios": "https://dc.lft.to/lastmile_qr_scan", "android": "https://dc.lft.to/lastmile_qr_scan"}, "lon": -77.052592, "bike_id": "1bc4a4e09aa245f5bae881e813b0a152", "type": "electric_scooter", "name": "1bc4a4e09aa245f5bae881e813b0a152"}, {"is_disabled": 0, "is_reserved": 0, "fusion_lat": 0.0, "lat": 38.93473133333333, "fusion_lon": 0.0, "rental_uris": {"ios": "https://dc.lft.to/lastmile_qr_scan", "android": "https://dc.lft.to/lastmile_qr_scan"}, "lon": -77.0241695, "bike_id": "040c626e5eb23820db68ed15eaf7de90", "type": "electric_scooter", "name": "040c626e5eb23820db68ed15eaf7de90"}, {"is_disabled": 0, "is_reserved": 0, "fusion_lat": 0.0, "lat": 38.941682166666666, "fusion_lon": 0.0, "rental_uris": {"ios": "https://dc.lft.to/lastmile_qr_scan", "android": "https://dc.lft.to/lastmile_qr_scan"}, "lon": -76.99404766666666, "bike_id": "5f86a650a14bcb775fc617c214a2af2e", "type": "electric_bike", "name": "5f86a650a14bcb775fc617c214a2af2e"}, {"is_disabled": 0, "is_reserved": 0, "fusion_lat": 0.0, "lat": 38.9261405, "fusion_lon": 0.0, "rental_uris": {"ios": "https://dc.lft.to/lastmile_qr_scan", "android": "https://dc.lft.to/lastmile_qr_scan"}, "lon": -77.00653616666666, "bike_id": "af180922e8f99a9781b38f08d28f1d1a", "type": "electric_scooter", "name": "af180922e8f99a9781b38f08d28f1d1a"}, {"is_disabled": 0, "is_reserved": 0, "fusion_lat": 0.0, "lat": 38.9154045, "fusion_lon": 0.0, "rental_uris": {"ios": "https://dc.lft.to/lastmile_qr_scan", "android": "https://dc.lft.to/lastmile_qr_scan"}, "lon": -77.00919416666666, "bike_id": "361661b3dc2181e42ee7591e3435fad4", "type": "electric_scooter", "name": "361661b3dc2181e42ee7591e3435fad4"}, {"is_disabled": 0, "is_reserved": 0, "fusion_lat": 0.0, "lat": 38.914764166666664, "fusion_lon": 0.0, "rental_uris": {"ios": "https://dc.lft.to/lastmile_qr_scan", "android": "https://dc.lft.to/lastmile_qr_scan"}, "lon": -77.00199466666666, "bike_id": "eb0c69b8db20eec5b6638e0db379251b", "type": "electric_scooter", "name": "eb0c69b8db20eec5b6638e0db379251b"}, {"is_disabled": 0, "is_reserved": 0, "fusion_lat": 0.0, "lat": 38.92865466666667, "fusion_lon": 0.0, "rental_uris": {"ios": "https://dc.lft.to/lastmile_qr_scan", "android": "https://dc.lft.to/lastmile_qr_scan"}, "lon": -77.01410833333334, "bike_id": "54586050bdfa654b76030374220e0305", "type": "electric_scooter", "name": "54586050bdfa654b76030374220e0305"}, {"is_disabled": 0, "is_reserved": 0, "fusion_lat": 0.0, "lat": 38.8971795, "fusion_lon": 0.0, "rental_uris": {"ios": "https://dc.lft.to/lastmile_qr_scan", "android": "https://dc.lft.to/lastmile_qr_scan"}, "lon": -77.00796166666667, "bike_id": "9495ae2db8f181a4ac5b5f1bfcc62e3a", "type": "electric_scooter", "name": "9495ae2db8f181a4ac5b5f1bfcc62e3a"}, {"is_disabled": 0, "is_reserved": 0, "fusion_lat": 0.0, "lat": 38.8960815, "fusion_lon": 0.0, "rental_uris": {"ios": "https://dc.lft.to/lastmile_qr_scan", "android": "https://dc.lft.to/lastmile_qr_scan"}, "lon": -76.99803433333334, "bike_id": "66bd726d01c13f09c7dd8eb6be3c6216", "type": "electric_scooter", "name": "66bd726d01c13f09c7dd8eb6be3c6216"}, {"is_disabled": 0, "is_reserved": 0, "fusion_lat": 0.0, "lat": 38.9111665, "fusion_lon": 0.0, "rental_uris": {"ios": "https://dc.lft.to/lastmile_qr_scan", "android": "https://dc.lft.to/lastmile_qr_scan"}, "lon": -77.01165416666667, "bike_id": "af5993b1af3eec9c332f8e77520f2ec7", "type": "electric_scooter", "name": "af5993b1af3eec9c332f8e77520f2ec7"}, {"is_disabled": 0, "is_reserved": 0, "fusion_lat": 0.0, "lat": 38.928947666666666, "fusion_lon": 0.0, "rental_uris": {"ios": "https://dc.lft.to/lastmile_qr_scan", "android": "https://dc.lft.to/lastmile_qr_scan"},