{"data": {"bikes": [{"fusion_lat": 0.0, "name": "7284c905f124308d3185a437a405219c", "is_disabled": 0, "rental_uris": {"android": "https://dc.lft.to/lastmile_qr_scan", "ios": "https://dc.lft.to/lastmile_qr_scan"}, "fusion_lon": 0.0, "lat": 38.9225855, "bike_id": "7284c905f124308d3185a437a405219c", "type": "electric_scooter", "is_reserved": 0, "lon": -77.03666116666666}, {"fusion_lat": 0.0, "name": "08f937cf77f64c6bd5a8c324bf980f7a", "is_disabled": 0, "rental_uris": {"android": "https://dc.lft.to/lastmile_qr_scan", "ios": "https://dc.lft.to/lastmile_qr_scan"}, "fusion_lon": 0.0, "lat": 38.913306, "bike_id": "08f937cf77f64c6bd5a8c324bf980f7a", "type": "electric_scooter", "is_reserved": 0, "lon": -77.042861}, {"fusion_lat": 0.0, "name": "7ffebd80d1a1ccc9711c73e65fb46455", "is_disabled": 0, "rental_uris": {"android": "https://dc.lft.to/lastmile_qr_scan", "ios": "https://dc.lft.to/lastmile_qr_scan"}, "fusion_lon": 0.0, "lat": 38.92397716666667, "bike_id": "7ffebd80d1a1ccc9711c73e65fb46455", "type": "electric_scooter", "is_reserved": 0, "lon": -77.05262283333333}, {"fusion_lat": 0.0, "name": "6f7e56ba7f64acb6414334ae28b12056", "is_disabled": 0, "rental_uris": {"android": "https://dc.lft.to/lastmile_qr_scan", "ios": "https://dc.lft.to/lastmile_qr_scan"}, "fusion_lon": 0.0, "lat": 38.907773666666664, "bike_id": "6f7e56ba7f64acb6414334ae28b12056", "type": "electric_scooter", "is_reserved": 0, "lon": -77.0186175}, {"fusion_lat": 0.0, "name": "b95626c5c2527274dbbf56c58ec3651a", "is_disabled": 0, "rental_uris": {"android": "https://dc.lft.to/lastmile_qr_scan", "ios": "https://dc.lft.to/lastmile_qr_scan"}, "fusion_lon": 0.0, "lat": 38.923866333333336, "bike_id": "b95626c5c2527274dbbf56c58ec3651a", "type": "electric_scooter", "is_reserved": 0, "lon": -77.03663316666666}, {"fusion_lat": 0.0, "name": "d720176b96632240ba30dd7cdf3a6e69", "is_disabled": 0, "rental_uris": {"android": "https://dc.lft.to/lastmile_qr_scan", "ios": "https://dc.lft.to/lastmile_qr_scan"}, "fusion_lon": 0.0, "lat": 38.958804, "bike_id": "d720176b96632240ba30dd7cdf3a6e69", "type": "electric_scooter", "is_reserved": 0, "lon": -77.01168833333334}, {"fusion_lat": 0.0, "name": "86ad3aa962206aaf070104947fb87f72", "is_disabled": 0, "rental_uris": {"android": "https://dc.lft.to/lastmile_qr_scan", "ios": "https://dc.lft.to/lastmile_qr_scan"}, "fusion_lon": 0.0, "lat": 38.91697283333333, "bike_id": "86ad3aa962206aaf070104947fb87f72", "type": "electric_scooter", "is_reserved": 0, "lon": -77.03033916666666}, {"fusion_lat": 0.0, "name": "e06b73449c01338df9bd88b2c74edcc1", "is_disabled": 0, "rental_uris": {"android": "https://dc.lft.to/lastmile_qr_scan", "ios": "https://dc.lft.to/lastmile_qr_scan"}, "fusion_lon": 0.0, "lat": 38.876576166666666, "bike_id": "e06b73449c01338df9bd88b2c74edcc1", "type": "electric_scooter", "is_reserved": 0, "lon": -77.009114}, {"fusion_lat": 0.0, "name": "9c78f382cb97ae42011ef34eb653247c", "is_disabled": 0, "rental_uris": {"android": "https://dc.lft.to/lastmile_qr_scan", "ios": "https://dc.lft.to/lastmile_qr_scan"}, "fusion_lon": 0.0, "lat": 38.91189283333333, "bike_id": "9c78f382cb97ae42011ef34eb653247c", "type": "electric_scooter", "is_reserved": 0, "lon": -77.03823533333333}, {"fusion_lat": 0.0, "name": "3e193e19f5737ec8287eeaa04a11c91b", "is_disabled": 0, "rental_uris": {"android": "https://dc.lft.to/lastmile_qr_scan", "ios": "https://dc.lft.to/lastmile_qr_scan"}, "fusion_lon": 0.0, "lat": 38.927941833333335, "bike_id": "3e193e19f5737ec8287eeaa04a11c91b", "type": "electric_scooter", "is_reserved": 0, "lon": -77.02728583333334}, {"fusion_lat": 0.0, "name": "0d23076e8ad8de8264e307a36e88046a", "is_disabled": 0, "rental_uris": {"android": "https://dc.lft.to/lastmile_qr_scan", "ios": "https://dc.lft.to/lastmile_qr_scan"}, "fusion_lon": 0.0, "lat": 38.898739166666665, "bike_id": "0d23076e8ad8de8264e307a36e88046a", "type": "electric_scooter", "is_reserved": 0, "lon": -76.93187083333333}, {"fusion_lat": 0.0, "name": "fd002244b5273f13b5bffc64e11a18d8", "is_disabled": 0, "rental_uris": {"android": "https://dc.lft.to/lastmile_qr_scan", "ios": "https://dc.lft.to/lastmile_qr_scan"}, "fusion_lon": 0.0, "lat": 38.9024385, "bike_id": "fd002244b5273f13b5bffc64e11a18d8", "type": "electric_scooter", "is_reserved": 0, "lon": -77.00772166666667}, {"fusion_lat": 0.0, "name": "64df264fbb7b30801db7619d58db963c", "is_disabled": 0, "rental_uris": {"android": "https://dc.lft.to/lastmile_qr_scan", "ios": "https://dc.lft.to/lastmile_qr_scan"}, "fusion_lon": 0.0, "lat": 38.90805366666667, "bike_id": "64df264fbb7b30801db7619d58db963c", "type": "electric_scooter", "is_reserved": 0, "lon": -77.03443883333334}, {"fusion_lat": 0.0, "name": "b8be40f30a641f136b0d79fb24a3ea1a", "is_disabled": 0, "rental_uris": {"android": "https://dc.lft.to/lastmile_qr_scan", "ios": "https://dc.lft.to/lastmile_qr_scan"}, "fusion_lon": 0.0, "lat": 38.93360066666666, "bike_id": "b8be40f30a641f136b0d79fb24a3ea1a", "type": "electric_scooter", "is_reserved": 0, "lon": -77.0241765}, {"fusion_lat": 0.0, "name": "543637099e4536983ff9bce993c62be7", "is_disabled": 0, "rental_uris": {"android": "https://dc.lft.to/lastmile_qr_scan", "ios": "https://dc.lft.to/lastmile_qr_scan"}, "fusion_lon": 0.0, "lat": 38.89718533333333, "bike_id": "543637099e4536983ff9bce993c62be7", "type": "electric_scooter", "is_reserved": 0, "lon": -77.02707216666667}, {"fusion_lat": 0.0, "name": "19279da9eb5c74cc0b2abb07d3ed63cd", "is_disabled": 0, "rental_uris": {"android": "https://dc.lft.to/lastmile_qr_scan", "ios": "https://dc.lft.to/lastmile_qr_scan"}, "fusion_lon": 0.0, "lat": 38.93519116666667, "bike_id": "19279da9eb5c74cc0b2abb07d3ed63cd", "type": "electric_scooter", "is_reserved": 0, "lon": -77.07275333333334}, {"fusion_lat": 0.0, "name": "e1b8c04a34d2e937d1d0e54d9e3076b9", "is_disabled": 0, "rental_uris": {"android": "https://dc.lft.to/lastmile_qr_scan", "ios": "https://dc.lft.to/lastmile_qr_scan"}, "fusion_lon": 0.0, "lat": 38.8985185, "bike_id": "e1b8c04a34d2e937d1d0e54d9e3076b9", "type": "electric_scooter", "is_reserved": 0, "lon": -76.990402}, {"fusion_lat": 0.0, "name": "fb460ef9153cfae86156f3af8a56528c", "is_disabled": 0, "rental_uris": {"android": "https://dc.lft.to/lastmile_qr_scan", "ios": "https://dc.lft.to/lastmile_qr_scan"}, "fusion_lon": 0.0, "lat": 39.0524905, "bike_id": "fb460ef9153cfae86156f3af8a56528c", "type": "electric_bike", "is_reserved": 0, "lon": -77.080661}, {"fusion_lat": 0.0, "name": "1fc10fa677e9b871c62d7f8c5f04cd4c", "is_disabled": 0, "rental_uris": {"android": "https://dc.lft.to/lastmile_qr_scan", "ios": "https://dc.lft.to/lastmile_qr_scan"}, "fusion_lon": 0.0, "lat": 38.89441133333333, "bike_id": "1fc10fa677e9b871c62d7f8c5f04cd4c", "type": "electric_scooter", "is_reserved": 0, "lon": -76.93684183333333}, {"fusion_lat": 0.0, "name": "55ace3e4bdf9fb3c4bbbb4b31076c140", "is_disabled": 0, "rental_uris": {"android": "https://dc.lft.to/lastmile_qr_scan", "ios": "https://dc.lft.to/lastmile_qr_scan"}, "fusion_lon": 0.0, "lat": 38.915676, "bike_id": "55ace3e4bdf9fb3c4bbbb4b31076c140", "type": "electric_scooter", "is_reserved": 0, "lon": -77.03856483333334}, {"fusion_lat": 0.0, "name": "584129863e8ba6d25cefb3fc57c74de9", "is_disabled": 0, "rental_uris": {"android": "https://dc.lft.to/lastmile_qr_scan", "ios": "https://dc.lft.to/lastmile_qr_scan"}, "fusion_lon": 0.0, "lat": 38.883120166666664, "bike_id": "584129863e8ba6d25cefb3fc57c74de9", "type": "electric_scooter", "is_reserved": 0, "lon": -77.0172845}, {"fusion_lat": 0.0, "name": "91f394ec9c9b1b6706b1785032cb380f", "is_disabled": 0, "rental_uris": {"android": "https://dc.lft.to/lastmile_qr_scan", "ios": "https://dc.lft.to/lastmile_qr_scan"}, "fusion_lon": 0.0, "lat": 38.847536833333336, "bike_id": "91f394ec9c9b1b6706b1785032cb380f", "type": "electric_scooter", "is_reserved": 0, "lon": -76.99502033333333}, {"fusion_lat": 0.0, "name": "a883849feea0e7b5a74d5c2ebce431d4", "is_disabled": 0, "rental_uris": {"android": "https://dc.lft.to/lastmile_qr_scan", "ios": "https://dc.lft.to/lastmile_qr_scan"}, "fusion_lon": 0.0, "lat": 38.918153, "bike_id": "a883849feea0e7b5a74d5c2ebce431d4", "type": "electric_scooter", "is_reserved": 0, "lon": -77.0372655}, {"fusion_lat": 0.0, "name": "5b9045e3f73abb7f538a6a1f7a6db5b0", "is_disabled": 0, "rental_uris": {"android": "https://dc.lft.to/lastmile_qr_scan", "ios": "https://dc.lft.to/lastmile_qr_scan"}, "fusion_lon": 0.0, "lat": 38.89957166666667, "bike_id": "5b9045e3f73abb7f538a6a1f7a6db5b0", "type": "electric_scooter", "is_reserved": 0, "lon": -77.0151405}, {"fusion_lat": 0.0, "name": "a4564260bdc5402d7cf1014c922a3cd4", "is_disabled": 0, "rental_uris": {"android": "https://dc.lft.to/lastmile_qr_scan", "ios": "https://dc.lft.to/lastmile_qr_scan"}, "fusion_lon": 0.0, "lat": 38.907811, "bike_id": "a4564260bdc5402d7cf1014c922a3cd4", "type": "electric_scooter", "is_reserved": 0, "lon": -77.03863233333334}, {"fusion_lat": 0.0, "name": "db6e3aa4fbb14fb8f53edafdef8734e0", "is_disabled": 0, "rental_uris": {"android": "https://dc.lft.to/lastmile_qr_scan", "ios": "https://dc.lft.to/lastmile_qr_scan"}, "fusion_lon": 0.0, "lat": 38.94916966666667, "bike_id": "db6e3aa4fbb14fb8f53edafdef8734e0", "type": "electric_bike", "is_reserved": 0, "lon": -77.00797833333333}, {"fusion_lat": 0.0, "name": "598676634bb8ee78dd6bd85d9b39a033", "is_disabled": 0, "rental_uris": {"android": "https://dc.lft.to/lastmile_qr_scan", "ios": "https://dc.lft.to/lastmile_qr_scan"}, "fusion_lon": 0.0, "lat": 38.919856833333334, "bike_id": "598676634bb8ee78dd6bd85d9b39a033", "type": "electric_scooter", "is_reserved": 0, "lon": -77.03333}, {"fusion_lat": 0.0, "name": "68b4a90923564da3254afbabe9c2752a", "is_disabled": 0, "rental_uris": {"android": "https://dc.lft.to/lastmile_qr_scan", "ios": "https://dc.lft.to/lastmile_qr_scan"}, "fusion_lon": 0.0, "lat": 38.95874933333333, "bike_id": "68b4a90923564da3254afbabe9c2752a", "type": "electric_bike", "is_reserved": 0, "lon": -76.97054983333334}, {"fusion_lat": 0.0, "name": "c72bf3c70780cd669fd2ee8c5491e8f5", "is_disabled": 0, "rental_uris": {"android": "https://dc.lft.to/lastmile_qr_scan", "ios": "https://dc.lft.to/lastmile_qr_scan"}, "fusion_lon": 0.0, "lat": 38.89974383333333, "bike_id": "c72bf3c70780cd669fd2ee8c5491e8f5", "type": "electric_scooter", "is_reserved": 0, "lon": -77.0335995}, {"fusion_lat": 0.0, "name": "1cd49f7dc001dda32e0c2b22a94ed9d6", "is_disabled": 0, "rental_uris": {"android": "https://dc.lft.to/lastmile_qr_scan", "ios": "https://dc.lft.to/lastmile_qr_scan"}, "fusion_lon": 0.0, "lat": 38.923440666666664, "bike_id": "1cd49f7dc001dda32e0c2b22a94ed9d6", "type": "electric_scooter", "is_reserved": 0, "lon": -77.03546133333333}, {"fusion_lat": 0.0, "name": "745be81ae6cdb34d14ada3c5ec8c4ab1", "is_disabled": 0, "rental_uris": {"android": "https://dc.lft.to/lastmile_qr_scan", "ios": "https://dc.lft.to/lastmile_qr_scan"}, "fusion_lon": 0.0, "lat": 38.90625816666667, "bike_id": "745be81ae6cdb34d14ada3c5ec8c4ab1", "type": "electric_scooter", "is_reserved": 0, "lon": -77.02970666666667}, {"fusion_lat": 0.0, "name": "fb22282ed21aac2035e939d8d05530d8", "is_disabled": 0, "rental_uris": {"android": "https://dc.lft.to/lastmile_qr_scan", "ios": "https://dc.lft.to/lastmile_qr_scan"}, "fusion_lon": 0.0, "lat": 38.95631733333333, "bike_id": "fb22282ed21aac2035e939d8d05530d8", "type": "electric_scooter", "is_reserved": 0, "lon": -77.03306266666667}, {"fusion_lat": 0.0, "name": "8b1160a8e9feeaa5a7ff5a410e5b407f", "is_disabled": 0, "rental_uris": {"android": "https://dc.lft.to/lastmile_qr_scan", "ios": "https://dc.lft.to/lastmile_qr_scan"}, "fusion_lon": 0.0, "lat": 38.93604633333333, "bike_id": "8b1160a8e9feeaa5a7ff5a410e5b407f", "type": "electric_scooter", "is_reserved": 0, "lon": -77.02295383333333}, {"fusion_lat": 0.0, "name": "7de6202dabb59c26bf2b7de7b5faba7e", "is_disabled": 0, "rental_uris": {"android": "https://dc.lft.to/lastmile_qr_scan", "ios": "https://dc.lft.to/lastmile_qr_scan"}, "fusion_lon": 0.0, "lat": 38.920773833333335, "bike_id": "7de6202dabb59c26bf2b7de7b5faba7e", "type": "electric_scooter", "is_reserved": 0, "lon": -77.02303016666667}, {"fusion_lat": 0.0, "name": "da99174b376491c8a476c2959c7f0039", "is_disabled": 0, "rental_uris": {"android": "https://dc.lft.to/lastmile_qr_scan", "ios": "https://dc.lft.to/lastmile_qr_scan"}, "fusion_lon": 0.0, "lat": 38.8829885, "bike_id": "da99174b376491c8a476c2959c7f0039", "type": "electric_scooter", "is_reserved": 0, "lon": -76.948558}, {"fusion_lat": 0.0, "name": "dc961f72cb75cc23dcdfed5fa40181f4", "is_disabled": 0, "rental_uris": {"android": "https://dc.lft.to/lastmile_qr_scan", "ios": "https://dc.lft.to/lastmile_qr_scan"}, "fusion_lon": 0.0, "lat": 38.91257133333333, "bike_id": "dc961f72cb75cc23dcdfed5fa40181f4", "type": "electric_scooter", "is_reserved": 0, "lon": -77.0063185}, {"fusion_lat": 0.0, "name": "1639edea8311429709ed29cb2f155e54", "is_disabled": 0, "rental_uris": {"android": "https://dc.lft.to/lastmile_qr_scan", "ios": "https://dc.lft.to/lastmile_qr_scan"}, "fusion_lon": 0.0, "lat": 38.924225666666665, "bike_id": "1639edea8311429709ed29cb2f155e54", "type": "electric_scooter", "is_reserved": 0, "lon": -77.025523}, {"fusion_lat": 0.0, "name": "6fe0a6d863baba5d1d452859e7f859c1", "is_disabled": 0, "rental_uris": {"android": "https://dc.lft.to/lastmile_qr_scan", "ios": "https://dc.lft.to/lastmile_qr_scan"}, "fusion_lon": 0.0, "lat": 38.9357895, "bike_id": "6fe0a6d863baba5d1d452859e7f859c1", "type": "electric_scooter", "is_reserved": 0, "lon": -77.0285095}, {"fusion_lat": 0.0, "name": "e1aa3000d8970ce78016228adfb1506d", "is_disabled": 0, "rental_uris": {"android": "https://dc.lft.to/lastmile_qr_scan", "ios": "https://dc.lft.to/lastmile_qr_scan"}, "fusion_lon": 0.0, "lat": 38.85399833333334, "bike_id": "e1aa3000d8970ce78016228adfb1506d", "type": "electric_bike", "is_reserved": 0, "lon": -77.12079233333333}, {"fusion_lat": 0.0, "name": "14dd5fbd829cef967ad1d5b7d162cbf6", "is_disabled": 0, "rental_uris": {"android": "https://dc.lft.to/lastmile_qr_scan", "ios": "https://dc.lft.to/lastmile_qr_scan"}, "fusion_lon": 0.0, "lat": 38.952191, "bike_id": "14dd5fbd829cef967ad1d5b7d162cbf6", "type": "electric_scooter", "is_reserved": 0, "lon": -77.08217433333333}, {"fusion_lat": 0.0, "name": "cb8f8f7802567f564d5aa34fca16872e", "is_disabled": 0, "rental_uris": {"android": "https://dc.lft.to/lastmile_qr_scan", "ios": "https://dc.lft.to/lastmile_qr_scan"}, "fusion_lon": 0.0, "lat": 38.92085683333333, "bike_id": "cb8f8f7802567f564d5aa34fca16872e", "type": "electric_scooter", "is_reserved": 0, "lon": -76.99450583333333}, {"fusion_lat": 0.0, "name": "9a5a6bddadb94aafc842c62518f90895", "is_disabled": 0, "rental_uris": {"android": "https://dc.lft.to/lastmile_qr_scan", "ios": "https://dc.lft.to/lastmile_qr_scan"}, "fusion_lon": 0.0, "lat": 38.93153366666667, "bike_id": "9a5a6bddadb94aafc842c62518f90895", "type": "electric_scooter", "is_reserved": 0, "lon": -77.039642}, {"fusion_lat": 0.0, "name": "72994e6ea87399c2c26d84adb34d6620", "is_disabled": 0, "rental_uris": {"android": "https://dc.lft.to/lastmile_qr_scan", "ios": "https://dc.lft.to/lastmile_qr_scan"}, "fusion_lon": 0.0, "lat": 38.882194, "bike_id": "72994e6ea87399c2c26d84adb34d6620", "type": "electric_scooter", "is_reserved": 0, "lon": -77.02938633333333}, {"fusion_lat": 0.0, "name": "e102a6dd78c056b0028e9493fd80cf81", "is_disabled": 0, "rental_uris": {"android": "https://dc.lft.to/lastmile_qr_scan", "ios": "https://dc.lft.to/lastmile_qr_scan"}, "fusion_lon": 0.0, "lat": 38.919913666666666, "bike_id": "e102a6dd78c056b0028e9493fd80cf81", "type": "electric_scooter", "is_reserved": 0, "lon": -77.071936}, {"fusion_lat": 0.0, "name": "b81ea792c0114e5a61c9e09046812dea", "is_disabled": 0, "rental_uris": {"android": "https://dc.lft.to/lastmile_qr_scan", "ios": "https://dc.lft.to/lastmile_qr_scan"}, "fusion_lon": 0.0, "lat": 38.948488166666664, "bike_id": "b81ea792c0114e5a61c9e09046812dea", "type": "electric_scooter", "is_reserved": 0, "lon": -77.02569333333334}, {"fusion_lat": 0.0, "name": "9215571d89c882e3e85ffd896728df60", "is_disabled": 0, "rental_uris": {"android": "https://dc.lft.to/lastmile_qr_scan", "ios": "https://dc.lft.to/lastmile_qr_scan"}, "fusion_lon": 0.0, "lat": 38.91563433333334, "bike_id": "9215571d89c882e3e85ffd896728df60", "type": "electric_scooter", "is_reserved": 0, "lon": -77.04169766666666}, {"fusion_lat": 0.0, "name": "8fa8b2a01f0034de6eaea46ab71ec1f5", "is_disabled": 0, "rental_uris": {"android": "https://dc.lft.to/lastmile_qr_scan", "ios": "https://dc.lft.to/lastmile_qr_scan"}, "fusion_lon": 0.0, "lat": 38.91709, "bike_id": "8fa8b2a01f0034de6eaea46ab71ec1f5", "type": "electric_scooter", "is_reserved": 0, "lon": -77.03223266666667}, {"fusion_lat": 0.0, "name": "f41b8f93df899c2db541ab1449578ade", "is_disabled": 0, "rental_uris": {"android": "https://dc.lft.to/lastmile_qr_scan", "ios": "https://dc.lft.to/lastmile_qr_scan"}, "fusion_lon": 0.0, "lat": 38.93895716666667, "bike_id": "f41b8f93df899c2db541ab1449578ade", "type": "electric_scooter", "is_reserved": 0, "lon": -77.033306}, {"fusion_lat": 0.0, "name": "44e81c55c584eafe8e9763d214897437", "is_disabled": 0, "rental_uris": {"android": "https://dc.lft.to/lastmile_qr_scan", "ios": "https://dc.lft.to/lastmile_qr_scan"}, "fusion_lon": 0.0, "lat": 38.9073175, "bike_id": "44e81c55c584eafe8e9763d214897437", "type": "electric_scooter", "is_reserved": 0, "lon": -77.03446233333334}, {"fusion_lat": 0.0, "name": "cc23cc27157f148a2eeb636ed137ecaa", "is_disabled": 0, "rental_uris": {"android": "https://dc.lft.to/lastmile_qr_scan", "ios": "https://dc.lft.to/lastmile_qr_scan"}, "fusion_lon": 0.0, "lat": 38.902271166666665, "bike_id": "cc23cc27157f148a2eeb636ed137ecaa", "type": "electric_scooter", "is_reserved": 0, "lon": -77.02615766666666}, {"fusion_lat": 0.0, "name": "923ad35ec245041705b69a6f64a4b589", "is_disabled": 0, "rental_uris": {"android": "https://dc.lft.to/lastmile_qr_scan", "ios": "https://dc.lft.to/lastmile_qr_scan"}, "fusion_lon": 0.0, "lat": 38.935263666666664, "bike_id": "923ad35ec245041705b69a6f64a4b589", "type": "electric_scooter", "is_reserved": 0, "lon": -77.0452625}, {"fusion_lat": 0.0, "name": "e070429bca3e24c8ab9c96c2a30a3b88", "is_disabled": 0, "rental_uris": {"android": "https://dc.lft.to/lastmile_qr_scan", "ios": "https://dc.lft.to/lastmile_qr_scan"}, "fusion_lon": 0.0, "lat": 38.93384366666667, "bike_id": "e070429bca3e24c8ab9c96c2a30a3b88", "type": "electric_scooter", "is_reserved": 0, "lon": -77.0242875}, {"fusion_lat": 0.0, "name": "4c761fe9fe1d7ec426cffb020d53eeb4", "is_disabled": 0, "rental_uris": {"android": "https://dc.lft.to/lastmile_qr_scan", "ios": "https://dc.lft.to/lastmile_qr_scan"}, "fusion_lon": 0.0, "lat": 38.92313433333333, "bike_id": "4c761fe9fe1d7ec426cffb020d53eeb4", "type": "electric_scooter", "is_reserved": 0, "lon": -77.02803833333333}, {"fusion_lat": 0.0, "name": "5673a4a956939d5022a2aa45d025a035", "is_disabled": 0, "rental_uris": {"android": "https://dc.lft.to/lastmile_qr_scan", "ios": "https://dc.lft.to/lastmile_qr_scan"}, "fusion_lon": 0.0, "lat": 38.97122483333333, "bike_id": "5673a4a956939d5022a2aa45d025a035", "type": "electric_bike", "is_reserved": 0, "lon": -77.02086383333334}, {"fusion_lat": 0.0, "name": "c990a1257399415f80b29a584291fd89", "is_disabled": 0, "rental_uris": {"android": "https://dc.lft.to/lastmile_qr_scan", "ios": "https://dc.lft.to/lastmile_qr_scan"}, "fusion_lon": 0.0, "lat": 38.89888916666666, "bike_id": "c990a1257399415f80b29a584291fd89", "type": "electric_scooter", "is_reserved": 0, "lon": -77.01489683333334}, {"fusion_lat": 0.0, "name": "e67dbd0d29c4a725a36fa9075997e8cc", "is_disabled": 0, "rental_uris": {"android": "https://dc.lft.to/lastmile_qr_scan", "ios": "https://dc.lft.to/lastmile_qr_scan"}, "fusion_lon": 0.0, "lat": 38.92785333333333, "bike_id": "e67dbd0d29c4a725a36fa9075997e8cc", "type": "electric_scooter", "is_reserved": 0, "lon": -77.03150083333334}, {"fusion_lat": 0.0, "name": "b9b524d770c31a562d624aefca8d4a58", "is_disabled": 0, "rental_uris": {"android": "https://dc.lft.to/lastmile_qr_scan", "ios": "https://dc.lft.to/lastmile_qr_scan"}, "fusion_lon": 0.0, "lat": 38.93368616666667, "bike_id": "b9b524d770c31a562d624aefca8d4a58", "type": "electric_scooter", "is_reserved": 0, "lon": -77.0243235}, {"fusion_lat": 0.0, "name": "afc0b200d49ef7cbcff601924d6558c9", "is_disabled": 0, "rental_uris": {"android": "https://dc.lft.to/lastmile_qr_scan", "ios": "https://dc.lft.to/lastmile_qr_scan"}, "fusion_lon": 0.0, "lat": 38.93532416666667, "bike_id": "afc0b200d49ef7cbcff601924d6558c9", "type": "electric_scooter", "is_reserved": 0, "lon": -77.02357633333334}, {"fusion_lat": 0.0, "name": "2f0af256f48ccdcd57a765ed369f1309", "is_disabled": 0, "rental_uris": {"android": "https://dc.lft.to/lastmile_qr_scan", "ios": "https://dc.lft.to/lastmile_qr_scan"}, "fusion_lon": 0.0, "lat": 38.924508333333335, "bike_id": "2f0af256f48ccdcd57a765ed369f1309", "type": "electric_scooter", "is_reserved": 0, "lon": -77.03329383333333}, {"fusion_lat": 0.0, "name": "b79b40ed0323ded7301a6c240951ac10", "is_disabled": 0, "rental_uris": {"android": "https://dc.lft.to/lastmile_qr_scan", "ios": "https://dc.lft.to/lastmile_qr_scan"}, "fusion_lon": 0.0, "lat": 38.89223033333333, "bike_id": "b79b40ed0323ded7301a6c240951ac10", "type": "electric_scooter", "is_reserved": 0, "lon": -77.04683266666666}, {"fusion_lat": 0.0, "name": "ebac04e8263d30ce1d647a08314ff665", "is_disabled": 0, "rental_uris": {"android": "https://dc.lft.to/lastmile_qr_scan", "ios": "https://dc.lft.to/lastmile_qr_scan"}, "fusion_lon": 0.0, "lat": 38.88990833333333, "bike_id": "ebac04e8263d30ce1d647a08314ff665", "type": "electric_scooter", "is_reserved": 0, "lon": -76.98227183333333}, {"fusion_lat": 0.0, "name": "3bab87aefdeecc6dd791567291cc4711", "is_disabled": 0, "rental_uris": {"android": "https://dc.lft.to/lastmile_qr_scan", "ios": "https://dc.lft.to/lastmile_qr_scan"}, "fusion_lon": 0.0, "lat": 38.992295166666665, "bike_id": "3bab87aefdeecc6dd791567291cc4711", "type": "electric_bike", "is_reserved": 0, "lon": -76.94405666666667}, {"fusion_lat": 0.0, "name": "c2dcf83659e808a3015f53edfdee475a", "is_disabled": 0, "rental_uris": {"android": "https://dc.lft.to/lastmile_qr_scan", "ios": "https://dc.lft.to/lastmile_qr_scan"}, "fusion_lon": 0.0, "lat": 38.90955316666667, "bike_id": "c2dcf83659e808a3015f53edfdee475a", "type": "electric_scooter", "is_reserved": 0, "lon": -77.04863583333334}, {"fusion_lat": 0.0, "name": "6eac9d2270a92e126966abd72825b282", "is_disabled": 0, "rental_uris": {"android": "https://dc.lft.to/lastmile_qr_scan", "ios": "https://dc.lft.to/lastmile_qr_scan"}, "fusion_lon": 0.0, "lat": 38.930173833333335, "bike_id": "6eac9d2270a92e126966abd72825b282", "type": "electric_scooter", "is_reserved": 0, "lon": -77.0379255}, {"fusion_lat": 0.0, "name": "303d6148d264c3a6398ba026a771e197", "is_disabled": 0, "rental_uris": {"android": "https://dc.lft.to/lastmile_qr_scan", "ios": "https://dc.lft.to/lastmile_qr_scan"}, "fusion_lon": 0.0, "lat": 38.91709483333333, "bike_id": "303d6148d264c3a6398ba026a771e197", "type": "electric_scooter", "is_reserved": 0, "lon": -77.032208}, {"fusion_lat": 0.0, "name": "0d84e195642acd0801795aaa81eae50c", "is_disabled": 0, "rental_uris": {"android": "https://dc.lft.to/lastmile_qr_scan", "ios": "https://dc.lft.to/lastmile_qr_scan"}, "fusion_lon": 0.0, "lat": 38.91515066666667, "bike_id": "0d84e195642acd0801795aaa81eae50c", "type": "electric_scooter", "is_reserved": 0, "lon": -77.0133235}, {"fusion_lat": 0.0, "name": "45863d5cf016ad3207e9a8851a609c40", "is_disabled": 0, "rental_uris": {"android": "https://dc.lft.to/lastmile_qr_scan", "ios": "https://dc.lft.to/lastmile_qr_scan"}, "fusion_lon": 0.0, "lat": 38.88505283333333, "bike_id": "45863d5cf016ad3207e9a8851a609c40", "type": "electric_scooter", "is_reserved": 0, "lon": -77.0006615}, {"fusion_lat": 0.0, "name": "4de1f6f2c277acfed5ba0c8fd6a915d0", "is_disabled": 0, "rental_uris": {"android": "https://dc.lft.to/lastmile_qr_scan", "ios": "https://dc.lft.to/lastmile_qr_scan"}, "fusion_lon": 0.0, "lat": 38.93531216666667, "bike_id": "4de1f6f2c277acfed5ba0c8fd6a915d0", "type": "electric_scooter", "is_reserved": 0, "lon": -77.0235175}, {"fusion_lat": 0.0, "name": "cb88d14aa5dd5e708789f98e7a1c59af", "is_disabled": 0, "rental_uris": {"android": "https://dc.lft.to/lastmile_qr_scan", "ios": "https://dc.lft.to/lastmile_qr_scan"}, "fusion_lon": 0.0, "lat": 38.92410516666666, "bike_id": "cb88d14aa5dd5e708789f98e7a1c59af", "type": "electric_bike", "is_reserved": 0, "lon": -77.05046316666666}, {"fusion_lat": 0.0, "name": "c976138458dcaca34912a6ffcd07cee2", "is_disabled": 0, "rental_uris": {"android": "https://dc.lft.to/lastmile_qr_scan", "ios": "https://dc.lft.to/lastmile_qr_scan"}, "fusion_lon": 0.0, "lat": 38.8550935, "bike_id": "c976138458dcaca34912a6ffcd07cee2", "type": "electric_scooter", "is_reserved": 0, "lon": -76.96538533333333}, {"fusion_lat": 0.0, "name": "76b5f4086ef1c803787c0cb31296420f", "is_disabled": 0, "rental_uris": {"android": "https://dc.lft.to/lastmile_qr_scan", "ios": "https://dc.lft.to/lastmile_qr_scan"}, "fusion_lon": 0.0, "lat": 38.92113483333333, "bike_id": "76b5f4086ef1c803787c0cb31296420f", "type": "electric_scooter", "is_reserved": 0, "lon": -77.020921}, {"fusion_lat": 0.0, "name": "44ab903cc8f3d8d738e8f680e0ad813d", "is_disabled": 0, "rental_uris": {"android": "https://dc.lft.to/lastmile_qr_scan", "ios": "https://dc.lft.to/lastmile_qr_scan"}, "fusion_lon": 0.0, "lat": 38.953115833333335, "bike_id": "44ab903cc8f3d8d738e8f680e0ad813d", "type": "electric_scooter", "is_reserved": 0, "lon": -77.02253616666667}, {"fusion_lat": 0.0, "name": "3313e6bbd38757af0c710e4de5a6b740", "is_disabled": 0, "rental_uris": {"android": "https://dc.lft.to/lastmile_qr_scan", "ios": "https://dc.lft.to/lastmile_qr_scan"}, "fusion_lon": 0.0, "lat": 38.927380166666666, "bike_id": "3313e6bbd38757af0c710e4de5a6b740", "type": "electric_bike", "is_reserved": 0, "lon": -77.0250075}, {"fusion_lat": 0.0, "name": "495427d801afb71bd9ba880e333fb140", "is_disabled": 0, "rental_uris": {"android": "https://dc.lft.to/lastmile_qr_scan", "ios": "https://dc.lft.to/lastmile_qr_scan"}, "fusion_lon": 0.0, "lat": 38.9029345, "bike_id": "495427d801afb71bd9ba880e333fb140", "type": "electric_scooter", "is_reserved": 0, "lon": -76.99254733333333}, {"fusion_lat": 0.0, "name": "df33421a896aff4dbff81493645f4994", "is_disabled": 0, "rental_uris": {"android": "https://dc.lft.to/lastmile_qr_scan", "ios": "https://dc.lft.to/lastmile_qr_scan"}, "fusion_lon": 0.0, "lat": 38.88743316666667, "bike_id": "df33421a896aff4dbff81493645f4994", "type": "electric_scooter", "is_reserved": 0, "lon": -76.98359016666667}, {"fusion_lat": 0.0, "name": "3874c6c3442d435d79d8cd631e1985d9", "is_disabled": 0, "rental_uris": {"android": "https://dc.lft.to/lastmile_qr_scan", "ios": "https://dc.lft.to/lastmile_qr_scan"}, "fusion_lon": 0.0, "lat": 38.8880865, "bike_id": "3874c6c3442d435d79d8cd631e1985d9", "type": "electric_scooter", "is_reserved": 0, "lon": -76.98362216666666}, {"fusion_lat": 0.0, "name": "1f6a381447741332dca9f5fac793a45f", "is_disabled": 0, "rental_uris": {"android": "https://dc.lft.to/lastmile_qr_scan", "ios": "https://dc.lft.to/lastmile_qr_scan"}, "fusion_lon": 0.0, "lat": 38.91343333333333, "bike_id": "1f6a381447741332dca9f5fac793a45f", "type": "electric_bike", "is_reserved": 0, "lon": -76.988991}, {"fusion_lat": 0.0, "name": "69fb5214cd66f9b289c7fb59f0476601", "is_disabled": 0, "rental_uris": {"android": "https://dc.lft.to/lastmile_qr_scan", "ios": "https://dc.lft.to/lastmile_qr_scan"}, "fusion_lon": 0.0, "lat": 38.90371433333333, "bike_id": "69fb5214cd66f9b289c7fb59f0476601", "type": "electric_scooter", "is_reserved": 0, "lon": -77.04486983333334}, {"fusion_lat": 0.0, "name": "28c4ec38ced4838b6b10b25957275a0e", "is_disabled": 0, "rental_uris": {"android": "https://dc.lft.to/lastmile_qr_scan", "ios": "https://dc.lft.to/lastmile_qr_scan"}, "fusion_lon": 0.0, "lat": 38.92685066666667, "bike_id": "28c4ec38ced4838b6b10b25957275a0e", "type": "electric_scooter", "is_reserved": 0, "lon": -77.03149716666667}, {"fusion_lat": 0.0, "name": "65d2f11496d77abf9587740d2735f567", "is_disabled": 0, "rental_uris": {"android": "https://dc.lft.to/lastmile_qr_scan", "ios": "https://dc.lft.to/lastmile_qr_scan"}, "fusion_lon": 0.0, "lat": 38.919631833333334, "bike_id": "65d2f11496d77abf9587740d2735f567", "type": "electric_scooter", "is_reserved": 0, "lon": -77.02365666666667}, {"fusion_lat": 0.0, "name": "fc5c877eeac16abe228b969c259e7961", "is_disabled": 0, "rental_uris": {"android": "https://dc.lft.to/lastmile_qr_scan", "ios": "https://dc.lft.to/lastmile_qr_scan"}, "fusion_lon": 0.0, "lat": 38.881272, "bike_id": "fc5c877eeac16abe228b969c259e7961", "type": "electric_bike", "is_reserved": 0, "lon": -77.01650233333334}, {"fusion_lat": 0.0, "name": "a3fa55fba7cd1b95963e8f3a345debd5", "is_disabled": 0, "rental_uris": {"android": "https://dc.lft.to/lastmile_qr_scan", "ios": "https://dc.lft.to/lastmile_qr_scan"}, "fusion_lon": 0.0, "lat": 38.9082565, "bike_id": "a3fa55fba7cd1b95963e8f3a345debd5", "type": "electric_scooter", "is_reserved": 0, "lon": -77.04309216666667}, {"fusion_lat": 0.0, "name": "7e1c993148c2050770ca5f09732caabb", "is_disabled": 0, "rental_uris": {"android": "https://dc.lft.to/lastmile_qr_scan", "ios": "https://dc.lft.to/lastmile_qr_scan"}, "fusion_lon": 0.0, "lat": 38.94159633333334, "bike_id": "7e1c993148c2050770ca5f09732caabb", "type": "electric_scooter", "is_reserved": 0, "lon": -77.0250505}, {"fusion_lat": 0.0, "name": "46c88065ac9c9b0fce13984235efedbe", "is_disabled": 0, "rental_uris": {"android": "https://dc.lft.to/lastmile_qr_scan", "ios": "https://dc.lft.to/lastmile_qr_scan"}, "fusion_lon": 0.0, "lat": 38.8993995, "bike_id": "46c88065ac9c9b0fce13984235efedbe", "type": "electric_scooter", "is_reserved": 0, "lon": -77.05362816666667}, {"fusion_lat": 0.0, "name": "3276014e4f0484084f34cfc0210e6af2", "is_disabled": 0, "rental_uris": {"android": "https://dc.lft.to/lastmile_qr_scan", "ios": "https://dc.lft.to/lastmile_qr_scan"}, "fusion_lon": 0.0, "lat": 38.935949, "bike_id": "3276014e4f0484084f34cfc0210e6af2", "type": "electric_scooter", "is_reserved": 0, "lon": -77.02305083333333}, {"fusion_lat": 0.0, "name": "50bffd70cd06ffec940bfcc5ebb9fa65", "is_disabled": 0, "rental_uris": {"android": "https://dc.lft.to/lastmile_qr_scan", "ios": "https://dc.lft.to/lastmile_qr_scan"}, "fusion_lon": 0.0, "lat": 38.918446833333334, "bike_id": "50bffd70cd06ffec940bfcc5ebb9fa65", "type": "electric_scooter", "is_reserved": 0, "lon": -77.024264}, {"fusion_lat": 0.0, "name": "ac30f618c1016160aad1842fc148e4f7", "is_disabled": 0, "rental_uris": {"android": "https://dc.lft.to/lastmile_qr_scan", "ios": "https://dc.lft.to/lastmile_qr_scan"}, "fusion_lon": 0.0, "lat": 38.9324065, "bike_id": "ac30f618c1016160aad1842fc148e4f7", "type": "electric_scooter", "is_reserved": 0, "lon": -77.03431516666667}, {"fusion_lat": 0.0, "name": "389e926fc5e808fe64b82185b5bae10c", "is_disabled": 0, "rental_uris": {"android": "https://dc.lft.to/lastmile_qr_scan", "ios": "https://dc.lft.to/lastmile_qr_scan"}, "fusion_lon": 0.0, "lat": 38.918035, "bike_id": "389e926fc5e808fe64b82185b5bae10c", "type": "electric_scooter", "is_reserved": 0, "lon": -77.0330685}, {"fusion_lat": 0.0, "name": "a69c464fc35f6cad89fa14a6d6289543", "is_disabled": 0, "rental_uris": {"android": "https://dc.lft.to/lastmile_qr_scan", "ios": "https://dc.lft.to/lastmile_qr_scan"}, "fusion_lon": 0.0, "lat": 38.92118333333333, "bike_id": "a69c464fc35f6cad89fa14a6d6289543", "type": "electric_scooter", "is_reserved": 0, "lon": -77.047011}, {"fusion_lat": 0.0, "name": "b5de4da347fdd04a4de747d9a3fdfc19", "is_disabled": 0, "rental_uris": {"android": "https://dc.lft.to/lastmile_qr_scan", "ios": "https://dc.lft.to/lastmile_qr_scan"}, "fusion_lon": 0.0, "lat": 38.894729, "bike_id": "b5de4da347fdd04a4de747d9a3fdfc19", "type": "electric_scooter", "is_reserved": 0, "lon": -77.021829}, {"fusion_lat": 0.0, "name": "dfbf18b474ec6a1100fd84221a8df91f", "is_disabled": 0, "rental_uris": {"android": "https://dc.lft.to/lastmile_qr_scan", "ios": "https://dc.lft.to/lastmile_qr_scan"}, "fusion_lon": 0.0, "lat": 38.885763833333336, "bike_id": "dfbf18b474ec6a1100fd84221a8df91f", "type": "electric_scooter", "is_reserved": 0, "lon": -77.01213216666666}, {"fusion_lat": 0.0, "name": "f2d8da992ad7e057f62dd613d8b21f0b", "is_disabled": 0, "rental_uris": {"android": "https://dc.lft.to/lastmile_qr_scan", "ios": "https://dc.lft.to/lastmile_qr_scan"}, "fusion_lon": 0.0, "lat": 38.9012505, "bike_id": "f2d8da992ad7e057f62dd613d8b21f0b", "type": "electric_scooter", "is_reserved": 0, "lon": -77.02188083333333}, {"fusion_lat": 0.0, "name": "77dcbe86fb73bb901fe2bf1657315538", "is_disabled": 0, "rental_uris": {"android": "https://dc.lft.to/lastmile_qr_scan", "ios": "https://dc.lft.to/lastmile_qr_scan"}, "fusion_lon": 0.0, "lat": 38.90768666666666, "bike_id": "77dcbe86fb73bb901fe2bf1657315538", "type": "electric_scooter", "is_reserved": 0, "lon": -77.03189333333333}, {"fusion_lat": 0.0, "name": "32696cdd8a1a03258bfadc10b3199240", "is_disabled": 0, "rental_uris": {"android": "https://dc.lft.to/lastmile_qr_scan", "ios": "https://dc.lft.to/lastmile_qr_scan"}, "fusion_lon": 0.0, "lat": 38.892235166666666, "bike_id": "32696cdd8a1a03258bfadc10b3199240", "type": "electric_scooter", "is_reserved": 0, "lon": -77.043756}, {"fusion_lat": 0.0, "name": "d6ea3b4fa39c9bb9b1a55ffadc43bfa4", "is_disabled": 0, "rental_uris": {"android": "https://dc.lft.to/lastmile_qr_scan", "ios": "https://dc.lft.to/lastmile_qr_scan"}, "fusion_lon": 0.0, "lat": 38.906032833333335, "bike_id": "d6ea3b4fa39c9bb9b1a55ffadc43bfa4", "type": "electric_scooter", "is_reserved": 0, "lon": -77.06479866666666}, {"fusion_lat": 0.0, "name": "e191d69a576130da4e0c4a41175ba466", "is_disabled": 0, "rental_uris": {"android": "https://dc.lft.to/lastmile_qr_scan", "ios": "https://dc.lft.to/lastmile_qr_scan"}, "fusion_lon": 0.0, "lat": 38.790216666666666, "bike_id": "e191d69a576130da4e0c4a41175ba466", "type": "electric_bike", "is_reserved": 0, "lon": -77.01547766666667}, {"fusion_lat": 0.0, "name": "0dc4d77a554a416746a02d9fa434a38a", "is_disabled": 0, "rental_uris": {"android": "https://dc.lft.to/lastmile_qr_scan", "ios": "https://dc.lft.to/lastmile_qr_scan"}, "fusion_lon": 0.0, "lat": 38.885014, "bike_id": "0dc4d77a554a416746a02d9fa434a38a", "type": "electric_scooter", "is_reserved": 0, "lon": -77.020962}, {"fusion_lat": 0.0, "name": "c9f5050e0242091514f5cc21cb5423a0", "is_disabled": 0, "rental_uris": {"android": "https://dc.lft.to/lastmile_qr_scan", "ios": "https://dc.lft.to/lastmile_qr_scan"}, "fusion_lon": 0.0, "lat": 38.9266685, "bike_id": "c9f5050e0242091514f5cc21cb5423a0", "type": "electric_scooter", "is_reserved": 0, "lon": -77.0305465}, {"fusion_lat": 0.0, "name": "5914c67b62aa48d9e2fdb35a6de4072d", "is_disabled": 0, "rental_uris": {"android": "https://dc.lft.to/lastmile_qr_scan", "ios": "https://dc.lft.to/lastmile_qr_scan"}, "fusion_lon": 0.0, "lat": 38.8908315, "bike_id": "5914c67b62aa48d9e2fdb35a6de4072d", "type": "electric_scooter", "is_reserved": 0, "lon": -76.91932283333334}, {"fusion_lat": 0.0, "name": "860262a64891a489fb92f1cd5fd3a656", "is_disabled": 0, "rental_uris": {"android": "https://dc.lft.to/lastmile_qr_scan", "ios": "https://dc.lft.to/lastmile_qr_scan"}, "fusion_lon": 0.0, "lat": 38.94431483333334, "bike_id": "860262a64891a489fb92f1cd5fd3a656", "type": "electric_bike", "is_reserved": 0, "lon": -77.02600166666667}, {"fusion_lat": 0.0, "name": "ee6f2d457fd996f093229dcdfc97a0b7", "is_disabled": 0, "rental_uris": {"android": "https://dc.lft.to/lastmile_qr_scan", "ios": "https://dc.lft.to/lastmile_qr_scan"}, "fusion_lon": 0.0, "lat": 38.909666, "bike_id": "ee6f2d457fd996f093229dcdfc97a0b7", "type": "electric_scooter", "is_reserved": 0, "lon": -77.03259383333334}, {"fusion_lat": 0.0, "name": "18678035af8a834901db669c5c6ed8c7", "is_disabled": 0, "rental_uris": {"android": "https://dc.lft.to/lastmile_qr_scan", "ios": "https://dc.lft.to/lastmile_qr_scan"}, "fusion_lon": 0.0, "lat": 38.9162015, "bike_id": "18678035af8a834901db669c5c6ed8c7", "type": "electric_scooter", "is_reserved": 0, "lon": -77.03857533333333}, {"fusion_lat": 0.0, "name": "0354b7929566e73659defd07748b0586", "is_disabled": 0, "rental_uris": {"android": "https://dc.lft.to/lastmile_qr_scan", "ios": "https://dc.lft.to/lastmile_qr_scan"}, "fusion_lon": 0.0, "lat": 38.9007965, "bike_id": "0354b7929566e73659defd07748b0586", "type": "electric_scooter", "is_reserved": 0, "lon": -77.05838966666667}, {"fusion_lat": 0.0, "name": "a81c6780a6e8edad55c2c2bce2b83d64", "is_disabled": 0, "rental_uris": {"android": "https://dc.lft.to/lastmile_qr_scan", "ios": "https://dc.lft.to/lastmile_qr_scan"}, "fusion_lon": 0.0, "lat": 38.925914, "bike_id": "a81c6780a6e8edad55c2c2bce2b83d64", "type": "electric_scooter", "is_reserved": 0, "lon": -77.03761583333333}, {"fusion_lat": 0.0, "name": "38142b4d1bafe61972cbabc4a5e05aa9", "is_disabled": 0, "rental_uris": {"android": "https://dc.lft.to/lastmile_qr_scan", "ios": "https://dc.lft.to/lastmile_qr_scan"}, "fusion_lon": 0.0, "lat": 38.90672383333333, "bike_id": "38142b4d1bafe61972cbabc4a5e05aa9", "type": "electric_scooter", "is_reserved": 0, "lon": -77.07018516666666}, {"fusion_lat": 0.0, "name": "12ce3530515413e3eb93612e54552e6d", "is_disabled": 0, "rental_uris": {"android": "https://dc.lft.to/lastmile_qr_scan", "ios": "https://dc.lft.to/lastmile_qr_scan"}, "fusion_lon": 0.0, "lat": 38.8974305, "bike_id": "12ce3530515413e3eb93612e54552e6d", "type": "electric_scooter", "is_reserved": 0, "lon": -77.02169016666667}, {"fusion_lat": 0.0, "name": "6b12e6da36c333f2ce4ac5845cfdbd11", "is_disabled": 0, "rental_uris": {"android": "https://dc.lft.to/lastmile_qr_scan", "ios": "https://dc.lft.to/lastmile_qr_scan"}, "fusion_lon": 0.0, "lat": 38.89903016666667, "bike_id": "6b12e6da36c333f2ce4ac5845cfdbd11", "type": "electric_scooter", "is_reserved": 0, "lon": -76.93359416666667}, {"fusion_lat": 0.0, "name": "fccedd3989df171579bb3600a0ef8126", "is_disabled": 0, "rental_uris": {"android": "https://dc.lft.to/lastmile_qr_scan", "ios": "https://dc.lft.to/lastmile_qr_scan"}, "fusion_lon": 0.0, "lat": 38.93410866666667, "bike_id": "fccedd3989df171579bb3600a0ef8126", "type": "electric_scooter", "is_reserved": 0, "lon": -77.041584}, {"fusion_lat": 0.0, "name": "3dc0075834edce3e7e704f52e47dc868", "is_disabled": 0, "rental_uris": {"android": "https://dc.lft.to/lastmile_qr_scan", "ios": "https://dc.lft.to/lastmile_qr_scan"}, "fusion_lon": 0.0, "lat": 38.935109, "bike_id": "3dc0075834edce3e7e704f52e47dc868", "type": "electric_scooter", "is_reserved": 0, "lon": -77.02420816666667}, {"fusion_lat": 0.0, "name": "fa293dce073aa4967a78ad2148506dae", "is_disabled": 0, "rental_uris": {"android": "https://dc.lft.to/lastmile_qr_scan", "ios": "https://dc.lft.to/lastmile_qr_scan"}, "fusion_lon": 0.0, "lat": 38.94071183333333, "bike_id": "fa293dce073aa4967a78ad2148506dae", "type": "electric_scooter", "is_reserved": 0, "lon": -77.02390033333333}, {"fusion_lat": 0.0, "name": "e08651f22fd4948ef7565b5cd8ff3065", "is_disabled": 0, "rental_uris": {"android": "https://dc.lft.to/lastmile_qr_scan", "ios": "https://dc.lft.to/lastmile_qr_scan"}, "fusion_lon": 0.0, "lat": 38.92493283333334, "bike_id": "e08651f22fd4948ef7565b5cd8ff3065", "type": "electric_scooter", "is_reserved": 0, "lon": -77.0576245}, {"fusion_lat": 0.0, "name": "59e5427c7a7879a16cd1f4717fe74c89", "is_disabled": 0, "rental_uris": {"android": "https://dc.lft.to/lastmile_qr_scan", "ios": "https://dc.lft.to/lastmile_qr_scan"}, "fusion_lon": 0.0, "lat": 38.90959516666667, "bike_id": "59e5427c7a7879a16cd1f4717fe74c89", "type": "electric_scooter", "is_reserved": 0, "lon": -77.01045783333333}, {"fusion_lat": 0.0, "name": "33a851b5b22309bd8ae9b276e94aabd5", "is_disabled": 0, "rental_uris": {"android": "https://dc.lft.to/lastmile_qr_scan", "ios": "https://dc.lft.to/lastmile_qr_scan"}, "fusion_lon": 0.0, "lat": 38.928246333333334, "bike_id": "33a851b5b22309bd8ae9b276e94aabd5", "type": "electric_scooter", "is_reserved": 0, "lon": -77.02270333333334}, {"fusion_lat": 0.0, "name": "67ebe1e0824e5b734a0955ab37e51061", "is_disabled": 0, "rental_uris": {"android": "https://dc.lft.to/lastmile_qr_scan", "ios": "https://dc.lft.to/lastmile_qr_scan"}, "fusion_lon": 0.0, "lat": 38.93695016666667, "bike_id": "67ebe1e0824e5b734a0955ab37e51061", "type": "electric_scooter", "is_reserved": 0, "lon": -77.05599583333333}, {"fusion_lat": 0.0, "name": "3b4e8219a7e1cc5f63e22839a332d872", "is_disabled": 0, "rental_uris": {"android": "https://dc.lft.to/lastmile_qr_scan", "ios": "https://dc.lft.to/lastmile_qr_scan"}, "fusion_lon": 0.0, "lat": 38.926233, "bike_id": "3b4e8219a7e1cc5f63e22839a332d872", "type": "electric_scooter", "is_reserved": 0, "lon": -77.05480716666666}, {"fusion_lat": 0.0, "name": "52706efe988cd9f353b99c9c94fe1fed", "is_disabled": 0, "rental_uris": {"android": "https://dc.lft.to/lastmile_qr_scan", "ios": "https://dc.lft.to/lastmile_qr_scan"}, "fusion_lon": 0.0, "lat": 38.90456783333333, "bike_id": "52706efe988cd9f353b99c9c94fe1fed", "type": "electric_scooter", "is_reserved": 0, "lon": -77.00171983333334}, {"fusion_lat": 0.0, "name": "3203e97fa97e8de664012ef9aef092cd", "is_disabled": 0, "rental_uris": {"android": "https://dc.lft.to/lastmile_qr_scan", "ios": "https://dc.lft.to/lastmile_qr_scan"}, "fusion_lon": 0.0, "lat": 38.91159116666667, "bike_id": "3203e97fa97e8de664012ef9aef092cd", "type": "electric_scooter", "is_reserved": 0, "lon": -77.01996533333333}, {"fusion_lat": 0.0, "name": "a467dda5d8caa53376bd1e3d53c9f3cd", "is_disabled": 0, "rental_uris": {"android": "https://dc.lft.to/lastmile_qr_scan", "ios": "https://dc.lft.to/lastmile_qr_scan"}, "fusion_lon": 0.0, "lat": 38.896048, "bike_id": "a467dda5d8caa53376bd1e3d53c9f3cd", "type": "electric_scooter", "is_reserved": 0, "lon": -77.02543016666667}, {"fusion_lat": 0.0, "name": "1af8a60ea2b66fbdfaf5817641607206", "is_disabled": 0, "rental_uris": {"android": "https://dc.lft.to/lastmile_qr_scan", "ios": "https://dc.lft.to/lastmile_qr_scan"}, "fusion_lon": 0.0, "lat": 38.9001375, "bike_id": "1af8a60ea2b66fbdfaf5817641607206", "type": "electric_scooter", "is_reserved": 0, "lon": -77.00686466666667}, {"fusion_lat": 0.0, "name": "d3e4e1f46722836db522c3f68927b679", "is_disabled": 0, "rental_uris": {"android": "https://dc.lft.to/lastmile_qr_scan", "ios": "https://dc.lft.to/lastmile_qr_scan"}, "fusion_lon": 0.0, "lat": 38.885245833333336, "bike_id": "d3e4e1f46722836db522c3f68927b679", "type": "electric_scooter", "is_reserved": 0, "lon": -77.01526133333333}, {"fusion_lat": 0.0, "name": "3e020fd1c76d1de62a8d4856f9f526ff", "is_disabled": 0, "rental_uris": {"android": "https://dc.lft.to/lastmile_qr_scan", "ios": "https://dc.lft.to/lastmile_qr_scan"}, "fusion_lon": 0.0, "lat": 38.896757666666666, "bike_id": "3e020fd1c76d1de62a8d4856f9f526ff", "type": "electric_scooter", "is_reserved": 0, "lon": -77.00795583333333}, {"fusion_lat": 0.0, "name": "72937184f2e3a78f3db4cef0a0d6b131", "is_disabled": 0, "rental_uris": {"android": "https://dc.lft.to/lastmile_qr_scan", "ios": "https://dc.lft.to/lastmile_qr_scan"}, "fusion_lon": 0.0, "lat": 38.93248066666666, "bike_id": "72937184f2e3a78f3db4cef0a0d6b131", "type": "electric_scooter", "is_reserved": 0, "lon": -77.040076}, {"fusion_lat": 0.0, "name": "996b4a2af84706a53dcef1b9c3b90eff", "is_disabled": 0, "rental_uris": {"android": "https://dc.lft.to/lastmile_qr_scan", "ios": "https://dc.lft.to/lastmile_qr_scan"}, "fusion_lon": 0.0, "lat": 38.907143833333336, "bike_id": "996b4a2af84706a53dcef1b9c3b90eff", "type": "electric_scooter", "is_reserved": 0, "lon": -77.029762}, {"fusion_lat": 0.0, "name": "bb84180229aba190ec5b0f02e9c362dc", "is_disabled": 0, "rental_uris": {"android": "https://dc.lft.to/lastmile_qr_scan", "ios": "https://dc.lft.to/lastmile_qr_scan"}, "fusion_lon": 0.0, "lat": 38.904242333333336, "bike_id": "bb84180229aba190ec5b0f02e9c362dc", "type": "electric_scooter", "is_reserved": 0, "lon": -76.94977733333333}, {"fusion_lat": 0.0, "name": "5e82897d14fa160134052071125e1c6f", "is_disabled": 0, "rental_uris": {"android": "https://dc.lft.to/lastmile_qr_scan", "ios": "https://dc.lft.to/lastmile_qr_scan"}, "fusion_lon": 0.0, "lat": 38.904806, "bike_id": "5e82897d14fa160134052071125e1c6f", "type": "electric_scooter", "is_reserved": 0, "lon": -77.006877}, {"fusion_lat": 0.0, "name": "f44aec19fcf5f3d5c85124947c7641c1", "is_disabled": 0, "rental_uris": {"android": "https://dc.lft.to/lastmile_qr_scan", "ios": "https://dc.lft.to/lastmile_qr_scan"}, "fusion_lon": 0.0, "lat": 38.92339666666667, "bike_id": "f44aec19fcf5f3d5c85124947c7641c1", "type": "electric_scooter", "is_reserved": 0, "lon": -77.0019575}, {"fusion_lat": 0.0, "name": "ccfd3b19f963ea6cb1394fd10e9ea351", "is_disabled": 0, "rental_uris": {"android": "https://dc.lft.to/lastmile_qr_scan", "ios": "https://dc.lft.to/lastmile_qr_scan"}, "fusion_lon": 0.0, "lat": 38.905589166666665, "bike_id": "ccfd3b19f963ea6cb1394fd10e9ea351", "type": "electric_scooter", "is_reserved": 0, "lon": -77.005901}, {"fusion_lat": 0.0, "name": "f6081f978b0355a9a46ee78c10feb151", "is_disabled": 0, "rental_uris": {"android": "https://dc.lft.to/lastmile_qr_scan", "ios": "https://dc.lft.to/lastmile_qr_scan"}, "fusion_lon": 0.0, "lat": 38.939190833333335, "bike_id": "f6081f978b0355a9a46ee78c10feb151", "type": "electric_scooter", "is_reserved": 0, "lon": -77.02799133333333}, {"fusion_lat": 0.0, "name": "f2dee4b951eeb92180802424bf741467", "is_disabled": 0, "rental_uris": {"android": "https://dc.lft.to/lastmile_qr_scan", "ios": "https://dc.lft.to/lastmile_qr_scan"}, "fusion_lon": 0.0, "lat": 38.9205445, "bike_id": "f2dee4b951eeb92180802424bf741467", "type": "electric_scooter", "is_reserved": 0, "lon": -76.99855433333333}, {"fusion_lat": 0.0, "name": "6720cc75ed7f85d1d515d9a5f3d6f876", "is_disabled": 0, "rental_uris": {"android": "https://dc.lft.to/lastmile_qr_scan", "ios": "https://dc.lft.to/lastmile_qr_scan"}, "fusion_lon": 0.0, "lat": 38.91026733333333, "bike_id": "6720cc75ed7f85d1d515d9a5f3d6f876", "type": "electric_scooter", "is_reserved": 0, "lon": -77.00770283333334}, {"fusion_lat": 0.0, "name": "2036fb1ab196440c5b2ee3d9f05176a5", "is_disabled": 0, "rental_uris": {"android": "https://dc.lft.to/lastmile_qr_scan", "ios": "https://dc.lft.to/lastmile_qr_scan"}, "fusion_lon": 0.0, "lat": 38.906945, "bike_id": "2036fb1ab196440c5b2ee3d9f05176a5", "type": "electric_scooter", "is_reserved": 0, "lon": -77.0220865}, {"fusion_lat": 0.0, "name": "8516287c7a57775f714198a2afe18bbc", "is_disabled": 0, "rental_uris": {"android": "https://dc.lft.to/lastmile_qr_scan", "ios": "https://dc.lft.to/lastmile_qr_scan"}, "fusion_lon": 0.0, "lat": 38.883995666666664, "bike_id": "8516287c7a57775f714198a2afe18bbc", "type": "electric_scooter", "is_reserved": 0, "lon": -77.01979033333333}, {"fusion_lat": 0.0, "name": "2de16dd86c940c24a9721734cf1c78ed", "is_disabled": 0, "rental_uris": {"android": "https://dc.lft.to/lastmile_qr_scan", "ios": "https://dc.lft.to/lastmile_qr_scan"}, "fusion_lon": 0.0, "lat": 38.96144, "bike_id": "2de16dd86c940c24a9721734cf1c78ed", "type": "electric_bike", "is_reserved": 0, "lon": -77.03238133333333}, {"fusion_lat": 0.0, "name": "a24a15a7dbacb93bf1222f0fe76f5876", "is_disabled": 0, "rental_uris": {"android": "https://dc.lft.to/lastmile_qr_scan", "ios": "https://dc.lft.to/lastmile_qr_scan"}, "fusion_lon": 0.0, "lat": 38.900278666666665, "bike_id": "a24a15a7dbacb93bf1222f0fe76f5876", "type": "electric_scooter", "is_reserved": 0, "lon": -76.99142066666667}, {"fusion_lat": 0.0, "name": "572db74480df124d1ec8e8b723abe147", "is_disabled": 0, "rental_uris": {"android": "https://dc.lft.to/lastmile_qr_scan", "ios": "https://dc.lft.to/lastmile_qr_scan"}, "fusion_lon": 0.0, "lat": 38.92164133333333, "bike_id": "572db74480df124d1ec8e8b723abe147", "type": "electric_scooter", "is_reserved": 0, "lon": -77.04008216666666}, {"fusion_lat": 0.0, "name": "c4cb6e015feaf3a4f385d06129b6a7d7", "is_disabled": 0, "rental_uris": {"android": "https://dc.lft.to/lastmile_qr_scan", "ios": "https://dc.lft.to/lastmile_qr_scan"}, "fusion_lon": 0.0, "lat": 38.905749166666666, "bike_id": "c4cb6e015feaf3a4f385d06129b6a7d7", "type": "electric_scooter", "is_reserved": 0, "lon": -77.02202816666667}, {"fusion_lat": 0.0, "name": "973ec9dca94a8063efca306bd5aaa103", "is_disabled": 0, "rental_uris": {"android": "https://dc.lft.to/lastmile_qr_scan", "ios": "https://dc.lft.to/lastmile_qr_scan"}, "fusion_lon": 0.0, "lat": 38.9056535, "bike_id": "973ec9dca94a8063efca306bd5aaa103", "type": "electric_scooter", "is_reserved": 0, "lon": -77.00574216666666}, {"fusion_lat": 0.0, "name": "d24ed5b8a850e072219dc5b3a4d8b25f", "is_disabled": 0, "rental_uris": {"android": "https://dc.lft.to/lastmile_qr_scan", "ios": "https://dc.lft.to/lastmile_qr_scan"}, "fusion_lon": 0.0, "lat": 38.93107883333333, "bike_id": "d24ed5b8a850e072219dc5b3a4d8b25f", "type": "electric_scooter", "is_reserved": 0, "lon": -77.02129933333333}, {"fusion_lat": 0.0, "name": "72d1732d5a3d1b54507409a267cf64a8", "is_disabled": 0, "rental_uris": {"android": "https://dc.lft.to/lastmile_qr_scan", "ios": "https://dc.lft.to/lastmile_qr_scan"}, "fusion_lon": 0.0, "lat": 38.94127366666667, "bike_id": "72d1732d5a3d1b54507409a267cf64a8", "type": "electric_scooter", "is_reserved": 0, "lon": -77.0265275}, {"fusion_lat": 0.0, "name": "3fc5365c93acbc557d0cf73e097e6c50", "is_disabled": 0, "rental_uris": {"android": "https://dc.lft.to/lastmile_qr_scan", "ios": "https://dc.lft.to/lastmile_qr_scan"}, "fusion_lon": 0.0, "lat": 38.905199333333336, "bike_id": "3fc5365c93acbc557d0cf73e097e6c50", "type": "electric_scooter", "is_reserved": 0, "lon": -77.06502983333333}, {"fusion_lat": 0.0, "name": "a524ec7658f0f0727de4ecd48bd3deb7", "is_disabled": 0, "rental_uris": {"android": "https://dc.lft.to/lastmile_qr_scan", "ios": "https://dc.lft.to/lastmile_qr_scan"}, "fusion_lon": 0.0, "lat": 38.881181833333336, "bike_id": "a524ec7658f0f0727de4ecd48bd3deb7", "type": "electric_scooter", "is_reserved": 0, "lon": -77.0169005}, {"fusion_lat": 0.0, "name": "81c0029c62485a51ed8d328a2a935d55", "is_disabled": 0, "rental_uris": {"android": "https://dc.lft.to/lastmile_qr_scan", "ios": "https://dc.lft.to/lastmile_qr_scan"}, "fusion_lon": 0.0, "lat": 38.9029025, "bike_id": "81c0029c62485a51ed8d328a2a935d55", "type": "electric_scooter", "is_reserved": 0, "lon": -76.9763775}, {"fusion_lat": 0.0, "name": "9b0836e3a8b0eb483d2b75419ff9bb15", "is_disabled": 0, "rental_uris": {"android": "https://dc.lft.to/lastmile_qr_scan", "ios": "https://dc.lft.to/lastmile_qr_scan"}, "fusion_lon": 0.0, "lat": 38.80759116666667, "bike_id": "9b0836e3a8b0eb483d2b75419ff9bb15", "type": "electric_bike", "is_reserved": 0, "lon": -77.09472166666667}, {"fusion_lat": 0.0, "name": "4a4758127434baa893587d53acc7b845", "is_disabled": 0, "rental_uris": {"android": "https://dc.lft.to/lastmile_qr_scan", "ios": "https://dc.lft.to/lastmile_qr_scan"}, "fusion_lon": 0.0, "lat": 38.90142083333333, "bike_id": "4a4758127434baa893587d53acc7b845", "type": "electric_scooter", "is_reserved": 0, "lon": -77.030581}, {"fusion_lat": 0.0, "name": "e6716bc69285982afbbb5aca19ae9b25", "is_disabled": 0, "rental_uris": {"android": "https://dc.lft.to/lastmile_qr_scan", "ios": "https://dc.lft.to/lastmile_qr_scan"}, "fusion_lon": 0.0, "lat": 38.9164265, "bike_id": "e6716bc69285982afbbb5aca19ae9b25", "type": "electric_scooter", "is_reserved": 0, "lon": -77.0316575}, {"fusion_lat": 0.0, "name": "cca9d9b3937267fb50e8940ab7b840e9", "is_disabled": 0, "rental_uris": {"android": "https://dc.lft.to/lastmile_qr_scan", "ios": "https://dc.lft.to/lastmile_qr_scan"}, "fusion_lon": 0.0, "lat": 38.99772683333333, "bike_id": "cca9d9b3937267fb50e8940ab7b840e9", "type": "electric_bike", "is_reserved": 0, "lon": -77.04718566666666}, {"fusion_lat": 0.0, "name": "79a82b560c5a83b2a9b262930e69e5d2", "is_disabled": 0, "rental_uris": {"android": "https://dc.lft.to/lastmile_qr_scan", "ios": "https://dc.lft.to/lastmile_qr_scan"}, "fusion_lon": 0.0, "lat": 38.92637, "bike_id": "79a82b560c5a83b2a9b262930e69e5d2", "type": "electric_scooter", "is_reserved": 0, "lon": -77.0322855}, {"fusion_lat": 0.0, "name": "f9c167c22208e9c5de52ce08265f3a91", "is_disabled": 0, "rental_uris": {"android": "https://dc.lft.to/lastmile_qr_scan", "ios": "https://dc.lft.to/lastmile_qr_scan"}, "fusion_lon": 0.0, "lat": 38.9241, "bike_id": "f9c167c22208e9c5de52ce08265f3a91", "type": "electric_scooter", "is_reserved": 0, "lon": -77.02109916666667}, {"fusion_lat": 0.0, "name": "043e318249b2c6260088647abb6b5d10", "is_disabled": 0, "rental_uris": {"android": "https://dc.lft.to/lastmile_qr_scan", "ios": "https://dc.lft.to/lastmile_qr_scan"}, "fusion_lon": 0.0, "lat": 38.9006275, "bike_id": "043e318249b2c6260088647abb6b5d10", "type": "electric_scooter", "is_reserved": 0, "lon": -76.933895}, {"fusion_lat": 0.0, "name": "3821850a76c59b486aa910cac641b01e", "is_disabled": 0, "rental_uris": {"android": "https://dc.lft.to/lastmile_qr_scan", "ios": "https://dc.lft.to/lastmile_qr_scan"}, "fusion_lon": 0.0, "lat": 38.906915, "bike_id": "3821850a76c59b486aa910cac641b01e", "type": "electric_scooter", "is_reserved": 0, "lon": -77.03595183333333}, {"fusion_lat": 0.0, "name": "846141e580f88b94f5a75220c4516478", "is_disabled": 0, "rental_uris": {"android": "https://dc.lft.to/lastmile_qr_scan", "ios": "https://dc.lft.to/lastmile_qr_scan"}, "fusion_lon": 0.0, "lat": 38.90205366666667, "bike_id": "846141e580f88b94f5a75220c4516478", "type": "electric_scooter", "is_reserved": 0, "lon": -77.02211166666666}, {"fusion_lat": 0.0, "name": "78046c6f274ae1967d7654290785e150", "is_disabled": 0, "rental_uris": {"android": "https://dc.lft.to/lastmile_qr_scan", "ios": "https://dc.lft.to/lastmile_qr_scan"}, "fusion_lon": 0.0, "lat": 38.962052, "bike_id": "78046c6f274ae1967d7654290785e150", "type": "electric_scooter", "is_reserved": 0, "lon": -77.02234483333334}, {"fusion_lat": 0.0, "name": "c12b51b17cb4eccf43648516a41099f6", "is_disabled": 0, "rental_uris": {"android": "https://dc.lft.to/lastmile_qr_scan", "ios": "https://dc.lft.to/lastmile_qr_scan"}, "fusion_lon": 0.0, "lat": 38.896075833333335, "bike_id": "c12b51b17cb4eccf43648516a41099f6", "type": "electric_scooter", "is_reserved": 0, "lon": -77.04977383333333}, {"fusion_lat": 0.0, "name": "fc2703aa830f7c4a99ee15b74a717860", "is_disabled": 0, "rental_uris": {"android": "https://dc.lft.to/lastmile_qr_scan", "ios": "https://dc.lft.to/lastmile_qr_scan"}, "fusion_lon": 0.0, "lat": 38.909561333333336, "bike_id": "fc2703aa830f7c4a99ee15b74a717860", "type": "electric_scooter", "is_reserved": 0, "lon": -77.02309816666667}, {"fusion_lat": 0.0, "name": "2f7258c8af612be376fa88b59379d544", "is_disabled": 0, "rental_uris": {"android": "https://dc.lft.to/lastmile_qr_scan", "ios": "https://dc.lft.to/lastmile_qr_scan"}, "fusion_lon": 0.0, "lat": 38.84634166666667, "bike_id": "2f7258c8af612be376fa88b59379d544", "type": "electric_scooter", "is_reserved": 0, "lon": -76.9692175}, {"fusion_lat": 0.0, "name": "3ea1cd03c82ccdf185601186ef20c8e7", "is_disabled": 0, "rental_uris": {"android": "https://dc.lft.to/lastmile_qr_scan", "ios": "https://dc.lft.to/lastmile_qr_scan"}, "fusion_lon": 0.0, "lat": 38.8956355, "bike_id": "3ea1cd03c82ccdf185601186ef20c8e7", "type": "electric_bike", "is_reserved": 0, "lon": -77.12741}, {"fusion_lat": 0.0, "name": "8263860a3a3fdfe44bb2388e3905a56b", "is_disabled": 0, "rental_uris": {"android": "https://dc.lft.to/lastmile_qr_scan", "ios": "https://dc.lft.to/lastmile_qr_scan"}, "fusion_lon": 0.0, "lat": 38.941808, "bike_id": "8263860a3a3fdfe44bb2388e3905a56b", "type": "electric_scooter", "is_reserved": 0, "lon": -77.0249305}, {"fusion_lat": 0.0, "name": "58b6c7153253e623841a1c89ac6ce202", "is_disabled": 0, "rental_uris": {"android": "https://dc.lft.to/lastmile_qr_scan", "ios": "https://dc.lft.to/lastmile_qr_scan"}, "fusion_lon": 0.0, "lat": 38.900800333333336, "bike_id": "58b6c7153253e623841a1c89ac6ce202", "type": "electric_scooter", "is_reserved": 0, "lon": -77.04803716666666}, {"fusion_lat": 0.0, "name": "294a58d5057c7cbed81421c0e0741dae", "is_disabled": 0, "rental_uris": {"android": "https://dc.lft.to/lastmile_qr_scan", "ios": "https://dc.lft.to/lastmile_qr_scan"}, "fusion_lon": 0.0, "lat": 38.906880666666666, "bike_id": "294a58d5057c7cbed81421c0e0741dae", "type": "electric_scooter", "is_reserved": 0, "lon": -77.01539783333334}, {"fusion_lat": 0.0, "name": "ad287d9a649e0b4ed2e65b22777df1b4", "is_disabled": 0, "rental_uris": {"android": "https://dc.lft.to/lastmile_qr_scan", "ios": "https://dc.lft.to/lastmile_qr_scan"}, "fusion_lon": 0.0, "lat": 38.90107416666667, "bike_id": "ad287d9a649e0b4ed2e65b22777df1b4", "type": "electric_scooter", "is_reserved": 0, "lon": -77.03365166666667}, {"fusion_lat": 0.0, "name": "4d7b6076613b414d6af85033fcf00562", "is_disabled": 0, "rental_uris": {"android": "https://dc.lft.to/lastmile_qr_scan", "ios": "https://dc.lft.to/lastmile_qr_scan"}, "fusion_lon": 0.0, "lat": 38.931110833333335, "bike_id": "4d7b6076613b414d6af85033fcf00562", "type": "electric_scooter", "is_reserved": 0, "lon": -77.038429}, {"fusion_lat": 0.0, "name": "0a31fc214cb3682dcaacb4e2066ac66a", "is_disabled": 0, "rental_uris": {"android": "https://dc.lft.to/lastmile_qr_scan", "ios": "https://dc.lft.to/lastmile_qr_scan"}, "fusion_lon": 0.0, "lat": 38.922135, "bike_id": "0a31fc214cb3682dcaacb4e2066ac66a", "type": "electric_scooter", "is_reserved": 0, "lon": -77.01830683333333}, {"fusion_lat": 0.0, "name": "ee3fcaf4e42348f75865891afee26dbf", "is_disabled": 0, "rental_uris": {"android": "https://dc.lft.to/lastmile_qr_scan", "ios": "https://dc.lft.to/lastmile_qr_scan"}, "fusion_lon": 0.0, "lat": 38.937492, "bike_id": "ee3fcaf4e42348f75865891afee26dbf", "type": "electric_scooter", "is_reserved": 0, "lon": -77.02528466666666}, {"fusion_lat": 0.0, "name": "ebf7c5efe2c9efd5e1386448e9c90f5e", "is_disabled": 0, "rental_uris": {"android": "https://dc.lft.to/lastmile_qr_scan", "ios": "https://dc.lft.to/lastmile_qr_scan"}, "fusion_lon": 0.0, "lat": 38.9039055, "bike_id": "ebf7c5efe2c9efd5e1386448e9c90f5e", "type": "electric_scooter", "is_reserved": 0, "lon": -77.061393}, {"fusion_lat": 0.0, "name": "3a732a5e1ee9432838a01d447ec20670", "is_disabled": 0, "rental_uris": {"android": "https://dc.lft.to/lastmile_qr_scan", "ios": "https://dc.lft.to/lastmile_qr_scan"}, "fusion_lon": 0.0, "lat": 38.917279, "bike_id": "3a732a5e1ee9432838a01d447ec20670", "type": "electric_scooter", "is_reserved": 0, "lon": -77.03657666666666}, {"fusion_lat": 0.0, "name": "0f7bf448940dafe6447b76deaaa976a6", "is_disabled": 0, "rental_uris": {"android": "https://dc.lft.to/lastmile_qr_scan", "ios": "https://dc.lft.to/lastmile_qr_scan"}, "fusion_lon": 0.0, "lat": 38.907353666666666, "bike_id": "0f7bf448940dafe6447b76deaaa976a6", "type": "electric_scooter", "is_reserved": 0, "lon": -77.034541}, {"fusion_lat": 0.0, "name": "66c50867b812d67a78eaeea03830b947", "is_disabled": 0, "rental_uris": {"android": "https://dc.lft.to/lastmile_qr_scan", "ios": "https://dc.lft.to/lastmile_qr_scan"}, "fusion_lon": 0.0, "lat": 38.92382216666667, "bike_id": "66c50867b812d67a78eaeea03830b947", "type": "electric_scooter", "is_reserved": 0, "lon": -77.040248}, {"fusion_lat": 0.0, "name": "ff50e4718bb94a7fd8f9aed89d4663e3", "is_disabled": 0, "rental_uris": {"android": "https://dc.lft.to/lastmile_qr_scan", "ios": "https://dc.lft.to/lastmile_qr_scan"}, "fusion_lon": 0.0, "lat": 38.909583, "bike_id": "ff50e4718bb94a7fd8f9aed89d4663e3", "type": "electric_scooter", "is_reserved": 0, "lon": -77.04865316666667}, {"fusion_lat": 0.0, "name": "2a883334ed6ff570406947d0cc8903c2", "is_disabled": 0, "rental_uris": {"android": "https://dc.lft.to/lastmile_qr_scan", "ios": "https://dc.lft.to/lastmile_qr_scan"}, "fusion_lon": 0.0, "lat": 38.893273, "bike_id": "2a883334ed6ff570406947d0cc8903c2", "type": "electric_scooter", "is_reserved": 0, "lon": -76.9392855}, {"fusion_lat": 0.0, "name": "14fc8e2c3b87e9cf24c7b3c6635226ab", "is_disabled": 0, "rental_uris": {"android": "https://dc.lft.to/lastmile_qr_scan", "ios": "https://dc.lft.to/lastmile_qr_scan"}, "fusion_lon": 0.0, "lat": 38.80444083333333, "bike_id": "14fc8e2c3b87e9cf24c7b3c6635226ab", "type": "electric_bike", "is_reserved": 0, "lon": -77.13222866666666}, {"fusion_lat": 0.0, "name": "253dbe7657dfeffd0c5d4a4af37625ad", "is_disabled": 0, "rental_uris": {"android": "https://dc.lft.to/lastmile_qr_scan", "ios": "https://dc.lft.to/lastmile_qr_scan"}, "fusion_lon": 0.0, "lat": 38.90699016666667, "bike_id": "253dbe7657dfeffd0c5d4a4af37625ad", "type": "electric_scooter", "is_reserved": 0, "lon": -77.065287}, {"fusion_lat": 0.0, "name": "f2653a87c10b2432023d50f56020fe26", "is_disabled": 0, "rental_uris": {"android": "https://dc.lft.to/lastmile_qr_scan", "ios": "https://dc.lft.to/lastmile_qr_scan"}, "fusion_lon": 0.0, "lat": 38.91819233333333, "bike_id": "f2653a87c10b2432023d50f56020fe26", "type": "electric_scooter", "is_reserved": 0, "lon": -77.026117}, {"fusion_lat": 0.0, "name": "b14e401ad4e1863603678cfdcee36f7c", "is_disabled": 0, "rental_uris": {"android": "https://dc.lft.to/lastmile_qr_scan", "ios": "https://dc.lft.to/lastmile_qr_scan"}, "fusion_lon": 0.0, "lat": 38.9199415, "bike_id": "b14e401ad4e1863603678cfdcee36f7c", "type": "electric_scooter", "is_reserved": 0, "lon": -77.03282333333334}, {"fusion_lat": 0.0, "name": "f2e644f91117d30753bd2e9690305de7", "is_disabled": 0, "rental_uris": {"android": "https://dc.lft.to/lastmile_qr_scan", "ios": "https://dc.lft.to/lastmile_qr_scan"}, "fusion_lon": 0.0, "lat": 38.834000333333336, "bike_id": "f2e644f91117d30753bd2e9690305de7", "type": "electric_bike", "is_reserved": 0, "lon": -77.003336}, {"fusion_lat": 0.0, "name": "81f13d50401133cd1b650aca028f6488", "is_disabled": 0, "rental_uris": {"android": "https://dc.lft.to/lastmile_qr_scan", "ios": "https://dc.lft.to/lastmile_qr_scan"}, "fusion_lon": 0.0, "lat": 38.9155665, "bike_id": "81f13d50401133cd1b650aca028f6488", "type": "electric_scooter", "is_reserved": 0, "lon": -77.038138}, {"fusion_lat": 0.0, "name": "b5b8445d17a3fbe904a45b372de52e9a", "is_disabled": 0, "rental_uris": {"android": "https://dc.lft.to/lastmile_qr_scan", "ios": "https://dc.lft.to/lastmile_qr_scan"}, "fusion_lon": 0.0, "lat": 38.93572866666667, "bike_id": "b5b8445d17a3fbe904a45b372de52e9a", "type": "electric_scooter", "is_reserved": 0, "lon": -77.01925416666667}, {"fusion_lat": 0.0, "name": "9ab03c9fcc8cb7cfde828719c81bb9bf", "is_disabled": 0, "rental_uris": {"android": "https://dc.lft.to/lastmile_qr_scan", "ios": "https://dc.lft.to/lastmile_qr_scan"}, "fusion_lon": 0.0, "lat": 38.87763316666667, "bike_id": "9ab03c9fcc8cb7cfde828719c81bb9bf", "type": "electric_scooter", "is_reserved": 0, "lon": -76.9938715}, {"fusion_lat": 0.0, "name": "f75a1ee73acd96764458d283f3932ba4", "is_disabled": 0, "rental_uris": {"android": "https://dc.lft.to/lastmile_qr_scan", "ios": "https://dc.lft.to/lastmile_qr_scan"}, "fusion_lon": 0.0, "lat": 38.92251133333333, "bike_id": "f75a1ee73acd96764458d283f3932ba4", "type": "electric_scooter", "is_reserved": 0, "lon": -77.03385983333334}, {"fusion_lat": 0.0, "name": "e4c7eeadbd90cb4175eb81d85ce37695", "is_disabled": 0, "rental_uris": {"android": "https://dc.lft.to/lastmile_qr_scan", "ios": "https://dc.lft.to/lastmile_qr_scan"}, "fusion_lon": 0.0, "lat": 38.9058325, "bike_id": "e4c7eeadbd90cb4175eb81d85ce37695", "type": "electric_scooter", "is_reserved": 0, "lon": -77.00887866666666}, {"fusion_lat": 0.0, "name": "10e1b4dee9d1ae59a4b702e15236ab8a", "is_disabled": 0, "rental_uris": {"android": "https://dc.lft.to/lastmile_qr_scan", "ios": "https://dc.lft.to/lastmile_qr_scan"}, "fusion_lon": 0.0, "lat": 38.91926983333333, "bike_id": "10e1b4dee9d1ae59a4b702e15236ab8a", "type": "electric_scooter", "is_reserved": 0, "lon": -77.031862}, {"fusion_lat": 0.0, "name": "18df1d7d1ad186602fb8378decc23509", "is_disabled": 0, "rental_uris": {"android": "https://dc.lft.to/lastmile_qr_scan", "ios": "https://dc.lft.to/lastmile_qr_scan"}, "fusion_lon": 0.0, "lat": 38.89771866666667, "bike_id": "18df1d7d1ad186602fb8378decc23509", "type": "electric_scooter", "is_reserved": 0, "lon": -77.0515915}, {"fusion_lat": 0.0, "name": "d6aed2e39fc224c96795b04fca8b42e0", "is_disabled": 0, "rental_uris": {"android": "https://dc.lft.to/lastmile_qr_scan", "ios": "https://dc.lft.to/lastmile_qr_scan"}, "fusion_lon": 0.0, "lat": 38.89981933333333, "bike_id": "d6aed2e39fc224c96795b04fca8b42e0", "type": "electric_scooter", "is_reserved": 0, "lon": -77.02500633333334}, {"fusion_lat": 0.0, "name": "025099cffd238bbc4fd89b65c34ea943", "is_disabled": 0, "rental_uris": {"android": "https://dc.lft.to/lastmile_qr_scan", "ios": "https://dc.lft.to/lastmile_qr_scan"}, "fusion_lon": 0.0, "lat": 38.8976595, "bike_id": "025099cffd238bbc4fd89b65c34ea943", "type": "electric_scooter", "is_reserved": 0, "lon": -77.05096783333333}, {"fusion_lat": 0.0, "name": "085819d156edcdc2222ac4c634c80ba9", "is_disabled": 0, "rental_uris": {"android": "https://dc.lft.to/lastmile_qr_scan", "ios": "https://dc.lft.to/lastmile_qr_scan"}, "fusion_lon": 0.0, "lat": 38.8973485, "bike_id": "085819d156edcdc2222ac4c634c80ba9", "type": "electric_scooter", "is_reserved": 0, "lon": -77.04565}, {"fusion_lat": 0.0, "name": "e18c4fd41dd89219c54f6d3cf09042f4", "is_disabled": 0, "rental_uris": {"android": "https://dc.lft.to/lastmile_qr_scan", "ios": "https://dc.lft.to/lastmile_qr_scan"}, "fusion_lon": 0.0, "lat": 38.90409616666667, "bike_id": "e18c4fd41dd89219c54f6d3cf09042f4", "type": "electric_scooter", "is_reserved": 0, "lon": -76.97330416666667}, {"fusion_lat": 0.0, "name": "ea01c6bf0810c9e4e9e066bed462dc19", "is_disabled": 0, "rental_uris": {"android": "https://dc.lft.to/lastmile_qr_scan", "ios": "https://dc.lft.to/lastmile_qr_scan"}, "fusion_lon": 0.0, "lat": 38.88438883333333, "bike_id": "ea01c6bf0810c9e4e9e066bed462dc19", "type": "electric_scooter", "is_reserved": 0, "lon": -77.00353433333333}, {"fusion_lat": 0.0, "name": "8ce30ffe3729567b9ac08b86cac53e8f", "is_disabled": 0, "rental_uris": {"android": "https://dc.lft.to/lastmile_qr_scan", "ios": "https://dc.lft.to/lastmile_qr_scan"}, "fusion_lon": 0.0, "lat": 38.88613316666667, "bike_id": "8ce30ffe3729567b9ac08b86cac53e8f", "type": "electric_scooter", "is_reserved": 0, "lon": -77.0155985}, {"fusion_lat": 0.0, "name": "dddc1cca7242341f151551f76e391e56", "is_disabled": 0, "rental_uris": {"android": "https://dc.lft.to/lastmile_qr_scan", "ios": "https://dc.lft.to/lastmile_qr_scan"}, "fusion_lon": 0.0, "lat": 38.9205005, "bike_id": "dddc1cca7242341f151551f76e391e56", "type": "electric_scooter", "is_reserved": 0, "lon": -77.0237085}, {"fusion_lat": 0.0, "name": "4c437056a9cbeefd4e4a294c4ff90352", "is_disabled": 0, "rental_uris": {"android": "https://dc.lft.to/lastmile_qr_scan", "ios": "https://dc.lft.to/lastmile_qr_scan"}, "fusion_lon": 0.0, "lat": 38.898771833333335, "bike_id": "4c437056a9cbeefd4e4a294c4ff90352", "type": "electric_scooter", "is_reserved": 0, "lon": -76.9319}, {"fusion_lat": 0.0, "name": "72197fc8a908f12dcdfc96aed13d78c3", "is_disabled": 0, "rental_uris": {"android": "https://dc.lft.to/lastmile_qr_scan", "ios": "https://dc.lft.to/lastmile_qr_scan"}, "fusion_lon": 0.0, "lat": 38.87711616666667, "bike_id": "72197fc8a908f12dcdfc96aed13d78c3", "type": "electric_scooter", "is_reserved": 0, "lon": -76.99384333333333}, {"fusion_lat": 0.0, "name": "f41233c5d44820c8ffed212be4e226cc", "is_disabled": 0, "rental_uris": {"android": "https://dc.lft.to/lastmile_qr_scan", "ios": "https://dc.lft.to/lastmile_qr_scan"}, "fusion_lon": 0.0, "lat": 38.907824833333336, "bike_id": "f41233c5d44820c8ffed212be4e226cc", "type": "electric_scooter", "is_reserved": 0, "lon": -77.04260916666667}, {"fusion_lat": 0.0, "name": "64a45814854b325adbc4415744cfa3fa", "is_disabled": 0, "rental_uris": {"android": "https://dc.lft.to/lastmile_qr_scan", "ios": "https://dc.lft.to/lastmile_qr_scan"}, "fusion_lon": 0.0, "lat": 38.91669366666667, "bike_id": "64a45814854b325adbc4415744cfa3fa", "type": "electric_scooter", "is_reserved": 0, "lon": -77.02961066666667}, {"fusion_lat": 0.0, "name": "6c80a7d0a2020b7bd371189cc4fff505", "is_disabled": 0, "rental_uris": {"android": "https://dc.lft.to/lastmile_qr_scan", "ios": "https://dc.lft.to/lastmile_qr_scan"}, "fusion_lon": 0.0, "lat": 38.89605533333334, "bike_id": "6c80a7d0a2020b7bd371189cc4fff505", "type": "electric_scooter", "is_reserved": 0, "lon": -77.00931633333333}, {"fusion_lat": 0.0, "name": "2177b26bf39a932a9c949703a4a8fd4c", "is_disabled": 0, "rental_uris": {"android": "https://dc.lft.to/lastmile_qr_scan", "ios": "https://dc.lft.to/lastmile_qr_scan"}, "fusion_lon": 0.0, "lat": 38.91815166666667, "bike_id": "2177b26bf39a932a9c949703a4a8fd4c", "type": "electric_scooter", "is_reserved": 0, "lon": -77.024944}, {"fusion_lat": 0.0, "name": "9606306fd49f7463b772fe019ebe79d1", "is_disabled": 0, "rental_uris": {"android": "https://dc.lft.to/lastmile_qr_scan", "ios": "https://dc.lft.to/lastmile_qr_scan"}, "fusion_lon": 0.0, "lat": 38.912535, "bike_id": "9606306fd49f7463b772fe019ebe79d1", "type": "electric_scooter", "is_reserved": 0, "lon": -77.03856266666666}, {"fusion_lat": 0.0, "name": "608be98eaa2c57c9849281f0010b1b47", "is_disabled": 0, "rental_uris": {"android": "https://dc.lft.to/lastmile_qr_scan", "ios": "https://dc.lft.to/lastmile_qr_scan"}, "fusion_lon": 0.0, "lat": 38.84126716666667, "bike_id": "608be98eaa2c57c9849281f0010b1b47", "type": "electric_bike", "is_reserved": 0, "lon": -77.0630635}, {"fusion_lat": 0.0, "name": "8a2e0f8ae6f0d23f3f9dff4e8924551b", "is_disabled": 0, "rental_uris": {"android": "https://dc.lft.to/lastmile_qr_scan", "ios": "https://dc.lft.to/lastmile_qr_scan"}, "fusion_lon": 0.0, "lat": 38.86350083333333, "bike_id": "8a2e0f8ae6f0d23f3f9dff4e8924551b", "type": "electric_bike", "is_reserved": 0, "lon": -77.07722733333334}, {"fusion_lat": 0.0, "name": "ed2004fe529028bb9811397f7c4c33dc", "is_disabled": 0, "rental_uris": {"android": "https://dc.lft.to/lastmile_qr_scan", "ios": "https://dc.lft.to/lastmile_qr_scan"}, "fusion_lon": 0.0, "lat": 38.89224933333333, "bike_id": "ed2004fe529028bb9811397f7c4c33dc", "type": "electric_scooter", "is_reserved": 0, "lon": -77.00302266666667}, {"fusion_lat": 0.0, "name": "5180cf0fed4e333164f70d6151b12cca", "is_disabled": 0, "rental_uris": {"android": "https://dc.lft.to/lastmile_qr_scan", "ios": "https://dc.lft.to/lastmile_qr_scan"}, "fusion_lon": 0.0, "lat": 38.905757333333334, "bike_id": "5180cf0fed4e333164f70d6151b12cca", "type": "electric_scooter", "is_reserved": 0, "lon": -77.00574533333334}, {"fusion_lat": 0.0, "name": "cd3db0c46c036c0db680c1e29f43ab53", "is_disabled": 0, "rental_uris": {"android": "https://dc.lft.to/lastmile_qr_scan", "ios": "https://dc.lft.to/lastmile_qr_scan"}, "fusion_lon": 0.0, "lat": 38.888347333333336, "bike_id": "cd3db0c46c036c0db680c1e29f43ab53", "type": "electric_scooter", "is_reserved": 0, "lon": -77.04846166666667}, {"fusion_lat": 0.0, "name": "5ed1dfb151a4120848878ce6af6c08ad", "is_disabled": 0, "rental_uris": {"android": "https://dc.lft.to/lastmile_qr_scan", "ios": "https://dc.lft.to/lastmile_qr_scan"}, "fusion_lon": 0.0, "lat": 38.89479433333333, "bike_id": "5ed1dfb151a4120848878ce6af6c08ad", "type": "electric_scooter", "is_reserved": 0, "lon": -77.02182633333334}, {"fusion_lat": 0.0, "name": "14412bf814bba02907a1d1844a9bcc09", "is_disabled": 0, "rental_uris": {"android": "https://dc.lft.to/lastmile_qr_scan", "ios": "https://dc.lft.to/lastmile_qr_scan"}, "fusion_lon": 0.0, "lat": 38.91709083333333, "bike_id": "14412bf814bba02907a1d1844a9bcc09", "type": "electric_scooter", "is_reserved": 0, "lon": -77.0386575}, {"fusion_lat": 0.0, "name": "9981d4475fb9e68645feafe7ad6f8265", "is_disabled": 0, "rental_uris": {"android": "https://dc.lft.to/lastmile_qr_scan", "ios": "https://dc.lft.to/lastmile_qr_scan"}, "fusion_lon": 0.0, "lat": 38.8193845, "bike_id": "9981d4475fb9e68645feafe7ad6f8265", "type": "electric_bike", "is_reserved": 0, "lon": -77.002025}, {"fusion_lat": 0.0, "name": "703b48e3371ee337269304bcdf7c97ea", "is_disabled": 0, "rental_uris": {"android": "https://dc.lft.to/lastmile_qr_scan", "ios": "https://dc.lft.to/lastmile_qr_scan"}, "fusion_lon": 0.0, "lat": 38.904592, "bike_id": "703b48e3371ee337269304bcdf7c97ea", "type": "electric_scooter", "is_reserved": 0, "lon": -77.02952733333333}, {"fusion_lat": 0.0, "name": "2edcaf06ee209ac714287269de3f32b2", "is_disabled": 0, "rental_uris": {"android": "https://dc.lft.to/lastmile_qr_scan", "ios": "https://dc.lft.to/lastmile_qr_scan"}, "fusion_lon": 0.0, "lat": 38.9095355, "bike_id": "2edcaf06ee209ac714287269de3f32b2", "type": "electric_scooter", "is_reserved": 0, "lon": -76.98540783333334}, {"fusion_lat": 0.0, "name": "c784fa1a80b7d278fb0fb352cf9e295a", "is_disabled": 0, "rental_uris": {"android": "https://dc.lft.to/lastmile_qr_scan", "ios": "https://dc.lft.to/lastmile_qr_scan"}, "fusion_lon": 0.0, "lat": 38.907151999999996, "bike_id": "c784fa1a80b7d278fb0fb352cf9e295a", "type": "electric_scooter", "is_reserved": 0, "lon": -77.02541816666667}, {"fusion_lat": 0.0, "name": "5b09f9e23644a73966f0719d53bc44c9", "is_disabled": 0, "rental_uris": {"android": "https://dc.lft.to/lastmile_qr_scan", "ios": "https://dc.lft.to/lastmile_qr_scan"}, "fusion_lon": 0.0, "lat": 38.937507333333336, "bike_id": "5b09f9e23644a73966f0719d53bc44c9", "type": "electric_scooter", "is_reserved": 0, "lon": -77.02528333333333}, {"fusion_lat": 0.0, "name": "8322ceeaaae980fe5d0c239e35ce57ce", "is_disabled": 0, "rental_uris": {"android": "https://dc.lft.to/lastmile_qr_scan", "ios": "https://dc.lft.to/lastmile_qr_scan"}, "fusion_lon": 0.0, "lat": 38.93150583333333, "bike_id": "8322ceeaaae980fe5d0c239e35ce57ce", "type": "electric_scooter", "is_reserved": 0, "lon": -77.039775}, {"fusion_lat": 0.0, "name": "d8557e05b477fd1bd172132e05232b0f", "is_disabled": 0, "rental_uris": {"android": "https://dc.lft.to/lastmile_qr_scan", "ios": "https://dc.lft.to/lastmile_qr_scan"}, "fusion_lon": 0.0, "lat": 38.935835833333336, "bike_id": "d8557e05b477fd1bd172132e05232b0f", "type": "electric_scooter", "is_reserved": 0, "lon": -77.02365516666667}, {"fusion_lat": 0.0, "name": "59ca09a8dc78f5f877cc3b648db23e61", "is_disabled": 0, "rental_uris": {"android": "https://dc.lft.to/lastmile_qr_scan", "ios": "https://dc.lft.to/lastmile_qr_scan"}, "fusion_lon": 0.0, "lat": 38.92440083333334, "bike_id": "59ca09a8dc78f5f877cc3b648db23e61", "type": "electric_scooter", "is_reserved": 0, "lon": -77.03361383333333}, {"fusion_lat": 0.0, "name": "233b9016f1c5addc3728facd26db32b3", "is_disabled": 0, "rental_uris": {"android": "https://dc.lft.to/lastmile_qr_scan", "ios": "https://dc.lft.to/lastmile_qr_scan"}, "fusion_lon": 0.0, "lat": 38.94678366666667, "bike_id": "233b9016f1c5addc3728facd26db32b3", "type": "electric_scooter", "is_reserved": 0, "lon": -77.030974}, {"fusion_lat": 0.0, "name": "0321536fd26354dde0185144cd67db35", "is_disabled": 0, "rental_uris": {"android": "https://dc.lft.to/lastmile_qr_scan", "ios": "https://dc.lft.to/lastmile_qr_scan"}, "fusion_lon": 0.0, "lat": 38.904105333333334, "bike_id": "0321536fd26354dde0185144cd67db35", "type": "electric_scooter", "is_reserved": 0, "lon": -77.03182433333333}, {"fusion_lat": 0.0, "name": "78b7830182c00b05e724743679a0c729", "is_disabled": 0, "rental_uris": {"android": "https://dc.lft.to/lastmile_qr_scan", "ios": "https://dc.lft.to/lastmile_qr_scan"}, "fusion_lon": 0.0, "lat": 38.93101516666667, "bike_id": "78b7830182c00b05e724743679a0c729", "type": "electric_scooter", "is_reserved": 0, "lon": -77.0266515}, {"fusion_lat": 0.0, "name": "f032a16008e244bbf8d319a5a21bfac4", "is_disabled": 0, "rental_uris": {"android": "https://dc.lft.to/lastmile_qr_scan", "ios": "https://dc.lft.to/lastmile_qr_scan"}, "fusion_lon": 0.0, "lat": 38.94837733333333, "bike_id": "f032a16008e244bbf8d319a5a21bfac4", "type": "electric_scooter", "is_reserved": 0, "lon": -77.025736}, {"fusion_lat": 0.0, "name": "9bcc4c6e4f27f906c9180665b05c2f9d", "is_disabled": 0, "rental_uris": {"android": "https://dc.lft.to/lastmile_qr_scan", "ios": "https://dc.lft.to/lastmile_qr_scan"}, "fusion_lon": 0.0, "lat": 38.9317355, "bike_id": "9bcc4c6e4f27f906c9180665b05c2f9d", "type": "electric_scooter", "is_reserved": 0, "lon": -77.0429485}, {"fusion_lat": 0.0, "name": "8108e75759766ee846a03b23a84c345b", "is_disabled": 0, "rental_uris": {"android": "https://dc.lft.to/lastmile_qr_scan", "ios": "https://dc.lft.to/lastmile_qr_scan"}, "fusion_lon": 0.0, "lat": 38.9110565, "bike_id": "8108e75759766ee846a03b23a84c345b", "type": "electric_scooter", "is_reserved": 0, "lon": -77.011609}, {"fusion_lat": 0.0, "name": "bef7ebe9ed0feefa2e4d89aa5fde7345", "is_disabled": 0, "rental_uris": {"android": "https://dc.lft.to/lastmile_qr_scan", "ios": "https://dc.lft.to/lastmile_qr_scan"}, "fusion_lon": 0.0, "lat": 38.9570465, "bike_id": "bef7ebe9ed0feefa2e4d89aa5fde7345", "type": "electric_scooter", "is_reserved": 0, "lon": -77.02409533333334}, {"fusion_lat": 0.0, "name": "eae33f549b0527b1bd76ca075b8ea549", "is_disabled": 0, "rental_uris": {"android": "https://dc.lft.to/lastmile_qr_scan", "ios": "https://dc.lft.to/lastmile_qr_scan"}, "fusion_lon": 0.0, "lat": 38.900276166666664, "bike_id": "eae33f549b0527b1bd76ca075b8ea549", "type": "electric_scooter", "is_reserved": 0, "lon": -76.99143183333334}, {"fusion_lat": 0.0, "name": "ee38a89b817188a980144d19bfd7b062", "is_disabled": 0, "rental_uris": {"android": "https://dc.lft.to/lastmile_qr_scan", "ios": "https://dc.lft.to/lastmile_qr_scan"}, "fusion_lon": 0.0, "lat": 38.9206695, "bike_id": "ee38a89b817188a980144d19bfd7b062", "type": "electric_scooter", "is_reserved": 0, "lon": -77.03204883333333}, {"fusion_lat": 0.0, "name": "14bad6f9c8284f6acd0cb9081bcad761", "is_disabled": 0, "rental_uris": {"android": "https://dc.lft.to/lastmile_qr_scan", "ios": "https://dc.lft.to/lastmile_qr_scan"}, "fusion_lon": 0.0, "lat": 38.884553, "bike_id": "14bad6f9c8284f6acd0cb9081bcad761", "type": "electric_scooter", "is_reserved": 0, "lon": -76.99823283333333}, {"fusion_lat": 0.0, "name": "4c2d958c920af56f27efe1f4d2a0aeb4", "is_disabled": 0, "rental_uris": {"android": "https://dc.lft.to/lastmile_qr_scan", "ios": "https://dc.lft.to/lastmile_qr_scan"}, "fusion_lon": 0.0, "lat": 38.88473116666667, "bike_id": "4c2d958c920af56f27efe1f4d2a0aeb4", "type": "electric_scooter", "is_reserved": 0, "lon": -76.929758}, {"fusion_lat": 0.0, "name": "f2faf311eb4067c12e78b692576b587a", "is_disabled": 0, "rental_uris": {"android": "https://dc.lft.to/lastmile_qr_scan", "ios": "https://dc.lft.to/lastmile_qr_scan"}, "fusion_lon": 0.0, "lat": 38.929946666666666, "bike_id": "f2faf311eb4067c12e78b692576b587a", "type": "electric_scooter", "is_reserved": 0, "lon": -77.03256283333333}, {"fusion_lat": 0.0, "name": "e1976c74a8428fce50ba483d285700f5", "is_disabled": 0, "rental_uris": {"android": "https://dc.lft.to/lastmile_qr_scan", "ios": "https://dc.lft.to/lastmile_qr_scan"}, "fusion_lon": 0.0, "lat": 38.94704083333333, "bike_id": "e1976c74a8428fce50ba483d285700f5", "type": "electric_scooter", "is_reserved": 0, "lon": -77.01939383333334}, {"fusion_lat": 0.0, "name": "409724c2642afc471c64f2ded1c7a9db", "is_disabled": 0, "rental_uris": {"android": "https://dc.lft.to/lastmile_qr_scan", "ios": "https://dc.lft.to/lastmile_qr_scan"}, "fusion_lon": 0.0, "lat": 38.900330833333335, "bike_id": "409724c2642afc471c64f2ded1c7a9db", "type": "electric_scooter", "is_reserved": 0, "lon": -77.02422183333333}, {"fusion_lat": 0.0, "name": "846764997279f72eca4606162a33eaab", "is_disabled": 0, "rental_uris": {"android": "https://dc.lft.to/lastmile_qr_scan", "ios": "https://dc.lft.to/lastmile_qr_scan"}, "fusion_lon": 0.0, "lat": 38.92478833333333, "bike_id": "846764997279f72eca4606162a33eaab", "type": "electric_scooter", "is_reserved": 0, "lon": -77.028495}, {"fusion_lat": 0.0, "name": "5648dd58921706494f904de187a7957a", "is_disabled": 0, "rental_uris": {"android": "https://dc.lft.to/lastmile_qr_scan", "ios": "https://dc.lft.to/lastmile_qr_scan"}, "fusion_lon": 0.0, "lat": 38.9002, "bike_id": "5648dd58921706494f904de187a7957a", "type": "electric_scooter", "is_reserved": 0, "lon": -76.99774}, {"fusion_lat": 0.0, "name": "805b62642ee958dc6cec37fe09507dc2", "is_disabled": 0, "rental_uris": {"android": "https://dc.lft.to/lastmile_qr_scan", "ios": "https://dc.lft.to/lastmile_qr_scan"}, "fusion_lon": 0.0, "lat": 38.90125366666667, "bike_id": "805b62642ee958dc6cec37fe09507dc2", "type": "electric_scooter", "is_reserved": 0, "lon": -77.00288366666666}, {"fusion_lat": 0.0, "name": "fd3718e7c62f09948d2016e04ce7f28a", "is_disabled": 0, "rental_uris": {"android": "https://dc.lft.to/lastmile_qr_scan", "ios": "https://dc.lft.to/lastmile_qr_scan"}, "fusion_lon": 0.0, "lat": 38.918426333333336, "bike_id": "fd3718e7c62f09948d2016e04ce7f28a", "type": "electric_scooter", "is_reserved": 0, "lon": -76.9654415}, {"fusion_lat": 0.0, "name": "541b7f0ef3c47bbc30938befc271257e", "is_disabled": 0, "rental_uris": {"android": "https://dc.lft.to/lastmile_qr_scan", "ios": "https://dc.lft.to/lastmile_qr_scan"}, "fusion_lon": 0.0, "lat": 38.9345635, "bike_id": "541b7f0ef3c47bbc30938befc271257e", "type": "electric_scooter", "is_reserved": 0, "lon": -77.023354}, {"fusion_lat": 0.0, "name": "258bdc68d22c64b10584a12af093d564", "is_disabled": 0, "rental_uris": {"android": "https://dc.lft.to/lastmile_qr_scan", "ios": "https://dc.lft.to/lastmile_qr_scan"}, "fusion_lon": 0.0, "lat": 38.9135115, "bike_id": "258bdc68d22c64b10584a12af093d564", "type": "electric_scooter", "is_reserved": 0, "lon": -77.0333375}, {"fusion_lat": 0.0, "name": "76e3ef34d26bb6ef8134e6359c7e1db3", "is_disabled": 0, "rental_uris": {"android": "https://dc.lft.to/lastmile_qr_scan", "ios": "https://dc.lft.to/lastmile_qr_scan"}, "fusion_lon": 0.0, "lat": 38.901816833333335, "bike_id": "76e3ef34d26bb6ef8134e6359c7e1db3", "type": "electric_scooter", "is_reserved": 0, "lon": -77.0259475}, {"fusion_lat": 0.0, "name": "314e37c1f348c864f5e2e14f236912e7", "is_disabled": 0, "rental_uris": {"android": "https://dc.lft.to/lastmile_qr_scan", "ios": "https://dc.lft.to/lastmile_qr_scan"}, "fusion_lon": 0.0, "lat": 38.984724166666666, "bike_id": "314e37c1f348c864f5e2e14f236912e7", "type": "electric_scooter", "is_reserved": 0, "lon": -77.02641616666666}, {"fusion_lat": 0.0, "name": "6169cb373ed17a0924650b20e97ec126", "is_disabled": 0, "rental_uris": {"android": "https://dc.lft.to/lastmile_qr_scan", "ios": "https://dc.lft.to/lastmile_qr_scan"}, "fusion_lon": 0.0, "lat": 38.9213865, "bike_id": "6169cb373ed17a0924650b20e97ec126", "type": "electric_scooter", "is_reserved": 0, "lon": -77.018094}, {"fusion_lat": 0.0, "name": "b1779d9c929ccb98fd9d6dcad6409a53", "is_disabled": 0, "rental_uris": {"android": "https://dc.lft.to/lastmile_qr_scan", "ios": "https://dc.lft.to/lastmile_qr_scan"}, "fusion_lon": 0.0, "lat": 38.91659033333333, "bike_id": "b1779d9c929ccb98fd9d6dcad6409a53", "type": "electric_scooter", "is_reserved": 0, "lon": -77.02817833333333}, {"fusion_lat": 0.0, "name": "6c8118137c57272b5b813aa2144020b7", "is_disabled": 0, "rental_uris": {"android": "https://dc.lft.to/lastmile_qr_scan", "ios": "https://dc.lft.to/lastmile_qr_scan"}, "fusion_lon": 0.0, "lat": 38.9217055, "bike_id": "6c8118137c57272b5b813aa2144020b7", "type": "electric_scooter", "is_reserved": 0, "lon": -77.0364865}, {"fusion_lat": 0.0, "name": "2c671498d6f2592d4899caf33998621c", "is_disabled": 0, "rental_uris": {"android": "https://dc.lft.to/lastmile_qr_scan", "ios": "https://dc.lft.to/lastmile_qr_scan"}, "fusion_lon": 0.0, "lat": 38.9265325, "bike_id": "2c671498d6f2592d4899caf33998621c", "type": "electric_scooter", "is_reserved": 0, "lon": -77.03712783333333}, {"fusion_lat": 0.0, "name": "ee31e30e52c31b33a7a1e1c484586105", "is_disabled": 0, "rental_uris": {"android": "https://dc.lft.to/lastmile_qr_scan", "ios": "https://dc.lft.to/lastmile_qr_scan"}, "fusion_lon": 0.0, "lat": 38.88765566666667, "bike_id": "ee31e30e52c31b33a7a1e1c484586105", "type": "electric_scooter", "is_reserved": 0, "lon": -76.9947805}, {"fusion_lat": 0.0, "name": "d5317682b94488b79ad1df2c7fa86fd1", "is_disabled": 0, "rental_uris": {"android": "https://dc.lft.to/lastmile_qr_scan", "ios": "https://dc.lft.to/lastmile_qr_scan"}, "fusion_lon": 0.0, "lat": 38.902559333333336, "bike_id": "d5317682b94488b79ad1df2c7fa86fd1", "type": "electric_scooter", "is_reserved": 0, "lon": -77.01882683333334}, {"fusion_lat": 0.0, "name": "73c3ebe675ebd75e1f19c0d8d4b1535a", "is_disabled": 0, "rental_uris": {"android": "https://dc.lft.to/lastmile_qr_scan", "ios": "https://dc.lft.to/lastmile_qr_scan"}, "fusion_lon": 0.0, "lat": 38.941335, "bike_id": "73c3ebe675ebd75e1f19c0d8d4b1535a", "type": "electric_scooter", "is_reserved": 0, "lon": -77.0061335}, {"fusion_lat": 0.0, "name": "eb66785fd6fee9f4f05f4ab33345fabf", "is_disabled": 0, "rental_uris": {"android": "https://dc.lft.to/lastmile_qr_scan", "ios": "https://dc.lft.to/lastmile_qr_scan"}, "fusion_lon": 0.0, "lat": 38.905762333333335, "bike_id": "eb66785fd6fee9f4f05f4ab33345fabf", "type": "electric_scooter", "is_reserved": 0, "lon": -77.02200233333333}, {"fusion_lat": 0.0, "name": "dbc1b520a09ab2662622fd35bee258df", "is_disabled": 0, "rental_uris": {"android": "https://dc.lft.to/lastmile_qr_scan", "ios": "https://dc.lft.to/lastmile_qr_scan"}, "fusion_lon": 0.0, "lat": 38.933662, "bike_id": "dbc1b520a09ab2662622fd35bee258df", "type": "electric_scooter", "is_reserved": 0, "lon": -77.03883383333333}, {"fusion_lat": 0.0, "name": "8a0a97e0768827be251e5d02085e174b", "is_disabled": 0, "rental_uris": {"android": "https://dc.lft.to/lastmile_qr_scan", "ios": "https://dc.lft.to/lastmile_qr_scan"}, "fusion_lon": 0.0, "lat": 38.91683866666666, "bike_id": "8a0a97e0768827be251e5d02085e174b", "type": "electric_scooter", "is_reserved": 0, "lon": -77.03196116666666}, {"fusion_lat": 0.0, "name": "b042811eef0f8f5bf88df5984a2c4aae", "is_disabled": 0, "rental_uris": {"android": "https://dc.lft.to/lastmile_qr_scan", "ios": "https://dc.lft.to/lastmile_qr_scan"}, "fusion_lon": 0.0, "lat": 38.8972745, "bike_id": "b042811eef0f8f5bf88df5984a2c4aae", "type": "electric_scooter", "is_reserved": 0, "lon": -77.03247133333333}, {"fusion_lat": 0.0, "name": "44587a3692963a4c13a4b21ab15bef4a", "is_disabled": 0, "rental_uris": {"android": "https://dc.lft.to/lastmile_qr_scan", "ios": "https://dc.lft.to/lastmile_qr_scan"}, "fusion_lon": 0.0, "lat": 38.9267425, "bike_id": "44587a3692963a4c13a4b21ab15bef4a", "type": "electric_scooter", "is_reserved": 0, "lon": -77.027801}, {"fusion_lat": 0.0, "name": "4046d47a30804cecafd65be7b7984345", "is_disabled": 0, "rental_uris": {"android": "https://dc.lft.to/lastmile_qr_scan", "ios": "https://dc.lft.to/lastmile_qr_scan"}, "fusion_lon": 0.0, "lat": 38.90354816666667, "bike_id": "4046d47a30804cecafd65be7b7984345", "type": "electric_scooter", "is_reserved": 0, "lon": -76.97242966666667}, {"fusion_lat": 0.0, "name": "a16a7d98b1d28933a244b3bb32f1e5a8", "is_disabled": 0, "rental_uris": {"android": "https://dc.lft.to/lastmile_qr_scan", "ios": "https://dc.lft.to/lastmile_qr_scan"}, "fusion_lon": 0.0, "lat": 38.90974333333333, "bike_id": "a16a7d98b1d28933a244b3bb32f1e5a8", "type": "electric_scooter", "is_reserved": 0, "lon": -77.0089145}, {"fusion_lat": 0.0, "name": "8ca99c4eec899f1ab1b7e66222d02693", "is_disabled": 0, "rental_uris": {"android": "https://dc.lft.to/lastmile_qr_scan", "ios": "https://dc.lft.to/lastmile_qr_scan"}, "fusion_lon": 0.0, "lat": 38.901098, "bike_id": "8ca99c4eec899f1ab1b7e66222d02693", "type": "electric_scooter", "is_reserved": 0, "lon": -77.05162983333334}, {"fusion_lat": 0.0, "name": "2c82e591769fbd9d034dc273e81b26b4", "is_disabled": 0, "rental_uris": {"android": "https://dc.lft.to/lastmile_qr_scan", "ios": "https://dc.lft.to/lastmile_qr_scan"}, "fusion_lon": 0.0, "lat": 38.83932866666667, "bike_id": "2c82e591769fbd9d034dc273e81b26b4", "type": "electric_bike", "is_reserved": 0, "lon": -77.0789695}, {"fusion_lat": 0.0, "name": "12bfbf34f6ef02c7d6719e4fc87fd0db", "is_disabled": 0, "rental_uris": {"android": "https://dc.lft.to/lastmile_qr_scan", "ios": "https://dc.lft.to/lastmile_qr_scan"}, "fusion_lon": 0.0, "lat": 38.92342816666667, "bike_id": "12bfbf34f6ef02c7d6719e4fc87fd0db", "type": "electric_scooter", "is_reserved": 0, "lon": -76.99255183333334}, {"fusion_lat": 0.0, "name": "8787ab2b81fb402dcfc2a1fd5afb9992", "is_disabled": 0, "rental_uris": {"android": "https://dc.lft.to/lastmile_qr_scan", "ios": "https://dc.lft.to/lastmile_qr_scan"}, "fusion_lon": 0.0, "lat": 38.84755233333333, "bike_id": "8787ab2b81fb402dcfc2a1fd5afb9992", "type": "electric_scooter", "is_reserved": 0, "lon": -76.9950035}, {"fusion_lat": 0.0, "name": "b2ab81e630bb37c9a58455d59dafbffb", "is_disabled": 0, "rental_uris": {"android": "https://dc.lft.to/lastmile_qr_scan", "ios": "https://dc.lft.to/lastmile_qr_scan"}, "fusion_lon": 0.0, "lat": 38.93705633333333, "bike_id": "b2ab81e630bb37c9a58455d59dafbffb", "type": "electric_scooter", "is_reserved": 0, "lon": -77.061106}, {"fusion_lat": 0.0, "name": "f66b2810e58ae6b44f41834d90bf6c76", "is_disabled": 0, "rental_uris": {"android": "https://dc.lft.to/lastmile_qr_scan", "ios": "https://dc.lft.to/lastmile_qr_scan"}, "fusion_lon": 0.0, "lat": 38.901433833333336, "bike_id": "f66b2810e58ae6b44f41834d90bf6c76", "type": "electric_scooter", "is_reserved": 0, "lon": -77.04035}, {"fusion_lat": 0.0, "name": "492c34f97ec8bf8e026baf052e9fe563", "is_disabled": 0, "rental_uris": {"android": "https://dc.lft.to/lastmile_qr_scan", "ios": "https://dc.lft.to/lastmile_qr_scan"}, "fusion_lon": 0.0, "lat": 38.94106633333333, "bike_id": "492c34f97ec8bf8e026baf052e9fe563", "type": "electric_scooter", "is_reserved": 0, "lon": -77.034755}, {"fusion_lat": 0.0, "name": "c2f69e3853d97e331ed9ff15cd0c6916", "is_disabled": 0, "rental_uris": {"android": "https://dc.lft.to/lastmile_qr_scan", "ios": "https://dc.lft.to/lastmile_qr_scan"}, "fusion_lon": 0.0, "lat": 38.9031805, "bike_id": "c2f69e3853d97e331ed9ff15cd0c6916", "type": "electric_scooter", "is_reserved": 0, "lon": -77.03202233333333}, {"fusion_lat": 0.0, "name": "789b0bbcec508a51bb48b4b532d95be0", "is_disabled": 0, "rental_uris": {"android": "https://dc.lft.to/lastmile_qr_scan", "ios": "https://dc.lft.to/lastmile_qr_scan"}, "fusion_lon": 0.0, "lat": 38.8875265, "bike_id": "789b0bbcec508a51bb48b4b532d95be0", "type": "electric_scooter", "is_reserved": 0, "lon": -76.99789216666667}, {"fusion_lat": 0.0, "name": "2b7f0f13b472a50713e48c0096569f80", "is_disabled": 0, "rental_uris": {"android": "https://dc.lft.to/lastmile_qr_scan", "ios": "https://dc.lft.to/lastmile_qr_scan"}, "fusion_lon": 0.0, "lat": 38.93580433333333, "bike_id": "2b7f0f13b472a50713e48c0096569f80", "type": "electric_scooter", "is_reserved": 0, "lon": -77.02376933333333}, {"fusion_lat": 0.0, "name": "96e8bbfdbd2c388fdb0293c6a35ce39d", "is_disabled": 0, "rental_uris": {"android": "https://dc.lft.to/lastmile_qr_scan", "ios": "https://dc.lft.to/lastmile_qr_scan"}, "fusion_lon": 0.0, "lat": 38.90667083333334, "bike_id": "96e8bbfdbd2c388fdb0293c6a35ce39d", "type": "electric_scooter", "is_reserved": 0, "lon": -77.02962566666666}, {"fusion_lat": 0.0, "name": "61a7a65baa02e2faa597031f66fbe398", "is_disabled": 0, "rental_uris": {"android": "https://dc.lft.to/lastmile_qr_scan", "ios": "https://dc.lft.to/lastmile_qr_scan"}, "fusion_lon": 0.0, "lat": 38.8899, "bike_id": "61a7a65baa02e2faa597031f66fbe398", "type": "electric_scooter", "is_reserved": 0, "lon": -76.929888}, {"fusion_lat": 0.0, "name": "677311c304625cfe1538af6f80ec8d37", "is_disabled": 0, "rental_uris": {"android": "https://dc.lft.to/lastmile_qr_scan", "ios": "https://dc.lft.to/lastmile_qr_scan"}, "fusion_lon": 0.0, "lat": 38.945194666666666, "bike_id": "677311c304625cfe1538af6f80ec8d37", "type": "electric_scooter", "is_reserved": 0, "lon": -77.038969}, {"fusion_lat": 0.0, "name": "819c8fd9af70d49f274f8529d641ea47", "is_disabled": 0, "rental_uris": {"android": "https://dc.lft.to/lastmile_qr_scan", "ios": "https://dc.lft.to/lastmile_qr_scan"}, "fusion_lon": 0.0, "lat": 38.9170685, "bike_id": "819c8fd9af70d49f274f8529d641ea47", "type": "electric_scooter", "is_reserved": 0, "lon": -77.02749333333334}, {"fusion_lat": 0.0, "name": "233e639279d4180a383b5b6c36b78aa2", "is_disabled": 0, "rental_uris": {"android": "https://dc.lft.to/lastmile_qr_scan", "ios": "https://dc.lft.to/lastmile_qr_scan"}, "fusion_lon": 0.0, "lat": 38.902390833333335, "bike_id": "233e639279d4180a383b5b6c36b78aa2", "type": "electric_scooter", "is_reserved": 0, "lon": -77.00202183333333}, {"fusion_lat": 0.0, "name": "897449fcb49e1f2d3ee3958b4b8c7d3d", "is_disabled": 0, "rental_uris": {"android": "https://dc.lft.to/lastmile_qr_scan", "ios": "https://dc.lft.to/lastmile_qr_scan"}, "fusion_lon": 0.0, "lat": 38.898903833333335, "bike_id": "897449fcb49e1f2d3ee3958b4b8c7d3d", "type": "electric_scooter", "is_reserved": 0, "lon": -76.98069916666667}, {"fusion_lat": 0.0, "name": "226232e5f6b3ac5f097b6313c770257d", "is_disabled": 0, "rental_uris": {"android": "https://dc.lft.to/lastmile_qr_scan", "ios": "https://dc.lft.to/lastmile_qr_scan"}, "fusion_lon": 0.0, "lat": 38.935553, "bike_id": "226232e5f6b3ac5f097b6313c770257d", "type": "electric_scooter", "is_reserved": 0, "lon": -77.0346385}, {"fusion_lat": 0.0, "name": "175e6e8d698a16e3c50d5937141f2e87", "is_disabled": 0, "rental_uris": {"android": "https://dc.lft.to/lastmile_qr_scan", "ios": "https://dc.lft.to/lastmile_qr_scan"}, "fusion_lon": 0.0, "lat": 38.925692, "bike_id": "175e6e8d698a16e3c50d5937141f2e87", "type": "electric_scooter", "is_reserved": 0, "lon": -77.022692}, {"fusion_lat": 0.0, "name": "5d851cd91d5a0088ff15e854630399e1", "is_disabled": 0, "rental_uris": {"android": "https://dc.lft.to/lastmile_qr_scan", "ios": "https://dc.lft.to/lastmile_qr_scan"}, "fusion_lon": 0.0, "lat": 39.07052266666667, "bike_id": "5d851cd91d5a0088ff15e854630399e1", "type": "electric_bike", "is_reserved": 0, "lon": -77.11485866666666}, {"fusion_lat": 0.0, "name": "c586fc46b823c4763a98757e4c745d61", "is_disabled": 0, "rental_uris": {"android": "https://dc.lft.to/lastmile_qr_scan", "ios": "https://dc.lft.to/lastmile_qr_scan"}, "fusion_lon": 0.0, "lat": 38.91123016666667, "bike_id": "c586fc46b823c4763a98757e4c745d61", "type": "electric_scooter", "is_reserved": 0, "lon": -77.02198083333333}, {"fusion_lat": 0.0, "name": "4bc3ea2d9290d81454b4f8dff3c1d095", "is_disabled": 0, "rental_uris": {"android": "https://dc.lft.to/lastmile_qr_scan", "ios": "https://dc.lft.to/lastmile_qr_scan"}, "fusion_lon": 0.0, "lat": 38.900412, "bike_id": "4bc3ea2d9290d81454b4f8dff3c1d095", "type": "electric_scooter", "is_reserved": 0, "lon": -76.9855715}, {"fusion_lat": 0.0, "name": "365a8ee94017d51cb529535497882384", "is_disabled": 0, "rental_uris": {"android": "https://dc.lft.to/lastmile_qr_scan", "ios": "https://dc.lft.to/lastmile_qr_scan"}, "fusion_lon": 0.0, "lat": 38.87965066666667, "bike_id": "365a8ee94017d51cb529535497882384", "type": "electric_bike", "is_reserved": 0, "lon": -76.91617133333334}, {"fusion_lat": 0.0, "name": "2707154c6305ca084307fa62dd5379e3", "is_disabled": 0, "rental_uris": {"android": "https://dc.lft.to/lastmile_qr_scan", "ios": "https://dc.lft.to/lastmile_qr_scan"}, "fusion_lon": 0.0, "lat": 38.89719216666667, "bike_id": "2707154c6305ca084307fa62dd5379e3", "type": "electric_scooter", "is_reserved": 0, "lon": -77.0199655}, {"fusion_lat": 0.0, "name": "7ed11d7726b3faf3063324a348104f41", "is_disabled": 0, "rental_uris": {"android": "https://dc.lft.to/lastmile_qr_scan", "ios": "https://dc.lft.to/lastmile_qr_scan"}, "fusion_lon": 0.0, "lat": 38.934155833333335, "bike_id": "7ed11d7726b3faf3063324a348104f41", "type": "electric_scooter", "is_reserved": 0, "lon": -77.04281733333333}, {"fusion_lat": 0.0, "name": "85cba5d14035adb670e88faf4faca40c", "is_disabled": 0, "rental_uris": {"android": "https://dc.lft.to/lastmile_qr_scan", "ios": "https://dc.lft.to/lastmile_qr_scan"}, "fusion_lon": 0.0, "lat": 38.89741633333333, "bike_id": "85cba5d14035adb670e88faf4faca40c", "type": "electric_scooter", "is_reserved": 0, "lon": -77.0216485}, {"fusion_lat": 0.0, "name": "fc39b150a9ea8043bbb7406295417f07", "is_disabled": 0, "rental_uris": {"android": "https://dc.lft.to/lastmile_qr_scan", "ios": "https://dc.lft.to/lastmile_qr_scan"}, "fusion_lon": 0.0, "lat": 38.92423133333333, "bike_id": "fc39b150a9ea8043bbb7406295417f07", "type": "electric_scooter", "is_reserved": 0, "lon": -77.01957283333333}, {"fusion_lat": 0.0, "name": "b9f7ab7a69fb8a995cfd517454047bca", "is_disabled": 0, "rental_uris": {"android": "https://dc.lft.to/lastmile_qr_scan", "ios": "https://dc.lft.to/lastmile_qr_scan"}, "fusion_lon": 0.0, "lat": 38.91318533333333, "bike_id": "b9f7ab7a69fb8a995cfd517454047bca", "type": "electric_scooter", "is_reserved": 0, "lon": -77.021368}, {"fusion_lat": 0.0, "name": "e560c40ef91ebdf44528416eb1c09297", "is_disabled": 0, "rental_uris": {"android": "https://dc.lft.to/lastmile_qr_scan", "ios": "https://dc.lft.to/lastmile_qr_scan"}, "fusion_lon": 0.0, "lat": 38.938770166666664, "bike_id": "e560c40ef91ebdf44528416eb1c09297", "type": "electric_scooter", "is_reserved": 0, "lon": -77.024653}, {"fusion_lat": 0.0, "name": "6cb9b59c720172db10d507fbcd77c54f", "is_disabled": 0, "rental_uris": {"android": "https://dc.lft.to/lastmile_qr_scan", "ios": "https://dc.lft.to/lastmile_qr_scan"}, "fusion_lon": 0.0, "lat": 38.961989, "bike_id": "6cb9b59c720172db10d507fbcd77c54f", "type": "electric_bike", "is_reserved": 0, "lon": -77.02777416666666}, {"fusion_lat": 0.0, "name": "f6c641fba41033a279eb03edf6546e28", "is_disabled": 0, "rental_uris": {"android": "https://dc.lft.to/lastmile_qr_scan", "ios": "https://dc.lft.to/lastmile_qr_scan"}, "fusion_lon": 0.0, "lat": 38.915619666666665, "bike_id": "f6c641fba41033a279eb03edf6546e28", "type": "electric_scooter", "is_reserved": 0, "lon": -77.03170016666667}, {"fusion_lat": 0.0, "name": "d66f3c1bb87b26342f8320611a5cda45", "is_disabled": 0, "rental_uris": {"android": "https://dc.lft.to/lastmile_qr_scan", "ios": "https://dc.lft.to/lastmile_qr_scan"}, "fusion_lon": 0.0, "lat": 38.93352816666667, "bike_id": "d66f3c1bb87b26342f8320611a5cda45", "type": "electric_scooter", "is_reserved": 0, "lon": -77.02431533333333}, {"fusion_lat": 0.0, "name": "9703476d97e6bbe894dfef3439b88e99", "is_disabled": 0, "rental_uris": {"android": "https://dc.lft.to/lastmile_qr_scan", "ios": "https://dc.lft.to/lastmile_qr_scan"}, "fusion_lon": 0.0, "lat": 38.92960766666667, "bike_id": "9703476d97e6bbe894dfef3439b88e99", "type": "electric_scooter", "is_reserved": 0, "lon": -77.020175}, {"fusion_lat": 0.0, "name": "3a42d5e8ed86d6e0b987acc4fa2908d4", "is_disabled": 0, "rental_uris": {"android": "https://dc.lft.to/lastmile_qr_scan", "ios": "https://dc.lft.to/lastmile_qr_scan"}, "fusion_lon": 0.0, "lat": 38.90034933333333, "bike_id": "3a42d5e8ed86d6e0b987acc4fa2908d4", "type": "electric_scooter", "is_reserved": 0, "lon": -77.00209683333334}, {"fusion_lat": 0.0, "name": "7f256f799e057800045a48c9d038ccad", "is_disabled": 0, "rental_uris": {"android": "https://dc.lft.to/lastmile_qr_scan", "ios": "https://dc.lft.to/lastmile_qr_scan"}, "fusion_lon": 0.0, "lat": 38.9095185, "bike_id": "7f256f799e057800045a48c9d038ccad", "type": "electric_scooter", "is_reserved": 0, "lon": -77.02382516666667}, {"fusion_lat": 0.0, "name": "0fb490d041eabad228a8bc5566394fc3", "is_disabled": 0, "rental_uris": {"android": "https://dc.lft.to/lastmile_qr_scan", "ios": "https://dc.lft.to/lastmile_qr_scan"}, "fusion_lon": 0.0, "lat": 38.88985916666667, "bike_id": "0fb490d041eabad228a8bc5566394fc3", "type": "electric_scooter", "is_reserved": 0, "lon": -76.996371}, {"fusion_lat": 0.0, "name": "ba4fa399d81f7e2d2b0ba378a1cc5f2c", "is_disabled": 0, "rental_uris": {"android": "https://dc.lft.to/lastmile_qr_scan", "ios": "https://dc.lft.to/lastmile_qr_scan"}, "fusion_lon": 0.0, "lat": 38.85890466666667, "bike_id": "ba4fa399d81f7e2d2b0ba378a1cc5f2c", "type": "electric_bike", "is_reserved": 0, "lon": -77.0954475}, {"fusion_lat": 0.0, "name": "3a5a71a5f9d22e6b8f62ee4d8f1f8688", "is_disabled": 0, "rental_uris": {"android": "https://dc.lft.to/lastmile_qr_scan", "ios": "https://dc.lft.to/lastmile_qr_scan"},