{"data": {"bikes": [{"is_reserved": 0, "type": "electric_scooter", "bike_id": "1e6a0c5b99f16b00befcaf43c575bf97", "lat": 38.936392, "lon": -77.060022, "rental_uris": {"android": "https://dc.lft.to/lastmile_qr_scan", "ios": "https://dc.lft.to/lastmile_qr_scan"}, "is_disabled": 0, "fusion_lat": 0.0, "name": "1e6a0c5b99f16b00befcaf43c575bf97", "fusion_lon": 0.0}, {"is_reserved": 0, "type": "electric_scooter", "bike_id": "846094d1fb84ce044048e15ca0f325ed", "lat": 38.972988666666666, "lon": -77.03623083333333, "rental_uris": {"android": "https://dc.lft.to/lastmile_qr_scan", "ios": "https://dc.lft.to/lastmile_qr_scan"}, "is_disabled": 0, "fusion_lat": 0.0, "name": "846094d1fb84ce044048e15ca0f325ed", "fusion_lon": 0.0}, {"is_reserved": 0, "type": "electric_scooter", "bike_id": "a71a20f36512709612f3f155967fd063", "lat": 38.919281833333336, "lon": -77.01973866666667, "rental_uris": {"android": "https://dc.lft.to/lastmile_qr_scan", "ios": "https://dc.lft.to/lastmile_qr_scan"}, "is_disabled": 0, "fusion_lat": 0.0, "name": "a71a20f36512709612f3f155967fd063", "fusion_lon": 0.0}, {"is_reserved": 0, "type": "electric_scooter", "bike_id": "0aeea183b35db13c07d281f5b31d41f5", "lat": 38.87623583333333, "lon": -77.00222316666667, "rental_uris": {"android": "https://dc.lft.to/lastmile_qr_scan", "ios": "https://dc.lft.to/lastmile_qr_scan"}, "is_disabled": 0, "fusion_lat": 0.0, "name": "0aeea183b35db13c07d281f5b31d41f5", "fusion_lon": 0.0}, {"is_reserved": 0, "type": "electric_scooter", "bike_id": "eb54f881ef01a8a10cd4632935f2c9c3", "lat": 38.91267083333334, "lon": -77.03223133333333, "rental_uris": {"android": "https://dc.lft.to/lastmile_qr_scan", "ios": "https://dc.lft.to/lastmile_qr_scan"}, "is_disabled": 0, "fusion_lat": 0.0, "name": "eb54f881ef01a8a10cd4632935f2c9c3", "fusion_lon": 0.0}, {"is_reserved": 0, "type": "electric_scooter", "bike_id": "b80baa125e880c0214883fec772a9887", "lat": 38.9056205, "lon": -77.02822416666666, "rental_uris": {"android": "https://dc.lft.to/lastmile_qr_scan", "ios": "https://dc.lft.to/lastmile_qr_scan"}, "is_disabled": 0, "fusion_lat": 0.0, "name": "b80baa125e880c0214883fec772a9887", "fusion_lon": 0.0}, {"is_reserved": 0, "type": "electric_bike", "bike_id": "5df1de8fe64ce7bc31b5b3d3f66024c7", "lat": 39.094464, "lon": -77.1346145, "rental_uris": {"android": "https://dc.lft.to/lastmile_qr_scan", "ios": "https://dc.lft.to/lastmile_qr_scan"}, "is_disabled": 0, "fusion_lat": 0.0, "name": "5df1de8fe64ce7bc31b5b3d3f66024c7", "fusion_lon": 0.0}, {"is_reserved": 0, "type": "electric_scooter", "bike_id": "4309dfc85047fce7cf5d8e02f300e8ec", "lat": 38.90532483333333, "lon": -77.06153566666667, "rental_uris": {"android": "https://dc.lft.to/lastmile_qr_scan", "ios": "https://dc.lft.to/lastmile_qr_scan"}, "is_disabled": 0, "fusion_lat": 0.0, "name": "4309dfc85047fce7cf5d8e02f300e8ec", "fusion_lon": 0.0}, {"is_reserved": 0, "type": "electric_scooter", "bike_id": "47a8590d446fb9067da8264ee151d7d4", "lat": 38.91915616666667, "lon": -77.0310625, "rental_uris": {"android": "https://dc.lft.to/lastmile_qr_scan", "ios": "https://dc.lft.to/lastmile_qr_scan"}, "is_disabled": 0, "fusion_lat": 0.0, "name": "47a8590d446fb9067da8264ee151d7d4", "fusion_lon": 0.0}, {"is_reserved": 0, "type": "electric_scooter", "bike_id": "e96934407a3e3b0e8f7e06bcc234dfa1", "lat": 38.930243, "lon": -77.03783233333333, "rental_uris": {"android": "https://dc.lft.to/lastmile_qr_scan", "ios": "https://dc.lft.to/lastmile_qr_scan"}, "is_disabled": 0, "fusion_lat": 0.0, "name": "e96934407a3e3b0e8f7e06bcc234dfa1", "fusion_lon": 0.0}, {"is_reserved": 0, "type": "electric_scooter", "bike_id": "233aaccf4790468f50880e96bf1c08a8", "lat": 38.927882, "lon": -77.03599783333334, "rental_uris": {"android": "https://dc.lft.to/lastmile_qr_scan", "ios": "https://dc.lft.to/lastmile_qr_scan"}, "is_disabled": 0, "fusion_lat": 0.0, "name": "233aaccf4790468f50880e96bf1c08a8", "fusion_lon": 0.0}, {"is_reserved": 0, "type": "electric_scooter", "bike_id": "2c154736bf1ce72564adc2c82f54a165", "lat": 38.86448933333333, "lon": -76.99115, "rental_uris": {"android": "https://dc.lft.to/lastmile_qr_scan", "ios": "https://dc.lft.to/lastmile_qr_scan"}, "is_disabled": 0, "fusion_lat": 0.0, "name": "2c154736bf1ce72564adc2c82f54a165", "fusion_lon": 0.0}, {"is_reserved": 0, "type": "electric_scooter", "bike_id": "c94344f7271563c12c22e3ca3ddaba1f", "lat": 38.92743766666667, "lon": -77.06957816666667, "rental_uris": {"android": "https://dc.lft.to/lastmile_qr_scan", "ios": "https://dc.lft.to/lastmile_qr_scan"}, "is_disabled": 0, "fusion_lat": 0.0, "name": "c94344f7271563c12c22e3ca3ddaba1f", "fusion_lon": 0.0}, {"is_reserved": 0, "type": "electric_scooter", "bike_id": "6120d74298a930304b927d8940e0b4aa", "lat": 38.92372316666667, "lon": -77.08048016666666, "rental_uris": {"android": "https://dc.lft.to/lastmile_qr_scan", "ios": "https://dc.lft.to/lastmile_qr_scan"}, "is_disabled": 0, "fusion_lat": 0.0, "name": "6120d74298a930304b927d8940e0b4aa", "fusion_lon": 0.0}, {"is_reserved": 0, "type": "electric_scooter", "bike_id": "7c40c9898bd41088a44a1a2e54f111c2", "lat": 38.93730333333333, "lon": -77.03259066666666, "rental_uris": {"android": "https://dc.lft.to/lastmile_qr_scan", "ios": "https://dc.lft.to/lastmile_qr_scan"}, "is_disabled": 0, "fusion_lat": 0.0, "name": "7c40c9898bd41088a44a1a2e54f111c2", "fusion_lon": 0.0}, {"is_reserved": 0, "type": "electric_scooter", "bike_id": "ba5c728b1f0ac816a67f3532d574d8ef", "lat": 38.924935833333336, "lon": -77.02590866666667, "rental_uris": {"android": "https://dc.lft.to/lastmile_qr_scan", "ios": "https://dc.lft.to/lastmile_qr_scan"}, "is_disabled": 0, "fusion_lat": 0.0, "name": "ba5c728b1f0ac816a67f3532d574d8ef", "fusion_lon": 0.0}, {"is_reserved": 0, "type": "electric_scooter", "bike_id": "6a24d4fb1fd240db875c5185461fcc75", "lat": 38.89810583333333, "lon": -77.03946983333333, "rental_uris": {"android": "https://dc.lft.to/lastmile_qr_scan", "ios": "https://dc.lft.to/lastmile_qr_scan"}, "is_disabled": 0, "fusion_lat": 0.0, "name": "6a24d4fb1fd240db875c5185461fcc75", "fusion_lon": 0.0}, {"is_reserved": 0, "type": "electric_scooter", "bike_id": "9ac3ed48836f88c9885a1d9fcd5e2a90", "lat": 38.92701233333333, "lon": -77.02065166666667, "rental_uris": {"android": "https://dc.lft.to/lastmile_qr_scan", "ios": "https://dc.lft.to/lastmile_qr_scan"}, "is_disabled": 0, "fusion_lat": 0.0, "name": "9ac3ed48836f88c9885a1d9fcd5e2a90", "fusion_lon": 0.0}, {"is_reserved": 0, "type": "electric_scooter", "bike_id": "09bb9bbbcbe173fce46dabdfbb3187a1", "lat": 38.892516666666666, "lon": -76.94139266666667, "rental_uris": {"android": "https://dc.lft.to/lastmile_qr_scan", "ios": "https://dc.lft.to/lastmile_qr_scan"}, "is_disabled": 0, "fusion_lat": 0.0, "name": "09bb9bbbcbe173fce46dabdfbb3187a1", "fusion_lon": 0.0}, {"is_reserved": 0, "type": "electric_scooter", "bike_id": "07c6063518f1e973ffaf019be9051b96", "lat": 38.8971045, "lon": -77.00796316666667, "rental_uris": {"android": "https://dc.lft.to/lastmile_qr_scan", "ios": "https://dc.lft.to/lastmile_qr_scan"}, "is_disabled": 0, "fusion_lat": 0.0, "name": "07c6063518f1e973ffaf019be9051b96", "fusion_lon": 0.0}, {"is_reserved": 0, "type": "electric_scooter", "bike_id": "151921755683bfad186cb5bf66c5f1d8", "lat": 38.915697333333334, "lon": -77.02115033333334, "rental_uris": {"android": "https://dc.lft.to/lastmile_qr_scan", "ios": "https://dc.lft.to/lastmile_qr_scan"}, "is_disabled": 0, "fusion_lat": 0.0, "name": "151921755683bfad186cb5bf66c5f1d8", "fusion_lon": 0.0}, {"is_reserved": 0, "type": "electric_scooter", "bike_id": "db59c1c9fe69cdf50021378e9a841ec1", "lat": 38.931889, "lon": -77.0235325, "rental_uris": {"android": "https://dc.lft.to/lastmile_qr_scan", "ios": "https://dc.lft.to/lastmile_qr_scan"}, "is_disabled": 0, "fusion_lat": 0.0, "name": "db59c1c9fe69cdf50021378e9a841ec1", "fusion_lon": 0.0}, {"is_reserved": 0, "type": "electric_bike", "bike_id": "a5a213156cfca6dac00d3ebe1c57f50c", "lat": 38.98912416666667, "lon": -77.025398, "rental_uris": {"android": "https://dc.lft.to/lastmile_qr_scan", "ios": "https://dc.lft.to/lastmile_qr_scan"}, "is_disabled": 0, "fusion_lat": 0.0, "name": "a5a213156cfca6dac00d3ebe1c57f50c", "fusion_lon": 0.0}, {"is_reserved": 0, "type": "electric_scooter", "bike_id": "4a9e79721df25742f8c4325c66722e62", "lat": 38.91771, "lon": -77.023066, "rental_uris": {"android": "https://dc.lft.to/lastmile_qr_scan", "ios": "https://dc.lft.to/lastmile_qr_scan"}, "is_disabled": 0, "fusion_lat": 0.0, "name": "4a9e79721df25742f8c4325c66722e62", "fusion_lon": 0.0}, {"is_reserved": 0, "type": "electric_scooter", "bike_id": "b373b71b0060cb63e089c7699c0d33b9", "lat": 38.91699533333333, "lon": -77.0408695, "rental_uris": {"android": "https://dc.lft.to/lastmile_qr_scan", "ios": "https://dc.lft.to/lastmile_qr_scan"}, "is_disabled": 0, "fusion_lat": 0.0, "name": "b373b71b0060cb63e089c7699c0d33b9", "fusion_lon": 0.0}, {"is_reserved": 0, "type": "electric_scooter", "bike_id": "56f3edf5c700f360e18a3770a0d74d3d", "lat": 38.91391266666667, "lon": -77.04596766666667, "rental_uris": {"android": "https://dc.lft.to/lastmile_qr_scan", "ios": "https://dc.lft.to/lastmile_qr_scan"}, "is_disabled": 0, "fusion_lat": 0.0, "name": "56f3edf5c700f360e18a3770a0d74d3d", "fusion_lon": 0.0}, {"is_reserved": 0, "type": "electric_scooter", "bike_id": "5a839eb558d04b5e8bb55d2e9726d295", "lat": 38.914053333333335, "lon": -77.04681683333334, "rental_uris": {"android": "https://dc.lft.to/lastmile_qr_scan", "ios": "https://dc.lft.to/lastmile_qr_scan"}, "is_disabled": 0, "fusion_lat": 0.0, "name": "5a839eb558d04b5e8bb55d2e9726d295", "fusion_lon": 0.0}, {"is_reserved": 0, "type": "electric_scooter", "bike_id": "5203fa6933f34901ebe8245a1c88cd72", "lat": 38.90379883333333, "lon": -77.03288216666667, "rental_uris": {"android": "https://dc.lft.to/lastmile_qr_scan", "ios": "https://dc.lft.to/lastmile_qr_scan"}, "is_disabled": 0, "fusion_lat": 0.0, "name": "5203fa6933f34901ebe8245a1c88cd72", "fusion_lon": 0.0}, {"is_reserved": 0, "type": "electric_scooter", "bike_id": "f4c40c18a86f48c911798575db1a30da", "lat": 38.8837625, "lon": -76.9951965, "rental_uris": {"android": "https://dc.lft.to/lastmile_qr_scan", "ios": "https://dc.lft.to/lastmile_qr_scan"}, "is_disabled": 0, "fusion_lat": 0.0, "name": "f4c40c18a86f48c911798575db1a30da", "fusion_lon": 0.0}, {"is_reserved": 0, "type": "electric_scooter", "bike_id": "6477d7d31de367a962c953accb56aabc", "lat": 38.927988, "lon": -77.04058233333333, "rental_uris": {"android": "https://dc.lft.to/lastmile_qr_scan", "ios": "https://dc.lft.to/lastmile_qr_scan"}, "is_disabled": 0, "fusion_lat": 0.0, "name": "6477d7d31de367a962c953accb56aabc", "fusion_lon": 0.0}, {"is_reserved": 0, "type": "electric_scooter", "bike_id": "3ab393d6b0191cdfe257f0154ef39946", "lat": 38.8794365, "lon": -77.01662633333333, "rental_uris": {"android": "https://dc.lft.to/lastmile_qr_scan", "ios": "https://dc.lft.to/lastmile_qr_scan"}, "is_disabled": 0, "fusion_lat": 0.0, "name": "3ab393d6b0191cdfe257f0154ef39946", "fusion_lon": 0.0}, {"is_reserved": 0, "type": "electric_scooter", "bike_id": "4fcdac644d2204b8ef80bdcc06199fbd", "lat": 38.921024, "lon": -77.02204433333333, "rental_uris": {"android": "https://dc.lft.to/lastmile_qr_scan", "ios": "https://dc.lft.to/lastmile_qr_scan"}, "is_disabled": 0, "fusion_lat": 0.0, "name": "4fcdac644d2204b8ef80bdcc06199fbd", "fusion_lon": 0.0}, {"is_reserved": 0, "type": "electric_scooter", "bike_id": "70532d2ccab0289a53b60cbb0fce5a9a", "lat": 38.919761666666666, "lon": -77.0414805, "rental_uris": {"android": "https://dc.lft.to/lastmile_qr_scan", "ios": "https://dc.lft.to/lastmile_qr_scan"}, "is_disabled": 0, "fusion_lat": 0.0, "name": "70532d2ccab0289a53b60cbb0fce5a9a", "fusion_lon": 0.0}, {"is_reserved": 0, "type": "electric_scooter", "bike_id": "137ba3d98ecdf3b62267b31d55a0ed2f", "lat": 38.95825583333333, "lon": -77.07641883333334, "rental_uris": {"android": "https://dc.lft.to/lastmile_qr_scan", "ios": "https://dc.lft.to/lastmile_qr_scan"}, "is_disabled": 0, "fusion_lat": 0.0, "name": "137ba3d98ecdf3b62267b31d55a0ed2f", "fusion_lon": 0.0}, {"is_reserved": 0, "type": "electric_scooter", "bike_id": "0157d7ef271b4f792d505c4f7cd05680", "lat": 38.90804516666667, "lon": -77.04511266666667, "rental_uris": {"android": "https://dc.lft.to/lastmile_qr_scan", "ios": "https://dc.lft.to/lastmile_qr_scan"}, "is_disabled": 0, "fusion_lat": 0.0, "name": "0157d7ef271b4f792d505c4f7cd05680", "fusion_lon": 0.0}, {"is_reserved": 0, "type": "electric_bike", "bike_id": "bd82e89531db5f1c61b465f0ef5f2300", "lat": 38.999358, "lon": -77.05132566666667, "rental_uris": {"android": "https://dc.lft.to/lastmile_qr_scan", "ios": "https://dc.lft.to/lastmile_qr_scan"}, "is_disabled": 0, "fusion_lat": 0.0, "name": "bd82e89531db5f1c61b465f0ef5f2300", "fusion_lon": 0.0}, {"is_reserved": 0, "type": "electric_scooter", "bike_id": "9f7e7bb2cbda9c1386ccadada1c2248c", "lat": 38.92269983333333, "lon": -77.04280533333333, "rental_uris": {"android": "https://dc.lft.to/lastmile_qr_scan", "ios": "https://dc.lft.to/lastmile_qr_scan"}, "is_disabled": 0, "fusion_lat": 0.0, "name": "9f7e7bb2cbda9c1386ccadada1c2248c", "fusion_lon": 0.0}, {"is_reserved": 0, "type": "electric_scooter", "bike_id": "1b0452cfcdec3c7cc890f1bef7038309", "lat": 38.908442, "lon": -77.06343483333333, "rental_uris": {"android": "https://dc.lft.to/lastmile_qr_scan", "ios": "https://dc.lft.to/lastmile_qr_scan"}, "is_disabled": 0, "fusion_lat": 0.0, "name": "1b0452cfcdec3c7cc890f1bef7038309", "fusion_lon": 0.0}, {"is_reserved": 0, "type": "electric_scooter", "bike_id": "a8b61e08802690a8acb1f008aa34b488", "lat": 38.89987633333333, "lon": -77.02720033333334, "rental_uris": {"android": "https://dc.lft.to/lastmile_qr_scan", "ios": "https://dc.lft.to/lastmile_qr_scan"}, "is_disabled": 0, "fusion_lat": 0.0, "name": "a8b61e08802690a8acb1f008aa34b488", "fusion_lon": 0.0}, {"is_reserved": 0, "type": "electric_scooter", "bike_id": "99034bb728e1c259ca91e4c47a70bac1", "lat": 38.9158275, "lon": -77.01229783333334, "rental_uris": {"android": "https://dc.lft.to/lastmile_qr_scan", "ios": "https://dc.lft.to/lastmile_qr_scan"}, "is_disabled": 0, "fusion_lat": 0.0, "name": "99034bb728e1c259ca91e4c47a70bac1", "fusion_lon": 0.0}, {"is_reserved": 0, "type": "electric_scooter", "bike_id": "9d70baa194e3d1b753467ec2ae1d4af3", "lat": 38.898394333333336, "lon": -77.01295466666667, "rental_uris": {"android": "https://dc.lft.to/lastmile_qr_scan", "ios": "https://dc.lft.to/lastmile_qr_scan"}, "is_disabled": 0, "fusion_lat": 0.0, "name": "9d70baa194e3d1b753467ec2ae1d4af3", "fusion_lon": 0.0}, {"is_reserved": 0, "type": "electric_scooter", "bike_id": "b5edf2743069ccd4ce45e4b2bbbf8315", "lat": 38.9171225, "lon": -77.0271195, "rental_uris": {"android": "https://dc.lft.to/lastmile_qr_scan", "ios": "https://dc.lft.to/lastmile_qr_scan"}, "is_disabled": 0, "fusion_lat": 0.0, "name": "b5edf2743069ccd4ce45e4b2bbbf8315", "fusion_lon": 0.0}, {"is_reserved": 0, "type": "electric_scooter", "bike_id": "8c3c711533d91a8d83dc9dc357b60cf3", "lat": 38.9141335, "lon": -76.98171516666666, "rental_uris": {"android": "https://dc.lft.to/lastmile_qr_scan", "ios": "https://dc.lft.to/lastmile_qr_scan"}, "is_disabled": 0, "fusion_lat": 0.0, "name": "8c3c711533d91a8d83dc9dc357b60cf3", "fusion_lon": 0.0}, {"is_reserved": 0, "type": "electric_scooter", "bike_id": "34ea662b757df75d1d3a7bc26fc58c84", "lat": 38.90794566666667, "lon": -77.03849416666667, "rental_uris": {"android": "https://dc.lft.to/lastmile_qr_scan", "ios": "https://dc.lft.to/lastmile_qr_scan"}, "is_disabled": 0, "fusion_lat": 0.0, "name": "34ea662b757df75d1d3a7bc26fc58c84", "fusion_lon": 0.0}, {"is_reserved": 0, "type": "electric_bike", "bike_id": "e916df65cb3ade0675a4d949abde214c", "lat": 38.97264533333333, "lon": -77.14968616666667, "rental_uris": {"android": "https://dc.lft.to/lastmile_qr_scan", "ios": "https://dc.lft.to/lastmile_qr_scan"}, "is_disabled": 0, "fusion_lat": 0.0, "name": "e916df65cb3ade0675a4d949abde214c", "fusion_lon": 0.0}, {"is_reserved": 0, "type": "electric_scooter", "bike_id": "98d71fbe0c7910c453572aff210368ab", "lat": 38.923445, "lon": -77.01884483333333, "rental_uris": {"android": "https://dc.lft.to/lastmile_qr_scan", "ios": "https://dc.lft.to/lastmile_qr_scan"}, "is_disabled": 0, "fusion_lat": 0.0, "name": "98d71fbe0c7910c453572aff210368ab", "fusion_lon": 0.0}, {"is_reserved": 0, "type": "electric_scooter", "bike_id": "8ea40ce5bf971ad16ea4b82ae4565db1", "lat": 38.9182595, "lon": -77.03181816666667, "rental_uris": {"android": "https://dc.lft.to/lastmile_qr_scan", "ios": "https://dc.lft.to/lastmile_qr_scan"}, "is_disabled": 0, "fusion_lat": 0.0, "name": "8ea40ce5bf971ad16ea4b82ae4565db1", "fusion_lon": 0.0}, {"is_reserved": 0, "type": "electric_scooter", "bike_id": "9629054fbb287e4194d3b7521af4ac6a", "lat": 38.917557333333335, "lon": -77.01217483333333, "rental_uris": {"android": "https://dc.lft.to/lastmile_qr_scan", "ios": "https://dc.lft.to/lastmile_qr_scan"}, "is_disabled": 0, "fusion_lat": 0.0, "name": "9629054fbb287e4194d3b7521af4ac6a", "fusion_lon": 0.0}, {"is_reserved": 0, "type": "electric_scooter", "bike_id": "f7bc1bf309bf53766ad21e05712ca835", "lat": 38.90899433333333, "lon": -77.04401633333333, "rental_uris": {"android": "https://dc.lft.to/lastmile_qr_scan", "ios": "https://dc.lft.to/lastmile_qr_scan"}, "is_disabled": 0, "fusion_lat": 0.0, "name": "f7bc1bf309bf53766ad21e05712ca835", "fusion_lon": 0.0}, {"is_reserved": 0, "type": "electric_scooter", "bike_id": "deff4cf548f24c53162db6138dd56909", "lat": 38.90037983333333, "lon": -76.991578, "rental_uris": {"android": "https://dc.lft.to/lastmile_qr_scan", "ios": "https://dc.lft.to/lastmile_qr_scan"}, "is_disabled": 0, "fusion_lat": 0.0, "name": "deff4cf548f24c53162db6138dd56909", "fusion_lon": 0.0}, {"is_reserved": 0, "type": "electric_scooter", "bike_id": "884601ddca7365f057142b873757973a", "lat": 38.92793016666667, "lon": -77.037199, "rental_uris": {"android": "https://dc.lft.to/lastmile_qr_scan", "ios": "https://dc.lft.to/lastmile_qr_scan"}, "is_disabled": 0, "fusion_lat": 0.0, "name": "884601ddca7365f057142b873757973a", "fusion_lon": 0.0}, {"is_reserved": 0, "type": "electric_scooter", "bike_id": "100de304067e8a57c6f232457d5fb2df", "lat": 38.882986, "lon": -76.92925383333333, "rental_uris": {"android": "https://dc.lft.to/lastmile_qr_scan", "ios": "https://dc.lft.to/lastmile_qr_scan"}, "is_disabled": 0, "fusion_lat": 0.0, "name": "100de304067e8a57c6f232457d5fb2df", "fusion_lon": 0.0}, {"is_reserved": 0, "type": "electric_bike", "bike_id": "d142459d1d76cc94ab570a3f498afc12", "lat": 38.803861, "lon": -76.9882025, "rental_uris": {"android": "https://dc.lft.to/lastmile_qr_scan", "ios": "https://dc.lft.to/lastmile_qr_scan"}, "is_disabled": 0, "fusion_lat": 0.0, "name": "d142459d1d76cc94ab570a3f498afc12", "fusion_lon": 0.0}, {"is_reserved": 0, "type": "electric_scooter", "bike_id": "3643fe14a5a5b0468f7d0c12927767ce", "lat": 38.902714333333336, "lon": -77.05410066666667, "rental_uris": {"android": "https://dc.lft.to/lastmile_qr_scan", "ios": "https://dc.lft.to/lastmile_qr_scan"}, "is_disabled": 0, "fusion_lat": 0.0, "name": "3643fe14a5a5b0468f7d0c12927767ce", "fusion_lon": 0.0}, {"is_reserved": 0, "type": "electric_scooter", "bike_id": "89771e1cd9af12992775878101c1a0b9", "lat": 38.84821766666666, "lon": -76.97814583333333, "rental_uris": {"android": "https://dc.lft.to/lastmile_qr_scan", "ios": "https://dc.lft.to/lastmile_qr_scan"}, "is_disabled": 0, "fusion_lat": 0.0, "name": "89771e1cd9af12992775878101c1a0b9", "fusion_lon": 0.0}, {"is_reserved": 0, "type": "electric_scooter", "bike_id": "caeec94f04af01370db3e468d6719476", "lat": 38.935096, "lon": -77.02418133333333, "rental_uris": {"android": "https://dc.lft.to/lastmile_qr_scan", "ios": "https://dc.lft.to/lastmile_qr_scan"}, "is_disabled": 0, "fusion_lat": 0.0, "name": "caeec94f04af01370db3e468d6719476", "fusion_lon": 0.0}, {"is_reserved": 0, "type": "electric_scooter", "bike_id": "41364998811d3a30f45f067a6288df05", "lat": 38.867202166666665, "lon": -76.979137, "rental_uris": {"android": "https://dc.lft.to/lastmile_qr_scan", "ios": "https://dc.lft.to/lastmile_qr_scan"}, "is_disabled": 0, "fusion_lat": 0.0, "name": "41364998811d3a30f45f067a6288df05", "fusion_lon": 0.0}, {"is_reserved": 0, "type": "electric_scooter", "bike_id": "ee065ad7e9b363bf9793e4a69584bb93", "lat": 38.879008666666664, "lon": -77.02207366666667, "rental_uris": {"android": "https://dc.lft.to/lastmile_qr_scan", "ios": "https://dc.lft.to/lastmile_qr_scan"}, "is_disabled": 0, "fusion_lat": 0.0, "name": "ee065ad7e9b363bf9793e4a69584bb93", "fusion_lon": 0.0}, {"is_reserved": 0, "type": "electric_scooter", "bike_id": "db89ecf77321bf7359dafa36d5184afd", "lat": 38.92486933333333, "lon": -77.0258485, "rental_uris": {"android": "https://dc.lft.to/lastmile_qr_scan", "ios": "https://dc.lft.to/lastmile_qr_scan"}, "is_disabled": 0, "fusion_lat": 0.0, "name": "db89ecf77321bf7359dafa36d5184afd", "fusion_lon": 0.0}, {"is_reserved": 0, "type": "electric_scooter", "bike_id": "372d6694c1d5655ef994f91fe9ec8656", "lat": 38.926347, "lon": -77.0379065, "rental_uris": {"android": "https://dc.lft.to/lastmile_qr_scan", "ios": "https://dc.lft.to/lastmile_qr_scan"}, "is_disabled": 0, "fusion_lat": 0.0, "name": "372d6694c1d5655ef994f91fe9ec8656", "fusion_lon": 0.0}, {"is_reserved": 0, "type": "electric_scooter", "bike_id": "2b31944a145e6ceacec1e8d96ace92c3", "lat": 38.907387166666666, "lon": -77.04882133333334, "rental_uris": {"android": "https://dc.lft.to/lastmile_qr_scan", "ios": "https://dc.lft.to/lastmile_qr_scan"}, "is_disabled": 0, "fusion_lat": 0.0, "name": "2b31944a145e6ceacec1e8d96ace92c3", "fusion_lon": 0.0}, {"is_reserved": 0, "type": "electric_scooter", "bike_id": "c5ca1beab928cc7e81580bfc9f2cc4e9", "lat": 38.899218166666664, "lon": -77.03372483333334, "rental_uris": {"android": "https://dc.lft.to/lastmile_qr_scan", "ios": "https://dc.lft.to/lastmile_qr_scan"}, "is_disabled": 0, "fusion_lat": 0.0, "name": "c5ca1beab928cc7e81580bfc9f2cc4e9", "fusion_lon": 0.0}, {"is_reserved": 0, "type": "electric_scooter", "bike_id": "8dacc386d69ae2d470ff4995de920b41", "lat": 38.8960255, "lon": -77.04479866666667, "rental_uris": {"android": "https://dc.lft.to/lastmile_qr_scan", "ios": "https://dc.lft.to/lastmile_qr_scan"}, "is_disabled": 0, "fusion_lat": 0.0, "name": "8dacc386d69ae2d470ff4995de920b41", "fusion_lon": 0.0}, {"is_reserved": 0, "type": "electric_scooter", "bike_id": "eefe537028469b2d3e06716cd9b83a18", "lat": 38.93646183333333, "lon": -77.02446566666667, "rental_uris": {"android": "https://dc.lft.to/lastmile_qr_scan", "ios": "https://dc.lft.to/lastmile_qr_scan"}, "is_disabled": 0, "fusion_lat": 0.0, "name": "eefe537028469b2d3e06716cd9b83a18", "fusion_lon": 0.0}, {"is_reserved": 0, "type": "electric_scooter", "bike_id": "20ed307b086df36f309b24ade080ac15", "lat": 38.904475833333336, "lon": -77.06010866666666, "rental_uris": {"android": "https://dc.lft.to/lastmile_qr_scan", "ios": "https://dc.lft.to/lastmile_qr_scan"}, "is_disabled": 0, "fusion_lat": 0.0, "name": "20ed307b086df36f309b24ade080ac15", "fusion_lon": 0.0}, {"is_reserved": 0, "type": "electric_bike", "bike_id": "ecce5582624721e2f64bc26c247e0d70", "lat": 38.92118933333333, "lon": -77.00956583333334, "rental_uris": {"android": "https://dc.lft.to/lastmile_qr_scan", "ios": "https://dc.lft.to/lastmile_qr_scan"}, "is_disabled": 0, "fusion_lat": 0.0, "name": "ecce5582624721e2f64bc26c247e0d70", "fusion_lon": 0.0}, {"is_reserved": 0, "type": "electric_scooter", "bike_id": "09202504c249ec150534b156180f8894", "lat": 38.90729733333333, "lon": -77.00704316666666, "rental_uris": {"android": "https://dc.lft.to/lastmile_qr_scan", "ios": "https://dc.lft.to/lastmile_qr_scan"}, "is_disabled": 0, "fusion_lat": 0.0, "name": "09202504c249ec150534b156180f8894", "fusion_lon": 0.0}, {"is_reserved": 0, "type": "electric_scooter", "bike_id": "1b6a22382d8211d298ddec73c94bb612", "lat": 38.917472833333335, "lon": -77.040699, "rental_uris": {"android": "https://dc.lft.to/lastmile_qr_scan", "ios": "https://dc.lft.to/lastmile_qr_scan"}, "is_disabled": 0, "fusion_lat": 0.0, "name": "1b6a22382d8211d298ddec73c94bb612", "fusion_lon": 0.0}, {"is_reserved": 0, "type": "electric_bike", "bike_id": "c2b39e114ee9c650be9b58b3487798ec", "lat": 38.924532666666664, "lon": -77.01923316666667, "rental_uris": {"android": "https://dc.lft.to/lastmile_qr_scan", "ios": "https://dc.lft.to/lastmile_qr_scan"}, "is_disabled": 0, "fusion_lat": 0.0, "name": "c2b39e114ee9c650be9b58b3487798ec", "fusion_lon": 0.0}, {"is_reserved": 0, "type": "electric_scooter", "bike_id": "845c29d58280a574c5ad61e209be6909", "lat": 38.896251666666664, "lon": -77.0220165, "rental_uris": {"android": "https://dc.lft.to/lastmile_qr_scan", "ios": "https://dc.lft.to/lastmile_qr_scan"}, "is_disabled": 0, "fusion_lat": 0.0, "name": "845c29d58280a574c5ad61e209be6909", "fusion_lon": 0.0}, {"is_reserved": 0, "type": "electric_scooter", "bike_id": "6f22326018367f021178969095d9f8d1", "lat": 38.89556833333333, "lon": -77.02969983333334, "rental_uris": {"android": "https://dc.lft.to/lastmile_qr_scan", "ios": "https://dc.lft.to/lastmile_qr_scan"}, "is_disabled": 0, "fusion_lat": 0.0, "name": "6f22326018367f021178969095d9f8d1", "fusion_lon": 0.0}, {"is_reserved": 0, "type": "electric_scooter", "bike_id": "4439f7ce55f8ee6e9cf80a8e3abe9d1a", "lat": 38.93568233333333, "lon": -77.0330025, "rental_uris": {"android": "https://dc.lft.to/lastmile_qr_scan", "ios": "https://dc.lft.to/lastmile_qr_scan"}, "is_disabled": 0, "fusion_lat": 0.0, "name": "4439f7ce55f8ee6e9cf80a8e3abe9d1a", "fusion_lon": 0.0}, {"is_reserved": 0, "type": "electric_scooter", "bike_id": "a74f3409cf4ecc0321f0504867f98b20", "lat": 38.897533, "lon": -77.0299785, "rental_uris": {"android": "https://dc.lft.to/lastmile_qr_scan", "ios": "https://dc.lft.to/lastmile_qr_scan"}, "is_disabled": 0, "fusion_lat": 0.0, "name": "a74f3409cf4ecc0321f0504867f98b20", "fusion_lon": 0.0}, {"is_reserved": 0, "type": "electric_bike", "bike_id": "51d1484954c3959ef2be6fbe62ca0b14", "lat": 38.81334, "lon": -77.0511055, "rental_uris": {"android": "https://dc.lft.to/lastmile_qr_scan", "ios": "https://dc.lft.to/lastmile_qr_scan"}, "is_disabled": 0, "fusion_lat": 0.0, "name": "51d1484954c3959ef2be6fbe62ca0b14", "fusion_lon": 0.0}, {"is_reserved": 0, "type": "electric_scooter", "bike_id": "2c3fa087b864f14fe0e0ebf34ac5da43", "lat": 38.960269333333336, "lon": -77.07152616666667, "rental_uris": {"android": "https://dc.lft.to/lastmile_qr_scan", "ios": "https://dc.lft.to/lastmile_qr_scan"}, "is_disabled": 0, "fusion_lat": 0.0, "name": "2c3fa087b864f14fe0e0ebf34ac5da43", "fusion_lon": 0.0}, {"is_reserved": 0, "type": "electric_bike", "bike_id": "f2bf7153fa6e5ec892c9b858d1971a2d", "lat": 38.94471766666667, "lon": -76.98691183333334, "rental_uris": {"android": "https://dc.lft.to/lastmile_qr_scan", "ios": "https://dc.lft.to/lastmile_qr_scan"}, "is_disabled": 0, "fusion_lat": 0.0, "name": "f2bf7153fa6e5ec892c9b858d1971a2d", "fusion_lon": 0.0}, {"is_reserved": 0, "type": "electric_scooter", "bike_id": "63289015a9612c302de3243e8b54b3cb", "lat": 38.922776999999996, "lon": -77.0428605, "rental_uris": {"android": "https://dc.lft.to/lastmile_qr_scan", "ios": "https://dc.lft.to/lastmile_qr_scan"}, "is_disabled": 0, "fusion_lat": 0.0, "name": "63289015a9612c302de3243e8b54b3cb", "fusion_lon": 0.0}, {"is_reserved": 0, "type": "electric_scooter", "bike_id": "ee337041253dfab5eeb9882467ded815", "lat": 38.90960883333333, "lon": -77.02429266666667, "rental_uris": {"android": "https://dc.lft.to/lastmile_qr_scan", "ios": "https://dc.lft.to/lastmile_qr_scan"}, "is_disabled": 0, "fusion_lat": 0.0, "name": "ee337041253dfab5eeb9882467ded815", "fusion_lon": 0.0}, {"is_reserved": 0, "type": "electric_scooter", "bike_id": "3b3534b955db096bf9786e748514e7d9", "lat": 38.925743833333335, "lon": -76.99486, "rental_uris": {"android": "https://dc.lft.to/lastmile_qr_scan", "ios": "https://dc.lft.to/lastmile_qr_scan"}, "is_disabled": 0, "fusion_lat": 0.0, "name": "3b3534b955db096bf9786e748514e7d9", "fusion_lon": 0.0}, {"is_reserved": 0, "type": "electric_scooter", "bike_id": "7114e6927641786cd7277f4feec97cbe", "lat": 38.910494, "lon": -77.0332545, "rental_uris": {"android": "https://dc.lft.to/lastmile_qr_scan", "ios": "https://dc.lft.to/lastmile_qr_scan"}, "is_disabled": 0, "fusion_lat": 0.0, "name": "7114e6927641786cd7277f4feec97cbe", "fusion_lon": 0.0}, {"is_reserved": 0, "type": "electric_scooter", "bike_id": "d7df72e4355dbeb4fd973a9fd3eff3f3", "lat": 38.919229333333334, "lon": -77.048146, "rental_uris": {"android": "https://dc.lft.to/lastmile_qr_scan", "ios": "https://dc.lft.to/lastmile_qr_scan"}, "is_disabled": 0, "fusion_lat": 0.0, "name": "d7df72e4355dbeb4fd973a9fd3eff3f3", "fusion_lon": 0.0}, {"is_reserved": 0, "type": "electric_scooter", "bike_id": "eee89f893e55a7789d7c7a29fbce1e3f", "lat": 38.931295166666665, "lon": -77.022997, "rental_uris": {"android": "https://dc.lft.to/lastmile_qr_scan", "ios": "https://dc.lft.to/lastmile_qr_scan"}, "is_disabled": 0, "fusion_lat": 0.0, "name": "eee89f893e55a7789d7c7a29fbce1e3f", "fusion_lon": 0.0}, {"is_reserved": 0, "type": "electric_scooter", "bike_id": "7ed923ccbafd630b2a88960031f1950a", "lat": 38.89726916666667, "lon": -77.02211633333333, "rental_uris": {"android": "https://dc.lft.to/lastmile_qr_scan", "ios": "https://dc.lft.to/lastmile_qr_scan"}, "is_disabled": 0, "fusion_lat": 0.0, "name": "7ed923ccbafd630b2a88960031f1950a", "fusion_lon": 0.0}, {"is_reserved": 0, "type": "electric_bike", "bike_id": "22f4d016c00de234205d303c96538390", "lat": 38.881181166666664, "lon": -77.02656666666667, "rental_uris": {"android": "https://dc.lft.to/lastmile_qr_scan", "ios": "https://dc.lft.to/lastmile_qr_scan"}, "is_disabled": 0, "fusion_lat": 0.0, "name": "22f4d016c00de234205d303c96538390", "fusion_lon": 0.0}, {"is_reserved": 0, "type": "electric_scooter", "bike_id": "0899a81899c7a897c3f4512fc3aed327", "lat": 38.9640945, "lon": -77.03279116666667, "rental_uris": {"android": "https://dc.lft.to/lastmile_qr_scan", "ios": "https://dc.lft.to/lastmile_qr_scan"}, "is_disabled": 0, "fusion_lat": 0.0, "name": "0899a81899c7a897c3f4512fc3aed327", "fusion_lon": 0.0}, {"is_reserved": 0, "type": "electric_bike", "bike_id": "80f2b3e618c4f2e25e1a577f820ecb5d", "lat": 38.784036, "lon": -77.120692, "rental_uris": {"android": "https://dc.lft.to/lastmile_qr_scan", "ios": "https://dc.lft.to/lastmile_qr_scan"}, "is_disabled": 0, "fusion_lat": 0.0, "name": "80f2b3e618c4f2e25e1a577f820ecb5d", "fusion_lon": 0.0}, {"is_reserved": 0, "type": "electric_scooter", "bike_id": "c68b2fb87c3a0c78227f8abb4e2968e3", "lat": 38.903616, "lon": -76.99949866666667, "rental_uris": {"android": "https://dc.lft.to/lastmile_qr_scan", "ios": "https://dc.lft.to/lastmile_qr_scan"}, "is_disabled": 0, "fusion_lat": 0.0, "name": "c68b2fb87c3a0c78227f8abb4e2968e3", "fusion_lon": 0.0}, {"is_reserved": 0, "type": "electric_scooter", "bike_id": "c720a9b1187a35b51faf03b0c8cd1ee6", "lat": 38.917012, "lon": -77.0400725, "rental_uris": {"android": "https://dc.lft.to/lastmile_qr_scan", "ios": "https://dc.lft.to/lastmile_qr_scan"}, "is_disabled": 0, "fusion_lat": 0.0, "name": "c720a9b1187a35b51faf03b0c8cd1ee6", "fusion_lon": 0.0}, {"is_reserved": 0, "type": "electric_scooter", "bike_id": "868bd752d14506d7a9f9b586e1ad3c79", "lat": 38.88322433333333, "lon": -77.00952683333334, "rental_uris": {"android": "https://dc.lft.to/lastmile_qr_scan", "ios": "https://dc.lft.to/lastmile_qr_scan"}, "is_disabled": 0, "fusion_lat": 0.0, "name": "868bd752d14506d7a9f9b586e1ad3c79", "fusion_lon": 0.0}, {"is_reserved": 0, "type": "electric_scooter", "bike_id": "8aacb219e77216225a2a864307c83b29", "lat": 38.901456, "lon": -77.03896866666666, "rental_uris": {"android": "https://dc.lft.to/lastmile_qr_scan", "ios": "https://dc.lft.to/lastmile_qr_scan"}, "is_disabled": 0, "fusion_lat": 0.0, "name": "8aacb219e77216225a2a864307c83b29", "fusion_lon": 0.0}, {"is_reserved": 0, "type": "electric_scooter", "bike_id": "7b8d59bcfe699024aa1f1a67ecf8cb46", "lat": 38.92232216666667, "lon": -77.02332616666666, "rental_uris": {"android": "https://dc.lft.to/lastmile_qr_scan", "ios": "https://dc.lft.to/lastmile_qr_scan"}, "is_disabled": 0, "fusion_lat": 0.0, "name": "7b8d59bcfe699024aa1f1a67ecf8cb46", "fusion_lon": 0.0}, {"is_reserved": 0, "type": "electric_scooter", "bike_id": "55738209ca0b79975bee20bef42bea24", "lat": 38.90391533333333, "lon": -77.03143933333334, "rental_uris": {"android": "https://dc.lft.to/lastmile_qr_scan", "ios": "https://dc.lft.to/lastmile_qr_scan"}, "is_disabled": 0, "fusion_lat": 0.0, "name": "55738209ca0b79975bee20bef42bea24", "fusion_lon": 0.0}, {"is_reserved": 0, "type": "electric_scooter", "bike_id": "97473a3c28c7e036c6c463d8b7179e3f", "lat": 38.92184016666667, "lon": -77.02415216666667, "rental_uris": {"android": "https://dc.lft.to/lastmile_qr_scan", "ios": "https://dc.lft.to/lastmile_qr_scan"}, "is_disabled": 0, "fusion_lat": 0.0, "name": "97473a3c28c7e036c6c463d8b7179e3f", "fusion_lon": 0.0}, {"is_reserved": 0, "type": "electric_scooter", "bike_id": "19cd47e6061a2b93e76f0cc431bd4ab3", "lat": 38.928368166666665, "lon": -77.02604033333333, "rental_uris": {"android": "https://dc.lft.to/lastmile_qr_scan", "ios": "https://dc.lft.to/lastmile_qr_scan"}, "is_disabled": 0, "fusion_lat": 0.0, "name": "19cd47e6061a2b93e76f0cc431bd4ab3", "fusion_lon": 0.0}, {"is_reserved": 0, "type": "electric_scooter", "bike_id": "0dceb5259cb1c07b32fd28ef4fa6b814", "lat": 38.931294333333334, "lon": -77.03847983333333, "rental_uris": {"android": "https://dc.lft.to/lastmile_qr_scan", "ios": "https://dc.lft.to/lastmile_qr_scan"}, "is_disabled": 0, "fusion_lat": 0.0, "name": "0dceb5259cb1c07b32fd28ef4fa6b814", "fusion_lon": 0.0}, {"is_reserved": 0, "type": "electric_scooter", "bike_id": "3639260bbcbbaefc3a28ca6c306857a7", "lat": 38.899457, "lon": -76.98199383333333, "rental_uris": {"android": "https://dc.lft.to/lastmile_qr_scan", "ios": "https://dc.lft.to/lastmile_qr_scan"}, "is_disabled": 0, "fusion_lat": 0.0, "name": "3639260bbcbbaefc3a28ca6c306857a7", "fusion_lon": 0.0}, {"is_reserved": 0, "type": "electric_scooter", "bike_id": "8c7cea62f22d2f682492f2bf08175220", "lat": 38.89607733333333, "lon": -77.04475816666667, "rental_uris": {"android": "https://dc.lft.to/lastmile_qr_scan", "ios": "https://dc.lft.to/lastmile_qr_scan"}, "is_disabled": 0, "fusion_lat": 0.0, "name": "8c7cea62f22d2f682492f2bf08175220", "fusion_lon": 0.0}, {"is_reserved": 0, "type": "electric_bike", "bike_id": "d715fcc63ab474a5cd9b89821cf2766d", "lat": 38.87003033333333, "lon": -77.2300945, "rental_uris": {"android": "https://dc.lft.to/lastmile_qr_scan", "ios": "https://dc.lft.to/lastmile_qr_scan"}, "is_disabled": 0, "fusion_lat": 0.0, "name": "d715fcc63ab474a5cd9b89821cf2766d", "fusion_lon": 0.0}, {"is_reserved": 0, "type": "electric_scooter", "bike_id": "8aaae1d0d7be6aed5cc829a979b45b58", "lat": 38.866361, "lon": -76.98288116666667, "rental_uris": {"android": "https://dc.lft.to/lastmile_qr_scan", "ios": "https://dc.lft.to/lastmile_qr_scan"}, "is_disabled": 0, "fusion_lat": 0.0, "name": "8aaae1d0d7be6aed5cc829a979b45b58", "fusion_lon": 0.0}, {"is_reserved": 0, "type": "electric_scooter", "bike_id": "5c0b2fe2545b15747e97c8e5aaea04bb", "lat": 38.885326166666665, "lon": -76.98088583333333, "rental_uris": {"android": "https://dc.lft.to/lastmile_qr_scan", "ios": "https://dc.lft.to/lastmile_qr_scan"}, "is_disabled": 0, "fusion_lat": 0.0, "name": "5c0b2fe2545b15747e97c8e5aaea04bb", "fusion_lon": 0.0}, {"is_reserved": 0, "type": "electric_bike", "bike_id": "08e16eeaa8fb7e11a0f25e7b46bd629c", "lat": 38.854190333333335, "lon": -77.083659, "rental_uris": {"android": "https://dc.lft.to/lastmile_qr_scan", "ios": "https://dc.lft.to/lastmile_qr_scan"}, "is_disabled": 0, "fusion_lat": 0.0, "name": "08e16eeaa8fb7e11a0f25e7b46bd629c", "fusion_lon": 0.0}, {"is_reserved": 0, "type": "electric_scooter", "bike_id": "e7cf15faca49ada0d55d39cce90a883d", "lat": 38.87513416666667, "lon": -77.00075716666667, "rental_uris": {"android": "https://dc.lft.to/lastmile_qr_scan", "ios": "https://dc.lft.to/lastmile_qr_scan"}, "is_disabled": 0, "fusion_lat": 0.0, "name": "e7cf15faca49ada0d55d39cce90a883d", "fusion_lon": 0.0}, {"is_reserved": 0, "type": "electric_scooter", "bike_id": "bb55ca1585f5895a0d1c8b05c00f229e", "lat": 38.88627966666667, "lon": -77.02223583333334, "rental_uris": {"android": "https://dc.lft.to/lastmile_qr_scan", "ios": "https://dc.lft.to/lastmile_qr_scan"}, "is_disabled": 0, "fusion_lat": 0.0, "name": "bb55ca1585f5895a0d1c8b05c00f229e", "fusion_lon": 0.0}, {"is_reserved": 0, "type": "electric_scooter", "bike_id": "f516d1c0e39140c6ddfbab7b04c639ea", "lat": 38.92520616666667, "lon": -77.05058433333333, "rental_uris": {"android": "https://dc.lft.to/lastmile_qr_scan", "ios": "https://dc.lft.to/lastmile_qr_scan"}, "is_disabled": 0, "fusion_lat": 0.0, "name": "f516d1c0e39140c6ddfbab7b04c639ea", "fusion_lon": 0.0}, {"is_reserved": 0, "type": "electric_scooter", "bike_id": "62f7444122f34aedbc3e9ff86eea1744", "lat": 38.90198016666667, "lon": -77.021999, "rental_uris": {"android": "https://dc.lft.to/lastmile_qr_scan", "ios": "https://dc.lft.to/lastmile_qr_scan"}, "is_disabled": 0, "fusion_lat": 0.0, "name": "62f7444122f34aedbc3e9ff86eea1744", "fusion_lon": 0.0}, {"is_reserved": 0, "type": "electric_bike", "bike_id": "dd20298eb87c0ca63c8a62ff7035f344", "lat": 38.873401666666666, "lon": -77.01854433333334, "rental_uris": {"android": "https://dc.lft.to/lastmile_qr_scan", "ios": "https://dc.lft.to/lastmile_qr_scan"}, "is_disabled": 0, "fusion_lat": 0.0, "name": "dd20298eb87c0ca63c8a62ff7035f344", "fusion_lon": 0.0}, {"is_reserved": 0, "type": "electric_bike", "bike_id": "5453ec8028036b6c34478eda0d2ffd55", "lat": 38.94261066666667, "lon": -76.99069383333334, "rental_uris": {"android": "https://dc.lft.to/lastmile_qr_scan", "ios": "https://dc.lft.to/lastmile_qr_scan"}, "is_disabled": 0, "fusion_lat": 0.0, "name": "5453ec8028036b6c34478eda0d2ffd55", "fusion_lon": 0.0}, {"is_reserved": 0, "type": "electric_scooter", "bike_id": "c83f1caabace7fd8b27da39a702eab20", "lat": 38.959129833333336, "lon": -77.00017583333333, "rental_uris": {"android": "https://dc.lft.to/lastmile_qr_scan", "ios": "https://dc.lft.to/lastmile_qr_scan"}, "is_disabled": 0, "fusion_lat": 0.0, "name": "c83f1caabace7fd8b27da39a702eab20", "fusion_lon": 0.0}, {"is_reserved": 0, "type": "electric_scooter", "bike_id": "f0deb5a2265c316ab372b46446d1b4d2", "lat": 38.94591666666667, "lon": -77.02028783333333, "rental_uris": {"android": "https://dc.lft.to/lastmile_qr_scan", "ios": "https://dc.lft.to/lastmile_qr_scan"}, "is_disabled": 0, "fusion_lat": 0.0, "name": "f0deb5a2265c316ab372b46446d1b4d2", "fusion_lon": 0.0}, {"is_reserved": 0, "type": "electric_scooter", "bike_id": "043b7256ea2db63cb2a7ade1064eb0b0", "lat": 38.900943166666664, "lon": -77.05783033333333, "rental_uris": {"android": "https://dc.lft.to/lastmile_qr_scan", "ios": "https://dc.lft.to/lastmile_qr_scan"}, "is_disabled": 0, "fusion_lat": 0.0, "name": "043b7256ea2db63cb2a7ade1064eb0b0", "fusion_lon": 0.0}, {"is_reserved": 0, "type": "electric_scooter", "bike_id": "543d5912b86197caa1f13a98b6a0719f", "lat": 38.92679416666667, "lon": -77.031955, "rental_uris": {"android": "https://dc.lft.to/lastmile_qr_scan", "ios": "https://dc.lft.to/lastmile_qr_scan"}, "is_disabled": 0, "fusion_lat": 0.0, "name": "543d5912b86197caa1f13a98b6a0719f", "fusion_lon": 0.0}, {"is_reserved": 0, "type": "electric_scooter", "bike_id": "ec63a94a1b8779929b944c8304afcd96", "lat": 38.89319533333333, "lon": -77.01228433333333, "rental_uris": {"android": "https://dc.lft.to/lastmile_qr_scan", "ios": "https://dc.lft.to/lastmile_qr_scan"}, "is_disabled": 0, "fusion_lat": 0.0, "name": "ec63a94a1b8779929b944c8304afcd96", "fusion_lon": 0.0}, {"is_reserved": 0, "type": "electric_scooter", "bike_id": "b781499f8d9fd53e5b981cec95dc8820", "lat": 38.89638883333333, "lon": -77.00921466666667, "rental_uris": {"android": "https://dc.lft.to/lastmile_qr_scan", "ios": "https://dc.lft.to/lastmile_qr_scan"}, "is_disabled": 0, "fusion_lat": 0.0, "name": "b781499f8d9fd53e5b981cec95dc8820", "fusion_lon": 0.0}, {"is_reserved": 0, "type": "electric_scooter", "bike_id": "b3d337e1b34430f4c4d1bf4d881b482d", "lat": 38.893407, "lon": -77.04869516666666, "rental_uris": {"android": "https://dc.lft.to/lastmile_qr_scan", "ios": "https://dc.lft.to/lastmile_qr_scan"}, "is_disabled": 0, "fusion_lat": 0.0, "name": "b3d337e1b34430f4c4d1bf4d881b482d", "fusion_lon": 0.0}, {"is_reserved": 0, "type": "electric_scooter", "bike_id": "876c4273f8ccbf0d659967971fab9190", "lat": 38.9089665, "lon": -77.02296316666667, "rental_uris": {"android": "https://dc.lft.to/lastmile_qr_scan", "ios": "https://dc.lft.to/lastmile_qr_scan"}, "is_disabled": 0, "fusion_lat": 0.0, "name": "876c4273f8ccbf0d659967971fab9190", "fusion_lon": 0.0}, {"is_reserved": 0, "type": "electric_scooter", "bike_id": "03700abedbaa582a228d0198ebd1aa74", "lat": 38.896369666666665, "lon": -76.92798783333333, "rental_uris": {"android": "https://dc.lft.to/lastmile_qr_scan", "ios": "https://dc.lft.to/lastmile_qr_scan"}, "is_disabled": 0, "fusion_lat": 0.0, "name": "03700abedbaa582a228d0198ebd1aa74", "fusion_lon": 0.0}, {"is_reserved": 0, "type": "electric_scooter", "bike_id": "08eef857db3f079d47d792d547c15cd8", "lat": 38.9299855, "lon": -77.03258716666667, "rental_uris": {"android": "https://dc.lft.to/lastmile_qr_scan", "ios": "https://dc.lft.to/lastmile_qr_scan"}, "is_disabled": 0, "fusion_lat": 0.0, "name": "08eef857db3f079d47d792d547c15cd8", "fusion_lon": 0.0}, {"is_reserved": 0, "type": "electric_bike", "bike_id": "97a0f871cd4660ab9d13c71f50f2426f", "lat": 38.905392, "lon": -77.041533, "rental_uris": {"android": "https://dc.lft.to/lastmile_qr_scan", "ios": "https://dc.lft.to/lastmile_qr_scan"}, "is_disabled": 0, "fusion_lat": 0.0, "name": "97a0f871cd4660ab9d13c71f50f2426f", "fusion_lon": 0.0}, {"is_reserved": 0, "type": "electric_bike", "bike_id": "47630ccf19755f30224ed9490dcf7b26", "lat": 38.84534283333333, "lon": -77.07636816666667, "rental_uris": {"android": "https://dc.lft.to/lastmile_qr_scan", "ios": "https://dc.lft.to/lastmile_qr_scan"}, "is_disabled": 0, "fusion_lat": 0.0, "name": "47630ccf19755f30224ed9490dcf7b26", "fusion_lon": 0.0}, {"is_reserved": 0, "type": "electric_scooter", "bike_id": "0fec098b6cc523234195f4fcf0fe033c", "lat": 38.926921166666666, "lon": -77.0257925, "rental_uris": {"android": "https://dc.lft.to/lastmile_qr_scan", "ios": "https://dc.lft.to/lastmile_qr_scan"}, "is_disabled": 0, "fusion_lat": 0.0, "name": "0fec098b6cc523234195f4fcf0fe033c", "fusion_lon": 0.0}, {"is_reserved": 0, "type": "electric_scooter", "bike_id": "da15961061cbbf77d316a594c76d6c4a", "lat": 38.920633, "lon": -77.02356383333333, "rental_uris": {"android": "https://dc.lft.to/lastmile_qr_scan", "ios": "https://dc.lft.to/lastmile_qr_scan"}, "is_disabled": 0, "fusion_lat": 0.0, "name": "da15961061cbbf77d316a594c76d6c4a", "fusion_lon": 0.0}, {"is_reserved": 0, "type": "electric_bike", "bike_id": "627b503a4e0bed32b346818a30c76d7b", "lat": 38.941534833333336, "lon": -77.0019935, "rental_uris": {"android": "https://dc.lft.to/lastmile_qr_scan", "ios": "https://dc.lft.to/lastmile_qr_scan"}, "is_disabled": 0, "fusion_lat": 0.0, "name": "627b503a4e0bed32b346818a30c76d7b", "fusion_lon": 0.0}, {"is_reserved": 0, "type": "electric_scooter", "bike_id": "0def03474a0c9c92468d01a84d1b56f2", "lat": 38.90071283333333, "lon": -77.048687, "rental_uris": {"android": "https://dc.lft.to/lastmile_qr_scan", "ios": "https://dc.lft.to/lastmile_qr_scan"}, "is_disabled": 0, "fusion_lat": 0.0, "name": "0def03474a0c9c92468d01a84d1b56f2", "fusion_lon": 0.0}, {"is_reserved": 0, "type": "electric_scooter", "bike_id": "4baada4e418614566027b9d1de69b0c9", "lat": 38.92597466666667, "lon": -77.024889, "rental_uris": {"android": "https://dc.lft.to/lastmile_qr_scan", "ios": "https://dc.lft.to/lastmile_qr_scan"}, "is_disabled": 0, "fusion_lat": 0.0, "name": "4baada4e418614566027b9d1de69b0c9", "fusion_lon": 0.0}, {"is_reserved": 0, "type": "electric_scooter", "bike_id": "b8049be553cf949eb094c8e3f73ed87c", "lat": 38.896804333333336, "lon": -77.05044883333333, "rental_uris": {"android": "https://dc.lft.to/lastmile_qr_scan", "ios": "https://dc.lft.to/lastmile_qr_scan"}, "is_disabled": 0, "fusion_lat": 0.0, "name": "b8049be553cf949eb094c8e3f73ed87c", "fusion_lon": 0.0}, {"is_reserved": 0, "type": "electric_scooter", "bike_id": "05b1071f57332ada8da617b5454f5df5", "lat": 38.9392355, "lon": -77.03264333333334, "rental_uris": {"android": "https://dc.lft.to/lastmile_qr_scan", "ios": "https://dc.lft.to/lastmile_qr_scan"}, "is_disabled": 0, "fusion_lat": 0.0, "name": "05b1071f57332ada8da617b5454f5df5", "fusion_lon": 0.0}, {"is_reserved": 0, "type": "electric_scooter", "bike_id": "8389f8d82e3f01a0abfd3fe8404b08f9", "lat": 38.93381733333333, "lon": -77.02175883333334, "rental_uris": {"android": "https://dc.lft.to/lastmile_qr_scan", "ios": "https://dc.lft.to/lastmile_qr_scan"}, "is_disabled": 0, "fusion_lat": 0.0, "name": "8389f8d82e3f01a0abfd3fe8404b08f9", "fusion_lon": 0.0}, {"is_reserved": 0, "type": "electric_scooter", "bike_id": "7b66a069e036350e208b495118c7bc1c", "lat": 38.930624333333334, "lon": -77.02969716666666, "rental_uris": {"android": "https://dc.lft.to/lastmile_qr_scan", "ios": "https://dc.lft.to/lastmile_qr_scan"}, "is_disabled": 0, "fusion_lat": 0.0, "name": "7b66a069e036350e208b495118c7bc1c", "fusion_lon": 0.0}, {"is_reserved": 0, "type": "electric_scooter", "bike_id": "d91bb20cac8bb37c74f0687d20971926", "lat": 38.89769783333333, "lon": -77.00890216666667, "rental_uris": {"android": "https://dc.lft.to/lastmile_qr_scan", "ios": "https://dc.lft.to/lastmile_qr_scan"}, "is_disabled": 0, "fusion_lat": 0.0, "name": "d91bb20cac8bb37c74f0687d20971926", "fusion_lon": 0.0}, {"is_reserved": 0, "type": "electric_scooter", "bike_id": "ba7941c74056563f18b31d3f05770289", "lat": 38.921762, "lon": -77.04349283333333, "rental_uris": {"android": "https://dc.lft.to/lastmile_qr_scan", "ios": "https://dc.lft.to/lastmile_qr_scan"}, "is_disabled": 0, "fusion_lat": 0.0, "name": "ba7941c74056563f18b31d3f05770289", "fusion_lon": 0.0}, {"is_reserved": 0, "type": "electric_scooter", "bike_id": "ff7d535fb6f3744a0178b61938e041d4", "lat": 38.945172166666666, "lon": -77.0298455, "rental_uris": {"android": "https://dc.lft.to/lastmile_qr_scan", "ios": "https://dc.lft.to/lastmile_qr_scan"}, "is_disabled": 0, "fusion_lat": 0.0, "name": "ff7d535fb6f3744a0178b61938e041d4", "fusion_lon": 0.0}, {"is_reserved": 0, "type": "electric_scooter", "bike_id": "ecf5f76e82878dc6e369fd5d52956464", "lat": 38.9008675, "lon": -77.01845633333333, "rental_uris": {"android": "https://dc.lft.to/lastmile_qr_scan", "ios": "https://dc.lft.to/lastmile_qr_scan"}, "is_disabled": 0, "fusion_lat": 0.0, "name": "ecf5f76e82878dc6e369fd5d52956464", "fusion_lon": 0.0}, {"is_reserved": 0, "type": "electric_scooter", "bike_id": "c4b20ba302b07eeb18d96f680583b08b", "lat": 38.914733166666664, "lon": -77.03191333333334, "rental_uris": {"android": "https://dc.lft.to/lastmile_qr_scan", "ios": "https://dc.lft.to/lastmile_qr_scan"}, "is_disabled": 0, "fusion_lat": 0.0, "name": "c4b20ba302b07eeb18d96f680583b08b", "fusion_lon": 0.0}, {"is_reserved": 0, "type": "electric_bike", "bike_id": "ff6aab2946d11cc2316bd8c9dce126a7", "lat": 38.88081366666667, "lon": -77.025748, "rental_uris": {"android": "https://dc.lft.to/lastmile_qr_scan", "ios": "https://dc.lft.to/lastmile_qr_scan"}, "is_disabled": 0, "fusion_lat": 0.0, "name": "ff6aab2946d11cc2316bd8c9dce126a7", "fusion_lon": 0.0}, {"is_reserved": 0, "type": "electric_scooter", "bike_id": "3df219c21a164a1895b4ebb99981b846", "lat": 38.884388333333334, "lon": -77.02963716666666, "rental_uris": {"android": "https://dc.lft.to/lastmile_qr_scan", "ios": "https://dc.lft.to/lastmile_qr_scan"}, "is_disabled": 0, "fusion_lat": 0.0, "name": "3df219c21a164a1895b4ebb99981b846", "fusion_lon": 0.0}, {"is_reserved": 0, "type": "electric_scooter", "bike_id": "cc873207b2f3b313913e1d7f664f030c", "lat": 38.91871783333333, "lon": -77.02591333333334, "rental_uris": {"android": "https://dc.lft.to/lastmile_qr_scan", "ios": "https://dc.lft.to/lastmile_qr_scan"}, "is_disabled": 0, "fusion_lat": 0.0, "name": "cc873207b2f3b313913e1d7f664f030c", "fusion_lon": 0.0}, {"is_reserved": 0, "type": "electric_scooter", "bike_id": "e6c45a883c97113578f3f81cefb95f5a", "lat": 38.89724733333333, "lon": -77.0215755, "rental_uris": {"android": "https://dc.lft.to/lastmile_qr_scan", "ios": "https://dc.lft.to/lastmile_qr_scan"}, "is_disabled": 0, "fusion_lat": 0.0, "name": "e6c45a883c97113578f3f81cefb95f5a", "fusion_lon": 0.0}, {"is_reserved": 0, "type": "electric_bike", "bike_id": "f6990ff47d3110ed8a63d92ffaf66519", "lat": 38.8773155, "lon": -77.1184935, "rental_uris": {"android": "https://dc.lft.to/lastmile_qr_scan", "ios": "https://dc.lft.to/lastmile_qr_scan"}, "is_disabled": 0, "fusion_lat": 0.0, "name": "f6990ff47d3110ed8a63d92ffaf66519", "fusion_lon": 0.0}, {"is_reserved": 0, "type": "electric_scooter", "bike_id": "480c48f24fab95d7c6680688c5172632", "lat": 38.9154505, "lon": -76.98361183333333, "rental_uris": {"android": "https://dc.lft.to/lastmile_qr_scan", "ios": "https://dc.lft.to/lastmile_qr_scan"}, "is_disabled": 0, "fusion_lat": 0.0, "name": "480c48f24fab95d7c6680688c5172632", "fusion_lon": 0.0}, {"is_reserved": 0, "type": "electric_scooter", "bike_id": "03c90b922f527e3310bb4fb9473a6d3a", "lat": 38.8988365, "lon": -76.99362616666667, "rental_uris": {"android": "https://dc.lft.to/lastmile_qr_scan", "ios": "https://dc.lft.to/lastmile_qr_scan"}, "is_disabled": 0, "fusion_lat": 0.0, "name": "03c90b922f527e3310bb4fb9473a6d3a", "fusion_lon": 0.0}, {"is_reserved": 0, "type": "electric_scooter", "bike_id": "5c11ed03736b22fb800dd925293a4d2d", "lat": 38.93369716666667, "lon": -77.034673, "rental_uris": {"android": "https://dc.lft.to/lastmile_qr_scan", "ios": "https://dc.lft.to/lastmile_qr_scan"}, "is_disabled": 0, "fusion_lat": 0.0, "name": "5c11ed03736b22fb800dd925293a4d2d", "fusion_lon": 0.0}, {"is_reserved": 0, "type": "electric_scooter", "bike_id": "ce7a989836c0d0f2b6f2e68dd096a79c", "lat": 38.92399916666667, "lon": -77.05055933333334, "rental_uris": {"android": "https://dc.lft.to/lastmile_qr_scan", "ios": "https://dc.lft.to/lastmile_qr_scan"}, "is_disabled": 0, "fusion_lat": 0.0, "name": "ce7a989836c0d0f2b6f2e68dd096a79c", "fusion_lon": 0.0}, {"is_reserved": 0, "type": "electric_scooter", "bike_id": "c453d0770fcc4b8c910e64b6ec8e4a9a", "lat": 38.901587166666665, "lon": -77.02978666666667, "rental_uris": {"android": "https://dc.lft.to/lastmile_qr_scan", "ios": "https://dc.lft.to/lastmile_qr_scan"}, "is_disabled": 0, "fusion_lat": 0.0, "name": "c453d0770fcc4b8c910e64b6ec8e4a9a", "fusion_lon": 0.0}, {"is_reserved": 0, "type": "electric_scooter", "bike_id": "873ff5d6f7244d4526b9cfb1226f7857", "lat": 38.932315, "lon": -76.9974855, "rental_uris": {"android": "https://dc.lft.to/lastmile_qr_scan", "ios": "https://dc.lft.to/lastmile_qr_scan"}, "is_disabled": 0, "fusion_lat": 0.0, "name": "873ff5d6f7244d4526b9cfb1226f7857", "fusion_lon": 0.0}, {"is_reserved": 0, "type": "electric_scooter", "bike_id": "ee74f449d625883f3f50ab70d433dc6f", "lat": 38.88769833333333, "lon": -76.99160233333333, "rental_uris": {"android": "https://dc.lft.to/lastmile_qr_scan", "ios": "https://dc.lft.to/lastmile_qr_scan"}, "is_disabled": 0, "fusion_lat": 0.0, "name": "ee74f449d625883f3f50ab70d433dc6f", "fusion_lon": 0.0}, {"is_reserved": 0, "type": "electric_scooter", "bike_id": "b0139f06f560733cc0bdc66dcf8f5423", "lat": 38.931180833333336, "lon": -77.02315533333334, "rental_uris": {"android": "https://dc.lft.to/lastmile_qr_scan", "ios": "https://dc.lft.to/lastmile_qr_scan"}, "is_disabled": 0, "fusion_lat": 0.0, "name": "b0139f06f560733cc0bdc66dcf8f5423", "fusion_lon": 0.0}, {"is_reserved": 0, "type": "electric_scooter", "bike_id": "d528d2f1f64b25a1fd34f2c9cb7988bc", "lat": 38.8793885, "lon": -77.01663733333334, "rental_uris": {"android": "https://dc.lft.to/lastmile_qr_scan", "ios": "https://dc.lft.to/lastmile_qr_scan"}, "is_disabled": 0, "fusion_lat": 0.0, "name": "d528d2f1f64b25a1fd34f2c9cb7988bc", "fusion_lon": 0.0}, {"is_reserved": 0, "type": "electric_bike", "bike_id": "3eb9c6634ba068109cd56bcd40e8348c", "lat": 38.94563266666667, "lon": -76.95840316666667, "rental_uris": {"android": "https://dc.lft.to/lastmile_qr_scan", "ios": "https://dc.lft.to/lastmile_qr_scan"}, "is_disabled": 0, "fusion_lat": 0.0, "name": "3eb9c6634ba068109cd56bcd40e8348c", "fusion_lon": 0.0}, {"is_reserved": 0, "type": "electric_scooter", "bike_id": "422263b8ee66f6b81069506d1f8388e0", "lat": 38.91928883333333, "lon": -77.046179, "rental_uris": {"android": "https://dc.lft.to/lastmile_qr_scan", "ios": "https://dc.lft.to/lastmile_qr_scan"}, "is_disabled": 0, "fusion_lat": 0.0, "name": "422263b8ee66f6b81069506d1f8388e0", "fusion_lon": 0.0}, {"is_reserved": 0, "type": "electric_scooter", "bike_id": "5883a99886a88c553746c867455abf35", "lat": 38.91812433333333, "lon": -77.04545166666666, "rental_uris": {"android": "https://dc.lft.to/lastmile_qr_scan", "ios": "https://dc.lft.to/lastmile_qr_scan"}, "is_disabled": 0, "fusion_lat": 0.0, "name": "5883a99886a88c553746c867455abf35", "fusion_lon": 0.0}, {"is_reserved": 0, "type": "electric_scooter", "bike_id": "fcab6de7f65a51b1c9102c0063b88fc5", "lat": 38.91123416666667, "lon": -77.0218785, "rental_uris": {"android": "https://dc.lft.to/lastmile_qr_scan", "ios": "https://dc.lft.to/lastmile_qr_scan"}, "is_disabled": 0, "fusion_lat": 0.0, "name": "fcab6de7f65a51b1c9102c0063b88fc5", "fusion_lon": 0.0}, {"is_reserved": 0, "type": "electric_scooter", "bike_id": "08573e4a8d53eb3cdc103c59f10c4439", "lat": 38.91005416666667, "lon": -76.99407316666667, "rental_uris": {"android": "https://dc.lft.to/lastmile_qr_scan", "ios": "https://dc.lft.to/lastmile_qr_scan"}, "is_disabled": 0, "fusion_lat": 0.0, "name": "08573e4a8d53eb3cdc103c59f10c4439", "fusion_lon": 0.0}, {"is_reserved": 0, "type": "electric_scooter", "bike_id": "872933c708082e6a4951bca92db2fe48", "lat": 38.896168333333335, "lon": -76.99732733333333, "rental_uris": {"android": "https://dc.lft.to/lastmile_qr_scan", "ios": "https://dc.lft.to/lastmile_qr_scan"}, "is_disabled": 0, "fusion_lat": 0.0, "name": "872933c708082e6a4951bca92db2fe48", "fusion_lon": 0.0}, {"is_reserved": 0, "type": "electric_scooter", "bike_id": "2f5af57fc34e8285753543db97c5e784", "lat": 38.88301833333333, "lon": -76.9485155, "rental_uris": {"android": "https://dc.lft.to/lastmile_qr_scan", "ios": "https://dc.lft.to/lastmile_qr_scan"}, "is_disabled": 0, "fusion_lat": 0.0, "name": "2f5af57fc34e8285753543db97c5e784", "fusion_lon": 0.0}, {"is_reserved": 0, "type": "electric_scooter", "bike_id": "8f3bd477b571dddb97bce398aaea70d0", "lat": 38.909975333333335, "lon": -77.02405, "rental_uris": {"android": "https://dc.lft.to/lastmile_qr_scan", "ios": "https://dc.lft.to/lastmile_qr_scan"}, "is_disabled": 0, "fusion_lat": 0.0, "name": "8f3bd477b571dddb97bce398aaea70d0", "fusion_lon": 0.0}, {"is_reserved": 0, "type": "electric_bike", "bike_id": "b2e0c7ca189b8b2cdeff11928933fe04", "lat": 38.841119166666665, "lon": -77.0895105, "rental_uris": {"android": "https://dc.lft.to/lastmile_qr_scan", "ios": "https://dc.lft.to/lastmile_qr_scan"}, "is_disabled": 0, "fusion_lat": 0.0, "name": "b2e0c7ca189b8b2cdeff11928933fe04", "fusion_lon": 0.0}, {"is_reserved": 0, "type": "electric_scooter", "bike_id": "9363081859ddda0b010c3894183408b7", "lat": 38.914890666666665, "lon": -77.04151433333334, "rental_uris": {"android": "https://dc.lft.to/lastmile_qr_scan", "ios": "https://dc.lft.to/lastmile_qr_scan"}, "is_disabled": 0, "fusion_lat": 0.0, "name": "9363081859ddda0b010c3894183408b7", "fusion_lon": 0.0}, {"is_reserved": 0, "type": "electric_bike", "bike_id": "af2521f423712331c05506a25a01631d", "lat": 38.95871433333333, "lon": -76.97059233333333, "rental_uris": {"android": "https://dc.lft.to/lastmile_qr_scan", "ios": "https://dc.lft.to/lastmile_qr_scan"}, "is_disabled": 0, "fusion_lat": 0.0, "name": "af2521f423712331c05506a25a01631d", "fusion_lon": 0.0}, {"is_reserved": 0, "type": "electric_scooter", "bike_id": "e4dec9de5e6a6beaefba6c2a2c5c4ec3", "lat": 38.923796333333335, "lon": -77.02885716666667, "rental_uris": {"android": "https://dc.lft.to/lastmile_qr_scan", "ios": "https://dc.lft.to/lastmile_qr_scan"}, "is_disabled": 0, "fusion_lat": 0.0, "name": "e4dec9de5e6a6beaefba6c2a2c5c4ec3", "fusion_lon": 0.0}, {"is_reserved": 0, "type": "electric_scooter", "bike_id": "609fa307ab94b93ce757d86499d15a22", "lat": 38.874684333333335, "lon": -77.00542833333333, "rental_uris": {"android": "https://dc.lft.to/lastmile_qr_scan", "ios": "https://dc.lft.to/lastmile_qr_scan"}, "is_disabled": 0, "fusion_lat": 0.0, "name": "609fa307ab94b93ce757d86499d15a22", "fusion_lon": 0.0}, {"is_reserved": 0, "type": "electric_scooter", "bike_id": "37e5bb1f8e3a2aaec159331fe69237e1", "lat": 38.9073215, "lon": -77.0473525, "rental_uris": {"android": "https://dc.lft.to/lastmile_qr_scan", "ios": "https://dc.lft.to/lastmile_qr_scan"}, "is_disabled": 0, "fusion_lat": 0.0, "name": "37e5bb1f8e3a2aaec159331fe69237e1", "fusion_lon": 0.0}, {"is_reserved": 0, "type": "electric_scooter", "bike_id": "8736b7ffa8673c66c39d9f3529e229c8", "lat": 38.91113566666667, "lon": -77.04311483333333, "rental_uris": {"android": "https://dc.lft.to/lastmile_qr_scan", "ios": "https://dc.lft.to/lastmile_qr_scan"}, "is_disabled": 0, "fusion_lat": 0.0, "name": "8736b7ffa8673c66c39d9f3529e229c8", "fusion_lon": 0.0}, {"is_reserved": 0, "type": "electric_scooter", "bike_id": "970371e8faf4bea1e0e5167b0056de2c", "lat": 38.86574733333333, "lon": -76.99027133333334, "rental_uris": {"android": "https://dc.lft.to/lastmile_qr_scan", "ios": "https://dc.lft.to/lastmile_qr_scan"}, "is_disabled": 0, "fusion_lat": 0.0, "name": "970371e8faf4bea1e0e5167b0056de2c", "fusion_lon": 0.0}, {"is_reserved": 0, "type": "electric_scooter", "bike_id": "df96ffcf81a15b18b5dc069385b93bb1", "lat": 38.91677133333334, "lon": -77.0296215, "rental_uris": {"android": "https://dc.lft.to/lastmile_qr_scan", "ios": "https://dc.lft.to/lastmile_qr_scan"}, "is_disabled": 0, "fusion_lat": 0.0, "name": "df96ffcf81a15b18b5dc069385b93bb1", "fusion_lon": 0.0}, {"is_reserved": 0, "type": "electric_scooter", "bike_id": "4592fe2468ed1c8dc041bbc3245cbc80", "lat": 38.9054175, "lon": -77.02685833333334, "rental_uris": {"android": "https://dc.lft.to/lastmile_qr_scan", "ios": "https://dc.lft.to/lastmile_qr_scan"}, "is_disabled": 0, "fusion_lat": 0.0, "name": "4592fe2468ed1c8dc041bbc3245cbc80", "fusion_lon": 0.0}, {"is_reserved": 0, "type": "electric_scooter", "bike_id": "53b14932295b8ef9d7fd327b9de5836c", "lat": 38.90526116666667, "lon": -77.061061, "rental_uris": {"android": "https://dc.lft.to/lastmile_qr_scan", "ios": "https://dc.lft.to/lastmile_qr_scan"}, "is_disabled": 0, "fusion_lat": 0.0, "name": "53b14932295b8ef9d7fd327b9de5836c", "fusion_lon": 0.0}, {"is_reserved": 0, "type": "electric_bike", "bike_id": "e0c4e33b60ed3b9900d0b1f551aa76a7", "lat": 38.867551666666664, "lon": -76.9453615, "rental_uris": {"android": "https://dc.lft.to/lastmile_qr_scan", "ios": "https://dc.lft.to/lastmile_qr_scan"}, "is_disabled": 0, "fusion_lat": 0.0, "name": "e0c4e33b60ed3b9900d0b1f551aa76a7", "fusion_lon": 0.0}, {"is_reserved": 0, "type": "electric_scooter", "bike_id": "6a273a65419b04c48da12c00ae627f61", "lat": 38.9110625, "lon": -77.03252, "rental_uris": {"android": "https://dc.lft.to/lastmile_qr_scan", "ios": "https://dc.lft.to/lastmile_qr_scan"}, "is_disabled": 0, "fusion_lat": 0.0, "name": "6a273a65419b04c48da12c00ae627f61", "fusion_lon": 0.0}, {"is_reserved": 0, "type": "electric_scooter", "bike_id": "0c8770b2e0cf6f02a2295e8d8b6d63ea", "lat": 38.88771366666667, "lon": -76.93261216666667, "rental_uris": {"android": "https://dc.lft.to/lastmile_qr_scan", "ios": "https://dc.lft.to/lastmile_qr_scan"}, "is_disabled": 0, "fusion_lat": 0.0, "name": "0c8770b2e0cf6f02a2295e8d8b6d63ea", "fusion_lon": 0.0}, {"is_reserved": 0, "type": "electric_scooter", "bike_id": "036d8a915154fedc52158f21661f10e6", "lat": 38.920296666666665, "lon": -76.9854325, "rental_uris": {"android": "https://dc.lft.to/lastmile_qr_scan", "ios": "https://dc.lft.to/lastmile_qr_scan"}, "is_disabled": 0, "fusion_lat": 0.0, "name": "036d8a915154fedc52158f21661f10e6", "fusion_lon": 0.0}, {"is_reserved": 0, "type": "electric_scooter", "bike_id": "0e3c8c80842d801c8b777eaef6638933", "lat": 38.921539, "lon": -77.0387055, "rental_uris": {"android": "https://dc.lft.to/lastmile_qr_scan", "ios": "https://dc.lft.to/lastmile_qr_scan"}, "is_disabled": 0, "fusion_lat": 0.0, "name": "0e3c8c80842d801c8b777eaef6638933", "fusion_lon": 0.0}, {"is_reserved": 0, "type": "electric_scooter", "bike_id": "077c55b857b20e5077fc7923435a6a99", "lat": 38.91817366666667, "lon": -77.0417495, "rental_uris": {"android": "https://dc.lft.to/lastmile_qr_scan", "ios": "https://dc.lft.to/lastmile_qr_scan"}, "is_disabled": 0, "fusion_lat": 0.0, "name": "077c55b857b20e5077fc7923435a6a99", "fusion_lon": 0.0}, {"is_reserved": 0, "type": "electric_scooter", "bike_id": "077e57c419f38d2c7a4094cbdb48e902", "lat": 38.9149015, "lon": -77.03235216666667, "rental_uris": {"android": "https://dc.lft.to/lastmile_qr_scan", "ios": "https://dc.lft.to/lastmile_qr_scan"}, "is_disabled": 0, "fusion_lat": 0.0, "name": "077e57c419f38d2c7a4094cbdb48e902", "fusion_lon": 0.0}, {"is_reserved": 0, "type": "electric_scooter", "bike_id": "ce61575c9bbbe62497978193e4c14e31", "lat": 38.89533866666667, "lon": -77.04472183333333, "rental_uris": {"android": "https://dc.lft.to/lastmile_qr_scan", "ios": "https://dc.lft.to/lastmile_qr_scan"}, "is_disabled": 0, "fusion_lat": 0.0, "name": "ce61575c9bbbe62497978193e4c14e31", "fusion_lon": 0.0}, {"is_reserved": 0, "type": "electric_scooter", "bike_id": "529b6094cea91098fc12139bf4690d58", "lat": 38.93362466666667, "lon": -77.024059, "rental_uris": {"android": "https://dc.lft.to/lastmile_qr_scan", "ios": "https://dc.lft.to/lastmile_qr_scan"}, "is_disabled": 0, "fusion_lat": 0.0, "name": "529b6094cea91098fc12139bf4690d58", "fusion_lon": 0.0}, {"is_reserved": 0, "type": "electric_scooter", "bike_id": "1d155283a2b5a144321470adb956d3a4", "lat": 38.89455066666667, "lon": -77.02697833333333, "rental_uris": {"android": "https://dc.lft.to/lastmile_qr_scan", "ios": "https://dc.lft.to/lastmile_qr_scan"}, "is_disabled": 0, "fusion_lat": 0.0, "name": "1d155283a2b5a144321470adb956d3a4", "fusion_lon": 0.0}, {"is_reserved": 0, "type": "electric_scooter", "bike_id": "80ee835c07fcfd78c9660d9dd395a459", "lat": 38.92242133333333, "lon": -77.031329, "rental_uris": {"android": "https://dc.lft.to/lastmile_qr_scan", "ios": "https://dc.lft.to/lastmile_qr_scan"}, "is_disabled": 0, "fusion_lat": 0.0, "name": "80ee835c07fcfd78c9660d9dd395a459", "fusion_lon": 0.0}, {"is_reserved": 0, "type": "electric_scooter", "bike_id": "af7e467129f2c52acd4c49a4403f755b", "lat": 38.92619583333333, "lon": -77.043319, "rental_uris": {"android": "https://dc.lft.to/lastmile_qr_scan", "ios": "https://dc.lft.to/lastmile_qr_scan"}, "is_disabled": 0, "fusion_lat": 0.0, "name": "af7e467129f2c52acd4c49a4403f755b", "fusion_lon": 0.0}, {"is_reserved": 0, "type": "electric_scooter", "bike_id": "de771a24bf313be828d8e8acdb0cf906", "lat": 38.944353, "lon": -76.97962933333334, "rental_uris": {"android": "https://dc.lft.to/lastmile_qr_scan", "ios": "https://dc.lft.to/lastmile_qr_scan"}, "is_disabled": 0, "fusion_lat": 0.0, "name": "de771a24bf313be828d8e8acdb0cf906", "fusion_lon": 0.0}, {"is_reserved": 0, "type": "electric_bike", "bike_id": "aece93a21ae72c0bcdd39a59feeaf1bb", "lat": 39.084877666666664, "lon": -76.95057083333333, "rental_uris": {"android": "https://dc.lft.to/lastmile_qr_scan", "ios": "https://dc.lft.to/lastmile_qr_scan"}, "is_disabled": 0, "fusion_lat": 0.0, "name": "aece93a21ae72c0bcdd39a59feeaf1bb", "fusion_lon": 0.0}, {"is_reserved": 0, "type": "electric_scooter", "bike_id": "0316513a4e9eb1fb754e0dfdb766dd3e", "lat": 38.938917833333335, "lon": -77.032598, "rental_uris": {"android": "https://dc.lft.to/lastmile_qr_scan", "ios": "https://dc.lft.to/lastmile_qr_scan"}, "is_disabled": 0, "fusion_lat": 0.0, "name": "0316513a4e9eb1fb754e0dfdb766dd3e", "fusion_lon": 0.0}, {"is_reserved": 0, "type": "electric_scooter", "bike_id": "025db379baf73e405802e92024e522c8", "lat": 38.92108016666667, "lon": -77.04361933333334, "rental_uris": {"android": "https://dc.lft.to/lastmile_qr_scan", "ios": "https://dc.lft.to/lastmile_qr_scan"}, "is_disabled": 0, "fusion_lat": 0.0, "name": "025db379baf73e405802e92024e522c8", "fusion_lon": 0.0}, {"is_reserved": 0, "type": "electric_scooter", "bike_id": "d923d0b9835bf6764c32452329ef3401", "lat": 38.946566833333335, "lon": -77.03280616666666, "rental_uris": {"android": "https://dc.lft.to/lastmile_qr_scan", "ios": "https://dc.lft.to/lastmile_qr_scan"}, "is_disabled": 0, "fusion_lat": 0.0, "name": "d923d0b9835bf6764c32452329ef3401", "fusion_lon": 0.0}, {"is_reserved": 0, "type": "electric_scooter", "bike_id": "f6bb581c5742e8cd74209f3234e4ed0b", "lat": 38.85223166666667, "lon": -76.99425933333333, "rental_uris": {"android": "https://dc.lft.to/lastmile_qr_scan", "ios": "https://dc.lft.to/lastmile_qr_scan"}, "is_disabled": 0, "fusion_lat": 0.0, "name": "f6bb581c5742e8cd74209f3234e4ed0b", "fusion_lon": 0.0}, {"is_reserved": 0, "type": "electric_scooter", "bike_id": "b79a977ac242952f46f114f742476763", "lat": 38.9028265, "lon": -77.00216283333333, "rental_uris": {"android": "https://dc.lft.to/lastmile_qr_scan", "ios": "https://dc.lft.to/lastmile_qr_scan"}, "is_disabled": 0, "fusion_lat": 0.0, "name": "b79a977ac242952f46f114f742476763", "fusion_lon": 0.0}, {"is_reserved": 0, "type": "electric_scooter", "bike_id": "6e50c8d0ceee71f1c3830e7bb9c81967", "lat": 38.906150833333335, "lon": -77.009328, "rental_uris": {"android": "https://dc.lft.to/lastmile_qr_scan", "ios": "https://dc.lft.to/lastmile_qr_scan"}, "is_disabled": 0, "fusion_lat": 0.0, "name": "6e50c8d0ceee71f1c3830e7bb9c81967", "fusion_lon": 0.0}, {"is_reserved": 0, "type": "electric_scooter", "bike_id": "910dc53f3f276f115669805ac5c09f51", "lat": 38.884252000000004, "lon": -77.00002683333334, "rental_uris": {"android": "https://dc.lft.to/lastmile_qr_scan", "ios": "https://dc.lft.to/lastmile_qr_scan"}, "is_disabled": 0, "fusion_lat": 0.0, "name": "910dc53f3f276f115669805ac5c09f51", "fusion_lon": 0.0}, {"is_reserved": 0, "type": "electric_scooter", "bike_id": "8184c108d3f9ca8a7e4b713d07aa0c7b", "lat": 38.908410833333335, "lon": -77.06346766666667, "rental_uris": {"android": "https://dc.lft.to/lastmile_qr_scan", "ios": "https://dc.lft.to/lastmile_qr_scan"}, "is_disabled": 0, "fusion_lat": 0.0, "name": "8184c108d3f9ca8a7e4b713d07aa0c7b", "fusion_lon": 0.0}, {"is_reserved": 0, "type": "electric_scooter", "bike_id": "6219cd4531f77c657fcbf951daab0a4d", "lat": 38.900253, "lon": -76.99148016666666, "rental_uris": {"android": "https://dc.lft.to/lastmile_qr_scan", "ios": "https://dc.lft.to/lastmile_qr_scan"}, "is_disabled": 0, "fusion_lat": 0.0, "name": "6219cd4531f77c657fcbf951daab0a4d", "fusion_lon": 0.0}, {"is_reserved": 0, "type": "electric_scooter", "bike_id": "0a30145311b163af1539894ad1ef81ff", "lat": 38.899085, "lon": -76.93362033333334, "rental_uris": {"android": "https://dc.lft.to/lastmile_qr_scan", "ios": "https://dc.lft.to/lastmile_qr_scan"}, "is_disabled": 0, "fusion_lat": 0.0, "name": "0a30145311b163af1539894ad1ef81ff", "fusion_lon": 0.0}, {"is_reserved": 0, "type": "electric_bike", "bike_id": "7b9f1dd6a7094d2af0c77a2f32e482c2", "lat": 38.84918066666667, "lon": -77.079287, "rental_uris": {"android": "https://dc.lft.to/lastmile_qr_scan", "ios": "https://dc.lft.to/lastmile_qr_scan"}, "is_disabled": 0, "fusion_lat": 0.0, "name": "7b9f1dd6a7094d2af0c77a2f32e482c2", "fusion_lon": 0.0}, {"is_reserved": 0, "type": "electric_scooter", "bike_id": "559f7d40040d5d2b35fdec93888f7575", "lat": 38.93186033333333, "lon": -77.02351566666667, "rental_uris": {"android": "https://dc.lft.to/lastmile_qr_scan", "ios": "https://dc.lft.to/lastmile_qr_scan"}, "is_disabled": 0, "fusion_lat": 0.0, "name": "559f7d40040d5d2b35fdec93888f7575", "fusion_lon": 0.0}, {"is_reserved": 0, "type": "electric_scooter", "bike_id": "4f6fcb833e3aa015f5d94020b34809da", "lat": 38.934797333333336, "lon": -77.0564715, "rental_uris": {"android": "https://dc.lft.to/lastmile_qr_scan", "ios": "https://dc.lft.to/lastmile_qr_scan"}, "is_disabled": 0, "fusion_lat": 0.0, "name": "4f6fcb833e3aa015f5d94020b34809da", "fusion_lon": 0.0}, {"is_reserved": 0, "type": "electric_scooter", "bike_id": "af67b62b0562742658a4b8119f66f7fe", "lat": 38.931173666666666, "lon": -77.02386016666667, "rental_uris": {"android": "https://dc.lft.to/lastmile_qr_scan", "ios": "https://dc.lft.to/lastmile_qr_scan"}, "is_disabled": 0, "fusion_lat": 0.0, "name": "af67b62b0562742658a4b8119f66f7fe", "fusion_lon": 0.0}, {"is_reserved": 0, "type": "electric_scooter", "bike_id": "ba2c83094e793ca47c1c51344a4d7d7b", "lat": 38.90151616666667, "lon": -77.0297235, "rental_uris": {"android": "https://dc.lft.to/lastmile_qr_scan", "ios": "https://dc.lft.to/lastmile_qr_scan"}, "is_disabled": 0, "fusion_lat": 0.0, "name": "ba2c83094e793ca47c1c51344a4d7d7b", "fusion_lon": 0.0}, {"is_reserved": 0, "type": "electric_scooter", "bike_id": "1782a58ea20ae82c841b0b1b12e209a4", "lat": 38.898945166666664, "lon": -77.01605916666666, "rental_uris": {"android": "https://dc.lft.to/lastmile_qr_scan", "ios": "https://dc.lft.to/lastmile_qr_scan"}, "is_disabled": 0, "fusion_lat": 0.0, "name": "1782a58ea20ae82c841b0b1b12e209a4", "fusion_lon": 0.0}, {"is_reserved": 0, "type": "electric_scooter", "bike_id": "6152d9ff8ccfe3256705406db7343d04", "lat": 38.90376633333333, "lon": -77.04176633333333, "rental_uris": {"android": "https://dc.lft.to/lastmile_qr_scan", "ios": "https://dc.lft.to/lastmile_qr_scan"}, "is_disabled": 0, "fusion_lat": 0.0, "name": "6152d9ff8ccfe3256705406db7343d04", "fusion_lon": 0.0}, {"is_reserved": 0, "type": "electric_scooter", "bike_id": "690dcd5be2d741d4ac5a8ed4f8409ad4", "lat": 38.91709683333333, "lon": -77.04075266666666, "rental_uris": {"android": "https://dc.lft.to/lastmile_qr_scan", "ios": "https://dc.lft.to/lastmile_qr_scan"}, "is_disabled": 0, "fusion_lat": 0.0, "name": "690dcd5be2d741d4ac5a8ed4f8409ad4", "fusion_lon": 0.0}, {"is_reserved": 0, "type": "electric_scooter", "bike_id": "7379636b74dc60a018f89688c3f1d334", "lat": 38.91784633333333, "lon": -77.04100233333334, "rental_uris": {"android": "https://dc.lft.to/lastmile_qr_scan", "ios": "https://dc.lft.to/lastmile_qr_scan"}, "is_disabled": 0, "fusion_lat": 0.0, "name": "7379636b74dc60a018f89688c3f1d334", "fusion_lon": 0.0}, {"is_reserved": 0, "type": "electric_scooter", "bike_id": "ab79d398a77d61ae729ce343cf119675", "lat": 38.95957933333333, "lon": -77.0726955, "rental_uris": {"android": "https://dc.lft.to/lastmile_qr_scan", "ios": "https://dc.lft.to/lastmile_qr_scan"}, "is_disabled": 0, "fusion_lat": 0.0, "name": "ab79d398a77d61ae729ce343cf119675", "fusion_lon": 0.0}, {"is_reserved": 0, "type": "electric_scooter", "bike_id": "657b3c08e8246c3c06416dfe3c12c9a5", "lat": 38.896084, "lon": -77.026351, "rental_uris": {"android": "https://dc.lft.to/lastmile_qr_scan", "ios": "https://dc.lft.to/lastmile_qr_scan"}, "is_disabled": 0, "fusion_lat": 0.0, "name": "657b3c08e8246c3c06416dfe3c12c9a5", "fusion_lon": 0.0}, {"is_reserved": 0, "type": "electric_scooter", "bike_id": "aec1501fd53eed5bbc01bf7f16929048", "lat": 38.91915383333333, "lon": -76.99859216666667, "rental_uris": {"android": "https://dc.lft.to/lastmile_qr_scan", "ios": "https://dc.lft.to/lastmile_qr_scan"}, "is_disabled": 0, "fusion_lat": 0.0, "name": "aec1501fd53eed5bbc01bf7f16929048", "fusion_lon": 0.0}, {"is_reserved": 0, "type": "electric_scooter", "bike_id": "46b51180d473dbc5fe3500839350ac68", "lat": 38.876756666666665, "lon": -77.00563033333333, "rental_uris": {"android": "https://dc.lft.to/lastmile_qr_scan", "ios": "https://dc.lft.to/lastmile_qr_scan"}, "is_disabled": 0, "fusion_lat": 0.0, "name": "46b51180d473dbc5fe3500839350ac68", "fusion_lon": 0.0}, {"is_reserved": 0, "type": "electric_scooter", "bike_id": "35ef5e7188cf1bd29c37d19be6664d4e", "lat": 38.8899065, "lon": -76.99248416666667, "rental_uris": {"android": "https://dc.lft.to/lastmile_qr_scan", "ios": "https://dc.lft.to/lastmile_qr_scan"}, "is_disabled": 0, "fusion_lat": 0.0, "name": "35ef5e7188cf1bd29c37d19be6664d4e", "fusion_lon": 0.0}, {"is_reserved": 0, "type": "electric_scooter", "bike_id": "d4351a66746fe59cb40d66a8428d154e", "lat": 38.900323666666665, "lon": -77.04080566666667, "rental_uris": {"android": "https://dc.lft.to/lastmile_qr_scan", "ios": "https://dc.lft.to/lastmile_qr_scan"}, "is_disabled": 0, "fusion_lat": 0.0, "name": "d4351a66746fe59cb40d66a8428d154e", "fusion_lon": 0.0}, {"is_reserved": 0, "type": "electric_scooter", "bike_id": "fb66c547728f871b3a67eea0c61601a2", "lat": 38.886952666666666, "lon": -77.02003533333334, "rental_uris": {"android": "https://dc.lft.to/lastmile_qr_scan", "ios": "https://dc.lft.to/lastmile_qr_scan"}, "is_disabled": 0, "fusion_lat": 0.0, "name": "fb66c547728f871b3a67eea0c61601a2", "fusion_lon": 0.0}, {"is_reserved": 0, "type": "electric_scooter", "bike_id": "2733a173a0bdae555ec0ed63201ba962", "lat": 38.896446833333336, "lon": -77.03304616666667, "rental_uris": {"android": "https://dc.lft.to/lastmile_qr_scan", "ios": "https://dc.lft.to/lastmile_qr_scan"}, "is_disabled": 0, "fusion_lat": 0.0, "name": "2733a173a0bdae555ec0ed63201ba962", "fusion_lon": 0.0}, {"is_reserved": 0, "type": "electric_scooter", "bike_id": "b485564d83292ad358e714fe00e67712", "lat": 38.92123483333334, "lon": -77.03932266666666, "rental_uris": {"android": "https://dc.lft.to/lastmile_qr_scan", "ios": "https://dc.lft.to/lastmile_qr_scan"}, "is_disabled": 0, "fusion_lat": 0.0, "name": "b485564d83292ad358e714fe00e67712", "fusion_lon": 0.0}, {"is_reserved": 0, "type": "electric_scooter", "bike_id": "6396256be5abb56c23dc686e55806bcd", "lat": 38.856513666666665, "lon": -76.99671233333333, "rental_uris": {"android": "https://dc.lft.to/lastmile_qr_scan", "ios": "https://dc.lft.to/lastmile_qr_scan"}, "is_disabled": 0, "fusion_lat": 0.0, "name": "6396256be5abb56c23dc686e55806bcd", "fusion_lon": 0.0}, {"is_reserved": 0, "type": "electric_scooter", "bike_id": "ccb9e09c4bf564f8a2cedd7aad8c4737", "lat": 38.92395883333333, "lon": -77.05052583333334, "rental_uris": {"android": "https://dc.lft.to/lastmile_qr_scan", "ios": "https://dc.lft.to/lastmile_qr_scan"}, "is_disabled": 0, "fusion_lat": 0.0, "name": "ccb9e09c4bf564f8a2cedd7aad8c4737", "fusion_lon": 0.0}, {"is_reserved": 0, "type": "electric_bike", "bike_id": "2320477fdacee656fa5468382bb1620c", "lat": 38.894617833333335, "lon": -77.10357866666666, "rental_uris": {"android": "https://dc.lft.to/lastmile_qr_scan", "ios": "https://dc.lft.to/lastmile_qr_scan"}, "is_disabled": 0, "fusion_lat": 0.0, "name": "2320477fdacee656fa5468382bb1620c", "fusion_lon": 0.0}, {"is_reserved": 0, "type": "electric_scooter", "bike_id": "7f688d3cb0db776247a908b449482e4c", "lat": 38.92450616666667, "lon": -77.02032183333333, "rental_uris": {"android": "https://dc.lft.to/lastmile_qr_scan", "ios": "https://dc.lft.to/lastmile_qr_scan"}, "is_disabled": 0, "fusion_lat": 0.0, "name": "7f688d3cb0db776247a908b449482e4c", "fusion_lon": 0.0}, {"is_reserved": 0, "type": "electric_scooter", "bike_id": "c011b6767b24fd4a2151025c58f80fb1", "lat": 38.9044665, "lon": -76.99618733333334, "rental_uris": {"android": "https://dc.lft.to/lastmile_qr_scan", "ios": "https://dc.lft.to/lastmile_qr_scan"}, "is_disabled": 0, "fusion_lat": 0.0, "name": "c011b6767b24fd4a2151025c58f80fb1", "fusion_lon": 0.0}, {"is_reserved": 0, "type": "electric_scooter", "bike_id": "156c384b5a285d40cdfa2301bbba8cb4", "lat": 38.9158855, "lon": -77.02082733333333, "rental_uris": {"android": "https://dc.lft.to/lastmile_qr_scan", "ios": "https://dc.lft.to/lastmile_qr_scan"}, "is_disabled": 0, "fusion_lat": 0.0, "name": "156c384b5a285d40cdfa2301bbba8cb4", "fusion_lon": 0.0}, {"is_reserved": 0, "type": "electric_scooter", "bike_id": "8b054e545cae879a11aaa97eb5f5d272", "lat": 38.92838716666667, "lon": -77.05516233333333, "rental_uris": {"android": "https://dc.lft.to/lastmile_qr_scan", "ios": "https://dc.lft.to/lastmile_qr_scan"}, "is_disabled": 0, "fusion_lat": 0.0, "name": "8b054e545cae879a11aaa97eb5f5d272", "fusion_lon": 0.0}, {"is_reserved": 0, "type": "electric_scooter", "bike_id": "f41a0e40a4bbb1762aa324ed27f9d0cf", "lat": 38.923912333333334, "lon": -77.0503975, "rental_uris": {"android": "https://dc.lft.to/lastmile_qr_scan", "ios": "https://dc.lft.to/lastmile_qr_scan"}, "is_disabled": 0, "fusion_lat": 0.0, "name": "f41a0e40a4bbb1762aa324ed27f9d0cf", "fusion_lon": 0.0}, {"is_reserved": 0, "type": "electric_scooter", "bike_id": "b161fa9d136cc41b64550aba1a768c05", "lat": 38.910711, "lon": -77.01613783333333, "rental_uris": {"android": "https://dc.lft.to/lastmile_qr_scan", "ios": "https://dc.lft.to/lastmile_qr_scan"}, "is_disabled": 0, "fusion_lat": 0.0, "name": "b161fa9d136cc41b64550aba1a768c05", "fusion_lon": 0.0}, {"is_reserved": 0, "type": "electric_scooter", "bike_id": "2cb3fe5aed1a882047ee82de83d4a1ad", "lat": 38.91288433333333, "lon": -77.0220145, "rental_uris": {"android": "https://dc.lft.to/lastmile_qr_scan", "ios": "https://dc.lft.to/lastmile_qr_scan"}, "is_disabled": 0, "fusion_lat": 0.0, "name": "2cb3fe5aed1a882047ee82de83d4a1ad", "fusion_lon": 0.0}, {"is_reserved": 0, "type": "electric_scooter", "bike_id": "6770f7a476e625eaffb486cc7e080b40", "lat": 38.93505316666667, "lon": -77.04286183333333, "rental_uris": {"android": "https://dc.lft.to/lastmile_qr_scan", "ios": "https://dc.lft.to/lastmile_qr_scan"}, "is_disabled": 0, "fusion_lat": 0.0, "name": "6770f7a476e625eaffb486cc7e080b40", "fusion_lon": 0.0}, {"is_reserved": 0, "type": "electric_bike", "bike_id": "585f9115a799064ee6b2391fdd05424e", "lat": 38.9310795, "lon": -77.01844, "rental_uris": {"android": "https://dc.lft.to/lastmile_qr_scan", "ios": "https://dc.lft.to/lastmile_qr_scan"}, "is_disabled": 0, "fusion_lat": 0.0, "name": "585f9115a799064ee6b2391fdd05424e", "fusion_lon": 0.0}, {"is_reserved": 0, "type": "electric_scooter", "bike_id": "68f837ca160592bb35a6177fde89f11b", "lat": 38.90025266666667, "lon": -76.988285, "rental_uris": {"android": "https://dc.lft.to/lastmile_qr_scan", "ios": "https://dc.lft.to/lastmile_qr_scan"}, "is_disabled": 0, "fusion_lat": 0.0, "name": "68f837ca160592bb35a6177fde89f11b", "fusion_lon": 0.0}, {"is_reserved": 0, "type": "electric_scooter", "bike_id": "ce34a499ae8ff3483f0ce9af1e443efb", "lat": 38.919881833333335, "lon": -77.02881466666666, "rental_uris": {"android": "https://dc.lft.to/lastmile_qr_scan", "ios": "https://dc.lft.to/lastmile_qr_scan"}, "is_disabled": 0, "fusion_lat": 0.0, "name": "ce34a499ae8ff3483f0ce9af1e443efb", "fusion_lon": 0.0}, {"is_reserved": 0, "type": "electric_scooter", "bike_id": "ef177fba73db531b7c5a0d87eb116d58", "lat": 38.877621, "lon": -76.9942335, "rental_uris": {"android": "https://dc.lft.to/lastmile_qr_scan", "ios": "https://dc.lft.to/lastmile_qr_scan"}, "is_disabled": 0, "fusion_lat": 0.0, "name": "ef177fba73db531b7c5a0d87eb116d58", "fusion_lon": 0.0}, {"is_reserved": 0, "type": "electric_bike", "bike_id": "1a60249e319ce7f40cfae36d56657c2a", "lat": 38.91128883333333, "lon": -77.06578766666667, "rental_uris": {"android": "https://dc.lft.to/lastmile_qr_scan", "ios": "https://dc.lft.to/lastmile_qr_scan"}, "is_disabled": 0, "fusion_lat": 0.0, "name": "1a60249e319ce7f40cfae36d56657c2a", "fusion_lon": 0.0}, {"is_reserved": 0, "type": "electric_scooter", "bike_id": "5f1927e18b37547a7406694cb696ed4d", "lat": 38.910024, "lon": -77.04013166666667, "rental_uris": {"android": "https://dc.lft.to/lastmile_qr_scan", "ios": "https://dc.lft.to/lastmile_qr_scan"}, "is_disabled": 0, "fusion_lat": 0.0, "name": "5f1927e18b37547a7406694cb696ed4d", "fusion_lon": 0.0}, {"is_reserved": 0, "type": "electric_scooter", "bike_id": "8edfa147c4bae19da5ffe8a62e6eb5fe", "lat": 38.90065766666667, "lon": -76.92739666666667, "rental_uris": {"android": "https://dc.lft.to/lastmile_qr_scan", "ios": "https://dc.lft.to/lastmile_qr_scan"}, "is_disabled": 0, "fusion_lat": 0.0, "name": "8edfa147c4bae19da5ffe8a62e6eb5fe", "fusion_lon": 0.0}, {"is_reserved": 0, "type": "electric_scooter", "bike_id": "feed95d1541a5aed4e2a8e18bceab422", "lat": 38.9424135, "lon": -77.0358455, "rental_uris": {"android": "https://dc.lft.to/lastmile_qr_scan", "ios": "https://dc.lft.to/lastmile_qr_scan"}, "is_disabled": 0, "fusion_lat": 0.0, "name": "feed95d1541a5aed4e2a8e18bceab422", "fusion_lon": 0.0}, {"is_reserved": 0, "type": "electric_scooter", "bike_id": "19febaf4283760b92e981d6208c3753f", "lat": 38.93118116666667, "lon": -77.02081566666666, "rental_uris": {"android": "https://dc.lft.to/lastmile_qr_scan", "ios": "https://dc.lft.to/lastmile_qr_scan"}, "is_disabled": 0, "fusion_lat": 0.0, "name": "19febaf4283760b92e981d6208c3753f", "fusion_lon": 0.0}, {"is_reserved": 0, "type": "electric_scooter", "bike_id": "da2e1ac553b8e7460575e2321d4ebf04", "lat": 38.88397583333333, "lon": -76.98982216666667, "rental_uris": {"android": "https://dc.lft.to/lastmile_qr_scan", "ios": "https://dc.lft.to/lastmile_qr_scan"}, "is_disabled": 0, "fusion_lat": 0.0, "name": "da2e1ac553b8e7460575e2321d4ebf04", "fusion_lon": 0.0}, {"is_reserved": 0, "type": "electric_scooter", "bike_id": "061a0ae52677970ffc560171ea9ada18", "lat": 38.94076716666667, "lon": -77.033291, "rental_uris": {"android": "https://dc.lft.to/lastmile_qr_scan", "ios": "https://dc.lft.to/lastmile_qr_scan"}, "is_disabled": 0, "fusion_lat": 0.0, "name": "061a0ae52677970ffc560171ea9ada18", "fusion_lon": 0.0}, {"is_reserved": 0, "type": "electric_scooter", "bike_id": "dffec1f3413668c0318265dba93d7a0c", "lat": 38.898851, "lon": -76.93176733333334, "rental_uris": {"android": "https://dc.lft.to/lastmile_qr_scan", "ios": "https://dc.lft.to/lastmile_qr_scan"}, "is_disabled": 0, "fusion_lat": 0.0, "name": "dffec1f3413668c0318265dba93d7a0c", "fusion_lon": 0.0}, {"is_reserved": 0, "type": "electric_scooter", "bike_id": "0ef07991fcbac01cce7bc27c262bf395", "lat": 38.91377833333333, "lon": -77.00046283333333, "rental_uris": {"android": "https://dc.lft.to/lastmile_qr_scan", "ios": "https://dc.lft.to/lastmile_qr_scan"}, "is_disabled": 0, "fusion_lat": 0.0, "name": "0ef07991fcbac01cce7bc27c262bf395", "fusion_lon": 0.0}, {"is_reserved": 0, "type": "electric_scooter", "bike_id": "fca545350a29ced946bdbc76965813a0", "lat": 38.91205, "lon": -77.03210966666667, "rental_uris": {"android": "https://dc.lft.to/lastmile_qr_scan", "ios": "https://dc.lft.to/lastmile_qr_scan"}, "is_disabled": 0, "fusion_lat": 0.0, "name": "fca545350a29ced946bdbc76965813a0", "fusion_lon": 0.0}, {"is_reserved": 0, "type": "electric_scooter", "bike_id": "ee8ba7f4820343790b1e061bdf069d7f", "lat": 38.89729033333333, "lon": -76.99516033333333, "rental_uris": {"android": "https://dc.lft.to/lastmile_qr_scan", "ios": "https://dc.lft.to/lastmile_qr_scan"}, "is_disabled": 0, "fusion_lat": 0.0, "name": "ee8ba7f4820343790b1e061bdf069d7f", "fusion_lon": 0.0}, {"is_reserved": 0, "type": "electric_bike", "bike_id": "0383bad21a8cb0999c3d278335df56d5", "lat": 38.842747333333335, "lon": -76.98842833333333, "rental_uris": {"android": "https://dc.lft.to/lastmile_qr_scan", "ios": "https://dc.lft.to/lastmile_qr_scan"}, "is_disabled": 0, "fusion_lat": 0.0, "name": "0383bad21a8cb0999c3d278335df56d5", "fusion_lon": 0.0}, {"is_reserved": 0, "type": "electric_scooter", "bike_id": "86b8d1e88defa4caa4139a69d126b851", "lat": 38.902671166666664, "lon": -77.03193933333333, "rental_uris": {"android": "https://dc.lft.to/lastmile_qr_scan", "ios": "https://dc.lft.to/lastmile_qr_scan"}, "is_disabled": 0, "fusion_lat": 0.0, "name": "86b8d1e88defa4caa4139a69d126b851", "fusion_lon": 0.0}, {"is_reserved": 0, "type": "electric_scooter", "bike_id": "5e3180a87a918fa3e2ad2e9cc3dc3de4", "lat": 38.91958966666667, "lon": -77.02499883333333, "rental_uris": {"android": "https://dc.lft.to/lastmile_qr_scan", "ios": "https://dc.lft.to/lastmile_qr_scan"}, "is_disabled": 0, "fusion_lat": 0.0, "name": "5e3180a87a918fa3e2ad2e9cc3dc3de4", "fusion_lon": 0.0}, {"is_reserved": 0, "type": "electric_scooter", "bike_id": "9cbdf54b79eef437714c2241ac67d719", "lat": 38.91405233333333, "lon": -77.03229066666667, "rental_uris": {"android": "https://dc.lft.to/lastmile_qr_scan", "ios": "https://dc.lft.to/lastmile_qr_scan"}, "is_disabled": 0, "fusion_lat": 0.0, "name": "9cbdf54b79eef437714c2241ac67d719", "fusion_lon": 0.0}, {"is_reserved": 0, "type": "electric_scooter", "bike_id": "d541060e3ac4e4c89d28ae173256d3bb", "lat": 38.94451016666667, "lon": -77.02799416666667, "rental_uris": {"android": "https://dc.lft.to/lastmile_qr_scan", "ios": "https://dc.lft.to/lastmile_qr_scan"}, "is_disabled": 0, "fusion_lat": 0.0, "name": "d541060e3ac4e4c89d28ae173256d3bb", "fusion_lon": 0.0}, {"is_reserved": 0, "type": "electric_scooter", "bike_id": "7791f089ce587049db48e0f0c6130d7e", "lat": 38.898512, "lon": -77.02948983333333, "rental_uris": {"android": "https://dc.lft.to/lastmile_qr_scan", "ios": "https://dc.lft.to/lastmile_qr_scan"}, "is_disabled": 0, "fusion_lat": 0.0, "name": "7791f089ce587049db48e0f0c6130d7e", "fusion_lon": 0.0}, {"is_reserved": 0, "type": "electric_scooter", "bike_id": "9f529e097c9a523d0464b8553bfefe1d", "lat": 38.907295833333336, "lon": -77.00703083333333, "rental_uris": {"android": "https://dc.lft.to/lastmile_qr_scan", "ios": "https://dc.lft.to/lastmile_qr_scan"}, "is_disabled": 0, "fusion_lat": 0.0, "name": "9f529e097c9a523d0464b8553bfefe1d", "fusion_lon": 0.0}, {"is_reserved": 0, "type": "electric_bike", "bike_id": "6815c17104e9961d9c39f80b7df76058", "lat": 38.824318833333336, "lon": -77.1203645, "rental_uris": {"android": "https://dc.lft.to/lastmile_qr_scan", "ios": "https://dc.lft.to/lastmile_qr_scan"}, "is_disabled": 0, "fusion_lat": 0.0, "name": "6815c17104e9961d9c39f80b7df76058", "fusion_lon": 0.0}, {"is_reserved": 0, "type": "electric_scooter", "bike_id": "c0bad4d6668676ada62c11f3070c9f43", "lat": 38.9169315, "lon": -77.02279616666667, "rental_uris": {"android": "https://dc.lft.to/lastmile_qr_scan", "ios": "https://dc.lft.to/lastmile_qr_scan"}, "is_disabled": 0, "fusion_lat": 0.0, "name": "c0bad4d6668676ada62c11f3070c9f43", "fusion_lon": 0.0}, {"is_reserved": 0, "type": "electric_scooter", "bike_id": "6d3d24cd239fac71affdbe930c99620b", "lat": 38.915817833333335, "lon": -77.02091483333334, "rental_uris": {"android": "https://dc.lft.to/lastmile_qr_scan", "ios": "https://dc.lft.to/lastmile_qr_scan"}, "is_disabled": 0, "fusion_lat": 0.0, "name": "6d3d24cd239fac71affdbe930c99620b", "fusion_lon": 0.0}, {"is_reserved": 0, "type": "electric_scooter", "bike_id": "81c1fea3fa22003eca6a67b9bad03278", "lat": 38.935084833333335, "lon": -77.02005216666667, "rental_uris": {"android": "https://dc.lft.to/lastmile_qr_scan", "ios": "https://dc.lft.to/lastmile_qr_scan"}, "is_disabled": 0, "fusion_lat": 0.0, "name": "81c1fea3fa22003eca6a67b9bad03278", "fusion_lon": 0.0}, {"is_reserved": 0, "type": "electric_scooter", "bike_id": "5b040ffce0e339e7afba667d1b8217c4", "lat": 38.93666616666667, "lon": -77.05498416666667, "rental_uris": {"android": "https://dc.lft.to/lastmile_qr_scan", "ios": "https://dc.lft.to/lastmile_qr_scan"}, "is_disabled": 0, "fusion_lat": 0.0, "name": "5b040ffce0e339e7afba667d1b8217c4", "fusion_lon": 0.0}, {"is_reserved": 0, "type": "electric_bike", "bike_id": "e699f48709a9220681ba783140c4a0bc", "lat": 38.838120333333336, "lon": -77.09523383333334, "rental_uris": {"android": "https://dc.lft.to/lastmile_qr_scan", "ios": "https://dc.lft.to/lastmile_qr_scan"}, "is_disabled": 0, "fusion_lat": 0.0, "name": "e699f48709a9220681ba783140c4a0bc", "fusion_lon": 0.0}, {"is_reserved": 0, "type": "electric_scooter", "bike_id": "313ed62a786f03c7b9646186274bedeb", "lat": 38.9014885, "lon": -77.0321205, "rental_uris": {"android": "https://dc.lft.to/lastmile_qr_scan", "ios": "https://dc.lft.to/lastmile_qr_scan"}, "is_disabled": 0, "fusion_lat": 0.0, "name": "313ed62a786f03c7b9646186274bedeb", "fusion_lon": 0.0}, {"is_reserved": 0, "type": "electric_scooter", "bike_id": "7fdaed97110f9bdb0bbbb4d2dbdca6e7", "lat": 38.91707983333333, "lon": -77.0390005, "rental_uris": {"android": "https://dc.lft.to/lastmile_qr_scan", "ios": "https://dc.lft.to/lastmile_qr_scan"}, "is_disabled": 0, "fusion_lat": 0.0, "name": "7fdaed97110f9bdb0bbbb4d2dbdca6e7", "fusion_lon": 0.0}, {"is_reserved": 0, "type": "electric_scooter", "bike_id": "ef1dfb3ffef77f59e8bbfb28475d5932", "lat": 38.93194066666667, "lon": -76.99615766666666, "rental_uris": {"android": "https://dc.lft.to/lastmile_qr_scan", "ios": "https://dc.lft.to/lastmile_qr_scan"}, "is_disabled": 0, "fusion_lat": 0.0, "name": "ef1dfb3ffef77f59e8bbfb28475d5932", "fusion_lon": 0.0}, {"is_reserved": 0, "type": "electric_scooter", "bike_id": "04699ff1c4fef68b07703985d64187f8", "lat": 38.919366833333335, "lon": -77.04174933333333, "rental_uris": {"android": "https://dc.lft.to/lastmile_qr_scan", "ios": "https://dc.lft.to/lastmile_qr_scan"}, "is_disabled": 0, "fusion_lat": 0.0, "name": "04699ff1c4fef68b07703985d64187f8", "fusion_lon": 0.0}, {"is_reserved": 0, "type": "electric_scooter", "bike_id": "b6da218ce4d69e3ae231411b86465454", "lat": 38.901434, "lon": -77.03186116666667, "rental_uris": {"android": "https://dc.lft.to/lastmile_qr_scan", "ios": "https://dc.lft.to/lastmile_qr_scan"}, "is_disabled": 0, "fusion_lat": 0.0, "name": "b6da218ce4d69e3ae231411b86465454", "fusion_lon": 0.0}, {"is_reserved": 0, "type": "electric_scooter", "bike_id": "d3cb5f44cc78ddc5a1d1e87ef70d661e", "lat": 38.8956565, "lon": -77.0316035, "rental_uris": {"android": "https://dc.lft.to/lastmile_qr_scan", "ios": "https://dc.lft.to/lastmile_qr_scan"}, "is_disabled": 0, "fusion_lat": 0.0, "name": "d3cb5f44cc78ddc5a1d1e87ef70d661e", "fusion_lon": 0.0}, {"is_reserved": 0, "type": "electric_scooter", "bike_id": "c1b1ab87bff420c0694f1b4061c2c66b", "lat": 38.9405335, "lon": -77.024931, "rental_uris": {"android": "https://dc.lft.to/lastmile_qr_scan", "ios": "https://dc.lft.to/lastmile_qr_scan"}, "is_disabled": 0, "fusion_lat": 0.0, "name": "c1b1ab87bff420c0694f1b4061c2c66b", "fusion_lon": 0.0}, {"is_reserved": 0, "type": "electric_bike", "bike_id": "64f9ff0ec9d6dcf58dec080063984302", "lat": 38.8402935, "lon": -76.9762135, "rental_uris": {"android": "https://dc.lft.to/lastmile_qr_scan", "ios": "https://dc.lft.to/lastmile_qr_scan"}, "is_disabled": 0, "fusion_lat": 0.0, "name": "64f9ff0ec9d6dcf58dec080063984302", "fusion_lon": 0.0}, {"is_reserved": 0, "type": "electric_scooter", "bike_id": "11d451458e93fd858a6b08acb05656b2", "lat": 38.924504, "lon": -77.032836, "rental_uris": {"android": "https://dc.lft.to/lastmile_qr_scan", "ios": "https://dc.lft.to/lastmile_qr_scan"}, "is_disabled": 0, "fusion_lat": 0.0, "name": "11d451458e93fd858a6b08acb05656b2", "fusion_lon": 0.0}, {"is_reserved": 0, "type": "electric_scooter", "bike_id": "5789441acdc29c1b6670183dc7c4673e", "lat": 38.917519666666664, "lon": -77.047668, "rental_uris": {"android": "https://dc.lft.to/lastmile_qr_scan", "ios": "https://dc.lft.to/lastmile_qr_scan"}, "is_disabled": 0, "fusion_lat": 0.0, "name": "5789441acdc29c1b6670183dc7c4673e", "fusion_lon": 0.0}, {"is_reserved": 0, "type": "electric_scooter", "bike_id": "ca0504c427200d4841e7bfa91d5f8248", "lat": 38.905297166666664, "lon": -77.06784833333333, "rental_uris": {"android": "https://dc.lft.to/lastmile_qr_scan", "ios": "https://dc.lft.to/lastmile_qr_scan"}, "is_disabled": 0, "fusion_lat": 0.0, "name": "ca0504c427200d4841e7bfa91d5f8248", "fusion_lon": 0.0}, {"is_reserved": 0, "type": "electric_scooter", "bike_id": "4c3e2043041d0c9e020d71b26404b2f3", "lat": 38.905875, "lon": -77.03633116666667, "rental_uris": {"android": "https://dc.lft.to/lastmile_qr_scan", "ios": "https://dc.lft.to/lastmile_qr_scan"}, "is_disabled": 0, "fusion_lat": 0.0, "name": "4c3e2043041d0c9e020d71b26404b2f3", "fusion_lon": 0.0}, {"is_reserved": 0, "type": "electric_scooter", "bike_id": "ef6324e75980aeb944bb42f8864eea3d", "lat": 38.90739283333333, "lon": -77.0330905, "rental_uris": {"android": "https://dc.lft.to/lastmile_qr_scan", "ios": "https://dc.lft.to/lastmile_qr_scan"}, "is_disabled": 0, "fusion_lat": 0.0, "name": "ef6324e75980aeb944bb42f8864eea3d", "fusion_lon": 0.0}, {"is_reserved": 0, "type": "electric_scooter", "bike_id": "f73f06fcef3e4280f44a097fbe098d8c", "lat": 38.92766733333333, "lon": -77.027765, "rental_uris": {"android": "https://dc.lft.to/lastmile_qr_scan", "ios": "https://dc.lft.to/lastmile_qr_scan"}, "is_disabled": 0, "fusion_lat": 0.0, "name": "f73f06fcef3e4280f44a097fbe098d8c", "fusion_lon": 0.0}, {"is_reserved": 0, "type": "electric_scooter", "bike_id": "06cf2c54b4d413c6246faee054d92abf", "lat": 38.935305166666666, "lon": -77.03416333333334, "rental_uris": {"android": "https://dc.lft.to/lastmile_qr_scan", "ios": "https://dc.lft.to/lastmile_qr_scan"}, "is_disabled": 0, "fusion_lat": 0.0, "name": "06cf2c54b4d413c6246faee054d92abf", "fusion_lon": 0.0}, {"is_reserved": 0, "type": "electric_scooter", "bike_id": "1e98d28e8db2e8679180e1b525432e28", "lat": 38.91590566666667, "lon": -77.02175833333334, "rental_uris": {"android": "https://dc.lft.to/lastmile_qr_scan", "ios": "https://dc.lft.to/lastmile_qr_scan"}, "is_disabled": 0, "fusion_lat": 0.0, "name": "1e98d28e8db2e8679180e1b525432e28", "fusion_lon": 0.0}, {"is_reserved": 0, "type": "electric_scooter", "bike_id": "4add48c3575db30bc3f2a8b450ad06ec", "lat": 38.90402783333333, "lon": -77.06774066666667, "rental_uris": {"android": "https://dc.lft.to/lastmile_qr_scan", "ios": "https://dc.lft.to/lastmile_qr_scan"}, "is_disabled": 0, "fusion_lat": 0.0, "name": "4add48c3575db30bc3f2a8b450ad06ec", "fusion_lon": 0.0}, {"is_reserved": 0, "type": "electric_scooter", "bike_id": "591586abf701ca677a52fc3d11fd95f0", "lat": 38.929343833333334, "lon": -76.99785133333333, "rental_uris": {"android": "https://dc.lft.to/lastmile_qr_scan", "ios": "https://dc.lft.to/lastmile_qr_scan"}, "is_disabled": 0, "fusion_lat": 0.0, "name": "591586abf701ca677a52fc3d11fd95f0", "fusion_lon": 0.0}, {"is_reserved": 0, "type": "electric_scooter", "bike_id": "03dd599e4cfd272a2ba6ed2b2e36d3b8", "lat": 38.903635666666666, "lon": -77.0034045, "rental_uris": {"android": "https://dc.lft.to/lastmile_qr_scan", "ios": "https://dc.lft.to/lastmile_qr_scan"}, "is_disabled": 0, "fusion_lat": 0.0, "name": "03dd599e4cfd272a2ba6ed2b2e36d3b8", "fusion_lon": 0.0}, {"is_reserved": 0, "type": "electric_scooter", "bike_id": "1f63901eb47c80cfa9c327e81fc281b2", "lat": 38.90571166666667, "lon": -77.00805233333334, "rental_uris": {"android": "https://dc.lft.to/lastmile_qr_scan", "ios": "https://dc.lft.to/lastmile_qr_scan"}, "is_disabled": 0, "fusion_lat": 0.0, "name": "1f63901eb47c80cfa9c327e81fc281b2", "fusion_lon": 0.0}, {"is_reserved": 0, "type": "electric_scooter", "bike_id": "6a966eb2acc768da1ec2c4c314021153", "lat": 38.914237, "lon": -77.029682, "rental_uris": {"android": "https://dc.lft.to/lastmile_qr_scan", "ios": "https://dc.lft.to/lastmile_qr_scan"}, "is_disabled": 0, "fusion_lat": 0.0, "name": "6a966eb2acc768da1ec2c4c314021153", "fusion_lon": 0.0}, {"is_reserved": 0, "type": "electric_scooter", "bike_id": "94d6632c001d289d9d0f4f5bfbe93b55", "lat": 38.893726666666666, "lon": -77.02827416666666, "rental_uris": {"android": "https://dc.lft.to/lastmile_qr_scan", "ios": "https://dc.lft.to/lastmile_qr_scan"}, "is_disabled": 0, "fusion_lat": 0.0, "name": "94d6632c001d289d9d0f4f5bfbe93b55", "fusion_lon": 0.0}, {"is_reserved": 0, "type": "electric_scooter", "bike_id": "b32918990ba80d405548eedcb90b0848", "lat": 38.92087433333333, "lon": -77.01372683333334, "rental_uris": {"android": "https://dc.lft.to/lastmile_qr_scan", "ios": "https://dc.lft.to/lastmile_qr_scan"}, "is_disabled": 0, "fusion_lat": 0.0, "name": "b32918990ba80d405548eedcb90b0848", "fusion_lon": 0.0}, {"is_reserved": 0, "type": "electric_scooter", "bike_id": "e30e8ad127e33c0fb8ee4500fc12dfb9", "lat": 38.8841985, "lon": -77.025536, "rental_uris": {"android": "https://dc.lft.to/lastmile_qr_scan", "ios": "https://dc.lft.to/lastmile_qr_scan"}, "is_disabled": 0, "fusion_lat": 0.0, "name": "e30e8ad127e33c0fb8ee4500fc12dfb9", "fusion_lon": 0.0}, {"is_reserved": 0, "type": "electric_scooter", "bike_id": "f356195a635821d856b2e110435b3ad5", "lat": 38.914044833333335, "lon": -77.0322565, "rental_uris": {"android": "https://dc.lft.to/lastmile_qr_scan", "ios": "https://dc.lft.to/lastmile_qr_scan"}, "is_disabled": 0, "fusion_lat": 0.0, "name": "f356195a635821d856b2e110435b3ad5", "fusion_lon": 0.0}, {"is_reserved": 0, "type": "electric_scooter", "bike_id": "7c3e0a54750afc6fcc86920b28e131ff", "lat": 38.910479, "lon": -77.0334875, "rental_uris": {"android": "https://dc.lft.to/lastmile_qr_scan", "ios": "https://dc.lft.to/lastmile_qr_scan"}, "is_disabled": 0, "fusion_lat": 0.0, "name": "7c3e0a54750afc6fcc86920b28e131ff", "fusion_lon": 0.0}, {"is_reserved": 0, "type": "electric_scooter", "bike_id": "561750f504cb6f018c319a367d62d624", "lat": 38.93035483333333, "lon": -77.083142, "rental_uris": {"android": "https://dc.lft.to/lastmile_qr_scan", "ios": "https://dc.lft.to/lastmile_qr_scan"}, "is_disabled": 0, "fusion_lat": 0.0, "name": "561750f504cb6f018c319a367d62d624", "fusion_lon": 0.0}, {"is_reserved": 0, "type": "electric_scooter", "bike_id": "49ea5789fb7f9c4a12be83490dc2b4dd", "lat": 38.89832116666667, "lon": -77.04824866666667, "rental_uris": {"android": "https://dc.lft.to/lastmile_qr_scan", "ios": "https://dc.lft.to/lastmile_qr_scan"}, "is_disabled": 0, "fusion_lat": 0.0, "name": "49ea5789fb7f9c4a12be83490dc2b4dd", "fusion_lon": 0.0}, {"is_reserved": 0, "type": "electric_scooter", "bike_id": "437795f224aaf90d9c46d1aead9f9701", "lat": 38.928617, "lon": -77.0304565, "rental_uris": {"android": "https://dc.lft.to/lastmile_qr_scan", "ios": "https://dc.lft.to/lastmile_qr_scan"}, "is_disabled": 0, "fusion_lat": 0.0, "name": "437795f224aaf90d9c46d1aead9f9701", "fusion_lon": 0.0}, {"is_reserved": 0, "type": "electric_scooter", "bike_id": "6c8494e11bde34f283d8ff14306e2420", "lat": 38.906066333333335, "lon": -77.03300283333333, "rental_uris": {"android": "https://dc.lft.to/lastmile_qr_scan", "ios": "https://dc.lft.to/lastmile_qr_scan"}, "is_disabled": 0, "fusion_lat": 0.0, "name": "6c8494e11bde34f283d8ff14306e2420", "fusion_lon": 0.0}, {"is_reserved": 0, "type": "electric_scooter", "bike_id": "57f85cb3f7b60dc3b9789407f6ab1e3b", "lat": 38.9750775, "lon": -77.0169425, "rental_uris": {"android": "https://dc.lft.to/lastmile_qr_scan", "ios": "https://dc.lft.to/lastmile_qr_scan"}, "is_disabled": 0, "fusion_lat": 0.0, "name": "57f85cb3f7b60dc3b9789407f6ab1e3b", "fusion_lon": 0.0}, {"is_reserved": 0, "type": "electric_scooter", "bike_id": "433e727ec45cd0d2115de36442baff3b", "lat": 38.91786483333333, "lon": -77.02300683333333, "rental_uris": {"android": "https://dc.lft.to/lastmile_qr_scan", "ios": "https://dc.lft.to/lastmile_qr_scan"}, "is_disabled": 0, "fusion_lat": 0.0, "name": "433e727ec45cd0d2115de36442baff3b", "fusion_lon": 0.0}, {"is_reserved": 0, "type": "electric_scooter", "bike_id": "3f6c2700531dac42046cb374a0bd15c4", "lat": 38.901218666666665, "lon": -77.03377966666666, "rental_uris": {"android": "https://dc.lft.to/lastmile_qr_scan", "ios": "https://dc.lft.to/lastmile_qr_scan"}, "is_disabled": 0, "fusion_lat": 0.0, "name": "3f6c2700531dac42046cb374a0bd15c4", "fusion_lon": 0.0}, {"is_reserved": 0, "type": "electric_scooter", "bike_id": "56035e65f9f54ef3d18ab0574e69387d", "lat": 38.896092333333335, "lon": -77.00526533333333, "rental_uris": {"android": "https://dc.lft.to/lastmile_qr_scan", "ios": "https://dc.lft.to/lastmile_qr_scan"}, "is_disabled": 0, "fusion_lat": 0.0, "name": "56035e65f9f54ef3d18ab0574e69387d", "fusion_lon": 0.0}, {"is_reserved": 0, "type": "electric_scooter", "bike_id": "53b68d9992d2190c0dcde95149b1d4aa", "lat": 38.93632733333333, "lon": -77.06482383333334, "rental_uris": {"android": "https://dc.lft.to/lastmile_qr_scan", "ios": "https://dc.lft.to/lastmile_qr_scan"}, "is_disabled": 0, "fusion_lat": 0.0, "name": "53b68d9992d2190c0dcde95149b1d4aa", "fusion_lon": 0.0},