{"data": {"bikes": [{"name": "d934db9553f30d9a3ffb03f163440a10", "is_disabled": 0, "lat": 38.9026465, "rental_uris": {"ios": "https://dc.lft.to/lastmile_qr_scan", "android": "https://dc.lft.to/lastmile_qr_scan"}, "bike_id": "d934db9553f30d9a3ffb03f163440a10", "type": "electric_scooter", "lon": -77.03416683333333, "is_reserved": 0, "fusion_lat": 0.0, "fusion_lon": 0.0}, {"name": "fdf8eb2b70038d8df6a9da5e5b5087b4", "is_disabled": 0, "lat": 38.9162045, "rental_uris": {"ios": "https://dc.lft.to/lastmile_qr_scan", "android": "https://dc.lft.to/lastmile_qr_scan"}, "bike_id": "fdf8eb2b70038d8df6a9da5e5b5087b4", "type": "electric_scooter", "lon": -77.03189116666667, "is_reserved": 0, "fusion_lat": 0.0, "fusion_lon": 0.0}, {"name": "29b85002d76f3f0f35f9350ac56ea597", "is_disabled": 0, "lat": 38.9148165, "rental_uris": {"ios": "https://dc.lft.to/lastmile_qr_scan", "android": "https://dc.lft.to/lastmile_qr_scan"}, "bike_id": "29b85002d76f3f0f35f9350ac56ea597", "type": "electric_scooter", "lon": -77.038284, "is_reserved": 0, "fusion_lat": 0.0, "fusion_lon": 0.0}, {"name": "1beb1ca49f480a353c535218c4c105e0", "is_disabled": 0, "lat": 38.9497835, "rental_uris": {"ios": "https://dc.lft.to/lastmile_qr_scan", "android": "https://dc.lft.to/lastmile_qr_scan"}, "bike_id": "1beb1ca49f480a353c535218c4c105e0", "type": "electric_scooter", "lon": -77.024444, "is_reserved": 0, "fusion_lat": 0.0, "fusion_lon": 0.0}, {"name": "1c6e609504c1642d26ca2b7a127c6757", "is_disabled": 0, "lat": 38.905757, "rental_uris": {"ios": "https://dc.lft.to/lastmile_qr_scan", "android": "https://dc.lft.to/lastmile_qr_scan"}, "bike_id": "1c6e609504c1642d26ca2b7a127c6757", "type": "electric_scooter", "lon": -77.02207833333334, "is_reserved": 0, "fusion_lat": 0.0, "fusion_lon": 0.0}, {"name": "62c527ccec3dff4463ff72faaacc3818", "is_disabled": 0, "lat": 38.980477666666665, "rental_uris": {"ios": "https://dc.lft.to/lastmile_qr_scan", "android": "https://dc.lft.to/lastmile_qr_scan"}, "bike_id": "62c527ccec3dff4463ff72faaacc3818", "type": "electric_bike", "lon": -76.95787066666666, "is_reserved": 0, "fusion_lat": 0.0, "fusion_lon": 0.0}, {"name": "b9c113c058ff3c53915cb9bec53fc52d", "is_disabled": 0, "lat": 38.899339499999996, "rental_uris": {"ios": "https://dc.lft.to/lastmile_qr_scan", "android": "https://dc.lft.to/lastmile_qr_scan"}, "bike_id": "b9c113c058ff3c53915cb9bec53fc52d", "type": "electric_scooter", "lon": -77.012731, "is_reserved": 0, "fusion_lat": 0.0, "fusion_lon": 0.0}, {"name": "ce4107f36cfe0e3eaf802ed85d2eb50d", "is_disabled": 0, "lat": 38.914007833333336, "rental_uris": {"ios": "https://dc.lft.to/lastmile_qr_scan", "android": "https://dc.lft.to/lastmile_qr_scan"}, "bike_id": "ce4107f36cfe0e3eaf802ed85d2eb50d", "type": "electric_scooter", "lon": -77.03210916666667, "is_reserved": 0, "fusion_lat": 0.0, "fusion_lon": 0.0}, {"name": "81d5c75acd30ccc0f75d1a931e5eb835", "is_disabled": 0, "lat": 38.895484833333335, "rental_uris": {"ios": "https://dc.lft.to/lastmile_qr_scan", "android": "https://dc.lft.to/lastmile_qr_scan"}, "bike_id": "81d5c75acd30ccc0f75d1a931e5eb835", "type": "electric_scooter", "lon": -77.00918016666667, "is_reserved": 0, "fusion_lat": 0.0, "fusion_lon": 0.0}, {"name": "44a66e8f4b97533f2f72f4c12423efe2", "is_disabled": 0, "lat": 38.8984555, "rental_uris": {"ios": "https://dc.lft.to/lastmile_qr_scan", "android": "https://dc.lft.to/lastmile_qr_scan"}, "bike_id": "44a66e8f4b97533f2f72f4c12423efe2", "type": "electric_scooter", "lon": -77.02195116666667, "is_reserved": 0, "fusion_lat": 0.0, "fusion_lon": 0.0}, {"name": "4fb9f6ec744339b6dd4afbf5c0e96c54", "is_disabled": 0, "lat": 38.925037, "rental_uris": {"ios": "https://dc.lft.to/lastmile_qr_scan", "android": "https://dc.lft.to/lastmile_qr_scan"}, "bike_id": "4fb9f6ec744339b6dd4afbf5c0e96c54", "type": "electric_scooter", "lon": -77.02399916666667, "is_reserved": 0, "fusion_lat": 0.0, "fusion_lon": 0.0}, {"name": "b1b4936f289c63d72708826c7dc1d57d", "is_disabled": 0, "lat": 38.9385135, "rental_uris": {"ios": "https://dc.lft.to/lastmile_qr_scan", "android": "https://dc.lft.to/lastmile_qr_scan"}, "bike_id": "b1b4936f289c63d72708826c7dc1d57d", "type": "electric_scooter", "lon": -77.02473133333334, "is_reserved": 0, "fusion_lat": 0.0, "fusion_lon": 0.0}, {"name": "943bfcc23877e14b56ae36e72b84b031", "is_disabled": 0, "lat": 38.9192845, "rental_uris": {"ios": "https://dc.lft.to/lastmile_qr_scan", "android": "https://dc.lft.to/lastmile_qr_scan"}, "bike_id": "943bfcc23877e14b56ae36e72b84b031", "type": "electric_scooter", "lon": -77.0325215, "is_reserved": 0, "fusion_lat": 0.0, "fusion_lon": 0.0}, {"name": "93d0b349023d168fcc44716ec36bf7b9", "is_disabled": 0, "lat": 38.90273583333333, "rental_uris": {"ios": "https://dc.lft.to/lastmile_qr_scan", "android": "https://dc.lft.to/lastmile_qr_scan"}, "bike_id": "93d0b349023d168fcc44716ec36bf7b9", "type": "electric_scooter", "lon": -77.05311216666666, "is_reserved": 0, "fusion_lat": 0.0, "fusion_lon": 0.0}, {"name": "af63caff1609a21a964fc717d5b0118a", "is_disabled": 0, "lat": 38.941938, "rental_uris": {"ios": "https://dc.lft.to/lastmile_qr_scan", "android": "https://dc.lft.to/lastmile_qr_scan"}, "bike_id": "af63caff1609a21a964fc717d5b0118a", "type": "electric_scooter", "lon": -77.041139, "is_reserved": 0, "fusion_lat": 0.0, "fusion_lon": 0.0}, {"name": "98ceb40e387dfbed29801af83f3c1ed1", "is_disabled": 0, "lat": 38.902898, "rental_uris": {"ios": "https://dc.lft.to/lastmile_qr_scan", "android": "https://dc.lft.to/lastmile_qr_scan"}, "bike_id": "98ceb40e387dfbed29801af83f3c1ed1", "type": "electric_scooter", "lon": -77.03365016666666, "is_reserved": 0, "fusion_lat": 0.0, "fusion_lon": 0.0}, {"name": "f0d07c0f57b78d74753fb557b6125124", "is_disabled": 0, "lat": 38.912676166666664, "rental_uris": {"ios": "https://dc.lft.to/lastmile_qr_scan", "android": "https://dc.lft.to/lastmile_qr_scan"}, "bike_id": "f0d07c0f57b78d74753fb557b6125124", "type": "electric_scooter", "lon": -77.02821516666667, "is_reserved": 0, "fusion_lat": 0.0, "fusion_lon": 0.0}, {"name": "14769c79aecf8005ee646dd394b46a9c", "is_disabled": 0, "lat": 38.937841166666665, "rental_uris": {"ios": "https://dc.lft.to/lastmile_qr_scan", "android": "https://dc.lft.to/lastmile_qr_scan"}, "bike_id": "14769c79aecf8005ee646dd394b46a9c", "type": "electric_scooter", "lon": -77.0326085, "is_reserved": 0, "fusion_lat": 0.0, "fusion_lon": 0.0}, {"name": "c7e10c566d8913b2ac3243a1a411498f", "is_disabled": 0, "lat": 38.89212583333333, "rental_uris": {"ios": "https://dc.lft.to/lastmile_qr_scan", "android": "https://dc.lft.to/lastmile_qr_scan"}, "bike_id": "c7e10c566d8913b2ac3243a1a411498f", "type": "electric_scooter", "lon": -76.995729, "is_reserved": 0, "fusion_lat": 0.0, "fusion_lon": 0.0}, {"name": "874bbbb144b6f6c08aaa6eb834ca4bd9", "is_disabled": 0, "lat": 38.956069666666664, "rental_uris": {"ios": "https://dc.lft.to/lastmile_qr_scan", "android": "https://dc.lft.to/lastmile_qr_scan"}, "bike_id": "874bbbb144b6f6c08aaa6eb834ca4bd9", "type": "electric_scooter", "lon": -77.03354966666667, "is_reserved": 0, "fusion_lat": 0.0, "fusion_lon": 0.0}, {"name": "76b36cf20a6d8fa233f0b4feb97e6416", "is_disabled": 0, "lat": 38.91196, "rental_uris": {"ios": "https://dc.lft.to/lastmile_qr_scan", "android": "https://dc.lft.to/lastmile_qr_scan"}, "bike_id": "76b36cf20a6d8fa233f0b4feb97e6416", "type": "electric_scooter", "lon": -77.0375505, "is_reserved": 0, "fusion_lat": 0.0, "fusion_lon": 0.0}, {"name": "9869bde3cd799cda30b429358f3384cb", "is_disabled": 0, "lat": 38.89614516666666, "rental_uris": {"ios": "https://dc.lft.to/lastmile_qr_scan", "android": "https://dc.lft.to/lastmile_qr_scan"}, "bike_id": "9869bde3cd799cda30b429358f3384cb", "type": "electric_scooter", "lon": -77.02350433333334, "is_reserved": 0, "fusion_lat": 0.0, "fusion_lon": 0.0}, {"name": "8f3913b187ad4349fe1de946f2690215", "is_disabled": 0, "lat": 38.9182085, "rental_uris": {"ios": "https://dc.lft.to/lastmile_qr_scan", "android": "https://dc.lft.to/lastmile_qr_scan"}, "bike_id": "8f3913b187ad4349fe1de946f2690215", "type": "electric_scooter", "lon": -77.03996716666667, "is_reserved": 0, "fusion_lat": 0.0, "fusion_lon": 0.0}, {"name": "ebad6dafc45fb6566751851f4f75da82", "is_disabled": 0, "lat": 38.91274266666667, "rental_uris": {"ios": "https://dc.lft.to/lastmile_qr_scan", "android": "https://dc.lft.to/lastmile_qr_scan"}, "bike_id": "ebad6dafc45fb6566751851f4f75da82", "type": "electric_scooter", "lon": -77.02231233333333, "is_reserved": 0, "fusion_lat": 0.0, "fusion_lon": 0.0}, {"name": "7a0ca909e537829e34e9af9c69a52522", "is_disabled": 0, "lat": 38.92330616666667, "rental_uris": {"ios": "https://dc.lft.to/lastmile_qr_scan", "android": "https://dc.lft.to/lastmile_qr_scan"}, "bike_id": "7a0ca909e537829e34e9af9c69a52522", "type": "electric_scooter", "lon": -77.05684933333333, "is_reserved": 0, "fusion_lat": 0.0, "fusion_lon": 0.0}, {"name": "69b7af812cb40d5170621102183db654", "is_disabled": 0, "lat": 38.90562333333333, "rental_uris": {"ios": "https://dc.lft.to/lastmile_qr_scan", "android": "https://dc.lft.to/lastmile_qr_scan"}, "bike_id": "69b7af812cb40d5170621102183db654", "type": "electric_scooter", "lon": -77.03743516666667, "is_reserved": 0, "fusion_lat": 0.0, "fusion_lon": 0.0}, {"name": "31db868f6e28e243b7a119985a3a58cd", "is_disabled": 0, "lat": 38.90658533333333, "rental_uris": {"ios": "https://dc.lft.to/lastmile_qr_scan", "android": "https://dc.lft.to/lastmile_qr_scan"}, "bike_id": "31db868f6e28e243b7a119985a3a58cd", "type": "electric_scooter", "lon": -77.00928416666666, "is_reserved": 0, "fusion_lat": 0.0, "fusion_lon": 0.0}, {"name": "93c6a3ca12299f761b8c3481a14a5f6f", "is_disabled": 0, "lat": 38.921001333333336, "rental_uris": {"ios": "https://dc.lft.to/lastmile_qr_scan", "android": "https://dc.lft.to/lastmile_qr_scan"}, "bike_id": "93c6a3ca12299f761b8c3481a14a5f6f", "type": "electric_scooter", "lon": -77.0254125, "is_reserved": 0, "fusion_lat": 0.0, "fusion_lon": 0.0}, {"name": "a7a0604fb0fbaa10f88e7ed54de66e17", "is_disabled": 0, "lat": 38.90476266666667, "rental_uris": {"ios": "https://dc.lft.to/lastmile_qr_scan", "android": "https://dc.lft.to/lastmile_qr_scan"}, "bike_id": "a7a0604fb0fbaa10f88e7ed54de66e17", "type": "electric_scooter", "lon": -77.0488555, "is_reserved": 0, "fusion_lat": 0.0, "fusion_lon": 0.0}, {"name": "b0fec3b38fc869cf1214fdbc2c9401e0", "is_disabled": 0, "lat": 38.883451, "rental_uris": {"ios": "https://dc.lft.to/lastmile_qr_scan", "android": "https://dc.lft.to/lastmile_qr_scan"}, "bike_id": "b0fec3b38fc869cf1214fdbc2c9401e0", "type": "electric_scooter", "lon": -76.93504433333334, "is_reserved": 0, "fusion_lat": 0.0, "fusion_lon": 0.0}, {"name": "4cfdad4af432d58bc7062f99a1ae4d59", "is_disabled": 0, "lat": 38.897329, "rental_uris": {"ios": "https://dc.lft.to/lastmile_qr_scan", "android": "https://dc.lft.to/lastmile_qr_scan"}, "bike_id": "4cfdad4af432d58bc7062f99a1ae4d59", "type": "electric_scooter", "lon": -77.04734366666666, "is_reserved": 0, "fusion_lat": 0.0, "fusion_lon": 0.0}, {"name": "c9f95c51ef2b4a0c7b8ea28db8f31d76", "is_disabled": 0, "lat": 38.851789833333335, "rental_uris": {"ios": "https://dc.lft.to/lastmile_qr_scan", "android": "https://dc.lft.to/lastmile_qr_scan"}, "bike_id": "c9f95c51ef2b4a0c7b8ea28db8f31d76", "type": "electric_scooter", "lon": -76.9957745, "is_reserved": 0, "fusion_lat": 0.0, "fusion_lon": 0.0}, {"name": "1966570a4c44e78923b34e7db772a58c", "is_disabled": 0, "lat": 38.94724166666666, "rental_uris": {"ios": "https://dc.lft.to/lastmile_qr_scan", "android": "https://dc.lft.to/lastmile_qr_scan"}, "bike_id": "1966570a4c44e78923b34e7db772a58c", "type": "electric_scooter", "lon": -77.065434, "is_reserved": 0, "fusion_lat": 0.0, "fusion_lon": 0.0}, {"name": "4c51b5178eb489ee8440c57e790f3aeb", "is_disabled": 0, "lat": 38.88730116666667, "rental_uris": {"ios": "https://dc.lft.to/lastmile_qr_scan", "android": "https://dc.lft.to/lastmile_qr_scan"}, "bike_id": "4c51b5178eb489ee8440c57e790f3aeb", "type": "electric_scooter", "lon": -77.031707, "is_reserved": 0, "fusion_lat": 0.0, "fusion_lon": 0.0}, {"name": "7ce163f8ef60abfb58472480e36b87f9", "is_disabled": 0, "lat": 38.901317666666664, "rental_uris": {"ios": "https://dc.lft.to/lastmile_qr_scan", "android": "https://dc.lft.to/lastmile_qr_scan"}, "bike_id": "7ce163f8ef60abfb58472480e36b87f9", "type": "electric_scooter", "lon": -77.04182066666667, "is_reserved": 0, "fusion_lat": 0.0, "fusion_lon": 0.0}, {"name": "dcf8167d85d2af4d621fc190fbabddaf", "is_disabled": 0, "lat": 38.92035516666667, "rental_uris": {"ios": "https://dc.lft.to/lastmile_qr_scan", "android": "https://dc.lft.to/lastmile_qr_scan"}, "bike_id": "dcf8167d85d2af4d621fc190fbabddaf", "type": "electric_scooter", "lon": -76.9899185, "is_reserved": 0, "fusion_lat": 0.0, "fusion_lon": 0.0}, {"name": "8d61963b2e65ffb00e6c7e8ae11e3da1", "is_disabled": 0, "lat": 38.96238016666667, "rental_uris": {"ios": "https://dc.lft.to/lastmile_qr_scan", "android": "https://dc.lft.to/lastmile_qr_scan"}, "bike_id": "8d61963b2e65ffb00e6c7e8ae11e3da1", "type": "electric_bike", "lon": -76.92796466666667, "is_reserved": 0, "fusion_lat": 0.0, "fusion_lon": 0.0}, {"name": "6e593f7a3d9d067fb382647c33694da2", "is_disabled": 0, "lat": 38.899951333333334, "rental_uris": {"ios": "https://dc.lft.to/lastmile_qr_scan", "android": "https://dc.lft.to/lastmile_qr_scan"}, "bike_id": "6e593f7a3d9d067fb382647c33694da2", "type": "electric_scooter", "lon": -77.022938, "is_reserved": 0, "fusion_lat": 0.0, "fusion_lon": 0.0}, {"name": "518fcad7f2854a2a49dafa2a65208930", "is_disabled": 0, "lat": 38.887399, "rental_uris": {"ios": "https://dc.lft.to/lastmile_qr_scan", "android": "https://dc.lft.to/lastmile_qr_scan"}, "bike_id": "518fcad7f2854a2a49dafa2a65208930", "type": "electric_scooter", "lon": -77.0212975, "is_reserved": 0, "fusion_lat": 0.0, "fusion_lon": 0.0}, {"name": "e4c8b2925f8976d1e7d38a726e0304a3", "is_disabled": 0, "lat": 38.9025195, "rental_uris": {"ios": "https://dc.lft.to/lastmile_qr_scan", "android": "https://dc.lft.to/lastmile_qr_scan"}, "bike_id": "e4c8b2925f8976d1e7d38a726e0304a3", "type": "electric_scooter", "lon": -77.04551016666667, "is_reserved": 0, "fusion_lat": 0.0, "fusion_lon": 0.0}, {"name": "3b93f3fd3871222430c14bf2ab07eb13", "is_disabled": 0, "lat": 38.93248633333333, "rental_uris": {"ios": "https://dc.lft.to/lastmile_qr_scan", "android": "https://dc.lft.to/lastmile_qr_scan"}, "bike_id": "3b93f3fd3871222430c14bf2ab07eb13", "type": "electric_scooter", "lon": -77.02951883333333, "is_reserved": 0, "fusion_lat": 0.0, "fusion_lon": 0.0}, {"name": "78165749100cdd7ac583bbc84ccf26f4", "is_disabled": 0, "lat": 38.92707733333334, "rental_uris": {"ios": "https://dc.lft.to/lastmile_qr_scan", "android": "https://dc.lft.to/lastmile_qr_scan"}, "bike_id": "78165749100cdd7ac583bbc84ccf26f4", "type": "electric_scooter", "lon": -77.053456, "is_reserved": 0, "fusion_lat": 0.0, "fusion_lon": 0.0}, {"name": "444d4d48dbf5f96097a3bb94d606ca00", "is_disabled": 0, "lat": 38.90902483333333, "rental_uris": {"ios": "https://dc.lft.to/lastmile_qr_scan", "android": "https://dc.lft.to/lastmile_qr_scan"}, "bike_id": "444d4d48dbf5f96097a3bb94d606ca00", "type": "electric_scooter", "lon": -77.0441345, "is_reserved": 0, "fusion_lat": 0.0, "fusion_lon": 0.0}, {"name": "62a06ba5d9ab3b0024de3758d06c8e71", "is_disabled": 0, "lat": 38.897281, "rental_uris": {"ios": "https://dc.lft.to/lastmile_qr_scan", "android": "https://dc.lft.to/lastmile_qr_scan"}, "bike_id": "62a06ba5d9ab3b0024de3758d06c8e71", "type": "electric_scooter", "lon": -77.0186795, "is_reserved": 0, "fusion_lat": 0.0, "fusion_lon": 0.0}, {"name": "f96557e0247a54c59dad3aed922fa11f", "is_disabled": 0, "lat": 38.934555333333336, "rental_uris": {"ios": "https://dc.lft.to/lastmile_qr_scan", "android": "https://dc.lft.to/lastmile_qr_scan"}, "bike_id": "f96557e0247a54c59dad3aed922fa11f", "type": "electric_scooter", "lon": -77.03866466666666, "is_reserved": 0, "fusion_lat": 0.0, "fusion_lon": 0.0}, {"name": "007c15df0538b4e8e97680a39a028e83", "is_disabled": 0, "lat": 38.916967, "rental_uris": {"ios": "https://dc.lft.to/lastmile_qr_scan", "android": "https://dc.lft.to/lastmile_qr_scan"}, "bike_id": "007c15df0538b4e8e97680a39a028e83", "type": "electric_scooter", "lon": -77.02740066666667, "is_reserved": 0, "fusion_lat": 0.0, "fusion_lon": 0.0}, {"name": "ce94a4a6d43098129ec81935bd479209", "is_disabled": 0, "lat": 38.932505, "rental_uris": {"ios": "https://dc.lft.to/lastmile_qr_scan", "android": "https://dc.lft.to/lastmile_qr_scan"}, "bike_id": "ce94a4a6d43098129ec81935bd479209", "type": "electric_scooter", "lon": -77.02969766666666, "is_reserved": 0, "fusion_lat": 0.0, "fusion_lon": 0.0}, {"name": "cbd1eb2395dd6ff133b45ec275bc4893", "is_disabled": 0, "lat": 38.897237833333335, "rental_uris": {"ios": "https://dc.lft.to/lastmile_qr_scan", "android": "https://dc.lft.to/lastmile_qr_scan"}, "bike_id": "cbd1eb2395dd6ff133b45ec275bc4893", "type": "electric_scooter", "lon": -77.00346383333333, "is_reserved": 0, "fusion_lat": 0.0, "fusion_lon": 0.0}, {"name": "6c8f9f00c1b9d09652ac125c313e43f3", "is_disabled": 0, "lat": 38.946802166666664, "rental_uris": {"ios": "https://dc.lft.to/lastmile_qr_scan", "android": "https://dc.lft.to/lastmile_qr_scan"}, "bike_id": "6c8f9f00c1b9d09652ac125c313e43f3", "type": "electric_bike", "lon": -76.95673183333334, "is_reserved": 0, "fusion_lat": 0.0, "fusion_lon": 0.0}, {"name": "01cbd39276eb718439b092b24bd419f4", "is_disabled": 0, "lat": 38.91695766666667, "rental_uris": {"ios": "https://dc.lft.to/lastmile_qr_scan", "android": "https://dc.lft.to/lastmile_qr_scan"}, "bike_id": "01cbd39276eb718439b092b24bd419f4", "type": "electric_scooter", "lon": -77.02647466666667, "is_reserved": 0, "fusion_lat": 0.0, "fusion_lon": 0.0}, {"name": "cb2dbcc7be718f74b60175de96d945b8", "is_disabled": 0, "lat": 38.90981083333333, "rental_uris": {"ios": "https://dc.lft.to/lastmile_qr_scan", "android": "https://dc.lft.to/lastmile_qr_scan"}, "bike_id": "cb2dbcc7be718f74b60175de96d945b8", "type": "electric_scooter", "lon": -77.034396, "is_reserved": 0, "fusion_lat": 0.0, "fusion_lon": 0.0}, {"name": "ff205003e7ca20eda7f9940c619b35a7", "is_disabled": 0, "lat": 38.909532, "rental_uris": {"ios": "https://dc.lft.to/lastmile_qr_scan", "android": "https://dc.lft.to/lastmile_qr_scan"}, "bike_id": "ff205003e7ca20eda7f9940c619b35a7", "type": "electric_scooter", "lon": -77.0271225, "is_reserved": 0, "fusion_lat": 0.0, "fusion_lon": 0.0}, {"name": "48c7b37cd5e63cf51993e69f3d28fbb0", "is_disabled": 0, "lat": 38.908591333333334, "rental_uris": {"ios": "https://dc.lft.to/lastmile_qr_scan", "android": "https://dc.lft.to/lastmile_qr_scan"}, "bike_id": "48c7b37cd5e63cf51993e69f3d28fbb0", "type": "electric_bike", "lon": -77.04428, "is_reserved": 0, "fusion_lat": 0.0, "fusion_lon": 0.0}, {"name": "795960d64940da4d24b9238d91800aab", "is_disabled": 0, "lat": 38.89223283333333, "rental_uris": {"ios": "https://dc.lft.to/lastmile_qr_scan", "android": "https://dc.lft.to/lastmile_qr_scan"}, "bike_id": "795960d64940da4d24b9238d91800aab", "type": "electric_scooter", "lon": -77.0450445, "is_reserved": 0, "fusion_lat": 0.0, "fusion_lon": 0.0}, {"name": "6de46d92f5e34611c522d42d1f070c9e", "is_disabled": 0, "lat": 38.94018583333333, "rental_uris": {"ios": "https://dc.lft.to/lastmile_qr_scan", "android": "https://dc.lft.to/lastmile_qr_scan"}, "bike_id": "6de46d92f5e34611c522d42d1f070c9e", "type": "electric_scooter", "lon": -77.02543416666667, "is_reserved": 0, "fusion_lat": 0.0, "fusion_lon": 0.0}, {"name": "3a763686c59a305f36c4404f5063e491", "is_disabled": 0, "lat": 38.905522833333336, "rental_uris": {"ios": "https://dc.lft.to/lastmile_qr_scan", "android": "https://dc.lft.to/lastmile_qr_scan"}, "bike_id": "3a763686c59a305f36c4404f5063e491", "type": "electric_scooter", "lon": -77.0059525, "is_reserved": 0, "fusion_lat": 0.0, "fusion_lon": 0.0}, {"name": "a4baa42127b61b3ec3545139f276cf62", "is_disabled": 0, "lat": 38.90717466666667, "rental_uris": {"ios": "https://dc.lft.to/lastmile_qr_scan", "android": "https://dc.lft.to/lastmile_qr_scan"}, "bike_id": "a4baa42127b61b3ec3545139f276cf62", "type": "electric_scooter", "lon": -77.027125, "is_reserved": 0, "fusion_lat": 0.0, "fusion_lon": 0.0}, {"name": "6f3ba0aa0f815c9c1c2feab8ca3c6699", "is_disabled": 0, "lat": 38.906788666666664, "rental_uris": {"ios": "https://dc.lft.to/lastmile_qr_scan", "android": "https://dc.lft.to/lastmile_qr_scan"}, "bike_id": "6f3ba0aa0f815c9c1c2feab8ca3c6699", "type": "electric_scooter", "lon": -77.036704, "is_reserved": 0, "fusion_lat": 0.0, "fusion_lon": 0.0}, {"name": "3cda09d27e3aebdcbc4343cc9ae416f5", "is_disabled": 0, "lat": 38.94730283333333, "rental_uris": {"ios": "https://dc.lft.to/lastmile_qr_scan", "android": "https://dc.lft.to/lastmile_qr_scan"}, "bike_id": "3cda09d27e3aebdcbc4343cc9ae416f5", "type": "electric_scooter", "lon": -77.027695, "is_reserved": 0, "fusion_lat": 0.0, "fusion_lon": 0.0}, {"name": "c8c74a634a41f6e1cfade0ef70c6c3e7", "is_disabled": 0, "lat": 38.924752166666664, "rental_uris": {"ios": "https://dc.lft.to/lastmile_qr_scan", "android": "https://dc.lft.to/lastmile_qr_scan"}, "bike_id": "c8c74a634a41f6e1cfade0ef70c6c3e7", "type": "electric_scooter", "lon": -77.03955633333334, "is_reserved": 0, "fusion_lat": 0.0, "fusion_lon": 0.0}, {"name": "33c70361abc1d9c1f27a964d122bb14f", "is_disabled": 0, "lat": 38.910188833333336, "rental_uris": {"ios": "https://dc.lft.to/lastmile_qr_scan", "android": "https://dc.lft.to/lastmile_qr_scan"}, "bike_id": "33c70361abc1d9c1f27a964d122bb14f", "type": "electric_scooter", "lon": -77.038524, "is_reserved": 0, "fusion_lat": 0.0, "fusion_lon": 0.0}, {"name": "913a1cf0ce38e97039269ffd6cfbb479", "is_disabled": 0, "lat": 38.90747966666667, "rental_uris": {"ios": "https://dc.lft.to/lastmile_qr_scan", "android": "https://dc.lft.to/lastmile_qr_scan"}, "bike_id": "913a1cf0ce38e97039269ffd6cfbb479", "type": "electric_scooter", "lon": -77.0347145, "is_reserved": 0, "fusion_lat": 0.0, "fusion_lon": 0.0}, {"name": "d70122f3ab09a44954a96722ddec6cd6", "is_disabled": 0, "lat": 38.887472833333334, "rental_uris": {"ios": "https://dc.lft.to/lastmile_qr_scan", "android": "https://dc.lft.to/lastmile_qr_scan"}, "bike_id": "d70122f3ab09a44954a96722ddec6cd6", "type": "electric_scooter", "lon": -77.01775016666667, "is_reserved": 0, "fusion_lat": 0.0, "fusion_lon": 0.0}, {"name": "6018f5724e09dec3783cd3c51ac4a040", "is_disabled": 0, "lat": 38.9141185, "rental_uris": {"ios": "https://dc.lft.to/lastmile_qr_scan", "android": "https://dc.lft.to/lastmile_qr_scan"}, "bike_id": "6018f5724e09dec3783cd3c51ac4a040", "type": "electric_scooter", "lon": -77.0248315, "is_reserved": 0, "fusion_lat": 0.0, "fusion_lon": 0.0}, {"name": "46f31c80aa64f4d6613ff95bd6f505c6", "is_disabled": 0, "lat": 38.90618766666667, "rental_uris": {"ios": "https://dc.lft.to/lastmile_qr_scan", "android": "https://dc.lft.to/lastmile_qr_scan"}, "bike_id": "46f31c80aa64f4d6613ff95bd6f505c6", "type": "electric_scooter", "lon": -77.01490016666666, "is_reserved": 0, "fusion_lat": 0.0, "fusion_lon": 0.0}, {"name": "83ea44bcfbfd9ce30402cef41f32e7bd", "is_disabled": 0, "lat": 38.88768983333333, "rental_uris": {"ios": "https://dc.lft.to/lastmile_qr_scan", "android": "https://dc.lft.to/lastmile_qr_scan"}, "bike_id": "83ea44bcfbfd9ce30402cef41f32e7bd", "type": "electric_scooter", "lon": -77.02944733333334, "is_reserved": 0, "fusion_lat": 0.0, "fusion_lon": 0.0}, {"name": "91f56f6318cc65dcd1dcb96f229374c6", "is_disabled": 0, "lat": 38.91959266666667, "rental_uris": {"ios": "https://dc.lft.to/lastmile_qr_scan", "android": "https://dc.lft.to/lastmile_qr_scan"}, "bike_id": "91f56f6318cc65dcd1dcb96f229374c6", "type": "electric_scooter", "lon": -77.02401633333334, "is_reserved": 0, "fusion_lat": 0.0, "fusion_lon": 0.0}, {"name": "1a5a3afa729a2a2e3197c7efeacbdc60", "is_disabled": 0, "lat": 38.9327875, "rental_uris": {"ios": "https://dc.lft.to/lastmile_qr_scan", "android": "https://dc.lft.to/lastmile_qr_scan"}, "bike_id": "1a5a3afa729a2a2e3197c7efeacbdc60", "type": "electric_scooter", "lon": -77.02864766666667, "is_reserved": 0, "fusion_lat": 0.0, "fusion_lon": 0.0}, {"name": "64291172f351f934267cb2e76a0ab3ef", "is_disabled": 0, "lat": 38.900852, "rental_uris": {"ios": "https://dc.lft.to/lastmile_qr_scan", "android": "https://dc.lft.to/lastmile_qr_scan"}, "bike_id": "64291172f351f934267cb2e76a0ab3ef", "type": "electric_scooter", "lon": -77.04902516666667, "is_reserved": 0, "fusion_lat": 0.0, "fusion_lon": 0.0}, {"name": "70e8a82d38a070fa79a9c2967f0f4b52", "is_disabled": 0, "lat": 38.902036333333335, "rental_uris": {"ios": "https://dc.lft.to/lastmile_qr_scan", "android": "https://dc.lft.to/lastmile_qr_scan"}, "bike_id": "70e8a82d38a070fa79a9c2967f0f4b52", "type": "electric_scooter", "lon": -77.02374183333333, "is_reserved": 0, "fusion_lat": 0.0, "fusion_lon": 0.0}, {"name": "efe6af594b300b1a26d651505bcb0551", "is_disabled": 0, "lat": 38.91965866666666, "rental_uris": {"ios": "https://dc.lft.to/lastmile_qr_scan", "android": "https://dc.lft.to/lastmile_qr_scan"}, "bike_id": "efe6af594b300b1a26d651505bcb0551", "type": "electric_scooter", "lon": -77.024039, "is_reserved": 0, "fusion_lat": 0.0, "fusion_lon": 0.0}, {"name": "bef3a316f850ca2d82d3a3c2840e2cc6", "is_disabled": 0, "lat": 38.92316566666667, "rental_uris": {"ios": "https://dc.lft.to/lastmile_qr_scan", "android": "https://dc.lft.to/lastmile_qr_scan"}, "bike_id": "bef3a316f850ca2d82d3a3c2840e2cc6", "type": "electric_scooter", "lon": -77.04040333333333, "is_reserved": 0, "fusion_lat": 0.0, "fusion_lon": 0.0}, {"name": "a14b1b3de102940aefdc3d86481e6fc8", "is_disabled": 0, "lat": 39.010800333333336, "rental_uris": {"ios": "https://dc.lft.to/lastmile_qr_scan", "android": "https://dc.lft.to/lastmile_qr_scan"}, "bike_id": "a14b1b3de102940aefdc3d86481e6fc8", "type": "electric_bike", "lon": -76.91064466666667, "is_reserved": 0, "fusion_lat": 0.0, "fusion_lon": 0.0}, {"name": "7f8cd0829d09d3f5b26059f9d0dc5d7c", "is_disabled": 0, "lat": 38.89224683333333, "rental_uris": {"ios": "https://dc.lft.to/lastmile_qr_scan", "android": "https://dc.lft.to/lastmile_qr_scan"}, "bike_id": "7f8cd0829d09d3f5b26059f9d0dc5d7c", "type": "electric_scooter", "lon": -77.04502233333334, "is_reserved": 0, "fusion_lat": 0.0, "fusion_lon": 0.0}, {"name": "5ab7f3e3528757b6daaaac80286e0ab7", "is_disabled": 0, "lat": 38.924175, "rental_uris": {"ios": "https://dc.lft.to/lastmile_qr_scan", "android": "https://dc.lft.to/lastmile_qr_scan"}, "bike_id": "5ab7f3e3528757b6daaaac80286e0ab7", "type": "electric_scooter", "lon": -77.03640483333334, "is_reserved": 0, "fusion_lat": 0.0, "fusion_lon": 0.0}, {"name": "9cdba1f8a789451a27d5f7b5b81ccbef", "is_disabled": 0, "lat": 38.91701366666667, "rental_uris": {"ios": "https://dc.lft.to/lastmile_qr_scan", "android": "https://dc.lft.to/lastmile_qr_scan"}, "bike_id": "9cdba1f8a789451a27d5f7b5b81ccbef", "type": "electric_scooter", "lon": -77.02430883333334, "is_reserved": 0, "fusion_lat": 0.0, "fusion_lon": 0.0}, {"name": "2614bb50d57533723cbf59d358f6aea5", "is_disabled": 0, "lat": 38.89602333333333, "rental_uris": {"ios": "https://dc.lft.to/lastmile_qr_scan", "android": "https://dc.lft.to/lastmile_qr_scan"}, "bike_id": "2614bb50d57533723cbf59d358f6aea5", "type": "electric_scooter", "lon": -77.00924866666666, "is_reserved": 0, "fusion_lat": 0.0, "fusion_lon": 0.0}, {"name": "33d61d1dc862e3b117b878b908af398c", "is_disabled": 0, "lat": 38.89624333333333, "rental_uris": {"ios": "https://dc.lft.to/lastmile_qr_scan", "android": "https://dc.lft.to/lastmile_qr_scan"}, "bike_id": "33d61d1dc862e3b117b878b908af398c", "type": "electric_scooter", "lon": -76.998495, "is_reserved": 0, "fusion_lat": 0.0, "fusion_lon": 0.0}, {"name": "2f777c7403da25e2b59e8d21155abe96", "is_disabled": 0, "lat": 38.858025166666664, "rental_uris": {"ios": "https://dc.lft.to/lastmile_qr_scan", "android": "https://dc.lft.to/lastmile_qr_scan"}, "bike_id": "2f777c7403da25e2b59e8d21155abe96", "type": "electric_bike", "lon": -76.98741883333334, "is_reserved": 0, "fusion_lat": 0.0, "fusion_lon": 0.0}, {"name": "5017cf35e5224e1ea73d9b542f038511", "is_disabled": 0, "lat": 38.821732833333336, "rental_uris": {"ios": "https://dc.lft.to/lastmile_qr_scan", "android": "https://dc.lft.to/lastmile_qr_scan"}, "bike_id": "5017cf35e5224e1ea73d9b542f038511", "type": "electric_bike", "lon": -77.00149633333334, "is_reserved": 0, "fusion_lat": 0.0, "fusion_lon": 0.0}, {"name": "e7f6472e29bab765e9e54c804d06315a", "is_disabled": 0, "lat": 38.910328, "rental_uris": {"ios": "https://dc.lft.to/lastmile_qr_scan", "android": "https://dc.lft.to/lastmile_qr_scan"}, "bike_id": "e7f6472e29bab765e9e54c804d06315a", "type": "electric_scooter", "lon": -76.99344466666666, "is_reserved": 0, "fusion_lat": 0.0, "fusion_lon": 0.0}, {"name": "7fb421d35fb1e8a07d200f0d73de3294", "is_disabled": 0, "lat": 38.88398383333333, "rental_uris": {"ios": "https://dc.lft.to/lastmile_qr_scan", "android": "https://dc.lft.to/lastmile_qr_scan"}, "bike_id": "7fb421d35fb1e8a07d200f0d73de3294", "type": "electric_scooter", "lon": -77.01992983333334, "is_reserved": 0, "fusion_lat": 0.0, "fusion_lon": 0.0}, {"name": "c02bffdb0cb30fd324341fc68a6addf0", "is_disabled": 0, "lat": 38.90072383333333, "rental_uris": {"ios": "https://dc.lft.to/lastmile_qr_scan", "android": "https://dc.lft.to/lastmile_qr_scan"}, "bike_id": "c02bffdb0cb30fd324341fc68a6addf0", "type": "electric_scooter", "lon": -77.0509245, "is_reserved": 0, "fusion_lat": 0.0, "fusion_lon": 0.0}, {"name": "68f2d86187c328fcd3d2249292dba283", "is_disabled": 0, "lat": 38.91806616666667, "rental_uris": {"ios": "https://dc.lft.to/lastmile_qr_scan", "android": "https://dc.lft.to/lastmile_qr_scan"}, "bike_id": "68f2d86187c328fcd3d2249292dba283", "type": "electric_scooter", "lon": -77.04026166666667, "is_reserved": 0, "fusion_lat": 0.0, "fusion_lon": 0.0}, {"name": "f44d1a9535c81a41f56820cc3f6bb895", "is_disabled": 0, "lat": 38.91984433333333, "rental_uris": {"ios": "https://dc.lft.to/lastmile_qr_scan", "android": "https://dc.lft.to/lastmile_qr_scan"}, "bike_id": "f44d1a9535c81a41f56820cc3f6bb895", "type": "electric_scooter", "lon": -77.0217385, "is_reserved": 0, "fusion_lat": 0.0, "fusion_lon": 0.0}, {"name": "d407eb896ae8800e440cb4614ac89600", "is_disabled": 0, "lat": 38.918227, "rental_uris": {"ios": "https://dc.lft.to/lastmile_qr_scan", "android": "https://dc.lft.to/lastmile_qr_scan"}, "bike_id": "d407eb896ae8800e440cb4614ac89600", "type": "electric_scooter", "lon": -77.03998483333334, "is_reserved": 0, "fusion_lat": 0.0, "fusion_lon": 0.0}, {"name": "1d37879f129ffb638ab1b77537e45079", "is_disabled": 0, "lat": 38.895466, "rental_uris": {"ios": "https://dc.lft.to/lastmile_qr_scan", "android": "https://dc.lft.to/lastmile_qr_scan"}, "bike_id": "1d37879f129ffb638ab1b77537e45079", "type": "electric_scooter", "lon": -76.98336183333333, "is_reserved": 0, "fusion_lat": 0.0, "fusion_lon": 0.0}, {"name": "e03e185b86e2834a9d944360222bbd79", "is_disabled": 0, "lat": 38.842814, "rental_uris": {"ios": "https://dc.lft.to/lastmile_qr_scan", "android": "https://dc.lft.to/lastmile_qr_scan"}, "bike_id": "e03e185b86e2834a9d944360222bbd79", "type": "electric_bike", "lon": -76.98841983333334, "is_reserved": 0, "fusion_lat": 0.0, "fusion_lon": 0.0}, {"name": "3b7b096a7585fe0565b32519f065584a", "is_disabled": 0, "lat": 38.91120183333334, "rental_uris": {"ios": "https://dc.lft.to/lastmile_qr_scan", "android": "https://dc.lft.to/lastmile_qr_scan"}, "bike_id": "3b7b096a7585fe0565b32519f065584a", "type": "electric_scooter", "lon": -77.04402633333333, "is_reserved": 0, "fusion_lat": 0.0, "fusion_lon": 0.0}, {"name": "fcaedf9b2684b4af23b3d12f67a385d2", "is_disabled": 0, "lat": 38.91699033333333, "rental_uris": {"ios": "https://dc.lft.to/lastmile_qr_scan", "android": "https://dc.lft.to/lastmile_qr_scan"}, "bike_id": "fcaedf9b2684b4af23b3d12f67a385d2", "type": "electric_scooter", "lon": -77.035889, "is_reserved": 0, "fusion_lat": 0.0, "fusion_lon": 0.0}, {"name": "8e89466227435cac46494a762f10af20", "is_disabled": 0, "lat": 38.902132, "rental_uris": {"ios": "https://dc.lft.to/lastmile_qr_scan", "android": "https://dc.lft.to/lastmile_qr_scan"}, "bike_id": "8e89466227435cac46494a762f10af20", "type": "electric_scooter", "lon": -77.02372116666666, "is_reserved": 0, "fusion_lat": 0.0, "fusion_lon": 0.0}, {"name": "c7f3446311c64fbb8c3ced948d72fcff", "is_disabled": 0, "lat": 38.89614916666667, "rental_uris": {"ios": "https://dc.lft.to/lastmile_qr_scan", "android": "https://dc.lft.to/lastmile_qr_scan"}, "bike_id": "c7f3446311c64fbb8c3ced948d72fcff", "type": "electric_scooter", "lon": -77.0269655, "is_reserved": 0, "fusion_lat": 0.0, "fusion_lon": 0.0}, {"name": "1d50c5688255c655187a30667cae622c", "is_disabled": 0, "lat": 38.8861795, "rental_uris": {"ios": "https://dc.lft.to/lastmile_qr_scan", "android": "https://dc.lft.to/lastmile_qr_scan"}, "bike_id": "1d50c5688255c655187a30667cae622c", "type": "electric_scooter", "lon": -76.99539033333333, "is_reserved": 0, "fusion_lat": 0.0, "fusion_lon": 0.0}, {"name": "67428de77092b3b47adcab44a920c757", "is_disabled": 0, "lat": 38.937119, "rental_uris": {"ios": "https://dc.lft.to/lastmile_qr_scan", "android": "https://dc.lft.to/lastmile_qr_scan"}, "bike_id": "67428de77092b3b47adcab44a920c757", "type": "electric_scooter", "lon": -77.02379383333333, "is_reserved": 0, "fusion_lat": 0.0, "fusion_lon": 0.0}, {"name": "a5e1b13c811f1e15a958e625a127f613", "is_disabled": 0, "lat": 38.961878166666665, "rental_uris": {"ios": "https://dc.lft.to/lastmile_qr_scan", "android": "https://dc.lft.to/lastmile_qr_scan"}, "bike_id": "a5e1b13c811f1e15a958e625a127f613", "type": "electric_bike", "lon": -77.05265916666667, "is_reserved": 0, "fusion_lat": 0.0, "fusion_lon": 0.0}, {"name": "c571a001d295e7ef67c5d89cf253385f", "is_disabled": 0, "lat": 38.90544516666667, "rental_uris": {"ios": "https://dc.lft.to/lastmile_qr_scan", "android": "https://dc.lft.to/lastmile_qr_scan"}, "bike_id": "c571a001d295e7ef67c5d89cf253385f", "type": "electric_scooter", "lon": -77.04755983333334, "is_reserved": 0, "fusion_lat": 0.0, "fusion_lon": 0.0}, {"name": "c1bc8bc1731da06292f8418c5ef1c2a0", "is_disabled": 0, "lat": 38.965763333333335, "rental_uris": {"ios": "https://dc.lft.to/lastmile_qr_scan", "android": "https://dc.lft.to/lastmile_qr_scan"}, "bike_id": "c1bc8bc1731da06292f8418c5ef1c2a0", "type": "electric_scooter", "lon": -77.00265716666667, "is_reserved": 0, "fusion_lat": 0.0, "fusion_lon": 0.0}, {"name": "84d157234c6f04300a7388acb4075e2d", "is_disabled": 0, "lat": 38.91223816666667, "rental_uris": {"ios": "https://dc.lft.to/lastmile_qr_scan", "android": "https://dc.lft.to/lastmile_qr_scan"}, "bike_id": "84d157234c6f04300a7388acb4075e2d", "type": "electric_scooter", "lon": -77.0317705, "is_reserved": 0, "fusion_lat": 0.0, "fusion_lon": 0.0}, {"name": "29d6c402908bd2eacfa888311b469fe3", "is_disabled": 0, "lat": 38.89556683333333, "rental_uris": {"ios": "https://dc.lft.to/lastmile_qr_scan", "android": "https://dc.lft.to/lastmile_qr_scan"}, "bike_id": "29d6c402908bd2eacfa888311b469fe3", "type": "electric_scooter", "lon": -76.94870316666666, "is_reserved": 0, "fusion_lat": 0.0, "fusion_lon": 0.0}, {"name": "bae81bfafb3b5f27a2edd08b4a3eb474", "is_disabled": 0, "lat": 38.89710433333333, "rental_uris": {"ios": "https://dc.lft.to/lastmile_qr_scan", "android": "https://dc.lft.to/lastmile_qr_scan"}, "bike_id": "bae81bfafb3b5f27a2edd08b4a3eb474", "type": "electric_scooter", "lon": -77.01325016666667, "is_reserved": 0, "fusion_lat": 0.0, "fusion_lon": 0.0}, {"name": "5d7ee99dc87e2c723214f5bd2d18481e", "is_disabled": 0, "lat": 38.873750666666666, "rental_uris": {"ios": "https://dc.lft.to/lastmile_qr_scan", "android": "https://dc.lft.to/lastmile_qr_scan"}, "bike_id": "5d7ee99dc87e2c723214f5bd2d18481e", "type": "electric_scooter", "lon": -77.001241, "is_reserved": 0, "fusion_lat": 0.0, "fusion_lon": 0.0}, {"name": "671c214daafb658ae5fbb2e3b579b2d5", "is_disabled": 0, "lat": 38.867326166666665, "rental_uris": {"ios": "https://dc.lft.to/lastmile_qr_scan", "android": "https://dc.lft.to/lastmile_qr_scan"}, "bike_id": "671c214daafb658ae5fbb2e3b579b2d5", "type": "electric_scooter", "lon": -76.98786016666666, "is_reserved": 0, "fusion_lat": 0.0, "fusion_lon": 0.0}, {"name": "926d614e60fa16a86398d4ba6bb819ef", "is_disabled": 0, "lat": 38.902069, "rental_uris": {"ios": "https://dc.lft.to/lastmile_qr_scan", "android": "https://dc.lft.to/lastmile_qr_scan"}, "bike_id": "926d614e60fa16a86398d4ba6bb819ef", "type": "electric_scooter", "lon": -77.027576, "is_reserved": 0, "fusion_lat": 0.0, "fusion_lon": 0.0}, {"name": "8dfa9c6e95bce766d5604e65a5fb6116", "is_disabled": 0, "lat": 38.91196383333333, "rental_uris": {"ios": "https://dc.lft.to/lastmile_qr_scan", "android": "https://dc.lft.to/lastmile_qr_scan"}, "bike_id": "8dfa9c6e95bce766d5604e65a5fb6116", "type": "electric_scooter", "lon": -77.03036433333334, "is_reserved": 0, "fusion_lat": 0.0, "fusion_lon": 0.0}, {"name": "78411a8033b68c091b52d1ad3150d3ee", "is_disabled": 0, "lat": 38.920302666666664, "rental_uris": {"ios": "https://dc.lft.to/lastmile_qr_scan", "android": "https://dc.lft.to/lastmile_qr_scan"}, "bike_id": "78411a8033b68c091b52d1ad3150d3ee", "type": "electric_scooter", "lon": -77.01024233333334, "is_reserved": 0, "fusion_lat": 0.0, "fusion_lon": 0.0}, {"name": "1fba500c1bbc4e26a852ab016cc35b34", "is_disabled": 0, "lat": 38.90484566666667, "rental_uris": {"ios": "https://dc.lft.to/lastmile_qr_scan", "android": "https://dc.lft.to/lastmile_qr_scan"}, "bike_id": "1fba500c1bbc4e26a852ab016cc35b34", "type": "electric_scooter", "lon": -77.02107733333334, "is_reserved": 0, "fusion_lat": 0.0, "fusion_lon": 0.0}, {"name": "693d0cd95aad56a0d6f6e85599ade11b", "is_disabled": 0, "lat": 38.904279, "rental_uris": {"ios": "https://dc.lft.to/lastmile_qr_scan", "android": "https://dc.lft.to/lastmile_qr_scan"}, "bike_id": "693d0cd95aad56a0d6f6e85599ade11b", "type": "electric_scooter", "lon": -77.02396166666666, "is_reserved": 0, "fusion_lat": 0.0, "fusion_lon": 0.0}, {"name": "fab823f0122755a98ab7cfbb3ccd0f3f", "is_disabled": 0, "lat": 38.92418983333334, "rental_uris": {"ios": "https://dc.lft.to/lastmile_qr_scan", "android": "https://dc.lft.to/lastmile_qr_scan"}, "bike_id": "fab823f0122755a98ab7cfbb3ccd0f3f", "type": "electric_scooter", "lon": -77.05745416666667, "is_reserved": 0, "fusion_lat": 0.0, "fusion_lon": 0.0}, {"name": "774908e6830c4f70ba8d54646c0cfc51", "is_disabled": 0, "lat": 38.90816483333333, "rental_uris": {"ios": "https://dc.lft.to/lastmile_qr_scan", "android": "https://dc.lft.to/lastmile_qr_scan"}, "bike_id": "774908e6830c4f70ba8d54646c0cfc51", "type": "electric_scooter", "lon": -77.03441166666667, "is_reserved": 0, "fusion_lat": 0.0, "fusion_lon": 0.0}, {"name": "a65b0111c91c03cb4d1a8a1d0fd09188", "is_disabled": 0, "lat": 38.898534166666664, "rental_uris": {"ios": "https://dc.lft.to/lastmile_qr_scan", "android": "https://dc.lft.to/lastmile_qr_scan"}, "bike_id": "a65b0111c91c03cb4d1a8a1d0fd09188", "type": "electric_scooter", "lon": -77.03046116666667, "is_reserved": 0, "fusion_lat": 0.0, "fusion_lon": 0.0}, {"name": "db7d8b5271edf433bac90cce111dc53d", "is_disabled": 0, "lat": 38.91726166666667, "rental_uris": {"ios": "https://dc.lft.to/lastmile_qr_scan", "android": "https://dc.lft.to/lastmile_qr_scan"}, "bike_id": "db7d8b5271edf433bac90cce111dc53d", "type": "electric_scooter", "lon": -77.02703283333334, "is_reserved": 0, "fusion_lat": 0.0, "fusion_lon": 0.0}, {"name": "36092417fbe215352331eebe6a6e5f91", "is_disabled": 0, "lat": 38.883743333333335, "rental_uris": {"ios": "https://dc.lft.to/lastmile_qr_scan", "android": "https://dc.lft.to/lastmile_qr_scan"}, "bike_id": "36092417fbe215352331eebe6a6e5f91", "type": "electric_scooter", "lon": -76.99515716666667, "is_reserved": 0, "fusion_lat": 0.0, "fusion_lon": 0.0}, {"name": "d3a0d8bb428631271f6d84f5978b10eb", "is_disabled": 0, "lat": 38.93564383333333, "rental_uris": {"ios": "https://dc.lft.to/lastmile_qr_scan", "android": "https://dc.lft.to/lastmile_qr_scan"}, "bike_id": "d3a0d8bb428631271f6d84f5978b10eb", "type": "electric_bike", "lon": -77.036976, "is_reserved": 0, "fusion_lat": 0.0, "fusion_lon": 0.0}, {"name": "50f405d851c5e49a2805f26c695d1eb5", "is_disabled": 0, "lat": 38.90502883333333, "rental_uris": {"ios": "https://dc.lft.to/lastmile_qr_scan", "android": "https://dc.lft.to/lastmile_qr_scan"}, "bike_id": "50f405d851c5e49a2805f26c695d1eb5", "type": "electric_scooter", "lon": -77.04888183333334, "is_reserved": 0, "fusion_lat": 0.0, "fusion_lon": 0.0}, {"name": "a62935e28919ecaaf50b35f936a86462", "is_disabled": 0, "lat": 38.90377383333333, "rental_uris": {"ios": "https://dc.lft.to/lastmile_qr_scan", "android": "https://dc.lft.to/lastmile_qr_scan"}, "bike_id": "a62935e28919ecaaf50b35f936a86462", "type": "electric_scooter", "lon": -77.03832483333333, "is_reserved": 0, "fusion_lat": 0.0, "fusion_lon": 0.0}, {"name": "326c981c07ffd40b11d1edcaeb8d8016", "is_disabled": 0, "lat": 38.90042, "rental_uris": {"ios": "https://dc.lft.to/lastmile_qr_scan", "android": "https://dc.lft.to/lastmile_qr_scan"}, "bike_id": "326c981c07ffd40b11d1edcaeb8d8016", "type": "electric_scooter", "lon": -77.00204066666667, "is_reserved": 0, "fusion_lat": 0.0, "fusion_lon": 0.0}, {"name": "76b06bdf2804974f2726756703acbcff", "is_disabled": 0, "lat": 38.91728233333333, "rental_uris": {"ios": "https://dc.lft.to/lastmile_qr_scan", "android": "https://dc.lft.to/lastmile_qr_scan"}, "bike_id": "76b06bdf2804974f2726756703acbcff", "type": "electric_scooter", "lon": -77.02701516666667, "is_reserved": 0, "fusion_lat": 0.0, "fusion_lon": 0.0}, {"name": "b2d12cf9e3e8b603b01744a3fa86d070", "is_disabled": 0, "lat": 38.9091295, "rental_uris": {"ios": "https://dc.lft.to/lastmile_qr_scan", "android": "https://dc.lft.to/lastmile_qr_scan"}, "bike_id": "b2d12cf9e3e8b603b01744a3fa86d070", "type": "electric_scooter", "lon": -77.0421195, "is_reserved": 0, "fusion_lat": 0.0, "fusion_lon": 0.0}, {"name": "1dc6a1113edf65fb94ab22891c4797b3", "is_disabled": 0, "lat": 38.8872045, "rental_uris": {"ios": "https://dc.lft.to/lastmile_qr_scan", "android": "https://dc.lft.to/lastmile_qr_scan"}, "bike_id": "1dc6a1113edf65fb94ab22891c4797b3", "type": "electric_scooter", "lon": -77.02579833333333, "is_reserved": 0, "fusion_lat": 0.0, "fusion_lon": 0.0}, {"name": "a1f7e305afd0191832c9f1e23bb70438", "is_disabled": 0, "lat": 38.892453333333336, "rental_uris": {"ios": "https://dc.lft.to/lastmile_qr_scan", "android": "https://dc.lft.to/lastmile_qr_scan"}, "bike_id": "a1f7e305afd0191832c9f1e23bb70438", "type": "electric_scooter", "lon": -77.03185033333334, "is_reserved": 0, "fusion_lat": 0.0, "fusion_lon": 0.0}, {"name": "236fc0a81b2c53ab00ff062911c0f30f", "is_disabled": 0, "lat": 38.889935666666666, "rental_uris": {"ios": "https://dc.lft.to/lastmile_qr_scan", "android": "https://dc.lft.to/lastmile_qr_scan"}, "bike_id": "236fc0a81b2c53ab00ff062911c0f30f", "type": "electric_bike", "lon": -77.07130683333334, "is_reserved": 0, "fusion_lat": 0.0, "fusion_lon": 0.0}, {"name": "cd66cde5273554cf87e2462f3d92eeaa", "is_disabled": 0, "lat": 38.906861166666665, "rental_uris": {"ios": "https://dc.lft.to/lastmile_qr_scan", "android": "https://dc.lft.to/lastmile_qr_scan"}, "bike_id": "cd66cde5273554cf87e2462f3d92eeaa", "type": "electric_bike", "lon": -77.036551, "is_reserved": 0, "fusion_lat": 0.0, "fusion_lon": 0.0}, {"name": "3b633f38df5a8818c25715781b45704a", "is_disabled": 0, "lat": 38.909218, "rental_uris": {"ios": "https://dc.lft.to/lastmile_qr_scan", "android": "https://dc.lft.to/lastmile_qr_scan"}, "bike_id": "3b633f38df5a8818c25715781b45704a", "type": "electric_scooter", "lon": -76.99963, "is_reserved": 0, "fusion_lat": 0.0, "fusion_lon": 0.0}, {"name": "a9d62f58a69f861047e7146f7415a8f1", "is_disabled": 0, "lat": 38.938334166666664, "rental_uris": {"ios": "https://dc.lft.to/lastmile_qr_scan", "android": "https://dc.lft.to/lastmile_qr_scan"}, "bike_id": "a9d62f58a69f861047e7146f7415a8f1", "type": "electric_scooter", "lon": -76.99193966666667, "is_reserved": 0, "fusion_lat": 0.0, "fusion_lon": 0.0}, {"name": "11c394b5dc26305e2640390186c289e1", "is_disabled": 0, "lat": 38.905618, "rental_uris": {"ios": "https://dc.lft.to/lastmile_qr_scan", "android": "https://dc.lft.to/lastmile_qr_scan"}, "bike_id": "11c394b5dc26305e2640390186c289e1", "type": "electric_scooter", "lon": -77.003926, "is_reserved": 0, "fusion_lat": 0.0, "fusion_lon": 0.0}, {"name": "64d2b5d993fee6347b112359a1bad2a5", "is_disabled": 0, "lat": 38.90782183333334, "rental_uris": {"ios": "https://dc.lft.to/lastmile_qr_scan", "android": "https://dc.lft.to/lastmile_qr_scan"}, "bike_id": "64d2b5d993fee6347b112359a1bad2a5", "type": "electric_scooter", "lon": -77.03514633333333, "is_reserved": 0, "fusion_lat": 0.0, "fusion_lon": 0.0}, {"name": "47b115f44b2edf8f328578b6e532c146", "is_disabled": 0, "lat": 38.901279, "rental_uris": {"ios": "https://dc.lft.to/lastmile_qr_scan", "android": "https://dc.lft.to/lastmile_qr_scan"}, "bike_id": "47b115f44b2edf8f328578b6e532c146", "type": "electric_scooter", "lon": -77.03172983333333, "is_reserved": 0, "fusion_lat": 0.0, "fusion_lon": 0.0}, {"name": "05370287530f691df94df11bec030d5a", "is_disabled": 0, "lat": 38.904563, "rental_uris": {"ios": "https://dc.lft.to/lastmile_qr_scan", "android": "https://dc.lft.to/lastmile_qr_scan"}, "bike_id": "05370287530f691df94df11bec030d5a", "type": "electric_scooter", "lon": -77.00165333333334, "is_reserved": 0, "fusion_lat": 0.0, "fusion_lon": 0.0}, {"name": "3533c06f5168f2ce0e6c07a840d2dfcd", "is_disabled": 0, "lat": 38.887303, "rental_uris": {"ios": "https://dc.lft.to/lastmile_qr_scan", "android": "https://dc.lft.to/lastmile_qr_scan"}, "bike_id": "3533c06f5168f2ce0e6c07a840d2dfcd", "type": "electric_scooter", "lon": -77.01765233333333, "is_reserved": 0, "fusion_lat": 0.0, "fusion_lon": 0.0}, {"name": "a9231e9bffa217449fdf491e5995748c", "is_disabled": 0, "lat": 38.892224, "rental_uris": {"ios": "https://dc.lft.to/lastmile_qr_scan", "android": "https://dc.lft.to/lastmile_qr_scan"}, "bike_id": "a9231e9bffa217449fdf491e5995748c", "type": "electric_scooter", "lon": -77.02626316666667, "is_reserved": 0, "fusion_lat": 0.0, "fusion_lon": 0.0}, {"name": "e476abcd7ec3ae579dd6eaf6532aaadd", "is_disabled": 0, "lat": 38.90562216666667, "rental_uris": {"ios": "https://dc.lft.to/lastmile_qr_scan", "android": "https://dc.lft.to/lastmile_qr_scan"}, "bike_id": "e476abcd7ec3ae579dd6eaf6532aaadd", "type": "electric_scooter", "lon": -77.04864533333334, "is_reserved": 0, "fusion_lat": 0.0, "fusion_lon": 0.0}, {"name": "db8161c0aefd9b30ef58677f6f840a80", "is_disabled": 0, "lat": 38.885396, "rental_uris": {"ios": "https://dc.lft.to/lastmile_qr_scan", "android": "https://dc.lft.to/lastmile_qr_scan"}, "bike_id": "db8161c0aefd9b30ef58677f6f840a80", "type": "electric_scooter", "lon": -77.00063283333333, "is_reserved": 0, "fusion_lat": 0.0, "fusion_lon": 0.0}, {"name": "f4faaf0dc39ba12845ab045ad26e09a6", "is_disabled": 0, "lat": 38.954221, "rental_uris": {"ios": "https://dc.lft.to/lastmile_qr_scan", "android": "https://dc.lft.to/lastmile_qr_scan"}, "bike_id": "f4faaf0dc39ba12845ab045ad26e09a6", "type": "electric_scooter", "lon": -77.02761033333333, "is_reserved": 0, "fusion_lat": 0.0, "fusion_lon": 0.0}, {"name": "b93d420321aecb10412def6d2ff3271d", "is_disabled": 0, "lat": 38.904128666666665, "rental_uris": {"ios": "https://dc.lft.to/lastmile_qr_scan", "android": "https://dc.lft.to/lastmile_qr_scan"}, "bike_id": "b93d420321aecb10412def6d2ff3271d", "type": "electric_scooter", "lon": -77.06792933333334, "is_reserved": 0, "fusion_lat": 0.0, "fusion_lon": 0.0}, {"name": "d1524d68b06a2be8564147d80183685a", "is_disabled": 0, "lat": 38.90458116666667, "rental_uris": {"ios": "https://dc.lft.to/lastmile_qr_scan", "android": "https://dc.lft.to/lastmile_qr_scan"}, "bike_id": "d1524d68b06a2be8564147d80183685a", "type": "electric_scooter", "lon": -77.06280583333333, "is_reserved": 0, "fusion_lat": 0.0, "fusion_lon": 0.0}, {"name": "2221c75077c6710abc8d569dc1f79340", "is_disabled": 0, "lat": 38.90769233333333, "rental_uris": {"ios": "https://dc.lft.to/lastmile_qr_scan", "android": "https://dc.lft.to/lastmile_qr_scan"}, "bike_id": "2221c75077c6710abc8d569dc1f79340", "type": "electric_scooter", "lon": -77.03862366666667, "is_reserved": 0, "fusion_lat": 0.0, "fusion_lon": 0.0}, {"name": "5fc3b9ec6d00d41c86114486f7091837", "is_disabled": 0, "lat": 38.91690933333334, "rental_uris": {"ios": "https://dc.lft.to/lastmile_qr_scan", "android": "https://dc.lft.to/lastmile_qr_scan"}, "bike_id": "5fc3b9ec6d00d41c86114486f7091837", "type": "electric_scooter", "lon": -77.0234995, "is_reserved": 0, "fusion_lat": 0.0, "fusion_lon": 0.0}, {"name": "e266f95d4917bae2a5ef7e4b57df390b", "is_disabled": 0, "lat": 38.885405166666665, "rental_uris": {"ios": "https://dc.lft.to/lastmile_qr_scan", "android": "https://dc.lft.to/lastmile_qr_scan"}, "bike_id": "e266f95d4917bae2a5ef7e4b57df390b", "type": "electric_scooter", "lon": -77.00061583333333, "is_reserved": 0, "fusion_lat": 0.0, "fusion_lon": 0.0}, {"name": "11722963d66dcaf7bcbae96d31587e5d", "is_disabled": 0, "lat": 38.90137083333333, "rental_uris": {"ios": "https://dc.lft.to/lastmile_qr_scan", "android": "https://dc.lft.to/lastmile_qr_scan"}, "bike_id": "11722963d66dcaf7bcbae96d31587e5d", "type": "electric_scooter", "lon": -77.04485633333333, "is_reserved": 0, "fusion_lat": 0.0, "fusion_lon": 0.0}, {"name": "cbc925c822e6b8fa34c3765f1b2af081", "is_disabled": 0, "lat": 38.906135666666664, "rental_uris": {"ios": "https://dc.lft.to/lastmile_qr_scan", "android": "https://dc.lft.to/lastmile_qr_scan"}, "bike_id": "cbc925c822e6b8fa34c3765f1b2af081", "type": "electric_scooter", "lon": -77.041265, "is_reserved": 0, "fusion_lat": 0.0, "fusion_lon": 0.0}, {"name": "8fbfc5bef6ba58320999bfdddd411cc9", "is_disabled": 0, "lat": 38.988177666666665, "rental_uris": {"ios": "https://dc.lft.to/lastmile_qr_scan", "android": "https://dc.lft.to/lastmile_qr_scan"}, "bike_id": "8fbfc5bef6ba58320999bfdddd411cc9", "type": "electric_bike", "lon": -77.02652533333334, "is_reserved": 0, "fusion_lat": 0.0, "fusion_lon": 0.0}, {"name": "88e9cd8bee14b45c67a62ab3220ec214", "is_disabled": 0, "lat": 38.917032666666664, "rental_uris": {"ios": "https://dc.lft.to/lastmile_qr_scan", "android": "https://dc.lft.to/lastmile_qr_scan"}, "bike_id": "88e9cd8bee14b45c67a62ab3220ec214", "type": "electric_scooter", "lon": -77.02641666666666, "is_reserved": 0, "fusion_lat": 0.0, "fusion_lon": 0.0}, {"name": "d54b0eafc3055a707b1752b6680cd406", "is_disabled": 0, "lat": 38.916841166666664, "rental_uris": {"ios": "https://dc.lft.to/lastmile_qr_scan", "android": "https://dc.lft.to/lastmile_qr_scan"}, "bike_id": "d54b0eafc3055a707b1752b6680cd406", "type": "electric_scooter", "lon": -77.02718583333333, "is_reserved": 0, "fusion_lat": 0.0, "fusion_lon": 0.0}, {"name": "0f343ad8a79c1111dd7bf5ef6d7148c1", "is_disabled": 0, "lat": 38.993905833333336, "rental_uris": {"ios": "https://dc.lft.to/lastmile_qr_scan", "android": "https://dc.lft.to/lastmile_qr_scan"}, "bike_id": "0f343ad8a79c1111dd7bf5ef6d7148c1", "type": "electric_bike", "lon": -76.92887366666666, "is_reserved": 0, "fusion_lat": 0.0, "fusion_lon": 0.0}, {"name": "1296e7750676e59024d70ba3713e4620", "is_disabled": 0, "lat": 38.927982, "rental_uris": {"ios": "https://dc.lft.to/lastmile_qr_scan", "android": "https://dc.lft.to/lastmile_qr_scan"}, "bike_id": "1296e7750676e59024d70ba3713e4620", "type": "electric_scooter", "lon": -77.02294883333333, "is_reserved": 0, "fusion_lat": 0.0, "fusion_lon": 0.0}, {"name": "cdb22b7c8be5a3456bb6b430e3c9199a", "is_disabled": 0, "lat": 38.91660816666667, "rental_uris": {"ios": "https://dc.lft.to/lastmile_qr_scan", "android": "https://dc.lft.to/lastmile_qr_scan"}, "bike_id": "cdb22b7c8be5a3456bb6b430e3c9199a", "type": "electric_scooter", "lon": -77.02278316666667, "is_reserved": 0, "fusion_lat": 0.0, "fusion_lon": 0.0}, {"name": "6e345436be63bc2770f12ed6e9723e98", "is_disabled": 0, "lat": 38.91405816666666, "rental_uris": {"ios": "https://dc.lft.to/lastmile_qr_scan", "android": "https://dc.lft.to/lastmile_qr_scan"}, "bike_id": "6e345436be63bc2770f12ed6e9723e98", "type": "electric_scooter", "lon": -77.0316445, "is_reserved": 0, "fusion_lat": 0.0, "fusion_lon": 0.0}, {"name": "3b564694ce6aa8e9ed99491fa1287e55", "is_disabled": 0, "lat": 38.884651166666664, "rental_uris": {"ios": "https://dc.lft.to/lastmile_qr_scan", "android": "https://dc.lft.to/lastmile_qr_scan"}, "bike_id": "3b564694ce6aa8e9ed99491fa1287e55", "type": "electric_bike", "lon": -76.95238533333334, "is_reserved": 0, "fusion_lat": 0.0, "fusion_lon": 0.0}, {"name": "40f77a01f14f25ed9ae15b45ccaa7931", "is_disabled": 0, "lat": 38.94918933333334, "rental_uris": {"ios": "https://dc.lft.to/lastmile_qr_scan", "android": "https://dc.lft.to/lastmile_qr_scan"}, "bike_id": "40f77a01f14f25ed9ae15b45ccaa7931", "type": "electric_bike", "lon": -77.00793466666667, "is_reserved": 0, "fusion_lat": 0.0, "fusion_lon": 0.0}, {"name": "dacb50b8f50f2b26d0497009b2886ea6", "is_disabled": 0, "lat": 38.89844133333333, "rental_uris": {"ios": "https://dc.lft.to/lastmile_qr_scan", "android": "https://dc.lft.to/lastmile_qr_scan"}, "bike_id": "dacb50b8f50f2b26d0497009b2886ea6", "type": "electric_scooter", "lon": -77.02971183333334, "is_reserved": 0, "fusion_lat": 0.0, "fusion_lon": 0.0}, {"name": "55090e62a024ca3a93959fd116cb7f74", "is_disabled": 0, "lat": 38.9248015, "rental_uris": {"ios": "https://dc.lft.to/lastmile_qr_scan", "android": "https://dc.lft.to/lastmile_qr_scan"}, "bike_id": "55090e62a024ca3a93959fd116cb7f74", "type": "electric_scooter", "lon": -77.03531316666667, "is_reserved": 0, "fusion_lat": 0.0, "fusion_lon": 0.0}, {"name": "d7476ba5cdf8e9baf542c01e4273e06d", "is_disabled": 0, "lat": 38.897317, "rental_uris": {"ios": "https://dc.lft.to/lastmile_qr_scan", "android": "https://dc.lft.to/lastmile_qr_scan"}, "bike_id": "d7476ba5cdf8e9baf542c01e4273e06d", "type": "electric_scooter", "lon": -77.04735383333333, "is_reserved": 0, "fusion_lat": 0.0, "fusion_lon": 0.0}, {"name": "e90709da252fd4ff552b03aa138bec9a", "is_disabled": 0, "lat": 38.836264166666666, "rental_uris": {"ios": "https://dc.lft.to/lastmile_qr_scan", "android": "https://dc.lft.to/lastmile_qr_scan"}, "bike_id": "e90709da252fd4ff552b03aa138bec9a", "type": "electric_bike", "lon": -77.06940516666667, "is_reserved": 0, "fusion_lat": 0.0, "fusion_lon": 0.0}, {"name": "5d350d8846efe0ca657f492629773835", "is_disabled": 0, "lat": 38.934892833333336, "rental_uris": {"ios": "https://dc.lft.to/lastmile_qr_scan", "android": "https://dc.lft.to/lastmile_qr_scan"}, "bike_id": "5d350d8846efe0ca657f492629773835", "type": "electric_scooter", "lon": -77.072752, "is_reserved": 0, "fusion_lat": 0.0, "fusion_lon": 0.0}, {"name": "b421c5c04be309f50ba6795f7782d09a", "is_disabled": 0, "lat": 38.906476, "rental_uris": {"ios": "https://dc.lft.to/lastmile_qr_scan", "android": "https://dc.lft.to/lastmile_qr_scan"}, "bike_id": "b421c5c04be309f50ba6795f7782d09a", "type": "electric_scooter", "lon": -77.00951433333333, "is_reserved": 0, "fusion_lat": 0.0, "fusion_lon": 0.0}, {"name": "4b47c86a061700fdb180cc81cf45d8ba", "is_disabled": 0, "lat": 38.90565, "rental_uris": {"ios": "https://dc.lft.to/lastmile_qr_scan", "android": "https://dc.lft.to/lastmile_qr_scan"}, "bike_id": "4b47c86a061700fdb180cc81cf45d8ba", "type": "electric_scooter", "lon": -77.02092633333334, "is_reserved": 0, "fusion_lat": 0.0, "fusion_lon": 0.0}, {"name": "48335b697989c4dba13e804da5d9a739", "is_disabled": 0, "lat": 38.899335, "rental_uris": {"ios": "https://dc.lft.to/lastmile_qr_scan", "android": "https://dc.lft.to/lastmile_qr_scan"}, "bike_id": "48335b697989c4dba13e804da5d9a739", "type": "electric_scooter", "lon": -77.01270983333333, "is_reserved": 0, "fusion_lat": 0.0, "fusion_lon": 0.0}, {"name": "6a70dd0f779794dd04d7270570f35535", "is_disabled": 0, "lat": 38.918606, "rental_uris": {"ios": "https://dc.lft.to/lastmile_qr_scan", "android": "https://dc.lft.to/lastmile_qr_scan"}, "bike_id": "6a70dd0f779794dd04d7270570f35535", "type": "electric_bike", "lon": -76.96086883333334, "is_reserved": 0, "fusion_lat": 0.0, "fusion_lon": 0.0}, {"name": "554218b2c3d7a0a27fb5f42a25a33193", "is_disabled": 0, "lat": 38.9154765, "rental_uris": {"ios": "https://dc.lft.to/lastmile_qr_scan", "android": "https://dc.lft.to/lastmile_qr_scan"}, "bike_id": "554218b2c3d7a0a27fb5f42a25a33193", "type": "electric_scooter", "lon": -77.0121915, "is_reserved": 0, "fusion_lat": 0.0, "fusion_lon": 0.0}, {"name": "fd591d9d2fff221bee8ee14765fa170b", "is_disabled": 0, "lat": 38.87221433333333, "rental_uris": {"ios": "https://dc.lft.to/lastmile_qr_scan", "android": "https://dc.lft.to/lastmile_qr_scan"}, "bike_id": "fd591d9d2fff221bee8ee14765fa170b", "type": "electric_scooter", "lon": -77.01773583333333, "is_reserved": 0, "fusion_lat": 0.0, "fusion_lon": 0.0}, {"name": "ab3ff937f4a9c9e82d3a39f99e58e161", "is_disabled": 0, "lat": 38.89944533333333, "rental_uris": {"ios": "https://dc.lft.to/lastmile_qr_scan", "android": "https://dc.lft.to/lastmile_qr_scan"}, "bike_id": "ab3ff937f4a9c9e82d3a39f99e58e161", "type": "electric_scooter", "lon": -77.01611533333333, "is_reserved": 0, "fusion_lat": 0.0, "fusion_lon": 0.0}, {"name": "3897d69c72956156f5830dd127e637a8", "is_disabled": 0, "lat": 38.90707066666667, "rental_uris": {"ios": "https://dc.lft.to/lastmile_qr_scan", "android": "https://dc.lft.to/lastmile_qr_scan"}, "bike_id": "3897d69c72956156f5830dd127e637a8", "type": "electric_scooter", "lon": -77.023909, "is_reserved": 0, "fusion_lat": 0.0, "fusion_lon": 0.0}, {"name": "3cf88f213a56782bbca664daac49bc6a", "is_disabled": 0, "lat": 38.88747383333333, "rental_uris": {"ios": "https://dc.lft.to/lastmile_qr_scan", "android": "https://dc.lft.to/lastmile_qr_scan"}, "bike_id": "3cf88f213a56782bbca664daac49bc6a", "type": "electric_scooter", "lon": -77.0256845, "is_reserved": 0, "fusion_lat": 0.0, "fusion_lon": 0.0}, {"name": "aab61b26fec0e11b8b09a16b0a97f66c", "is_disabled": 0, "lat": 38.906861666666664, "rental_uris": {"ios": "https://dc.lft.to/lastmile_qr_scan", "android": "https://dc.lft.to/lastmile_qr_scan"}, "bike_id": "aab61b26fec0e11b8b09a16b0a97f66c", "type": "electric_scooter", "lon": -76.95194516666666, "is_reserved": 0, "fusion_lat": 0.0, "fusion_lon": 0.0}, {"name": "5be7175fd520490bbeea3f762cb64717", "is_disabled": 0, "lat": 38.90389, "rental_uris": {"ios": "https://dc.lft.to/lastmile_qr_scan", "android": "https://dc.lft.to/lastmile_qr_scan"}, "bike_id": "5be7175fd520490bbeea3f762cb64717", "type": "electric_scooter", "lon": -77.03855583333333, "is_reserved": 0, "fusion_lat": 0.0, "fusion_lon": 0.0}, {"name": "c49562eba8693308fc824c0cdbd65991", "is_disabled": 0, "lat": 38.90712533333333, "rental_uris": {"ios": "https://dc.lft.to/lastmile_qr_scan", "android": "https://dc.lft.to/lastmile_qr_scan"}, "bike_id": "c49562eba8693308fc824c0cdbd65991", "type": "electric_scooter", "lon": -77.02715183333333, "is_reserved": 0, "fusion_lat": 0.0, "fusion_lon": 0.0}, {"name": "45d5aecc72e23d1fd5caa3fd3257ecd1", "is_disabled": 0, "lat": 38.92034566666667, "rental_uris": {"ios": "https://dc.lft.to/lastmile_qr_scan", "android": "https://dc.lft.to/lastmile_qr_scan"}, "bike_id": "45d5aecc72e23d1fd5caa3fd3257ecd1", "type": "electric_scooter", "lon": -77.043893, "is_reserved": 0, "fusion_lat": 0.0, "fusion_lon": 0.0}, {"name": "b735107d4fc8ed233046afee0ed45c58", "is_disabled": 0, "lat": 38.921762333333334, "rental_uris": {"ios": "https://dc.lft.to/lastmile_qr_scan", "android": "https://dc.lft.to/lastmile_qr_scan"}, "bike_id": "b735107d4fc8ed233046afee0ed45c58", "type": "electric_scooter", "lon": -77.02020766666666, "is_reserved": 0, "fusion_lat": 0.0, "fusion_lon": 0.0}, {"name": "0739920f13d78803283d768ab8073070", "is_disabled": 0, "lat": 38.921283833333334, "rental_uris": {"ios": "https://dc.lft.to/lastmile_qr_scan", "android": "https://dc.lft.to/lastmile_qr_scan"}, "bike_id": "0739920f13d78803283d768ab8073070", "type": "electric_scooter", "lon": -77.04219666666667, "is_reserved": 0, "fusion_lat": 0.0, "fusion_lon": 0.0}, {"name": "0d591916b7d5905cf963e19d1e680a20", "is_disabled": 0, "lat": 38.871826666666664, "rental_uris": {"ios": "https://dc.lft.to/lastmile_qr_scan", "android": "https://dc.lft.to/lastmile_qr_scan"}, "bike_id": "0d591916b7d5905cf963e19d1e680a20", "type": "electric_scooter", "lon": -77.0057205, "is_reserved": 0, "fusion_lat": 0.0, "fusion_lon": 0.0}, {"name": "f680557060ab2cdc3b509ff371a15d3a", "is_disabled": 0, "lat": 38.8873155, "rental_uris": {"ios": "https://dc.lft.to/lastmile_qr_scan", "android": "https://dc.lft.to/lastmile_qr_scan"}, "bike_id": "f680557060ab2cdc3b509ff371a15d3a", "type": "electric_scooter", "lon": -76.98360116666667, "is_reserved": 0, "fusion_lat": 0.0, "fusion_lon": 0.0}, {"name": "76b9a606b1235bde15eacad034616624", "is_disabled": 0, "lat": 38.88739233333333, "rental_uris": {"ios": "https://dc.lft.to/lastmile_qr_scan", "android": "https://dc.lft.to/lastmile_qr_scan"}, "bike_id": "76b9a606b1235bde15eacad034616624", "type": "electric_scooter", "lon": -77.0034655, "is_reserved": 0, "fusion_lat": 0.0, "fusion_lon": 0.0}, {"name": "afa656b73e7851e25a73c95ccd25a6b0", "is_disabled": 0, "lat": 38.90030316666667, "rental_uris": {"ios": "https://dc.lft.to/lastmile_qr_scan", "android": "https://dc.lft.to/lastmile_qr_scan"}, "bike_id": "afa656b73e7851e25a73c95ccd25a6b0", "type": "electric_scooter", "lon": -77.01210383333333, "is_reserved": 0, "fusion_lat": 0.0, "fusion_lon": 0.0}, {"name": "71984d25ce062e455a6789a8e3252b6d", "is_disabled": 0, "lat": 38.903175, "rental_uris": {"ios": "https://dc.lft.to/lastmile_qr_scan", "android": "https://dc.lft.to/lastmile_qr_scan"}, "bike_id": "71984d25ce062e455a6789a8e3252b6d", "type": "electric_scooter", "lon": -77.01184983333333, "is_reserved": 0, "fusion_lat": 0.0, "fusion_lon": 0.0}, {"name": "e1729194982abcdf87ca0c9d4c7f7ba8", "is_disabled": 0, "lat": 38.90003383333333, "rental_uris": {"ios": "https://dc.lft.to/lastmile_qr_scan", "android": "https://dc.lft.to/lastmile_qr_scan"}, "bike_id": "e1729194982abcdf87ca0c9d4c7f7ba8", "type": "electric_scooter", "lon": -77.02399366666667, "is_reserved": 0, "fusion_lat": 0.0, "fusion_lon": 0.0}, {"name": "910ace80c0a82a31fb56ed6402e1cc79", "is_disabled": 0, "lat": 38.93578333333333, "rental_uris": {"ios": "https://dc.lft.to/lastmile_qr_scan", "android": "https://dc.lft.to/lastmile_qr_scan"}, "bike_id": "910ace80c0a82a31fb56ed6402e1cc79", "type": "electric_scooter", "lon": -77.03747466666667, "is_reserved": 0, "fusion_lat": 0.0, "fusion_lon": 0.0}, {"name": "a3a7a21ea38758247c9e42cb65f69434", "is_disabled": 0, "lat": 38.90551116666666, "rental_uris": {"ios": "https://dc.lft.to/lastmile_qr_scan", "android": "https://dc.lft.to/lastmile_qr_scan"}, "bike_id": "a3a7a21ea38758247c9e42cb65f69434", "type": "electric_scooter", "lon": -77.062883, "is_reserved": 0, "fusion_lat": 0.0, "fusion_lon": 0.0}, {"name": "fc7fbd5418f47fcccdfa8fc70173cd56", "is_disabled": 0, "lat": 38.887365, "rental_uris": {"ios": "https://dc.lft.to/lastmile_qr_scan", "android": "https://dc.lft.to/lastmile_qr_scan"}, "bike_id": "fc7fbd5418f47fcccdfa8fc70173cd56", "type": "electric_scooter", "lon": -77.023812, "is_reserved": 0, "fusion_lat": 0.0, "fusion_lon": 0.0}, {"name": "6a41f244205718c5e73b3482f4f71813", "is_disabled": 0, "lat": 38.93054383333333, "rental_uris": {"ios": "https://dc.lft.to/lastmile_qr_scan", "android": "https://dc.lft.to/lastmile_qr_scan"}, "bike_id": "6a41f244205718c5e73b3482f4f71813", "type": "electric_scooter", "lon": -77.03273216666666, "is_reserved": 0, "fusion_lat": 0.0, "fusion_lon": 0.0}, {"name": "623375b4d783ef0b87edc9d44319cf21", "is_disabled": 0, "lat": 38.90546966666667, "rental_uris": {"ios": "https://dc.lft.to/lastmile_qr_scan", "android": "https://dc.lft.to/lastmile_qr_scan"}, "bike_id": "623375b4d783ef0b87edc9d44319cf21", "type": "electric_scooter", "lon": -77.049684, "is_reserved": 0, "fusion_lat": 0.0, "fusion_lon": 0.0}, {"name": "02a4bd8fae4815d4b1a969dab6e8e113", "is_disabled": 0, "lat": 38.918004333333336, "rental_uris": {"ios": "https://dc.lft.to/lastmile_qr_scan", "android": "https://dc.lft.to/lastmile_qr_scan"}, "bike_id": "02a4bd8fae4815d4b1a969dab6e8e113", "type": "electric_scooter", "lon": -77.0270955, "is_reserved": 0, "fusion_lat": 0.0, "fusion_lon": 0.0}, {"name": "3083705f1483fcd778aca5f19fc190df", "is_disabled": 0, "lat": 38.902736166666664, "rental_uris": {"ios": "https://dc.lft.to/lastmile_qr_scan", "android": "https://dc.lft.to/lastmile_qr_scan"}, "bike_id": "3083705f1483fcd778aca5f19fc190df", "type": "electric_scooter", "lon": -77.053179, "is_reserved": 0, "fusion_lat": 0.0, "fusion_lon": 0.0}, {"name": "c7141938ef8f70acccec2c31a4b60d73", "is_disabled": 0, "lat": 38.92445383333333, "rental_uris": {"ios": "https://dc.lft.to/lastmile_qr_scan", "android": "https://dc.lft.to/lastmile_qr_scan"}, "bike_id": "c7141938ef8f70acccec2c31a4b60d73", "type": "electric_scooter", "lon": -77.03330116666666, "is_reserved": 0, "fusion_lat": 0.0, "fusion_lon": 0.0}, {"name": "05b577954631d4bb7b28ea8f2f38c3a0", "is_disabled": 0, "lat": 38.905549666666666, "rental_uris": {"ios": "https://dc.lft.to/lastmile_qr_scan", "android": "https://dc.lft.to/lastmile_qr_scan"}, "bike_id": "05b577954631d4bb7b28ea8f2f38c3a0", "type": "electric_scooter", "lon": -77.00581733333334, "is_reserved": 0, "fusion_lat": 0.0, "fusion_lon": 0.0}, {"name": "10939d79c781b612af37f7aad8e204cb", "is_disabled": 0, "lat": 38.91934933333334, "rental_uris": {"ios": "https://dc.lft.to/lastmile_qr_scan", "android": "https://dc.lft.to/lastmile_qr_scan"}, "bike_id": "10939d79c781b612af37f7aad8e204cb", "type": "electric_scooter", "lon": -77.03042, "is_reserved": 0, "fusion_lat": 0.0, "fusion_lon": 0.0}, {"name": "912b40fc925d75f883341bd9870a0fb8", "is_disabled": 0, "lat": 38.90725483333333, "rental_uris": {"ios": "https://dc.lft.to/lastmile_qr_scan", "android": "https://dc.lft.to/lastmile_qr_scan"}, "bike_id": "912b40fc925d75f883341bd9870a0fb8", "type": "electric_scooter", "lon": -77.04147033333334, "is_reserved": 0, "fusion_lat": 0.0, "fusion_lon": 0.0}, {"name": "24167672c0c273ef009ef737d5a068c2", "is_disabled": 0, "lat": 38.91406466666667, "rental_uris": {"ios": "https://dc.lft.to/lastmile_qr_scan", "android": "https://dc.lft.to/lastmile_qr_scan"}, "bike_id": "24167672c0c273ef009ef737d5a068c2", "type": "electric_scooter", "lon": -77.0322325, "is_reserved": 0, "fusion_lat": 0.0, "fusion_lon": 0.0}, {"name": "474c22b872ff3a7de9a7f3b90f160b2c", "is_disabled": 0, "lat": 38.900444, "rental_uris": {"ios": "https://dc.lft.to/lastmile_qr_scan", "android": "https://dc.lft.to/lastmile_qr_scan"}, "bike_id": "474c22b872ff3a7de9a7f3b90f160b2c", "type": "electric_scooter", "lon": -77.03485383333333, "is_reserved": 0, "fusion_lat": 0.0, "fusion_lon": 0.0}, {"name": "23a7a350a0462a5fc94b93741c53c521", "is_disabled": 0, "lat": 38.879196, "rental_uris": {"ios": "https://dc.lft.to/lastmile_qr_scan", "android": "https://dc.lft.to/lastmile_qr_scan"}, "bike_id": "23a7a350a0462a5fc94b93741c53c521", "type": "electric_scooter", "lon": -77.00577166666666, "is_reserved": 0, "fusion_lat": 0.0, "fusion_lon": 0.0}, {"name": "2bc1039496d7dbf06411ff5ad1a9f552", "is_disabled": 0, "lat": 38.90394233333333, "rental_uris": {"ios": "https://dc.lft.to/lastmile_qr_scan", "android": "https://dc.lft.to/lastmile_qr_scan"}, "bike_id": "2bc1039496d7dbf06411ff5ad1a9f552", "type": "electric_scooter", "lon": -77.04310216666667, "is_reserved": 0, "fusion_lat": 0.0, "fusion_lon": 0.0}, {"name": "bf852eed8680c6b0113736c098489bd2", "is_disabled": 0, "lat": 38.91483733333333, "rental_uris": {"ios": "https://dc.lft.to/lastmile_qr_scan", "android": "https://dc.lft.to/lastmile_qr_scan"}, "bike_id": "bf852eed8680c6b0113736c098489bd2", "type": "electric_scooter", "lon": -77.03864266666666, "is_reserved": 0, "fusion_lat": 0.0, "fusion_lon": 0.0}, {"name": "83d00c8b63f0601bcd3f9c8810d49661", "is_disabled": 0, "lat": 38.88757566666666, "rental_uris": {"ios": "https://dc.lft.to/lastmile_qr_scan", "android": "https://dc.lft.to/lastmile_qr_scan"}, "bike_id": "83d00c8b63f0601bcd3f9c8810d49661", "type": "electric_scooter", "lon": -76.99602583333333, "is_reserved": 0, "fusion_lat": 0.0, "fusion_lon": 0.0}, {"name": "6d1364267e5890619d2b0399570f6b2e", "is_disabled": 0, "lat": 38.92075883333333, "rental_uris": {"ios": "https://dc.lft.to/lastmile_qr_scan", "android": "https://dc.lft.to/lastmile_qr_scan"}, "bike_id": "6d1364267e5890619d2b0399570f6b2e", "type": "electric_scooter", "lon": -77.02222866666666, "is_reserved": 0, "fusion_lat": 0.0, "fusion_lon": 0.0}, {"name": "6c7f4eb8f9e7e921a3cc7d25bca93982", "is_disabled": 0, "lat": 38.916730666666666, "rental_uris": {"ios": "https://dc.lft.to/lastmile_qr_scan", "android": "https://dc.lft.to/lastmile_qr_scan"}, "bike_id": "6c7f4eb8f9e7e921a3cc7d25bca93982", "type": "electric_scooter", "lon": -77.0240105, "is_reserved": 0, "fusion_lat": 0.0, "fusion_lon": 0.0}, {"name": "0e3f7100b14a5bbfeb95384e400a7116", "is_disabled": 0, "lat": 38.903764333333335, "rental_uris": {"ios": "https://dc.lft.to/lastmile_qr_scan", "android": "https://dc.lft.to/lastmile_qr_scan"}, "bike_id": "0e3f7100b14a5bbfeb95384e400a7116", "type": "electric_scooter", "lon": -77.03324483333333, "is_reserved": 0, "fusion_lat": 0.0, "fusion_lon": 0.0}, {"name": "211fe4e956b68417f6079ca3cc158c6d", "is_disabled": 0, "lat": 38.9028975, "rental_uris": {"ios": "https://dc.lft.to/lastmile_qr_scan", "android": "https://dc.lft.to/lastmile_qr_scan"}, "bike_id": "211fe4e956b68417f6079ca3cc158c6d", "type": "electric_scooter", "lon": -77.03641883333333, "is_reserved": 0, "fusion_lat": 0.0, "fusion_lon": 0.0}, {"name": "326d645b8617aa4d327de46f571a5f11", "is_disabled": 0, "lat": 38.91068333333333, "rental_uris": {"ios": "https://dc.lft.to/lastmile_qr_scan", "android": "https://dc.lft.to/lastmile_qr_scan"}, "bike_id": "326d645b8617aa4d327de46f571a5f11", "type": "electric_scooter", "lon": -77.0426085, "is_reserved": 0, "fusion_lat": 0.0, "fusion_lon": 0.0}, {"name": "6bfadba8a1fc505f72ee757d37b3a527", "is_disabled": 0, "lat": 38.89519683333333, "rental_uris": {"ios": "https://dc.lft.to/lastmile_qr_scan", "android": "https://dc.lft.to/lastmile_qr_scan"}, "bike_id": "6bfadba8a1fc505f72ee757d37b3a527", "type": "electric_scooter", "lon": -77.0021045, "is_reserved": 0, "fusion_lat": 0.0, "fusion_lon": 0.0}, {"name": "aec0efca4f8056bed146714ba5c8cdd8", "is_disabled": 0, "lat": 38.914034, "rental_uris": {"ios": "https://dc.lft.to/lastmile_qr_scan", "android": "https://dc.lft.to/lastmile_qr_scan"}, "bike_id": "aec0efca4f8056bed146714ba5c8cdd8", "type": "electric_scooter", "lon": -77.07555766666667, "is_reserved": 0, "fusion_lat": 0.0, "fusion_lon": 0.0}, {"name": "bd08d633b46a88c65dc0f7ac8686a8ac", "is_disabled": 0, "lat": 38.91541616666667, "rental_uris": {"ios": "https://dc.lft.to/lastmile_qr_scan", "android": "https://dc.lft.to/lastmile_qr_scan"}, "bike_id": "bd08d633b46a88c65dc0f7ac8686a8ac", "type": "electric_scooter", "lon": -77.03206866666666, "is_reserved": 0, "fusion_lat": 0.0, "fusion_lon": 0.0}, {"name": "5f69cfdbbeb4bb25fdc460ac02192b95", "is_disabled": 0, "lat": 38.9053965, "rental_uris": {"ios": "https://dc.lft.to/lastmile_qr_scan", "android": "https://dc.lft.to/lastmile_qr_scan"}, "bike_id": "5f69cfdbbeb4bb25fdc460ac02192b95", "type": "electric_scooter", "lon": -77.0590965, "is_reserved": 0, "fusion_lat": 0.0, "fusion_lon": 0.0}, {"name": "5ef701d203775c8d635e25ad4f83a705", "is_disabled": 0, "lat": 38.887454166666664, "rental_uris": {"ios": "https://dc.lft.to/lastmile_qr_scan", "android": "https://dc.lft.to/lastmile_qr_scan"}, "bike_id": "5ef701d203775c8d635e25ad4f83a705", "type": "electric_scooter", "lon": -77.02136683333333, "is_reserved": 0, "fusion_lat": 0.0, "fusion_lon": 0.0}, {"name": "7ae8d3c48b949356bf78b02147406759", "is_disabled": 0, "lat": 38.888510333333336, "rental_uris": {"ios": "https://dc.lft.to/lastmile_qr_scan", "android": "https://dc.lft.to/lastmile_qr_scan"}, "bike_id": "7ae8d3c48b949356bf78b02147406759", "type": "electric_scooter", "lon": -76.92678783333334, "is_reserved": 0, "fusion_lat": 0.0, "fusion_lon": 0.0}, {"name": "eeefeeb173a5ce6c3b6ba0faf28697c9", "is_disabled": 0, "lat": 38.898333, "rental_uris": {"ios": "https://dc.lft.to/lastmile_qr_scan", "android": "https://dc.lft.to/lastmile_qr_scan"}, "bike_id": "eeefeeb173a5ce6c3b6ba0faf28697c9", "type": "electric_scooter", "lon": -76.94633866666666, "is_reserved": 0, "fusion_lat": 0.0, "fusion_lon": 0.0}, {"name": "3b7de38efee4451e45b547715bfdc2b5", "is_disabled": 0, "lat": 38.89830516666667, "rental_uris": {"ios": "https://dc.lft.to/lastmile_qr_scan", "android": "https://dc.lft.to/lastmile_qr_scan"}, "bike_id": "3b7de38efee4451e45b547715bfdc2b5", "type": "electric_scooter", "lon": -77.04616216666666, "is_reserved": 0, "fusion_lat": 0.0, "fusion_lon": 0.0}, {"name": "6e5e392cb2fcbd5fd42cac74997b3ba7", "is_disabled": 0, "lat": 38.899587, "rental_uris": {"ios": "https://dc.lft.to/lastmile_qr_scan", "android": "https://dc.lft.to/lastmile_qr_scan"}, "bike_id": "6e5e392cb2fcbd5fd42cac74997b3ba7", "type": "electric_scooter", "lon": -77.05702516666666, "is_reserved": 0, "fusion_lat": 0.0, "fusion_lon": 0.0}, {"name": "2fec3ce87d09232b927bac995e4b9b7d", "is_disabled": 0, "lat": 38.90573, "rental_uris": {"ios": "https://dc.lft.to/lastmile_qr_scan", "android": "https://dc.lft.to/lastmile_qr_scan"}, "bike_id": "2fec3ce87d09232b927bac995e4b9b7d", "type": "electric_scooter", "lon": -77.00569766666666, "is_reserved": 0, "fusion_lat": 0.0, "fusion_lon": 0.0}, {"name": "25ecda675bcf14dbbe6b22fb2cbc6bd9", "is_disabled": 0, "lat": 38.91221683333333, "rental_uris": {"ios": "https://dc.lft.to/lastmile_qr_scan", "android": "https://dc.lft.to/lastmile_qr_scan"}, "bike_id": "25ecda675bcf14dbbe6b22fb2cbc6bd9", "type": "electric_scooter", "lon": -77.03179316666667, "is_reserved": 0, "fusion_lat": 0.0, "fusion_lon": 0.0}, {"name": "3662b01e89df735190b93c19a2016867", "is_disabled": 0, "lat": 38.87875183333333, "rental_uris": {"ios": "https://dc.lft.to/lastmile_qr_scan", "android": "https://dc.lft.to/lastmile_qr_scan"}, "bike_id": "3662b01e89df735190b93c19a2016867", "type": "electric_scooter", "lon": -76.999437, "is_reserved": 0, "fusion_lat": 0.0, "fusion_lon": 0.0}, {"name": "b5b06279403110bec4007696b77c58d0", "is_disabled": 0, "lat": 38.923044, "rental_uris": {"ios": "https://dc.lft.to/lastmile_qr_scan", "android": "https://dc.lft.to/lastmile_qr_scan"}, "bike_id": "b5b06279403110bec4007696b77c58d0", "type": "electric_scooter", "lon": -77.04161166666667, "is_reserved": 0, "fusion_lat": 0.0, "fusion_lon": 0.0}, {"name": "0a1f8d7a9ce76fbd13a40dfc2b3f2f0f", "is_disabled": 0, "lat": 38.94411233333334, "rental_uris": {"ios": "https://dc.lft.to/lastmile_qr_scan", "android": "https://dc.lft.to/lastmile_qr_scan"}, "bike_id": "0a1f8d7a9ce76fbd13a40dfc2b3f2f0f", "type": "electric_scooter", "lon": -77.0262095, "is_reserved": 0, "fusion_lat": 0.0, "fusion_lon": 0.0}, {"name": "c4606572be2e43e5a63a1c8390dd4a94", "is_disabled": 0, "lat": 38.92369716666666, "rental_uris": {"ios": "https://dc.lft.to/lastmile_qr_scan", "android": "https://dc.lft.to/lastmile_qr_scan"}, "bike_id": "c4606572be2e43e5a63a1c8390dd4a94", "type": "electric_scooter", "lon": -77.02963216666667, "is_reserved": 0, "fusion_lat": 0.0, "fusion_lon": 0.0}, {"name": "ce29103d511872d436c23cf04194fc48", "is_disabled": 0, "lat": 38.844259, "rental_uris": {"ios": "https://dc.lft.to/lastmile_qr_scan", "android": "https://dc.lft.to/lastmile_qr_scan"}, "bike_id": "ce29103d511872d436c23cf04194fc48", "type": "electric_scooter", "lon": -76.99781166666666, "is_reserved": 0, "fusion_lat": 0.0, "fusion_lon": 0.0}, {"name": "a51ca4ff0f4b2341cd6a714582191e8f", "is_disabled": 0, "lat": 38.9029, "rental_uris": {"ios": "https://dc.lft.to/lastmile_qr_scan", "android": "https://dc.lft.to/lastmile_qr_scan"}, "bike_id": "a51ca4ff0f4b2341cd6a714582191e8f", "type": "electric_scooter", "lon": -77.03641433333334, "is_reserved": 0, "fusion_lat": 0.0, "fusion_lon": 0.0}, {"name": "9bfb2f001119f27639bbcd57c61a13c6", "is_disabled": 0, "lat": 38.9248685, "rental_uris": {"ios": "https://dc.lft.to/lastmile_qr_scan", "android": "https://dc.lft.to/lastmile_qr_scan"}, "bike_id": "9bfb2f001119f27639bbcd57c61a13c6", "type": "electric_scooter", "lon": -77.0259705, "is_reserved": 0, "fusion_lat": 0.0, "fusion_lon": 0.0}, {"name": "76568488d520391c47905af25f025cf3", "is_disabled": 0, "lat": 38.93138283333333, "rental_uris": {"ios": "https://dc.lft.to/lastmile_qr_scan", "android": "https://dc.lft.to/lastmile_qr_scan"}, "bike_id": "76568488d520391c47905af25f025cf3", "type": "electric_scooter", "lon": -77.0365885, "is_reserved": 0, "fusion_lat": 0.0, "fusion_lon": 0.0}, {"name": "4a12d301f0dfae85b8b8797acfb11da1", "is_disabled": 0, "lat": 38.91737616666666, "rental_uris": {"ios": "https://dc.lft.to/lastmile_qr_scan", "android": "https://dc.lft.to/lastmile_qr_scan"}, "bike_id": "4a12d301f0dfae85b8b8797acfb11da1", "type": "electric_bike", "lon": -76.97911383333333, "is_reserved": 0, "fusion_lat": 0.0, "fusion_lon": 0.0}, {"name": "6481233e185723318e9bf9bd00db5c10", "is_disabled": 0, "lat": 38.87719833333333, "rental_uris": {"ios": "https://dc.lft.to/lastmile_qr_scan", "android": "https://dc.lft.to/lastmile_qr_scan"}, "bike_id": "6481233e185723318e9bf9bd00db5c10", "type": "electric_scooter", "lon": -77.00678566666667, "is_reserved": 0, "fusion_lat": 0.0, "fusion_lon": 0.0}, {"name": "1b6895d0582b4c7a84e7c5b24c0f4ba1", "is_disabled": 0, "lat": 38.8924695, "rental_uris": {"ios": "https://dc.lft.to/lastmile_qr_scan", "android": "https://dc.lft.to/lastmile_qr_scan"}, "bike_id": "1b6895d0582b4c7a84e7c5b24c0f4ba1", "type": "electric_scooter", "lon": -77.03182833333334, "is_reserved": 0, "fusion_lat": 0.0, "fusion_lon": 0.0}, {"name": "173efb20bd7f7cb26e2b260953f7c2f6", "is_disabled": 0, "lat": 38.8975985, "rental_uris": {"ios": "https://dc.lft.to/lastmile_qr_scan", "android": "https://dc.lft.to/lastmile_qr_scan"}, "bike_id": "173efb20bd7f7cb26e2b260953f7c2f6", "type": "electric_scooter", "lon": -77.02198816666667, "is_reserved": 0, "fusion_lat": 0.0, "fusion_lon": 0.0}, {"name": "eeeb0d29173f9eb9096d67aae7f1c5b2", "is_disabled": 0, "lat": 38.9046525, "rental_uris": {"ios": "https://dc.lft.to/lastmile_qr_scan", "android": "https://dc.lft.to/lastmile_qr_scan"}, "bike_id": "eeeb0d29173f9eb9096d67aae7f1c5b2", "type": "electric_scooter", "lon": -77.053228, "is_reserved": 0, "fusion_lat": 0.0, "fusion_lon": 0.0}, {"name": "0df2de25c2d17ab528038604efad82da", "is_disabled": 0, "lat": 38.91156866666667, "rental_uris": {"ios": "https://dc.lft.to/lastmile_qr_scan", "android": "https://dc.lft.to/lastmile_qr_scan"}, "bike_id": "0df2de25c2d17ab528038604efad82da", "type": "electric_scooter", "lon": -77.0319945, "is_reserved": 0, "fusion_lat": 0.0, "fusion_lon": 0.0}, {"name": "368cd4c6789b1ec30e111ebd554e1dbb", "is_disabled": 0, "lat": 38.93484983333333, "rental_uris": {"ios": "https://dc.lft.to/lastmile_qr_scan", "android": "https://dc.lft.to/lastmile_qr_scan"}, "bike_id": "368cd4c6789b1ec30e111ebd554e1dbb", "type": "electric_scooter", "lon": -77.0726985, "is_reserved": 0, "fusion_lat": 0.0, "fusion_lon": 0.0}, {"name": "42e6b0fe21b65cdbeeb00c2471d41f3f", "is_disabled": 0, "lat": 38.91134516666666, "rental_uris": {"ios": "https://dc.lft.to/lastmile_qr_scan", "android": "https://dc.lft.to/lastmile_qr_scan"}, "bike_id": "42e6b0fe21b65cdbeeb00c2471d41f3f", "type": "electric_scooter", "lon": -77.06530416666666, "is_reserved": 0, "fusion_lat": 0.0, "fusion_lon": 0.0}, {"name": "ef2e6ceabc3e8ea15e3d0a54f1648a75", "is_disabled": 0, "lat": 38.912555, "rental_uris": {"ios": "https://dc.lft.to/lastmile_qr_scan", "android": "https://dc.lft.to/lastmile_qr_scan"}, "bike_id": "ef2e6ceabc3e8ea15e3d0a54f1648a75", "type": "electric_scooter", "lon": -77.03160583333333, "is_reserved": 0, "fusion_lat": 0.0, "fusion_lon": 0.0}, {"name": "b334adb3048bf2c9eb0e0a9f3d8106bd", "is_disabled": 0, "lat": 38.961359, "rental_uris": {"ios": "https://dc.lft.to/lastmile_qr_scan", "android": "https://dc.lft.to/lastmile_qr_scan"}, "bike_id": "b334adb3048bf2c9eb0e0a9f3d8106bd", "type": "electric_scooter", "lon": -77.00965883333333, "is_reserved": 0, "fusion_lat": 0.0, "fusion_lon": 0.0}, {"name": "db01ddc4f6cabef5cc6a9978661d676d", "is_disabled": 0, "lat": 38.86245, "rental_uris": {"ios": "https://dc.lft.to/lastmile_qr_scan", "android": "https://dc.lft.to/lastmile_qr_scan"}, "bike_id": "db01ddc4f6cabef5cc6a9978661d676d", "type": "electric_scooter", "lon": -76.99496033333334, "is_reserved": 0, "fusion_lat": 0.0, "fusion_lon": 0.0}, {"name": "1aaaf0f648c5d810a622e9218566bb91", "is_disabled": 0, "lat": 38.90212916666667, "rental_uris": {"ios": "https://dc.lft.to/lastmile_qr_scan", "android": "https://dc.lft.to/lastmile_qr_scan"}, "bike_id": "1aaaf0f648c5d810a622e9218566bb91", "type": "electric_scooter", "lon": -77.023748, "is_reserved": 0, "fusion_lat": 0.0, "fusion_lon": 0.0}, {"name": "674c227e0f3cd880f3be53311dcc0aab", "is_disabled": 0, "lat": 38.941151166666664, "rental_uris": {"ios": "https://dc.lft.to/lastmile_qr_scan", "android": "https://dc.lft.to/lastmile_qr_scan"}, "bike_id": "674c227e0f3cd880f3be53311dcc0aab", "type": "electric_scooter", "lon": -77.00047166666667, "is_reserved": 0, "fusion_lat": 0.0, "fusion_lon": 0.0}, {"name": "0aa56d453fb190d247e61868d6f6430e", "is_disabled": 0, "lat": 38.89009683333333, "rental_uris": {"ios": "https://dc.lft.to/lastmile_qr_scan", "android": "https://dc.lft.to/lastmile_qr_scan"}, "bike_id": "0aa56d453fb190d247e61868d6f6430e", "type": "electric_scooter", "lon": -76.93742516666667, "is_reserved": 0, "fusion_lat": 0.0, "fusion_lon": 0.0}, {"name": "f1b606f943e0184eb67903dd94a26f86", "is_disabled": 0, "lat": 38.91794483333334, "rental_uris": {"ios": "https://dc.lft.to/lastmile_qr_scan", "android": "https://dc.lft.to/lastmile_qr_scan"}, "bike_id": "f1b606f943e0184eb67903dd94a26f86", "type": "electric_scooter", "lon": -77.04168783333333, "is_reserved": 0, "fusion_lat": 0.0, "fusion_lon": 0.0}, {"name": "6d452454cf9cd36f094b4cad2871693e", "is_disabled": 0, "lat": 38.9377685, "rental_uris": {"ios": "https://dc.lft.to/lastmile_qr_scan", "android": "https://dc.lft.to/lastmile_qr_scan"}, "bike_id": "6d452454cf9cd36f094b4cad2871693e", "type": "electric_bike", "lon": -77.01905866666667, "is_reserved": 0, "fusion_lat": 0.0, "fusion_lon": 0.0}, {"name": "b3b415e3f81cb16a9566a07fb19199ff", "is_disabled": 0, "lat": 38.91403283333333, "rental_uris": {"ios": "https://dc.lft.to/lastmile_qr_scan", "android": "https://dc.lft.to/lastmile_qr_scan"}, "bike_id": "b3b415e3f81cb16a9566a07fb19199ff", "type": "electric_scooter", "lon": -77.03161466666667, "is_reserved": 0, "fusion_lat": 0.0, "fusion_lon": 0.0}, {"name": "03cdae49800e019e4ec58a2793245bcb", "is_disabled": 0, "lat": 38.91999533333333, "rental_uris": {"ios": "https://dc.lft.to/lastmile_qr_scan", "android": "https://dc.lft.to/lastmile_qr_scan"}, "bike_id": "03cdae49800e019e4ec58a2793245bcb", "type": "electric_scooter", "lon": -77.04757016666667, "is_reserved": 0, "fusion_lat": 0.0, "fusion_lon": 0.0}, {"name": "984ec6d2a423ab70d9276c56e3cc1fdd", "is_disabled": 0, "lat": 38.90527816666667, "rental_uris": {"ios": "https://dc.lft.to/lastmile_qr_scan", "android": "https://dc.lft.to/lastmile_qr_scan"}, "bike_id": "984ec6d2a423ab70d9276c56e3cc1fdd", "type": "electric_bike", "lon": -77.04169016666667, "is_reserved": 0, "fusion_lat": 0.0, "fusion_lon": 0.0}, {"name": "a54cf76f7d9efa896eac0d59573a373e", "is_disabled": 0, "lat": 38.863498, "rental_uris": {"ios": "https://dc.lft.to/lastmile_qr_scan", "android": "https://dc.lft.to/lastmile_qr_scan"}, "bike_id": "a54cf76f7d9efa896eac0d59573a373e", "type": "electric_bike", "lon": -77.07717516666666, "is_reserved": 0, "fusion_lat": 0.0, "fusion_lon": 0.0}, {"name": "e6ea44223e36a48ae837dfb1da98cad8", "is_disabled": 0, "lat": 38.9077685, "rental_uris": {"ios": "https://dc.lft.to/lastmile_qr_scan", "android": "https://dc.lft.to/lastmile_qr_scan"}, "bike_id": "e6ea44223e36a48ae837dfb1da98cad8", "type": "electric_scooter", "lon": -76.9970925, "is_reserved": 0, "fusion_lat": 0.0, "fusion_lon": 0.0}, {"name": "227d896166d660b21094c484dae3557c", "is_disabled": 0, "lat": 38.90943716666666, "rental_uris": {"ios": "https://dc.lft.to/lastmile_qr_scan", "android": "https://dc.lft.to/lastmile_qr_scan"}, "bike_id": "227d896166d660b21094c484dae3557c", "type": "electric_scooter", "lon": -77.07403116666667, "is_reserved": 0, "fusion_lat": 0.0, "fusion_lon": 0.0}, {"name": "9150fa4fcd5969a6469417ff95ac98d3", "is_disabled": 0, "lat": 38.93758033333334, "rental_uris": {"ios": "https://dc.lft.to/lastmile_qr_scan", "android": "https://dc.lft.to/lastmile_qr_scan"}, "bike_id": "9150fa4fcd5969a6469417ff95ac98d3", "type": "electric_bike", "lon": -76.9582225, "is_reserved": 0, "fusion_lat": 0.0, "fusion_lon": 0.0}, {"name": "bd436b60de8339003c5a0b5ac0895e1b", "is_disabled": 0, "lat": 38.926734, "rental_uris": {"ios": "https://dc.lft.to/lastmile_qr_scan", "android": "https://dc.lft.to/lastmile_qr_scan"}, "bike_id": "bd436b60de8339003c5a0b5ac0895e1b", "type": "electric_scooter", "lon": -77.03049333333334, "is_reserved": 0, "fusion_lat": 0.0, "fusion_lon": 0.0}, {"name": "d75e3df087bdb4f146ef93e079cf09f6", "is_disabled": 0, "lat": 38.90083583333333, "rental_uris": {"ios": "https://dc.lft.to/lastmile_qr_scan", "android": "https://dc.lft.to/lastmile_qr_scan"}, "bike_id": "d75e3df087bdb4f146ef93e079cf09f6", "type": "electric_scooter", "lon": -77.047471, "is_reserved": 0, "fusion_lat": 0.0, "fusion_lon": 0.0}, {"name": "aa21cc2fe5575dce99daf7fb919fbbd5", "is_disabled": 0, "lat": 38.89191833333334, "rental_uris": {"ios": "https://dc.lft.to/lastmile_qr_scan", "android": "https://dc.lft.to/lastmile_qr_scan"}, "bike_id": "aa21cc2fe5575dce99daf7fb919fbbd5", "type": "electric_scooter", "lon": -76.998418, "is_reserved": 0, "fusion_lat": 0.0, "fusion_lon": 0.0}, {"name": "086ed993281a906fcc8e23d9cffcb615", "is_disabled": 0, "lat": 38.944973166666664, "rental_uris": {"ios": "https://dc.lft.to/lastmile_qr_scan", "android": "https://dc.lft.to/lastmile_qr_scan"}, "bike_id": "086ed993281a906fcc8e23d9cffcb615", "type": "electric_bike", "lon": -77.00681316666666, "is_reserved": 0, "fusion_lat": 0.0, "fusion_lon": 0.0}, {"name": "9c1024ce21f4a327070e618a31d9168f", "is_disabled": 0, "lat": 38.9040315, "rental_uris": {"ios": "https://dc.lft.to/lastmile_qr_scan", "android": "https://dc.lft.to/lastmile_qr_scan"}, "bike_id": "9c1024ce21f4a327070e618a31d9168f", "type": "electric_scooter", "lon": -77.0020005, "is_reserved": 0, "fusion_lat": 0.0, "fusion_lon": 0.0}, {"name": "e6f24992b6e0c1b64bcda729f9f6850e", "is_disabled": 0, "lat": 38.923687666666666, "rental_uris": {"ios": "https://dc.lft.to/lastmile_qr_scan", "android": "https://dc.lft.to/lastmile_qr_scan"}, "bike_id": "e6f24992b6e0c1b64bcda729f9f6850e", "type": "electric_scooter", "lon": -77.02814266666667, "is_reserved": 0, "fusion_lat": 0.0, "fusion_lon": 0.0}, {"name": "c79e02b80918418c5cdc79a85d438224", "is_disabled": 0, "lat": 38.902308, "rental_uris": {"ios": "https://dc.lft.to/lastmile_qr_scan", "android": "https://dc.lft.to/lastmile_qr_scan"}, "bike_id": "c79e02b80918418c5cdc79a85d438224", "type": "electric_scooter", "lon": -77.05346166666666, "is_reserved": 0, "fusion_lat": 0.0, "fusion_lon": 0.0}, {"name": "9badbab69fdbc192a35a9069feb98fe4", "is_disabled": 0, "lat": 38.909904, "rental_uris": {"ios": "https://dc.lft.to/lastmile_qr_scan", "android": "https://dc.lft.to/lastmile_qr_scan"}, "bike_id": "9badbab69fdbc192a35a9069feb98fe4", "type": "electric_scooter", "lon": -77.04666016666667, "is_reserved": 0, "fusion_lat": 0.0, "fusion_lon": 0.0}, {"name": "32f12c9e0f818c9a3425eba5c7702eb4", "is_disabled": 0, "lat": 38.89300933333333, "rental_uris": {"ios": "https://dc.lft.to/lastmile_qr_scan", "android": "https://dc.lft.to/lastmile_qr_scan"}, "bike_id": "32f12c9e0f818c9a3425eba5c7702eb4", "type": "electric_scooter", "lon": -77.0123325, "is_reserved": 0, "fusion_lat": 0.0, "fusion_lon": 0.0}, {"name": "14feca06ce95bc66b2d965699d986b39", "is_disabled": 0, "lat": 38.932469833333336, "rental_uris": {"ios": "https://dc.lft.to/lastmile_qr_scan", "android": "https://dc.lft.to/lastmile_qr_scan"}, "bike_id": "14feca06ce95bc66b2d965699d986b39", "type": "electric_scooter", "lon": -77.0664515, "is_reserved": 0, "fusion_lat": 0.0, "fusion_lon": 0.0}, {"name": "3bd51123e1fd85994a2ad3d892574a44", "is_disabled": 0, "lat": 38.887786166666665, "rental_uris": {"ios": "https://dc.lft.to/lastmile_qr_scan", "android": "https://dc.lft.to/lastmile_qr_scan"}, "bike_id": "3bd51123e1fd85994a2ad3d892574a44", "type": "electric_scooter", "lon": -76.95533683333333, "is_reserved": 0, "fusion_lat": 0.0, "fusion_lon": 0.0}, {"name": "b53306a511620cf1e50be6c4649b4901", "is_disabled": 0, "lat": 38.99210766666667, "rental_uris": {"ios": "https://dc.lft.to/lastmile_qr_scan", "android": "https://dc.lft.to/lastmile_qr_scan"}, "bike_id": "b53306a511620cf1e50be6c4649b4901", "type": "electric_bike", "lon": -77.03209966666667, "is_reserved": 0, "fusion_lat": 0.0, "fusion_lon": 0.0}, {"name": "f7e2e2ce490f53ab781ab9ded5e5ccba", "is_disabled": 0, "lat": 38.91692716666667, "rental_uris": {"ios": "https://dc.lft.to/lastmile_qr_scan", "android": "https://dc.lft.to/lastmile_qr_scan"}, "bike_id": "f7e2e2ce490f53ab781ab9ded5e5ccba", "type": "electric_scooter", "lon": -77.033809, "is_reserved": 0, "fusion_lat": 0.0, "fusion_lon": 0.0}, {"name": "4af5133524a2ff313f5617d4aff31679", "is_disabled": 0, "lat": 38.90559666666667, "rental_uris": {"ios": "https://dc.lft.to/lastmile_qr_scan", "android": "https://dc.lft.to/lastmile_qr_scan"}, "bike_id": "4af5133524a2ff313f5617d4aff31679", "type": "electric_scooter", "lon": -77.04663716666667, "is_reserved": 0, "fusion_lat": 0.0, "fusion_lon": 0.0}, {"name": "c2a4233e3ce220095418451bdede40b1", "is_disabled": 0, "lat": 38.9354035, "rental_uris": {"ios": "https://dc.lft.to/lastmile_qr_scan", "android": "https://dc.lft.to/lastmile_qr_scan"}, "bike_id": "c2a4233e3ce220095418451bdede40b1", "type": "electric_scooter", "lon": -77.05743066666666, "is_reserved": 0, "fusion_lat": 0.0, "fusion_lon": 0.0}, {"name": "cea8438fa6ade150806df5f58f7efa54", "is_disabled": 0, "lat": 38.91844116666667, "rental_uris": {"ios": "https://dc.lft.to/lastmile_qr_scan", "android": "https://dc.lft.to/lastmile_qr_scan"}, "bike_id": "cea8438fa6ade150806df5f58f7efa54", "type": "electric_scooter", "lon": -77.031964, "is_reserved": 0, "fusion_lat": 0.0, "fusion_lon": 0.0}, {"name": "cb412058b0918370cd88d70ee30d1051", "is_disabled": 0, "lat": 38.90272016666667, "rental_uris": {"ios": "https://dc.lft.to/lastmile_qr_scan", "android": "https://dc.lft.to/lastmile_qr_scan"}, "bike_id": "cb412058b0918370cd88d70ee30d1051", "type": "electric_scooter", "lon": -77.018127, "is_reserved": 0, "fusion_lat": 0.0, "fusion_lon": 0.0}, {"name": "5865fb89afeae3b58e29e29784334faa", "is_disabled": 0, "lat": 38.892503166666664, "rental_uris": {"ios": "https://dc.lft.to/lastmile_qr_scan", "android": "https://dc.lft.to/lastmile_qr_scan"}, "bike_id": "5865fb89afeae3b58e29e29784334faa", "type": "electric_scooter", "lon": -77.03957, "is_reserved": 0, "fusion_lat": 0.0, "fusion_lon": 0.0}, {"name": "97388938c09d25cce2771c9744fd4e87", "is_disabled": 0, "lat": 38.92324816666667, "rental_uris": {"ios": "https://dc.lft.to/lastmile_qr_scan", "android": "https://dc.lft.to/lastmile_qr_scan"}, "bike_id": "97388938c09d25cce2771c9744fd4e87", "type": "electric_scooter", "lon": -77.04029716666666, "is_reserved": 0, "fusion_lat": 0.0, "fusion_lon": 0.0}, {"name": "b339bc64e1e362c89a4560ace4105a46", "is_disabled": 0, "lat": 38.907304, "rental_uris": {"ios": "https://dc.lft.to/lastmile_qr_scan", "android": "https://dc.lft.to/lastmile_qr_scan"}, "bike_id": "b339bc64e1e362c89a4560ace4105a46", "type": "electric_scooter", "lon": -77.04341666666667, "is_reserved": 0, "fusion_lat": 0.0, "fusion_lon": 0.0}, {"name": "603b2c6571e9a0eca0c32f7a1b9005eb", "is_disabled": 0, "lat": 38.8874485, "rental_uris": {"ios": "https://dc.lft.to/lastmile_qr_scan", "android": "https://dc.lft.to/lastmile_qr_scan"}, "bike_id": "603b2c6571e9a0eca0c32f7a1b9005eb", "type": "electric_scooter", "lon": -77.025666, "is_reserved": 0, "fusion_lat": 0.0, "fusion_lon": 0.0}, {"name": "822c49deb28bae700234d9a453cfe38d", "is_disabled": 0, "lat": 38.93486383333333, "rental_uris": {"ios": "https://dc.lft.to/lastmile_qr_scan", "android": "https://dc.lft.to/lastmile_qr_scan"}, "bike_id": "822c49deb28bae700234d9a453cfe38d", "type": "electric_scooter", "lon": -77.07271216666666, "is_reserved": 0, "fusion_lat": 0.0, "fusion_lon": 0.0}, {"name": "bab2debea05bfcf84c9bf9da88095938", "is_disabled": 0, "lat": 38.905651, "rental_uris": {"ios": "https://dc.lft.to/lastmile_qr_scan", "android": "https://dc.lft.to/lastmile_qr_scan"}, "bike_id": "bab2debea05bfcf84c9bf9da88095938", "type": "electric_scooter", "lon": -77.00532983333333, "is_reserved": 0, "fusion_lat": 0.0, "fusion_lon": 0.0}, {"name": "1df141f490d2acd72bad3bf5462d696c", "is_disabled": 0, "lat": 38.89876183333333, "rental_uris": {"ios": "https://dc.lft.to/lastmile_qr_scan", "android": "https://dc.lft.to/lastmile_qr_scan"}, "bike_id": "1df141f490d2acd72bad3bf5462d696c", "type": "electric_scooter", "lon": -76.93181183333333, "is_reserved": 0, "fusion_lat": 0.0, "fusion_lon": 0.0}, {"name": "1608eb02687e6e9df5a96b0e179914f5", "is_disabled": 0, "lat": 38.9097615, "rental_uris": {"ios": "https://dc.lft.to/lastmile_qr_scan", "android": "https://dc.lft.to/lastmile_qr_scan"}, "bike_id": "1608eb02687e6e9df5a96b0e179914f5", "type": "electric_scooter", "lon": -77.03206483333334, "is_reserved": 0, "fusion_lat": 0.0, "fusion_lon": 0.0}, {"name": "bf07a827d620aee20793dcced551873a", "is_disabled": 0, "lat": 38.90303683333333, "rental_uris": {"ios": "https://dc.lft.to/lastmile_qr_scan", "android": "https://dc.lft.to/lastmile_qr_scan"}, "bike_id": "bf07a827d620aee20793dcced551873a", "type": "electric_scooter", "lon": -77.05812883333333, "is_reserved": 0, "fusion_lat": 0.0, "fusion_lon": 0.0}, {"name": "133bec3047f7ac584c8f4f22a900ddc9", "is_disabled": 0, "lat": 38.883742166666664, "rental_uris": {"ios": "https://dc.lft.to/lastmile_qr_scan", "android": "https://dc.lft.to/lastmile_qr_scan"}, "bike_id": "133bec3047f7ac584c8f4f22a900ddc9", "type": "electric_scooter", "lon": -76.99515716666667, "is_reserved": 0, "fusion_lat": 0.0, "fusion_lon": 0.0}, {"name": "63c7aaf8f6b6b7d842b38120cd5fe103", "is_disabled": 0, "lat": 38.908065, "rental_uris": {"ios": "https://dc.lft.to/lastmile_qr_scan", "android": "https://dc.lft.to/lastmile_qr_scan"}, "bike_id": "63c7aaf8f6b6b7d842b38120cd5fe103", "type": "electric_scooter", "lon": -77.03458966666666, "is_reserved": 0, "fusion_lat": 0.0, "fusion_lon": 0.0}, {"name": "37f7747bd45dc5f9d3aa70b1326251dc", "is_disabled": 0, "lat": 38.90061566666667, "rental_uris": {"ios": "https://dc.lft.to/lastmile_qr_scan", "android": "https://dc.lft.to/lastmile_qr_scan"}, "bike_id": "37f7747bd45dc5f9d3aa70b1326251dc", "type": "electric_scooter", "lon": -76.999463, "is_reserved": 0, "fusion_lat": 0.0, "fusion_lon": 0.0}, {"name": "ead3a444e7522394c1e993e9f0e9d8f7", "is_disabled": 0, "lat": 38.92880366666667, "rental_uris": {"ios": "https://dc.lft.to/lastmile_qr_scan", "android": "https://dc.lft.to/lastmile_qr_scan"}, "bike_id": "ead3a444e7522394c1e993e9f0e9d8f7", "type": "electric_scooter", "lon": -77.01361233333333, "is_reserved": 0, "fusion_lat": 0.0, "fusion_lon": 0.0}, {"name": "71a2f4ce4760ae3f33d314b33222df3c", "is_disabled": 0, "lat": 38.946070166666665, "rental_uris": {"ios": "https://dc.lft.to/lastmile_qr_scan", "android": "https://dc.lft.to/lastmile_qr_scan"}, "bike_id": "71a2f4ce4760ae3f33d314b33222df3c", "type": "electric_scooter", "lon": -77.096841, "is_reserved": 0, "fusion_lat": 0.0, "fusion_lon": 0.0}, {"name": "2e58e4c4d3d0469fabf866498d9d9fea", "is_disabled": 0, "lat": 38.92620633333333, "rental_uris": {"ios": "https://dc.lft.to/lastmile_qr_scan", "android": "https://dc.lft.to/lastmile_qr_scan"}, "bike_id": "2e58e4c4d3d0469fabf866498d9d9fea", "type": "electric_scooter", "lon": -77.03673466666666, "is_reserved": 0, "fusion_lat": 0.0, "fusion_lon": 0.0}, {"name": "3cc4070ede77f491e7c7b4e344f3f1d4", "is_disabled": 0, "lat": 38.92023066666667, "rental_uris": {"ios": "https://dc.lft.to/lastmile_qr_scan", "android": "https://dc.lft.to/lastmile_qr_scan"}, "bike_id": "3cc4070ede77f491e7c7b4e344f3f1d4", "type": "electric_scooter", "lon": -77.01314183333334, "is_reserved": 0, "fusion_lat": 0.0, "fusion_lon": 0.0}, {"name": "f46c1a68eacd9e8b015f4559e3d3df87", "is_disabled": 0, "lat": 38.911244333333336, "rental_uris": {"ios": "https://dc.lft.to/lastmile_qr_scan", "android": "https://dc.lft.to/lastmile_qr_scan"}, "bike_id": "f46c1a68eacd9e8b015f4559e3d3df87", "type": "electric_scooter", "lon": -77.0075695, "is_reserved": 0, "fusion_lat": 0.0, "fusion_lon": 0.0}, {"name": "66168ab00bac286031795bc0fa33eccf", "is_disabled": 0, "lat": 38.9058535, "rental_uris": {"ios": "https://dc.lft.to/lastmile_qr_scan", "android": "https://dc.lft.to/lastmile_qr_scan"}, "bike_id": "66168ab00bac286031795bc0fa33eccf", "type": "electric_bike", "lon": -77.002639, "is_reserved": 0, "fusion_lat": 0.0, "fusion_lon": 0.0}, {"name": "9b24bc1c2654c5a8dc711a652e0d1dbd", "is_disabled": 0, "lat": 38.90567383333333, "rental_uris": {"ios": "https://dc.lft.to/lastmile_qr_scan", "android": "https://dc.lft.to/lastmile_qr_scan"}, "bike_id": "9b24bc1c2654c5a8dc711a652e0d1dbd", "type": "electric_scooter", "lon": -77.04453616666666, "is_reserved": 0, "fusion_lat": 0.0, "fusion_lon": 0.0}, {"name": "654faebfce0f1cec995de6286d1c43df", "is_disabled": 0, "lat": 38.90628616666667, "rental_uris": {"ios": "https://dc.lft.to/lastmile_qr_scan", "android": "https://dc.lft.to/lastmile_qr_scan"}, "bike_id": "654faebfce0f1cec995de6286d1c43df", "type": "electric_scooter", "lon": -77.04330316666666, "is_reserved": 0, "fusion_lat": 0.0, "fusion_lon": 0.0}, {"name": "5ed844c70c5ade06c198c13ad4f1b604", "is_disabled": 0, "lat": 38.9038485, "rental_uris": {"ios": "https://dc.lft.to/lastmile_qr_scan", "android": "https://dc.lft.to/lastmile_qr_scan"}, "bike_id": "5ed844c70c5ade06c198c13ad4f1b604", "type": "electric_bike", "lon": -77.0296275, "is_reserved": 0, "fusion_lat": 0.0, "fusion_lon": 0.0}, {"name": "6976902a45d8a54de17ffb755b15e3d7", "is_disabled": 0, "lat": 38.92321316666666, "rental_uris": {"ios": "https://dc.lft.to/lastmile_qr_scan", "android": "https://dc.lft.to/lastmile_qr_scan"}, "bike_id": "6976902a45d8a54de17ffb755b15e3d7", "type": "electric_scooter", "lon": -77.040387, "is_reserved": 0, "fusion_lat": 0.0, "fusion_lon": 0.0}, {"name": "d91d2ba06e274fca96d86080c696f454", "is_disabled": 0, "lat": 38.91996733333333, "rental_uris": {"ios": "https://dc.lft.to/lastmile_qr_scan", "android": "https://dc.lft.to/lastmile_qr_scan"}, "bike_id": "d91d2ba06e274fca96d86080c696f454", "type": "electric_scooter", "lon": -77.0322995, "is_reserved": 0, "fusion_lat": 0.0, "fusion_lon": 0.0}, {"name": "a5e1547c0f61d98b5eac01fa0ee0f223", "is_disabled": 0, "lat": 38.900896, "rental_uris": {"ios": "https://dc.lft.to/lastmile_qr_scan", "android": "https://dc.lft.to/lastmile_qr_scan"}, "bike_id": "a5e1547c0f61d98b5eac01fa0ee0f223", "type": "electric_scooter", "lon": -77.04901716666667, "is_reserved": 0, "fusion_lat": 0.0, "fusion_lon": 0.0}, {"name": "f71fac77c83f121a1842eb8e302c8757", "is_disabled": 0, "lat": 38.87667366666667, "rental_uris": {"ios": "https://dc.lft.to/lastmile_qr_scan", "android": "https://dc.lft.to/lastmile_qr_scan"}, "bike_id": "f71fac77c83f121a1842eb8e302c8757", "type": "electric_scooter", "lon": -77.00112266666666, "is_reserved": 0, "fusion_lat": 0.0, "fusion_lon": 0.0}, {"name": "426f0db006612b7f4934e66bb3cc2fa5", "is_disabled": 0, "lat": 38.905707666666665, "rental_uris": {"ios": "https://dc.lft.to/lastmile_qr_scan", "android": "https://dc.lft.to/lastmile_qr_scan"}, "bike_id": "426f0db006612b7f4934e66bb3cc2fa5", "type": "electric_scooter", "lon": -77.02414533333334, "is_reserved": 0, "fusion_lat": 0.0, "fusion_lon": 0.0},