{"data": {"bikes": [{"rental_uris": {"ios": "https://dc.lft.to/lastmile_qr_scan", "android": "https://dc.lft.to/lastmile_qr_scan"}, "type": "electric_scooter", "name": "7ab119d89808bb5f5599e98b0363df0b", "is_reserved": 0, "lon": -77.04671483333334, "is_disabled": 0, "fusion_lat": 0.0, "lat": 38.892815166666665, "bike_id": "7ab119d89808bb5f5599e98b0363df0b", "fusion_lon": 0.0}, {"rental_uris": {"ios": "https://dc.lft.to/lastmile_qr_scan", "android": "https://dc.lft.to/lastmile_qr_scan"}, "type": "electric_scooter", "name": "13cc82773a533ced25bb111e82bb09c4", "is_reserved": 0, "lon": -77.039619, "is_disabled": 0, "fusion_lat": 0.0, "lat": 38.89242683333333, "bike_id": "13cc82773a533ced25bb111e82bb09c4", "fusion_lon": 0.0}, {"rental_uris": {"ios": "https://dc.lft.to/lastmile_qr_scan", "android": "https://dc.lft.to/lastmile_qr_scan"}, "type": "electric_scooter", "name": "109fb56f1ac12805804bb9195036f673", "is_reserved": 0, "lon": -77.0037765, "is_disabled": 0, "fusion_lat": 0.0, "lat": 38.940612, "bike_id": "109fb56f1ac12805804bb9195036f673", "fusion_lon": 0.0}, {"rental_uris": {"ios": "https://dc.lft.to/lastmile_qr_scan", "android": "https://dc.lft.to/lastmile_qr_scan"}, "type": "electric_scooter", "name": "aaf4121a2e28accb0666c57589c5c9dc", "is_reserved": 0, "lon": -77.03436333333333, "is_disabled": 0, "fusion_lat": 0.0, "lat": 38.917916, "bike_id": "aaf4121a2e28accb0666c57589c5c9dc", "fusion_lon": 0.0}, {"rental_uris": {"ios": "https://dc.lft.to/lastmile_qr_scan", "android": "https://dc.lft.to/lastmile_qr_scan"}, "type": "electric_scooter", "name": "1ffe986b479df8cc885d81367fe33a83", "is_reserved": 0, "lon": -77.046548, "is_disabled": 0, "fusion_lat": 0.0, "lat": 38.905485166666665, "bike_id": "1ffe986b479df8cc885d81367fe33a83", "fusion_lon": 0.0}, {"rental_uris": {"ios": "https://dc.lft.to/lastmile_qr_scan", "android": "https://dc.lft.to/lastmile_qr_scan"}, "type": "electric_scooter", "name": "8bb8468fe6bec55b4b01ffdd4ce26f9a", "is_reserved": 0, "lon": -77.0295345, "is_disabled": 0, "fusion_lat": 0.0, "lat": 38.90739116666666, "bike_id": "8bb8468fe6bec55b4b01ffdd4ce26f9a", "fusion_lon": 0.0}, {"rental_uris": {"ios": "https://dc.lft.to/lastmile_qr_scan", "android": "https://dc.lft.to/lastmile_qr_scan"}, "type": "electric_scooter", "name": "05d75342435524e01f2035fc56dae397", "is_reserved": 0, "lon": -77.04474733333333, "is_disabled": 0, "fusion_lat": 0.0, "lat": 38.92291433333333, "bike_id": "05d75342435524e01f2035fc56dae397", "fusion_lon": 0.0}, {"rental_uris": {"ios": "https://dc.lft.to/lastmile_qr_scan", "android": "https://dc.lft.to/lastmile_qr_scan"}, "type": "electric_scooter", "name": "e0a877069831a3a65fe134a787de879b", "is_reserved": 0, "lon": -77.06612216666667, "is_disabled": 0, "fusion_lat": 0.0, "lat": 38.91105, "bike_id": "e0a877069831a3a65fe134a787de879b", "fusion_lon": 0.0}, {"rental_uris": {"ios": "https://dc.lft.to/lastmile_qr_scan", "android": "https://dc.lft.to/lastmile_qr_scan"}, "type": "electric_bike", "name": "e933f32709c4e9e9e1490acaecc1aa67", "is_reserved": 0, "lon": -76.999215, "is_disabled": 0, "fusion_lat": 0.0, "lat": 38.9946945, "bike_id": "e933f32709c4e9e9e1490acaecc1aa67", "fusion_lon": 0.0}, {"rental_uris": {"ios": "https://dc.lft.to/lastmile_qr_scan", "android": "https://dc.lft.to/lastmile_qr_scan"}, "type": "electric_bike", "name": "012268938e9ca55940fd1ba4719bf059", "is_reserved": 0, "lon": -77.0551425, "is_disabled": 0, "fusion_lat": 0.0, "lat": 38.944044, "bike_id": "012268938e9ca55940fd1ba4719bf059", "fusion_lon": 0.0}, {"rental_uris": {"ios": "https://dc.lft.to/lastmile_qr_scan", "android": "https://dc.lft.to/lastmile_qr_scan"}, "type": "electric_scooter", "name": "6439a5f60993e4209f6a09ea3a3d9669", "is_reserved": 0, "lon": -77.0278095, "is_disabled": 0, "fusion_lat": 0.0, "lat": 38.96243916666667, "bike_id": "6439a5f60993e4209f6a09ea3a3d9669", "fusion_lon": 0.0}, {"rental_uris": {"ios": "https://dc.lft.to/lastmile_qr_scan", "android": "https://dc.lft.to/lastmile_qr_scan"}, "type": "electric_scooter", "name": "204542931c437b1466bee6f6909dd5e2", "is_reserved": 0, "lon": -77.05114066666667, "is_disabled": 0, "fusion_lat": 0.0, "lat": 38.92528333333333, "bike_id": "204542931c437b1466bee6f6909dd5e2", "fusion_lon": 0.0}, {"rental_uris": {"ios": "https://dc.lft.to/lastmile_qr_scan", "android": "https://dc.lft.to/lastmile_qr_scan"}, "type": "electric_scooter", "name": "5812ba6243f7499aa0fc933d5a89ecbe", "is_reserved": 0, "lon": -77.046834, "is_disabled": 0, "fusion_lat": 0.0, "lat": 38.8922, "bike_id": "5812ba6243f7499aa0fc933d5a89ecbe", "fusion_lon": 0.0}, {"rental_uris": {"ios": "https://dc.lft.to/lastmile_qr_scan", "android": "https://dc.lft.to/lastmile_qr_scan"}, "type": "electric_bike", "name": "98ae073e6a19bcb4a00d12b546688a83", "is_reserved": 0, "lon": -77.07950983333333, "is_disabled": 0, "fusion_lat": 0.0, "lat": 38.84898283333333, "bike_id": "98ae073e6a19bcb4a00d12b546688a83", "fusion_lon": 0.0}, {"rental_uris": {"ios": "https://dc.lft.to/lastmile_qr_scan", "android": "https://dc.lft.to/lastmile_qr_scan"}, "type": "electric_scooter", "name": "c2e028c676a787702c3f643d61e83e64", "is_reserved": 0, "lon": -77.03663516666667, "is_disabled": 0, "fusion_lat": 0.0, "lat": 38.922868666666666, "bike_id": "c2e028c676a787702c3f643d61e83e64", "fusion_lon": 0.0}, {"rental_uris": {"ios": "https://dc.lft.to/lastmile_qr_scan", "android": "https://dc.lft.to/lastmile_qr_scan"}, "type": "electric_scooter", "name": "cfc54e861d7357c0a08a383b1e4ab1fd", "is_reserved": 0, "lon": -77.020443, "is_disabled": 0, "fusion_lat": 0.0, "lat": 38.922479, "bike_id": "cfc54e861d7357c0a08a383b1e4ab1fd", "fusion_lon": 0.0}, {"rental_uris": {"ios": "https://dc.lft.to/lastmile_qr_scan", "android": "https://dc.lft.to/lastmile_qr_scan"}, "type": "electric_scooter", "name": "66fb02b77867d7136862703c11ec6779", "is_reserved": 0, "lon": -77.03436233333333, "is_disabled": 0, "fusion_lat": 0.0, "lat": 38.90973133333333, "bike_id": "66fb02b77867d7136862703c11ec6779", "fusion_lon": 0.0}, {"rental_uris": {"ios": "https://dc.lft.to/lastmile_qr_scan", "android": "https://dc.lft.to/lastmile_qr_scan"}, "type": "electric_scooter", "name": "8c7c5dd3f0ffe3692db38f22a84df40e", "is_reserved": 0, "lon": -77.000974, "is_disabled": 0, "fusion_lat": 0.0, "lat": 38.881257833333336, "bike_id": "8c7c5dd3f0ffe3692db38f22a84df40e", "fusion_lon": 0.0}, {"rental_uris": {"ios": "https://dc.lft.to/lastmile_qr_scan", "android": "https://dc.lft.to/lastmile_qr_scan"}, "type": "electric_scooter", "name": "b0f7c7f708cfcf775cbc54b48d0233db", "is_reserved": 0, "lon": -77.01979883333334, "is_disabled": 0, "fusion_lat": 0.0, "lat": 38.89950433333333, "bike_id": "b0f7c7f708cfcf775cbc54b48d0233db", "fusion_lon": 0.0}, {"rental_uris": {"ios": "https://dc.lft.to/lastmile_qr_scan", "android": "https://dc.lft.to/lastmile_qr_scan"}, "type": "electric_bike", "name": "6d6e67f0eebeb5da3cac5f3db31463a4", "is_reserved": 0, "lon": -77.02008616666667, "is_disabled": 0, "fusion_lat": 0.0, "lat": 38.96439433333333, "bike_id": "6d6e67f0eebeb5da3cac5f3db31463a4", "fusion_lon": 0.0}, {"rental_uris": {"ios": "https://dc.lft.to/lastmile_qr_scan", "android": "https://dc.lft.to/lastmile_qr_scan"}, "type": "electric_scooter", "name": "8918f653cbe407b0d9d1be7d244e397f", "is_reserved": 0, "lon": -77.01860283333333, "is_disabled": 0, "fusion_lat": 0.0, "lat": 38.94889533333333, "bike_id": "8918f653cbe407b0d9d1be7d244e397f", "fusion_lon": 0.0}, {"rental_uris": {"ios": "https://dc.lft.to/lastmile_qr_scan", "android": "https://dc.lft.to/lastmile_qr_scan"}, "type": "electric_scooter", "name": "726245ef9e2e303997877f7cc2c7f67f", "is_reserved": 0, "lon": -77.02334266666666, "is_disabled": 0, "fusion_lat": 0.0, "lat": 38.922964666666665, "bike_id": "726245ef9e2e303997877f7cc2c7f67f", "fusion_lon": 0.0}, {"rental_uris": {"ios": "https://dc.lft.to/lastmile_qr_scan", "android": "https://dc.lft.to/lastmile_qr_scan"}, "type": "electric_scooter", "name": "cb8ffb406ae2b2262af106c9c0d68568", "is_reserved": 0, "lon": -77.030431, "is_disabled": 0, "fusion_lat": 0.0, "lat": 38.8840185, "bike_id": "cb8ffb406ae2b2262af106c9c0d68568", "fusion_lon": 0.0}, {"rental_uris": {"ios": "https://dc.lft.to/lastmile_qr_scan", "android": "https://dc.lft.to/lastmile_qr_scan"}, "type": "electric_scooter", "name": "66e1a452b0ede99987449dc9534fe6a6", "is_reserved": 0, "lon": -77.0421135, "is_disabled": 0, "fusion_lat": 0.0, "lat": 38.9213175, "bike_id": "66e1a452b0ede99987449dc9534fe6a6", "fusion_lon": 0.0}, {"rental_uris": {"ios": "https://dc.lft.to/lastmile_qr_scan", "android": "https://dc.lft.to/lastmile_qr_scan"}, "type": "electric_scooter", "name": "a0bd7772b5b4dc5fc7aeacb63fb84017", "is_reserved": 0, "lon": -76.98262833333334, "is_disabled": 0, "fusion_lat": 0.0, "lat": 38.86631083333333, "bike_id": "a0bd7772b5b4dc5fc7aeacb63fb84017", "fusion_lon": 0.0}, {"rental_uris": {"ios": "https://dc.lft.to/lastmile_qr_scan", "android": "https://dc.lft.to/lastmile_qr_scan"}, "type": "electric_scooter", "name": "06cc0f69b65dc324994664bb1160b18a", "is_reserved": 0, "lon": -77.0338895, "is_disabled": 0, "fusion_lat": 0.0, "lat": 38.902671833333336, "bike_id": "06cc0f69b65dc324994664bb1160b18a", "fusion_lon": 0.0}, {"rental_uris": {"ios": "https://dc.lft.to/lastmile_qr_scan", "android": "https://dc.lft.to/lastmile_qr_scan"}, "type": "electric_scooter", "name": "f79bd01f5fd8aa5027ac95e2f56ec460", "is_reserved": 0, "lon": -77.03405016666666, "is_disabled": 0, "fusion_lat": 0.0, "lat": 38.93530466666667, "bike_id": "f79bd01f5fd8aa5027ac95e2f56ec460", "fusion_lon": 0.0}, {"rental_uris": {"ios": "https://dc.lft.to/lastmile_qr_scan", "android": "https://dc.lft.to/lastmile_qr_scan"}, "type": "electric_scooter", "name": "d98351867dafde3f2303782327dce465", "is_reserved": 0, "lon": -77.02386, "is_disabled": 0, "fusion_lat": 0.0, "lat": 38.919567, "bike_id": "d98351867dafde3f2303782327dce465", "fusion_lon": 0.0}, {"rental_uris": {"ios": "https://dc.lft.to/lastmile_qr_scan", "android": "https://dc.lft.to/lastmile_qr_scan"}, "type": "electric_scooter", "name": "4e1927c99815c073178bb1f05df0da69", "is_reserved": 0, "lon": -77.0724755, "is_disabled": 0, "fusion_lat": 0.0, "lat": 38.933163666666665, "bike_id": "4e1927c99815c073178bb1f05df0da69", "fusion_lon": 0.0}, {"rental_uris": {"ios": "https://dc.lft.to/lastmile_qr_scan", "android": "https://dc.lft.to/lastmile_qr_scan"}, "type": "electric_scooter", "name": "da237dc99df59291bfd8c35ffd725cdb", "is_reserved": 0, "lon": -77.035372, "is_disabled": 0, "fusion_lat": 0.0, "lat": 38.936059166666666, "bike_id": "da237dc99df59291bfd8c35ffd725cdb", "fusion_lon": 0.0}, {"rental_uris": {"ios": "https://dc.lft.to/lastmile_qr_scan", "android": "https://dc.lft.to/lastmile_qr_scan"}, "type": "electric_scooter", "name": "268a4a8c5e217fb5ff492a916f0a95dd", "is_reserved": 0, "lon": -77.025509, "is_disabled": 0, "fusion_lat": 0.0, "lat": 38.93089033333333, "bike_id": "268a4a8c5e217fb5ff492a916f0a95dd", "fusion_lon": 0.0}, {"rental_uris": {"ios": "https://dc.lft.to/lastmile_qr_scan", "android": "https://dc.lft.to/lastmile_qr_scan"}, "type": "electric_scooter", "name": "d0242eb0fd57a7923c90fe5d3c4abea1", "is_reserved": 0, "lon": -76.990112, "is_disabled": 0, "fusion_lat": 0.0, "lat": 38.89996633333333, "bike_id": "d0242eb0fd57a7923c90fe5d3c4abea1", "fusion_lon": 0.0}, {"rental_uris": {"ios": "https://dc.lft.to/lastmile_qr_scan", "android": "https://dc.lft.to/lastmile_qr_scan"}, "type": "electric_scooter", "name": "d2a4f28a17668010551637e5863ec659", "is_reserved": 0, "lon": -77.022229, "is_disabled": 0, "fusion_lat": 0.0, "lat": 38.92089416666666, "bike_id": "d2a4f28a17668010551637e5863ec659", "fusion_lon": 0.0}, {"rental_uris": {"ios": "https://dc.lft.to/lastmile_qr_scan", "android": "https://dc.lft.to/lastmile_qr_scan"}, "type": "electric_scooter", "name": "8eb1e8851b44d6e4abfb91a809e8b1e8", "is_reserved": 0, "lon": -76.9780325, "is_disabled": 0, "fusion_lat": 0.0, "lat": 38.90308366666667, "bike_id": "8eb1e8851b44d6e4abfb91a809e8b1e8", "fusion_lon": 0.0}, {"rental_uris": {"ios": "https://dc.lft.to/lastmile_qr_scan", "android": "https://dc.lft.to/lastmile_qr_scan"}, "type": "electric_scooter", "name": "6b0603eaf9ab40bdc0148afdcb9dc835", "is_reserved": 0, "lon": -77.02302633333333, "is_disabled": 0, "fusion_lat": 0.0, "lat": 38.91397083333333, "bike_id": "6b0603eaf9ab40bdc0148afdcb9dc835", "fusion_lon": 0.0}, {"rental_uris": {"ios": "https://dc.lft.to/lastmile_qr_scan", "android": "https://dc.lft.to/lastmile_qr_scan"}, "type": "electric_scooter", "name": "11194e2321842777c80229f1104dd29d", "is_reserved": 0, "lon": -77.04496716666667, "is_disabled": 0, "fusion_lat": 0.0, "lat": 38.9193895, "bike_id": "11194e2321842777c80229f1104dd29d", "fusion_lon": 0.0}, {"rental_uris": {"ios": "https://dc.lft.to/lastmile_qr_scan", "android": "https://dc.lft.to/lastmile_qr_scan"}, "type": "electric_scooter", "name": "59361f5a4734881ca016e9efd977aafa", "is_reserved": 0, "lon": -77.01429233333333, "is_disabled": 0, "fusion_lat": 0.0, "lat": 38.91462816666667, "bike_id": "59361f5a4734881ca016e9efd977aafa", "fusion_lon": 0.0}, {"rental_uris": {"ios": "https://dc.lft.to/lastmile_qr_scan", "android": "https://dc.lft.to/lastmile_qr_scan"}, "type": "electric_scooter", "name": "be5e86171935e13b7200d57f09c55ce1", "is_reserved": 0, "lon": -77.04373283333334, "is_disabled": 0, "fusion_lat": 0.0, "lat": 38.934957833333335, "bike_id": "be5e86171935e13b7200d57f09c55ce1", "fusion_lon": 0.0}, {"rental_uris": {"ios": "https://dc.lft.to/lastmile_qr_scan", "android": "https://dc.lft.to/lastmile_qr_scan"}, "type": "electric_scooter", "name": "3f9dfa818a29725e0a16d448e507d182", "is_reserved": 0, "lon": -77.03658366666667, "is_disabled": 0, "fusion_lat": 0.0, "lat": 38.93280466666667, "bike_id": "3f9dfa818a29725e0a16d448e507d182", "fusion_lon": 0.0}, {"rental_uris": {"ios": "https://dc.lft.to/lastmile_qr_scan", "android": "https://dc.lft.to/lastmile_qr_scan"}, "type": "electric_scooter", "name": "733490723479881d4c79046ce474779c", "is_reserved": 0, "lon": -77.0736375, "is_disabled": 0, "fusion_lat": 0.0, "lat": 38.937274, "bike_id": "733490723479881d4c79046ce474779c", "fusion_lon": 0.0}, {"rental_uris": {"ios": "https://dc.lft.to/lastmile_qr_scan", "android": "https://dc.lft.to/lastmile_qr_scan"}, "type": "electric_scooter", "name": "d56061cd1554decd6ff7587fab261ae1", "is_reserved": 0, "lon": -77.0531885, "is_disabled": 0, "fusion_lat": 0.0, "lat": 38.90264533333333, "bike_id": "d56061cd1554decd6ff7587fab261ae1", "fusion_lon": 0.0}, {"rental_uris": {"ios": "https://dc.lft.to/lastmile_qr_scan", "android": "https://dc.lft.to/lastmile_qr_scan"}, "type": "electric_scooter", "name": "c7a68f48a3a5cfaeb43df258d253625b", "is_reserved": 0, "lon": -77.06704616666667, "is_disabled": 0, "fusion_lat": 0.0, "lat": 38.947903333333336, "bike_id": "c7a68f48a3a5cfaeb43df258d253625b", "fusion_lon": 0.0}, {"rental_uris": {"ios": "https://dc.lft.to/lastmile_qr_scan", "android": "https://dc.lft.to/lastmile_qr_scan"}, "type": "electric_bike", "name": "7d58964a2d319de66fe850fd2ce418bb", "is_reserved": 0, "lon": -76.94549283333333, "is_disabled": 0, "fusion_lat": 0.0, "lat": 38.98309316666667, "bike_id": "7d58964a2d319de66fe850fd2ce418bb", "fusion_lon": 0.0}, {"rental_uris": {"ios": "https://dc.lft.to/lastmile_qr_scan", "android": "https://dc.lft.to/lastmile_qr_scan"}, "type": "electric_bike", "name": "66a2cd0fffb33dc9a1a66e47955d7af1", "is_reserved": 0, "lon": -76.95244083333333, "is_disabled": 0, "fusion_lat": 0.0, "lat": 38.884678666666666, "bike_id": "66a2cd0fffb33dc9a1a66e47955d7af1", "fusion_lon": 0.0}, {"rental_uris": {"ios": "https://dc.lft.to/lastmile_qr_scan", "android": "https://dc.lft.to/lastmile_qr_scan"}, "type": "electric_bike", "name": "b647785b1e002f82427c381009e106f7", "is_reserved": 0, "lon": -77.04070766666666, "is_disabled": 0, "fusion_lat": 0.0, "lat": 38.99378466666667, "bike_id": "b647785b1e002f82427c381009e106f7", "fusion_lon": 0.0}, {"rental_uris": {"ios": "https://dc.lft.to/lastmile_qr_scan", "android": "https://dc.lft.to/lastmile_qr_scan"}, "type": "electric_scooter", "name": "07db43e1eaabfb14982f48b9e0d53c8a", "is_reserved": 0, "lon": -77.0145055, "is_disabled": 0, "fusion_lat": 0.0, "lat": 38.911103833333335, "bike_id": "07db43e1eaabfb14982f48b9e0d53c8a", "fusion_lon": 0.0}, {"rental_uris": {"ios": "https://dc.lft.to/lastmile_qr_scan", "android": "https://dc.lft.to/lastmile_qr_scan"}, "type": "electric_scooter", "name": "0d7bf228a0fd86eaaf28e639ef960305", "is_reserved": 0, "lon": -76.9972585, "is_disabled": 0, "fusion_lat": 0.0, "lat": 38.911148, "bike_id": "0d7bf228a0fd86eaaf28e639ef960305", "fusion_lon": 0.0}, {"rental_uris": {"ios": "https://dc.lft.to/lastmile_qr_scan", "android": "https://dc.lft.to/lastmile_qr_scan"}, "type": "electric_scooter", "name": "ec870401860a2140439ddea1350e1284", "is_reserved": 0, "lon": -77.08400966666666, "is_disabled": 0, "fusion_lat": 0.0, "lat": 38.908031666666666, "bike_id": "ec870401860a2140439ddea1350e1284", "fusion_lon": 0.0}, {"rental_uris": {"ios": "https://dc.lft.to/lastmile_qr_scan", "android": "https://dc.lft.to/lastmile_qr_scan"}, "type": "electric_bike", "name": "869fdc32e90f63f698dc4be15fc56f79", "is_reserved": 0, "lon": -76.99672883333334, "is_disabled": 0, "fusion_lat": 0.0, "lat": 38.90127483333333, "bike_id": "869fdc32e90f63f698dc4be15fc56f79", "fusion_lon": 0.0}, {"rental_uris": {"ios": "https://dc.lft.to/lastmile_qr_scan", "android": "https://dc.lft.to/lastmile_qr_scan"}, "type": "electric_bike", "name": "b4433467c660a94951d0dc260e6392db", "is_reserved": 0, "lon": -77.07917533333334, "is_disabled": 0, "fusion_lat": 0.0, "lat": 38.83830783333333, "bike_id": "b4433467c660a94951d0dc260e6392db", "fusion_lon": 0.0}, {"rental_uris": {"ios": "https://dc.lft.to/lastmile_qr_scan", "android": "https://dc.lft.to/lastmile_qr_scan"}, "type": "electric_scooter", "name": "f1f7bd9f20a80956ccc7f3be1cc8ae4e", "is_reserved": 0, "lon": -77.0454715, "is_disabled": 0, "fusion_lat": 0.0, "lat": 38.932848666666665, "bike_id": "f1f7bd9f20a80956ccc7f3be1cc8ae4e", "fusion_lon": 0.0}, {"rental_uris": {"ios": "https://dc.lft.to/lastmile_qr_scan", "android": "https://dc.lft.to/lastmile_qr_scan"}, "type": "electric_scooter", "name": "30628ff036c902ef991a4655227dfb0f", "is_reserved": 0, "lon": -76.9850745, "is_disabled": 0, "fusion_lat": 0.0, "lat": 38.906909, "bike_id": "30628ff036c902ef991a4655227dfb0f", "fusion_lon": 0.0}, {"rental_uris": {"ios": "https://dc.lft.to/lastmile_qr_scan", "android": "https://dc.lft.to/lastmile_qr_scan"}, "type": "electric_scooter", "name": "c9404a46a1648739ae9a8bc8358c8649", "is_reserved": 0, "lon": -77.035418, "is_disabled": 0, "fusion_lat": 0.0, "lat": 38.92333083333333, "bike_id": "c9404a46a1648739ae9a8bc8358c8649", "fusion_lon": 0.0}, {"rental_uris": {"ios": "https://dc.lft.to/lastmile_qr_scan", "android": "https://dc.lft.to/lastmile_qr_scan"}, "type": "electric_scooter", "name": "2458807bb069ee2108d7a20beb64e70c", "is_reserved": 0, "lon": -77.00569216666666, "is_disabled": 0, "fusion_lat": 0.0, "lat": 38.87456316666667, "bike_id": "2458807bb069ee2108d7a20beb64e70c", "fusion_lon": 0.0}, {"rental_uris": {"ios": "https://dc.lft.to/lastmile_qr_scan", "android": "https://dc.lft.to/lastmile_qr_scan"}, "type": "electric_scooter", "name": "418d6c0b39c22c5367d911b7d196a7c4", "is_reserved": 0, "lon": -77.03817283333333, "is_disabled": 0, "fusion_lat": 0.0, "lat": 38.91555016666667, "bike_id": "418d6c0b39c22c5367d911b7d196a7c4", "fusion_lon": 0.0}, {"rental_uris": {"ios": "https://dc.lft.to/lastmile_qr_scan", "android": "https://dc.lft.to/lastmile_qr_scan"}, "type": "electric_scooter", "name": "4eec4b430d1e24946531fe864c1dc414", "is_reserved": 0, "lon": -77.0189835, "is_disabled": 0, "fusion_lat": 0.0, "lat": 38.923367, "bike_id": "4eec4b430d1e24946531fe864c1dc414", "fusion_lon": 0.0}, {"rental_uris": {"ios": "https://dc.lft.to/lastmile_qr_scan", "android": "https://dc.lft.to/lastmile_qr_scan"}, "type": "electric_scooter", "name": "45f9e8f78e7d68b6bf82d26d7c200f6a", "is_reserved": 0, "lon": -76.99036066666666, "is_disabled": 0, "fusion_lat": 0.0, "lat": 38.888727833333334, "bike_id": "45f9e8f78e7d68b6bf82d26d7c200f6a", "fusion_lon": 0.0}, {"rental_uris": {"ios": "https://dc.lft.to/lastmile_qr_scan", "android": "https://dc.lft.to/lastmile_qr_scan"}, "type": "electric_scooter", "name": "039871c181485b4afca6f605ef125de0", "is_reserved": 0, "lon": -76.95704233333333, "is_disabled": 0, "fusion_lat": 0.0, "lat": 38.892055, "bike_id": "039871c181485b4afca6f605ef125de0", "fusion_lon": 0.0}, {"rental_uris": {"ios": "https://dc.lft.to/lastmile_qr_scan", "android": "https://dc.lft.to/lastmile_qr_scan"}, "type": "electric_scooter", "name": "39d87a91a4d824c7479e8883989176ee", "is_reserved": 0, "lon": -77.01164866666667, "is_disabled": 0, "fusion_lat": 0.0, "lat": 38.91469766666667, "bike_id": "39d87a91a4d824c7479e8883989176ee", "fusion_lon": 0.0}, {"rental_uris": {"ios": "https://dc.lft.to/lastmile_qr_scan", "android": "https://dc.lft.to/lastmile_qr_scan"}, "type": "electric_bike", "name": "7de87e71966ae5b477cf0b22b3fb42ed", "is_reserved": 0, "lon": -76.97536283333334, "is_disabled": 0, "fusion_lat": 0.0, "lat": 38.90324966666667, "bike_id": "7de87e71966ae5b477cf0b22b3fb42ed", "fusion_lon": 0.0}, {"rental_uris": {"ios": "https://dc.lft.to/lastmile_qr_scan", "android": "https://dc.lft.to/lastmile_qr_scan"}, "type": "electric_scooter", "name": "e6d42c18806400ff5e024a7896a66dfe", "is_reserved": 0, "lon": -77.04363066666667, "is_disabled": 0, "fusion_lat": 0.0, "lat": 38.901043333333334, "bike_id": "e6d42c18806400ff5e024a7896a66dfe", "fusion_lon": 0.0}, {"rental_uris": {"ios": "https://dc.lft.to/lastmile_qr_scan", "android": "https://dc.lft.to/lastmile_qr_scan"}, "type": "electric_scooter", "name": "7683de7ba7ccfd00ecaa92ec0159061f", "is_reserved": 0, "lon": -77.01765316666666, "is_disabled": 0, "fusion_lat": 0.0, "lat": 38.920856, "bike_id": "7683de7ba7ccfd00ecaa92ec0159061f", "fusion_lon": 0.0}, {"rental_uris": {"ios": "https://dc.lft.to/lastmile_qr_scan", "android": "https://dc.lft.to/lastmile_qr_scan"}, "type": "electric_scooter", "name": "61ac7aab46960d0b20f26de65231fb36", "is_reserved": 0, "lon": -77.01764916666667, "is_disabled": 0, "fusion_lat": 0.0, "lat": 38.877091666666665, "bike_id": "61ac7aab46960d0b20f26de65231fb36", "fusion_lon": 0.0}, {"rental_uris": {"ios": "https://dc.lft.to/lastmile_qr_scan", "android": "https://dc.lft.to/lastmile_qr_scan"}, "type": "electric_scooter", "name": "285abcd0b96bbfc10c1e086437181fa8", "is_reserved": 0, "lon": -77.009319, "is_disabled": 0, "fusion_lat": 0.0, "lat": 38.91253016666667, "bike_id": "285abcd0b96bbfc10c1e086437181fa8", "fusion_lon": 0.0}, {"rental_uris": {"ios": "https://dc.lft.to/lastmile_qr_scan", "android": "https://dc.lft.to/lastmile_qr_scan"}, "type": "electric_scooter", "name": "f7125c68f008d4e457e7b97c66ed926f", "is_reserved": 0, "lon": -77.03861566666667, "is_disabled": 0, "fusion_lat": 0.0, "lat": 38.91712716666667, "bike_id": "f7125c68f008d4e457e7b97c66ed926f", "fusion_lon": 0.0}, {"rental_uris": {"ios": "https://dc.lft.to/lastmile_qr_scan", "android": "https://dc.lft.to/lastmile_qr_scan"}, "type": "electric_scooter", "name": "664d73bf5e11c2539854d968dcb250b1", "is_reserved": 0, "lon": -77.00403, "is_disabled": 0, "fusion_lat": 0.0, "lat": 38.874434, "bike_id": "664d73bf5e11c2539854d968dcb250b1", "fusion_lon": 0.0}, {"rental_uris": {"ios": "https://dc.lft.to/lastmile_qr_scan", "android": "https://dc.lft.to/lastmile_qr_scan"}, "type": "electric_bike", "name": "c29393e2f7cb8fe02988ba2d04e913d3", "is_reserved": 0, "lon": -77.02203683333333, "is_disabled": 0, "fusion_lat": 0.0, "lat": 38.95152383333333, "bike_id": "c29393e2f7cb8fe02988ba2d04e913d3", "fusion_lon": 0.0}, {"rental_uris": {"ios": "https://dc.lft.to/lastmile_qr_scan", "android": "https://dc.lft.to/lastmile_qr_scan"}, "type": "electric_scooter", "name": "56a65949676c6a2f2997e9513071514e", "is_reserved": 0, "lon": -77.038056, "is_disabled": 0, "fusion_lat": 0.0, "lat": 38.91185816666667, "bike_id": "56a65949676c6a2f2997e9513071514e", "fusion_lon": 0.0}, {"rental_uris": {"ios": "https://dc.lft.to/lastmile_qr_scan", "android": "https://dc.lft.to/lastmile_qr_scan"}, "type": "electric_scooter", "name": "71f5bd5d4f6e1651be5e1aa83964641d", "is_reserved": 0, "lon": -77.021003, "is_disabled": 0, "fusion_lat": 0.0, "lat": 38.93006316666666, "bike_id": "71f5bd5d4f6e1651be5e1aa83964641d", "fusion_lon": 0.0}, {"rental_uris": {"ios": "https://dc.lft.to/lastmile_qr_scan", "android": "https://dc.lft.to/lastmile_qr_scan"}, "type": "electric_scooter", "name": "6489f33b3d68cf395799e3b3d3cd8ff1", "is_reserved": 0, "lon": -77.0247445, "is_disabled": 0, "fusion_lat": 0.0, "lat": 38.91812633333333, "bike_id": "6489f33b3d68cf395799e3b3d3cd8ff1", "fusion_lon": 0.0}, {"rental_uris": {"ios": "https://dc.lft.to/lastmile_qr_scan", "android": "https://dc.lft.to/lastmile_qr_scan"}, "type": "electric_scooter", "name": "9592e490de1f6e985f1aac1ef8b62a14", "is_reserved": 0, "lon": -77.04190983333334, "is_disabled": 0, "fusion_lat": 0.0, "lat": 38.920541166666666, "bike_id": "9592e490de1f6e985f1aac1ef8b62a14", "fusion_lon": 0.0}, {"rental_uris": {"ios": "https://dc.lft.to/lastmile_qr_scan", "android": "https://dc.lft.to/lastmile_qr_scan"}, "type": "electric_scooter", "name": "2f8bd13bc1ce5b4002e158152c0706b2", "is_reserved": 0, "lon": -77.04802716666667, "is_disabled": 0, "fusion_lat": 0.0, "lat": 38.91108766666667, "bike_id": "2f8bd13bc1ce5b4002e158152c0706b2", "fusion_lon": 0.0}, {"rental_uris": {"ios": "https://dc.lft.to/lastmile_qr_scan", "android": "https://dc.lft.to/lastmile_qr_scan"}, "type": "electric_scooter", "name": "50b1889389e9869585fe3a3446534be9", "is_reserved": 0, "lon": -77.021384, "is_disabled": 0, "fusion_lat": 0.0, "lat": 38.905559333333336, "bike_id": "50b1889389e9869585fe3a3446534be9", "fusion_lon": 0.0}, {"rental_uris": {"ios": "https://dc.lft.to/lastmile_qr_scan", "android": "https://dc.lft.to/lastmile_qr_scan"}, "type": "electric_scooter", "name": "3c33e7f591dd3f9c6aa710f668ad8e05", "is_reserved": 0, "lon": -77.06108783333333, "is_disabled": 0, "fusion_lat": 0.0, "lat": 38.904988333333336, "bike_id": "3c33e7f591dd3f9c6aa710f668ad8e05", "fusion_lon": 0.0}, {"rental_uris": {"ios": "https://dc.lft.to/lastmile_qr_scan", "android": "https://dc.lft.to/lastmile_qr_scan"}, "type": "electric_scooter", "name": "55f79dcd8385b982b44758bb365e7e95", "is_reserved": 0, "lon": -77.02947016666667, "is_disabled": 0, "fusion_lat": 0.0, "lat": 38.905049166666664, "bike_id": "55f79dcd8385b982b44758bb365e7e95", "fusion_lon": 0.0}, {"rental_uris": {"ios": "https://dc.lft.to/lastmile_qr_scan", "android": "https://dc.lft.to/lastmile_qr_scan"}, "type": "electric_scooter", "name": "b6833c396a932cbda3852e11e09451fd", "is_reserved": 0, "lon": -77.0433775, "is_disabled": 0, "fusion_lat": 0.0, "lat": 38.89220733333333, "bike_id": "b6833c396a932cbda3852e11e09451fd", "fusion_lon": 0.0}, {"rental_uris": {"ios": "https://dc.lft.to/lastmile_qr_scan", "android": "https://dc.lft.to/lastmile_qr_scan"}, "type": "electric_scooter", "name": "39258b05ae4f5637d5fe21c773432a36", "is_reserved": 0, "lon": -77.0243105, "is_disabled": 0, "fusion_lat": 0.0, "lat": 38.9231915, "bike_id": "39258b05ae4f5637d5fe21c773432a36", "fusion_lon": 0.0}, {"rental_uris": {"ios": "https://dc.lft.to/lastmile_qr_scan", "android": "https://dc.lft.to/lastmile_qr_scan"}, "type": "electric_scooter", "name": "6a929ca5c0ad4a42aaf2011df32d2f5a", "is_reserved": 0, "lon": -77.031829, "is_disabled": 0, "fusion_lat": 0.0, "lat": 38.909436, "bike_id": "6a929ca5c0ad4a42aaf2011df32d2f5a", "fusion_lon": 0.0}, {"rental_uris": {"ios": "https://dc.lft.to/lastmile_qr_scan", "android": "https://dc.lft.to/lastmile_qr_scan"}, "type": "electric_scooter", "name": "df1044ed4bff57914ef711a2b965874a", "is_reserved": 0, "lon": -76.979818, "is_disabled": 0, "fusion_lat": 0.0, "lat": 38.897329666666664, "bike_id": "df1044ed4bff57914ef711a2b965874a", "fusion_lon": 0.0}, {"rental_uris": {"ios": "https://dc.lft.to/lastmile_qr_scan", "android": "https://dc.lft.to/lastmile_qr_scan"}, "type": "electric_scooter", "name": "c12800485dd98aea8a2ca7d567a3fe62", "is_reserved": 0, "lon": -77.0323695, "is_disabled": 0, "fusion_lat": 0.0, "lat": 38.899335666666666, "bike_id": "c12800485dd98aea8a2ca7d567a3fe62", "fusion_lon": 0.0}, {"rental_uris": {"ios": "https://dc.lft.to/lastmile_qr_scan", "android": "https://dc.lft.to/lastmile_qr_scan"}, "type": "electric_scooter", "name": "baf81c67c98653d74306c0120d8168d2", "is_reserved": 0, "lon": -77.0579115, "is_disabled": 0, "fusion_lat": 0.0, "lat": 38.934788, "bike_id": "baf81c67c98653d74306c0120d8168d2", "fusion_lon": 0.0}, {"rental_uris": {"ios": "https://dc.lft.to/lastmile_qr_scan", "android": "https://dc.lft.to/lastmile_qr_scan"}, "type": "electric_bike", "name": "50083d0390dc60250ece93fbda9b2405", "is_reserved": 0, "lon": -76.90741916666667, "is_disabled": 0, "fusion_lat": 0.0, "lat": 38.896185333333335, "bike_id": "50083d0390dc60250ece93fbda9b2405", "fusion_lon": 0.0}, {"rental_uris": {"ios": "https://dc.lft.to/lastmile_qr_scan", "android": "https://dc.lft.to/lastmile_qr_scan"}, "type": "electric_scooter", "name": "bd7c88f1509055295476e78c51cf5c79", "is_reserved": 0, "lon": -77.0457115, "is_disabled": 0, "fusion_lat": 0.0, "lat": 38.91408033333333, "bike_id": "bd7c88f1509055295476e78c51cf5c79", "fusion_lon": 0.0}, {"rental_uris": {"ios": "https://dc.lft.to/lastmile_qr_scan", "android": "https://dc.lft.to/lastmile_qr_scan"}, "type": "electric_scooter", "name": "3fa3aa31042f3c4e51a6a071fb257acb", "is_reserved": 0, "lon": -77.0270785, "is_disabled": 0, "fusion_lat": 0.0, "lat": 38.93575233333333, "bike_id": "3fa3aa31042f3c4e51a6a071fb257acb", "fusion_lon": 0.0}, {"rental_uris": {"ios": "https://dc.lft.to/lastmile_qr_scan", "android": "https://dc.lft.to/lastmile_qr_scan"}, "type": "electric_scooter", "name": "cc065515859ee9809f0805f07310b036", "is_reserved": 0, "lon": -77.0226785, "is_disabled": 0, "fusion_lat": 0.0, "lat": 38.92402533333333, "bike_id": "cc065515859ee9809f0805f07310b036", "fusion_lon": 0.0}, {"rental_uris": {"ios": "https://dc.lft.to/lastmile_qr_scan", "android": "https://dc.lft.to/lastmile_qr_scan"}, "type": "electric_scooter", "name": "cbadd86bef488bf6c81389962b33113e", "is_reserved": 0, "lon": -77.0162565, "is_disabled": 0, "fusion_lat": 0.0, "lat": 38.906586833333336, "bike_id": "cbadd86bef488bf6c81389962b33113e", "fusion_lon": 0.0}, {"rental_uris": {"ios": "https://dc.lft.to/lastmile_qr_scan", "android": "https://dc.lft.to/lastmile_qr_scan"}, "type": "electric_bike", "name": "a7dfd96b14557adf07f99fa0f162f7a4", "is_reserved": 0, "lon": -76.9949225, "is_disabled": 0, "fusion_lat": 0.0, "lat": 38.862145166666664, "bike_id": "a7dfd96b14557adf07f99fa0f162f7a4", "fusion_lon": 0.0}, {"rental_uris": {"ios": "https://dc.lft.to/lastmile_qr_scan", "android": "https://dc.lft.to/lastmile_qr_scan"}, "type": "electric_scooter", "name": "40f88f2289a76e05c7b90520b8227f00", "is_reserved": 0, "lon": -77.00598116666667, "is_disabled": 0, "fusion_lat": 0.0, "lat": 38.90559983333333, "bike_id": "40f88f2289a76e05c7b90520b8227f00", "fusion_lon": 0.0}, {"rental_uris": {"ios": "https://dc.lft.to/lastmile_qr_scan", "android": "https://dc.lft.to/lastmile_qr_scan"}, "type": "electric_scooter", "name": "eeda2f97ff2a00c653b2be5e68578b64", "is_reserved": 0, "lon": -77.04989216666667, "is_disabled": 0, "fusion_lat": 0.0, "lat": 38.900595333333335, "bike_id": "eeda2f97ff2a00c653b2be5e68578b64", "fusion_lon": 0.0}, {"rental_uris": {"ios": "https://dc.lft.to/lastmile_qr_scan", "android": "https://dc.lft.to/lastmile_qr_scan"}, "type": "electric_scooter", "name": "83c720833add4f1ed9fca3a491357c5f", "is_reserved": 0, "lon": -77.03383833333334, "is_disabled": 0, "fusion_lat": 0.0, "lat": 38.902684, "bike_id": "83c720833add4f1ed9fca3a491357c5f", "fusion_lon": 0.0}, {"rental_uris": {"ios": "https://dc.lft.to/lastmile_qr_scan", "android": "https://dc.lft.to/lastmile_qr_scan"}, "type": "electric_scooter", "name": "12fb8b2164d1e4c1a40d8bce137ccafb", "is_reserved": 0, "lon": -77.02983366666666, "is_disabled": 0, "fusion_lat": 0.0, "lat": 38.90555633333334, "bike_id": "12fb8b2164d1e4c1a40d8bce137ccafb", "fusion_lon": 0.0}, {"rental_uris": {"ios": "https://dc.lft.to/lastmile_qr_scan", "android": "https://dc.lft.to/lastmile_qr_scan"}, "type": "electric_scooter", "name": "185c595f3c47420816706bf359cabcb5", "is_reserved": 0, "lon": -77.038805, "is_disabled": 0, "fusion_lat": 0.0, "lat": 38.90374083333333, "bike_id": "185c595f3c47420816706bf359cabcb5", "fusion_lon": 0.0}, {"rental_uris": {"ios": "https://dc.lft.to/lastmile_qr_scan", "android": "https://dc.lft.to/lastmile_qr_scan"}, "type": "electric_scooter", "name": "5e83f1c9bfa08d58ba264eddfa3055f7", "is_reserved": 0, "lon": -77.00915783333333, "is_disabled": 0, "fusion_lat": 0.0, "lat": 38.923413333333336, "bike_id": "5e83f1c9bfa08d58ba264eddfa3055f7", "fusion_lon": 0.0}, {"rental_uris": {"ios": "https://dc.lft.to/lastmile_qr_scan", "android": "https://dc.lft.to/lastmile_qr_scan"}, "type": "electric_scooter", "name": "dfe6ae846567970effdef5b55f235405", "is_reserved": 0, "lon": -77.02886316666667, "is_disabled": 0, "fusion_lat": 0.0, "lat": 38.9044655, "bike_id": "dfe6ae846567970effdef5b55f235405", "fusion_lon": 0.0}, {"rental_uris": {"ios": "https://dc.lft.to/lastmile_qr_scan", "android": "https://dc.lft.to/lastmile_qr_scan"}, "type": "electric_scooter", "name": "15e40edaae0a472a6639bf1c64ad4e64", "is_reserved": 0, "lon": -77.05317133333334, "is_disabled": 0, "fusion_lat": 0.0, "lat": 38.9064565, "bike_id": "15e40edaae0a472a6639bf1c64ad4e64", "fusion_lon": 0.0}, {"rental_uris": {"ios": "https://dc.lft.to/lastmile_qr_scan", "android": "https://dc.lft.to/lastmile_qr_scan"}, "type": "electric_scooter", "name": "6b6de848912eec3c2790bb8737a37712", "is_reserved": 0, "lon": -77.02309316666667, "is_disabled": 0, "fusion_lat": 0.0, "lat": 38.96127416666667, "bike_id": "6b6de848912eec3c2790bb8737a37712", "fusion_lon": 0.0}, {"rental_uris": {"ios": "https://dc.lft.to/lastmile_qr_scan", "android": "https://dc.lft.to/lastmile_qr_scan"}, "type": "electric_scooter", "name": "ba588ab8a3af109c084ca81a80037faa", "is_reserved": 0, "lon": -77.04430716666667, "is_disabled": 0, "fusion_lat": 0.0, "lat": 38.897415, "bike_id": "ba588ab8a3af109c084ca81a80037faa", "fusion_lon": 0.0}, {"rental_uris": {"ios": "https://dc.lft.to/lastmile_qr_scan", "android": "https://dc.lft.to/lastmile_qr_scan"}, "type": "electric_scooter", "name": "d2d73a337fddc4ad39024d3aead82ff3", "is_reserved": 0, "lon": -77.01865233333334, "is_disabled": 0, "fusion_lat": 0.0, "lat": 38.951504166666666, "bike_id": "d2d73a337fddc4ad39024d3aead82ff3", "fusion_lon": 0.0}, {"rental_uris": {"ios": "https://dc.lft.to/lastmile_qr_scan", "android": "https://dc.lft.to/lastmile_qr_scan"}, "type": "electric_scooter", "name": "76d5304bc070e0bcbda23d245684236d", "is_reserved": 0, "lon": -76.99440483333333, "is_disabled": 0, "fusion_lat": 0.0, "lat": 38.9592005, "bike_id": "76d5304bc070e0bcbda23d245684236d", "fusion_lon": 0.0}, {"rental_uris": {"ios": "https://dc.lft.to/lastmile_qr_scan", "android": "https://dc.lft.to/lastmile_qr_scan"}, "type": "electric_scooter", "name": "9254bd41afbaa2791eb5d5479931d0e4", "is_reserved": 0, "lon": -76.97204766666667, "is_disabled": 0, "fusion_lat": 0.0, "lat": 38.92457233333333, "bike_id": "9254bd41afbaa2791eb5d5479931d0e4", "fusion_lon": 0.0}, {"rental_uris": {"ios": "https://dc.lft.to/lastmile_qr_scan", "android": "https://dc.lft.to/lastmile_qr_scan"}, "type": "electric_scooter", "name": "73a420ea237a006cc51b158fc22f0552", "is_reserved": 0, "lon": -77.04042, "is_disabled": 0, "fusion_lat": 0.0, "lat": 38.93008316666667, "bike_id": "73a420ea237a006cc51b158fc22f0552", "fusion_lon": 0.0}, {"rental_uris": {"ios": "https://dc.lft.to/lastmile_qr_scan", "android": "https://dc.lft.to/lastmile_qr_scan"}, "type": "electric_scooter", "name": "d70d800174e01eeb1f7d37aa8c648071", "is_reserved": 0, "lon": -77.00426083333333, "is_disabled": 0, "fusion_lat": 0.0, "lat": 38.885054333333336, "bike_id": "d70d800174e01eeb1f7d37aa8c648071", "fusion_lon": 0.0}, {"rental_uris": {"ios": "https://dc.lft.to/lastmile_qr_scan", "android": "https://dc.lft.to/lastmile_qr_scan"}, "type": "electric_scooter", "name": "48a0b49324f0a1f5f37335795b03e6e8", "is_reserved": 0, "lon": -77.02276816666667, "is_disabled": 0, "fusion_lat": 0.0, "lat": 38.924722833333334, "bike_id": "48a0b49324f0a1f5f37335795b03e6e8", "fusion_lon": 0.0}, {"rental_uris": {"ios": "https://dc.lft.to/lastmile_qr_scan", "android": "https://dc.lft.to/lastmile_qr_scan"}, "type": "electric_scooter", "name": "01593542b6c602c88c4a1dfa430469f5", "is_reserved": 0, "lon": -77.0378495, "is_disabled": 0, "fusion_lat": 0.0, "lat": 38.91571283333333, "bike_id": "01593542b6c602c88c4a1dfa430469f5", "fusion_lon": 0.0}, {"rental_uris": {"ios": "https://dc.lft.to/lastmile_qr_scan", "android": "https://dc.lft.to/lastmile_qr_scan"}, "type": "electric_scooter", "name": "9c3870b7bfc2ef6ffdd92d78afd64f35", "is_reserved": 0, "lon": -77.02622283333334, "is_disabled": 0, "fusion_lat": 0.0, "lat": 38.95189716666667, "bike_id": "9c3870b7bfc2ef6ffdd92d78afd64f35", "fusion_lon": 0.0}, {"rental_uris": {"ios": "https://dc.lft.to/lastmile_qr_scan", "android": "https://dc.lft.to/lastmile_qr_scan"}, "type": "electric_scooter", "name": "4189036cd213f6e260234d30b7efcba7", "is_reserved": 0, "lon": -77.025703, "is_disabled": 0, "fusion_lat": 0.0, "lat": 38.88745266666667, "bike_id": "4189036cd213f6e260234d30b7efcba7", "fusion_lon": 0.0}, {"rental_uris": {"ios": "https://dc.lft.to/lastmile_qr_scan", "android": "https://dc.lft.to/lastmile_qr_scan"}, "type": "electric_scooter", "name": "2c3cbc5540831f37c0ec8c93cc9281da", "is_reserved": 0, "lon": -77.0250535, "is_disabled": 0, "fusion_lat": 0.0, "lat": 38.9421075, "bike_id": "2c3cbc5540831f37c0ec8c93cc9281da", "fusion_lon": 0.0}, {"rental_uris": {"ios": "https://dc.lft.to/lastmile_qr_scan", "android": "https://dc.lft.to/lastmile_qr_scan"}, "type": "electric_scooter", "name": "af6e95510f146eb5f2ceba7975e623c9", "is_reserved": 0, "lon": -76.98314566666667, "is_disabled": 0, "fusion_lat": 0.0, "lat": 38.925877166666666, "bike_id": "af6e95510f146eb5f2ceba7975e623c9", "fusion_lon": 0.0}, {"rental_uris": {"ios": "https://dc.lft.to/lastmile_qr_scan", "android": "https://dc.lft.to/lastmile_qr_scan"}, "type": "electric_bike", "name": "c9ec2d1f96e201006a28d1bee743b239", "is_reserved": 0, "lon": -77.007286, "is_disabled": 0, "fusion_lat": 0.0, "lat": 38.832512666666666, "bike_id": "c9ec2d1f96e201006a28d1bee743b239", "fusion_lon": 0.0}, {"rental_uris": {"ios": "https://dc.lft.to/lastmile_qr_scan", "android": "https://dc.lft.to/lastmile_qr_scan"}, "type": "electric_scooter", "name": "2a0a329e85abc70917e841d12d78c52e", "is_reserved": 0, "lon": -77.02319933333334, "is_disabled": 0, "fusion_lat": 0.0, "lat": 38.917742833333335, "bike_id": "2a0a329e85abc70917e841d12d78c52e", "fusion_lon": 0.0}, {"rental_uris": {"ios": "https://dc.lft.to/lastmile_qr_scan", "android": "https://dc.lft.to/lastmile_qr_scan"}, "type": "electric_scooter", "name": "aca429621c4ae1485fc7a32bbe9fd5cd", "is_reserved": 0, "lon": -77.03662383333334, "is_disabled": 0, "fusion_lat": 0.0, "lat": 38.917233833333334, "bike_id": "aca429621c4ae1485fc7a32bbe9fd5cd", "fusion_lon": 0.0}, {"rental_uris": {"ios": "https://dc.lft.to/lastmile_qr_scan", "android": "https://dc.lft.to/lastmile_qr_scan"}, "type": "electric_scooter", "name": "8efab8680a79c2ae6c2630acc6835bbe", "is_reserved": 0, "lon": -77.00064266666666, "is_disabled": 0, "fusion_lat": 0.0, "lat": 38.961314333333334, "bike_id": "8efab8680a79c2ae6c2630acc6835bbe", "fusion_lon": 0.0}, {"rental_uris": {"ios": "https://dc.lft.to/lastmile_qr_scan", "android": "https://dc.lft.to/lastmile_qr_scan"}, "type": "electric_scooter", "name": "bc05efa89073c6daa5da3f09cdb61503", "is_reserved": 0, "lon": -77.02801466666666, "is_disabled": 0, "fusion_lat": 0.0, "lat": 38.907306, "bike_id": "bc05efa89073c6daa5da3f09cdb61503", "fusion_lon": 0.0}, {"rental_uris": {"ios": "https://dc.lft.to/lastmile_qr_scan", "android": "https://dc.lft.to/lastmile_qr_scan"}, "type": "electric_scooter", "name": "8745266527564890f4e444a88d5846b4", "is_reserved": 0, "lon": -76.976296, "is_disabled": 0, "fusion_lat": 0.0, "lat": 38.9057, "bike_id": "8745266527564890f4e444a88d5846b4", "fusion_lon": 0.0}, {"rental_uris": {"ios": "https://dc.lft.to/lastmile_qr_scan", "android": "https://dc.lft.to/lastmile_qr_scan"}, "type": "electric_scooter", "name": "19be84b8a090aa9c694d7e3f285ec564", "is_reserved": 0, "lon": -77.03493083333333, "is_disabled": 0, "fusion_lat": 0.0, "lat": 38.932688166666665, "bike_id": "19be84b8a090aa9c694d7e3f285ec564", "fusion_lon": 0.0}, {"rental_uris": {"ios": "https://dc.lft.to/lastmile_qr_scan", "android": "https://dc.lft.to/lastmile_qr_scan"}, "type": "electric_bike", "name": "d68e53dd0b5790dc4727a15c053fe1ee", "is_reserved": 0, "lon": -77.234106, "is_disabled": 0, "fusion_lat": 0.0, "lat": 38.8758, "bike_id": "d68e53dd0b5790dc4727a15c053fe1ee", "fusion_lon": 0.0}, {"rental_uris": {"ios": "https://dc.lft.to/lastmile_qr_scan", "android": "https://dc.lft.to/lastmile_qr_scan"}, "type": "electric_scooter", "name": "90d75c6a13f2a899c458b6e6daea5ec8", "is_reserved": 0, "lon": -77.05523683333334, "is_disabled": 0, "fusion_lat": 0.0, "lat": 38.8972935, "bike_id": "90d75c6a13f2a899c458b6e6daea5ec8", "fusion_lon": 0.0}, {"rental_uris": {"ios": "https://dc.lft.to/lastmile_qr_scan", "android": "https://dc.lft.to/lastmile_qr_scan"}, "type": "electric_scooter", "name": "54cfc7fb22732cfe3b4d7484045a5355", "is_reserved": 0, "lon": -77.02103533333333, "is_disabled": 0, "fusion_lat": 0.0, "lat": 38.9119275, "bike_id": "54cfc7fb22732cfe3b4d7484045a5355", "fusion_lon": 0.0}, {"rental_uris": {"ios": "https://dc.lft.to/lastmile_qr_scan", "android": "https://dc.lft.to/lastmile_qr_scan"}, "type": "electric_scooter", "name": "7409caf119f94bd169fe409d38ca9163", "is_reserved": 0, "lon": -77.04948283333333, "is_disabled": 0, "fusion_lat": 0.0, "lat": 38.920191, "bike_id": "7409caf119f94bd169fe409d38ca9163", "fusion_lon": 0.0}, {"rental_uris": {"ios": "https://dc.lft.to/lastmile_qr_scan", "android": "https://dc.lft.to/lastmile_qr_scan"}, "type": "electric_scooter", "name": "25bce46baea169cba8779b065bdd1201", "is_reserved": 0, "lon": -77.02954316666667, "is_disabled": 0, "fusion_lat": 0.0, "lat": 38.922647166666664, "bike_id": "25bce46baea169cba8779b065bdd1201", "fusion_lon": 0.0}, {"rental_uris": {"ios": "https://dc.lft.to/lastmile_qr_scan", "android": "https://dc.lft.to/lastmile_qr_scan"}, "type": "electric_scooter", "name": "b28cd468e3b8f38d925205f55bacf9f3", "is_reserved": 0, "lon": -76.98942016666666, "is_disabled": 0, "fusion_lat": 0.0, "lat": 38.9039185, "bike_id": "b28cd468e3b8f38d925205f55bacf9f3", "fusion_lon": 0.0}, {"rental_uris": {"ios": "https://dc.lft.to/lastmile_qr_scan", "android": "https://dc.lft.to/lastmile_qr_scan"}, "type": "electric_scooter", "name": "ab5c5c20593b8904b629820df018b83d", "is_reserved": 0, "lon": -77.04860116666667, "is_disabled": 0, "fusion_lat": 0.0, "lat": 38.904681, "bike_id": "ab5c5c20593b8904b629820df018b83d", "fusion_lon": 0.0}, {"rental_uris": {"ios": "https://dc.lft.to/lastmile_qr_scan", "android": "https://dc.lft.to/lastmile_qr_scan"}, "type": "electric_scooter", "name": "5c6c46f9170c32e12f572d5a105215c2", "is_reserved": 0, "lon": -77.04153433333333, "is_disabled": 0, "fusion_lat": 0.0, "lat": 38.90378283333333, "bike_id": "5c6c46f9170c32e12f572d5a105215c2", "fusion_lon": 0.0}, {"rental_uris": {"ios": "https://dc.lft.to/lastmile_qr_scan", "android": "https://dc.lft.to/lastmile_qr_scan"}, "type": "electric_scooter", "name": "e107eb38df59c9fdaace26a37e7014c2", "is_reserved": 0, "lon": -77.046499, "is_disabled": 0, "fusion_lat": 0.0, "lat": 38.89728516666667, "bike_id": "e107eb38df59c9fdaace26a37e7014c2", "fusion_lon": 0.0}, {"rental_uris": {"ios": "https://dc.lft.to/lastmile_qr_scan", "android": "https://dc.lft.to/lastmile_qr_scan"}, "type": "electric_scooter", "name": "90b52a028e9dc2859628e6c9db8f4e89", "is_reserved": 0, "lon": -76.988598, "is_disabled": 0, "fusion_lat": 0.0, "lat": 38.907055666666665, "bike_id": "90b52a028e9dc2859628e6c9db8f4e89", "fusion_lon": 0.0}, {"rental_uris": {"ios": "https://dc.lft.to/lastmile_qr_scan", "android": "https://dc.lft.to/lastmile_qr_scan"}, "type": "electric_scooter", "name": "2c1226b2720b2c478b823a72ee702db4", "is_reserved": 0, "lon": -77.02391116666666, "is_disabled": 0, "fusion_lat": 0.0, "lat": 38.91717516666667, "bike_id": "2c1226b2720b2c478b823a72ee702db4", "fusion_lon": 0.0}, {"rental_uris": {"ios": "https://dc.lft.to/lastmile_qr_scan", "android": "https://dc.lft.to/lastmile_qr_scan"}, "type": "electric_bike", "name": "7d5d5ad6ae4e77a6f29d13b60f7c27b5", "is_reserved": 0, "lon": -77.00524483333334, "is_disabled": 0, "fusion_lat": 0.0, "lat": 38.879322333333334, "bike_id": "7d5d5ad6ae4e77a6f29d13b60f7c27b5", "fusion_lon": 0.0}, {"rental_uris": {"ios": "https://dc.lft.to/lastmile_qr_scan", "android": "https://dc.lft.to/lastmile_qr_scan"}, "type": "electric_scooter", "name": "4f42b29a52449258c4f4be26ba646510", "is_reserved": 0, "lon": -77.02601716666666, "is_disabled": 0, "fusion_lat": 0.0, "lat": 38.90619183333333, "bike_id": "4f42b29a52449258c4f4be26ba646510", "fusion_lon": 0.0}, {"rental_uris": {"ios": "https://dc.lft.to/lastmile_qr_scan", "android": "https://dc.lft.to/lastmile_qr_scan"}, "type": "electric_scooter", "name": "62fc027de519486b1f31fe2e222707d8", "is_reserved": 0, "lon": -77.03625833333334, "is_disabled": 0, "fusion_lat": 0.0, "lat": 38.9429285, "bike_id": "62fc027de519486b1f31fe2e222707d8", "fusion_lon": 0.0}, {"rental_uris": {"ios": "https://dc.lft.to/lastmile_qr_scan", "android": "https://dc.lft.to/lastmile_qr_scan"}, "type": "electric_scooter", "name": "5e5b61ad4381878283895ea1f9eeb8c0", "is_reserved": 0, "lon": -76.98524, "is_disabled": 0, "fusion_lat": 0.0, "lat": 38.91442283333333, "bike_id": "5e5b61ad4381878283895ea1f9eeb8c0", "fusion_lon": 0.0}, {"rental_uris": {"ios": "https://dc.lft.to/lastmile_qr_scan", "android": "https://dc.lft.to/lastmile_qr_scan"}, "type": "electric_bike", "name": "b8abe40b98750fe759a8ad8a477979bd", "is_reserved": 0, "lon": -76.9937155, "is_disabled": 0, "fusion_lat": 0.0, "lat": 38.92732483333333, "bike_id": "b8abe40b98750fe759a8ad8a477979bd", "fusion_lon": 0.0}, {"rental_uris": {"ios": "https://dc.lft.to/lastmile_qr_scan", "android": "https://dc.lft.to/lastmile_qr_scan"}, "type": "electric_scooter", "name": "3b639c2644e5925e34246b77c9b508c6", "is_reserved": 0, "lon": -77.02298383333333, "is_disabled": 0, "fusion_lat": 0.0, "lat": 38.9178125, "bike_id": "3b639c2644e5925e34246b77c9b508c6", "fusion_lon": 0.0}, {"rental_uris": {"ios": "https://dc.lft.to/lastmile_qr_scan", "android": "https://dc.lft.to/lastmile_qr_scan"}, "type": "electric_scooter", "name": "23340103bc3fef5df2af41e41bdf4386", "is_reserved": 0, "lon": -77.00875183333333, "is_disabled": 0, "fusion_lat": 0.0, "lat": 38.87831766666667, "bike_id": "23340103bc3fef5df2af41e41bdf4386", "fusion_lon": 0.0}, {"rental_uris": {"ios": "https://dc.lft.to/lastmile_qr_scan", "android": "https://dc.lft.to/lastmile_qr_scan"}, "type": "electric_scooter", "name": "503c97098068ae6e9a1c924d0cafd2ad", "is_reserved": 0, "lon": -77.021073, "is_disabled": 0, "fusion_lat": 0.0, "lat": 38.966745, "bike_id": "503c97098068ae6e9a1c924d0cafd2ad", "fusion_lon": 0.0}, {"rental_uris": {"ios": "https://dc.lft.to/lastmile_qr_scan", "android": "https://dc.lft.to/lastmile_qr_scan"}, "type": "electric_scooter", "name": "879a5bebb2a23cb0d9e1c155f8b7665b", "is_reserved": 0, "lon": -76.990282, "is_disabled": 0, "fusion_lat": 0.0, "lat": 38.888819, "bike_id": "879a5bebb2a23cb0d9e1c155f8b7665b", "fusion_lon": 0.0}, {"rental_uris": {"ios": "https://dc.lft.to/lastmile_qr_scan", "android": "https://dc.lft.to/lastmile_qr_scan"}, "type": "electric_bike", "name": "7b35e89b76ff6a2a529a3177873be147", "is_reserved": 0, "lon": -77.01926933333333, "is_disabled": 0, "fusion_lat": 0.0, "lat": 38.97663133333333, "bike_id": "7b35e89b76ff6a2a529a3177873be147", "fusion_lon": 0.0}, {"rental_uris": {"ios": "https://dc.lft.to/lastmile_qr_scan", "android": "https://dc.lft.to/lastmile_qr_scan"}, "type": "electric_bike", "name": "90e054faef52a7318e08230b162fb94c", "is_reserved": 0, "lon": -77.02071383333333, "is_disabled": 0, "fusion_lat": 0.0, "lat": 38.964384833333334, "bike_id": "90e054faef52a7318e08230b162fb94c", "fusion_lon": 0.0}, {"rental_uris": {"ios": "https://dc.lft.to/lastmile_qr_scan", "android": "https://dc.lft.to/lastmile_qr_scan"}, "type": "electric_scooter", "name": "5d7e44c944bef449320a6a82495ecb3b", "is_reserved": 0, "lon": -77.007482, "is_disabled": 0, "fusion_lat": 0.0, "lat": 38.911136666666664, "bike_id": "5d7e44c944bef449320a6a82495ecb3b", "fusion_lon": 0.0}, {"rental_uris": {"ios": "https://dc.lft.to/lastmile_qr_scan", "android": "https://dc.lft.to/lastmile_qr_scan"}, "type": "electric_scooter", "name": "2355724c65bb6c6298c3704aa9026251", "is_reserved": 0, "lon": -77.03639766666667, "is_disabled": 0, "fusion_lat": 0.0, "lat": 38.92377, "bike_id": "2355724c65bb6c6298c3704aa9026251", "fusion_lon": 0.0}, {"rental_uris": {"ios": "https://dc.lft.to/lastmile_qr_scan", "android": "https://dc.lft.to/lastmile_qr_scan"}, "type": "electric_scooter", "name": "700363d1ea5a88b35357556c5c703048", "is_reserved": 0, "lon": -77.03199733333334, "is_disabled": 0, "fusion_lat": 0.0, "lat": 38.88706066666667, "bike_id": "700363d1ea5a88b35357556c5c703048", "fusion_lon": 0.0}, {"rental_uris": {"ios": "https://dc.lft.to/lastmile_qr_scan", "android": "https://dc.lft.to/lastmile_qr_scan"}, "type": "electric_scooter", "name": "e826ba7453707295fb202fe9dfda055f", "is_reserved": 0, "lon": -76.98212683333334, "is_disabled": 0, "fusion_lat": 0.0, "lat": 38.8864595, "bike_id": "e826ba7453707295fb202fe9dfda055f", "fusion_lon": 0.0}, {"rental_uris": {"ios": "https://dc.lft.to/lastmile_qr_scan", "android": "https://dc.lft.to/lastmile_qr_scan"}, "type": "electric_scooter", "name": "ced009588ebf36c84117e470805691ba", "is_reserved": 0, "lon": -77.03266033333334, "is_disabled": 0, "fusion_lat": 0.0, "lat": 38.90961466666667, "bike_id": "ced009588ebf36c84117e470805691ba", "fusion_lon": 0.0}, {"rental_uris": {"ios": "https://dc.lft.to/lastmile_qr_scan", "android": "https://dc.lft.to/lastmile_qr_scan"}, "type": "electric_scooter", "name": "46dead5a30dd5d8f80e3d089ef2e03f7", "is_reserved": 0, "lon": -77.02201866666667, "is_disabled": 0, "fusion_lat": 0.0, "lat": 38.88715583333333, "bike_id": "46dead5a30dd5d8f80e3d089ef2e03f7", "fusion_lon": 0.0}, {"rental_uris": {"ios": "https://dc.lft.to/lastmile_qr_scan", "android": "https://dc.lft.to/lastmile_qr_scan"}, "type": "electric_scooter", "name": "c87f292ccb1d4a6e0aa61ccfcdc0223b", "is_reserved": 0, "lon": -77.03654016666667, "is_disabled": 0, "fusion_lat": 0.0, "lat": 38.9184845, "bike_id": "c87f292ccb1d4a6e0aa61ccfcdc0223b", "fusion_lon": 0.0}, {"rental_uris": {"ios": "https://dc.lft.to/lastmile_qr_scan", "android": "https://dc.lft.to/lastmile_qr_scan"}, "type": "electric_scooter", "name": "62dab3620ce1b4d5fe025a8878d8fa9b", "is_reserved": 0, "lon": -77.04535533333333, "is_disabled": 0, "fusion_lat": 0.0, "lat": 38.89724483333333, "bike_id": "62dab3620ce1b4d5fe025a8878d8fa9b", "fusion_lon": 0.0}, {"rental_uris": {"ios": "https://dc.lft.to/lastmile_qr_scan", "android": "https://dc.lft.to/lastmile_qr_scan"}, "type": "electric_scooter", "name": "be4a623a59f2a0eaecb9e9a9739feecb", "is_reserved": 0, "lon": -77.0196265, "is_disabled": 0, "fusion_lat": 0.0, "lat": 38.933839, "bike_id": "be4a623a59f2a0eaecb9e9a9739feecb", "fusion_lon": 0.0}, {"rental_uris": {"ios": "https://dc.lft.to/lastmile_qr_scan", "android": "https://dc.lft.to/lastmile_qr_scan"}, "type": "electric_scooter", "name": "e1defa516ad11e2195a019cb79ebc72b", "is_reserved": 0, "lon": -77.0258625, "is_disabled": 0, "fusion_lat": 0.0, "lat": 38.9204095, "bike_id": "e1defa516ad11e2195a019cb79ebc72b", "fusion_lon": 0.0}, {"rental_uris": {"ios": "https://dc.lft.to/lastmile_qr_scan", "android": "https://dc.lft.to/lastmile_qr_scan"}, "type": "electric_scooter", "name": "002cb1c5ecadb1b1fbc416ebf3310248", "is_reserved": 0, "lon": -77.06516766666667, "is_disabled": 0, "fusion_lat": 0.0, "lat": 38.94989183333333, "bike_id": "002cb1c5ecadb1b1fbc416ebf3310248", "fusion_lon": 0.0}, {"rental_uris": {"ios": "https://dc.lft.to/lastmile_qr_scan", "android": "https://dc.lft.to/lastmile_qr_scan"}, "type": "electric_scooter", "name": "234d84233ec8e20f2be9b4b7145981a5", "is_reserved": 0, "lon": -77.032863, "is_disabled": 0, "fusion_lat": 0.0, "lat": 38.92745566666667, "bike_id": "234d84233ec8e20f2be9b4b7145981a5", "fusion_lon": 0.0}, {"rental_uris": {"ios": "https://dc.lft.to/lastmile_qr_scan", "android": "https://dc.lft.to/lastmile_qr_scan"}, "type": "electric_scooter", "name": "6a686f59adc1f5c8b391edbde01b12f9", "is_reserved": 0, "lon": -76.98987283333334, "is_disabled": 0, "fusion_lat": 0.0, "lat": 38.865028, "bike_id": "6a686f59adc1f5c8b391edbde01b12f9", "fusion_lon": 0.0}, {"rental_uris": {"ios": "https://dc.lft.to/lastmile_qr_scan", "android": "https://dc.lft.to/lastmile_qr_scan"}, "type": "electric_scooter", "name": "7211d87dd18f4cc725aa9b5f4b89651b", "is_reserved": 0, "lon": -77.03721116666667, "is_disabled": 0, "fusion_lat": 0.0, "lat": 38.91184833333333, "bike_id": "7211d87dd18f4cc725aa9b5f4b89651b", "fusion_lon": 0.0}, {"rental_uris": {"ios": "https://dc.lft.to/lastmile_qr_scan", "android": "https://dc.lft.to/lastmile_qr_scan"}, "type": "electric_scooter", "name": "ead411a9958918bdbc04c037540f11db", "is_reserved": 0, "lon": -77.041288, "is_disabled": 0, "fusion_lat": 0.0, "lat": 38.92110566666667, "bike_id": "ead411a9958918bdbc04c037540f11db", "fusion_lon": 0.0}, {"rental_uris": {"ios": "https://dc.lft.to/lastmile_qr_scan", "android": "https://dc.lft.to/lastmile_qr_scan"}, "type": "electric_scooter", "name": "3bfb9c805932a3f6a99291572c0b1094", "is_reserved": 0, "lon": -77.040375, "is_disabled": 0, "fusion_lat": 0.0, "lat": 38.9047705, "bike_id": "3bfb9c805932a3f6a99291572c0b1094", "fusion_lon": 0.0}, {"rental_uris": {"ios": "https://dc.lft.to/lastmile_qr_scan", "android": "https://dc.lft.to/lastmile_qr_scan"}, "type": "electric_scooter", "name": "db5f48fbf52d430e07269cdb4d4b0439", "is_reserved": 0, "lon": -77.04666733333333, "is_disabled": 0, "fusion_lat": 0.0, "lat": 38.9179165, "bike_id": "db5f48fbf52d430e07269cdb4d4b0439", "fusion_lon": 0.0}, {"rental_uris": {"ios": "https://dc.lft.to/lastmile_qr_scan", "android": "https://dc.lft.to/lastmile_qr_scan"}, "type": "electric_scooter", "name": "d9b82b6aee3e250b74a385f4c18381c6", "is_reserved": 0, "lon": -77.0079945, "is_disabled": 0, "fusion_lat": 0.0, "lat": 38.91264916666667, "bike_id": "d9b82b6aee3e250b74a385f4c18381c6", "fusion_lon": 0.0}, {"rental_uris": {"ios": "https://dc.lft.to/lastmile_qr_scan", "android": "https://dc.lft.to/lastmile_qr_scan"}, "type": "electric_scooter", "name": "1d86ae7b48b3b3d39c24793a749a731a", "is_reserved": 0, "lon": -77.02972283333334, "is_disabled": 0, "fusion_lat": 0.0, "lat": 38.9230835, "bike_id": "1d86ae7b48b3b3d39c24793a749a731a", "fusion_lon": 0.0}, {"rental_uris": {"ios": "https://dc.lft.to/lastmile_qr_scan", "android": "https://dc.lft.to/lastmile_qr_scan"}, "type": "electric_scooter", "name": "02f72ff1e1234816f5252aede67bd811", "is_reserved": 0, "lon": -76.9963425, "is_disabled": 0, "fusion_lat": 0.0, "lat": 38.87734433333333, "bike_id": "02f72ff1e1234816f5252aede67bd811", "fusion_lon": 0.0}, {"rental_uris": {"ios": "https://dc.lft.to/lastmile_qr_scan", "android": "https://dc.lft.to/lastmile_qr_scan"}, "type": "electric_scooter", "name": "f25c38eb9f12570ff80583b825bcd803", "is_reserved": 0, "lon": -77.0400895, "is_disabled": 0, "fusion_lat": 0.0, "lat": 38.9224955, "bike_id": "f25c38eb9f12570ff80583b825bcd803", "fusion_lon": 0.0}, {"rental_uris": {"ios": "https://dc.lft.to/lastmile_qr_scan", "android": "https://dc.lft.to/lastmile_qr_scan"}, "type": "electric_bike", "name": "5c7f05adc70ed043dcb776ad04007f05", "is_reserved": 0, "lon": -76.93333483333333, "is_disabled": 0, "fusion_lat": 0.0, "lat": 38.95151116666667, "bike_id": "5c7f05adc70ed043dcb776ad04007f05", "fusion_lon": 0.0}, {"rental_uris": {"ios": "https://dc.lft.to/lastmile_qr_scan", "android": "https://dc.lft.to/lastmile_qr_scan"}, "type": "electric_scooter", "name": "a5b3c1da48f2a812f072f6bc9982aa28", "is_reserved": 0, "lon": -77.0321965, "is_disabled": 0, "fusion_lat": 0.0, "lat": 38.90961166666666, "bike_id": "a5b3c1da48f2a812f072f6bc9982aa28", "fusion_lon": 0.0}, {"rental_uris": {"ios": "https://dc.lft.to/lastmile_qr_scan", "android": "https://dc.lft.to/lastmile_qr_scan"}, "type": "electric_scooter", "name": "2bdb0c1a85df2d90b3cebbe25807482b", "is_reserved": 0, "lon": -77.0045425, "is_disabled": 0, "fusion_lat": 0.0, "lat": 38.83789483333334, "bike_id": "2bdb0c1a85df2d90b3cebbe25807482b", "fusion_lon": 0.0}, {"rental_uris": {"ios": "https://dc.lft.to/lastmile_qr_scan", "android": "https://dc.lft.to/lastmile_qr_scan"}, "type": "electric_scooter", "name": "53e60398a9bb5649d230ec14bbc37077", "is_reserved": 0, "lon": -76.999524, "is_disabled": 0, "fusion_lat": 0.0, "lat": 38.89421683333333, "bike_id": "53e60398a9bb5649d230ec14bbc37077", "fusion_lon": 0.0}, {"rental_uris": {"ios": "https://dc.lft.to/lastmile_qr_scan", "android": "https://dc.lft.to/lastmile_qr_scan"}, "type": "electric_scooter", "name": "3040f30b797fc0d4a18fbfc265c22b36", "is_reserved": 0, "lon": -77.04659416666667, "is_disabled": 0, "fusion_lat": 0.0, "lat": 38.911853, "bike_id": "3040f30b797fc0d4a18fbfc265c22b36", "fusion_lon": 0.0}, {"rental_uris": {"ios": "https://dc.lft.to/lastmile_qr_scan", "android": "https://dc.lft.to/lastmile_qr_scan"}, "type": "electric_scooter", "name": "221d5a45fef908335fe20004aadf128e", "is_reserved": 0, "lon": -77.0714735, "is_disabled": 0, "fusion_lat": 0.0, "lat": 38.89619733333333, "bike_id": "221d5a45fef908335fe20004aadf128e", "fusion_lon": 0.0}, {"rental_uris": {"ios": "https://dc.lft.to/lastmile_qr_scan", "android": "https://dc.lft.to/lastmile_qr_scan"}, "type": "electric_scooter", "name": "f59dc3b5c9f75cc42c4f8879e9b9ba57", "is_reserved": 0, "lon": -77.0177965, "is_disabled": 0, "fusion_lat": 0.0, "lat": 38.944170166666666, "bike_id": "f59dc3b5c9f75cc42c4f8879e9b9ba57", "fusion_lon": 0.0}, {"rental_uris": {"ios": "https://dc.lft.to/lastmile_qr_scan", "android": "https://dc.lft.to/lastmile_qr_scan"}, "type": "electric_scooter", "name": "8f793204efcfbbbff58e383c0049bde5", "is_reserved": 0, "lon": -77.0361035, "is_disabled": 0, "fusion_lat": 0.0, "lat": 38.92331216666667, "bike_id": "8f793204efcfbbbff58e383c0049bde5", "fusion_lon": 0.0}, {"rental_uris": {"ios": "https://dc.lft.to/lastmile_qr_scan", "android": "https://dc.lft.to/lastmile_qr_scan"}, "type": "electric_bike", "name": "bb4ce4af1247d2f256af180e637a97b7", "is_reserved": 0, "lon": -76.91806133333333, "is_disabled": 0, "fusion_lat": 0.0, "lat": 39.000007, "bike_id": "bb4ce4af1247d2f256af180e637a97b7", "fusion_lon": 0.0}, {"rental_uris": {"ios": "https://dc.lft.to/lastmile_qr_scan", "android": "https://dc.lft.to/lastmile_qr_scan"}, "type": "electric_scooter", "name": "07868cf4e20789b3f8ea41130d3ec952", "is_reserved": 0, "lon": -77.00550966666667, "is_disabled": 0, "fusion_lat": 0.0, "lat": 38.87532516666667, "bike_id": "07868cf4e20789b3f8ea41130d3ec952", "fusion_lon": 0.0}, {"rental_uris": {"ios": "https://dc.lft.to/lastmile_qr_scan", "android": "https://dc.lft.to/lastmile_qr_scan"}, "type": "electric_scooter", "name": "365bce2b6fd9136129a2dd2dc7e29c4b", "is_reserved": 0, "lon": -77.04547066666667, "is_disabled": 0, "fusion_lat": 0.0, "lat": 38.909607, "bike_id": "365bce2b6fd9136129a2dd2dc7e29c4b", "fusion_lon": 0.0}, {"rental_uris": {"ios": "https://dc.lft.to/lastmile_qr_scan", "android": "https://dc.lft.to/lastmile_qr_scan"}, "type": "electric_scooter", "name": "c7330db7acc93c21df6ac6f84c6349e7", "is_reserved": 0, "lon": -77.01801733333333, "is_disabled": 0, "fusion_lat": 0.0, "lat": 38.886061, "bike_id": "c7330db7acc93c21df6ac6f84c6349e7", "fusion_lon": 0.0}, {"rental_uris": {"ios": "https://dc.lft.to/lastmile_qr_scan", "android": "https://dc.lft.to/lastmile_qr_scan"}, "type": "electric_scooter", "name": "009d9646aad17059d9794cd1af472e07", "is_reserved": 0, "lon": -77.05332883333334, "is_disabled": 0, "fusion_lat": 0.0, "lat": 38.9045005, "bike_id": "009d9646aad17059d9794cd1af472e07", "fusion_lon": 0.0}, {"rental_uris": {"ios": "https://dc.lft.to/lastmile_qr_scan", "android": "https://dc.lft.to/lastmile_qr_scan"}, "type": "electric_scooter", "name": "cf10863aca58421c330160acd6768114", "is_reserved": 0, "lon": -77.04179766666667, "is_disabled": 0, "fusion_lat": 0.0, "lat": 38.91402816666667, "bike_id": "cf10863aca58421c330160acd6768114", "fusion_lon": 0.0}, {"rental_uris": {"ios": "https://dc.lft.to/lastmile_qr_scan", "android": "https://dc.lft.to/lastmile_qr_scan"}, "type": "electric_scooter", "name": "3988338c48a873b91bfc31c775447c50", "is_reserved": 0, "lon": -77.04211366666667, "is_disabled": 0, "fusion_lat": 0.0, "lat": 38.903894666666666, "bike_id": "3988338c48a873b91bfc31c775447c50", "fusion_lon": 0.0}, {"rental_uris": {"ios": "https://dc.lft.to/lastmile_qr_scan", "android": "https://dc.lft.to/lastmile_qr_scan"}, "type": "electric_bike", "name": "adc3cab46f0c67fcd8e8e9b5e66ceaa8", "is_reserved": 0, "lon": -76.983452, "is_disabled": 0, "fusion_lat": 0.0, "lat": 38.862596833333335, "bike_id": "adc3cab46f0c67fcd8e8e9b5e66ceaa8", "fusion_lon": 0.0}, {"rental_uris": {"ios": "https://dc.lft.to/lastmile_qr_scan", "android": "https://dc.lft.to/lastmile_qr_scan"}, "type": "electric_scooter", "name": "35167d1e30b8467774de4d55be443839", "is_reserved": 0, "lon": -77.02193133333333, "is_disabled": 0, "fusion_lat": 0.0, "lat": 38.9113335, "bike_id": "35167d1e30b8467774de4d55be443839", "fusion_lon": 0.0}, {"rental_uris": {"ios": "https://dc.lft.to/lastmile_qr_scan", "android": "https://dc.lft.to/lastmile_qr_scan"}, "type": "electric_scooter", "name": "aa8bde8f1fc821dca1b2e5da9af216b5", "is_reserved": 0, "lon": -76.93297133333333, "is_disabled": 0, "fusion_lat": 0.0, "lat": 38.896904, "bike_id": "aa8bde8f1fc821dca1b2e5da9af216b5", "fusion_lon": 0.0}, {"rental_uris": {"ios": "https://dc.lft.to/lastmile_qr_scan", "android": "https://dc.lft.to/lastmile_qr_scan"}, "type": "electric_bike", "name": "94267866c4dacc4685277bd8a0a24233", "is_reserved": 0, "lon": -76.9957315, "is_disabled": 0, "fusion_lat": 0.0, "lat": 38.83156483333333, "bike_id": "94267866c4dacc4685277bd8a0a24233", "fusion_lon": 0.0}, {"rental_uris": {"ios": "https://dc.lft.to/lastmile_qr_scan", "android": "https://dc.lft.to/lastmile_qr_scan"}, "type": "electric_scooter", "name": "bc7a8eaf668f8393f42685db35194d55", "is_reserved": 0, "lon": -77.002487, "is_disabled": 0, "fusion_lat": 0.0, "lat": 38.90875366666667, "bike_id": "bc7a8eaf668f8393f42685db35194d55", "fusion_lon": 0.0}, {"rental_uris": {"ios": "https://dc.lft.to/lastmile_qr_scan", "android": "https://dc.lft.to/lastmile_qr_scan"}, "type": "electric_scooter", "name": "923f7fd6413e8e6841cbcfa9ae1f4b72", "is_reserved": 0, "lon": -77.02807383333334, "is_disabled": 0, "fusion_lat": 0.0, "lat": 38.90737083333333, "bike_id": "923f7fd6413e8e6841cbcfa9ae1f4b72", "fusion_lon": 0.0}, {"rental_uris": {"ios": "https://dc.lft.to/lastmile_qr_scan", "android": "https://dc.lft.to/lastmile_qr_scan"}, "type": "electric_scooter", "name": "586bff791a86e4468c1c75cfe710ef40", "is_reserved": 0, "lon": -76.995956, "is_disabled": 0, "fusion_lat": 0.0, "lat": 38.90027766666667, "bike_id": "586bff791a86e4468c1c75cfe710ef40", "fusion_lon": 0.0}, {"rental_uris": {"ios": "https://dc.lft.to/lastmile_qr_scan", "android": "https://dc.lft.to/lastmile_qr_scan"}, "type": "electric_scooter", "name": "aa86585daadc52e7533729ed84e6f167", "is_reserved": 0, "lon": -77.02806633333333, "is_disabled": 0, "fusion_lat": 0.0, "lat": 38.9073615, "bike_id": "aa86585daadc52e7533729ed84e6f167", "fusion_lon": 0.0}, {"rental_uris": {"ios": "https://dc.lft.to/lastmile_qr_scan", "android": "https://dc.lft.to/lastmile_qr_scan"}, "type": "electric_scooter", "name": "0bddef2129da04d5823ae5bc76d8e0d1", "is_reserved": 0, "lon": -77.01223066666667, "is_disabled": 0, "fusion_lat": 0.0, "lat": 38.916611, "bike_id": "0bddef2129da04d5823ae5bc76d8e0d1", "fusion_lon": 0.0}, {"rental_uris": {"ios": "https://dc.lft.to/lastmile_qr_scan", "android": "https://dc.lft.to/lastmile_qr_scan"}, "type": "electric_scooter", "name": "94cfa25ce67bd5bba531024dd84df7d6", "is_reserved": 0, "lon": -77.03146216666667, "is_disabled": 0, "fusion_lat": 0.0, "lat": 38.8874205, "bike_id": "94cfa25ce67bd5bba531024dd84df7d6", "fusion_lon": 0.0}, {"rental_uris": {"ios": "https://dc.lft.to/lastmile_qr_scan", "android": "https://dc.lft.to/lastmile_qr_scan"}, "type": "electric_scooter", "name": "548a602b6c2921151789e0834dfa8bb2", "is_reserved": 0, "lon": -76.99662916666666, "is_disabled": 0, "fusion_lat": 0.0, "lat": 38.89234866666666, "bike_id": "548a602b6c2921151789e0834dfa8bb2", "fusion_lon": 0.0}, {"rental_uris": {"ios": "https://dc.lft.to/lastmile_qr_scan", "android": "https://dc.lft.to/lastmile_qr_scan"}, "type": "electric_scooter", "name": "354defbefd897077e2313caa5870b9c3", "is_reserved": 0, "lon": -77.03216616666667, "is_disabled": 0, "fusion_lat": 0.0, "lat": 38.916916, "bike_id": "354defbefd897077e2313caa5870b9c3", "fusion_lon": 0.0}, {"rental_uris": {"ios": "https://dc.lft.to/lastmile_qr_scan", "android": "https://dc.lft.to/lastmile_qr_scan"}, "type": "electric_scooter", "name": "d2f03d60e6611f4fed85ec10e390a96b", "is_reserved": 0, "lon": -77.02530766666666, "is_disabled": 0, "fusion_lat": 0.0, "lat": 38.945308833333335, "bike_id": "d2f03d60e6611f4fed85ec10e390a96b", "fusion_lon": 0.0}, {"rental_uris": {"ios": "https://dc.lft.to/lastmile_qr_scan", "android": "https://dc.lft.to/lastmile_qr_scan"}, "type": "electric_scooter", "name": "20f93f2ab6847696c500bc0a8eba92ba", "is_reserved": 0, "lon": -76.99717966666667, "is_disabled": 0, "fusion_lat": 0.0, "lat": 38.897372833333336, "bike_id": "20f93f2ab6847696c500bc0a8eba92ba", "fusion_lon": 0.0}, {"rental_uris": {"ios": "https://dc.lft.to/lastmile_qr_scan", "android": "https://dc.lft.to/lastmile_qr_scan"}, "type": "electric_scooter", "name": "363962498db532d36267a83ba637c2dd", "is_reserved": 0, "lon": -77.03214583333333, "is_disabled": 0, "fusion_lat": 0.0, "lat": 38.909581833333334, "bike_id": "363962498db532d36267a83ba637c2dd", "fusion_lon": 0.0}, {"rental_uris": {"ios": "https://dc.lft.to/lastmile_qr_scan", "android": "https://dc.lft.to/lastmile_qr_scan"}, "type": "electric_scooter", "name": "b51d770063d4ff74224d72552b6ad3dc", "is_reserved": 0, "lon": -77.027016, "is_disabled": 0, "fusion_lat": 0.0, "lat": 38.918040166666664, "bike_id": "b51d770063d4ff74224d72552b6ad3dc", "fusion_lon": 0.0}, {"rental_uris": {"ios": "https://dc.lft.to/lastmile_qr_scan", "android": "https://dc.lft.to/lastmile_qr_scan"}, "type": "electric_scooter", "name": "085f895258a0a50daacdffaf5d1aeca1", "is_reserved": 0, "lon": -77.011201, "is_disabled": 0, "fusion_lat": 0.0, "lat": 38.916096, "bike_id": "085f895258a0a50daacdffaf5d1aeca1", "fusion_lon": 0.0}, {"rental_uris": {"ios": "https://dc.lft.to/lastmile_qr_scan", "android": "https://dc.lft.to/lastmile_qr_scan"}, "type": "electric_scooter", "name": "ea8951e7a5acf845c546d659c0671be4", "is_reserved": 0, "lon": -77.05474816666667, "is_disabled": 0, "fusion_lat": 0.0, "lat": 38.8973055, "bike_id": "ea8951e7a5acf845c546d659c0671be4", "fusion_lon": 0.0}, {"rental_uris": {"ios": "https://dc.lft.to/lastmile_qr_scan", "android": "https://dc.lft.to/lastmile_qr_scan"}, "type": "electric_scooter", "name": "24d05193d87071ae8504448d0b594a53", "is_reserved": 0, "lon": -77.04987616666666, "is_disabled": 0, "fusion_lat": 0.0, "lat": 38.9011605, "bike_id": "24d05193d87071ae8504448d0b594a53", "fusion_lon": 0.0}, {"rental_uris": {"ios": "https://dc.lft.to/lastmile_qr_scan", "android": "https://dc.lft.to/lastmile_qr_scan"}, "type": "electric_scooter", "name": "82aa955baa31a82b35e31e723e078398", "is_reserved": 0, "lon": -77.05025033333334, "is_disabled": 0, "fusion_lat": 0.0, "lat": 38.923549666666666, "bike_id": "82aa955baa31a82b35e31e723e078398", "fusion_lon": 0.0}, {"rental_uris": {"ios": "https://dc.lft.to/lastmile_qr_scan", "android": "https://dc.lft.to/lastmile_qr_scan"}, "type": "electric_scooter", "name": "547c8ba40fb001068c661b45bb58e827", "is_reserved": 0, "lon": -77.03466466666667, "is_disabled": 0, "fusion_lat": 0.0, "lat": 38.91262533333333, "bike_id": "547c8ba40fb001068c661b45bb58e827", "fusion_lon": 0.0}, {"rental_uris": {"ios": "https://dc.lft.to/lastmile_qr_scan", "android": "https://dc.lft.to/lastmile_qr_scan"}, "type": "electric_scooter", "name": "ecbac0802e42af3d953992e004d84bde", "is_reserved": 0, "lon": -77.00945416666667, "is_disabled": 0, "fusion_lat": 0.0, "lat": 38.894965, "bike_id": "ecbac0802e42af3d953992e004d84bde", "fusion_lon": 0.0}, {"rental_uris": {"ios": "https://dc.lft.to/lastmile_qr_scan", "android": "https://dc.lft.to/lastmile_qr_scan"}, "type": "electric_scooter", "name": "ae88f828025d3b389395b919f2fc56dd", "is_reserved": 0, "lon": -77.02257933333334, "is_disabled": 0, "fusion_lat": 0.0, "lat": 38.928226333333335, "bike_id": "ae88f828025d3b389395b919f2fc56dd", "fusion_lon": 0.0}, {"rental_uris": {"ios": "https://dc.lft.to/lastmile_qr_scan", "android": "https://dc.lft.to/lastmile_qr_scan"}, "type": "electric_scooter", "name": "901388ba058823220a3c65ccb1ca2773", "is_reserved": 0, "lon": -77.02697133333334, "is_disabled": 0, "fusion_lat": 0.0, "lat": 38.905745833333334, "bike_id": "901388ba058823220a3c65ccb1ca2773", "fusion_lon": 0.0}, {"rental_uris": {"ios": "https://dc.lft.to/lastmile_qr_scan", "android": "https://dc.lft.to/lastmile_qr_scan"}, "type": "electric_scooter", "name": "d8b77ebac079175ce0351982a92d4abd", "is_reserved": 0, "lon": -77.02172216666666, "is_disabled": 0, "fusion_lat": 0.0, "lat": 38.91478083333333, "bike_id": "d8b77ebac079175ce0351982a92d4abd", "fusion_lon": 0.0}, {"rental_uris": {"ios": "https://dc.lft.to/lastmile_qr_scan", "android": "https://dc.lft.to/lastmile_qr_scan"}, "type": "electric_bike", "name": "e1a49c18e6ac8603cda4f9f09424e9b3", "is_reserved": 0, "lon": -77.03429333333334, "is_disabled": 0, "fusion_lat": 0.0, "lat": 38.9653555, "bike_id": "e1a49c18e6ac8603cda4f9f09424e9b3", "fusion_lon": 0.0}, {"rental_uris": {"ios": "https://dc.lft.to/lastmile_qr_scan", "android": "https://dc.lft.to/lastmile_qr_scan"}, "type": "electric_bike", "name": "f388d5d342c014389c34aa78bf99412e", "is_reserved": 0, "lon": -77.09625116666666, "is_disabled": 0, "fusion_lat": 0.0, "lat": 38.9524815, "bike_id": "f388d5d342c014389c34aa78bf99412e", "fusion_lon": 0.0}, {"rental_uris": {"ios": "https://dc.lft.to/lastmile_qr_scan", "android": "https://dc.lft.to/lastmile_qr_scan"}, "type": "electric_scooter", "name": "be8e7f7c5f18b096a6f0bbac81138105", "is_reserved": 0, "lon": -76.99628516666667, "is_disabled": 0, "fusion_lat": 0.0, "lat": 38.891850833333336, "bike_id": "be8e7f7c5f18b096a6f0bbac81138105", "fusion_lon": 0.0}, {"rental_uris": {"ios": "https://dc.lft.to/lastmile_qr_scan", "android": "https://dc.lft.to/lastmile_qr_scan"}, "type": "electric_scooter", "name": "7cc0ef434f7df90bc58c2bbb23c00ec0", "is_reserved": 0, "lon": -77.02293366666666, "is_disabled": 0, "fusion_lat": 0.0, "lat": 38.907497166666666, "bike_id": "7cc0ef434f7df90bc58c2bbb23c00ec0", "fusion_lon": 0.0}, {"rental_uris": {"ios": "https://dc.lft.to/lastmile_qr_scan", "android": "https://dc.lft.to/lastmile_qr_scan"}, "type": "electric_scooter", "name": "1a31eff6f97ad00efa781daae5ecd616", "is_reserved": 0, "lon": -77.009954, "is_disabled": 0, "fusion_lat": 0.0, "lat": 38.9112155, "bike_id": "1a31eff6f97ad00efa781daae5ecd616", "fusion_lon": 0.0}, {"rental_uris": {"ios": "https://dc.lft.to/lastmile_qr_scan", "android": "https://dc.lft.to/lastmile_qr_scan"}, "type": "electric_scooter", "name": "6027e540d5fa46e5a71e7fbd5778ccb9", "is_reserved": 0, "lon": -77.0371255, "is_disabled": 0, "fusion_lat": 0.0, "lat": 38.926536166666665, "bike_id": "6027e540d5fa46e5a71e7fbd5778ccb9", "fusion_lon": 0.0}, {"rental_uris": {"ios": "https://dc.lft.to/lastmile_qr_scan", "android": "https://dc.lft.to/lastmile_qr_scan"}, "type": "electric_scooter", "name": "ba1694946112fd01cd0244a7f6d4f680", "is_reserved": 0, "lon": -77.053198, "is_disabled": 0, "fusion_lat": 0.0, "lat": 38.90266116666667, "bike_id": "ba1694946112fd01cd0244a7f6d4f680", "fusion_lon": 0.0}, {"rental_uris": {"ios": "https://dc.lft.to/lastmile_qr_scan", "android": "https://dc.lft.to/lastmile_qr_scan"}, "type": "electric_scooter", "name": "a5b9bc6a5d0d3c0fd704efdc5c79bf8a", "is_reserved": 0, "lon": -77.00048366666667, "is_disabled": 0, "fusion_lat": 0.0, "lat": 38.92327216666666, "bike_id": "a5b9bc6a5d0d3c0fd704efdc5c79bf8a", "fusion_lon": 0.0}, {"rental_uris": {"ios": "https://dc.lft.to/lastmile_qr_scan", "android": "https://dc.lft.to/lastmile_qr_scan"}, "type": "electric_scooter", "name": "3dd991869009b48daec77fa6d16a2617", "is_reserved": 0, "lon": -77.0269465, "is_disabled": 0, "fusion_lat": 0.0, "lat": 38.94981583333333, "bike_id": "3dd991869009b48daec77fa6d16a2617", "fusion_lon": 0.0}, {"rental_uris": {"ios": "https://dc.lft.to/lastmile_qr_scan", "android": "https://dc.lft.to/lastmile_qr_scan"}, "type": "electric_bike", "name": "17bf078cc5b05478ac4cfdde212243ef", "is_reserved": 0, "lon": -77.0442335, "is_disabled": 0, "fusion_lat": 0.0, "lat": 39.01566166666667, "bike_id": "17bf078cc5b05478ac4cfdde212243ef", "fusion_lon": 0.0}, {"rental_uris": {"ios": "https://dc.lft.to/lastmile_qr_scan", "android": "https://dc.lft.to/lastmile_qr_scan"}, "type": "electric_bike", "name": "6914a885954ecc55438f5b41a025e91a", "is_reserved": 0, "lon": -77.12740166666667, "is_disabled": 0, "fusion_lat": 0.0, "lat": 38.895648666666666, "bike_id": "6914a885954ecc55438f5b41a025e91a", "fusion_lon": 0.0}, {"rental_uris": {"ios": "https://dc.lft.to/lastmile_qr_scan", "android": "https://dc.lft.to/lastmile_qr_scan"}, "type": "electric_scooter", "name": "ed05c39ad7d41c17328c26c45ca63b56", "is_reserved": 0, "lon": -77.03338033333333, "is_disabled": 0, "fusion_lat": 0.0, "lat": 38.8922135, "bike_id": "ed05c39ad7d41c17328c26c45ca63b56", "fusion_lon": 0.0}, {"rental_uris": {"ios": "https://dc.lft.to/lastmile_qr_scan", "android": "https://dc.lft.to/lastmile_qr_scan"}, "type": "electric_scooter", "name": "c9492046a2e094b73cb19c1693815eda", "is_reserved": 0, "lon": -77.05002383333333, "is_disabled": 0, "fusion_lat": 0.0, "lat": 38.904925666666664, "bike_id": "c9492046a2e094b73cb19c1693815eda", "fusion_lon": 0.0}, {"rental_uris": {"ios": "https://dc.lft.to/lastmile_qr_scan", "android": "https://dc.lft.to/lastmile_qr_scan"}, "type": "electric_scooter", "name": "d3ce36527d91d9e94eacae1c9d7d4f97", "is_reserved": 0, "lon": -77.04784733333334, "is_disabled": 0, "fusion_lat": 0.0, "lat": 38.89783666666666, "bike_id": "d3ce36527d91d9e94eacae1c9d7d4f97", "fusion_lon": 0.0}, {"rental_uris": {"ios": "https://dc.lft.to/lastmile_qr_scan", "android": "https://dc.lft.to/lastmile_qr_scan"}, "type": "electric_scooter", "name": "5927c3c9fc94a05fe58b7d5b51aa1c7a", "is_reserved": 0, "lon": -77.0356785, "is_disabled": 0, "fusion_lat": 0.0, "lat": 38.904753666666664, "bike_id": "5927c3c9fc94a05fe58b7d5b51aa1c7a", "fusion_lon": 0.0}, {"rental_uris": {"ios": "https://dc.lft.to/lastmile_qr_scan", "android": "https://dc.lft.to/lastmile_qr_scan"}, "type": "electric_scooter", "name": "23339c88a179fac799ac9f9255f02860", "is_reserved": 0, "lon": -77.02288933333334, "is_disabled": 0, "fusion_lat": 0.0, "lat": 38.920837, "bike_id": "23339c88a179fac799ac9f9255f02860", "fusion_lon": 0.0}, {"rental_uris": {"ios": "https://dc.lft.to/lastmile_qr_scan", "android": "https://dc.lft.to/lastmile_qr_scan"}, "type": "electric_scooter", "name": "aa9b75f2bbc9fd081ae660fcd88a7251", "is_reserved": 0, "lon": -76.98378316666667, "is_disabled": 0, "fusion_lat": 0.0, "lat": 38.86028183333333, "bike_id": "aa9b75f2bbc9fd081ae660fcd88a7251", "fusion_lon": 0.0}, {"rental_uris": {"ios": "https://dc.lft.to/lastmile_qr_scan", "android": "https://dc.lft.to/lastmile_qr_scan"}, "type": "electric_scooter", "name": "357ac0ee377ec233018e15dee1285b8d", "is_reserved": 0, "lon": -77.02246733333334, "is_disabled": 0, "fusion_lat": 0.0, "lat": 38.92675666666667, "bike_id": "357ac0ee377ec233018e15dee1285b8d", "fusion_lon": 0.0}, {"rental_uris": {"ios": "https://dc.lft.to/lastmile_qr_scan", "android": "https://dc.lft.to/lastmile_qr_scan"}, "type": "electric_scooter", "name": "45d8e79a817ff954eec3c69e190c0f2b", "is_reserved": 0, "lon": -77.00921183333334, "is_disabled": 0, "fusion_lat": 0.0, "lat": 38.897432, "bike_id": "45d8e79a817ff954eec3c69e190c0f2b", "fusion_lon": 0.0}, {"rental_uris": {"ios": "https://dc.lft.to/lastmile_qr_scan", "android": "https://dc.lft.to/lastmile_qr_scan"}, "type": "electric_scooter", "name": "0f36a2aa98ab99d61b3b9df49e94d308", "is_reserved": 0, "lon": -77.01527433333334, "is_disabled": 0, "fusion_lat": 0.0, "lat": 38.8795495, "bike_id": "0f36a2aa98ab99d61b3b9df49e94d308", "fusion_lon": 0.0}, {"rental_uris": {"ios": "https://dc.lft.to/lastmile_qr_scan", "android": "https://dc.lft.to/lastmile_qr_scan"}, "type": "electric_scooter", "name": "2a697668408c6eee5c959e30e8824879", "is_reserved": 0, "lon": -77.0319915, "is_disabled": 0, "fusion_lat": 0.0, "lat": 38.9070465, "bike_id": "2a697668408c6eee5c959e30e8824879", "fusion_lon": 0.0}, {"rental_uris": {"ios": "https://dc.lft.to/lastmile_qr_scan", "android": "https://dc.lft.to/lastmile_qr_scan"}, "type": "electric_scooter", "name": "ac02ae2adf8705b6e629e6db419e7154", "is_reserved": 0, "lon": -77.00795316666667, "is_disabled": 0, "fusion_lat": 0.0, "lat": 38.89714633333333, "bike_id": "ac02ae2adf8705b6e629e6db419e7154", "fusion_lon": 0.0}, {"rental_uris": {"ios": "https://dc.lft.to/lastmile_qr_scan", "android": "https://dc.lft.to/lastmile_qr_scan"}, "type": "electric_scooter", "name": "658a71a0a489062e822342a5b65955cc", "is_reserved": 0, "lon": -77.01218866666666, "is_disabled": 0, "fusion_lat": 0.0, "lat": 38.900932166666664, "bike_id": "658a71a0a489062e822342a5b65955cc", "fusion_lon": 0.0}, {"rental_uris": {"ios": "https://dc.lft.to/lastmile_qr_scan", "android": "https://dc.lft.to/lastmile_qr_scan"}, "type": "electric_scooter", "name": "dd7e196b65b3e8ff89c61136f39b0ff5", "is_reserved": 0, "lon": -76.983178, "is_disabled": 0, "fusion_lat": 0.0, "lat": 38.87836883333333, "bike_id": "dd7e196b65b3e8ff89c61136f39b0ff5", "fusion_lon": 0.0}, {"rental_uris": {"ios": "https://dc.lft.to/lastmile_qr_scan", "android": "https://dc.lft.to/lastmile_qr_scan"}, "type": "electric_scooter", "name": "ba937cadcaad09eb4b615f221cb2e468", "is_reserved": 0, "lon": -77.04659366666667, "is_disabled": 0, "fusion_lat": 0.0, "lat": 38.921224333333335, "bike_id": "ba937cadcaad09eb4b615f221cb2e468", "fusion_lon": 0.0}, {"rental_uris": {"ios": "https://dc.lft.to/lastmile_qr_scan", "android": "https://dc.lft.to/lastmile_qr_scan"}, "type": "electric_scooter", "name": "c34e5b62f079beb16af112f50e6abcb0", "is_reserved": 0, "lon": -76.987021, "is_disabled": 0, "fusion_lat": 0.0, "lat": 38.859658333333336, "bike_id": "c34e5b62f079beb16af112f50e6abcb0", "fusion_lon": 0.0}, {"rental_uris": {"ios": "https://dc.lft.to/lastmile_qr_scan", "android": "https://dc.lft.to/lastmile_qr_scan"}, "type": "electric_scooter", "name": "74d425ce6ffdc700791a6ccc4d9c71e5", "is_reserved": 0, "lon": -77.001198, "is_disabled": 0, "fusion_lat": 0.0, "lat": 38.878053, "bike_id": "74d425ce6ffdc700791a6ccc4d9c71e5", "fusion_lon": 0.0}, {"rental_uris": {"ios": "https://dc.lft.to/lastmile_qr_scan", "android": "https://dc.lft.to/lastmile_qr_scan"}, "type": "electric_scooter", "name": "3edffc38908bf1c1a4a384c68a36292e", "is_reserved": 0, "lon": -77.01480683333334, "is_disabled": 0, "fusion_lat": 0.0, "lat": 38.94333016666667, "bike_id": "3edffc38908bf1c1a4a384c68a36292e", "fusion_lon": 0.0}, {"rental_uris": {"ios": "https://dc.lft.to/lastmile_qr_scan", "android": "https://dc.lft.to/lastmile_qr_scan"}, "type": "electric_scooter", "name": "830c08d3b94bba81ee3050533c32b213", "is_reserved": 0, "lon": -77.04143533333334, "is_disabled": 0, "fusion_lat": 0.0, "lat": 38.930387, "bike_id": "830c08d3b94bba81ee3050533c32b213", "fusion_lon": 0.0}, {"rental_uris": {"ios": "https://dc.lft.to/lastmile_qr_scan", "android": "https://dc.lft.to/lastmile_qr_scan"}, "type": "electric_scooter", "name": "dd90a915d32061f089559f96d6dfcde7", "is_reserved": 0, "lon": -76.97355316666666, "is_disabled": 0, "fusion_lat": 0.0, "lat": 38.8500325, "bike_id": "dd90a915d32061f089559f96d6dfcde7", "fusion_lon": 0.0}, {"rental_uris": {"ios": "https://dc.lft.to/lastmile_qr_scan", "android": "https://dc.lft.to/lastmile_qr_scan"}, "type": "electric_scooter", "name": "a73718c7a045043e8bf0123c9c783ff4", "is_reserved": 0, "lon": -77.00596283333333, "is_disabled": 0, "fusion_lat": 0.0, "lat": 38.90705166666667, "bike_id": "a73718c7a045043e8bf0123c9c783ff4", "fusion_lon": 0.0}, {"rental_uris": {"ios": "https://dc.lft.to/lastmile_qr_scan", "android": "https://dc.lft.to/lastmile_qr_scan"}, "type": "electric_scooter", "name": "070c0f4bf092f9afbee4b5c32bb07b60", "is_reserved": 0, "lon": -77.01769233333333, "is_disabled": 0, "fusion_lat": 0.0, "lat": 38.8872655, "bike_id": "070c0f4bf092f9afbee4b5c32bb07b60", "fusion_lon": 0.0}, {"rental_uris": {"ios": "https://dc.lft.to/lastmile_qr_scan", "android": "https://dc.lft.to/lastmile_qr_scan"}, "type": "electric_scooter", "name": "427a888189366e9a6b4f731c1e72540d", "is_reserved": 0, "lon": -76.93383483333334, "is_disabled": 0, "fusion_lat": 0.0, "lat": 38.899017666666666, "bike_id": "427a888189366e9a6b4f731c1e72540d", "fusion_lon": 0.0}, {"rental_uris": {"ios": "https://dc.lft.to/lastmile_qr_scan", "android": "https://dc.lft.to/lastmile_qr_scan"}, "type": "electric_scooter", "name": "57cce6cb32e93e92aa7c101dd4ba55bf", "is_reserved": 0, "lon": -77.0265205, "is_disabled": 0, "fusion_lat": 0.0, "lat": 38.8812035, "bike_id": "57cce6cb32e93e92aa7c101dd4ba55bf", "fusion_lon": 0.0}, {"rental_uris": {"ios": "https://dc.lft.to/lastmile_qr_scan", "android": "https://dc.lft.to/lastmile_qr_scan"}, "type": "electric_scooter", "name": "19023e92e4966719e4bfbc3ac08558bd", "is_reserved": 0, "lon": -77.02175666666666, "is_disabled": 0, "fusion_lat": 0.0, "lat": 38.919783, "bike_id": "19023e92e4966719e4bfbc3ac08558bd", "fusion_lon": 0.0}, {"rental_uris": {"ios": "https://dc.lft.to/lastmile_qr_scan", "android": "https://dc.lft.to/lastmile_qr_scan"}, "type": "electric_scooter", "name": "06fa3472b1d31c67fca8ad5adc80d000", "is_reserved": 0, "lon": -77.03052, "is_disabled": 0, "fusion_lat": 0.0, "lat": 38.908278833333334, "bike_id": "06fa3472b1d31c67fca8ad5adc80d000", "fusion_lon": 0.0}, {"rental_uris": {"ios": "https://dc.lft.to/lastmile_qr_scan", "android": "https://dc.lft.to/lastmile_qr_scan"}, "type": "electric_scooter", "name": "332f4352f5f293d74680b1f6141a4ee7", "is_reserved": 0, "lon": -77.06149266666667, "is_disabled": 0, "fusion_lat": 0.0, "lat": 38.912992, "bike_id": "332f4352f5f293d74680b1f6141a4ee7", "fusion_lon": 0.0}, {"rental_uris": {"ios": "https://dc.lft.to/lastmile_qr_scan", "android": "https://dc.lft.to/lastmile_qr_scan"}, "type": "electric_scooter", "name": "504134e4481147be83b2d78b5a724e3c", "is_reserved": 0, "lon": -77.01763266666667, "is_disabled": 0, "fusion_lat": 0.0, "lat": 38.920893, "bike_id": "504134e4481147be83b2d78b5a724e3c", "fusion_lon": 0.0}, {"rental_uris": {"ios": "https://dc.lft.to/lastmile_qr_scan", "android": "https://dc.lft.to/lastmile_qr_scan"}, "type": "electric_scooter", "name": "ee6134aaa8ae18f62523fbfaedf7a525", "is_reserved": 0, "lon": -77.0222275, "is_disabled": 0, "fusion_lat": 0.0, "lat": 38.915611, "bike_id": "ee6134aaa8ae18f62523fbfaedf7a525", "fusion_lon": 0.0}, {"rental_uris": {"ios": "https://dc.lft.to/lastmile_qr_scan", "android": "https://dc.lft.to/lastmile_qr_scan"}, "type": "electric_scooter", "name": "62190f5d27c671bd84a5143205c98a36", "is_reserved": 0, "lon": -76.98984433333334, "is_disabled": 0, "fusion_lat": 0.0, "lat": 38.865013833333336, "bike_id": "62190f5d27c671bd84a5143205c98a36", "fusion_lon": 0.0}, {"rental_uris": {"ios": "https://dc.lft.to/lastmile_qr_scan", "android": "https://dc.lft.to/lastmile_qr_scan"}, "type": "electric_scooter", "name": "01c38d146685a7386322124fd9de1839", "is_reserved": 0, "lon": -76.99857233333333, "is_disabled": 0, "fusion_lat": 0.0, "lat": 38.900168666666666, "bike_id": "01c38d146685a7386322124fd9de1839", "fusion_lon": 0.0}, {"rental_uris": {"ios": "https://dc.lft.to/lastmile_qr_scan", "android": "https://dc.lft.to/lastmile_qr_scan"}, "type": "electric_scooter", "name": "c575736c1e3f7d6275debb431ad09c1b", "is_reserved": 0, "lon": -76.997426, "is_disabled": 0, "fusion_lat": 0.0, "lat": 38.92041716666667, "bike_id": "c575736c1e3f7d6275debb431ad09c1b", "fusion_lon": 0.0}, {"rental_uris": {"ios": "https://dc.lft.to/lastmile_qr_scan", "android": "https://dc.lft.to/lastmile_qr_scan"}, "type": "electric_scooter", "name": "a4d7edc7f99af7218c1348824b6aa86f", "is_reserved": 0, "lon": -77.03822816666667, "is_disabled": 0, "fusion_lat": 0.0, "lat": 38.915634, "bike_id": "a4d7edc7f99af7218c1348824b6aa86f", "fusion_lon": 0.0}, {"rental_uris": {"ios": "https://dc.lft.to/lastmile_qr_scan", "android": "https://dc.lft.to/lastmile_qr_scan"}, "type": "electric_bike", "name": "a4e93fa93c91725a2bdceecdf604766f", "is_reserved": 0, "lon": -76.99443316666667, "is_disabled": 0, "fusion_lat": 0.0, "lat": 38.831050833333336, "bike_id": "a4e93fa93c91725a2bdceecdf604766f", "fusion_lon": 0.0}, {"rental_uris": {"ios": "https://dc.lft.to/lastmile_qr_scan", "android": "https://dc.lft.to/lastmile_qr_scan"}, "type": "electric_scooter", "name": "07159175a626e407914c1d420826c7a4", "is_reserved": 0, "lon": -77.00504066666667, "is_disabled": 0, "fusion_lat": 0.0, "lat": 38.8794725, "bike_id": "07159175a626e407914c1d420826c7a4", "fusion_lon": 0.0}, {"rental_uris": {"ios": "https://dc.lft.to/lastmile_qr_scan", "android": "https://dc.lft.to/lastmile_qr_scan"}, "type": "electric_bike", "name": "caec99168273f879b89eb9cb2030f872", "is_reserved": 0, "lon": -77.08317383333333, "is_disabled": 0, "fusion_lat": 0.0, "lat": 38.854317, "bike_id": "caec99168273f879b89eb9cb2030f872", "fusion_lon": 0.0}, {"rental_uris": {"ios": "https://dc.lft.to/lastmile_qr_scan", "android": "https://dc.lft.to/lastmile_qr_scan"}, "type": "electric_scooter", "name": "76638aefc61dc82a6802b1cdf615ec7a", "is_reserved": 0, "lon": -77.04686283333334, "is_disabled": 0, "fusion_lat": 0.0, "lat": 38.89223583333333, "bike_id": "76638aefc61dc82a6802b1cdf615ec7a", "fusion_lon": 0.0}, {"rental_uris": {"ios": "https://dc.lft.to/lastmile_qr_scan", "android": "https://dc.lft.to/lastmile_qr_scan"}, "type": "electric_scooter", "name": "d8826fba6eed9fc7d2278902de47aca0", "is_reserved": 0, "lon": -77.02172283333333, "is_disabled": 0, "fusion_lat": 0.0, "lat": 38.91554933333333, "bike_id": "d8826fba6eed9fc7d2278902de47aca0", "fusion_lon": 0.0}, {"rental_uris": {"ios": "https://dc.lft.to/lastmile_qr_scan", "android": "https://dc.lft.to/lastmile_qr_scan"}, "type": "electric_scooter", "name": "a42a3dfaa24ea03af3fa9c1aba4619a0", "is_reserved": 0, "lon": -77.03933733333334, "is_disabled": 0, "fusion_lat": 0.0, "lat": 38.914123333333336, "bike_id": "a42a3dfaa24ea03af3fa9c1aba4619a0", "fusion_lon": 0.0}, {"rental_uris": {"ios": "https://dc.lft.to/lastmile_qr_scan", "android": "https://dc.lft.to/lastmile_qr_scan"}, "type": "electric_scooter", "name": "8daa2e0c58aab3927cd44899125968c3", "is_reserved": 0, "lon": -76.96542883333333, "is_disabled": 0, "fusion_lat": 0.0, "lat": 38.87885266666667, "bike_id": "8daa2e0c58aab3927cd44899125968c3", "fusion_lon": 0.0}, {"rental_uris": {"ios": "https://dc.lft.to/lastmile_qr_scan", "android": "https://dc.lft.to/lastmile_qr_scan"}, "type": "electric_scooter", "name": "272bbaf94c334ca84578ff89298b526f", "is_reserved": 0, "lon": -77.02281683333334, "is_disabled": 0, "fusion_lat": 0.0, "lat": 38.9096245, "bike_id": "272bbaf94c334ca84578ff89298b526f", "fusion_lon": 0.0}, {"rental_uris": {"ios": "https://dc.lft.to/lastmile_qr_scan", "android": "https://dc.lft.to/lastmile_qr_scan"}, "type": "electric_scooter", "name": "22c66cd23477a4d4074b2d4de34f57fe", "is_reserved": 0, "lon": -77.02708933333334, "is_disabled": 0, "fusion_lat": 0.0, "lat": 38.91525133333333, "bike_id": "22c66cd23477a4d4074b2d4de34f57fe", "fusion_lon": 0.0}, {"rental_uris": {"ios": "https://dc.lft.to/lastmile_qr_scan", "android": "https://dc.lft.to/lastmile_qr_scan"}, "type": "electric_scooter", "name": "e2523d6e9b93f6ee50eeb519aaa4dc10", "is_reserved": 0, "lon": -77.02409766666666, "is_disabled": 0, "fusion_lat": 0.0, "lat": 38.945037166666665, "bike_id": "e2523d6e9b93f6ee50eeb519aaa4dc10", "fusion_lon": 0.0}, {"rental_uris": {"ios": "https://dc.lft.to/lastmile_qr_scan", "android": "https://dc.lft.to/lastmile_qr_scan"}, "type": "electric_bike", "name": "6f6a3fcb6786dd3b3893f9cadfcc85ad", "is_reserved": 0, "lon": -76.98061166666666, "is_disabled": 0, "fusion_lat": 0.0, "lat": 38.97250016666667, "bike_id": "6f6a3fcb6786dd3b3893f9cadfcc85ad", "fusion_lon": 0.0}, {"rental_uris": {"ios": "https://dc.lft.to/lastmile_qr_scan", "android": "https://dc.lft.to/lastmile_qr_scan"}, "type": "electric_scooter", "name": "a141c4dedb40a68264b87ae1de99a152", "is_reserved": 0, "lon": -77.01713216666667, "is_disabled": 0, "fusion_lat": 0.0, "lat": 38.8802585, "bike_id": "a141c4dedb40a68264b87ae1de99a152", "fusion_lon": 0.0}, {"rental_uris": {"ios": "https://dc.lft.to/lastmile_qr_scan", "android": "https://dc.lft.to/lastmile_qr_scan"}, "type": "electric_scooter", "name": "17b27a9b5fddd014ccba50cbadc98772", "is_reserved": 0, "lon": -77.0364195, "is_disabled": 0, "fusion_lat": 0.0, "lat": 38.9305615, "bike_id": "17b27a9b5fddd014ccba50cbadc98772", "fusion_lon": 0.0}, {"rental_uris": {"ios": "https://dc.lft.to/lastmile_qr_scan", "android": "https://dc.lft.to/lastmile_qr_scan"}, "type": "electric_scooter", "name": "96971546cb7a6f4a13495ba9d7edd883", "is_reserved": 0, "lon": -77.03978766666667, "is_disabled": 0, "fusion_lat": 0.0, "lat": 38.90134583333333, "bike_id": "96971546cb7a6f4a13495ba9d7edd883", "fusion_lon": 0.0}, {"rental_uris": {"ios": "https://dc.lft.to/lastmile_qr_scan", "android": "https://dc.lft.to/lastmile_qr_scan"}, "type": "electric_scooter", "name": "7db5fc155d6b36df313c4038c4eece18", "is_reserved": 0, "lon": -77.02698466666666, "is_disabled": 0, "fusion_lat": 0.0, "lat": 38.923982, "bike_id": "7db5fc155d6b36df313c4038c4eece18", "fusion_lon": 0.0}, {"rental_uris": {"ios": "https://dc.lft.to/lastmile_qr_scan", "android": "https://dc.lft.to/lastmile_qr_scan"}, "type": "electric_bike", "name": "aa2ad6a2ce037c016f47f65a9de7a80d", "is_reserved": 0, "lon": -76.97957666666667, "is_disabled": 0, "fusion_lat": 0.0, "lat": 38.92035666666666, "bike_id": "aa2ad6a2ce037c016f47f65a9de7a80d", "fusion_lon": 0.0}, {"rental_uris": {"ios": "https://dc.lft.to/lastmile_qr_scan", "android": "https://dc.lft.to/lastmile_qr_scan"}, "type": "electric_scooter", "name": "2868be44f96a10edd95ec9c5023ec276", "is_reserved": 0, "lon": -77.0352965, "is_disabled": 0, "fusion_lat": 0.0, "lat": 38.92261533333333, "bike_id": "2868be44f96a10edd95ec9c5023ec276", "fusion_lon": 0.0}, {"rental_uris": {"ios": "https://dc.lft.to/lastmile_qr_scan", "android": "https://dc.lft.to/lastmile_qr_scan"}, "type": "electric_scooter", "name": "c068c84abcc11c5d6b9cc0be0607dc41", "is_reserved": 0, "lon": -77.02438916666667, "is_disabled": 0, "fusion_lat": 0.0, "lat": 38.897234166666664, "bike_id": "c068c84abcc11c5d6b9cc0be0607dc41", "fusion_lon": 0.0}, {"rental_uris": {"ios": "https://dc.lft.to/lastmile_qr_scan", "android": "https://dc.lft.to/lastmile_qr_scan"}, "type": "electric_scooter", "name": "7e36fd0cdaa29c69e93b36839b7f81b5", "is_reserved": 0, "lon": -77.04897966666667, "is_disabled": 0, "fusion_lat": 0.0, "lat": 38.90370716666666, "bike_id": "7e36fd0cdaa29c69e93b36839b7f81b5", "fusion_lon": 0.0}, {"rental_uris": {"ios": "https://dc.lft.to/lastmile_qr_scan", "android": "https://dc.lft.to/lastmile_qr_scan"}, "type": "electric_scooter", "name": "c82e8d2578593d0f8a90825cdb0972a4", "is_reserved": 0, "lon": -77.0121435, "is_disabled": 0, "fusion_lat": 0.0, "lat": 38.87175666666667, "bike_id": "c82e8d2578593d0f8a90825cdb0972a4", "fusion_lon": 0.0}, {"rental_uris": {"ios": "https://dc.lft.to/lastmile_qr_scan", "android": "https://dc.lft.to/lastmile_qr_scan"}, "type": "electric_scooter", "name": "ec64cc7ea8dc30363eaa1cd9ed043443", "is_reserved": 0, "lon": -77.00706683333334, "is_disabled": 0, "fusion_lat": 0.0, "lat": 38.90540816666667, "bike_id": "ec64cc7ea8dc30363eaa1cd9ed043443", "fusion_lon": 0.0}, {"rental_uris": {"ios": "https://dc.lft.to/lastmile_qr_scan", "android": "https://dc.lft.to/lastmile_qr_scan"}, "type": "electric_scooter", "name": "b7d2a2cd38da966fc3af818acc8229b2", "is_reserved": 0, "lon": -77.03482616666666, "is_disabled": 0, "fusion_lat": 0.0, "lat": 38.93555933333333, "bike_id": "b7d2a2cd38da966fc3af818acc8229b2", "fusion_lon": 0.0}, {"rental_uris": {"ios": "https://dc.lft.to/lastmile_qr_scan", "android": "https://dc.lft.to/lastmile_qr_scan"}, "type": "electric_scooter", "name": "6de569d82cbe47e7f23d570d93156648", "is_reserved": 0, "lon": -77.03242483333334, "is_disabled": 0, "fusion_lat": 0.0, "lat": 38.90554983333333, "bike_id": "6de569d82cbe47e7f23d570d93156648", "fusion_lon": 0.0}, {"rental_uris": {"ios": "https://dc.lft.to/lastmile_qr_scan", "android": "https://dc.lft.to/lastmile_qr_scan"}, "type": "electric_scooter", "name": "caa2ca7f2756a5f46bd56afbc751ee61", "is_reserved": 0, "lon": -77.058406, "is_disabled": 0, "fusion_lat": 0.0, "lat": 38.930557, "bike_id": "caa2ca7f2756a5f46bd56afbc751ee61", "fusion_lon": 0.0}, {"rental_uris": {"ios": "https://dc.lft.to/lastmile_qr_scan", "android": "https://dc.lft.to/lastmile_qr_scan"}, "type": "electric_scooter", "name": "ea8c98f33c127edb7a31b8672d817584", "is_reserved": 0, "lon": -77.0241615, "is_disabled": 0, "fusion_lat": 0.0, "lat": 38.89887916666667, "bike_id": "ea8c98f33c127edb7a31b8672d817584", "fusion_lon": 0.0}, {"rental_uris": {"ios": "https://dc.lft.to/lastmile_qr_scan", "android": "https://dc.lft.to/lastmile_qr_scan"}, "type": "electric_scooter", "name": "4ba98d751dd4b3e807f1a629454f8422", "is_reserved": 0, "lon": -76.9883115, "is_disabled": 0, "fusion_lat": 0.0, "lat": 38.894975333333335, "bike_id": "4ba98d751dd4b3e807f1a629454f8422", "fusion_lon": 0.0}, {"rental_uris": {"ios": "https://dc.lft.to/lastmile_qr_scan", "android": "https://dc.lft.to/lastmile_qr_scan"}, "type": "electric_scooter", "name": "78428484ea44817913c8cf9adde42848", "is_reserved": 0, "lon": -77.0335145, "is_disabled": 0, "fusion_lat": 0.0, "lat": 38.922214833333335, "bike_id": "78428484ea44817913c8cf9adde42848", "fusion_lon": 0.0}, {"rental_uris": {"ios": "https://dc.lft.to/lastmile_qr_scan", "android": "https://dc.lft.to/lastmile_qr_scan"}, "type": "electric_scooter", "name": "028c821b3be6e07fb062f042027638aa", "is_reserved": 0, "lon": -77.01785433333333, "is_disabled": 0, "fusion_lat": 0.0, "lat": 38.882992333333334, "bike_id": "028c821b3be6e07fb062f042027638aa", "fusion_lon": 0.0}, {"rental_uris": {"ios": "https://dc.lft.to/lastmile_qr_scan", "android": "https://dc.lft.to/lastmile_qr_scan"}, "type": "electric_scooter", "name": "7f7443f635d54dd5e65f227f476a21f6", "is_reserved": 0, "lon": -77.034446, "is_disabled": 0, "fusion_lat": 0.0, "lat": 38.90563616666667, "bike_id": "7f7443f635d54dd5e65f227f476a21f6", "fusion_lon": 0.0}, {"rental_uris": {"ios": "https://dc.lft.to/lastmile_qr_scan", "android": "https://dc.lft.to/lastmile_qr_scan"}, "type": "electric_scooter", "name": "3de7c2f308a385e6a8ceb5ef3e62b9ee", "is_reserved": 0, "lon": -76.96565583333333, "is_disabled": 0, "fusion_lat": 0.0, "lat": 38.918814166666664, "bike_id": "3de7c2f308a385e6a8ceb5ef3e62b9ee", "fusion_lon": 0.0}, {"rental_uris": {"ios": "https://dc.lft.to/lastmile_qr_scan", "android": "https://dc.lft.to/lastmile_qr_scan"}, "type": "electric_bike", "name": "b889e25a428a8b116f58d1dc4f678a6e", "is_reserved": 0, "lon": -76.98768733333333, "is_disabled": 0, "fusion_lat": 0.0, "lat": 38.85762833333333, "bike_id": "b889e25a428a8b116f58d1dc4f678a6e", "fusion_lon": 0.0}, {"rental_uris": {"ios": "https://dc.lft.to/lastmile_qr_scan", "android": "https://dc.lft.to/lastmile_qr_scan"}, "type": "electric_scooter", "name": "0e9d05198a15c347e604b6684d666738", "is_reserved": 0, "lon": -77.03798116666667, "is_disabled": 0, "fusion_lat": 0.0, "lat": 38.915437833333336, "bike_id": "0e9d05198a15c347e604b6684d666738", "fusion_lon": 0.0}, {"rental_uris": {"ios": "https://dc.lft.to/lastmile_qr_scan", "android": "https://dc.lft.to/lastmile_qr_scan"}, "type": "electric_scooter", "name": "c3c31518a29868aed37c6f23fb97ee4a", "is_reserved": 0, "lon": -76.98072466666666, "is_disabled": 0, "fusion_lat": 0.0, "lat": 38.9017695, "bike_id": "c3c31518a29868aed37c6f23fb97ee4a", "fusion_lon": 0.0}, {"rental_uris": {"ios": "https://dc.lft.to/lastmile_qr_scan", "android": "https://dc.lft.to/lastmile_qr_scan"}, "type": "electric_scooter", "name": "b4def6083059c6cce8623cf51df84462", "is_reserved": 0, "lon": -77.03046666666667, "is_disabled": 0, "fusion_lat": 0.0, "lat": 38.88426066666667, "bike_id": "b4def6083059c6cce8623cf51df84462", "fusion_lon": 0.0}, {"rental_uris": {"ios": "https://dc.lft.to/lastmile_qr_scan", "android": "https://dc.lft.to/lastmile_qr_scan"}, "type": "electric_scooter", "name": "5b7b137d7874034135327b58dbcf8da8", "is_reserved": 0, "lon": -77.0401845, "is_disabled": 0, "fusion_lat": 0.0, "lat": 38.92247016666666, "bike_id": "5b7b137d7874034135327b58dbcf8da8", "fusion_lon": 0.0}, {"rental_uris": {"ios": "https://dc.lft.to/lastmile_qr_scan", "android": "https://dc.lft.to/lastmile_qr_scan"}, "type": "electric_scooter", "name": "ad81a2ed04c7f1f65a58ed6ff2a461e5", "is_reserved": 0, "lon": -77.03953516666667, "is_disabled": 0, "fusion_lat": 0.0, "lat": 38.8924655, "bike_id": "ad81a2ed04c7f1f65a58ed6ff2a461e5", "fusion_lon": 0.0}, {"rental_uris": {"ios": "https://dc.lft.to/lastmile_qr_scan", "android": "https://dc.lft.to/lastmile_qr_scan"}, "type": "electric_scooter", "name": "b88a470e7c1aa93430df1d487f3a1fe7", "is_reserved": 0, "lon": -76.92953133333333, "is_disabled": 0, "fusion_lat": 0.0, "lat": 38.903368666666665, "bike_id": "b88a470e7c1aa93430df1d487f3a1fe7", "fusion_lon": 0.0}, {"rental_uris": {"ios": "https://dc.lft.to/lastmile_qr_scan", "android": "https://dc.lft.to/lastmile_qr_scan"}, "type": "electric_scooter", "name": "c44983f200f9ffda6fdfa68211fa3a06", "is_reserved": 0, "lon": -76.98498316666667, "is_disabled": 0, "fusion_lat": 0.0, "lat": 38.920030833333335, "bike_id": "c44983f200f9ffda6fdfa68211fa3a06", "fusion_lon": 0.0}, {"rental_uris": {"ios": "https://dc.lft.to/lastmile_qr_scan", "android": "https://dc.lft.to/lastmile_qr_scan"}, "type": "electric_scooter", "name": "6e186b3d4717b709e3b3a6f34edd243f", "is_reserved": 0, "lon": -77.02057733333334, "is_disabled": 0, "fusion_lat": 0.0, "lat": 38.923981166666664, "bike_id": "6e186b3d4717b709e3b3a6f34edd243f", "fusion_lon": 0.0}, {"rental_uris": {"ios": "https://dc.lft.to/lastmile_qr_scan", "android": "https://dc.lft.to/lastmile_qr_scan"}, "type": "electric_scooter", "name": "abff6fdd4f65a6c077dde9844a3fd7ee", "is_reserved": 0, "lon": -77.0158645, "is_disabled": 0, "fusion_lat": 0.0, "lat": 38.8721855, "bike_id": "abff6fdd4f65a6c077dde9844a3fd7ee", "fusion_lon": 0.0}, {"rental_uris": {"ios": "https://dc.lft.to/lastmile_qr_scan", "android": "https://dc.lft.to/lastmile_qr_scan"}, "type": "electric_scooter", "name": "09e5304e1a9c79531e87d1c71ca23e67", "is_reserved": 0, "lon": -77.075908, "is_disabled": 0, "fusion_lat": 0.0, "lat": 38.937548166666666, "bike_id": "09e5304e1a9c79531e87d1c71ca23e67", "fusion_lon": 0.0}, {"rental_uris": {"ios": "https://dc.lft.to/lastmile_qr_scan", "android": "https://dc.lft.to/lastmile_qr_scan"},