{"data": {"bikes": [{"rental_uris": {"android": "https://dc.lft.to/lastmile_qr_scan", "ios": "https://dc.lft.to/lastmile_qr_scan"}, "is_reserved": 0, "is_disabled": 0, "bike_id": "a239d40437c802d2d27b60341702ae3e", "lat": 38.896408666666666, "name": "a239d40437c802d2d27b60341702ae3e", "fusion_lon": 0.0, "fusion_lat": 0.0, "type": "electric_scooter", "lon": -76.9994545}, {"rental_uris": {"android": "https://dc.lft.to/lastmile_qr_scan", "ios": "https://dc.lft.to/lastmile_qr_scan"}, "is_reserved": 0, "is_disabled": 0, "bike_id": "167075373acaec7439a5342782566843", "lat": 38.892182, "name": "167075373acaec7439a5342782566843", "fusion_lon": 0.0, "fusion_lat": 0.0, "type": "electric_scooter", "lon": -77.02761883333334}, {"rental_uris": {"android": "https://dc.lft.to/lastmile_qr_scan", "ios": "https://dc.lft.to/lastmile_qr_scan"}, "is_reserved": 0, "is_disabled": 0, "bike_id": "b842e0d95133503a4df6aaedb1839f55", "lat": 38.93636383333333, "name": "b842e0d95133503a4df6aaedb1839f55", "fusion_lon": 0.0, "fusion_lat": 0.0, "type": "electric_scooter", "lon": -77.032678}, {"rental_uris": {"android": "https://dc.lft.to/lastmile_qr_scan", "ios": "https://dc.lft.to/lastmile_qr_scan"}, "is_reserved": 0, "is_disabled": 0, "bike_id": "eea4f8a79f26abd03a8825b5e2a3a1ba", "lat": 38.903787333333334, "name": "eea4f8a79f26abd03a8825b5e2a3a1ba", "fusion_lon": 0.0, "fusion_lat": 0.0, "type": "electric_scooter", "lon": -77.04507566666666}, {"rental_uris": {"android": "https://dc.lft.to/lastmile_qr_scan", "ios": "https://dc.lft.to/lastmile_qr_scan"}, "is_reserved": 0, "is_disabled": 0, "bike_id": "074202e4e76996e0f5e3c2eb169ec33f", "lat": 38.90346483333333, "name": "074202e4e76996e0f5e3c2eb169ec33f", "fusion_lon": 0.0, "fusion_lat": 0.0, "type": "electric_scooter", "lon": -76.9826695}, {"rental_uris": {"android": "https://dc.lft.to/lastmile_qr_scan", "ios": "https://dc.lft.to/lastmile_qr_scan"}, "is_reserved": 0, "is_disabled": 0, "bike_id": "849615a43a9d14be157ac51c9a4ee5e2", "lat": 38.926185333333336, "name": "849615a43a9d14be157ac51c9a4ee5e2", "fusion_lon": 0.0, "fusion_lat": 0.0, "type": "electric_scooter", "lon": -77.04323266666667}, {"rental_uris": {"android": "https://dc.lft.to/lastmile_qr_scan", "ios": "https://dc.lft.to/lastmile_qr_scan"}, "is_reserved": 0, "is_disabled": 0, "bike_id": "c6ff4be5a53be942c6f337eed1138d96", "lat": 38.89890583333333, "name": "c6ff4be5a53be942c6f337eed1138d96", "fusion_lon": 0.0, "fusion_lat": 0.0, "type": "electric_scooter", "lon": -77.04031633333334}, {"rental_uris": {"android": "https://dc.lft.to/lastmile_qr_scan", "ios": "https://dc.lft.to/lastmile_qr_scan"}, "is_reserved": 0, "is_disabled": 0, "bike_id": "89d92d919b6dc0311e0d390b2a7bd675", "lat": 38.928438166666666, "name": "89d92d919b6dc0311e0d390b2a7bd675", "fusion_lon": 0.0, "fusion_lat": 0.0, "type": "electric_scooter", "lon": -77.03244233333334}, {"rental_uris": {"android": "https://dc.lft.to/lastmile_qr_scan", "ios": "https://dc.lft.to/lastmile_qr_scan"}, "is_reserved": 0, "is_disabled": 0, "bike_id": "85e9b08bf63d47b09242d587c8215309", "lat": 38.9170715, "name": "85e9b08bf63d47b09242d587c8215309", "fusion_lon": 0.0, "fusion_lat": 0.0, "type": "electric_scooter", "lon": -77.046001}, {"rental_uris": {"android": "https://dc.lft.to/lastmile_qr_scan", "ios": "https://dc.lft.to/lastmile_qr_scan"}, "is_reserved": 0, "is_disabled": 0, "bike_id": "55ae5598725e2baa8bb38ff368e92c7e", "lat": 38.90748516666667, "name": "55ae5598725e2baa8bb38ff368e92c7e", "fusion_lon": 0.0, "fusion_lat": 0.0, "type": "electric_scooter", "lon": -77.04176583333333}, {"rental_uris": {"android": "https://dc.lft.to/lastmile_qr_scan", "ios": "https://dc.lft.to/lastmile_qr_scan"}, "is_reserved": 0, "is_disabled": 0, "bike_id": "c37ebb94678ec0fca827294be3afcab4", "lat": 38.900371166666666, "name": "c37ebb94678ec0fca827294be3afcab4", "fusion_lon": 0.0, "fusion_lat": 0.0, "type": "electric_scooter", "lon": -76.98822483333333}, {"rental_uris": {"android": "https://dc.lft.to/lastmile_qr_scan", "ios": "https://dc.lft.to/lastmile_qr_scan"}, "is_reserved": 0, "is_disabled": 0, "bike_id": "523d94416bbf65453f137c9a4f04d558", "lat": 38.909576, "name": "523d94416bbf65453f137c9a4f04d558", "fusion_lon": 0.0, "fusion_lat": 0.0, "type": "electric_scooter", "lon": -77.032574}, {"rental_uris": {"android": "https://dc.lft.to/lastmile_qr_scan", "ios": "https://dc.lft.to/lastmile_qr_scan"}, "is_reserved": 0, "is_disabled": 0, "bike_id": "fc6323fb54c093ff64bf8b44ed6f7736", "lat": 38.953986, "name": "fc6323fb54c093ff64bf8b44ed6f7736", "fusion_lon": 0.0, "fusion_lat": 0.0, "type": "electric_scooter", "lon": -77.02780133333333}, {"rental_uris": {"android": "https://dc.lft.to/lastmile_qr_scan", "ios": "https://dc.lft.to/lastmile_qr_scan"}, "is_reserved": 0, "is_disabled": 0, "bike_id": "85fa38e5fd74326dd8b42be851c10202", "lat": 38.917087, "name": "85fa38e5fd74326dd8b42be851c10202", "fusion_lon": 0.0, "fusion_lat": 0.0, "type": "electric_scooter", "lon": -77.03862833333334}, {"rental_uris": {"android": "https://dc.lft.to/lastmile_qr_scan", "ios": "https://dc.lft.to/lastmile_qr_scan"}, "is_reserved": 0, "is_disabled": 0, "bike_id": "4ea19797dec0da75bb78c7718828d629", "lat": 38.924192833333336, "name": "4ea19797dec0da75bb78c7718828d629", "fusion_lon": 0.0, "fusion_lat": 0.0, "type": "electric_scooter", "lon": -77.02009}, {"rental_uris": {"android": "https://dc.lft.to/lastmile_qr_scan", "ios": "https://dc.lft.to/lastmile_qr_scan"}, "is_reserved": 0, "is_disabled": 0, "bike_id": "6798e6c894da14290b69eacbb487295e", "lat": 38.87116366666667, "name": "6798e6c894da14290b69eacbb487295e", "fusion_lon": 0.0, "fusion_lat": 0.0, "type": "electric_scooter", "lon": -77.00753216666666}, {"rental_uris": {"android": "https://dc.lft.to/lastmile_qr_scan", "ios": "https://dc.lft.to/lastmile_qr_scan"}, "is_reserved": 0, "is_disabled": 0, "bike_id": "fb59668834faa03219273b830c8d175e", "lat": 38.93602683333334, "name": "fb59668834faa03219273b830c8d175e", "fusion_lon": 0.0, "fusion_lat": 0.0, "type": "electric_scooter", "lon": -77.0233085}, {"rental_uris": {"android": "https://dc.lft.to/lastmile_qr_scan", "ios": "https://dc.lft.to/lastmile_qr_scan"}, "is_reserved": 0, "is_disabled": 0, "bike_id": "2713df0742d133f6d8b7a7120064f0be", "lat": 38.913001666666666, "name": "2713df0742d133f6d8b7a7120064f0be", "fusion_lon": 0.0, "fusion_lat": 0.0, "type": "electric_scooter", "lon": -77.022855}, {"rental_uris": {"android": "https://dc.lft.to/lastmile_qr_scan", "ios": "https://dc.lft.to/lastmile_qr_scan"}, "is_reserved": 0, "is_disabled": 0, "bike_id": "666fe679e85f7031fb359c0e6732abb9", "lat": 38.914352666666666, "name": "666fe679e85f7031fb359c0e6732abb9", "fusion_lon": 0.0, "fusion_lat": 0.0, "type": "electric_scooter", "lon": -77.022003}, {"rental_uris": {"android": "https://dc.lft.to/lastmile_qr_scan", "ios": "https://dc.lft.to/lastmile_qr_scan"}, "is_reserved": 0, "is_disabled": 0, "bike_id": "a2ede6d0ac1069713e5f942966ba3901", "lat": 38.87932583333333, "name": "a2ede6d0ac1069713e5f942966ba3901", "fusion_lon": 0.0, "fusion_lat": 0.0, "type": "electric_scooter", "lon": -77.01455633333333}, {"rental_uris": {"android": "https://dc.lft.to/lastmile_qr_scan", "ios": "https://dc.lft.to/lastmile_qr_scan"}, "is_reserved": 0, "is_disabled": 0, "bike_id": "216ba5dd0857ffe9cf4bd9679677be18", "lat": 38.9429165, "name": "216ba5dd0857ffe9cf4bd9679677be18", "fusion_lon": 0.0, "fusion_lat": 0.0, "type": "electric_scooter", "lon": -77.02171116666666}, {"rental_uris": {"android": "https://dc.lft.to/lastmile_qr_scan", "ios": "https://dc.lft.to/lastmile_qr_scan"}, "is_reserved": 0, "is_disabled": 0, "bike_id": "911f94fcf12ae4705239952babad4e73", "lat": 38.975002, "name": "911f94fcf12ae4705239952babad4e73", "fusion_lon": 0.0, "fusion_lat": 0.0, "type": "electric_scooter", "lon": -77.01682}, {"rental_uris": {"android": "https://dc.lft.to/lastmile_qr_scan", "ios": "https://dc.lft.to/lastmile_qr_scan"}, "is_reserved": 0, "is_disabled": 0, "bike_id": "1515bc5072540f96b8cf175731daa004", "lat": 38.89275083333333, "name": "1515bc5072540f96b8cf175731daa004", "fusion_lon": 0.0, "fusion_lat": 0.0, "type": "electric_scooter", "lon": -77.05033866666666}, {"rental_uris": {"android": "https://dc.lft.to/lastmile_qr_scan", "ios": "https://dc.lft.to/lastmile_qr_scan"}, "is_reserved": 0, "is_disabled": 0, "bike_id": "e001d926197e96f7a8b6d4c2503c90a9", "lat": 38.911021833333336, "name": "e001d926197e96f7a8b6d4c2503c90a9", "fusion_lon": 0.0, "fusion_lat": 0.0, "type": "electric_scooter", "lon": -77.04663116666667}, {"rental_uris": {"android": "https://dc.lft.to/lastmile_qr_scan", "ios": "https://dc.lft.to/lastmile_qr_scan"}, "is_reserved": 0, "is_disabled": 0, "bike_id": "09e821f8ca873c577aaced9b852e856d", "lat": 38.905697, "name": "09e821f8ca873c577aaced9b852e856d", "fusion_lon": 0.0, "fusion_lat": 0.0, "type": "electric_scooter", "lon": -77.02211533333333}, {"rental_uris": {"android": "https://dc.lft.to/lastmile_qr_scan", "ios": "https://dc.lft.to/lastmile_qr_scan"}, "is_reserved": 0, "is_disabled": 0, "bike_id": "e6a62ea4875567beb8642c61589d7d8a", "lat": 38.844241833333335, "name": "e6a62ea4875567beb8642c61589d7d8a", "fusion_lon": 0.0, "fusion_lat": 0.0, "type": "electric_scooter", "lon": -76.99780233333334}, {"rental_uris": {"android": "https://dc.lft.to/lastmile_qr_scan", "ios": "https://dc.lft.to/lastmile_qr_scan"}, "is_reserved": 0, "is_disabled": 0, "bike_id": "0979aed6b9b531d079b5a5dc031211bb", "lat": 38.903686, "name": "0979aed6b9b531d079b5a5dc031211bb", "fusion_lon": 0.0, "fusion_lat": 0.0, "type": "electric_scooter", "lon": -77.0446065}, {"rental_uris": {"android": "https://dc.lft.to/lastmile_qr_scan", "ios": "https://dc.lft.to/lastmile_qr_scan"}, "is_reserved": 0, "is_disabled": 0, "bike_id": "20473a3b67205bfee87ea1568ca90d46", "lat": 38.89732433333333, "name": "20473a3b67205bfee87ea1568ca90d46", "fusion_lon": 0.0, "fusion_lat": 0.0, "type": "electric_scooter", "lon": -76.947264}, {"rental_uris": {"android": "https://dc.lft.to/lastmile_qr_scan", "ios": "https://dc.lft.to/lastmile_qr_scan"}, "is_reserved": 0, "is_disabled": 0, "bike_id": "d1a610e381634601b54d33acdfa41663", "lat": 38.912365333333334, "name": "d1a610e381634601b54d33acdfa41663", "fusion_lon": 0.0, "fusion_lat": 0.0, "type": "electric_scooter", "lon": -77.04483216666667}, {"rental_uris": {"android": "https://dc.lft.to/lastmile_qr_scan", "ios": "https://dc.lft.to/lastmile_qr_scan"}, "is_reserved": 0, "is_disabled": 0, "bike_id": "b10ecbdd872041f51698b23ab4f586c7", "lat": 38.920481833333334, "name": "b10ecbdd872041f51698b23ab4f586c7", "fusion_lon": 0.0, "fusion_lat": 0.0, "type": "electric_scooter", "lon": -77.04188916666666}, {"rental_uris": {"android": "https://dc.lft.to/lastmile_qr_scan", "ios": "https://dc.lft.to/lastmile_qr_scan"}, "is_reserved": 0, "is_disabled": 0, "bike_id": "073a6ab47ebe024bced9057f8efc73a5", "lat": 38.918242666666664, "name": "073a6ab47ebe024bced9057f8efc73a5", "fusion_lon": 0.0, "fusion_lat": 0.0, "type": "electric_scooter", "lon": -77.03443966666667}, {"rental_uris": {"android": "https://dc.lft.to/lastmile_qr_scan", "ios": "https://dc.lft.to/lastmile_qr_scan"}, "is_reserved": 0, "is_disabled": 0, "bike_id": "41a29abe1739b566187b22ef340aaea3", "lat": 38.88742716666667, "name": "41a29abe1739b566187b22ef340aaea3", "fusion_lon": 0.0, "fusion_lat": 0.0, "type": "electric_scooter", "lon": -77.028413}, {"rental_uris": {"android": "https://dc.lft.to/lastmile_qr_scan", "ios": "https://dc.lft.to/lastmile_qr_scan"}, "is_reserved": 0, "is_disabled": 0, "bike_id": "b2791fa4b69f2b7aeb4e9fc926c10c66", "lat": 38.91114733333333, "name": "b2791fa4b69f2b7aeb4e9fc926c10c66", "fusion_lon": 0.0, "fusion_lat": 0.0, "type": "electric_scooter", "lon": -77.031525}, {"rental_uris": {"android": "https://dc.lft.to/lastmile_qr_scan", "ios": "https://dc.lft.to/lastmile_qr_scan"}, "is_reserved": 0, "is_disabled": 0, "bike_id": "3cd4a95dd59a344940e52ea89f433f40", "lat": 38.903830666666664, "name": "3cd4a95dd59a344940e52ea89f433f40", "fusion_lon": 0.0, "fusion_lat": 0.0, "type": "electric_scooter", "lon": -77.038792}, {"rental_uris": {"android": "https://dc.lft.to/lastmile_qr_scan", "ios": "https://dc.lft.to/lastmile_qr_scan"}, "is_reserved": 0, "is_disabled": 0, "bike_id": "b5bf68f8b91d83b97afdff4a773b1271", "lat": 38.922362, "name": "b5bf68f8b91d83b97afdff4a773b1271", "fusion_lon": 0.0, "fusion_lat": 0.0, "type": "electric_scooter", "lon": -77.02199083333333}, {"rental_uris": {"android": "https://dc.lft.to/lastmile_qr_scan", "ios": "https://dc.lft.to/lastmile_qr_scan"}, "is_reserved": 0, "is_disabled": 0, "bike_id": "5eba8d739017ab4a7df7adfdaeccc9c2", "lat": 38.904135333333336, "name": "5eba8d739017ab4a7df7adfdaeccc9c2", "fusion_lon": 0.0, "fusion_lat": 0.0, "type": "electric_scooter", "lon": -76.98086516666666}, {"rental_uris": {"android": "https://dc.lft.to/lastmile_qr_scan", "ios": "https://dc.lft.to/lastmile_qr_scan"}, "is_reserved": 0, "is_disabled": 0, "bike_id": "02c501c4e1c32b9bb94dea1a95cf9c60", "lat": 38.89221116666667, "name": "02c501c4e1c32b9bb94dea1a95cf9c60", "fusion_lon": 0.0, "fusion_lat": 0.0, "type": "electric_scooter", "lon": -77.0137135}, {"rental_uris": {"android": "https://dc.lft.to/lastmile_qr_scan", "ios": "https://dc.lft.to/lastmile_qr_scan"}, "is_reserved": 0, "is_disabled": 0, "bike_id": "a6cd2d37eeba70c1094f066feca3f745", "lat": 38.9132365, "name": "a6cd2d37eeba70c1094f066feca3f745", "fusion_lon": 0.0, "fusion_lat": 0.0, "type": "electric_scooter", "lon": -77.0453625}, {"rental_uris": {"android": "https://dc.lft.to/lastmile_qr_scan", "ios": "https://dc.lft.to/lastmile_qr_scan"}, "is_reserved": 0, "is_disabled": 0, "bike_id": "df5bdcc785305a719cc26e1417e3b379", "lat": 38.9058515, "name": "df5bdcc785305a719cc26e1417e3b379", "fusion_lon": 0.0, "fusion_lat": 0.0, "type": "electric_scooter", "lon": -77.038466}, {"rental_uris": {"android": "https://dc.lft.to/lastmile_qr_scan", "ios": "https://dc.lft.to/lastmile_qr_scan"}, "is_reserved": 0, "is_disabled": 0, "bike_id": "1d521a87c87c31891768c3cc59c8b087", "lat": 39.05199866666667, "name": "1d521a87c87c31891768c3cc59c8b087", "fusion_lon": 0.0, "fusion_lat": 0.0, "type": "electric_bike", "lon": -77.10908966666666}, {"rental_uris": {"android": "https://dc.lft.to/lastmile_qr_scan", "ios": "https://dc.lft.to/lastmile_qr_scan"}, "is_reserved": 0, "is_disabled": 0, "bike_id": "dcb5480255b785ad9d6a5b65ce271356", "lat": 38.938799833333334, "name": "dcb5480255b785ad9d6a5b65ce271356", "fusion_lon": 0.0, "fusion_lat": 0.0, "type": "electric_scooter", "lon": -77.0247835}, {"rental_uris": {"android": "https://dc.lft.to/lastmile_qr_scan", "ios": "https://dc.lft.to/lastmile_qr_scan"}, "is_reserved": 0, "is_disabled": 0, "bike_id": "5e3fd1aa0c63a30c9e26ab9431450c5c", "lat": 38.87922483333333, "name": "5e3fd1aa0c63a30c9e26ab9431450c5c", "fusion_lon": 0.0, "fusion_lat": 0.0, "type": "electric_scooter", "lon": -76.99254333333333}, {"rental_uris": {"android": "https://dc.lft.to/lastmile_qr_scan", "ios": "https://dc.lft.to/lastmile_qr_scan"}, "is_reserved": 0, "is_disabled": 0, "bike_id": "793ab58aebd7e84056873427ddf14a55", "lat": 38.854938833333335, "name": "793ab58aebd7e84056873427ddf14a55", "fusion_lon": 0.0, "fusion_lat": 0.0, "type": "electric_bike", "lon": -77.11611216666667}, {"rental_uris": {"android": "https://dc.lft.to/lastmile_qr_scan", "ios": "https://dc.lft.to/lastmile_qr_scan"}, "is_reserved": 0, "is_disabled": 0, "bike_id": "9107f0ffcb093f01475571fe9eb74db3", "lat": 38.90380483333333, "name": "9107f0ffcb093f01475571fe9eb74db3", "fusion_lon": 0.0, "fusion_lat": 0.0, "type": "electric_scooter", "lon": -77.04439883333333}, {"rental_uris": {"android": "https://dc.lft.to/lastmile_qr_scan", "ios": "https://dc.lft.to/lastmile_qr_scan"}, "is_reserved": 0, "is_disabled": 0, "bike_id": "a87a78882cfb84b65d2a761339d9620d", "lat": 38.902313666666664, "name": "a87a78882cfb84b65d2a761339d9620d", "fusion_lon": 0.0, "fusion_lat": 0.0, "type": "electric_scooter", "lon": -77.06030416666667}, {"rental_uris": {"android": "https://dc.lft.to/lastmile_qr_scan", "ios": "https://dc.lft.to/lastmile_qr_scan"}, "is_reserved": 0, "is_disabled": 0, "bike_id": "29f84036c2e876d8a807cd3605366b82", "lat": 38.88270416666667, "name": "29f84036c2e876d8a807cd3605366b82", "fusion_lon": 0.0, "fusion_lat": 0.0, "type": "electric_scooter", "lon": -76.99014583333333}, {"rental_uris": {"android": "https://dc.lft.to/lastmile_qr_scan", "ios": "https://dc.lft.to/lastmile_qr_scan"}, "is_reserved": 0, "is_disabled": 0, "bike_id": "1bcaa194a8c333abf3ab9ad344abea98", "lat": 38.923287, "name": "1bcaa194a8c333abf3ab9ad344abea98", "fusion_lon": 0.0, "fusion_lat": 0.0, "type": "electric_scooter", "lon": -77.03611566666666}, {"rental_uris": {"android": "https://dc.lft.to/lastmile_qr_scan", "ios": "https://dc.lft.to/lastmile_qr_scan"}, "is_reserved": 0, "is_disabled": 0, "bike_id": "4eb15010f03e3615adde6267fd511979", "lat": 38.90942716666667, "name": "4eb15010f03e3615adde6267fd511979", "fusion_lon": 0.0, "fusion_lat": 0.0, "type": "electric_scooter", "lon": -77.04495983333334}, {"rental_uris": {"android": "https://dc.lft.to/lastmile_qr_scan", "ios": "https://dc.lft.to/lastmile_qr_scan"}, "is_reserved": 0, "is_disabled": 0, "bike_id": "d2a8a92a842d9fce16fa8a13163fa99e", "lat": 38.9156755, "name": "d2a8a92a842d9fce16fa8a13163fa99e", "fusion_lon": 0.0, "fusion_lat": 0.0, "type": "electric_scooter", "lon": -77.02707183333334}, {"rental_uris": {"android": "https://dc.lft.to/lastmile_qr_scan", "ios": "https://dc.lft.to/lastmile_qr_scan"}, "is_reserved": 0, "is_disabled": 0, "bike_id": "40180bf4b1f6ace37652edb484e5c13c", "lat": 38.90364316666667, "name": "40180bf4b1f6ace37652edb484e5c13c", "fusion_lon": 0.0, "fusion_lat": 0.0, "type": "electric_scooter", "lon": -77.03654533333334}, {"rental_uris": {"android": "https://dc.lft.to/lastmile_qr_scan", "ios": "https://dc.lft.to/lastmile_qr_scan"}, "is_reserved": 0, "is_disabled": 0, "bike_id": "38c313b1e1b175b215f0d48085587166", "lat": 38.885197833333336, "name": "38c313b1e1b175b215f0d48085587166", "fusion_lon": 0.0, "fusion_lat": 0.0, "type": "electric_scooter", "lon": -77.01530366666667}, {"rental_uris": {"android": "https://dc.lft.to/lastmile_qr_scan", "ios": "https://dc.lft.to/lastmile_qr_scan"}, "is_reserved": 0, "is_disabled": 0, "bike_id": "f9f260b45b9ed22c17138980574e72ac", "lat": 38.914420166666666, "name": "f9f260b45b9ed22c17138980574e72ac", "fusion_lon": 0.0, "fusion_lat": 0.0, "type": "electric_scooter", "lon": -77.00458183333333}, {"rental_uris": {"android": "https://dc.lft.to/lastmile_qr_scan", "ios": "https://dc.lft.to/lastmile_qr_scan"}, "is_reserved": 0, "is_disabled": 0, "bike_id": "b8fd177ae6426e4866bf6194c1409336", "lat": 38.923503333333336, "name": "b8fd177ae6426e4866bf6194c1409336", "fusion_lon": 0.0, "fusion_lat": 0.0, "type": "electric_scooter", "lon": -77.04360966666667}, {"rental_uris": {"android": "https://dc.lft.to/lastmile_qr_scan", "ios": "https://dc.lft.to/lastmile_qr_scan"}, "is_reserved": 0, "is_disabled": 0, "bike_id": "219dca248e6a742217047dc1ef15d39c", "lat": 38.926390166666664, "name": "219dca248e6a742217047dc1ef15d39c", "fusion_lon": 0.0, "fusion_lat": 0.0, "type": "electric_scooter", "lon": -77.04135983333333}, {"rental_uris": {"android": "https://dc.lft.to/lastmile_qr_scan", "ios": "https://dc.lft.to/lastmile_qr_scan"}, "is_reserved": 0, "is_disabled": 0, "bike_id": "72b88d660f3b032cc204f976908d5d28", "lat": 38.857861, "name": "72b88d660f3b032cc204f976908d5d28", "fusion_lon": 0.0, "fusion_lat": 0.0, "type": "electric_bike", "lon": -77.09959583333334}, {"rental_uris": {"android": "https://dc.lft.to/lastmile_qr_scan", "ios": "https://dc.lft.to/lastmile_qr_scan"}, "is_reserved": 0, "is_disabled": 0, "bike_id": "7bbb38db65f3af1ddb88113f9f60ccdf", "lat": 38.88363916666667, "name": "7bbb38db65f3af1ddb88113f9f60ccdf", "fusion_lon": 0.0, "fusion_lat": 0.0, "type": "electric_scooter", "lon": -76.9415355}, {"rental_uris": {"android": "https://dc.lft.to/lastmile_qr_scan", "ios": "https://dc.lft.to/lastmile_qr_scan"}, "is_reserved": 0, "is_disabled": 0, "bike_id": "95f366ef4d55d43a0f392b75517d1192", "lat": 38.91361, "name": "95f366ef4d55d43a0f392b75517d1192", "fusion_lon": 0.0, "fusion_lat": 0.0, "type": "electric_scooter", "lon": -77.019928}, {"rental_uris": {"android": "https://dc.lft.to/lastmile_qr_scan", "ios": "https://dc.lft.to/lastmile_qr_scan"}, "is_reserved": 0, "is_disabled": 0, "bike_id": "240615978add86beee46662f2e48bf3d", "lat": 38.903091, "name": "240615978add86beee46662f2e48bf3d", "fusion_lon": 0.0, "fusion_lat": 0.0, "type": "electric_scooter", "lon": -77.03465016666667}, {"rental_uris": {"android": "https://dc.lft.to/lastmile_qr_scan", "ios": "https://dc.lft.to/lastmile_qr_scan"}, "is_reserved": 0, "is_disabled": 0, "bike_id": "363d7441fbac488f68011e44d204d3f3", "lat": 38.922134, "name": "363d7441fbac488f68011e44d204d3f3", "fusion_lon": 0.0, "fusion_lat": 0.0, "type": "electric_scooter", "lon": -77.01960583333333}, {"rental_uris": {"android": "https://dc.lft.to/lastmile_qr_scan", "ios": "https://dc.lft.to/lastmile_qr_scan"}, "is_reserved": 0, "is_disabled": 0, "bike_id": "72140be871ce1c61792a86a1fa415a39", "lat": 38.89943066666667, "name": "72140be871ce1c61792a86a1fa415a39", "fusion_lon": 0.0, "fusion_lat": 0.0, "type": "electric_scooter", "lon": -76.98194766666667}, {"rental_uris": {"android": "https://dc.lft.to/lastmile_qr_scan", "ios": "https://dc.lft.to/lastmile_qr_scan"}, "is_reserved": 0, "is_disabled": 0, "bike_id": "08f2584479416b1259ba284352d8b079", "lat": 38.893560666666666, "name": "08f2584479416b1259ba284352d8b079", "fusion_lon": 0.0, "fusion_lat": 0.0, "type": "electric_scooter", "lon": -77.02218433333333}, {"rental_uris": {"android": "https://dc.lft.to/lastmile_qr_scan", "ios": "https://dc.lft.to/lastmile_qr_scan"}, "is_reserved": 0, "is_disabled": 0, "bike_id": "5945b582d478c448c9bd2e864de8c9dd", "lat": 38.93442233333333, "name": "5945b582d478c448c9bd2e864de8c9dd", "fusion_lon": 0.0, "fusion_lat": 0.0, "type": "electric_scooter", "lon": -77.02978983333334}, {"rental_uris": {"android": "https://dc.lft.to/lastmile_qr_scan", "ios": "https://dc.lft.to/lastmile_qr_scan"}, "is_reserved": 0, "is_disabled": 0, "bike_id": "a39d80cbf395e44c36636775bd9fb52d", "lat": 38.90340033333333, "name": "a39d80cbf395e44c36636775bd9fb52d", "fusion_lon": 0.0, "fusion_lat": 0.0, "type": "electric_scooter", "lon": -77.04169583333334}, {"rental_uris": {"android": "https://dc.lft.to/lastmile_qr_scan", "ios": "https://dc.lft.to/lastmile_qr_scan"}, "is_reserved": 0, "is_disabled": 0, "bike_id": "bf391407265c7e9694c887adb3a9bf18", "lat": 38.941851, "name": "bf391407265c7e9694c887adb3a9bf18", "fusion_lon": 0.0, "fusion_lat": 0.0, "type": "electric_scooter", "lon": -77.02403516666666}, {"rental_uris": {"android": "https://dc.lft.to/lastmile_qr_scan", "ios": "https://dc.lft.to/lastmile_qr_scan"}, "is_reserved": 0, "is_disabled": 0, "bike_id": "10ec367fdabd9a42be8e973c9c8f0e53", "lat": 38.896603166666665, "name": "10ec367fdabd9a42be8e973c9c8f0e53", "fusion_lon": 0.0, "fusion_lat": 0.0, "type": "electric_bike", "lon": -76.9301105}, {"rental_uris": {"android": "https://dc.lft.to/lastmile_qr_scan", "ios": "https://dc.lft.to/lastmile_qr_scan"}, "is_reserved": 0, "is_disabled": 0, "bike_id": "18e3df79746a2315964b042e8796b6bc", "lat": 38.91949916666667, "name": "18e3df79746a2315964b042e8796b6bc", "fusion_lon": 0.0, "fusion_lat": 0.0, "type": "electric_scooter", "lon": -76.98076883333333}, {"rental_uris": {"android": "https://dc.lft.to/lastmile_qr_scan", "ios": "https://dc.lft.to/lastmile_qr_scan"}, "is_reserved": 0, "is_disabled": 0, "bike_id": "b2db174e2235f330f28a4a1f9b586cb6", "lat": 38.90167683333333, "name": "b2db174e2235f330f28a4a1f9b586cb6", "fusion_lon": 0.0, "fusion_lat": 0.0, "type": "electric_scooter", "lon": -76.93026366666666}, {"rental_uris": {"android": "https://dc.lft.to/lastmile_qr_scan", "ios": "https://dc.lft.to/lastmile_qr_scan"}, "is_reserved": 0, "is_disabled": 0, "bike_id": "999fe6dc41a275fc360a4058bd2792d3", "lat": 38.956434, "name": "999fe6dc41a275fc360a4058bd2792d3", "fusion_lon": 0.0, "fusion_lat": 0.0, "type": "electric_scooter", "lon": -77.0225485}, {"rental_uris": {"android": "https://dc.lft.to/lastmile_qr_scan", "ios": "https://dc.lft.to/lastmile_qr_scan"}, "is_reserved": 0, "is_disabled": 0, "bike_id": "5e637387cd66dab17424e96669a5fa56", "lat": 38.941531166666664, "name": "5e637387cd66dab17424e96669a5fa56", "fusion_lon": 0.0, "fusion_lat": 0.0, "type": "electric_scooter", "lon": -77.09100916666667}, {"rental_uris": {"android": "https://dc.lft.to/lastmile_qr_scan", "ios": "https://dc.lft.to/lastmile_qr_scan"}, "is_reserved": 0, "is_disabled": 0, "bike_id": "ddb62aa62eb9242437384c93d6aab2a9", "lat": 38.97842816666667, "name": "ddb62aa62eb9242437384c93d6aab2a9", "fusion_lon": 0.0, "fusion_lat": 0.0, "type": "electric_bike", "lon": -76.92879733333334}, {"rental_uris": {"android": "https://dc.lft.to/lastmile_qr_scan", "ios": "https://dc.lft.to/lastmile_qr_scan"}, "is_reserved": 0, "is_disabled": 0, "bike_id": "d74157077a7bc8ebb82fcb349e9319ea", "lat": 38.91122633333333, "name": "d74157077a7bc8ebb82fcb349e9319ea", "fusion_lon": 0.0, "fusion_lat": 0.0, "type": "electric_scooter", "lon": -77.04209183333333}, {"rental_uris": {"android": "https://dc.lft.to/lastmile_qr_scan", "ios": "https://dc.lft.to/lastmile_qr_scan"}, "is_reserved": 0, "is_disabled": 0, "bike_id": "5e8fc4b5f266e6c67fbe5f0d1566d928", "lat": 38.9028855, "name": "5e8fc4b5f266e6c67fbe5f0d1566d928", "fusion_lon": 0.0, "fusion_lat": 0.0, "type": "electric_scooter", "lon": -77.0367185}, {"rental_uris": {"android": "https://dc.lft.to/lastmile_qr_scan", "ios": "https://dc.lft.to/lastmile_qr_scan"}, "is_reserved": 0, "is_disabled": 0, "bike_id": "b3d909eff44e8e439410f1e46d3487a1", "lat": 38.95057516666667, "name": "b3d909eff44e8e439410f1e46d3487a1", "fusion_lon": 0.0, "fusion_lat": 0.0, "type": "electric_scooter", "lon": -77.08026216666667}, {"rental_uris": {"android": "https://dc.lft.to/lastmile_qr_scan", "ios": "https://dc.lft.to/lastmile_qr_scan"}, "is_reserved": 0, "is_disabled": 0, "bike_id": "db1b9dc9661a81a898c71541a8e1d6ef", "lat": 38.9043925, "name": "db1b9dc9661a81a898c71541a8e1d6ef", "fusion_lon": 0.0, "fusion_lat": 0.0, "type": "electric_scooter", "lon": -77.04863933333333}, {"rental_uris": {"android": "https://dc.lft.to/lastmile_qr_scan", "ios": "https://dc.lft.to/lastmile_qr_scan"}, "is_reserved": 0, "is_disabled": 0, "bike_id": "e759415551874255464a121d1dc4c576", "lat": 38.9235955, "name": "e759415551874255464a121d1dc4c576", "fusion_lon": 0.0, "fusion_lat": 0.0, "type": "electric_scooter", "lon": -77.0512925}, {"rental_uris": {"android": "https://dc.lft.to/lastmile_qr_scan", "ios": "https://dc.lft.to/lastmile_qr_scan"}, "is_reserved": 0, "is_disabled": 0, "bike_id": "7a8f6d93b0df34d1aad15dcede24d222", "lat": 38.890066833333336, "name": "7a8f6d93b0df34d1aad15dcede24d222", "fusion_lon": 0.0, "fusion_lat": 0.0, "type": "electric_scooter", "lon": -76.958921}, {"rental_uris": {"android": "https://dc.lft.to/lastmile_qr_scan", "ios": "https://dc.lft.to/lastmile_qr_scan"}, "is_reserved": 0, "is_disabled": 0, "bike_id": "c12e14fb98bfbf0f03b73b7a93efe348", "lat": 38.917482, "name": "c12e14fb98bfbf0f03b73b7a93efe348", "fusion_lon": 0.0, "fusion_lat": 0.0, "type": "electric_scooter", "lon": -77.04159483333333}, {"rental_uris": {"android": "https://dc.lft.to/lastmile_qr_scan", "ios": "https://dc.lft.to/lastmile_qr_scan"}, "is_reserved": 0, "is_disabled": 0, "bike_id": "b119ca0ba3eece284c8f0ddca78a86ec", "lat": 38.8945475, "name": "b119ca0ba3eece284c8f0ddca78a86ec", "fusion_lon": 0.0, "fusion_lat": 0.0, "type": "electric_scooter", "lon": -77.04674283333334}, {"rental_uris": {"android": "https://dc.lft.to/lastmile_qr_scan", "ios": "https://dc.lft.to/lastmile_qr_scan"}, "is_reserved": 0, "is_disabled": 0, "bike_id": "67713afc403dbcd3071e0900bc6a7a63", "lat": 38.9123875, "name": "67713afc403dbcd3071e0900bc6a7a63", "fusion_lon": 0.0, "fusion_lat": 0.0, "type": "electric_scooter", "lon": -77.03860333333333}, {"rental_uris": {"android": "https://dc.lft.to/lastmile_qr_scan", "ios": "https://dc.lft.to/lastmile_qr_scan"}, "is_reserved": 0, "is_disabled": 0, "bike_id": "aad8ef46b5502333788a3df2d57a6f67", "lat": 38.92116566666667, "name": "aad8ef46b5502333788a3df2d57a6f67", "fusion_lon": 0.0, "fusion_lat": 0.0, "type": "electric_scooter", "lon": -77.046349}, {"rental_uris": {"android": "https://dc.lft.to/lastmile_qr_scan", "ios": "https://dc.lft.to/lastmile_qr_scan"}, "is_reserved": 0, "is_disabled": 0, "bike_id": "f075aa7931e13c58020caafeac95cc9f", "lat": 38.93085, "name": "f075aa7931e13c58020caafeac95cc9f", "fusion_lon": 0.0, "fusion_lat": 0.0, "type": "electric_scooter", "lon": -77.00409583333334}, {"rental_uris": {"android": "https://dc.lft.to/lastmile_qr_scan", "ios": "https://dc.lft.to/lastmile_qr_scan"}, "is_reserved": 0, "is_disabled": 0, "bike_id": "cb17d1fa2368b6f9e670de7fe7f72b9c", "lat": 38.905666833333335, "name": "cb17d1fa2368b6f9e670de7fe7f72b9c", "fusion_lon": 0.0, "fusion_lat": 0.0, "type": "electric_scooter", "lon": -77.03395266666666}, {"rental_uris": {"android": "https://dc.lft.to/lastmile_qr_scan", "ios": "https://dc.lft.to/lastmile_qr_scan"}, "is_reserved": 0, "is_disabled": 0, "bike_id": "63ad7db2f35b8d96e4af3b86756a5882", "lat": 38.93650983333333, "name": "63ad7db2f35b8d96e4af3b86756a5882", "fusion_lon": 0.0, "fusion_lat": 0.0, "type": "electric_scooter", "lon": -77.0326395}, {"rental_uris": {"android": "https://dc.lft.to/lastmile_qr_scan", "ios": "https://dc.lft.to/lastmile_qr_scan"}, "is_reserved": 0, "is_disabled": 0, "bike_id": "a9a395888e046f2fa98ce1a10f21cddd", "lat": 38.900234833333336, "name": "a9a395888e046f2fa98ce1a10f21cddd", "fusion_lon": 0.0, "fusion_lat": 0.0, "type": "electric_scooter", "lon": -77.04497666666667}, {"rental_uris": {"android": "https://dc.lft.to/lastmile_qr_scan", "ios": "https://dc.lft.to/lastmile_qr_scan"}, "is_reserved": 0, "is_disabled": 0, "bike_id": "bb7586bb79bf7b26ff260c54de3a457f", "lat": 38.937011166666665, "name": "bb7586bb79bf7b26ff260c54de3a457f", "fusion_lon": 0.0, "fusion_lat": 0.0, "type": "electric_scooter", "lon": -77.06098866666666}, {"rental_uris": {"android": "https://dc.lft.to/lastmile_qr_scan", "ios": "https://dc.lft.to/lastmile_qr_scan"}, "is_reserved": 0, "is_disabled": 0, "bike_id": "c3be7ac3390fef26bb69e445e0143e8f", "lat": 38.952296, "name": "c3be7ac3390fef26bb69e445e0143e8f", "fusion_lon": 0.0, "fusion_lat": 0.0, "type": "electric_scooter", "lon": -77.01434383333333}, {"rental_uris": {"android": "https://dc.lft.to/lastmile_qr_scan", "ios": "https://dc.lft.to/lastmile_qr_scan"}, "is_reserved": 0, "is_disabled": 0, "bike_id": "fcb22cfc1a1dffeb48905ba7971902a8", "lat": 38.921423833333336, "name": "fcb22cfc1a1dffeb48905ba7971902a8", "fusion_lon": 0.0, "fusion_lat": 0.0, "type": "electric_scooter", "lon": -77.0338125}, {"rental_uris": {"android": "https://dc.lft.to/lastmile_qr_scan", "ios": "https://dc.lft.to/lastmile_qr_scan"}, "is_reserved": 0, "is_disabled": 0, "bike_id": "9acbcdad92958e06519008a3637cb684", "lat": 38.894696333333336, "name": "9acbcdad92958e06519008a3637cb684", "fusion_lon": 0.0, "fusion_lat": 0.0, "type": "electric_scooter", "lon": -77.00138066666666}, {"rental_uris": {"android": "https://dc.lft.to/lastmile_qr_scan", "ios": "https://dc.lft.to/lastmile_qr_scan"}, "is_reserved": 0, "is_disabled": 0, "bike_id": "f7e9d1ff692f14734dee5ce426f11446", "lat": 38.915473166666665, "name": "f7e9d1ff692f14734dee5ce426f11446", "fusion_lon": 0.0, "fusion_lat": 0.0, "type": "electric_scooter", "lon": -77.01197816666667}, {"rental_uris": {"android": "https://dc.lft.to/lastmile_qr_scan", "ios": "https://dc.lft.to/lastmile_qr_scan"}, "is_reserved": 0, "is_disabled": 0, "bike_id": "d65019f44bb98b74318235b5737b9d9a", "lat": 38.9025495, "name": "d65019f44bb98b74318235b5737b9d9a", "fusion_lon": 0.0, "fusion_lat": 0.0, "type": "electric_scooter", "lon": -77.04261983333333}, {"rental_uris": {"android": "https://dc.lft.to/lastmile_qr_scan", "ios": "https://dc.lft.to/lastmile_qr_scan"}, "is_reserved": 0, "is_disabled": 0, "bike_id": "f112b5284f4e2c4a4d5c938e2b1efa8c", "lat": 38.902582333333335, "name": "f112b5284f4e2c4a4d5c938e2b1efa8c", "fusion_lon": 0.0, "fusion_lat": 0.0, "type": "electric_scooter", "lon": -77.04702516666667}, {"rental_uris": {"android": "https://dc.lft.to/lastmile_qr_scan", "ios": "https://dc.lft.to/lastmile_qr_scan"}, "is_reserved": 0, "is_disabled": 0, "bike_id": "3c9be47d10e64d24b9cf55cc14fb84df", "lat": 38.9215865, "name": "3c9be47d10e64d24b9cf55cc14fb84df", "fusion_lon": 0.0, "fusion_lat": 0.0, "type": "electric_scooter", "lon": -77.03267733333334}, {"rental_uris": {"android": "https://dc.lft.to/lastmile_qr_scan", "ios": "https://dc.lft.to/lastmile_qr_scan"}, "is_reserved": 0, "is_disabled": 0, "bike_id": "82a5ec8f4bc3f06d114b6f8e91c8934f", "lat": 38.90064316666667, "name": "82a5ec8f4bc3f06d114b6f8e91c8934f", "fusion_lon": 0.0, "fusion_lat": 0.0, "type": "electric_scooter", "lon": -77.0453325}, {"rental_uris": {"android": "https://dc.lft.to/lastmile_qr_scan", "ios": "https://dc.lft.to/lastmile_qr_scan"}, "is_reserved": 0, "is_disabled": 0, "bike_id": "764b2c61232ca9bdd7900f2c87175e99", "lat": 38.843152, "name": "764b2c61232ca9bdd7900f2c87175e99", "fusion_lon": 0.0, "fusion_lat": 0.0, "type": "electric_scooter", "lon": -76.99928166666666}, {"rental_uris": {"android": "https://dc.lft.to/lastmile_qr_scan", "ios": "https://dc.lft.to/lastmile_qr_scan"}, "is_reserved": 0, "is_disabled": 0, "bike_id": "a3fb9a312940e5e0219c79ae30f139c3", "lat": 38.922712833333335, "name": "a3fb9a312940e5e0219c79ae30f139c3", "fusion_lon": 0.0, "fusion_lat": 0.0, "type": "electric_scooter", "lon": -77.03638283333333}, {"rental_uris": {"android": "https://dc.lft.to/lastmile_qr_scan", "ios": "https://dc.lft.to/lastmile_qr_scan"}, "is_reserved": 0, "is_disabled": 0, "bike_id": "8b666e0d03e4c71bcc80e48e718d9bad", "lat": 38.91599183333334, "name": "8b666e0d03e4c71bcc80e48e718d9bad", "fusion_lon": 0.0, "fusion_lat": 0.0, "type": "electric_scooter", "lon": -77.0350945}, {"rental_uris": {"android": "https://dc.lft.to/lastmile_qr_scan", "ios": "https://dc.lft.to/lastmile_qr_scan"}, "is_reserved": 0, "is_disabled": 0, "bike_id": "81354dce3842f890885958baa75a970f", "lat": 38.912228666666664, "name": "81354dce3842f890885958baa75a970f", "fusion_lon": 0.0, "fusion_lat": 0.0, "type": "electric_scooter", "lon": -77.02792366666667}, {"rental_uris": {"android": "https://dc.lft.to/lastmile_qr_scan", "ios": "https://dc.lft.to/lastmile_qr_scan"}, "is_reserved": 0, "is_disabled": 0, "bike_id": "7ce43a0452827bb154128da559bcdf4d", "lat": 38.906334333333334, "name": "7ce43a0452827bb154128da559bcdf4d", "fusion_lon": 0.0, "fusion_lat": 0.0, "type": "electric_scooter", "lon": -77.05136533333334}, {"rental_uris": {"android": "https://dc.lft.to/lastmile_qr_scan", "ios": "https://dc.lft.to/lastmile_qr_scan"}, "is_reserved": 0, "is_disabled": 0, "bike_id": "e9631a149dd1b8b7ab9323d27892b5ee", "lat": 38.87401033333333, "name": "e9631a149dd1b8b7ab9323d27892b5ee", "fusion_lon": 0.0, "fusion_lat": 0.0, "type": "electric_scooter", "lon": -77.00017416666667}, {"rental_uris": {"android": "https://dc.lft.to/lastmile_qr_scan", "ios": "https://dc.lft.to/lastmile_qr_scan"}, "is_reserved": 0, "is_disabled": 0, "bike_id": "9448dd37a88233260f10c95be10b4c3d", "lat": 38.9296215, "name": "9448dd37a88233260f10c95be10b4c3d", "fusion_lon": 0.0, "fusion_lat": 0.0, "type": "electric_scooter", "lon": -77.01347733333333}, {"rental_uris": {"android": "https://dc.lft.to/lastmile_qr_scan", "ios": "https://dc.lft.to/lastmile_qr_scan"}, "is_reserved": 0, "is_disabled": 0, "bike_id": "5d21edcb6358415fd7dc3885f44710bc", "lat": 38.865568333333336, "name": "5d21edcb6358415fd7dc3885f44710bc", "fusion_lon": 0.0, "fusion_lat": 0.0, "type": "electric_scooter", "lon": -76.98936066666667}, {"rental_uris": {"android": "https://dc.lft.to/lastmile_qr_scan", "ios": "https://dc.lft.to/lastmile_qr_scan"}, "is_reserved": 0, "is_disabled": 0, "bike_id": "0d8da67e30fa41f34791e86c37c883dc", "lat": 38.897413, "name": "0d8da67e30fa41f34791e86c37c883dc", "fusion_lon": 0.0, "fusion_lat": 0.0, "type": "electric_scooter", "lon": -77.02797}, {"rental_uris": {"android": "https://dc.lft.to/lastmile_qr_scan", "ios": "https://dc.lft.to/lastmile_qr_scan"}, "is_reserved": 0, "is_disabled": 0, "bike_id": "3c63d224cd65000e58d7ddc82680c6d1", "lat": 38.922404666666665, "name": "3c63d224cd65000e58d7ddc82680c6d1", "fusion_lon": 0.0, "fusion_lat": 0.0, "type": "electric_scooter", "lon": -77.03075266666667}, {"rental_uris": {"android": "https://dc.lft.to/lastmile_qr_scan", "ios": "https://dc.lft.to/lastmile_qr_scan"}, "is_reserved": 0, "is_disabled": 0, "bike_id": "1112b168ed8a6acfda9307dc95877ad4", "lat": 38.923299666666665, "name": "1112b168ed8a6acfda9307dc95877ad4", "fusion_lon": 0.0, "fusion_lat": 0.0, "type": "electric_scooter", "lon": -77.03613516666667}, {"rental_uris": {"android": "https://dc.lft.to/lastmile_qr_scan", "ios": "https://dc.lft.to/lastmile_qr_scan"}, "is_reserved": 0, "is_disabled": 0, "bike_id": "cc9c845585c9d672f671085128f0a674", "lat": 38.9267485, "name": "cc9c845585c9d672f671085128f0a674", "fusion_lon": 0.0, "fusion_lat": 0.0, "type": "electric_scooter", "lon": -77.02263333333333}, {"rental_uris": {"android": "https://dc.lft.to/lastmile_qr_scan", "ios": "https://dc.lft.to/lastmile_qr_scan"}, "is_reserved": 0, "is_disabled": 0, "bike_id": "a162bac1a0a503e235a0ac2767c63398", "lat": 38.88036433333333, "name": "a162bac1a0a503e235a0ac2767c63398", "fusion_lon": 0.0, "fusion_lat": 0.0, "type": "electric_scooter", "lon": -77.03077083333334}, {"rental_uris": {"android": "https://dc.lft.to/lastmile_qr_scan", "ios": "https://dc.lft.to/lastmile_qr_scan"}, "is_reserved": 0, "is_disabled": 0, "bike_id": "cd9ae6fed0361ad2a87c7d92c0855248", "lat": 38.9536535, "name": "cd9ae6fed0361ad2a87c7d92c0855248", "fusion_lon": 0.0, "fusion_lat": 0.0, "type": "electric_scooter", "lon": -76.99837083333334}, {"rental_uris": {"android": "https://dc.lft.to/lastmile_qr_scan", "ios": "https://dc.lft.to/lastmile_qr_scan"}, "is_reserved": 0, "is_disabled": 0, "bike_id": "77b9dc4422af7115994db66bacc5ca08", "lat": 38.9648615, "name": "77b9dc4422af7115994db66bacc5ca08", "fusion_lon": 0.0, "fusion_lat": 0.0, "type": "electric_bike", "lon": -77.10721233333334}, {"rental_uris": {"android": "https://dc.lft.to/lastmile_qr_scan", "ios": "https://dc.lft.to/lastmile_qr_scan"}, "is_reserved": 0, "is_disabled": 0, "bike_id": "3f993f139c8df868757dac5c8641da73", "lat": 38.91183183333333, "name": "3f993f139c8df868757dac5c8641da73", "fusion_lon": 0.0, "fusion_lat": 0.0, "type": "electric_scooter", "lon": -77.00549283333334}, {"rental_uris": {"android": "https://dc.lft.to/lastmile_qr_scan", "ios": "https://dc.lft.to/lastmile_qr_scan"}, "is_reserved": 0, "is_disabled": 0, "bike_id": "1caed4580a882cad65a99338ff9c97e6", "lat": 38.898397333333335, "name": "1caed4580a882cad65a99338ff9c97e6", "fusion_lon": 0.0, "fusion_lat": 0.0, "type": "electric_scooter", "lon": -77.033317}, {"rental_uris": {"android": "https://dc.lft.to/lastmile_qr_scan", "ios": "https://dc.lft.to/lastmile_qr_scan"}, "is_reserved": 0, "is_disabled": 0, "bike_id": "99e07caeb85377056e401ddf86e662c2", "lat": 38.93359266666667, "name": "99e07caeb85377056e401ddf86e662c2", "fusion_lon": 0.0, "fusion_lat": 0.0, "type": "electric_scooter", "lon": -77.057263}, {"rental_uris": {"android": "https://dc.lft.to/lastmile_qr_scan", "ios": "https://dc.lft.to/lastmile_qr_scan"}, "is_reserved": 0, "is_disabled": 0, "bike_id": "3a22dc21ffabb35e13a176fc18203376", "lat": 38.885518166666664, "name": "3a22dc21ffabb35e13a176fc18203376", "fusion_lon": 0.0, "fusion_lat": 0.0, "type": "electric_scooter", "lon": -77.01209266666666}, {"rental_uris": {"android": "https://dc.lft.to/lastmile_qr_scan", "ios": "https://dc.lft.to/lastmile_qr_scan"}, "is_reserved": 0, "is_disabled": 0, "bike_id": "da9b657664c39d56ab5981c823a2fccb", "lat": 38.86470333333333, "name": "da9b657664c39d56ab5981c823a2fccb", "fusion_lon": 0.0, "fusion_lat": 0.0, "type": "electric_scooter", "lon": -76.98234016666666}, {"rental_uris": {"android": "https://dc.lft.to/lastmile_qr_scan", "ios": "https://dc.lft.to/lastmile_qr_scan"}, "is_reserved": 0, "is_disabled": 0, "bike_id": "6719bbc33b76995127e4a058d99219af", "lat": 38.91547516666667, "name": "6719bbc33b76995127e4a058d99219af", "fusion_lon": 0.0, "fusion_lat": 0.0, "type": "electric_scooter", "lon": -76.98361116666666}, {"rental_uris": {"android": "https://dc.lft.to/lastmile_qr_scan", "ios": "https://dc.lft.to/lastmile_qr_scan"}, "is_reserved": 0, "is_disabled": 0, "bike_id": "0e238f84f06cb00fcb90b54bc57b20e8", "lat": 38.9097085, "name": "0e238f84f06cb00fcb90b54bc57b20e8", "fusion_lon": 0.0, "fusion_lat": 0.0, "type": "electric_scooter", "lon": -77.03471283333333}, {"rental_uris": {"android": "https://dc.lft.to/lastmile_qr_scan", "ios": "https://dc.lft.to/lastmile_qr_scan"}, "is_reserved": 0, "is_disabled": 0, "bike_id": "95bc9270136ac7dbded02bc02bd4d6bd", "lat": 38.93080333333333, "name": "95bc9270136ac7dbded02bc02bd4d6bd", "fusion_lon": 0.0, "fusion_lat": 0.0, "type": "electric_scooter", "lon": -77.03138183333333}, {"rental_uris": {"android": "https://dc.lft.to/lastmile_qr_scan", "ios": "https://dc.lft.to/lastmile_qr_scan"}, "is_reserved": 0, "is_disabled": 0, "bike_id": "64a9c1c69a51fd11540c393a638f8b2c", "lat": 38.922384, "name": "64a9c1c69a51fd11540c393a638f8b2c", "fusion_lon": 0.0, "fusion_lat": 0.0, "type": "electric_scooter", "lon": -77.073074}, {"rental_uris": {"android": "https://dc.lft.to/lastmile_qr_scan", "ios": "https://dc.lft.to/lastmile_qr_scan"}, "is_reserved": 0, "is_disabled": 0, "bike_id": "e6e617f58a306fa5d6e5383cd9b42410", "lat": 38.8922165, "name": "e6e617f58a306fa5d6e5383cd9b42410", "fusion_lon": 0.0, "fusion_lat": 0.0, "type": "electric_scooter", "lon": -77.0450425}, {"rental_uris": {"android": "https://dc.lft.to/lastmile_qr_scan", "ios": "https://dc.lft.to/lastmile_qr_scan"}, "is_reserved": 0, "is_disabled": 0, "bike_id": "d88f7e352de8ce3ff6a3dd5d66394550", "lat": 38.909723, "name": "d88f7e352de8ce3ff6a3dd5d66394550", "fusion_lon": 0.0, "fusion_lat": 0.0, "type": "electric_scooter", "lon": -77.038709}, {"rental_uris": {"android": "https://dc.lft.to/lastmile_qr_scan", "ios": "https://dc.lft.to/lastmile_qr_scan"}, "is_reserved": 0, "is_disabled": 0, "bike_id": "b2b947d666a79939dc1ae0e0a7aa2dac", "lat": 38.92166783333333, "name": "b2b947d666a79939dc1ae0e0a7aa2dac", "fusion_lon": 0.0, "fusion_lat": 0.0, "type": "electric_scooter", "lon": -77.03266283333333}, {"rental_uris": {"android": "https://dc.lft.to/lastmile_qr_scan", "ios": "https://dc.lft.to/lastmile_qr_scan"}, "is_reserved": 0, "is_disabled": 0, "bike_id": "7759ee5f1b50549e2c4595b94132b45f", "lat": 38.89220016666667, "name": "7759ee5f1b50549e2c4595b94132b45f", "fusion_lon": 0.0, "fusion_lat": 0.0, "type": "electric_scooter", "lon": -77.04372066666667}, {"rental_uris": {"android": "https://dc.lft.to/lastmile_qr_scan", "ios": "https://dc.lft.to/lastmile_qr_scan"}, "is_reserved": 0, "is_disabled": 0, "bike_id": "bb295db81d789589d242f0f373003d91", "lat": 38.9118125, "name": "bb295db81d789589d242f0f373003d91", "fusion_lon": 0.0, "fusion_lat": 0.0, "type": "electric_scooter", "lon": -77.041723}, {"rental_uris": {"android": "https://dc.lft.to/lastmile_qr_scan", "ios": "https://dc.lft.to/lastmile_qr_scan"}, "is_reserved": 0, "is_disabled": 0, "bike_id": "bcef1fd412d7ec98902b6f65f212cb49", "lat": 38.93415733333333, "name": "bcef1fd412d7ec98902b6f65f212cb49", "fusion_lon": 0.0, "fusion_lat": 0.0, "type": "electric_scooter", "lon": -77.02841616666667}, {"rental_uris": {"android": "https://dc.lft.to/lastmile_qr_scan", "ios": "https://dc.lft.to/lastmile_qr_scan"}, "is_reserved": 0, "is_disabled": 0, "bike_id": "d817645eb22aa5fc713471f2a0e524e2", "lat": 38.91689383333333, "name": "d817645eb22aa5fc713471f2a0e524e2", "fusion_lon": 0.0, "fusion_lat": 0.0, "type": "electric_scooter", "lon": -77.0248985}, {"rental_uris": {"android": "https://dc.lft.to/lastmile_qr_scan", "ios": "https://dc.lft.to/lastmile_qr_scan"}, "is_reserved": 0, "is_disabled": 0, "bike_id": "760ed5bce9cb2bb5e62ef29b9e91c0a1", "lat": 38.915232, "name": "760ed5bce9cb2bb5e62ef29b9e91c0a1", "fusion_lon": 0.0, "fusion_lat": 0.0, "type": "electric_scooter", "lon": -77.02200266666667}, {"rental_uris": {"android": "https://dc.lft.to/lastmile_qr_scan", "ios": "https://dc.lft.to/lastmile_qr_scan"}, "is_reserved": 0, "is_disabled": 0, "bike_id": "cc6052af440fbc5d6684840e2ab0fb55", "lat": 38.9083155, "name": "cc6052af440fbc5d6684840e2ab0fb55", "fusion_lon": 0.0, "fusion_lat": 0.0, "type": "electric_scooter", "lon": -76.9969795}, {"rental_uris": {"android": "https://dc.lft.to/lastmile_qr_scan", "ios": "https://dc.lft.to/lastmile_qr_scan"}, "is_reserved": 0, "is_disabled": 0, "bike_id": "fe0d0c6f92b012ab1ce906eac2bd5ac2", "lat": 38.89221116666667, "name": "fe0d0c6f92b012ab1ce906eac2bd5ac2", "fusion_lon": 0.0, "fusion_lat": 0.0, "type": "electric_scooter", "lon": -77.04376833333333}, {"rental_uris": {"android": "https://dc.lft.to/lastmile_qr_scan", "ios": "https://dc.lft.to/lastmile_qr_scan"}, "is_reserved": 0, "is_disabled": 0, "bike_id": "eaf9679e33618ea26c517829f33be8c0", "lat": 38.92016383333333, "name": "eaf9679e33618ea26c517829f33be8c0", "fusion_lon": 0.0, "fusion_lat": 0.0, "type": "electric_scooter", "lon": -77.0440225}, {"rental_uris": {"android": "https://dc.lft.to/lastmile_qr_scan", "ios": "https://dc.lft.to/lastmile_qr_scan"}, "is_reserved": 0, "is_disabled": 0, "bike_id": "5d49070e717e9d3b49589193a0df3ff2", "lat": 38.90334516666667, "name": "5d49070e717e9d3b49589193a0df3ff2", "fusion_lon": 0.0, "fusion_lat": 0.0, "type": "electric_scooter", "lon": -77.03339866666667}, {"rental_uris": {"android": "https://dc.lft.to/lastmile_qr_scan", "ios": "https://dc.lft.to/lastmile_qr_scan"}, "is_reserved": 0, "is_disabled": 0, "bike_id": "a9bf859f10403cb34e7a3af203d890fe", "lat": 38.895508666666665, "name": "a9bf859f10403cb34e7a3af203d890fe", "fusion_lon": 0.0, "fusion_lat": 0.0, "type": "electric_scooter", "lon": -77.04671733333333}, {"rental_uris": {"android": "https://dc.lft.to/lastmile_qr_scan", "ios": "https://dc.lft.to/lastmile_qr_scan"}, "is_reserved": 0, "is_disabled": 0, "bike_id": "e5b602c85feb2fc60da2ee6c5272b3e0", "lat": 38.8431295, "name": "e5b602c85feb2fc60da2ee6c5272b3e0", "fusion_lon": 0.0, "fusion_lat": 0.0, "type": "electric_scooter", "lon": -76.99929183333333}, {"rental_uris": {"android": "https://dc.lft.to/lastmile_qr_scan", "ios": "https://dc.lft.to/lastmile_qr_scan"}, "is_reserved": 0, "is_disabled": 0, "bike_id": "c4d4d465e85d4192f53184b63665d42d", "lat": 38.9127315, "name": "c4d4d465e85d4192f53184b63665d42d", "fusion_lon": 0.0, "fusion_lat": 0.0, "type": "electric_scooter", "lon": -77.02182966666666}, {"rental_uris": {"android": "https://dc.lft.to/lastmile_qr_scan", "ios": "https://dc.lft.to/lastmile_qr_scan"}, "is_reserved": 0, "is_disabled": 0, "bike_id": "5275bbc945f5f35eb8005b34d1ba24ea", "lat": 38.882596666666664, "name": "5275bbc945f5f35eb8005b34d1ba24ea", "fusion_lon": 0.0, "fusion_lat": 0.0, "type": "electric_scooter", "lon": -76.99024066666666}, {"rental_uris": {"android": "https://dc.lft.to/lastmile_qr_scan", "ios": "https://dc.lft.to/lastmile_qr_scan"}, "is_reserved": 0, "is_disabled": 0, "bike_id": "63bed28c7a1ca9e358ac849fc50448a1", "lat": 39.0563255, "name": "63bed28c7a1ca9e358ac849fc50448a1", "fusion_lon": 0.0, "fusion_lat": 0.0, "type": "electric_bike", "lon": -77.12524766666667}, {"rental_uris": {"android": "https://dc.lft.to/lastmile_qr_scan", "ios": "https://dc.lft.to/lastmile_qr_scan"}, "is_reserved": 0, "is_disabled": 0, "bike_id": "206fa61560595a27ffa013137f3ec350", "lat": 38.892231, "name": "206fa61560595a27ffa013137f3ec350", "fusion_lon": 0.0, "fusion_lat": 0.0, "type": "electric_scooter", "lon": -77.04637933333333}, {"rental_uris": {"android": "https://dc.lft.to/lastmile_qr_scan", "ios": "https://dc.lft.to/lastmile_qr_scan"}, "is_reserved": 0, "is_disabled": 0, "bike_id": "a59e5dada4bbae6fcb820bd31e8b780c", "lat": 38.899085166666666, "name": "a59e5dada4bbae6fcb820bd31e8b780c", "fusion_lon": 0.0, "fusion_lat": 0.0, "type": "electric_scooter", "lon": -77.0259655}, {"rental_uris": {"android": "https://dc.lft.to/lastmile_qr_scan", "ios": "https://dc.lft.to/lastmile_qr_scan"}, "is_reserved": 0, "is_disabled": 0, "bike_id": "8007ecc56dae6912a05e686745cf781d", "lat": 38.895002166666664, "name": "8007ecc56dae6912a05e686745cf781d", "fusion_lon": 0.0, "fusion_lat": 0.0, "type": "electric_scooter", "lon": -76.93472416666667}, {"rental_uris": {"android": "https://dc.lft.to/lastmile_qr_scan", "ios": "https://dc.lft.to/lastmile_qr_scan"}, "is_reserved": 0, "is_disabled": 0, "bike_id": "16217f7277832bbfec9de45f1449ef32", "lat": 38.94508833333333, "name": "16217f7277832bbfec9de45f1449ef32", "fusion_lon": 0.0, "fusion_lat": 0.0, "type": "electric_scooter", "lon": -77.07448816666667}, {"rental_uris": {"android": "https://dc.lft.to/lastmile_qr_scan", "ios": "https://dc.lft.to/lastmile_qr_scan"}, "is_reserved": 0, "is_disabled": 0, "bike_id": "8152ee23f59d26a699051255d0b5a437", "lat": 38.903163666666664, "name": "8152ee23f59d26a699051255d0b5a437", "fusion_lon": 0.0, "fusion_lat": 0.0, "type": "electric_scooter", "lon": -76.991057}, {"rental_uris": {"android": "https://dc.lft.to/lastmile_qr_scan", "ios": "https://dc.lft.to/lastmile_qr_scan"}, "is_reserved": 0, "is_disabled": 0, "bike_id": "da090d185cfc7978f67a552200bc8efb", "lat": 38.874851, "name": "da090d185cfc7978f67a552200bc8efb", "fusion_lon": 0.0, "fusion_lat": 0.0, "type": "electric_scooter", "lon": -77.00182633333333}, {"rental_uris": {"android": "https://dc.lft.to/lastmile_qr_scan", "ios": "https://dc.lft.to/lastmile_qr_scan"}, "is_reserved": 0, "is_disabled": 0, "bike_id": "207b539d0ad36b330d8550b238beb077", "lat": 38.91265666666666, "name": "207b539d0ad36b330d8550b238beb077", "fusion_lon": 0.0, "fusion_lat": 0.0, "type": "electric_scooter", "lon": -77.02208833333333}, {"rental_uris": {"android": "https://dc.lft.to/lastmile_qr_scan", "ios": "https://dc.lft.to/lastmile_qr_scan"}, "is_reserved": 0, "is_disabled": 0, "bike_id": "b9e75a3507a96f61f9b6190939514aa2", "lat": 38.92379233333333, "name": "b9e75a3507a96f61f9b6190939514aa2", "fusion_lon": 0.0, "fusion_lat": 0.0, "type": "electric_scooter", "lon": -77.02733833333333}, {"rental_uris": {"android": "https://dc.lft.to/lastmile_qr_scan", "ios": "https://dc.lft.to/lastmile_qr_scan"}, "is_reserved": 0, "is_disabled": 0, "bike_id": "89fb2915943930687fd1ad05878dc9c8", "lat": 38.93573816666667, "name": "89fb2915943930687fd1ad05878dc9c8", "fusion_lon": 0.0, "fusion_lat": 0.0, "type": "electric_scooter", "lon": -77.03521116666667}, {"rental_uris": {"android": "https://dc.lft.to/lastmile_qr_scan", "ios": "https://dc.lft.to/lastmile_qr_scan"}, "is_reserved": 0, "is_disabled": 0, "bike_id": "7548e43f09cab23f293ed84155bf5e57", "lat": 38.94327233333333, "name": "7548e43f09cab23f293ed84155bf5e57", "fusion_lon": 0.0, "fusion_lat": 0.0, "type": "electric_scooter", "lon": -77.02680333333333}, {"rental_uris": {"android": "https://dc.lft.to/lastmile_qr_scan", "ios": "https://dc.lft.to/lastmile_qr_scan"}, "is_reserved": 0, "is_disabled": 0, "bike_id": "3049bc0e65f2dbc65de4bba87c2f4da6", "lat": 38.89917833333333, "name": "3049bc0e65f2dbc65de4bba87c2f4da6", "fusion_lon": 0.0, "fusion_lat": 0.0, "type": "electric_scooter", "lon": -77.03301166666667}, {"rental_uris": {"android": "https://dc.lft.to/lastmile_qr_scan", "ios": "https://dc.lft.to/lastmile_qr_scan"}, "is_reserved": 0, "is_disabled": 0, "bike_id": "40ac5dbdcaaa0fc9e3beb87845f1e9bd", "lat": 38.880385833333335, "name": "40ac5dbdcaaa0fc9e3beb87845f1e9bd", "fusion_lon": 0.0, "fusion_lat": 0.0, "type": "electric_scooter", "lon": -76.9984245}, {"rental_uris": {"android": "https://dc.lft.to/lastmile_qr_scan", "ios": "https://dc.lft.to/lastmile_qr_scan"}, "is_reserved": 0, "is_disabled": 0, "bike_id": "c6461e8c7af32ef296fe451cccba98e8", "lat": 38.92051266666667, "name": "c6461e8c7af32ef296fe451cccba98e8", "fusion_lon": 0.0, "fusion_lat": 0.0, "type": "electric_scooter", "lon": -77.034695}, {"rental_uris": {"android": "https://dc.lft.to/lastmile_qr_scan", "ios": "https://dc.lft.to/lastmile_qr_scan"}, "is_reserved": 0, "is_disabled": 0, "bike_id": "0789d6883f014b1c07956999d291c058", "lat": 38.86006166666667, "name": "0789d6883f014b1c07956999d291c058", "fusion_lon": 0.0, "fusion_lat": 0.0, "type": "electric_scooter", "lon": -76.9852255}, {"rental_uris": {"android": "https://dc.lft.to/lastmile_qr_scan", "ios": "https://dc.lft.to/lastmile_qr_scan"}, "is_reserved": 0, "is_disabled": 0, "bike_id": "f5dd2f0ec1484d7812c0eb2732650f64", "lat": 38.952859, "name": "f5dd2f0ec1484d7812c0eb2732650f64", "fusion_lon": 0.0, "fusion_lat": 0.0, "type": "electric_scooter", "lon": -77.06984016666667}, {"rental_uris": {"android": "https://dc.lft.to/lastmile_qr_scan", "ios": "https://dc.lft.to/lastmile_qr_scan"}, "is_reserved": 0, "is_disabled": 0, "bike_id": "541f12114e708f76ae4fa54efed50394", "lat": 38.9237485, "name": "541f12114e708f76ae4fa54efed50394", "fusion_lon": 0.0, "fusion_lat": 0.0, "type": "electric_scooter", "lon": -77.05044983333333}, {"rental_uris": {"android": "https://dc.lft.to/lastmile_qr_scan", "ios": "https://dc.lft.to/lastmile_qr_scan"}, "is_reserved": 0, "is_disabled": 0, "bike_id": "eb7c5614d190d9bcf5218a3d582a0d42", "lat": 38.914029666666664, "name": "eb7c5614d190d9bcf5218a3d582a0d42", "fusion_lon": 0.0, "fusion_lat": 0.0, "type": "electric_scooter", "lon": -77.04802583333333}, {"rental_uris": {"android": "https://dc.lft.to/lastmile_qr_scan", "ios": "https://dc.lft.to/lastmile_qr_scan"}, "is_reserved": 0, "is_disabled": 0, "bike_id": "a502a93ba3ad5868db5108808c0c367f", "lat": 38.92358633333333, "name": "a502a93ba3ad5868db5108808c0c367f", "fusion_lon": 0.0, "fusion_lat": 0.0, "type": "electric_scooter", "lon": -77.04384466666667}, {"rental_uris": {"android": "https://dc.lft.to/lastmile_qr_scan", "ios": "https://dc.lft.to/lastmile_qr_scan"}, "is_reserved": 0, "is_disabled": 0, "bike_id": "06fa2f4e2455804cca8630e6a2fdcac8", "lat": 38.88748533333333, "name": "06fa2f4e2455804cca8630e6a2fdcac8", "fusion_lon": 0.0, "fusion_lat": 0.0, "type": "electric_scooter", "lon": -77.015329}, {"rental_uris": {"android": "https://dc.lft.to/lastmile_qr_scan", "ios": "https://dc.lft.to/lastmile_qr_scan"}, "is_reserved": 0, "is_disabled": 0, "bike_id": "7a13938503daf714a4242bf92a08a2f3", "lat": 38.91821383333333, "name": "7a13938503daf714a4242bf92a08a2f3", "fusion_lon": 0.0, "fusion_lat": 0.0, "type": "electric_scooter", "lon": -77.012096}, {"rental_uris": {"android": "https://dc.lft.to/lastmile_qr_scan", "ios": "https://dc.lft.to/lastmile_qr_scan"}, "is_reserved": 0, "is_disabled": 0, "bike_id": "d287ee72305c58a3787a9e19c1fb6893", "lat": 38.926626, "name": "d287ee72305c58a3787a9e19c1fb6893", "fusion_lon": 0.0, "fusion_lat": 0.0, "type": "electric_scooter", "lon": -77.05530166666667}, {"rental_uris": {"android": "https://dc.lft.to/lastmile_qr_scan", "ios": "https://dc.lft.to/lastmile_qr_scan"}, "is_reserved": 0, "is_disabled": 0, "bike_id": "2a3023656ffe2a5e76f04471d17d2bf3", "lat": 38.92239633333333, "name": "2a3023656ffe2a5e76f04471d17d2bf3", "fusion_lon": 0.0, "fusion_lat": 0.0, "type": "electric_scooter", "lon": -77.02909683333333}, {"rental_uris": {"android": "https://dc.lft.to/lastmile_qr_scan", "ios": "https://dc.lft.to/lastmile_qr_scan"}, "is_reserved": 0, "is_disabled": 0, "bike_id": "aaaa27a06ff2f1801213954997d5f931", "lat": 38.911844, "name": "aaaa27a06ff2f1801213954997d5f931", "fusion_lon": 0.0, "fusion_lat": 0.0, "type": "electric_scooter", "lon": -77.044525}, {"rental_uris": {"android": "https://dc.lft.to/lastmile_qr_scan", "ios": "https://dc.lft.to/lastmile_qr_scan"}, "is_reserved": 0, "is_disabled": 0, "bike_id": "45805e012c2a4128c8e2953507157f35", "lat": 38.888644, "name": "45805e012c2a4128c8e2953507157f35", "fusion_lon": 0.0, "fusion_lat": 0.0, "type": "electric_scooter", "lon": -76.98236466666667}, {"rental_uris": {"android": "https://dc.lft.to/lastmile_qr_scan", "ios": "https://dc.lft.to/lastmile_qr_scan"}, "is_reserved": 0, "is_disabled": 0, "bike_id": "0b2bf86218f43b1840b3483073b30c71", "lat": 38.923669, "name": "0b2bf86218f43b1840b3483073b30c71", "fusion_lon": 0.0, "fusion_lat": 0.0, "type": "electric_scooter", "lon": -77.02918633333333}, {"rental_uris": {"android": "https://dc.lft.to/lastmile_qr_scan", "ios": "https://dc.lft.to/lastmile_qr_scan"}, "is_reserved": 0, "is_disabled": 0, "bike_id": "8df14ffe57175b12c576f623b7e3f536", "lat": 38.92057616666666, "name": "8df14ffe57175b12c576f623b7e3f536", "fusion_lon": 0.0, "fusion_lat": 0.0, "type": "electric_scooter", "lon": -77.02423166666667}, {"rental_uris": {"android": "https://dc.lft.to/lastmile_qr_scan", "ios": "https://dc.lft.to/lastmile_qr_scan"}, "is_reserved": 0, "is_disabled": 0, "bike_id": "ffffb71b65503c0ac5358aeffffe52d1", "lat": 38.829147, "name": "ffffb71b65503c0ac5358aeffffe52d1", "fusion_lon": 0.0, "fusion_lat": 0.0, "type": "electric_bike", "lon": -76.997875}, {"rental_uris": {"android": "https://dc.lft.to/lastmile_qr_scan", "ios": "https://dc.lft.to/lastmile_qr_scan"}, "is_reserved": 0, "is_disabled": 0, "bike_id": "5eed2d9a37e67a11d087dff61a569aeb", "lat": 38.9252565, "name": "5eed2d9a37e67a11d087dff61a569aeb", "fusion_lon": 0.0, "fusion_lat": 0.0, "type": "electric_scooter", "lon": -77.05134}, {"rental_uris": {"android": "https://dc.lft.to/lastmile_qr_scan", "ios": "https://dc.lft.to/lastmile_qr_scan"}, "is_reserved": 0, "is_disabled": 0, "bike_id": "919595fc928e966bc15aae2e6caa1391", "lat": 38.89489316666667, "name": "919595fc928e966bc15aae2e6caa1391", "fusion_lon": 0.0, "fusion_lat": 0.0, "type": "electric_scooter", "lon": -77.02306883333334}, {"rental_uris": {"android": "https://dc.lft.to/lastmile_qr_scan", "ios": "https://dc.lft.to/lastmile_qr_scan"}, "is_reserved": 0, "is_disabled": 0, "bike_id": "c08e858847df081908c3bc918180024c", "lat": 38.94163916666667, "name": "c08e858847df081908c3bc918180024c", "fusion_lon": 0.0, "fusion_lat": 0.0, "type": "electric_scooter", "lon": -77.0254085}, {"rental_uris": {"android": "https://dc.lft.to/lastmile_qr_scan", "ios": "https://dc.lft.to/lastmile_qr_scan"}, "is_reserved": 0, "is_disabled": 0, "bike_id": "f160324a85ce7b44bf593f1754db71fc", "lat": 38.915465, "name": "f160324a85ce7b44bf593f1754db71fc", "fusion_lon": 0.0, "fusion_lat": 0.0, "type": "electric_scooter", "lon": -76.98356}, {"rental_uris": {"android": "https://dc.lft.to/lastmile_qr_scan", "ios": "https://dc.lft.to/lastmile_qr_scan"}, "is_reserved": 0, "is_disabled": 0, "bike_id": "4180aee48574cc09ca9d1093df5984e7", "lat": 38.89656183333334, "name": "4180aee48574cc09ca9d1093df5984e7", "fusion_lon": 0.0, "fusion_lat": 0.0, "type": "electric_scooter", "lon": -77.02736033333333}, {"rental_uris": {"android": "https://dc.lft.to/lastmile_qr_scan", "ios": "https://dc.lft.to/lastmile_qr_scan"}, "is_reserved": 0, "is_disabled": 0, "bike_id": "6bcc30a20bab81b01665c6a059e17b42", "lat": 38.9216435, "name": "6bcc30a20bab81b01665c6a059e17b42", "fusion_lon": 0.0, "fusion_lat": 0.0, "type": "electric_scooter", "lon": -77.0209205}, {"rental_uris": {"android": "https://dc.lft.to/lastmile_qr_scan", "ios": "https://dc.lft.to/lastmile_qr_scan"}, "is_reserved": 0, "is_disabled": 0, "bike_id": "e9ac369c4a0ff32efb3bfaceba11fe6e", "lat": 38.91057033333333, "name": "e9ac369c4a0ff32efb3bfaceba11fe6e", "fusion_lon": 0.0, "fusion_lat": 0.0, "type": "electric_scooter", "lon": -77.03088033333333}, {"rental_uris": {"android": "https://dc.lft.to/lastmile_qr_scan", "ios": "https://dc.lft.to/lastmile_qr_scan"}, "is_reserved": 0, "is_disabled": 0, "bike_id": "a035e1f100468c4f3096a2ef3c3061ee", "lat": 38.90634816666667, "name": "a035e1f100468c4f3096a2ef3c3061ee", "fusion_lon": 0.0, "fusion_lat": 0.0, "type": "electric_scooter", "lon": -77.00602366666666}, {"rental_uris": {"android": "https://dc.lft.to/lastmile_qr_scan", "ios": "https://dc.lft.to/lastmile_qr_scan"}, "is_reserved": 0, "is_disabled": 0, "bike_id": "9f9fdc339cb42193037f545a132eb926", "lat": 38.892194833333335, "name": "9f9fdc339cb42193037f545a132eb926", "fusion_lon": 0.0, "fusion_lat": 0.0, "type": "electric_scooter", "lon": -77.04505433333334}, {"rental_uris": {"android": "https://dc.lft.to/lastmile_qr_scan", "ios": "https://dc.lft.to/lastmile_qr_scan"}, "is_reserved": 0, "is_disabled": 0, "bike_id": "9d4c76cf4b1bba4386fec2192ce256f7", "lat": 38.8937155, "name": "9d4c76cf4b1bba4386fec2192ce256f7", "fusion_lon": 0.0, "fusion_lat": 0.0, "type": "electric_scooter", "lon": -76.94995716666666}, {"rental_uris": {"android": "https://dc.lft.to/lastmile_qr_scan", "ios": "https://dc.lft.to/lastmile_qr_scan"}, "is_reserved": 0, "is_disabled": 0, "bike_id": "6a8b2dab7cb204626b2ba5c764a05340", "lat": 38.9613355, "name": "6a8b2dab7cb204626b2ba5c764a05340", "fusion_lon": 0.0, "fusion_lat": 0.0, "type": "electric_bike", "lon": -77.03330716666666}, {"rental_uris": {"android": "https://dc.lft.to/lastmile_qr_scan", "ios": "https://dc.lft.to/lastmile_qr_scan"}, "is_reserved": 0, "is_disabled": 0, "bike_id": "1803cb1a9654060bf129bc7dc1aa97d8", "lat": 38.917937, "name": "1803cb1a9654060bf129bc7dc1aa97d8", "fusion_lon": 0.0, "fusion_lat": 0.0, "type": "electric_scooter", "lon": -77.03211133333333}, {"rental_uris": {"android": "https://dc.lft.to/lastmile_qr_scan", "ios": "https://dc.lft.to/lastmile_qr_scan"}, "is_reserved": 0, "is_disabled": 0, "bike_id": "6282076a6b12760cab65c073f99183f8", "lat": 38.8674525, "name": "6282076a6b12760cab65c073f99183f8", "fusion_lon": 0.0, "fusion_lat": 0.0, "type": "electric_bike", "lon": -77.11706916666667}, {"rental_uris": {"android": "https://dc.lft.to/lastmile_qr_scan", "ios": "https://dc.lft.to/lastmile_qr_scan"}, "is_reserved": 0, "is_disabled": 0, "bike_id": "6d5eb5da1e1e2dcc6922e6de1774ff50", "lat": 38.917330166666666, "name": "6d5eb5da1e1e2dcc6922e6de1774ff50", "fusion_lon": 0.0, "fusion_lat": 0.0, "type": "electric_scooter", "lon": -77.02396116666667}, {"rental_uris": {"android": "https://dc.lft.to/lastmile_qr_scan", "ios": "https://dc.lft.to/lastmile_qr_scan"}, "is_reserved": 0, "is_disabled": 0, "bike_id": "e342128a21837aeeb3d36f1dd418d805", "lat": 38.925912, "name": "e342128a21837aeeb3d36f1dd418d805", "fusion_lon": 0.0, "fusion_lat": 0.0, "type": "electric_scooter", "lon": -77.03219383333334}, {"rental_uris": {"android": "https://dc.lft.to/lastmile_qr_scan", "ios": "https://dc.lft.to/lastmile_qr_scan"}, "is_reserved": 0, "is_disabled": 0, "bike_id": "489a0ecc451c1d2af4637d2181ad2fea", "lat": 38.8876275, "name": "489a0ecc451c1d2af4637d2181ad2fea", "fusion_lon": 0.0, "fusion_lat": 0.0, "type": "electric_scooter", "lon": -76.95569733333333}, {"rental_uris": {"android": "https://dc.lft.to/lastmile_qr_scan", "ios": "https://dc.lft.to/lastmile_qr_scan"}, "is_reserved": 0, "is_disabled": 0, "bike_id": "c3c014ecc5d8a4c2b07df251ae0f076b", "lat": 38.920125166666665, "name": "c3c014ecc5d8a4c2b07df251ae0f076b", "fusion_lon": 0.0, "fusion_lat": 0.0, "type": "electric_scooter", "lon": -76.98546983333334}, {"rental_uris": {"android": "https://dc.lft.to/lastmile_qr_scan", "ios": "https://dc.lft.to/lastmile_qr_scan"}, "is_reserved": 0, "is_disabled": 0, "bike_id": "5f87ba3467dcfa2f2e00ef8ea93a1fe7", "lat": 38.90563683333333, "name": "5f87ba3467dcfa2f2e00ef8ea93a1fe7", "fusion_lon": 0.0, "fusion_lat": 0.0, "type": "electric_scooter", "lon": -77.00572416666667}, {"rental_uris": {"android": "https://dc.lft.to/lastmile_qr_scan", "ios": "https://dc.lft.to/lastmile_qr_scan"}, "is_reserved": 0, "is_disabled": 0, "bike_id": "b7647b2ecc83e119df72167cf61cf762", "lat": 38.907489, "name": "b7647b2ecc83e119df72167cf61cf762", "fusion_lon": 0.0, "fusion_lat": 0.0, "type": "electric_bike", "lon": -77.06325583333333}, {"rental_uris": {"android": "https://dc.lft.to/lastmile_qr_scan", "ios": "https://dc.lft.to/lastmile_qr_scan"}, "is_reserved": 0, "is_disabled": 0, "bike_id": "05c6573a5c2cdccf5381ae7d6fbc082f", "lat": 38.906471333333336, "name": "05c6573a5c2cdccf5381ae7d6fbc082f", "fusion_lon": 0.0, "fusion_lat": 0.0, "type": "electric_scooter", "lon": -77.05324333333333}, {"rental_uris": {"android": "https://dc.lft.to/lastmile_qr_scan", "ios": "https://dc.lft.to/lastmile_qr_scan"}, "is_reserved": 0, "is_disabled": 0, "bike_id": "6340df50a2d1a6aa653050295a4a42cd", "lat": 38.9181915, "name": "6340df50a2d1a6aa653050295a4a42cd", "fusion_lon": 0.0, "fusion_lat": 0.0, "type": "electric_scooter", "lon": -77.01208566666666}, {"rental_uris": {"android": "https://dc.lft.to/lastmile_qr_scan", "ios": "https://dc.lft.to/lastmile_qr_scan"}, "is_reserved": 0, "is_disabled": 0, "bike_id": "203f1e71c46294056e94fac90a0c1d72", "lat": 38.92603, "name": "203f1e71c46294056e94fac90a0c1d72", "fusion_lon": 0.0, "fusion_lat": 0.0, "type": "electric_scooter", "lon": -77.0215715}, {"rental_uris": {"android": "https://dc.lft.to/lastmile_qr_scan", "ios": "https://dc.lft.to/lastmile_qr_scan"}, "is_reserved": 0, "is_disabled": 0, "bike_id": "11dc87611d9559980297854d42dfe938", "lat": 38.892883833333336, "name": "11dc87611d9559980297854d42dfe938", "fusion_lon": 0.0, "fusion_lat": 0.0, "type": "electric_scooter", "lon": -77.01349716666667}, {"rental_uris": {"android": "https://dc.lft.to/lastmile_qr_scan", "ios": "https://dc.lft.to/lastmile_qr_scan"}, "is_reserved": 0, "is_disabled": 0, "bike_id": "32f875d9e1cdfeb462b3a8834a1443c3", "lat": 38.925681, "name": "32f875d9e1cdfeb462b3a8834a1443c3", "fusion_lon": 0.0, "fusion_lat": 0.0, "type": "electric_scooter", "lon": -77.02285783333333}, {"rental_uris": {"android": "https://dc.lft.to/lastmile_qr_scan", "ios": "https://dc.lft.to/lastmile_qr_scan"}, "is_reserved": 0, "is_disabled": 0, "bike_id": "259f77f68eab77a6ccc770c28878216d", "lat": 38.904425, "name": "259f77f68eab77a6ccc770c28878216d", "fusion_lon": 0.0, "fusion_lat": 0.0, "type": "electric_scooter", "lon": -77.0364165}, {"rental_uris": {"android": "https://dc.lft.to/lastmile_qr_scan", "ios": "https://dc.lft.to/lastmile_qr_scan"}, "is_reserved": 0, "is_disabled": 0, "bike_id": "08f5df6bbc0a0bc8067cf0faafc4a638", "lat": 39.047163166666664, "name": "08f5df6bbc0a0bc8067cf0faafc4a638", "fusion_lon": 0.0, "fusion_lat": 0.0, "type": "electric_bike", "lon": -77.04387116666666}, {"rental_uris": {"android": "https://dc.lft.to/lastmile_qr_scan", "ios": "https://dc.lft.to/lastmile_qr_scan"}, "is_reserved": 0, "is_disabled": 0, "bike_id": "6b2aae344b47ab8db60a47633b26e046", "lat": 38.90937916666667, "name": "6b2aae344b47ab8db60a47633b26e046", "fusion_lon": 0.0, "fusion_lat": 0.0, "type": "electric_scooter", "lon": -77.0439035}, {"rental_uris": {"android": "https://dc.lft.to/lastmile_qr_scan", "ios": "https://dc.lft.to/lastmile_qr_scan"}, "is_reserved": 0, "is_disabled": 0, "bike_id": "3ee00ce3598a0e8e634fd75541cb01cc", "lat": 38.92792983333333, "name": "3ee00ce3598a0e8e634fd75541cb01cc", "fusion_lon": 0.0, "fusion_lat": 0.0, "type": "electric_scooter", "lon": -77.053937}, {"rental_uris": {"android": "https://dc.lft.to/lastmile_qr_scan", "ios": "https://dc.lft.to/lastmile_qr_scan"}, "is_reserved": 0, "is_disabled": 0, "bike_id": "21ef12ab4638a30354648ed00928e1cc", "lat": 38.92569666666667, "name": "21ef12ab4638a30354648ed00928e1cc", "fusion_lon": 0.0, "fusion_lat": 0.0, "type": "electric_scooter", "lon": -77.0284385}, {"rental_uris": {"android": "https://dc.lft.to/lastmile_qr_scan", "ios": "https://dc.lft.to/lastmile_qr_scan"}, "is_reserved": 0, "is_disabled": 0, "bike_id": "a01832ff8e042c622d23f6e4277f18f6", "lat": 38.908427833333334, "name": "a01832ff8e042c622d23f6e4277f18f6", "fusion_lon": 0.0, "fusion_lat": 0.0, "type": "electric_scooter", "lon": -77.04018833333333}, {"rental_uris": {"android": "https://dc.lft.to/lastmile_qr_scan", "ios": "https://dc.lft.to/lastmile_qr_scan"}, "is_reserved": 0, "is_disabled": 0, "bike_id": "5dacb069360bfd4bc5d34301a3b539d7", "lat": 38.92263966666667, "name": "5dacb069360bfd4bc5d34301a3b539d7", "fusion_lon": 0.0, "fusion_lat": 0.0, "type": "electric_scooter", "lon": -77.03337316666666}, {"rental_uris": {"android": "https://dc.lft.to/lastmile_qr_scan", "ios": "https://dc.lft.to/lastmile_qr_scan"}, "is_reserved": 0, "is_disabled": 0, "bike_id": "32c36a57d007a783e2a928fcef4adaa5", "lat": 38.909778, "name": "32c36a57d007a783e2a928fcef4adaa5", "fusion_lon": 0.0, "fusion_lat": 0.0, "type": "electric_scooter", "lon": -77.01880366666667}, {"rental_uris": {"android": "https://dc.lft.to/lastmile_qr_scan", "ios": "https://dc.lft.to/lastmile_qr_scan"}, "is_reserved": 0, "is_disabled": 0, "bike_id": "e855444f9fa0c38f17712e162f9d02fc", "lat": 38.8876595, "name": "e855444f9fa0c38f17712e162f9d02fc", "fusion_lon": 0.0, "fusion_lat": 0.0, "type": "electric_scooter", "lon": -77.02228166666667}, {"rental_uris": {"android": "https://dc.lft.to/lastmile_qr_scan", "ios": "https://dc.lft.to/lastmile_qr_scan"}, "is_reserved": 0, "is_disabled": 0, "bike_id": "c41670ebac29603b337965a94640ac9d", "lat": 38.83232683333333, "name": "c41670ebac29603b337965a94640ac9d", "fusion_lon": 0.0, "fusion_lat": 0.0, "type": "electric_bike", "lon": -76.94615483333334}, {"rental_uris": {"android": "https://dc.lft.to/lastmile_qr_scan", "ios": "https://dc.lft.to/lastmile_qr_scan"}, "is_reserved": 0, "is_disabled": 0, "bike_id": "ed62c3b8be6706b9fa409fa77dd6a3e7", "lat": 38.921066333333336, "name": "ed62c3b8be6706b9fa409fa77dd6a3e7", "fusion_lon": 0.0, "fusion_lat": 0.0, "type": "electric_scooter", "lon": -77.04118183333334}, {"rental_uris": {"android": "https://dc.lft.to/lastmile_qr_scan", "ios": "https://dc.lft.to/lastmile_qr_scan"}, "is_reserved": 0, "is_disabled": 0, "bike_id": "fb3f4f394f712116176c3d6d725aa93b", "lat": 38.86501233333333, "name": "fb3f4f394f712116176c3d6d725aa93b", "fusion_lon": 0.0, "fusion_lat": 0.0, "type": "electric_scooter", "lon": -76.990009}, {"rental_uris": {"android": "https://dc.lft.to/lastmile_qr_scan", "ios": "https://dc.lft.to/lastmile_qr_scan"}, "is_reserved": 0, "is_disabled": 0, "bike_id": "8c322ab190c2783eac09517d271dd94c", "lat": 38.954213, "name": "8c322ab190c2783eac09517d271dd94c", "fusion_lon": 0.0, "fusion_lat": 0.0, "type": "electric_bike", "lon": -76.9327565}, {"rental_uris": {"android": "https://dc.lft.to/lastmile_qr_scan", "ios": "https://dc.lft.to/lastmile_qr_scan"}, "is_reserved": 0, "is_disabled": 0, "bike_id": "3e950e46d237608c6da2181f384bec17", "lat": 38.89614866666667, "name": "3e950e46d237608c6da2181f384bec17", "fusion_lon": 0.0, "fusion_lat": 0.0, "type": "electric_scooter", "lon": -77.02374966666666}, {"rental_uris": {"android": "https://dc.lft.to/lastmile_qr_scan", "ios": "https://dc.lft.to/lastmile_qr_scan"}, "is_reserved": 0, "is_disabled": 0, "bike_id": "589b135b1aa57bb05ab9db8214062954", "lat": 38.90273833333333, "name": "589b135b1aa57bb05ab9db8214062954", "fusion_lon": 0.0, "fusion_lat": 0.0, "type": "electric_scooter", "lon": -77.034399}, {"rental_uris": {"android": "https://dc.lft.to/lastmile_qr_scan", "ios": "https://dc.lft.to/lastmile_qr_scan"}, "is_reserved": 0, "is_disabled": 0, "bike_id": "f9838970f57bac063fc30892457836a3", "lat": 38.93954033333333, "name": "f9838970f57bac063fc30892457836a3", "fusion_lon": 0.0, "fusion_lat": 0.0, "type": "electric_scooter", "lon": -77.07238033333333}, {"rental_uris": {"android": "https://dc.lft.to/lastmile_qr_scan", "ios": "https://dc.lft.to/lastmile_qr_scan"}, "is_reserved": 0, "is_disabled": 0, "bike_id": "3fe907b31b99967ab82c5d704e40dd97", "lat": 38.90568116666667, "name": "3fe907b31b99967ab82c5d704e40dd97", "fusion_lon": 0.0, "fusion_lat": 0.0, "type": "electric_scooter", "lon": -77.02207633333333}, {"rental_uris": {"android": "https://dc.lft.to/lastmile_qr_scan", "ios": "https://dc.lft.to/lastmile_qr_scan"}, "is_reserved": 0, "is_disabled": 0, "bike_id": "94fe8c200ce79f3c3cf97e6a4edb99dc", "lat": 38.92166233333333, "name": "94fe8c200ce79f3c3cf97e6a4edb99dc", "fusion_lon": 0.0, "fusion_lat": 0.0, "type": "electric_scooter", "lon": -76.993917}, {"rental_uris": {"android": "https://dc.lft.to/lastmile_qr_scan", "ios": "https://dc.lft.to/lastmile_qr_scan"}, "is_reserved": 0, "is_disabled": 0, "bike_id": "45547ccb75c826b37858f73d89504bdb", "lat": 38.92136933333333, "name": "45547ccb75c826b37858f73d89504bdb", "fusion_lon": 0.0, "fusion_lat": 0.0, "type": "electric_bike", "lon": -77.02859166666667}, {"rental_uris": {"android": "https://dc.lft.to/lastmile_qr_scan", "ios": "https://dc.lft.to/lastmile_qr_scan"}, "is_reserved": 0, "is_disabled": 0, "bike_id": "bf9a5185da6e1951492d7f8851fe566e", "lat": 38.892225833333335, "name": "bf9a5185da6e1951492d7f8851fe566e", "fusion_lon": 0.0, "fusion_lat": 0.0, "type": "electric_scooter", "lon": -77.04692383333334}, {"rental_uris": {"android": "https://dc.lft.to/lastmile_qr_scan", "ios": "https://dc.lft.to/lastmile_qr_scan"}, "is_reserved": 0, "is_disabled": 0, "bike_id": "75234fd82b8c341d4b0b8bc9b3fd627e", "lat": 38.90788116666667, "name": "75234fd82b8c341d4b0b8bc9b3fd627e", "fusion_lon": 0.0, "fusion_lat": 0.0, "type": "electric_scooter", "lon": -77.02960166666666}, {"rental_uris": {"android": "https://dc.lft.to/lastmile_qr_scan", "ios": "https://dc.lft.to/lastmile_qr_scan"}, "is_reserved": 0, "is_disabled": 0, "bike_id": "f326a8cb9539fdef0db698ce1352f77c", "lat": 38.87816016666667, "name": "f326a8cb9539fdef0db698ce1352f77c", "fusion_lon": 0.0, "fusion_lat": 0.0, "type": "electric_scooter", "lon": -77.0012215}, {"rental_uris": {"android": "https://dc.lft.to/lastmile_qr_scan", "ios": "https://dc.lft.to/lastmile_qr_scan"}, "is_reserved": 0, "is_disabled": 0, "bike_id": "81c8a5cd4f867451705df9f17a14036f", "lat": 38.96218966666667, "name": "81c8a5cd4f867451705df9f17a14036f", "fusion_lon": 0.0, "fusion_lat": 0.0, "type": "electric_bike", "lon": -77.02631733333334}, {"rental_uris": {"android": "https://dc.lft.to/lastmile_qr_scan", "ios": "https://dc.lft.to/lastmile_qr_scan"}, "is_reserved": 0, "is_disabled": 0, "bike_id": "743f8cae8e9b4e525e7bdb2d2eccc00f", "lat": 38.86683333333333, "name": "743f8cae8e9b4e525e7bdb2d2eccc00f", "fusion_lon": 0.0, "fusion_lat": 0.0, "type": "electric_scooter", "lon": -76.98595966666667}, {"rental_uris": {"android": "https://dc.lft.to/lastmile_qr_scan", "ios": "https://dc.lft.to/lastmile_qr_scan"}, "is_reserved": 0, "is_disabled": 0, "bike_id": "c53a659b54e33b19bb27761fc2580502", "lat": 38.928694166666666, "name": "c53a659b54e33b19bb27761fc2580502", "fusion_lon": 0.0, "fusion_lat": 0.0, "type": "electric_scooter", "lon": -77.01359366666667}, {"rental_uris": {"android": "https://dc.lft.to/lastmile_qr_scan", "ios": "https://dc.lft.to/lastmile_qr_scan"}, "is_reserved": 0, "is_disabled": 0, "bike_id": "06810392634f3c97c3e65683e7a9d869", "lat": 38.90047033333333, "name": "06810392634f3c97c3e65683e7a9d869", "fusion_lon": 0.0, "fusion_lat": 0.0, "type": "electric_scooter", "lon": -76.99840233333333}, {"rental_uris": {"android": "https://dc.lft.to/lastmile_qr_scan", "ios": "https://dc.lft.to/lastmile_qr_scan"}, "is_reserved": 0, "is_disabled": 0, "bike_id": "3639acf5935cf075a6d6eb1f44d26080", "lat": 38.93045983333333, "name": "3639acf5935cf075a6d6eb1f44d26080", "fusion_lon": 0.0, "fusion_lat": 0.0, "type": "electric_scooter", "lon": -77.05852516666667}, {"rental_uris": {"android": "https://dc.lft.to/lastmile_qr_scan", "ios": "https://dc.lft.to/lastmile_qr_scan"}, "is_reserved": 0, "is_disabled": 0, "bike_id": "7d3acf76f6a98fcd4fd31ab16a27e2c5", "lat": 38.927454166666664, "name": "7d3acf76f6a98fcd4fd31ab16a27e2c5", "fusion_lon": 0.0, "fusion_lat": 0.0, "type": "electric_scooter", "lon": -77.02532183333334}, {"rental_uris": {"android": "https://dc.lft.to/lastmile_qr_scan", "ios": "https://dc.lft.to/lastmile_qr_scan"}, "is_reserved": 0, "is_disabled": 0, "bike_id": "694a5b4d6221215f1b36e29aba3abe59", "lat": 38.916759166666665, "name": "694a5b4d6221215f1b36e29aba3abe59", "fusion_lon": 0.0, "fusion_lat": 0.0, "type": "electric_scooter", "lon": -77.02955583333333}, {"rental_uris": {"android": "https://dc.lft.to/lastmile_qr_scan", "ios": "https://dc.lft.to/lastmile_qr_scan"}, "is_reserved": 0, "is_disabled": 0, "bike_id": "3a8a743563fda91dd8daffd29f221365", "lat": 38.916111, "name": "3a8a743563fda91dd8daffd29f221365", "fusion_lon": 0.0, "fusion_lat": 0.0, "type": "electric_scooter", "lon": -77.00924866666666}, {"rental_uris": {"android": "https://dc.lft.to/lastmile_qr_scan", "ios": "https://dc.lft.to/lastmile_qr_scan"}, "is_reserved": 0, "is_disabled": 0, "bike_id": "636b154d2a7fa0ba27f7f172da829667", "lat": 38.911250333333335, "name": "636b154d2a7fa0ba27f7f172da829667", "fusion_lon": 0.0, "fusion_lat": 0.0, "type": "electric_scooter", "lon": -77.04424383333334}, {"rental_uris": {"android": "https://dc.lft.to/lastmile_qr_scan", "ios": "https://dc.lft.to/lastmile_qr_scan"}, "is_reserved": 0, "is_disabled": 0, "bike_id": "b47df3435df9431c31441475e3ad7768", "lat": 38.88606516666667, "name": "b47df3435df9431c31441475e3ad7768", "fusion_lon": 0.0, "fusion_lat": 0.0, "type": "electric_scooter", "lon": -76.99478616666667}, {"rental_uris": {"android": "https://dc.lft.to/lastmile_qr_scan", "ios": "https://dc.lft.to/lastmile_qr_scan"}, "is_reserved": 0, "is_disabled": 0, "bike_id": "2a09844a59ea4ec85398e1fe5022fe3a", "lat": 38.866566, "name": "2a09844a59ea4ec85398e1fe5022fe3a", "fusion_lon": 0.0, "fusion_lat": 0.0, "type": "electric_scooter", "lon": -76.98879216666667}, {"rental_uris": {"android": "https://dc.lft.to/lastmile_qr_scan", "ios": "https://dc.lft.to/lastmile_qr_scan"}, "is_reserved": 0, "is_disabled": 0, "bike_id": "f11716b2ffa51c1b2916b12e795d6f71", "lat": 38.89380533333333, "name": "f11716b2ffa51c1b2916b12e795d6f71", "fusion_lon": 0.0, "fusion_lat": 0.0, "type": "electric_scooter", "lon": -77.0502595}, {"rental_uris": {"android": "https://dc.lft.to/lastmile_qr_scan", "ios": "https://dc.lft.to/lastmile_qr_scan"}, "is_reserved": 0, "is_disabled": 0, "bike_id": "d9f994a67e451808678fb515a47e5d1d", "lat": 38.892221166666666, "name": "d9f994a67e451808678fb515a47e5d1d", "fusion_lon": 0.0, "fusion_lat": 0.0, "type": "electric_scooter", "lon": -77.04471183333334}, {"rental_uris": {"android": "https://dc.lft.to/lastmile_qr_scan", "ios": "https://dc.lft.to/lastmile_qr_scan"}, "is_reserved": 0, "is_disabled": 0, "bike_id": "812136d0e2aae57ce4c6e5cbdc48af96", "lat": 38.929004666666664, "name": "812136d0e2aae57ce4c6e5cbdc48af96", "fusion_lon": 0.0, "fusion_lat": 0.0, "type": "electric_scooter", "lon": -77.0163445}, {"rental_uris": {"android": "https://dc.lft.to/lastmile_qr_scan", "ios": "https://dc.lft.to/lastmile_qr_scan"}, "is_reserved": 0, "is_disabled": 0, "bike_id": "8c4c438afbaa558ad5901a82f2ccd51e", "lat": 38.89964033333333, "name": "8c4c438afbaa558ad5901a82f2ccd51e", "fusion_lon": 0.0, "fusion_lat": 0.0, "type": "electric_scooter", "lon": -77.0451645}, {"rental_uris": {"android": "https://dc.lft.to/lastmile_qr_scan", "ios": "https://dc.lft.to/lastmile_qr_scan"}, "is_reserved": 0, "is_disabled": 0, "bike_id": "690b5e5c60d83ce67724de662e563247", "lat": 38.915506, "name": "690b5e5c60d83ce67724de662e563247", "fusion_lon": 0.0, "fusion_lat": 0.0, "type": "electric_scooter", "lon": -77.01193816666667}, {"rental_uris": {"android": "https://dc.lft.to/lastmile_qr_scan", "ios": "https://dc.lft.to/lastmile_qr_scan"}, "is_reserved": 0, "is_disabled": 0, "bike_id": "a81c6ed8eb8d5b3e4094589638715af3", "lat": 38.913521, "name": "a81c6ed8eb8d5b3e4094589638715af3", "fusion_lon": 0.0, "fusion_lat": 0.0, "type": "electric_scooter", "lon": -77.04172966666667}, {"rental_uris": {"android": "https://dc.lft.to/lastmile_qr_scan", "ios": "https://dc.lft.to/lastmile_qr_scan"}, "is_reserved": 0, "is_disabled": 0, "bike_id": "4e7c922fac0ad11ce5940b0740a26b53", "lat": 38.89229983333333, "name": "4e7c922fac0ad11ce5940b0740a26b53", "fusion_lon": 0.0, "fusion_lat": 0.0, "type": "electric_scooter", "lon": -77.05005866666667}, {"rental_uris": {"android": "https://dc.lft.to/lastmile_qr_scan", "ios": "https://dc.lft.to/lastmile_qr_scan"}, "is_reserved": 0, "is_disabled": 0, "bike_id": "b9a1ea8e9192da06538959101b590e02", "lat": 38.87276033333333, "name": "b9a1ea8e9192da06538959101b590e02", "fusion_lon": 0.0, "fusion_lat": 0.0, "type": "electric_bike", "lon": -77.23325616666666}, {"rental_uris": {"android": "https://dc.lft.to/lastmile_qr_scan", "ios": "https://dc.lft.to/lastmile_qr_scan"}, "is_reserved": 0, "is_disabled": 0, "bike_id": "1feed4b7e5bc81277c96a189d2c4d9d2", "lat": 38.9244035, "name": "1feed4b7e5bc81277c96a189d2c4d9d2", "fusion_lon": 0.0, "fusion_lat": 0.0, "type": "electric_scooter", "lon": -77.01947083333333}, {"rental_uris": {"android": "https://dc.lft.to/lastmile_qr_scan", "ios": "https://dc.lft.to/lastmile_qr_scan"}, "is_reserved": 0, "is_disabled": 0, "bike_id": "19ea212a05eca31975a5bf909d6e67ce", "lat": 38.89368016666667, "name": "19ea212a05eca31975a5bf909d6e67ce", "fusion_lon": 0.0, "fusion_lat": 0.0, "type": "electric_scooter", "lon": -76.94827683333334}, {"rental_uris": {"android": "https://dc.lft.to/lastmile_qr_scan", "ios": "https://dc.lft.to/lastmile_qr_scan"}, "is_reserved": 0, "is_disabled": 0, "bike_id": "eafd81842967325c754d0f1b45e3b1e1", "lat": 38.90512533333333, "name": "eafd81842967325c754d0f1b45e3b1e1", "fusion_lon": 0.0, "fusion_lat": 0.0, "type": "electric_scooter", "lon": -77.06888066666667}, {"rental_uris": {"android": "https://dc.lft.to/lastmile_qr_scan", "ios": "https://dc.lft.to/lastmile_qr_scan"}, "is_reserved": 0, "is_disabled": 0, "bike_id": "bb7f86d15775bb181d89c868c920ea12", "lat": 38.90790583333333, "name": "bb7f86d15775bb181d89c868c920ea12", "fusion_lon": 0.0, "fusion_lat": 0.0, "type": "electric_scooter", "lon": -77.0295575}, {"rental_uris": {"android": "https://dc.lft.to/lastmile_qr_scan", "ios": "https://dc.lft.to/lastmile_qr_scan"}, "is_reserved": 0, "is_disabled": 0, "bike_id": "dfe85fe8d9411a448657250bd144c055", "lat": 38.95689766666667, "name": "dfe85fe8d9411a448657250bd144c055", "fusion_lon": 0.0, "fusion_lat": 0.0, "type": "electric_scooter", "lon": -77.02398233333334}, {"rental_uris": {"android": "https://dc.lft.to/lastmile_qr_scan", "ios": "https://dc.lft.to/lastmile_qr_scan"}, "is_reserved": 0, "is_disabled": 0, "bike_id": "eeb84d9c95f6754163b77f53fcfaee86", "lat": 38.90721966666667, "name": "eeb84d9c95f6754163b77f53fcfaee86", "fusion_lon": 0.0, "fusion_lat": 0.0, "type": "electric_scooter", "lon": -76.97856066666667}, {"rental_uris": {"android": "https://dc.lft.to/lastmile_qr_scan", "ios": "https://dc.lft.to/lastmile_qr_scan"}, "is_reserved": 0, "is_disabled": 0, "bike_id": "b328f8d56dee74a5390a005d4551b47b", "lat": 38.9290115, "name": "b328f8d56dee74a5390a005d4551b47b", "fusion_lon": 0.0, "fusion_lat": 0.0, "type": "electric_scooter", "lon": -77.05456166666667}, {"rental_uris": {"android": "https://dc.lft.to/lastmile_qr_scan", "ios": "https://dc.lft.to/lastmile_qr_scan"}, "is_reserved": 0, "is_disabled": 0, "bike_id": "6dfcedc0f267ef25082a106fa25bf59e", "lat": 38.932473, "name": "6dfcedc0f267ef25082a106fa25bf59e", "fusion_lon": 0.0, "fusion_lat": 0.0, "type": "electric_scooter", "lon": -77.03277366666667}, {"rental_uris": {"android": "https://dc.lft.to/lastmile_qr_scan", "ios": "https://dc.lft.to/lastmile_qr_scan"}, "is_reserved": 0, "is_disabled": 0, "bike_id": "f3c127cdf534f8a1b4a23af51934dc91", "lat": 38.905631, "name": "f3c127cdf534f8a1b4a23af51934dc91", "fusion_lon": 0.0, "fusion_lat": 0.0, "type": "electric_scooter", "lon": -77.0333375}, {"rental_uris": {"android": "https://dc.lft.to/lastmile_qr_scan", "ios": "https://dc.lft.to/lastmile_qr_scan"}, "is_reserved": 0, "is_disabled": 0, "bike_id": "f66ee1aa8268ffd36c5437896bcf7614", "lat": 38.9239465, "name": "f66ee1aa8268ffd36c5437896bcf7614", "fusion_lon": 0.0, "fusion_lat": 0.0, "type": "electric_scooter", "lon": -77.04307066666667}, {"rental_uris": {"android": "https://dc.lft.to/lastmile_qr_scan", "ios": "https://dc.lft.to/lastmile_qr_scan"}, "is_reserved": 0, "is_disabled": 0, "bike_id": "40609d45cb91ed2a46d2ceee052bb8bd", "lat": 38.895574333333336, "name": "40609d45cb91ed2a46d2ceee052bb8bd", "fusion_lon": 0.0, "fusion_lat": 0.0, "type": "electric_scooter", "lon": -77.04678533333333}, {"rental_uris": {"android": "https://dc.lft.to/lastmile_qr_scan", "ios": "https://dc.lft.to/lastmile_qr_scan"}, "is_reserved": 0, "is_disabled": 0, "bike_id": "47ae8ac1ab9b079874a3fb0dbb3b9448", "lat": 38.9047345, "name": "47ae8ac1ab9b079874a3fb0dbb3b9448", "fusion_lon": 0.0, "fusion_lat": 0.0, "type": "electric_scooter", "lon": -77.04870883333334}, {"rental_uris": {"android": "https://dc.lft.to/lastmile_qr_scan", "ios": "https://dc.lft.to/lastmile_qr_scan"}, "is_reserved": 0, "is_disabled": 0, "bike_id": "20d7d14b14070e67fa11861eada73791", "lat": 38.929079, "name": "20d7d14b14070e67fa11861eada73791", "fusion_lon": 0.0, "fusion_lat": 0.0, "type": "electric_scooter", "lon": -77.0208875}, {"rental_uris": {"android": "https://dc.lft.to/lastmile_qr_scan", "ios": "https://dc.lft.to/lastmile_qr_scan"}, "is_reserved": 0, "is_disabled": 0, "bike_id": "0ad762ab6d0e9eb9135e0688468ea4fd", "lat": 38.90568566666666, "name": "0ad762ab6d0e9eb9135e0688468ea4fd", "fusion_lon": 0.0, "fusion_lat": 0.0, "type": "electric_scooter", "lon": -77.028242}, {"rental_uris": {"android": "https://dc.lft.to/lastmile_qr_scan", "ios": "https://dc.lft.to/lastmile_qr_scan"}, "is_reserved": 0, "is_disabled": 0, "bike_id": "951ab6ce531b9cdd77281506fdeabb8f", "lat": 38.892818166666665, "name": "951ab6ce531b9cdd77281506fdeabb8f", "fusion_lon": 0.0, "fusion_lat": 0.0, "type": "electric_scooter", "lon": -76.94248466666667}, {"rental_uris": {"android": "https://dc.lft.to/lastmile_qr_scan", "ios": "https://dc.lft.to/lastmile_qr_scan"}, "is_reserved": 0, "is_disabled": 0, "bike_id": "9bbd3de443b4ef06f3c4ace6a1bb66d0", "lat": 38.908183333333334, "name": "9bbd3de443b4ef06f3c4ace6a1bb66d0", "fusion_lon": 0.0, "fusion_lat": 0.0, "type": "electric_scooter", "lon": -77.04339816666666}, {"rental_uris": {"android": "https://dc.lft.to/lastmile_qr_scan", "ios": "https://dc.lft.to/lastmile_qr_scan"}, "is_reserved": 0, "is_disabled": 0, "bike_id": "d87f04ff501f8674b4f97b45ba1dd01f", "lat": 38.9337605, "name": "d87f04ff501f8674b4f97b45ba1dd01f", "fusion_lon": 0.0, "fusion_lat": 0.0, "type": "electric_scooter", "lon": -77.03554683333333}, {"rental_uris": {"android": "https://dc.lft.to/lastmile_qr_scan", "ios": "https://dc.lft.to/lastmile_qr_scan"}, "is_reserved": 0, "is_disabled": 0, "bike_id": "b13bc97c35403ecd50a50c1e4b1c5f43", "lat": 38.9535555, "name": "b13bc97c35403ecd50a50c1e4b1c5f43", "fusion_lon": 0.0, "fusion_lat": 0.0, "type": "electric_bike", "lon": -76.980897}, {"rental_uris": {"android": "https://dc.lft.to/lastmile_qr_scan", "ios": "https://dc.lft.to/lastmile_qr_scan"}, "is_reserved": 0, "is_disabled": 0, "bike_id": "ad1346420ac246a49337ab36e5910976", "lat": 38.896218, "name": "ad1346420ac246a49337ab36e5910976", "fusion_lon": 0.0, "fusion_lat": 0.0, "type": "electric_scooter", "lon": -76.99848633333333}, {"rental_uris": {"android": "https://dc.lft.to/lastmile_qr_scan", "ios": "https://dc.lft.to/lastmile_qr_scan"}, "is_reserved": 0, "is_disabled": 0, "bike_id": "133ad44bf7f8d30990b6c5d9a0694b57", "lat": 38.931228833333336, "name": "133ad44bf7f8d30990b6c5d9a0694b57", "fusion_lon": 0.0, "fusion_lat": 0.0, "type": "electric_scooter", "lon": -77.0387625}, {"rental_uris": {"android": "https://dc.lft.to/lastmile_qr_scan", "ios": "https://dc.lft.to/lastmile_qr_scan"}, "is_reserved": 0, "is_disabled": 0, "bike_id": "b334743a67b9a3e19d157e092de28c5f", "lat": 38.891679833333335, "name": "b334743a67b9a3e19d157e092de28c5f", "fusion_lon": 0.0, "fusion_lat": 0.0, "type": "electric_scooter", "lon": -77.0154845}, {"rental_uris": {"android": "https://dc.lft.to/lastmile_qr_scan", "ios": "https://dc.lft.to/lastmile_qr_scan"}, "is_reserved": 0, "is_disabled": 0, "bike_id": "94cda8f5427ad252fe2ceec18a7cf339", "lat": 38.912631, "name": "94cda8f5427ad252fe2ceec18a7cf339", "fusion_lon": 0.0, "fusion_lat": 0.0, "type": "electric_scooter", "lon": -77.074411}, {"rental_uris": {"android": "https://dc.lft.to/lastmile_qr_scan", "ios": "https://dc.lft.to/lastmile_qr_scan"}, "is_reserved": 0, "is_disabled": 0, "bike_id": "eeeb28e71aa721da35c757a667f0dac9", "lat": 38.916511, "name": "eeeb28e71aa721da35c757a667f0dac9", "fusion_lon": 0.0, "fusion_lat": 0.0, "type": "electric_scooter", "lon": -77.04163666666666}, {"rental_uris": {"android": "https://dc.lft.to/lastmile_qr_scan", "ios": "https://dc.lft.to/lastmile_qr_scan"}, "is_reserved": 0, "is_disabled": 0, "bike_id": "ab9fc9151069c12d1e165f2b1581ba0c", "lat": 38.898316, "name": "ab9fc9151069c12d1e165f2b1581ba0c", "fusion_lon": 0.0, "fusion_lat": 0.0, "type": "electric_scooter", "lon": -76.9463415}, {"rental_uris": {"android": "https://dc.lft.to/lastmile_qr_scan", "ios": "https://dc.lft.to/lastmile_qr_scan"}, "is_reserved": 0, "is_disabled": 0, "bike_id": "db79c10b1bfbb07fa498ecad1b40070a", "lat": 38.92832033333333, "name": "db79c10b1bfbb07fa498ecad1b40070a", "fusion_lon": 0.0, "fusion_lat": 0.0, "type": "electric_scooter", "lon": -77.03700966666666}, {"rental_uris": {"android": "https://dc.lft.to/lastmile_qr_scan", "ios": "https://dc.lft.to/lastmile_qr_scan"}, "is_reserved": 0, "is_disabled": 0, "bike_id": "dbb7a3def9e76c092d022f0cdea1c711", "lat": 38.884930833333335, "name": "dbb7a3def9e76c092d022f0cdea1c711", "fusion_lon": 0.0, "fusion_lat": 0.0, "type": "electric_scooter", "lon": -77.007264}, {"rental_uris": {"android": "https://dc.lft.to/lastmile_qr_scan", "ios": "https://dc.lft.to/lastmile_qr_scan"}, "is_reserved": 0, "is_disabled": 0, "bike_id": "6458b30d716acfeb505dcbb1b8d38cb3", "lat": 38.8922075, "name": "6458b30d716acfeb505dcbb1b8d38cb3", "fusion_lon": 0.0, "fusion_lat": 0.0, "type": "electric_scooter", "lon": -77.032172}, {"rental_uris": {"android": "https://dc.lft.to/lastmile_qr_scan", "ios": "https://dc.lft.to/lastmile_qr_scan"}, "is_reserved": 0, "is_disabled": 0, "bike_id": "f8a089b378d4eaba622572ab1dfc475d", "lat": 38.87277666666667, "name": "f8a089b378d4eaba622572ab1dfc475d", "fusion_lon": 0.0, "fusion_lat": 0.0, "type": "electric_bike", "lon": -77.2331505}, {"rental_uris": {"android": "https://dc.lft.to/lastmile_qr_scan", "ios": "https://dc.lft.to/lastmile_qr_scan"}, "is_reserved": 0, "is_disabled": 0, "bike_id": "f5f95ac267f34fb5994376088893bc8a", "lat": 38.920587, "name": "f5f95ac267f34fb5994376088893bc8a", "fusion_lon": 0.0, "fusion_lat": 0.0, "type": "electric_scooter", "lon": -77.041933}, {"rental_uris": {"android": "https://dc.lft.to/lastmile_qr_scan", "ios": "https://dc.lft.to/lastmile_qr_scan"}, "is_reserved": 0, "is_disabled": 0, "bike_id": "6bb9433416fc08ea04bdddf5325f5935", "lat": 38.8669815, "name": "6bb9433416fc08ea04bdddf5325f5935", "fusion_lon": 0.0, "fusion_lat": 0.0, "type": "electric_scooter", "lon": -76.9859075}, {"rental_uris": {"android": "https://dc.lft.to/lastmile_qr_scan", "ios": "https://dc.lft.to/lastmile_qr_scan"}, "is_reserved": 0, "is_disabled": 0, "bike_id": "634015ae1a66b51052afb5636272a80a", "lat": 38.94226316666666, "name": "634015ae1a66b51052afb5636272a80a", "fusion_lon": 0.0, "fusion_lat": 0.0, "type": "electric_bike", "lon": -76.96620883333334}, {"rental_uris": {"android": "https://dc.lft.to/lastmile_qr_scan", "ios": "https://dc.lft.to/lastmile_qr_scan"}, "is_reserved": 0, "is_disabled": 0, "bike_id": "a338da32396296d00f5f8d098c7ba3cf", "lat": 38.9101335, "name": "a338da32396296d00f5f8d098c7ba3cf", "fusion_lon": 0.0, "fusion_lat": 0.0, "type": "electric_bike", "lon": -77.2279815}, {"rental_uris": {"android": "https://dc.lft.to/lastmile_qr_scan", "ios": "https://dc.lft.to/lastmile_qr_scan"}, "is_reserved": 0, "is_disabled": 0, "bike_id": "5d39e29f3c8ea634efcb466312e391bc", "lat": 38.922498, "name": "5d39e29f3c8ea634efcb466312e391bc", "fusion_lon": 0.0, "fusion_lat": 0.0, "type": "electric_scooter", "lon": -77.01946383333333}, {"rental_uris": {"android": "https://dc.lft.to/lastmile_qr_scan", "ios": "https://dc.lft.to/lastmile_qr_scan"}, "is_reserved": 0, "is_disabled": 0, "bike_id": "7a2ddaa4413e12e51a52e0abd08710f9", "lat": 38.865355, "name": "7a2ddaa4413e12e51a52e0abd08710f9", "fusion_lon": 0.0, "fusion_lat": 0.0, "type": "electric_scooter", "lon": -76.98708383333333}, {"rental_uris": {"android": "https://dc.lft.to/lastmile_qr_scan", "ios": "https://dc.lft.to/lastmile_qr_scan"}, "is_reserved": 0, "is_disabled": 0, "bike_id": "412525d83413b5a5291635053574213f", "lat": 38.92743566666667, "name": "412525d83413b5a5291635053574213f", "fusion_lon": 0.0, "fusion_lat": 0.0, "type": "electric_scooter", "lon": -77.03560216666666}, {"rental_uris": {"android": "https://dc.lft.to/lastmile_qr_scan", "ios": "https://dc.lft.to/lastmile_qr_scan"}, "is_reserved": 0, "is_disabled": 0, "bike_id": "ba6282d5187f5fbfd0fbdc1ca55db4bd", "lat": 38.90319266666667, "name": "ba6282d5187f5fbfd0fbdc1ca55db4bd", "fusion_lon": 0.0, "fusion_lat": 0.0, "type": "electric_scooter", "lon": -77.05162866666667}, {"rental_uris": {"android": "https://dc.lft.to/lastmile_qr_scan", "ios": "https://dc.lft.to/lastmile_qr_scan"}, "is_reserved": 0, "is_disabled": 0, "bike_id": "6b96e5a2d715c885ff841b3f145ded63", "lat": 38.892181, "name": "6b96e5a2d715c885ff841b3f145ded63", "fusion_lon": 0.0, "fusion_lat": 0.0, "type": "electric_scooter", "lon": -77.022319}, {"rental_uris": {"android": "https://dc.lft.to/lastmile_qr_scan", "ios": "https://dc.lft.to/lastmile_qr_scan"}, "is_reserved": 0, "is_disabled": 0, "bike_id": "8849cc7710ea1b770d94b0f1547820fe", "lat": 38.895035666666665, "name": "8849cc7710ea1b770d94b0f1547820fe", "fusion_lon": 0.0, "fusion_lat": 0.0, "type": "electric_scooter", "lon": -77.00327133333333}, {"rental_uris": {"android": "https://dc.lft.to/lastmile_qr_scan", "ios": "https://dc.lft.to/lastmile_qr_scan"}, "is_reserved": 0, "is_disabled": 0, "bike_id": "670d86add7ac52e942c79c4f04e59916", "lat": 38.923624833333335, "name": "670d86add7ac52e942c79c4f04e59916", "fusion_lon": 0.0, "fusion_lat": 0.0, "type": "electric_scooter", "lon": -77.051304}, {"rental_uris": {"android": "https://dc.lft.to/lastmile_qr_scan", "ios": "https://dc.lft.to/lastmile_qr_scan"}, "is_reserved": 0, "is_disabled": 0, "bike_id": "241ca394bc060928e8f9a5120fbd8260", "lat": 38.934747333333334, "name": "241ca394bc060928e8f9a5120fbd8260", "fusion_lon": 0.0, "fusion_lat": 0.0, "type": "electric_scooter", "lon": -77.03581633333333}, {"rental_uris": {"android": "https://dc.lft.to/lastmile_qr_scan", "ios": "https://dc.lft.to/lastmile_qr_scan"}, "is_reserved": 0, "is_disabled": 0, "bike_id": "26ac4464534859029c7f2aaba9ab67ba", "lat": 38.88727216666667, "name": "26ac4464534859029c7f2aaba9ab67ba", "fusion_lon": 0.0, "fusion_lat": 0.0, "type": "electric_scooter", "lon": -77.0282795}, {"rental_uris": {"android": "https://dc.lft.to/lastmile_qr_scan", "ios": "https://dc.lft.to/lastmile_qr_scan"}, "is_reserved": 0, "is_disabled": 0, "bike_id": "2a832d5079f0613cbc7ee5ef5761475a", "lat": 38.8973375, "name": "2a832d5079f0613cbc7ee5ef5761475a", "fusion_lon": 0.0, "fusion_lat": 0.0, "type": "electric_scooter", "lon": -77.02718566666667}, {"rental_uris": {"android": "https://dc.lft.to/lastmile_qr_scan", "ios": "https://dc.lft.to/lastmile_qr_scan"}, "is_reserved": 0, "is_disabled": 0, "bike_id": "23a649884cea5fba9d820cfdef520081", "lat": 38.90455, "name": "23a649884cea5fba9d820cfdef520081", "fusion_lon": 0.0, "fusion_lat": 0.0, "type": "electric_scooter", "lon": -77.034469}, {"rental_uris": {"android": "https://dc.lft.to/lastmile_qr_scan", "ios": "https://dc.lft.to/lastmile_qr_scan"}, "is_reserved": 0, "is_disabled": 0, "bike_id": "58893ae8a0dce55dfcae847888000ed1", "lat": 38.9177065, "name": "58893ae8a0dce55dfcae847888000ed1", "fusion_lon": 0.0, "fusion_lat": 0.0, "type": "electric_scooter", "lon": -77.04550283333333}, {"rental_uris": {"android": "https://dc.lft.to/lastmile_qr_scan", "ios": "https://dc.lft.to/lastmile_qr_scan"}, "is_reserved": 0, "is_disabled": 0, "bike_id": "6d6fffe0a1d47a52b55d3f1efb8042ea", "lat": 38.891633, "name": "6d6fffe0a1d47a52b55d3f1efb8042ea", "fusion_lon": 0.0, "fusion_lat": 0.0, "type": "electric_scooter", "lon": -76.95184033333334}, {"rental_uris": {"android": "https://dc.lft.to/lastmile_qr_scan", "ios": "https://dc.lft.to/lastmile_qr_scan"}, "is_reserved": 0, "is_disabled": 0, "bike_id": "278ad3ed420aabcc03879b9d77e2bc89", "lat": 38.89229016666667, "name": "278ad3ed420aabcc03879b9d77e2bc89", "fusion_lon": 0.0, "fusion_lat": 0.0, "type": "electric_scooter", "lon": -77.03180433333333}, {"rental_uris": {"android": "https://dc.lft.to/lastmile_qr_scan", "ios": "https://dc.lft.to/lastmile_qr_scan"}, "is_reserved": 0, "is_disabled": 0, "bike_id": "cf67a9ad6e0a2836ca1bbb9e666c5608", "lat": 38.8922725, "name": "cf67a9ad6e0a2836ca1bbb9e666c5608", "fusion_lon": 0.0, "fusion_lat": 0.0, "type": "electric_scooter", "lon": -77.027779}, {"rental_uris": {"android": "https://dc.lft.to/lastmile_qr_scan", "ios": "https://dc.lft.to/lastmile_qr_scan"}, "is_reserved": 0, "is_disabled": 0, "bike_id": "64deda0b69fa176989617145457e9d32", "lat": 38.926702666666664, "name": "64deda0b69fa176989617145457e9d32", "fusion_lon": 0.0, "fusion_lat": 0.0, "type": "electric_scooter", "lon": -77.01455183333333}, {"rental_uris": {"android": "https://dc.lft.to/lastmile_qr_scan", "ios": "https://dc.lft.to/lastmile_qr_scan"}, "is_reserved": 0, "is_disabled": 0, "bike_id": "2b1fa78769afc76093d1333aa445d84a", "lat": 38.901088, "name": "2b1fa78769afc76093d1333aa445d84a", "fusion_lon": 0.0, "fusion_lat": 0.0, "type": "electric_scooter", "lon": -77.04485633333333}, {"rental_uris": {"android": "https://dc.lft.to/lastmile_qr_scan", "ios": "https://dc.lft.to/lastmile_qr_scan"}, "is_reserved": 0, "is_disabled": 0, "bike_id": "5a222d1cb2d371b70a794ce5e1274c62", "lat": 38.9310325, "name": "5a222d1cb2d371b70a794ce5e1274c62", "fusion_lon": 0.0, "fusion_lat": 0.0, "type": "electric_scooter", "lon": -77.03808733333334}, {"rental_uris": {"android": "https://dc.lft.to/lastmile_qr_scan", "ios": "https://dc.lft.to/lastmile_qr_scan"}, "is_reserved": 0, "is_disabled": 0, "bike_id": "699fff35b2cce0ba769ecc9b5308d69b", "lat": 38.886949333333334, "name": "699fff35b2cce0ba769ecc9b5308d69b", "fusion_lon": 0.0, "fusion_lat": 0.0, "type": "electric_scooter", "lon": -76.99684233333333}, {"rental_uris": {"android": "https://dc.lft.to/lastmile_qr_scan", "ios": "https://dc.lft.to/lastmile_qr_scan"}, "is_reserved": 0, "is_disabled": 0, "bike_id": "875f1ed01212571f1a3ac0d50da99caf", "lat": 38.936257833333336, "name": "875f1ed01212571f1a3ac0d50da99caf", "fusion_lon": 0.0, "fusion_lat": 0.0, "type": "electric_scooter", "lon": -77.03656033333333}, {"rental_uris": {"android": "https://dc.lft.to/lastmile_qr_scan", "ios": "https://dc.lft.to/lastmile_qr_scan"}, "is_reserved": 0, "is_disabled": 0, "bike_id": "df48cd660001aba8bb04720494a882c8", "lat": 38.913494666666665, "name": "df48cd660001aba8bb04720494a882c8", "fusion_lon": 0.0, "fusion_lat": 0.0, "type": "electric_scooter", "lon": -77.03188116666666}, {"rental_uris": {"android": "https://dc.lft.to/lastmile_qr_scan", "ios": "https://dc.lft.to/lastmile_qr_scan"}, "is_reserved": 0, "is_disabled": 0, "bike_id": "7af71a250e120b1fe5b36889d19d3804", "lat": 38.9001395, "name": "7af71a250e120b1fe5b36889d19d3804", "fusion_lon": 0.0, "fusion_lat": 0.0, "type": "electric_scooter", "lon": -77.03040683333333}, {"rental_uris": {"android": "https://dc.lft.to/lastmile_qr_scan", "ios": "https://dc.lft.to/lastmile_qr_scan"}, "is_reserved": 0, "is_disabled": 0, "bike_id": "1a052f67de6d2c3c9442615166848691", "lat": 38.934792, "name": "1a052f67de6d2c3c9442615166848691", "fusion_lon": 0.0, "fusion_lat": 0.0, "type": "electric_scooter", "lon": -77.07267533333334}, {"rental_uris": {"android": "https://dc.lft.to/lastmile_qr_scan", "ios": "https://dc.lft.to/lastmile_qr_scan"}, "is_reserved": 0, "is_disabled": 0, "bike_id": "9e15ec1fc5452c746ebd8b09db433b9e", "lat": 38.89023, "name": "9e15ec1fc5452c746ebd8b09db433b9e", "fusion_lon": 0.0, "fusion_lat": 0.0, "type": "electric_scooter", "lon": -76.93725716666667}, {"rental_uris": {"android": "https://dc.lft.to/lastmile_qr_scan", "ios": "https://dc.lft.to/lastmile_qr_scan"},