{"data": {"bikes": [{"lon": -77.02020966666667, "bike_id": "b49c398f1e4ac2ebbc050b59eaf0d780", "lat": 38.89442233333333, "fusion_lon": 0.0, "fusion_lat": 0.0, "type": "electric_scooter", "name": "b49c398f1e4ac2ebbc050b59eaf0d780", "is_disabled": 0, "rental_uris": {"ios": "https://dc.lft.to/lastmile_qr_scan", "android": "https://dc.lft.to/lastmile_qr_scan"}, "is_reserved": 0}, {"lon": -77.11709133333333, "bike_id": "27bede6eb2beb435ede3152cca6ca288", "lat": 38.86744933333333, "fusion_lon": 0.0, "fusion_lat": 0.0, "type": "electric_bike", "name": "27bede6eb2beb435ede3152cca6ca288", "is_disabled": 0, "rental_uris": {"ios": "https://dc.lft.to/lastmile_qr_scan", "android": "https://dc.lft.to/lastmile_qr_scan"}, "is_reserved": 0}, {"lon": -77.0386895, "bike_id": "409c919b740d74a12369ee7e9ab5cf51", "lat": 38.903588, "fusion_lon": 0.0, "fusion_lat": 0.0, "type": "electric_scooter", "name": "409c919b740d74a12369ee7e9ab5cf51", "is_disabled": 0, "rental_uris": {"ios": "https://dc.lft.to/lastmile_qr_scan", "android": "https://dc.lft.to/lastmile_qr_scan"}, "is_reserved": 0}, {"lon": -77.00118366666666, "bike_id": "f8b991b8500328d091ac1fe5e0b15b88", "lat": 38.87480033333333, "fusion_lon": 0.0, "fusion_lat": 0.0, "type": "electric_scooter", "name": "f8b991b8500328d091ac1fe5e0b15b88", "is_disabled": 0, "rental_uris": {"ios": "https://dc.lft.to/lastmile_qr_scan", "android": "https://dc.lft.to/lastmile_qr_scan"}, "is_reserved": 0}, {"lon": -77.06179366666667, "bike_id": "ace1178c5dd6b16e47ef796facb41fda", "lat": 38.90252783333333, "fusion_lon": 0.0, "fusion_lat": 0.0, "type": "electric_scooter", "name": "ace1178c5dd6b16e47ef796facb41fda", "is_disabled": 0, "rental_uris": {"ios": "https://dc.lft.to/lastmile_qr_scan", "android": "https://dc.lft.to/lastmile_qr_scan"}, "is_reserved": 0}, {"lon": -76.98539216666667, "bike_id": "7fe1353697d09b1188fa97f7897c98fa", "lat": 38.9045045, "fusion_lon": 0.0, "fusion_lat": 0.0, "type": "electric_scooter", "name": "7fe1353697d09b1188fa97f7897c98fa", "is_disabled": 0, "rental_uris": {"ios": "https://dc.lft.to/lastmile_qr_scan", "android": "https://dc.lft.to/lastmile_qr_scan"}, "is_reserved": 0}, {"lon": -77.11253133333334, "bike_id": "d63a51596c9ceb4ae98cb1164b648294", "lat": 38.8565325, "fusion_lon": 0.0, "fusion_lat": 0.0, "type": "electric_bike", "name": "d63a51596c9ceb4ae98cb1164b648294", "is_disabled": 0, "rental_uris": {"ios": "https://dc.lft.to/lastmile_qr_scan", "android": "https://dc.lft.to/lastmile_qr_scan"}, "is_reserved": 0}, {"lon": -77.03274383333333, "bike_id": "7a56a1fa7965e7ce11fe119991db5a57", "lat": 38.9283585, "fusion_lon": 0.0, "fusion_lat": 0.0, "type": "electric_scooter", "name": "7a56a1fa7965e7ce11fe119991db5a57", "is_disabled": 0, "rental_uris": {"ios": "https://dc.lft.to/lastmile_qr_scan", "android": "https://dc.lft.to/lastmile_qr_scan"}, "is_reserved": 0}, {"lon": -77.03277766666666, "bike_id": "77c1b7dbafd840eb5c2ff539608803b5", "lat": 38.92854766666667, "fusion_lon": 0.0, "fusion_lat": 0.0, "type": "electric_scooter", "name": "77c1b7dbafd840eb5c2ff539608803b5", "is_disabled": 0, "rental_uris": {"ios": "https://dc.lft.to/lastmile_qr_scan", "android": "https://dc.lft.to/lastmile_qr_scan"}, "is_reserved": 0}, {"lon": -77.02415016666667, "bike_id": "9f223ae79d9551105bf8aa92a01a9f5c", "lat": 38.920391, "fusion_lon": 0.0, "fusion_lat": 0.0, "type": "electric_scooter", "name": "9f223ae79d9551105bf8aa92a01a9f5c", "is_disabled": 0, "rental_uris": {"ios": "https://dc.lft.to/lastmile_qr_scan", "android": "https://dc.lft.to/lastmile_qr_scan"}, "is_reserved": 0}, {"lon": -77.06176866666667, "bike_id": "289a116292391917dec9bba3e9036680", "lat": 38.94312, "fusion_lon": 0.0, "fusion_lat": 0.0, "type": "electric_scooter", "name": "289a116292391917dec9bba3e9036680", "is_disabled": 0, "rental_uris": {"ios": "https://dc.lft.to/lastmile_qr_scan", "android": "https://dc.lft.to/lastmile_qr_scan"}, "is_reserved": 0}, {"lon": -77.04022066666667, "bike_id": "30ac6a39602303f8fc694f43a6223607", "lat": 38.918276, "fusion_lon": 0.0, "fusion_lat": 0.0, "type": "electric_scooter", "name": "30ac6a39602303f8fc694f43a6223607", "is_disabled": 0, "rental_uris": {"ios": "https://dc.lft.to/lastmile_qr_scan", "android": "https://dc.lft.to/lastmile_qr_scan"}, "is_reserved": 0}, {"lon": -77.00718066666667, "bike_id": "ad39c8f935e8130a47c84d9ddcd61db0", "lat": 38.898269666666664, "fusion_lon": 0.0, "fusion_lat": 0.0, "type": "electric_scooter", "name": "ad39c8f935e8130a47c84d9ddcd61db0", "is_disabled": 0, "rental_uris": {"ios": "https://dc.lft.to/lastmile_qr_scan", "android": "https://dc.lft.to/lastmile_qr_scan"}, "is_reserved": 0}, {"lon": -77.025929, "bike_id": "df76d0d679d7e1685ecb26eacd15b4c4", "lat": 38.8984405, "fusion_lon": 0.0, "fusion_lat": 0.0, "type": "electric_scooter", "name": "df76d0d679d7e1685ecb26eacd15b4c4", "is_disabled": 0, "rental_uris": {"ios": "https://dc.lft.to/lastmile_qr_scan", "android": "https://dc.lft.to/lastmile_qr_scan"}, "is_reserved": 0}, {"lon": -77.01983483333333, "bike_id": "0dfde355a3b6ec6abb2941898949d8cc", "lat": 38.90187983333333, "fusion_lon": 0.0, "fusion_lat": 0.0, "type": "electric_scooter", "name": "0dfde355a3b6ec6abb2941898949d8cc", "is_disabled": 0, "rental_uris": {"ios": "https://dc.lft.to/lastmile_qr_scan", "android": "https://dc.lft.to/lastmile_qr_scan"}, "is_reserved": 0}, {"lon": -76.98554783333333, "bike_id": "1c6a87767f282ba4315de468df7d60c2", "lat": 38.9102915, "fusion_lon": 0.0, "fusion_lat": 0.0, "type": "electric_scooter", "name": "1c6a87767f282ba4315de468df7d60c2", "is_disabled": 0, "rental_uris": {"ios": "https://dc.lft.to/lastmile_qr_scan", "android": "https://dc.lft.to/lastmile_qr_scan"}, "is_reserved": 0}, {"lon": -77.03369566666667, "bike_id": "a931d30a07143a2727527fbe08bb6996", "lat": 38.909690833333336, "fusion_lon": 0.0, "fusion_lat": 0.0, "type": "electric_scooter", "name": "a931d30a07143a2727527fbe08bb6996", "is_disabled": 0, "rental_uris": {"ios": "https://dc.lft.to/lastmile_qr_scan", "android": "https://dc.lft.to/lastmile_qr_scan"}, "is_reserved": 0}, {"lon": -77.0418165, "bike_id": "00c1b46dbb75cd80f67e81bc1bebd6c7", "lat": 38.91553116666667, "fusion_lon": 0.0, "fusion_lat": 0.0, "type": "electric_scooter", "name": "00c1b46dbb75cd80f67e81bc1bebd6c7", "is_disabled": 0, "rental_uris": {"ios": "https://dc.lft.to/lastmile_qr_scan", "android": "https://dc.lft.to/lastmile_qr_scan"}, "is_reserved": 0}, {"lon": -77.04755483333334, "bike_id": "5845cb854be178699e3c31734526e12d", "lat": 38.92317883333333, "fusion_lon": 0.0, "fusion_lat": 0.0, "type": "electric_scooter", "name": "5845cb854be178699e3c31734526e12d", "is_disabled": 0, "rental_uris": {"ios": "https://dc.lft.to/lastmile_qr_scan", "android": "https://dc.lft.to/lastmile_qr_scan"}, "is_reserved": 0}, {"lon": -76.98245716666666, "bike_id": "81dea8b140e0162860bb2c84cff54240", "lat": 38.864566833333335, "fusion_lon": 0.0, "fusion_lat": 0.0, "type": "electric_scooter", "name": "81dea8b140e0162860bb2c84cff54240", "is_disabled": 0, "rental_uris": {"ios": "https://dc.lft.to/lastmile_qr_scan", "android": "https://dc.lft.to/lastmile_qr_scan"}, "is_reserved": 0}, {"lon": -77.005681, "bike_id": "649ef16a1d25bb59c84c8617aacb54d5", "lat": 38.90032866666667, "fusion_lon": 0.0, "fusion_lat": 0.0, "type": "electric_scooter", "name": "649ef16a1d25bb59c84c8617aacb54d5", "is_disabled": 0, "rental_uris": {"ios": "https://dc.lft.to/lastmile_qr_scan", "android": "https://dc.lft.to/lastmile_qr_scan"}, "is_reserved": 0}, {"lon": -77.0470515, "bike_id": "502a13e93db2468dc88a2da96d1b2cb1", "lat": 38.918926666666664, "fusion_lon": 0.0, "fusion_lat": 0.0, "type": "electric_scooter", "name": "502a13e93db2468dc88a2da96d1b2cb1", "is_disabled": 0, "rental_uris": {"ios": "https://dc.lft.to/lastmile_qr_scan", "android": "https://dc.lft.to/lastmile_qr_scan"}, "is_reserved": 0}, {"lon": -77.02698683333334, "bike_id": "45c84bae1ef616ae8b35d073afdbdcc4", "lat": 38.90938333333333, "fusion_lon": 0.0, "fusion_lat": 0.0, "type": "electric_scooter", "name": "45c84bae1ef616ae8b35d073afdbdcc4", "is_disabled": 0, "rental_uris": {"ios": "https://dc.lft.to/lastmile_qr_scan", "android": "https://dc.lft.to/lastmile_qr_scan"}, "is_reserved": 0}, {"lon": -76.98107483333334, "bike_id": "71faaeaa502798321683c165fa206483", "lat": 38.877272, "fusion_lon": 0.0, "fusion_lat": 0.0, "type": "electric_bike", "name": "71faaeaa502798321683c165fa206483", "is_disabled": 0, "rental_uris": {"ios": "https://dc.lft.to/lastmile_qr_scan", "android": "https://dc.lft.to/lastmile_qr_scan"}, "is_reserved": 0}, {"lon": -77.0018895, "bike_id": "4d6daf7cf7d01fcac0cd99beb8e7f956", "lat": 38.89475366666667, "fusion_lon": 0.0, "fusion_lat": 0.0, "type": "electric_scooter", "name": "4d6daf7cf7d01fcac0cd99beb8e7f956", "is_disabled": 0, "rental_uris": {"ios": "https://dc.lft.to/lastmile_qr_scan", "android": "https://dc.lft.to/lastmile_qr_scan"}, "is_reserved": 0}, {"lon": -77.01987833333334, "bike_id": "0db49c943ebf87ede987c38002b4d90b", "lat": 38.90070883333333, "fusion_lon": 0.0, "fusion_lat": 0.0, "type": "electric_scooter", "name": "0db49c943ebf87ede987c38002b4d90b", "is_disabled": 0, "rental_uris": {"ios": "https://dc.lft.to/lastmile_qr_scan", "android": "https://dc.lft.to/lastmile_qr_scan"}, "is_reserved": 0}, {"lon": -77.02594816666667, "bike_id": "df41f77a2458b42967371e168c4892c4", "lat": 38.9141545, "fusion_lon": 0.0, "fusion_lat": 0.0, "type": "electric_scooter", "name": "df41f77a2458b42967371e168c4892c4", "is_disabled": 0, "rental_uris": {"ios": "https://dc.lft.to/lastmile_qr_scan", "android": "https://dc.lft.to/lastmile_qr_scan"}, "is_reserved": 0}, {"lon": -77.02529066666666, "bike_id": "392f56ca9026529c5df394b7bc42169d", "lat": 38.919843166666666, "fusion_lon": 0.0, "fusion_lat": 0.0, "type": "electric_scooter", "name": "392f56ca9026529c5df394b7bc42169d", "is_disabled": 0, "rental_uris": {"ios": "https://dc.lft.to/lastmile_qr_scan", "android": "https://dc.lft.to/lastmile_qr_scan"}, "is_reserved": 0}, {"lon": -76.9979095, "bike_id": "9e8443d3480148f29cc304bb04c101e0", "lat": 38.890943, "fusion_lon": 0.0, "fusion_lat": 0.0, "type": "electric_scooter", "name": "9e8443d3480148f29cc304bb04c101e0", "is_disabled": 0, "rental_uris": {"ios": "https://dc.lft.to/lastmile_qr_scan", "android": "https://dc.lft.to/lastmile_qr_scan"}, "is_reserved": 0}, {"lon": -77.04259966666666, "bike_id": "63a0d14302116589eeea9d933b1100ba", "lat": 38.909887833333336, "fusion_lon": 0.0, "fusion_lat": 0.0, "type": "electric_scooter", "name": "63a0d14302116589eeea9d933b1100ba", "is_disabled": 0, "rental_uris": {"ios": "https://dc.lft.to/lastmile_qr_scan", "android": "https://dc.lft.to/lastmile_qr_scan"}, "is_reserved": 0}, {"lon": -77.0324355, "bike_id": "9e59c8061c38ae173c087f0fb2ede0d2", "lat": 38.929906, "fusion_lon": 0.0, "fusion_lat": 0.0, "type": "electric_scooter", "name": "9e59c8061c38ae173c087f0fb2ede0d2", "is_disabled": 0, "rental_uris": {"ios": "https://dc.lft.to/lastmile_qr_scan", "android": "https://dc.lft.to/lastmile_qr_scan"}, "is_reserved": 0}, {"lon": -77.06298583333333, "bike_id": "d56d5dc1e4748cf36c0b0026285dd2f1", "lat": 38.90674116666667, "fusion_lon": 0.0, "fusion_lat": 0.0, "type": "electric_scooter", "name": "d56d5dc1e4748cf36c0b0026285dd2f1", "is_disabled": 0, "rental_uris": {"ios": "https://dc.lft.to/lastmile_qr_scan", "android": "https://dc.lft.to/lastmile_qr_scan"}, "is_reserved": 0}, {"lon": -77.01597116666667, "bike_id": "76777b7041dd1cb5bf5f8b20f69e4a47", "lat": 38.949304833333336, "fusion_lon": 0.0, "fusion_lat": 0.0, "type": "electric_scooter", "name": "76777b7041dd1cb5bf5f8b20f69e4a47", "is_disabled": 0, "rental_uris": {"ios": "https://dc.lft.to/lastmile_qr_scan", "android": "https://dc.lft.to/lastmile_qr_scan"}, "is_reserved": 0}, {"lon": -76.97534783333333, "bike_id": "52eb882be8e6ade4b2e6a0daa6c00979", "lat": 38.903286666666666, "fusion_lon": 0.0, "fusion_lat": 0.0, "type": "electric_bike", "name": "52eb882be8e6ade4b2e6a0daa6c00979", "is_disabled": 0, "rental_uris": {"ios": "https://dc.lft.to/lastmile_qr_scan", "android": "https://dc.lft.to/lastmile_qr_scan"}, "is_reserved": 0}, {"lon": -77.0294265, "bike_id": "d791680864d65c364259a15b91e666d8", "lat": 38.89366883333334, "fusion_lon": 0.0, "fusion_lat": 0.0, "type": "electric_scooter", "name": "d791680864d65c364259a15b91e666d8", "is_disabled": 0, "rental_uris": {"ios": "https://dc.lft.to/lastmile_qr_scan", "android": "https://dc.lft.to/lastmile_qr_scan"}, "is_reserved": 0}, {"lon": -76.98569066666667, "bike_id": "f860e6953790e4898a6cac52a10578a0", "lat": 38.900116, "fusion_lon": 0.0, "fusion_lat": 0.0, "type": "electric_scooter", "name": "f860e6953790e4898a6cac52a10578a0", "is_disabled": 0, "rental_uris": {"ios": "https://dc.lft.to/lastmile_qr_scan", "android": "https://dc.lft.to/lastmile_qr_scan"}, "is_reserved": 0}, {"lon": -77.06074316666667, "bike_id": "1380c898641b7f9f4e9b7a60a7445129", "lat": 38.905294166666664, "fusion_lon": 0.0, "fusion_lat": 0.0, "type": "electric_scooter", "name": "1380c898641b7f9f4e9b7a60a7445129", "is_disabled": 0, "rental_uris": {"ios": "https://dc.lft.to/lastmile_qr_scan", "android": "https://dc.lft.to/lastmile_qr_scan"}, "is_reserved": 0}, {"lon": -77.03262866666667, "bike_id": "8e9a4e65fe977a6f2c4055549bc76d40", "lat": 38.92905, "fusion_lon": 0.0, "fusion_lat": 0.0, "type": "electric_scooter", "name": "8e9a4e65fe977a6f2c4055549bc76d40", "is_disabled": 0, "rental_uris": {"ios": "https://dc.lft.to/lastmile_qr_scan", "android": "https://dc.lft.to/lastmile_qr_scan"}, "is_reserved": 0}, {"lon": -77.02183216666667, "bike_id": "29a284da68fd5fcab611cecfbf1388c7", "lat": 38.90114633333334, "fusion_lon": 0.0, "fusion_lat": 0.0, "type": "electric_scooter", "name": "29a284da68fd5fcab611cecfbf1388c7", "is_disabled": 0, "rental_uris": {"ios": "https://dc.lft.to/lastmile_qr_scan", "android": "https://dc.lft.to/lastmile_qr_scan"}, "is_reserved": 0}, {"lon": -77.037559, "bike_id": "0a0ab07e07488018919dc88138bfa3fb", "lat": 38.92224266666667, "fusion_lon": 0.0, "fusion_lat": 0.0, "type": "electric_scooter", "name": "0a0ab07e07488018919dc88138bfa3fb", "is_disabled": 0, "rental_uris": {"ios": "https://dc.lft.to/lastmile_qr_scan", "android": "https://dc.lft.to/lastmile_qr_scan"}, "is_reserved": 0}, {"lon": -77.02552583333333, "bike_id": "50de86903d7997df7be0aa67a916da71", "lat": 38.91409933333333, "fusion_lon": 0.0, "fusion_lat": 0.0, "type": "electric_scooter", "name": "50de86903d7997df7be0aa67a916da71", "is_disabled": 0, "rental_uris": {"ios": "https://dc.lft.to/lastmile_qr_scan", "android": "https://dc.lft.to/lastmile_qr_scan"}, "is_reserved": 0}, {"lon": -77.0296505, "bike_id": "d97f3f15a46b55f7988e729ae40adc65", "lat": 38.916811333333335, "fusion_lon": 0.0, "fusion_lat": 0.0, "type": "electric_scooter", "name": "d97f3f15a46b55f7988e729ae40adc65", "is_disabled": 0, "rental_uris": {"ios": "https://dc.lft.to/lastmile_qr_scan", "android": "https://dc.lft.to/lastmile_qr_scan"}, "is_reserved": 0}, {"lon": -76.98276966666667, "bike_id": "ba806081cf577c3b909fc38be5daea2f", "lat": 38.88523133333333, "fusion_lon": 0.0, "fusion_lat": 0.0, "type": "electric_scooter", "name": "ba806081cf577c3b909fc38be5daea2f", "is_disabled": 0, "rental_uris": {"ios": "https://dc.lft.to/lastmile_qr_scan", "android": "https://dc.lft.to/lastmile_qr_scan"}, "is_reserved": 0}, {"lon": -77.05885616666667, "bike_id": "47049433d2054db6b571adf3e70d07fd", "lat": 38.9363845, "fusion_lon": 0.0, "fusion_lat": 0.0, "type": "electric_scooter", "name": "47049433d2054db6b571adf3e70d07fd", "is_disabled": 0, "rental_uris": {"ios": "https://dc.lft.to/lastmile_qr_scan", "android": "https://dc.lft.to/lastmile_qr_scan"}, "is_reserved": 0}, {"lon": -77.03259783333333, "bike_id": "31bbd5a0d9693975743d3a39683dfcbe", "lat": 38.939682833333336, "fusion_lon": 0.0, "fusion_lat": 0.0, "type": "electric_scooter", "name": "31bbd5a0d9693975743d3a39683dfcbe", "is_disabled": 0, "rental_uris": {"ios": "https://dc.lft.to/lastmile_qr_scan", "android": "https://dc.lft.to/lastmile_qr_scan"}, "is_reserved": 0}, {"lon": -76.99841166666667, "bike_id": "6dd3baf7b7555c6c4d871eb14d1b7c46", "lat": 38.89084866666666, "fusion_lon": 0.0, "fusion_lat": 0.0, "type": "electric_scooter", "name": "6dd3baf7b7555c6c4d871eb14d1b7c46", "is_disabled": 0, "rental_uris": {"ios": "https://dc.lft.to/lastmile_qr_scan", "android": "https://dc.lft.to/lastmile_qr_scan"}, "is_reserved": 0}, {"lon": -76.98086166666667, "bike_id": "b295cdef53b098ac2ac71d3dd5012150", "lat": 38.90387116666667, "fusion_lon": 0.0, "fusion_lat": 0.0, "type": "electric_scooter", "name": "b295cdef53b098ac2ac71d3dd5012150", "is_disabled": 0, "rental_uris": {"ios": "https://dc.lft.to/lastmile_qr_scan", "android": "https://dc.lft.to/lastmile_qr_scan"}, "is_reserved": 0}, {"lon": -76.99782, "bike_id": "29ef922dd054be0b1a2c44fdcf863caf", "lat": 38.844266166666664, "fusion_lon": 0.0, "fusion_lat": 0.0, "type": "electric_scooter", "name": "29ef922dd054be0b1a2c44fdcf863caf", "is_disabled": 0, "rental_uris": {"ios": "https://dc.lft.to/lastmile_qr_scan", "android": "https://dc.lft.to/lastmile_qr_scan"}, "is_reserved": 0}, {"lon": -77.02211066666666, "bike_id": "6a2bd91dfd5b19f1b6026b8feaf7d8f1", "lat": 38.9054485, "fusion_lon": 0.0, "fusion_lat": 0.0, "type": "electric_scooter", "name": "6a2bd91dfd5b19f1b6026b8feaf7d8f1", "is_disabled": 0, "rental_uris": {"ios": "https://dc.lft.to/lastmile_qr_scan", "android": "https://dc.lft.to/lastmile_qr_scan"}, "is_reserved": 0}, {"lon": -77.03164116666666, "bike_id": "26243ae5bd4199cd95e6042e00d33947", "lat": 38.915645166666664, "fusion_lon": 0.0, "fusion_lat": 0.0, "type": "electric_scooter", "name": "26243ae5bd4199cd95e6042e00d33947", "is_disabled": 0, "rental_uris": {"ios": "https://dc.lft.to/lastmile_qr_scan", "android": "https://dc.lft.to/lastmile_qr_scan"}, "is_reserved": 0}, {"lon": -77.0269825, "bike_id": "85a9ccd5a6edfe3c671b8996b65a3234", "lat": 38.908402833333334, "fusion_lon": 0.0, "fusion_lat": 0.0, "type": "electric_scooter", "name": "85a9ccd5a6edfe3c671b8996b65a3234", "is_disabled": 0, "rental_uris": {"ios": "https://dc.lft.to/lastmile_qr_scan", "android": "https://dc.lft.to/lastmile_qr_scan"}, "is_reserved": 0}, {"lon": -77.0273205, "bike_id": "c71a06ebd6e9783afd2607020fb3cb3c", "lat": 38.8957385, "fusion_lon": 0.0, "fusion_lat": 0.0, "type": "electric_scooter", "name": "c71a06ebd6e9783afd2607020fb3cb3c", "is_disabled": 0, "rental_uris": {"ios": "https://dc.lft.to/lastmile_qr_scan", "android": "https://dc.lft.to/lastmile_qr_scan"}, "is_reserved": 0}, {"lon": -77.04652333333334, "bike_id": "7c78c4210a3b2e5f4511ead3625a6ed3", "lat": 38.91574266666667, "fusion_lon": 0.0, "fusion_lat": 0.0, "type": "electric_scooter", "name": "7c78c4210a3b2e5f4511ead3625a6ed3", "is_disabled": 0, "rental_uris": {"ios": "https://dc.lft.to/lastmile_qr_scan", "android": "https://dc.lft.to/lastmile_qr_scan"}, "is_reserved": 0}, {"lon": -77.0199845, "bike_id": "5d7d3e892facd57c814ab4b113bfd4c5", "lat": 38.909561, "fusion_lon": 0.0, "fusion_lat": 0.0, "type": "electric_scooter", "name": "5d7d3e892facd57c814ab4b113bfd4c5", "is_disabled": 0, "rental_uris": {"ios": "https://dc.lft.to/lastmile_qr_scan", "android": "https://dc.lft.to/lastmile_qr_scan"}, "is_reserved": 0}, {"lon": -77.02671516666666, "bike_id": "d32bed3df7788befc7db0d0ea3c362e1", "lat": 38.918131, "fusion_lon": 0.0, "fusion_lat": 0.0, "type": "electric_scooter", "name": "d32bed3df7788befc7db0d0ea3c362e1", "is_disabled": 0, "rental_uris": {"ios": "https://dc.lft.to/lastmile_qr_scan", "android": "https://dc.lft.to/lastmile_qr_scan"}, "is_reserved": 0}, {"lon": -77.04470533333334, "bike_id": "bcb684cfd0b59321b1e85d662cb681ca", "lat": 38.90815116666667, "fusion_lon": 0.0, "fusion_lat": 0.0, "type": "electric_scooter", "name": "bcb684cfd0b59321b1e85d662cb681ca", "is_disabled": 0, "rental_uris": {"ios": "https://dc.lft.to/lastmile_qr_scan", "android": "https://dc.lft.to/lastmile_qr_scan"}, "is_reserved": 0}, {"lon": -77.0239805, "bike_id": "638870cabeaaaa34e29ef56e816424a8", "lat": 38.907067166666664, "fusion_lon": 0.0, "fusion_lat": 0.0, "type": "electric_scooter", "name": "638870cabeaaaa34e29ef56e816424a8", "is_disabled": 0, "rental_uris": {"ios": "https://dc.lft.to/lastmile_qr_scan", "android": "https://dc.lft.to/lastmile_qr_scan"}, "is_reserved": 0}, {"lon": -76.91970883333333, "bike_id": "1dac94cafe44b4fca35398dbba135c1e", "lat": 38.90028233333334, "fusion_lon": 0.0, "fusion_lat": 0.0, "type": "electric_scooter", "name": "1dac94cafe44b4fca35398dbba135c1e", "is_disabled": 0, "rental_uris": {"ios": "https://dc.lft.to/lastmile_qr_scan", "android": "https://dc.lft.to/lastmile_qr_scan"}, "is_reserved": 0}, {"lon": -77.039073, "bike_id": "ba69f93c601627983579c121355a0f64", "lat": 38.92418983333334, "fusion_lon": 0.0, "fusion_lat": 0.0, "type": "electric_scooter", "name": "ba69f93c601627983579c121355a0f64", "is_disabled": 0, "rental_uris": {"ios": "https://dc.lft.to/lastmile_qr_scan", "android": "https://dc.lft.to/lastmile_qr_scan"}, "is_reserved": 0}, {"lon": -77.02827783333333, "bike_id": "9b926ca9dc3d9486a956b011ac0bcb82", "lat": 38.898276833333334, "fusion_lon": 0.0, "fusion_lat": 0.0, "type": "electric_scooter", "name": "9b926ca9dc3d9486a956b011ac0bcb82", "is_disabled": 0, "rental_uris": {"ios": "https://dc.lft.to/lastmile_qr_scan", "android": "https://dc.lft.to/lastmile_qr_scan"}, "is_reserved": 0}, {"lon": -77.04908116666667, "bike_id": "c6a0763f8e9e1bc8977821c5202ae949", "lat": 38.888374, "fusion_lon": 0.0, "fusion_lat": 0.0, "type": "electric_scooter", "name": "c6a0763f8e9e1bc8977821c5202ae949", "is_disabled": 0, "rental_uris": {"ios": "https://dc.lft.to/lastmile_qr_scan", "android": "https://dc.lft.to/lastmile_qr_scan"}, "is_reserved": 0}, {"lon": -77.04656766666666, "bike_id": "b7822cac95f06d3732cf28aa36827b57", "lat": 38.89227433333333, "fusion_lon": 0.0, "fusion_lat": 0.0, "type": "electric_scooter", "name": "b7822cac95f06d3732cf28aa36827b57", "is_disabled": 0, "rental_uris": {"ios": "https://dc.lft.to/lastmile_qr_scan", "android": "https://dc.lft.to/lastmile_qr_scan"}, "is_reserved": 0}, {"lon": -77.027948, "bike_id": "876c90f2a01edb40e146e6533ba839cc", "lat": 38.91220583333333, "fusion_lon": 0.0, "fusion_lat": 0.0, "type": "electric_scooter", "name": "876c90f2a01edb40e146e6533ba839cc", "is_disabled": 0, "rental_uris": {"ios": "https://dc.lft.to/lastmile_qr_scan", "android": "https://dc.lft.to/lastmile_qr_scan"}, "is_reserved": 0}, {"lon": -76.99682416666667, "bike_id": "91623dd6191f78eb25b503ee26e34b2c", "lat": 38.8811805, "fusion_lon": 0.0, "fusion_lat": 0.0, "type": "electric_scooter", "name": "91623dd6191f78eb25b503ee26e34b2c", "is_disabled": 0, "rental_uris": {"ios": "https://dc.lft.to/lastmile_qr_scan", "android": "https://dc.lft.to/lastmile_qr_scan"}, "is_reserved": 0}, {"lon": -77.03478483333333, "bike_id": "a3bcc60c2286102d1fb13611ea0c214b", "lat": 38.9065735, "fusion_lon": 0.0, "fusion_lat": 0.0, "type": "electric_scooter", "name": "a3bcc60c2286102d1fb13611ea0c214b", "is_disabled": 0, "rental_uris": {"ios": "https://dc.lft.to/lastmile_qr_scan", "android": "https://dc.lft.to/lastmile_qr_scan"}, "is_reserved": 0}, {"lon": -77.03772983333333, "bike_id": "0914b30ea3d01092b7cb2388ad158d96", "lat": 38.9168535, "fusion_lon": 0.0, "fusion_lat": 0.0, "type": "electric_scooter", "name": "0914b30ea3d01092b7cb2388ad158d96", "is_disabled": 0, "rental_uris": {"ios": "https://dc.lft.to/lastmile_qr_scan", "android": "https://dc.lft.to/lastmile_qr_scan"}, "is_reserved": 0}, {"lon": -77.03205866666667, "bike_id": "913b413144d650f0974f17ef57c16b3d", "lat": 38.90939233333334, "fusion_lon": 0.0, "fusion_lat": 0.0, "type": "electric_scooter", "name": "913b413144d650f0974f17ef57c16b3d", "is_disabled": 0, "rental_uris": {"ios": "https://dc.lft.to/lastmile_qr_scan", "android": "https://dc.lft.to/lastmile_qr_scan"}, "is_reserved": 0}, {"lon": -77.02638866666666, "bike_id": "a5bba33f1d098706d6effe4b4a988016", "lat": 38.90240466666667, "fusion_lon": 0.0, "fusion_lat": 0.0, "type": "electric_scooter", "name": "a5bba33f1d098706d6effe4b4a988016", "is_disabled": 0, "rental_uris": {"ios": "https://dc.lft.to/lastmile_qr_scan", "android": "https://dc.lft.to/lastmile_qr_scan"}, "is_reserved": 0}, {"lon": -77.0074955, "bike_id": "b29810703dec54e7350d937b587a0a44", "lat": 38.903612, "fusion_lon": 0.0, "fusion_lat": 0.0, "type": "electric_scooter", "name": "b29810703dec54e7350d937b587a0a44", "is_disabled": 0, "rental_uris": {"ios": "https://dc.lft.to/lastmile_qr_scan", "android": "https://dc.lft.to/lastmile_qr_scan"}, "is_reserved": 0}, {"lon": -77.03480116666667, "bike_id": "5cbb1c39a2b726f7c5656891633cf478", "lat": 38.90566416666667, "fusion_lon": 0.0, "fusion_lat": 0.0, "type": "electric_scooter", "name": "5cbb1c39a2b726f7c5656891633cf478", "is_disabled": 0, "rental_uris": {"ios": "https://dc.lft.to/lastmile_qr_scan", "android": "https://dc.lft.to/lastmile_qr_scan"}, "is_reserved": 0}, {"lon": -76.93761716666667, "bike_id": "fb92f2e91cfc299fdfb0ff7b47e8141d", "lat": 38.890450666666666, "fusion_lon": 0.0, "fusion_lat": 0.0, "type": "electric_scooter", "name": "fb92f2e91cfc299fdfb0ff7b47e8141d", "is_disabled": 0, "rental_uris": {"ios": "https://dc.lft.to/lastmile_qr_scan", "android": "https://dc.lft.to/lastmile_qr_scan"}, "is_reserved": 0}, {"lon": -77.02422866666667, "bike_id": "0008f2c7f330d4aa7495d2e8c0409615", "lat": 38.9222955, "fusion_lon": 0.0, "fusion_lat": 0.0, "type": "electric_bike", "name": "0008f2c7f330d4aa7495d2e8c0409615", "is_disabled": 0, "rental_uris": {"ios": "https://dc.lft.to/lastmile_qr_scan", "android": "https://dc.lft.to/lastmile_qr_scan"}, "is_reserved": 0}, {"lon": -77.04397816666666, "bike_id": "cd03265518bff3df66f1646db1f78827", "lat": 38.92279666666667, "fusion_lon": 0.0, "fusion_lat": 0.0, "type": "electric_scooter", "name": "cd03265518bff3df66f1646db1f78827", "is_disabled": 0, "rental_uris": {"ios": "https://dc.lft.to/lastmile_qr_scan", "android": "https://dc.lft.to/lastmile_qr_scan"}, "is_reserved": 0}, {"lon": -77.00931733333333, "bike_id": "8baf2aa19d0ef527069358c158378df9", "lat": 38.91803, "fusion_lon": 0.0, "fusion_lat": 0.0, "type": "electric_scooter", "name": "8baf2aa19d0ef527069358c158378df9", "is_disabled": 0, "rental_uris": {"ios": "https://dc.lft.to/lastmile_qr_scan", "android": "https://dc.lft.to/lastmile_qr_scan"}, "is_reserved": 0}, {"lon": -76.99558483333334, "bike_id": "b0299807381e15290405d3e91863c454", "lat": 38.86220333333333, "fusion_lon": 0.0, "fusion_lat": 0.0, "type": "electric_scooter", "name": "b0299807381e15290405d3e91863c454", "is_disabled": 0, "rental_uris": {"ios": "https://dc.lft.to/lastmile_qr_scan", "android": "https://dc.lft.to/lastmile_qr_scan"}, "is_reserved": 0}, {"lon": -76.9978535, "bike_id": "051578be01d03886f18fc45c2c86357c", "lat": 38.91057633333333, "fusion_lon": 0.0, "fusion_lat": 0.0, "type": "electric_scooter", "name": "051578be01d03886f18fc45c2c86357c", "is_disabled": 0, "rental_uris": {"ios": "https://dc.lft.to/lastmile_qr_scan", "android": "https://dc.lft.to/lastmile_qr_scan"}, "is_reserved": 0}, {"lon": -77.05347783333333, "bike_id": "cd57ef12600afad755867de48b9a0fe2", "lat": 38.9270155, "fusion_lon": 0.0, "fusion_lat": 0.0, "type": "electric_scooter", "name": "cd57ef12600afad755867de48b9a0fe2", "is_disabled": 0, "rental_uris": {"ios": "https://dc.lft.to/lastmile_qr_scan", "android": "https://dc.lft.to/lastmile_qr_scan"}, "is_reserved": 0}, {"lon": -77.007301, "bike_id": "32a8f254af1e8e845159d33e772b44a8", "lat": 38.8849275, "fusion_lon": 0.0, "fusion_lat": 0.0, "type": "electric_scooter", "name": "32a8f254af1e8e845159d33e772b44a8", "is_disabled": 0, "rental_uris": {"ios": "https://dc.lft.to/lastmile_qr_scan", "android": "https://dc.lft.to/lastmile_qr_scan"}, "is_reserved": 0}, {"lon": -76.92919966666666, "bike_id": "992e4d9bacd8c41d85fa50e089f92106", "lat": 38.892952666666666, "fusion_lon": 0.0, "fusion_lat": 0.0, "type": "electric_scooter", "name": "992e4d9bacd8c41d85fa50e089f92106", "is_disabled": 0, "rental_uris": {"ios": "https://dc.lft.to/lastmile_qr_scan", "android": "https://dc.lft.to/lastmile_qr_scan"}, "is_reserved": 0}, {"lon": -77.02298483333334, "bike_id": "d0cb3998777ee25c934f0fd69235c5fa", "lat": 38.92324833333333, "fusion_lon": 0.0, "fusion_lat": 0.0, "type": "electric_bike", "name": "d0cb3998777ee25c934f0fd69235c5fa", "is_disabled": 0, "rental_uris": {"ios": "https://dc.lft.to/lastmile_qr_scan", "android": "https://dc.lft.to/lastmile_qr_scan"}, "is_reserved": 0}, {"lon": -77.03638716666667, "bike_id": "0755dd70b850b8217e135b5d457d1f38", "lat": 38.903705333333335, "fusion_lon": 0.0, "fusion_lat": 0.0, "type": "electric_scooter", "name": "0755dd70b850b8217e135b5d457d1f38", "is_disabled": 0, "rental_uris": {"ios": "https://dc.lft.to/lastmile_qr_scan", "android": "https://dc.lft.to/lastmile_qr_scan"}, "is_reserved": 0}, {"lon": -77.03892633333334, "bike_id": "29ea4bd65fc6624242a74c1b692891bd", "lat": 38.92283116666667, "fusion_lon": 0.0, "fusion_lat": 0.0, "type": "electric_scooter", "name": "29ea4bd65fc6624242a74c1b692891bd", "is_disabled": 0, "rental_uris": {"ios": "https://dc.lft.to/lastmile_qr_scan", "android": "https://dc.lft.to/lastmile_qr_scan"}, "is_reserved": 0}, {"lon": -77.01197633333334, "bike_id": "53de493f707f6387f11dd86f47a62474", "lat": 38.89315033333333, "fusion_lon": 0.0, "fusion_lat": 0.0, "type": "electric_scooter", "name": "53de493f707f6387f11dd86f47a62474", "is_disabled": 0, "rental_uris": {"ios": "https://dc.lft.to/lastmile_qr_scan", "android": "https://dc.lft.to/lastmile_qr_scan"}, "is_reserved": 0}, {"lon": -77.077928, "bike_id": "08a2ca89fddbbec93b81737bbf5a1797", "lat": 38.9960415, "fusion_lon": 0.0, "fusion_lat": 0.0, "type": "electric_bike", "name": "08a2ca89fddbbec93b81737bbf5a1797", "is_disabled": 0, "rental_uris": {"ios": "https://dc.lft.to/lastmile_qr_scan", "android": "https://dc.lft.to/lastmile_qr_scan"}, "is_reserved": 0}, {"lon": -77.02940916666667, "bike_id": "951b660a1464aa20b0ef562d0f9c0d1a", "lat": 38.89987566666667, "fusion_lon": 0.0, "fusion_lat": 0.0, "type": "electric_scooter", "name": "951b660a1464aa20b0ef562d0f9c0d1a", "is_disabled": 0, "rental_uris": {"ios": "https://dc.lft.to/lastmile_qr_scan", "android": "https://dc.lft.to/lastmile_qr_scan"}, "is_reserved": 0}, {"lon": -77.04487333333333, "bike_id": "5acf6dbbecb2015186ec1396af0988bb", "lat": 38.92403516666667, "fusion_lon": 0.0, "fusion_lat": 0.0, "type": "electric_scooter", "name": "5acf6dbbecb2015186ec1396af0988bb", "is_disabled": 0, "rental_uris": {"ios": "https://dc.lft.to/lastmile_qr_scan", "android": "https://dc.lft.to/lastmile_qr_scan"}, "is_reserved": 0}, {"lon": -77.0123975, "bike_id": "2eb2304dbfc8e1741170a58c3c9cbb6d", "lat": 38.830466, "fusion_lon": 0.0, "fusion_lat": 0.0, "type": "electric_scooter", "name": "2eb2304dbfc8e1741170a58c3c9cbb6d", "is_disabled": 0, "rental_uris": {"ios": "https://dc.lft.to/lastmile_qr_scan", "android": "https://dc.lft.to/lastmile_qr_scan"}, "is_reserved": 0}, {"lon": -77.04606216666667, "bike_id": "f4284a9ec7cf6694078a8166ab98f029", "lat": 38.91605233333333, "fusion_lon": 0.0, "fusion_lat": 0.0, "type": "electric_scooter", "name": "f4284a9ec7cf6694078a8166ab98f029", "is_disabled": 0, "rental_uris": {"ios": "https://dc.lft.to/lastmile_qr_scan", "android": "https://dc.lft.to/lastmile_qr_scan"}, "is_reserved": 0}, {"lon": -77.03470583333333, "bike_id": "dbe536bfa7d6019ed301526518b68489", "lat": 38.92067616666667, "fusion_lon": 0.0, "fusion_lat": 0.0, "type": "electric_scooter", "name": "dbe536bfa7d6019ed301526518b68489", "is_disabled": 0, "rental_uris": {"ios": "https://dc.lft.to/lastmile_qr_scan", "android": "https://dc.lft.to/lastmile_qr_scan"}, "is_reserved": 0}, {"lon": -77.01957783333333, "bike_id": "7fb0de07731b46d183bae1d376c4727a", "lat": 38.92410616666667, "fusion_lon": 0.0, "fusion_lat": 0.0, "type": "electric_scooter", "name": "7fb0de07731b46d183bae1d376c4727a", "is_disabled": 0, "rental_uris": {"ios": "https://dc.lft.to/lastmile_qr_scan", "android": "https://dc.lft.to/lastmile_qr_scan"}, "is_reserved": 0}, {"lon": -77.04460416666667, "bike_id": "15dc651b2583e074bad89e228bd0f6db", "lat": 38.9153955, "fusion_lon": 0.0, "fusion_lat": 0.0, "type": "electric_scooter", "name": "15dc651b2583e074bad89e228bd0f6db", "is_disabled": 0, "rental_uris": {"ios": "https://dc.lft.to/lastmile_qr_scan", "android": "https://dc.lft.to/lastmile_qr_scan"}, "is_reserved": 0}, {"lon": -77.00352516666666, "bike_id": "185bb58787046f9502a4d4800abd7f63", "lat": 38.89890466666667, "fusion_lon": 0.0, "fusion_lat": 0.0, "type": "electric_scooter", "name": "185bb58787046f9502a4d4800abd7f63", "is_disabled": 0, "rental_uris": {"ios": "https://dc.lft.to/lastmile_qr_scan", "android": "https://dc.lft.to/lastmile_qr_scan"}, "is_reserved": 0}, {"lon": -77.03189716666667, "bike_id": "12fed42ded14fc21ed46ae4d66e0e3a1", "lat": 38.9091945, "fusion_lon": 0.0, "fusion_lat": 0.0, "type": "electric_scooter", "name": "12fed42ded14fc21ed46ae4d66e0e3a1", "is_disabled": 0, "rental_uris": {"ios": "https://dc.lft.to/lastmile_qr_scan", "android": "https://dc.lft.to/lastmile_qr_scan"}, "is_reserved": 0}, {"lon": -77.010513, "bike_id": "19d047214dbcd2f0fc645edb7c544dd5", "lat": 38.877633833333334, "fusion_lon": 0.0, "fusion_lat": 0.0, "type": "electric_bike", "name": "19d047214dbcd2f0fc645edb7c544dd5", "is_disabled": 0, "rental_uris": {"ios": "https://dc.lft.to/lastmile_qr_scan", "android": "https://dc.lft.to/lastmile_qr_scan"}, "is_reserved": 0}, {"lon": -76.98862916666667, "bike_id": "f7e49e51c3f03065a0320a968132b1bd", "lat": 38.95482483333333, "fusion_lon": 0.0, "fusion_lat": 0.0, "type": "electric_bike", "name": "f7e49e51c3f03065a0320a968132b1bd", "is_disabled": 0, "rental_uris": {"ios": "https://dc.lft.to/lastmile_qr_scan", "android": "https://dc.lft.to/lastmile_qr_scan"}, "is_reserved": 0}, {"lon": -76.99606616666667, "bike_id": "a5db13ddef6e204eb3228445099f91aa", "lat": 38.9096485, "fusion_lon": 0.0, "fusion_lat": 0.0, "type": "electric_scooter", "name": "a5db13ddef6e204eb3228445099f91aa", "is_disabled": 0, "rental_uris": {"ios": "https://dc.lft.to/lastmile_qr_scan", "android": "https://dc.lft.to/lastmile_qr_scan"}, "is_reserved": 0}, {"lon": -77.04243933333333, "bike_id": "b3525a0f23df75d8886d8f0ec5bfc760", "lat": 38.91056433333333, "fusion_lon": 0.0, "fusion_lat": 0.0, "type": "electric_scooter", "name": "b3525a0f23df75d8886d8f0ec5bfc760", "is_disabled": 0, "rental_uris": {"ios": "https://dc.lft.to/lastmile_qr_scan", "android": "https://dc.lft.to/lastmile_qr_scan"}, "is_reserved": 0}, {"lon": -77.02495833333333, "bike_id": "4a39889d16d4049c525748b11c7ada68", "lat": 38.918028, "fusion_lon": 0.0, "fusion_lat": 0.0, "type": "electric_scooter", "name": "4a39889d16d4049c525748b11c7ada68", "is_disabled": 0, "rental_uris": {"ios": "https://dc.lft.to/lastmile_qr_scan", "android": "https://dc.lft.to/lastmile_qr_scan"}, "is_reserved": 0}, {"lon": -77.04935733333333, "bike_id": "eb5a7adde997deb5fd164e885509d0f3", "lat": 38.91828016666667, "fusion_lon": 0.0, "fusion_lat": 0.0, "type": "electric_scooter", "name": "eb5a7adde997deb5fd164e885509d0f3", "is_disabled": 0, "rental_uris": {"ios": "https://dc.lft.to/lastmile_qr_scan", "android": "https://dc.lft.to/lastmile_qr_scan"}, "is_reserved": 0}, {"lon": -77.005074, "bike_id": "9d5bab1716f36fd7905de17fdd5ac1a2", "lat": 38.91693883333333, "fusion_lon": 0.0, "fusion_lat": 0.0, "type": "electric_scooter", "name": "9d5bab1716f36fd7905de17fdd5ac1a2", "is_disabled": 0, "rental_uris": {"ios": "https://dc.lft.to/lastmile_qr_scan", "android": "https://dc.lft.to/lastmile_qr_scan"}, "is_reserved": 0}, {"lon": -77.03337483333334, "bike_id": "d60a9fc20d49c2a1d1a3aca3c4739a58", "lat": 38.93642833333333, "fusion_lon": 0.0, "fusion_lat": 0.0, "type": "electric_scooter", "name": "d60a9fc20d49c2a1d1a3aca3c4739a58", "is_disabled": 0, "rental_uris": {"ios": "https://dc.lft.to/lastmile_qr_scan", "android": "https://dc.lft.to/lastmile_qr_scan"}, "is_reserved": 0}, {"lon": -76.960605, "bike_id": "f357ce403f56770ba261df2b718982c4", "lat": 38.88401733333333, "fusion_lon": 0.0, "fusion_lat": 0.0, "type": "electric_bike", "name": "f357ce403f56770ba261df2b718982c4", "is_disabled": 0, "rental_uris": {"ios": "https://dc.lft.to/lastmile_qr_scan", "android": "https://dc.lft.to/lastmile_qr_scan"}, "is_reserved": 0}, {"lon": -77.04399283333333, "bike_id": "a38d3229e8f94afc77f3d9461e64ecee", "lat": 38.90914266666667, "fusion_lon": 0.0, "fusion_lat": 0.0, "type": "electric_scooter", "name": "a38d3229e8f94afc77f3d9461e64ecee", "is_disabled": 0, "rental_uris": {"ios": "https://dc.lft.to/lastmile_qr_scan", "android": "https://dc.lft.to/lastmile_qr_scan"}, "is_reserved": 0}, {"lon": -76.9872585, "bike_id": "4391ba48a5a1cc8279ba96098257a610", "lat": 38.86708766666667, "fusion_lon": 0.0, "fusion_lat": 0.0, "type": "electric_scooter", "name": "4391ba48a5a1cc8279ba96098257a610", "is_disabled": 0, "rental_uris": {"ios": "https://dc.lft.to/lastmile_qr_scan", "android": "https://dc.lft.to/lastmile_qr_scan"}, "is_reserved": 0}, {"lon": -76.99476683333333, "bike_id": "d624c029ef11573fa60f821417253b79", "lat": 38.8621175, "fusion_lon": 0.0, "fusion_lat": 0.0, "type": "electric_scooter", "name": "d624c029ef11573fa60f821417253b79", "is_disabled": 0, "rental_uris": {"ios": "https://dc.lft.to/lastmile_qr_scan", "android": "https://dc.lft.to/lastmile_qr_scan"}, "is_reserved": 0}, {"lon": -76.94888033333334, "bike_id": "dd49b467206fbee76c3e7b1a4225c14f", "lat": 38.89506933333333, "fusion_lon": 0.0, "fusion_lat": 0.0, "type": "electric_scooter", "name": "dd49b467206fbee76c3e7b1a4225c14f", "is_disabled": 0, "rental_uris": {"ios": "https://dc.lft.to/lastmile_qr_scan", "android": "https://dc.lft.to/lastmile_qr_scan"}, "is_reserved": 0}, {"lon": -76.99335716666667, "bike_id": "5378dea39a6a6d5eab4cddf612d176fd", "lat": 38.87143416666667, "fusion_lon": 0.0, "fusion_lat": 0.0, "type": "electric_scooter", "name": "5378dea39a6a6d5eab4cddf612d176fd", "is_disabled": 0, "rental_uris": {"ios": "https://dc.lft.to/lastmile_qr_scan", "android": "https://dc.lft.to/lastmile_qr_scan"}, "is_reserved": 0}, {"lon": -77.0324065, "bike_id": "3ad7d5b4eb823faa0a98eecc415e3f4c", "lat": 38.925817333333335, "fusion_lon": 0.0, "fusion_lat": 0.0, "type": "electric_scooter", "name": "3ad7d5b4eb823faa0a98eecc415e3f4c", "is_disabled": 0, "rental_uris": {"ios": "https://dc.lft.to/lastmile_qr_scan", "android": "https://dc.lft.to/lastmile_qr_scan"}, "is_reserved": 0}, {"lon": -76.937735, "bike_id": "7f3e36fd9ff149f2fe97ff59bf5eee36", "lat": 38.899585, "fusion_lon": 0.0, "fusion_lat": 0.0, "type": "electric_scooter", "name": "7f3e36fd9ff149f2fe97ff59bf5eee36", "is_disabled": 0, "rental_uris": {"ios": "https://dc.lft.to/lastmile_qr_scan", "android": "https://dc.lft.to/lastmile_qr_scan"}, "is_reserved": 0}, {"lon": -77.022925, "bike_id": "e8b85a5c9b3a94b905817cb1a8682725", "lat": 38.90899116666667, "fusion_lon": 0.0, "fusion_lat": 0.0, "type": "electric_scooter", "name": "e8b85a5c9b3a94b905817cb1a8682725", "is_disabled": 0, "rental_uris": {"ios": "https://dc.lft.to/lastmile_qr_scan", "android": "https://dc.lft.to/lastmile_qr_scan"}, "is_reserved": 0}, {"lon": -77.04597866666667, "bike_id": "3d8dcb0210a844a20530a26afaa7fea7", "lat": 38.89611, "fusion_lon": 0.0, "fusion_lat": 0.0, "type": "electric_scooter", "name": "3d8dcb0210a844a20530a26afaa7fea7", "is_disabled": 0, "rental_uris": {"ios": "https://dc.lft.to/lastmile_qr_scan", "android": "https://dc.lft.to/lastmile_qr_scan"}, "is_reserved": 0}, {"lon": -77.03537816666666, "bike_id": "46cbd76785d7e4d6b953a8e9c70c52c0", "lat": 38.918324166666665, "fusion_lon": 0.0, "fusion_lat": 0.0, "type": "electric_scooter", "name": "46cbd76785d7e4d6b953a8e9c70c52c0", "is_disabled": 0, "rental_uris": {"ios": "https://dc.lft.to/lastmile_qr_scan", "android": "https://dc.lft.to/lastmile_qr_scan"}, "is_reserved": 0}, {"lon": -76.9376675, "bike_id": "38e66da55f0f72896ffffc5881ea8857", "lat": 38.878616, "fusion_lon": 0.0, "fusion_lat": 0.0, "type": "electric_scooter", "name": "38e66da55f0f72896ffffc5881ea8857", "is_disabled": 0, "rental_uris": {"ios": "https://dc.lft.to/lastmile_qr_scan", "android": "https://dc.lft.to/lastmile_qr_scan"}, "is_reserved": 0}, {"lon": -77.03545783333334, "bike_id": "92782ab404bdb5f1bf9d78f73569f67d", "lat": 38.91831966666667, "fusion_lon": 0.0, "fusion_lat": 0.0, "type": "electric_scooter", "name": "92782ab404bdb5f1bf9d78f73569f67d", "is_disabled": 0, "rental_uris": {"ios": "https://dc.lft.to/lastmile_qr_scan", "android": "https://dc.lft.to/lastmile_qr_scan"}, "is_reserved": 0}, {"lon": -76.998634, "bike_id": "5c84e9c2c6af2672f32b2f44018bd3be", "lat": 38.894124166666664, "fusion_lon": 0.0, "fusion_lat": 0.0, "type": "electric_scooter", "name": "5c84e9c2c6af2672f32b2f44018bd3be", "is_disabled": 0, "rental_uris": {"ios": "https://dc.lft.to/lastmile_qr_scan", "android": "https://dc.lft.to/lastmile_qr_scan"}, "is_reserved": 0}, {"lon": -76.9901265, "bike_id": "70796bb856bac8246b4878113435f771", "lat": 38.946006833333335, "fusion_lon": 0.0, "fusion_lat": 0.0, "type": "electric_scooter", "name": "70796bb856bac8246b4878113435f771", "is_disabled": 0, "rental_uris": {"ios": "https://dc.lft.to/lastmile_qr_scan", "android": "https://dc.lft.to/lastmile_qr_scan"}, "is_reserved": 0}, {"lon": -76.94506683333333, "bike_id": "2062513cca7b50179d340d21f05cf643", "lat": 38.864818, "fusion_lon": 0.0, "fusion_lat": 0.0, "type": "electric_bike", "name": "2062513cca7b50179d340d21f05cf643", "is_disabled": 0, "rental_uris": {"ios": "https://dc.lft.to/lastmile_qr_scan", "android": "https://dc.lft.to/lastmile_qr_scan"}, "is_reserved": 0}, {"lon": -77.0012835, "bike_id": "de8be3a2ca5bf34087f25a6ae7e22328", "lat": 38.905026666666664, "fusion_lon": 0.0, "fusion_lat": 0.0, "type": "electric_scooter", "name": "de8be3a2ca5bf34087f25a6ae7e22328", "is_disabled": 0, "rental_uris": {"ios": "https://dc.lft.to/lastmile_qr_scan", "android": "https://dc.lft.to/lastmile_qr_scan"}, "is_reserved": 0}, {"lon": -77.00576133333334, "bike_id": "948586d6f70bd5c551bd5f39577141bb", "lat": 38.90380916666667, "fusion_lon": 0.0, "fusion_lat": 0.0, "type": "electric_scooter", "name": "948586d6f70bd5c551bd5f39577141bb", "is_disabled": 0, "rental_uris": {"ios": "https://dc.lft.to/lastmile_qr_scan", "android": "https://dc.lft.to/lastmile_qr_scan"}, "is_reserved": 0}, {"lon": -77.04980283333333, "bike_id": "a87b8d4062ba1a46d191e4cc25268a94", "lat": 39.0629235, "fusion_lon": 0.0, "fusion_lat": 0.0, "type": "electric_bike", "name": "a87b8d4062ba1a46d191e4cc25268a94", "is_disabled": 0, "rental_uris": {"ios": "https://dc.lft.to/lastmile_qr_scan", "android": "https://dc.lft.to/lastmile_qr_scan"}, "is_reserved": 0}, {"lon": -76.929919, "bike_id": "3ec889ce68ec83e2c92ca0bb8f9c51cf", "lat": 38.8932585, "fusion_lon": 0.0, "fusion_lat": 0.0, "type": "electric_scooter", "name": "3ec889ce68ec83e2c92ca0bb8f9c51cf", "is_disabled": 0, "rental_uris": {"ios": "https://dc.lft.to/lastmile_qr_scan", "android": "https://dc.lft.to/lastmile_qr_scan"}, "is_reserved": 0}, {"lon": -77.02525116666666, "bike_id": "4c36f7b22581dedb2fcd92cdecdb4dac", "lat": 38.91743, "fusion_lon": 0.0, "fusion_lat": 0.0, "type": "electric_scooter", "name": "4c36f7b22581dedb2fcd92cdecdb4dac", "is_disabled": 0, "rental_uris": {"ios": "https://dc.lft.to/lastmile_qr_scan", "android": "https://dc.lft.to/lastmile_qr_scan"}, "is_reserved": 0}, {"lon": -77.04381916666667, "bike_id": "1b51b9f699f7a1ad55564f60886e245c", "lat": 38.92072233333333, "fusion_lon": 0.0, "fusion_lat": 0.0, "type": "electric_scooter", "name": "1b51b9f699f7a1ad55564f60886e245c", "is_disabled": 0, "rental_uris": {"ios": "https://dc.lft.to/lastmile_qr_scan", "android": "https://dc.lft.to/lastmile_qr_scan"}, "is_reserved": 0}, {"lon": -76.99943316666666, "bike_id": "ee644a6af76be466be799805d8a588aa", "lat": 38.896399, "fusion_lon": 0.0, "fusion_lat": 0.0, "type": "electric_scooter", "name": "ee644a6af76be466be799805d8a588aa", "is_disabled": 0, "rental_uris": {"ios": "https://dc.lft.to/lastmile_qr_scan", "android": "https://dc.lft.to/lastmile_qr_scan"}, "is_reserved": 0}, {"lon": -77.03233016666667, "bike_id": "8fd433a24837cf189796a44c5bbf14cb", "lat": 38.91707066666667, "fusion_lon": 0.0, "fusion_lat": 0.0, "type": "electric_scooter", "name": "8fd433a24837cf189796a44c5bbf14cb", "is_disabled": 0, "rental_uris": {"ios": "https://dc.lft.to/lastmile_qr_scan", "android": "https://dc.lft.to/lastmile_qr_scan"}, "is_reserved": 0}, {"lon": -77.02603716666667, "bike_id": "b927832b6084079fcc1904df3d45741f", "lat": 38.91840366666667, "fusion_lon": 0.0, "fusion_lat": 0.0, "type": "electric_scooter", "name": "b927832b6084079fcc1904df3d45741f", "is_disabled": 0, "rental_uris": {"ios": "https://dc.lft.to/lastmile_qr_scan", "android": "https://dc.lft.to/lastmile_qr_scan"}, "is_reserved": 0}, {"lon": -77.02081333333334, "bike_id": "8a6b10b6d7ed8530fed1a4566edf573b", "lat": 38.911153166666665, "fusion_lon": 0.0, "fusion_lat": 0.0, "type": "electric_scooter", "name": "8a6b10b6d7ed8530fed1a4566edf573b", "is_disabled": 0, "rental_uris": {"ios": "https://dc.lft.to/lastmile_qr_scan", "android": "https://dc.lft.to/lastmile_qr_scan"}, "is_reserved": 0}, {"lon": -76.98246833333333, "bike_id": "1b3c8a194be25fbf5e2de95cea888685", "lat": 38.916362, "fusion_lon": 0.0, "fusion_lat": 0.0, "type": "electric_scooter", "name": "1b3c8a194be25fbf5e2de95cea888685", "is_disabled": 0, "rental_uris": {"ios": "https://dc.lft.to/lastmile_qr_scan", "android": "https://dc.lft.to/lastmile_qr_scan"}, "is_reserved": 0}, {"lon": -77.04316366666667, "bike_id": "1093ba4756250aa8579950e1e573ab7f", "lat": 38.926543, "fusion_lon": 0.0, "fusion_lat": 0.0, "type": "electric_scooter", "name": "1093ba4756250aa8579950e1e573ab7f", "is_disabled": 0, "rental_uris": {"ios": "https://dc.lft.to/lastmile_qr_scan", "android": "https://dc.lft.to/lastmile_qr_scan"}, "is_reserved": 0}, {"lon": -77.00985116666666, "bike_id": "03b5ba78fe3e19e2da84049e8a7f6abc", "lat": 38.89587783333333, "fusion_lon": 0.0, "fusion_lat": 0.0, "type": "electric_scooter", "name": "03b5ba78fe3e19e2da84049e8a7f6abc", "is_disabled": 0, "rental_uris": {"ios": "https://dc.lft.to/lastmile_qr_scan", "android": "https://dc.lft.to/lastmile_qr_scan"}, "is_reserved": 0}, {"lon": -77.04890866666666, "bike_id": "018e9815e0ad4679a01871b7f5f342c9", "lat": 38.90597783333333, "fusion_lon": 0.0, "fusion_lat": 0.0, "type": "electric_scooter", "name": "018e9815e0ad4679a01871b7f5f342c9", "is_disabled": 0, "rental_uris": {"ios": "https://dc.lft.to/lastmile_qr_scan", "android": "https://dc.lft.to/lastmile_qr_scan"}, "is_reserved": 0}, {"lon": -77.00954383333334, "bike_id": "b792e204bbf89fd6d5ffc77c65c73d20", "lat": 38.876284, "fusion_lon": 0.0, "fusion_lat": 0.0, "type": "electric_scooter", "name": "b792e204bbf89fd6d5ffc77c65c73d20", "is_disabled": 0, "rental_uris": {"ios": "https://dc.lft.to/lastmile_qr_scan", "android": "https://dc.lft.to/lastmile_qr_scan"}, "is_reserved": 0}, {"lon": -77.01499766666667, "bike_id": "0b02908101128987fa83fa3f3627db25", "lat": 38.917504666666666, "fusion_lon": 0.0, "fusion_lat": 0.0, "type": "electric_scooter", "name": "0b02908101128987fa83fa3f3627db25", "is_disabled": 0, "rental_uris": {"ios": "https://dc.lft.to/lastmile_qr_scan", "android": "https://dc.lft.to/lastmile_qr_scan"}, "is_reserved": 0}, {"lon": -77.05883383333334, "bike_id": "ee61bffc3e054890e6991dd858aa2a95", "lat": 38.91825633333333, "fusion_lon": 0.0, "fusion_lat": 0.0, "type": "electric_scooter", "name": "ee61bffc3e054890e6991dd858aa2a95", "is_disabled": 0, "rental_uris": {"ios": "https://dc.lft.to/lastmile_qr_scan", "android": "https://dc.lft.to/lastmile_qr_scan"}, "is_reserved": 0}, {"lon": -77.00966383333333, "bike_id": "3e8f179817da025849b3e1c2804e3d2b", "lat": 38.916944, "fusion_lon": 0.0, "fusion_lat": 0.0, "type": "electric_scooter", "name": "3e8f179817da025849b3e1c2804e3d2b", "is_disabled": 0, "rental_uris": {"ios": "https://dc.lft.to/lastmile_qr_scan", "android": "https://dc.lft.to/lastmile_qr_scan"}, "is_reserved": 0}, {"lon": -77.026107, "bike_id": "a793d231cbfc180d297eed06e70e9bd8", "lat": 38.914024, "fusion_lon": 0.0, "fusion_lat": 0.0, "type": "electric_scooter", "name": "a793d231cbfc180d297eed06e70e9bd8", "is_disabled": 0, "rental_uris": {"ios": "https://dc.lft.to/lastmile_qr_scan", "android": "https://dc.lft.to/lastmile_qr_scan"}, "is_reserved": 0}, {"lon": -76.98116066666667, "bike_id": "15f8e0452b2eb059dc709f530f02a670", "lat": 38.90401083333333, "fusion_lon": 0.0, "fusion_lat": 0.0, "type": "electric_scooter", "name": "15f8e0452b2eb059dc709f530f02a670", "is_disabled": 0, "rental_uris": {"ios": "https://dc.lft.to/lastmile_qr_scan", "android": "https://dc.lft.to/lastmile_qr_scan"}, "is_reserved": 0}, {"lon": -77.04693, "bike_id": "29cf11850ab3e4ccb0485846bd479e48", "lat": 38.921318166666666, "fusion_lon": 0.0, "fusion_lat": 0.0, "type": "electric_scooter", "name": "29cf11850ab3e4ccb0485846bd479e48", "is_disabled": 0, "rental_uris": {"ios": "https://dc.lft.to/lastmile_qr_scan", "android": "https://dc.lft.to/lastmile_qr_scan"}, "is_reserved": 0}, {"lon": -77.01721, "bike_id": "d80e3d14f50360bb6bb37bcc3b38bee5", "lat": 38.97480083333333, "fusion_lon": 0.0, "fusion_lat": 0.0, "type": "electric_scooter", "name": "d80e3d14f50360bb6bb37bcc3b38bee5", "is_disabled": 0, "rental_uris": {"ios": "https://dc.lft.to/lastmile_qr_scan", "android": "https://dc.lft.to/lastmile_qr_scan"}, "is_reserved": 0}, {"lon": -77.0504975, "bike_id": "b27e22c52facf9762399b5575ae3d085", "lat": 38.923791333333334, "fusion_lon": 0.0, "fusion_lat": 0.0, "type": "electric_scooter", "name": "b27e22c52facf9762399b5575ae3d085", "is_disabled": 0, "rental_uris": {"ios": "https://dc.lft.to/lastmile_qr_scan", "android": "https://dc.lft.to/lastmile_qr_scan"}, "is_reserved": 0}, {"lon": -77.02150133333333, "bike_id": "a9beab5cab8e9044d2db4ca611151e8a", "lat": 38.89583533333333, "fusion_lon": 0.0, "fusion_lat": 0.0, "type": "electric_scooter", "name": "a9beab5cab8e9044d2db4ca611151e8a", "is_disabled": 0, "rental_uris": {"ios": "https://dc.lft.to/lastmile_qr_scan", "android": "https://dc.lft.to/lastmile_qr_scan"}, "is_reserved": 0}, {"lon": -77.04436233333334, "bike_id": "03d59551575d1b98e9e47e4a903019d5", "lat": 38.921599666666665, "fusion_lon": 0.0, "fusion_lat": 0.0, "type": "electric_scooter", "name": "03d59551575d1b98e9e47e4a903019d5", "is_disabled": 0, "rental_uris": {"ios": "https://dc.lft.to/lastmile_qr_scan", "android": "https://dc.lft.to/lastmile_qr_scan"}, "is_reserved": 0}, {"lon": -77.04153933333333, "bike_id": "62dc589abb7ab3d3a7179c0d4b9e6e6a", "lat": 38.916983, "fusion_lon": 0.0, "fusion_lat": 0.0, "type": "electric_scooter", "name": "62dc589abb7ab3d3a7179c0d4b9e6e6a", "is_disabled": 0, "rental_uris": {"ios": "https://dc.lft.to/lastmile_qr_scan", "android": "https://dc.lft.to/lastmile_qr_scan"}, "is_reserved": 0}, {"lon": -76.99064216666666, "bike_id": "92659029e5fc10a006379692766e3e00", "lat": 38.86362283333333, "fusion_lon": 0.0, "fusion_lat": 0.0, "type": "electric_scooter", "name": "92659029e5fc10a006379692766e3e00", "is_disabled": 0, "rental_uris": {"ios": "https://dc.lft.to/lastmile_qr_scan", "android": "https://dc.lft.to/lastmile_qr_scan"}, "is_reserved": 0}, {"lon": -77.01608083333333, "bike_id": "d75bbd5a791a65b0d0c6b65b464f3f0b", "lat": 38.901236, "fusion_lon": 0.0, "fusion_lat": 0.0, "type": "electric_scooter", "name": "d75bbd5a791a65b0d0c6b65b464f3f0b", "is_disabled": 0, "rental_uris": {"ios": "https://dc.lft.to/lastmile_qr_scan", "android": "https://dc.lft.to/lastmile_qr_scan"}, "is_reserved": 0}, {"lon": -77.03478633333333, "bike_id": "a63e9f3259327b13f347c0c86c1a8b9e", "lat": 38.90562766666667, "fusion_lon": 0.0, "fusion_lat": 0.0, "type": "electric_scooter", "name": "a63e9f3259327b13f347c0c86c1a8b9e", "is_disabled": 0, "rental_uris": {"ios": "https://dc.lft.to/lastmile_qr_scan", "android": "https://dc.lft.to/lastmile_qr_scan"}, "is_reserved": 0}, {"lon": -77.05138033333333, "bike_id": "5ddfe730a6389075548ca717a9b67b7c", "lat": 38.905149, "fusion_lon": 0.0, "fusion_lat": 0.0, "type": "electric_scooter", "name": "5ddfe730a6389075548ca717a9b67b7c", "is_disabled": 0, "rental_uris": {"ios": "https://dc.lft.to/lastmile_qr_scan", "android": "https://dc.lft.to/lastmile_qr_scan"}, "is_reserved": 0}, {"lon": -77.03805033333333, "bike_id": "298eccc4dbaa457bec3b736227aee6d9", "lat": 38.930231166666665, "fusion_lon": 0.0, "fusion_lat": 0.0, "type": "electric_scooter", "name": "298eccc4dbaa457bec3b736227aee6d9", "is_disabled": 0, "rental_uris": {"ios": "https://dc.lft.to/lastmile_qr_scan", "android": "https://dc.lft.to/lastmile_qr_scan"}, "is_reserved": 0}, {"lon": -77.0341315, "bike_id": "757a8b27128e27fd994caa99ebcbbff3", "lat": 38.919261666666664, "fusion_lon": 0.0, "fusion_lat": 0.0, "type": "electric_scooter", "name": "757a8b27128e27fd994caa99ebcbbff3", "is_disabled": 0, "rental_uris": {"ios": "https://dc.lft.to/lastmile_qr_scan", "android": "https://dc.lft.to/lastmile_qr_scan"}, "is_reserved": 0}, {"lon": -77.02008766666667, "bike_id": "a17754ab33da8a9f6be6813c034235ea", "lat": 38.924145, "fusion_lon": 0.0, "fusion_lat": 0.0, "type": "electric_scooter", "name": "a17754ab33da8a9f6be6813c034235ea", "is_disabled": 0, "rental_uris": {"ios": "https://dc.lft.to/lastmile_qr_scan", "android": "https://dc.lft.to/lastmile_qr_scan"}, "is_reserved": 0}, {"lon": -77.02155233333333, "bike_id": "8331bec0fe72f4b815c9a80940e13326", "lat": 38.93087166666667, "fusion_lon": 0.0, "fusion_lat": 0.0, "type": "electric_scooter", "name": "8331bec0fe72f4b815c9a80940e13326", "is_disabled": 0, "rental_uris": {"ios": "https://dc.lft.to/lastmile_qr_scan", "android": "https://dc.lft.to/lastmile_qr_scan"}, "is_reserved": 0}, {"lon": -77.01413433333333, "bike_id": "9cf92fa2cf5c6aa972aa79795c5e1773", "lat": 38.928599, "fusion_lon": 0.0, "fusion_lat": 0.0, "type": "electric_scooter", "name": "9cf92fa2cf5c6aa972aa79795c5e1773", "is_disabled": 0, "rental_uris": {"ios": "https://dc.lft.to/lastmile_qr_scan", "android": "https://dc.lft.to/lastmile_qr_scan"}, "is_reserved": 0}, {"lon": -77.03286383333334, "bike_id": "4a93adabe5b47af13b44631e120e26a1", "lat": 38.9416825, "fusion_lon": 0.0, "fusion_lat": 0.0, "type": "electric_scooter", "name": "4a93adabe5b47af13b44631e120e26a1", "is_disabled": 0, "rental_uris": {"ios": "https://dc.lft.to/lastmile_qr_scan", "android": "https://dc.lft.to/lastmile_qr_scan"}, "is_reserved": 0}, {"lon": -76.977298, "bike_id": "7b0dd71cecbf7505cea40bfebfc7a83b", "lat": 38.872940666666665, "fusion_lon": 0.0, "fusion_lat": 0.0, "type": "electric_scooter", "name": "7b0dd71cecbf7505cea40bfebfc7a83b", "is_disabled": 0, "rental_uris": {"ios": "https://dc.lft.to/lastmile_qr_scan", "android": "https://dc.lft.to/lastmile_qr_scan"}, "is_reserved": 0}, {"lon": -77.0593485, "bike_id": "5d6d33b4232cbe876087f80d277ea951", "lat": 38.9052895, "fusion_lon": 0.0, "fusion_lat": 0.0, "type": "electric_scooter", "name": "5d6d33b4232cbe876087f80d277ea951", "is_disabled": 0, "rental_uris": {"ios": "https://dc.lft.to/lastmile_qr_scan", "android": "https://dc.lft.to/lastmile_qr_scan"}, "is_reserved": 0}, {"lon": -77.0131395, "bike_id": "44d0a795ec55645b961b53f08b6ff5eb", "lat": 38.90732283333333, "fusion_lon": 0.0, "fusion_lat": 0.0, "type": "electric_scooter", "name": "44d0a795ec55645b961b53f08b6ff5eb", "is_disabled": 0, "rental_uris": {"ios": "https://dc.lft.to/lastmile_qr_scan", "android": "https://dc.lft.to/lastmile_qr_scan"}, "is_reserved": 0}, {"lon": -77.04546083333334, "bike_id": "e92b7c720c7d40a59d355a4c91c4ee19", "lat": 38.90957266666667, "fusion_lon": 0.0, "fusion_lat": 0.0, "type": "electric_scooter", "name": "e92b7c720c7d40a59d355a4c91c4ee19", "is_disabled": 0, "rental_uris": {"ios": "https://dc.lft.to/lastmile_qr_scan", "android": "https://dc.lft.to/lastmile_qr_scan"}, "is_reserved": 0}, {"lon": -77.0231565, "bike_id": "b1c8db59b624d7c86daacb976212bfb3", "lat": 38.92830166666667, "fusion_lon": 0.0, "fusion_lat": 0.0, "type": "electric_scooter", "name": "b1c8db59b624d7c86daacb976212bfb3", "is_disabled": 0, "rental_uris": {"ios": "https://dc.lft.to/lastmile_qr_scan", "android": "https://dc.lft.to/lastmile_qr_scan"}, "is_reserved": 0}, {"lon": -77.04140466666666, "bike_id": "4df51260f6c7a5d4fdd40c1a166e085c", "lat": 38.916818666666664, "fusion_lon": 0.0, "fusion_lat": 0.0, "type": "electric_scooter", "name": "4df51260f6c7a5d4fdd40c1a166e085c", "is_disabled": 0, "rental_uris": {"ios": "https://dc.lft.to/lastmile_qr_scan", "android": "https://dc.lft.to/lastmile_qr_scan"}, "is_reserved": 0}, {"lon": -76.98464233333333, "bike_id": "b942778d659c7d27ad297be2d2434e64", "lat": 38.9000365, "fusion_lon": 0.0, "fusion_lat": 0.0, "type": "electric_scooter", "name": "b942778d659c7d27ad297be2d2434e64", "is_disabled": 0, "rental_uris": {"ios": "https://dc.lft.to/lastmile_qr_scan", "android": "https://dc.lft.to/lastmile_qr_scan"}, "is_reserved": 0}, {"lon": -77.08497383333334, "bike_id": "30d1b73b5cb3f39eaf9e780ce8bd6e48", "lat": 38.9593565, "fusion_lon": 0.0, "fusion_lat": 0.0, "type": "electric_scooter", "name": "30d1b73b5cb3f39eaf9e780ce8bd6e48", "is_disabled": 0, "rental_uris": {"ios": "https://dc.lft.to/lastmile_qr_scan", "android": "https://dc.lft.to/lastmile_qr_scan"}, "is_reserved": 0}, {"lon": -77.01155466666667, "bike_id": "5df25be0af746ad1ab7bf641884deba4", "lat": 38.86690816666667, "fusion_lon": 0.0, "fusion_lat": 0.0, "type": "electric_scooter", "name": "5df25be0af746ad1ab7bf641884deba4", "is_disabled": 0, "rental_uris": {"ios": "https://dc.lft.to/lastmile_qr_scan", "android": "https://dc.lft.to/lastmile_qr_scan"}, "is_reserved": 0}, {"lon": -77.03473883333334, "bike_id": "c7a7b5f512c90ff43afbb5b3f75d2025", "lat": 38.905683833333335, "fusion_lon": 0.0, "fusion_lat": 0.0, "type": "electric_scooter", "name": "c7a7b5f512c90ff43afbb5b3f75d2025", "is_disabled": 0, "rental_uris": {"ios": "https://dc.lft.to/lastmile_qr_scan", "android": "https://dc.lft.to/lastmile_qr_scan"}, "is_reserved": 0}, {"lon": -77.01818783333333, "bike_id": "899c656b454944b6eacc7f46dd46ab9c", "lat": 38.923669, "fusion_lon": 0.0, "fusion_lat": 0.0, "type": "electric_scooter", "name": "899c656b454944b6eacc7f46dd46ab9c", "is_disabled": 0, "rental_uris": {"ios": "https://dc.lft.to/lastmile_qr_scan", "android": "https://dc.lft.to/lastmile_qr_scan"}, "is_reserved": 0}, {"lon": -77.07149933333334, "bike_id": "d8428ae1421a861aba352854a4bd888d", "lat": 38.958392, "fusion_lon": 0.0, "fusion_lat": 0.0, "type": "electric_scooter", "name": "d8428ae1421a861aba352854a4bd888d", "is_disabled": 0, "rental_uris": {"ios": "https://dc.lft.to/lastmile_qr_scan", "android": "https://dc.lft.to/lastmile_qr_scan"}, "is_reserved": 0}, {"lon": -76.99020266666666, "bike_id": "c59c6c8c4bc2e4261145adc3fb23f535", "lat": 38.89963266666667, "fusion_lon": 0.0, "fusion_lat": 0.0, "type": "electric_scooter", "name": "c59c6c8c4bc2e4261145adc3fb23f535", "is_disabled": 0, "rental_uris": {"ios": "https://dc.lft.to/lastmile_qr_scan", "android": "https://dc.lft.to/lastmile_qr_scan"}, "is_reserved": 0}, {"lon": -77.0511825, "bike_id": "98204010f6e3ffd7ecda1c3ee19f1cee", "lat": 38.92302133333333, "fusion_lon": 0.0, "fusion_lat": 0.0, "type": "electric_scooter", "name": "98204010f6e3ffd7ecda1c3ee19f1cee", "is_disabled": 0, "rental_uris": {"ios": "https://dc.lft.to/lastmile_qr_scan", "android": "https://dc.lft.to/lastmile_qr_scan"}, "is_reserved": 0}, {"lon": -77.00196816666667, "bike_id": "2ddc65ee03ada7c54438688a5749b182", "lat": 38.886750666666664, "fusion_lon": 0.0, "fusion_lat": 0.0, "type": "electric_scooter", "name": "2ddc65ee03ada7c54438688a5749b182", "is_disabled": 0, "rental_uris": {"ios": "https://dc.lft.to/lastmile_qr_scan", "android": "https://dc.lft.to/lastmile_qr_scan"}, "is_reserved": 0}, {"lon": -77.03846933333334, "bike_id": "808a0a1e55305775cd4f71bc6c98135d", "lat": 38.912816, "fusion_lon": 0.0, "fusion_lat": 0.0, "type": "electric_scooter", "name": "808a0a1e55305775cd4f71bc6c98135d", "is_disabled": 0, "rental_uris": {"ios": "https://dc.lft.to/lastmile_qr_scan", "android": "https://dc.lft.to/lastmile_qr_scan"}, "is_reserved": 0}, {"lon": -77.02579333333334, "bike_id": "3a1554e2e976a16d27bc513cfa6bfefc", "lat": 38.914074666666664, "fusion_lon": 0.0, "fusion_lat": 0.0, "type": "electric_scooter", "name": "3a1554e2e976a16d27bc513cfa6bfefc", "is_disabled": 0, "rental_uris": {"ios": "https://dc.lft.to/lastmile_qr_scan", "android": "https://dc.lft.to/lastmile_qr_scan"}, "is_reserved": 0}, {"lon": -77.03176083333334, "bike_id": "71d499a46ee25a72fcc8bec11f99ad6f", "lat": 38.915509, "fusion_lon": 0.0, "fusion_lat": 0.0, "type": "electric_scooter", "name": "71d499a46ee25a72fcc8bec11f99ad6f", "is_disabled": 0, "rental_uris": {"ios": "https://dc.lft.to/lastmile_qr_scan", "android": "https://dc.lft.to/lastmile_qr_scan"}, "is_reserved": 0}, {"lon": -77.01581516666667, "bike_id": "df3da252a131a1fdac5fbccc6c566daf", "lat": 38.91679383333334, "fusion_lon": 0.0, "fusion_lat": 0.0, "type": "electric_scooter", "name": "df3da252a131a1fdac5fbccc6c566daf", "is_disabled": 0, "rental_uris": {"ios": "https://dc.lft.to/lastmile_qr_scan", "android": "https://dc.lft.to/lastmile_qr_scan"}, "is_reserved": 0}, {"lon": -77.03334783333334, "bike_id": "6b243e96ad0f5d97fcc2fbd7486ea928", "lat": 38.89987133333333, "fusion_lon": 0.0, "fusion_lat": 0.0, "type": "electric_scooter", "name": "6b243e96ad0f5d97fcc2fbd7486ea928", "is_disabled": 0, "rental_uris": {"ios": "https://dc.lft.to/lastmile_qr_scan", "android": "https://dc.lft.to/lastmile_qr_scan"}, "is_reserved": 0}, {"lon": -77.0511795, "bike_id": "30dd80c2022b612d2882f2c6a9c9345b", "lat": 38.923018166666665, "fusion_lon": 0.0, "fusion_lat": 0.0, "type": "electric_scooter", "name": "30dd80c2022b612d2882f2c6a9c9345b", "is_disabled": 0, "rental_uris": {"ios": "https://dc.lft.to/lastmile_qr_scan", "android": "https://dc.lft.to/lastmile_qr_scan"}, "is_reserved": 0}, {"lon": -77.02614133333333, "bike_id": "0af9235df0e39d66e93c3ecf84a1eb3d", "lat": 38.92982816666667, "fusion_lon": 0.0, "fusion_lat": 0.0, "type": "electric_scooter", "name": "0af9235df0e39d66e93c3ecf84a1eb3d", "is_disabled": 0, "rental_uris": {"ios": "https://dc.lft.to/lastmile_qr_scan", "android": "https://dc.lft.to/lastmile_qr_scan"}, "is_reserved": 0}, {"lon": -77.04151266666666, "bike_id": "3a1b4d523996533018e50005f74bb39f", "lat": 38.906993666666665, "fusion_lon": 0.0, "fusion_lat": 0.0, "type": "electric_scooter", "name": "3a1b4d523996533018e50005f74bb39f", "is_disabled": 0, "rental_uris": {"ios": "https://dc.lft.to/lastmile_qr_scan", "android": "https://dc.lft.to/lastmile_qr_scan"}, "is_reserved": 0}, {"lon": -77.00659016666667, "bike_id": "79c555a5d40d2619c7da95cba3501b11", "lat": 38.880772, "fusion_lon": 0.0, "fusion_lat": 0.0, "type": "electric_scooter", "name": "79c555a5d40d2619c7da95cba3501b11", "is_disabled": 0, "rental_uris": {"ios": "https://dc.lft.to/lastmile_qr_scan", "android": "https://dc.lft.to/lastmile_qr_scan"}, "is_reserved": 0}, {"lon": -77.06785016666667, "bike_id": "0ac98420586523f4e2510368cd931e5b", "lat": 38.91310466666667, "fusion_lon": 0.0, "fusion_lat": 0.0, "type": "electric_scooter", "name": "0ac98420586523f4e2510368cd931e5b", "is_disabled": 0, "rental_uris": {"ios": "https://dc.lft.to/lastmile_qr_scan", "android": "https://dc.lft.to/lastmile_qr_scan"}, "is_reserved": 0}, {"lon": -76.99956133333333, "bike_id": "4e7bfd246a02e90d22c612747b5c825c", "lat": 38.90861183333333, "fusion_lon": 0.0, "fusion_lat": 0.0, "type": "electric_scooter", "name": "4e7bfd246a02e90d22c612747b5c825c", "is_disabled": 0, "rental_uris": {"ios": "https://dc.lft.to/lastmile_qr_scan", "android": "https://dc.lft.to/lastmile_qr_scan"}, "is_reserved": 0}, {"lon": -77.04325866666667, "bike_id": "1bdb244e9e0a8d6c72e22287eecb36a7", "lat": 38.90882966666667, "fusion_lon": 0.0, "fusion_lat": 0.0, "type": "electric_scooter", "name": "1bdb244e9e0a8d6c72e22287eecb36a7", "is_disabled": 0, "rental_uris": {"ios": "https://dc.lft.to/lastmile_qr_scan", "android": "https://dc.lft.to/lastmile_qr_scan"}, "is_reserved": 0}, {"lon": -77.05386533333333, "bike_id": "c175622de8112ae9c2e0bb2e46d2804a", "lat": 38.89888716666667, "fusion_lon": 0.0, "fusion_lat": 0.0, "type": "electric_scooter", "name": "c175622de8112ae9c2e0bb2e46d2804a", "is_disabled": 0, "rental_uris": {"ios": "https://dc.lft.to/lastmile_qr_scan", "android": "https://dc.lft.to/lastmile_qr_scan"}, "is_reserved": 0}, {"lon": -77.06119133333333, "bike_id": "258c4bc0430ee8339334bfa191164041", "lat": 38.904383, "fusion_lon": 0.0, "fusion_lat": 0.0, "type": "electric_scooter", "name": "258c4bc0430ee8339334bfa191164041", "is_disabled": 0, "rental_uris": {"ios": "https://dc.lft.to/lastmile_qr_scan", "android": "https://dc.lft.to/lastmile_qr_scan"}, "is_reserved": 0}, {"lon": -77.03214133333333, "bike_id": "b0dd9d356ba1ae90463fabf0d43decc5", "lat": 38.90771216666667, "fusion_lon": 0.0, "fusion_lat": 0.0, "type": "electric_scooter", "name": "b0dd9d356ba1ae90463fabf0d43decc5", "is_disabled": 0, "rental_uris": {"ios": "https://dc.lft.to/lastmile_qr_scan", "android": "https://dc.lft.to/lastmile_qr_scan"}, "is_reserved": 0}, {"lon": -76.997705, "bike_id": "7bb3abdd8e0aa0a2bc2c5a7a9e9c1437", "lat": 38.924519333333336, "fusion_lon": 0.0, "fusion_lat": 0.0, "type": "electric_scooter", "name": "7bb3abdd8e0aa0a2bc2c5a7a9e9c1437", "is_disabled": 0, "rental_uris": {"ios": "https://dc.lft.to/lastmile_qr_scan", "android": "https://dc.lft.to/lastmile_qr_scan"}, "is_reserved": 0}, {"lon": -76.977555, "bike_id": "ea85690c19d5c8c854e952da627972ef", "lat": 38.86452766666667, "fusion_lon": 0.0, "fusion_lat": 0.0, "type": "electric_bike", "name": "ea85690c19d5c8c854e952da627972ef", "is_disabled": 0, "rental_uris": {"ios": "https://dc.lft.to/lastmile_qr_scan", "android": "https://dc.lft.to/lastmile_qr_scan"}, "is_reserved": 0}, {"lon": -77.03976183333333, "bike_id": "afbef577621d5fd2b3254162c4b16a32", "lat": 38.891976166666666, "fusion_lon": 0.0, "fusion_lat": 0.0, "type": "electric_scooter", "name": "afbef577621d5fd2b3254162c4b16a32", "is_disabled": 0, "rental_uris": {"ios": "https://dc.lft.to/lastmile_qr_scan", "android": "https://dc.lft.to/lastmile_qr_scan"}, "is_reserved": 0}, {"lon": -77.02989816666667, "bike_id": "2aa651c0d3dfa6c3dfc900128c5269cc", "lat": 38.9743965, "fusion_lon": 0.0, "fusion_lat": 0.0, "type": "electric_bike", "name": "2aa651c0d3dfa6c3dfc900128c5269cc", "is_disabled": 0, "rental_uris": {"ios": "https://dc.lft.to/lastmile_qr_scan", "android": "https://dc.lft.to/lastmile_qr_scan"}, "is_reserved": 0}, {"lon": -77.03714533333333, "bike_id": "2ca27a0ea32ad550783d65e4b400e816", "lat": 38.926322666666664, "fusion_lon": 0.0, "fusion_lat": 0.0, "type": "electric_scooter", "name": "2ca27a0ea32ad550783d65e4b400e816", "is_disabled": 0, "rental_uris": {"ios": "https://dc.lft.to/lastmile_qr_scan", "android": "https://dc.lft.to/lastmile_qr_scan"}, "is_reserved": 0}, {"lon": -77.030724, "bike_id": "c5ccad01e25bb3ed429c083d360ee439", "lat": 38.8858105, "fusion_lon": 0.0, "fusion_lat": 0.0, "type": "electric_scooter", "name": "c5ccad01e25bb3ed429c083d360ee439", "is_disabled": 0, "rental_uris": {"ios": "https://dc.lft.to/lastmile_qr_scan", "android": "https://dc.lft.to/lastmile_qr_scan"}, "is_reserved": 0}, {"lon": -77.03410266666667, "bike_id": "548549452934b03c6217d2a7551cef49", "lat": 38.919246666666666, "fusion_lon": 0.0, "fusion_lat": 0.0, "type": "electric_scooter", "name": "548549452934b03c6217d2a7551cef49", "is_disabled": 0, "rental_uris": {"ios": "https://dc.lft.to/lastmile_qr_scan", "android": "https://dc.lft.to/lastmile_qr_scan"}, "is_reserved": 0}, {"lon": -77.03777783333334, "bike_id": "4be2fb7e5cefb9c00922ac0dea96a94b", "lat": 38.916898833333335, "fusion_lon": 0.0, "fusion_lat": 0.0, "type": "electric_scooter", "name": "4be2fb7e5cefb9c00922ac0dea96a94b", "is_disabled": 0, "rental_uris": {"ios": "https://dc.lft.to/lastmile_qr_scan", "android": "https://dc.lft.to/lastmile_qr_scan"}, "is_reserved": 0}, {"lon": -77.00344583333333, "bike_id": "69a94fc8051d84404462f889ff1ec5a1", "lat": 38.895200833333334, "fusion_lon": 0.0, "fusion_lat": 0.0, "type": "electric_scooter", "name": "69a94fc8051d84404462f889ff1ec5a1", "is_disabled": 0, "rental_uris": {"ios": "https://dc.lft.to/lastmile_qr_scan", "android": "https://dc.lft.to/lastmile_qr_scan"}, "is_reserved": 0}, {"lon": -77.0225795, "bike_id": "55735b982f5be7ba19aeac76bf76c036", "lat": 38.923632833333336, "fusion_lon": 0.0, "fusion_lat": 0.0, "type": "electric_scooter", "name": "55735b982f5be7ba19aeac76bf76c036", "is_disabled": 0, "rental_uris": {"ios": "https://dc.lft.to/lastmile_qr_scan", "android": "https://dc.lft.to/lastmile_qr_scan"}, "is_reserved": 0}, {"lon": -77.032652, "bike_id": "5286b49242f2ab53528e45981b6e1d60", "lat": 38.938870333333334, "fusion_lon": 0.0, "fusion_lat": 0.0, "type": "electric_scooter", "name": "5286b49242f2ab53528e45981b6e1d60", "is_disabled": 0, "rental_uris": {"ios": "https://dc.lft.to/lastmile_qr_scan", "android": "https://dc.lft.to/lastmile_qr_scan"}, "is_reserved": 0}, {"lon": -77.04732733333333, "bike_id": "8c54a0eff633472284df3fc762fd8ed2", "lat": 38.909477833333334, "fusion_lon": 0.0, "fusion_lat": 0.0, "type": "electric_scooter", "name": "8c54a0eff633472284df3fc762fd8ed2", "is_disabled": 0, "rental_uris": {"ios": "https://dc.lft.to/lastmile_qr_scan", "android": "https://dc.lft.to/lastmile_qr_scan"}, "is_reserved": 0}, {"lon": -77.02221766666666, "bike_id": "e5649c63d4fb6604ae2047e6748c1744", "lat": 38.8921755, "fusion_lon": 0.0, "fusion_lat": 0.0, "type": "electric_scooter", "name": "e5649c63d4fb6604ae2047e6748c1744", "is_disabled": 0, "rental_uris": {"ios": "https://dc.lft.to/lastmile_qr_scan", "android": "https://dc.lft.to/lastmile_qr_scan"}, "is_reserved": 0}, {"lon": -76.991445, "bike_id": "bd409083ef0211f3fc9a29b76f8c152d", "lat": 38.9002295, "fusion_lon": 0.0, "fusion_lat": 0.0, "type": "electric_scooter", "name": "bd409083ef0211f3fc9a29b76f8c152d", "is_disabled": 0, "rental_uris": {"ios": "https://dc.lft.to/lastmile_qr_scan", "android": "https://dc.lft.to/lastmile_qr_scan"}, "is_reserved": 0}, {"lon": -77.0591215, "bike_id": "651bb973e19f3199889260c35151adf7", "lat": 38.90358616666666, "fusion_lon": 0.0, "fusion_lat": 0.0, "type": "electric_scooter", "name": "651bb973e19f3199889260c35151adf7", "is_disabled": 0, "rental_uris": {"ios": "https://dc.lft.to/lastmile_qr_scan", "android": "https://dc.lft.to/lastmile_qr_scan"}, "is_reserved": 0}, {"lon": -77.0242455, "bike_id": "de2244478d008f053460943862804e8b", "lat": 38.9204375, "fusion_lon": 0.0, "fusion_lat": 0.0, "type": "electric_scooter", "name": "de2244478d008f053460943862804e8b", "is_disabled": 0, "rental_uris": {"ios": "https://dc.lft.to/lastmile_qr_scan", "android": "https://dc.lft.to/lastmile_qr_scan"}, "is_reserved": 0}, {"lon": -77.03240916666667, "bike_id": "27bdacd9ee7f5fee623aa359ace635fe", "lat": 38.90269983333334, "fusion_lon": 0.0, "fusion_lat": 0.0, "type": "electric_scooter", "name": "27bdacd9ee7f5fee623aa359ace635fe", "is_disabled": 0, "rental_uris": {"ios": "https://dc.lft.to/lastmile_qr_scan", "android": "https://dc.lft.to/lastmile_qr_scan"}, "is_reserved": 0}, {"lon": -76.9762965, "bike_id": "6b31928e912bca5bec4d1703da7c42bd", "lat": 38.905681, "fusion_lon": 0.0, "fusion_lat": 0.0, "type": "electric_scooter", "name": "6b31928e912bca5bec4d1703da7c42bd", "is_disabled": 0, "rental_uris": {"ios": "https://dc.lft.to/lastmile_qr_scan", "android": "https://dc.lft.to/lastmile_qr_scan"}, "is_reserved": 0}, {"lon": -77.024929, "bike_id": "5aaa76b8cc323f7be420d731c379b56f", "lat": 38.91802166666667, "fusion_lon": 0.0, "fusion_lat": 0.0, "type": "electric_scooter", "name": "5aaa76b8cc323f7be420d731c379b56f", "is_disabled": 0, "rental_uris": {"ios": "https://dc.lft.to/lastmile_qr_scan", "android": "https://dc.lft.to/lastmile_qr_scan"}, "is_reserved": 0}, {"lon": -77.07506683333334, "bike_id": "5485d6c8daa486025a04f50cdbfb29d4", "lat": 38.89465833333333, "fusion_lon": 0.0, "fusion_lat": 0.0, "type": "electric_scooter", "name": "5485d6c8daa486025a04f50cdbfb29d4", "is_disabled": 0, "rental_uris": {"ios": "https://dc.lft.to/lastmile_qr_scan", "android": "https://dc.lft.to/lastmile_qr_scan"}, "is_reserved": 0}, {"lon": -77.02396783333333, "bike_id": "14afea8f9fd9eb4c16c3e72343fdba33", "lat": 38.91523816666667, "fusion_lon": 0.0, "fusion_lat": 0.0, "type": "electric_scooter", "name": "14afea8f9fd9eb4c16c3e72343fdba33", "is_disabled": 0, "rental_uris": {"ios": "https://dc.lft.to/lastmile_qr_scan", "android": "https://dc.lft.to/lastmile_qr_scan"}, "is_reserved": 0}, {"lon": -77.000251, "bike_id": "a8dbe15c05390da225d048b4154a48f7", "lat": 38.87394416666667, "fusion_lon": 0.0, "fusion_lat": 0.0, "type": "electric_scooter", "name": "a8dbe15c05390da225d048b4154a48f7", "is_disabled": 0, "rental_uris": {"ios": "https://dc.lft.to/lastmile_qr_scan", "android": "https://dc.lft.to/lastmile_qr_scan"}, "is_reserved": 0}, {"lon": -77.12531483333333, "bike_id": "374a215d0a748dbbd5c0137c3fe8ea3c", "lat": 39.05632133333334, "fusion_lon": 0.0, "fusion_lat": 0.0, "type": "electric_bike", "name": "374a215d0a748dbbd5c0137c3fe8ea3c", "is_disabled": 0, "rental_uris": {"ios": "https://dc.lft.to/lastmile_qr_scan", "android": "https://dc.lft.to/lastmile_qr_scan"}, "is_reserved": 0}, {"lon": -76.99154616666667, "bike_id": "a0a6f74ca5a18bf0654f4493dd7f29bd", "lat": 38.9012005, "fusion_lon": 0.0, "fusion_lat": 0.0, "type": "electric_scooter", "name": "a0a6f74ca5a18bf0654f4493dd7f29bd", "is_disabled": 0, "rental_uris": {"ios": "https://dc.lft.to/lastmile_qr_scan", "android": "https://dc.lft.to/lastmile_qr_scan"}, "is_reserved": 0}, {"lon": -77.03311733333334, "bike_id": "79cb75db9c58281e0fdf307cb7dd65a1", "lat": 38.956134, "fusion_lon": 0.0, "fusion_lat": 0.0, "type": "electric_scooter", "name": "79cb75db9c58281e0fdf307cb7dd65a1", "is_disabled": 0, "rental_uris": {"ios": "https://dc.lft.to/lastmile_qr_scan", "android": "https://dc.lft.to/lastmile_qr_scan"}, "is_reserved": 0}, {"lon": -77.03245033333333, "bike_id": "9fd3f1e49478df92b1d6db060bf2e374", "lat": 38.909644166666666, "fusion_lon": 0.0, "fusion_lat": 0.0, "type": "electric_scooter", "name": "9fd3f1e49478df92b1d6db060bf2e374", "is_disabled": 0, "rental_uris": {"ios": "https://dc.lft.to/lastmile_qr_scan", "android": "https://dc.lft.to/lastmile_qr_scan"}, "is_reserved": 0}, {"lon": -77.00624683333334, "bike_id": "268377b8eec826d1f3cd8920b8070893", "lat": 38.90819966666667, "fusion_lon": 0.0, "fusion_lat": 0.0, "type": "electric_scooter", "name": "268377b8eec826d1f3cd8920b8070893", "is_disabled": 0, "rental_uris": {"ios": "https://dc.lft.to/lastmile_qr_scan", "android": "https://dc.lft.to/lastmile_qr_scan"}, "is_reserved": 0}, {"lon": -77.0959695, "bike_id": "21ee2ef34b54ebf65c367396f0a9f8e5", "lat": 39.028892666666664, "fusion_lon": 0.0, "fusion_lat": 0.0, "type": "electric_bike", "name": "21ee2ef34b54ebf65c367396f0a9f8e5", "is_disabled": 0, "rental_uris": {"ios": "https://dc.lft.to/lastmile_qr_scan", "android": "https://dc.lft.to/lastmile_qr_scan"}, "is_reserved": 0}, {"lon": -77.0562605, "bike_id": "7f571e67ef55bf00e9edeb696c75ff2e", "lat": 38.960724, "fusion_lon": 0.0, "fusion_lat": 0.0, "type": "electric_scooter", "name": "7f571e67ef55bf00e9edeb696c75ff2e", "is_disabled": 0, "rental_uris": {"ios": "https://dc.lft.to/lastmile_qr_scan", "android": "https://dc.lft.to/lastmile_qr_scan"}, "is_reserved": 0}, {"lon": -77.13104516666667, "bike_id": "6a03b80666ed3328736f5786decc8971", "lat": 39.02436316666667, "fusion_lon": 0.0, "fusion_lat": 0.0, "type": "electric_bike", "name": "6a03b80666ed3328736f5786decc8971", "is_disabled": 0, "rental_uris": {"ios": "https://dc.lft.to/lastmile_qr_scan", "android": "https://dc.lft.to/lastmile_qr_scan"}, "is_reserved": 0}, {"lon": -77.02681933333334, "bike_id": "dbcc06b2a76fc184edcd99f8568aaffc", "lat": 38.948325, "fusion_lon": 0.0, "fusion_lat": 0.0, "type": "electric_scooter", "name": "dbcc06b2a76fc184edcd99f8568aaffc", "is_disabled": 0, "rental_uris": {"ios": "https://dc.lft.to/lastmile_qr_scan", "android": "https://dc.lft.to/lastmile_qr_scan"}, "is_reserved": 0}, {"lon": -77.032243, "bike_id": "5a922f6033025faf066d9aaa9596c1ec", "lat": 38.914061, "fusion_lon": 0.0, "fusion_lat": 0.0, "type": "electric_scooter", "name": "5a922f6033025faf066d9aaa9596c1ec", "is_disabled": 0, "rental_uris": {"ios": "https://dc.lft.to/lastmile_qr_scan", "android": "https://dc.lft.to/lastmile_qr_scan"}, "is_reserved": 0}, {"lon": -77.003013, "bike_id": "b3c9b44713049da776aa3cc66975f14a", "lat": 38.877479666666666, "fusion_lon": 0.0, "fusion_lat": 0.0, "type": "electric_scooter", "name": "b3c9b44713049da776aa3cc66975f14a", "is_disabled": 0, "rental_uris": {"ios": "https://dc.lft.to/lastmile_qr_scan", "android": "https://dc.lft.to/lastmile_qr_scan"}, "is_reserved": 0}, {"lon": -77.043536, "bike_id": "ac4b0b2e06590bbf311891f0360dc630", "lat": 38.9213075, "fusion_lon": 0.0, "fusion_lat": 0.0, "type": "electric_scooter", "name": "ac4b0b2e06590bbf311891f0360dc630", "is_disabled": 0, "rental_uris": {"ios": "https://dc.lft.to/lastmile_qr_scan", "android": "https://dc.lft.to/lastmile_qr_scan"}, "is_reserved": 0}, {"lon": -77.03934333333333, "bike_id": "27afdfdda6d941191e7012e6d0e8e967", "lat": 38.9209825, "fusion_lon": 0.0, "fusion_lat": 0.0, "type": "electric_scooter", "name": "27afdfdda6d941191e7012e6d0e8e967", "is_disabled": 0, "rental_uris": {"ios": "https://dc.lft.to/lastmile_qr_scan", "android": "https://dc.lft.to/lastmile_qr_scan"}, "is_reserved": 0}, {"lon": -77.02638833333333, "bike_id": "fc8dc6e1fa5441a488e7639d965d3280", "lat": 38.92680433333334, "fusion_lon": 0.0, "fusion_lat": 0.0, "type": "electric_scooter", "name": "fc8dc6e1fa5441a488e7639d965d3280", "is_disabled": 0, "rental_uris": {"ios": "https://dc.lft.to/lastmile_qr_scan", "android": "https://dc.lft.to/lastmile_qr_scan"}, "is_reserved": 0}, {"lon": -77.011184, "bike_id": "672ffe13dbccbe69469316fe33ea6030", "lat": 38.88547283333333, "fusion_lon": 0.0, "fusion_lat": 0.0, "type": "electric_scooter", "name": "672ffe13dbccbe69469316fe33ea6030", "is_disabled": 0, "rental_uris": {"ios": "https://dc.lft.to/lastmile_qr_scan", "android": "https://dc.lft.to/lastmile_qr_scan"}, "is_reserved": 0}, {"lon": -77.04684233333333, "bike_id": "72ff0844355d6d06f9c952056ed24823", "lat": 38.90618716666667, "fusion_lon": 0.0, "fusion_lat": 0.0, "type": "electric_scooter", "name": "72ff0844355d6d06f9c952056ed24823", "is_disabled": 0, "rental_uris": {"ios": "https://dc.lft.to/lastmile_qr_scan", "android": "https://dc.lft.to/lastmile_qr_scan"}, "is_reserved": 0}, {"lon": -77.03998766666666, "bike_id": "24d59bf92135316f2df6854a553c0dd1", "lat": 38.898827, "fusion_lon": 0.0, "fusion_lat": 0.0, "type": "electric_scooter", "name": "24d59bf92135316f2df6854a553c0dd1", "is_disabled": 0, "rental_uris": {"ios": "https://dc.lft.to/lastmile_qr_scan", "android": "https://dc.lft.to/lastmile_qr_scan"}, "is_reserved": 0}, {"lon": -77.01846116666667, "bike_id": "87c865d63f3dd3140cc25f28819e2993", "lat": 38.949925666666665, "fusion_lon": 0.0, "fusion_lat": 0.0, "type": "electric_scooter", "name": "87c865d63f3dd3140cc25f28819e2993", "is_disabled": 0, "rental_uris": {"ios": "https://dc.lft.to/lastmile_qr_scan", "android": "https://dc.lft.to/lastmile_qr_scan"}, "is_reserved": 0}, {"lon": -76.9857155, "bike_id": "931e9d1f9e5f0eb0da21ad4f492cf87c", "lat": 38.906376333333334, "fusion_lon": 0.0, "fusion_lat": 0.0, "type": "electric_scooter", "name": "931e9d1f9e5f0eb0da21ad4f492cf87c", "is_disabled": 0, "rental_uris": {"ios": "https://dc.lft.to/lastmile_qr_scan", "android": "https://dc.lft.to/lastmile_qr_scan"}, "is_reserved": 0}, {"lon": -77.04105116666666, "bike_id": "0c2eb45b075b1fa4172af4c0cd2b4b4f", "lat": 38.91774783333334, "fusion_lon": 0.0, "fusion_lat": 0.0, "type": "electric_scooter", "name": "0c2eb45b075b1fa4172af4c0cd2b4b4f", "is_disabled": 0, "rental_uris": {"ios": "https://dc.lft.to/lastmile_qr_scan", "android": "https://dc.lft.to/lastmile_qr_scan"}, "is_reserved": 0}, {"lon": -77.01560283333333, "bike_id": "e7126d6ae84068c245e756dff82676f3", "lat": 38.8921875, "fusion_lon": 0.0, "fusion_lat": 0.0, "type": "electric_scooter", "name": "e7126d6ae84068c245e756dff82676f3", "is_disabled": 0, "rental_uris": {"ios": "https://dc.lft.to/lastmile_qr_scan", "android": "https://dc.lft.to/lastmile_qr_scan"}, "is_reserved": 0}, {"lon": -77.013571, "bike_id": "2364c46dc2feb208da79303d237293cb", "lat": 38.89245566666666, "fusion_lon": 0.0, "fusion_lat": 0.0, "type": "electric_scooter", "name": "2364c46dc2feb208da79303d237293cb", "is_disabled": 0, "rental_uris": {"ios": "https://dc.lft.to/lastmile_qr_scan", "android": "https://dc.lft.to/lastmile_qr_scan"}, "is_reserved": 0}, {"lon": -77.02904016666666, "bike_id": "8a20f503059f44773d393cef21469500", "lat": 38.94036666666667, "fusion_lon": 0.0, "fusion_lat": 0.0, "type": "electric_scooter", "name": "8a20f503059f44773d393cef21469500", "is_disabled": 0, "rental_uris": {"ios": "https://dc.lft.to/lastmile_qr_scan", "android": "https://dc.lft.to/lastmile_qr_scan"}, "is_reserved": 0}, {"lon": -77.043525, "bike_id": "5ebaaf9ff839c9a63b1c0a0860f0d9bd", "lat": 38.907357166666664, "fusion_lon": 0.0, "fusion_lat": 0.0, "type": "electric_scooter", "name": "5ebaaf9ff839c9a63b1c0a0860f0d9bd", "is_disabled": 0, "rental_uris": {"ios": "https://dc.lft.to/lastmile_qr_scan", "android": "https://dc.lft.to/lastmile_qr_scan"}, "is_reserved": 0}, {"lon": -76.97859533333333, "bike_id": "cb1a542f8510613362094f653586e3f2", "lat": 38.87076033333334, "fusion_lon": 0.0, "fusion_lat": 0.0, "type": "electric_scooter", "name": "cb1a542f8510613362094f653586e3f2", "is_disabled": 0, "rental_uris": {"ios": "https://dc.lft.to/lastmile_qr_scan", "android": "https://dc.lft.to/lastmile_qr_scan"}, "is_reserved": 0}, {"lon": -77.06784, "bike_id": "2f7822a01c89c4e32895e461d664a19f", "lat": 38.90387783333333, "fusion_lon": 0.0, "fusion_lat": 0.0, "type": "electric_scooter", "name": "2f7822a01c89c4e32895e461d664a19f", "is_disabled": 0, "rental_uris": {"ios": "https://dc.lft.to/lastmile_qr_scan", "android": "https://dc.lft.to/lastmile_qr_scan"}, "is_reserved": 0}, {"lon": -77.034658, "bike_id": "3b09c7875590c4122954dda1141b0164", "lat": 38.91867116666667, "fusion_lon": 0.0, "fusion_lat": 0.0, "type": "electric_scooter", "name": "3b09c7875590c4122954dda1141b0164", "is_disabled": 0, "rental_uris": {"ios": "https://dc.lft.to/lastmile_qr_scan", "android": "https://dc.lft.to/lastmile_qr_scan"}, "is_reserved": 0}, {"lon": -77.03504816666667, "bike_id": "e612a74b50724c0c2fb4461b347c705c", "lat": 38.918724166666664, "fusion_lon": 0.0, "fusion_lat": 0.0, "type": "electric_scooter", "name": "e612a74b50724c0c2fb4461b347c705c", "is_disabled": 0, "rental_uris": {"ios": "https://dc.lft.to/lastmile_qr_scan", "android": "https://dc.lft.to/lastmile_qr_scan"}, "is_reserved": 0}, {"lon": -77.0506265, "bike_id": "d373a3bdee40161f0f68e703e5c728ba", "lat": 38.9240975, "fusion_lon": 0.0, "fusion_lat": 0.0, "type": "electric_scooter", "name": "d373a3bdee40161f0f68e703e5c728ba", "is_disabled": 0, "rental_uris": {"ios": "https://dc.lft.to/lastmile_qr_scan", "android": "https://dc.lft.to/lastmile_qr_scan"}, "is_reserved": 0}, {"lon": -77.032638, "bike_id": "3b635066802ff9a89dc0c512185b043f", "lat": 38.90452166666667, "fusion_lon": 0.0, "fusion_lat": 0.0, "type": "electric_scooter", "name": "3b635066802ff9a89dc0c512185b043f", "is_disabled": 0, "rental_uris": {"ios": "https://dc.lft.to/lastmile_qr_scan", "android": "https://dc.lft.to/lastmile_qr_scan"}, "is_reserved": 0}, {"lon": -77.02950783333333, "bike_id": "26ae83f9218b5ed03e2ebd4df21e0da8", "lat": 38.921729166666665, "fusion_lon": 0.0, "fusion_lat": 0.0, "type": "electric_scooter", "name": "26ae83f9218b5ed03e2ebd4df21e0da8", "is_disabled": 0, "rental_uris": {"ios": "https://dc.lft.to/lastmile_qr_scan", "android": "https://dc.lft.to/lastmile_qr_scan"}, "is_reserved": 0}, {"lon": -77.06408483333334, "bike_id": "a95f2249a705a410f2f08d2cde8aa67c", "lat": 38.84052466666667, "fusion_lon": 0.0, "fusion_lat": 0.0, "type": "electric_bike", "name": "a95f2249a705a410f2f08d2cde8aa67c", "is_disabled": 0, "rental_uris": {"ios": "https://dc.lft.to/lastmile_qr_scan", "android": "https://dc.lft.to/lastmile_qr_scan"}, "is_reserved": 0}, {"lon": -76.97310683333333, "bike_id": "293b57141660b644ae9e6b68f2cb013c", "lat": 38.91982566666667, "fusion_lon": 0.0, "fusion_lat": 0.0, "type": "electric_scooter", "name": "293b57141660b644ae9e6b68f2cb013c", "is_disabled": 0, "rental_uris": {"ios": "https://dc.lft.to/lastmile_qr_scan", "android": "https://dc.lft.to/lastmile_qr_scan"}, "is_reserved": 0}, {"lon": -77.05308516666666, "bike_id": "98549ebe1b4aa4d5448a7d5027fd7fce", "lat": 38.8984845, "fusion_lon": 0.0, "fusion_lat": 0.0, "type": "electric_scooter", "name": "98549ebe1b4aa4d5448a7d5027fd7fce", "is_disabled": 0, "rental_uris": {"ios": "https://dc.lft.to/lastmile_qr_scan", "android": "https://dc.lft.to/lastmile_qr_scan"}, "is_reserved": 0}, {"lon": -77.02148633333333, "bike_id": "dacdd65cf0e82d0cf9248befb0678d38", "lat": 38.92500483333333, "fusion_lon": 0.0, "fusion_lat": 0.0, "type": "electric_scooter", "name": "dacdd65cf0e82d0cf9248befb0678d38", "is_disabled": 0, "rental_uris": {"ios": "https://dc.lft.to/lastmile_qr_scan", "android": "https://dc.lft.to/lastmile_qr_scan"}, "is_reserved": 0}, {"lon": -77.03385483333334, "bike_id": "ffc38fc3bf0878e2b99751a1082e6573", "lat": 38.90829516666667, "fusion_lon": 0.0, "fusion_lat": 0.0, "type": "electric_scooter", "name": "ffc38fc3bf0878e2b99751a1082e6573", "is_disabled": 0, "rental_uris": {"ios": "https://dc.lft.to/lastmile_qr_scan", "android": "https://dc.lft.to/lastmile_qr_scan"}, "is_reserved": 0}, {"lon": -76.97706366666667, "bike_id": "bcdc1a12d628d63d1c62057d229b85b9", "lat": 38.888429, "fusion_lon": 0.0, "fusion_lat": 0.0, "type": "electric_bike", "name": "bcdc1a12d628d63d1c62057d229b85b9", "is_disabled": 0, "rental_uris": {"ios": "https://dc.lft.to/lastmile_qr_scan", "android": "https://dc.lft.to/lastmile_qr_scan"}, "is_reserved": 0}, {"lon": -77.026203, "bike_id": "582b7aeb652e33b8c75cd8fa80ffdad9", "lat": 38.928241666666665, "fusion_lon": 0.0, "fusion_lat": 0.0, "type": "electric_scooter", "name": "582b7aeb652e33b8c75cd8fa80ffdad9", "is_disabled": 0, "rental_uris": {"ios": "https://dc.lft.to/lastmile_qr_scan", "android": "https://dc.lft.to/lastmile_qr_scan"}, "is_reserved": 0}, {"lon": -77.03127833333333, "bike_id": "ba4cfc0d94e08c6ab3e90bb6a504ad65", "lat": 38.9134155, "fusion_lon": 0.0, "fusion_lat": 0.0, "type": "electric_scooter", "name": "ba4cfc0d94e08c6ab3e90bb6a504ad65", "is_disabled": 0, "rental_uris": {"ios": "https://dc.lft.to/lastmile_qr_scan", "android": "https://dc.lft.to/lastmile_qr_scan"}, "is_reserved": 0}, {"lon": -77.010528, "bike_id": "c8c2985e20eb27efe1eff7bca557f597", "lat": 38.963507, "fusion_lon": 0.0, "fusion_lat": 0.0, "type": "electric_scooter", "name": "c8c2985e20eb27efe1eff7bca557f597", "is_disabled": 0, "rental_uris": {"ios": "https://dc.lft.to/lastmile_qr_scan", "android": "https://dc.lft.to/lastmile_qr_scan"}, "is_reserved": 0}, {"lon": -77.03961933333333, "bike_id": "592d2d79629886dc697d86183297a6a7", "lat": 38.911742833333335, "fusion_lon": 0.0, "fusion_lat": 0.0, "type": "electric_scooter", "name": "592d2d79629886dc697d86183297a6a7", "is_disabled": 0, "rental_uris": {"ios": "https://dc.lft.to/lastmile_qr_scan", "android": "https://dc.lft.to/lastmile_qr_scan"}, "is_reserved": 0}, {"lon": -77.02260383333333, "bike_id": "41e6d372b32ef7cd7e32a6866aee2a81", "lat": 38.898360333333336, "fusion_lon": 0.0, "fusion_lat": 0.0, "type": "electric_scooter", "name": "41e6d372b32ef7cd7e32a6866aee2a81", "is_disabled": 0, "rental_uris": {"ios": "https://dc.lft.to/lastmile_qr_scan", "android": "https://dc.lft.to/lastmile_qr_scan"}, "is_reserved": 0}, {"lon": -77.01633833333334, "bike_id": "4608a2a3854624735b3f35c55b079988", "lat": 38.902455833333335, "fusion_lon": 0.0, "fusion_lat": 0.0, "type": "electric_scooter", "name": "4608a2a3854624735b3f35c55b079988", "is_disabled": 0, "rental_uris": {"ios": "https://dc.lft.to/lastmile_qr_scan", "android": "https://dc.lft.to/lastmile_qr_scan"}, "is_reserved": 0}, {"lon": -77.02417583333333, "bike_id": "db2e7899e8ab833f1a157054af4449ca", "lat": 38.915494, "fusion_lon": 0.0, "fusion_lat": 0.0, "type": "electric_scooter", "name": "db2e7899e8ab833f1a157054af4449ca", "is_disabled": 0, "rental_uris": {"ios": "https://dc.lft.to/lastmile_qr_scan", "android": "https://dc.lft.to/lastmile_qr_scan"}, "is_reserved": 0}, {"lon": -77.01579766666667, "bike_id": "2d7dfe43642849b9e96946ed0a33e07a", "lat": 38.87640583333334, "fusion_lon": 0.0, "fusion_lat": 0.0, "type": "electric_scooter", "name": "2d7dfe43642849b9e96946ed0a33e07a", "is_disabled": 0, "rental_uris": {"ios": "https://dc.lft.to/lastmile_qr_scan", "android": "https://dc.lft.to/lastmile_qr_scan"}, "is_reserved": 0}, {"lon": -77.01769783333333, "bike_id": "077525de2402f06b9f6b57f8100c20ac", "lat": 38.872164166666664, "fusion_lon": 0.0, "fusion_lat": 0.0, "type": "electric_scooter", "name": "077525de2402f06b9f6b57f8100c20ac", "is_disabled": 0, "rental_uris": {"ios": "https://dc.lft.to/lastmile_qr_scan", "android": "https://dc.lft.to/lastmile_qr_scan"}, "is_reserved": 0}, {"lon": -77.11921583333333, "bike_id": "45a881ed8943f2d7fc2be5464f7193f8", "lat": 38.87632383333333, "fusion_lon": 0.0, "fusion_lat": 0.0, "type": "electric_bike", "name": "45a881ed8943f2d7fc2be5464f7193f8", "is_disabled": 0, "rental_uris": {"ios": "https://dc.lft.to/lastmile_qr_scan", "android": "https://dc.lft.to/lastmile_qr_scan"}, "is_reserved": 0}, {"lon": -77.0269715, "bike_id": "6f2f512a7a7213154d99b8cc90fe4c67", "lat": 38.95408066666667, "fusion_lon": 0.0, "fusion_lat": 0.0, "type": "electric_scooter", "name": "6f2f512a7a7213154d99b8cc90fe4c67", "is_disabled": 0, "rental_uris": {"ios": "https://dc.lft.to/lastmile_qr_scan", "android": "https://dc.lft.to/lastmile_qr_scan"}, "is_reserved": 0}, {"lon": -77.03694233333333, "bike_id": "65b9e73238f2e6ab9e0bf181cdf454fc", "lat": 38.91676266666666, "fusion_lon": 0.0, "fusion_lat": 0.0, "type": "electric_scooter", "name": "65b9e73238f2e6ab9e0bf181cdf454fc", "is_disabled": 0, "rental_uris": {"ios": "https://dc.lft.to/lastmile_qr_scan", "android": "https://dc.lft.to/lastmile_qr_scan"}, "is_reserved": 0}, {"lon": -77.01966066666667, "bike_id": "4874c811f89a9dba583dca14d135c933", "lat": 38.9242325, "fusion_lon": 0.0, "fusion_lat": 0.0, "type": "electric_scooter", "name": "4874c811f89a9dba583dca14d135c933", "is_disabled": 0, "rental_uris": {"ios": "https://dc.lft.to/lastmile_qr_scan", "android": "https://dc.lft.to/lastmile_qr_scan"}, "is_reserved": 0}, {"lon": -77.0508505, "bike_id": "0e940e744dd4bd4f7195318a3768c6b5", "lat": 38.896643, "fusion_lon": 0.0, "fusion_lat": 0.0, "type": "electric_scooter", "name": "0e940e744dd4bd4f7195318a3768c6b5", "is_disabled": 0, "rental_uris": {"ios": "https://dc.lft.to/lastmile_qr_scan", "android": "https://dc.lft.to/lastmile_qr_scan"}, "is_reserved": 0}, {"lon": -77.02382866666666, "bike_id": "6c4758fa1b245a24dbd9b690f862c772", "lat": 38.93226416666667, "fusion_lon": 0.0, "fusion_lat": 0.0, "type": "electric_scooter", "name": "6c4758fa1b245a24dbd9b690f862c772", "is_disabled": 0, "rental_uris": {"ios": "https://dc.lft.to/lastmile_qr_scan", "android": "https://dc.lft.to/lastmile_qr_scan"}, "is_reserved": 0}, {"lon": -77.020947, "bike_id": "8bc69ea74233c48cf0d507ff331beda0", "lat": 38.92699833333333, "fusion_lon": 0.0, "fusion_lat": 0.0, "type": "electric_scooter", "name": "8bc69ea74233c48cf0d507ff331beda0", "is_disabled": 0, "rental_uris": {"ios": "https://dc.lft.to/lastmile_qr_scan", "android": "https://dc.lft.to/lastmile_qr_scan"}, "is_reserved": 0}, {"lon": -77.030816, "bike_id": "a56f75b6513b55fa1b016bfaaf0069cc", "lat": 38.91023716666667, "fusion_lon": 0.0, "fusion_lat": 0.0, "type": "electric_scooter", "name": "a56f75b6513b55fa1b016bfaaf0069cc", "is_disabled": 0, "rental_uris": {"ios": "https://dc.lft.to/lastmile_qr_scan", "android": "https://dc.lft.to/lastmile_qr_scan"}, "is_reserved": 0}, {"lon": -77.0072755, "bike_id": "bbfea61700b0e5a8589ceab6efa0a68c", "lat": 38.884909666666665, "fusion_lon": 0.0, "fusion_lat": 0.0, "type": "electric_scooter", "name": "bbfea61700b0e5a8589ceab6efa0a68c", "is_disabled": 0, "rental_uris": {"ios": "https://dc.lft.to/lastmile_qr_scan", "android": "https://dc.lft.to/lastmile_qr_scan"}, "is_reserved": 0}, {"lon": -77.02419316666666, "bike_id": "66c10590cd4c618802cb518fe5830c50", "lat": 38.894340666666665, "fusion_lon": 0.0, "fusion_lat": 0.0, "type": "electric_scooter", "name": "66c10590cd4c618802cb518fe5830c50", "is_disabled": 0, "rental_uris": {"ios": "https://dc.lft.to/lastmile_qr_scan", "android": "https://dc.lft.to/lastmile_qr_scan"}, "is_reserved": 0}, {"lon": -76.93641416666667, "bike_id": "0d62d07594d673392dd99da2f888c012", "lat": 38.902604833333335, "fusion_lon": 0.0, "fusion_lat": 0.0, "type": "electric_scooter", "name": "0d62d07594d673392dd99da2f888c012", "is_disabled": 0, "rental_uris": {"ios": "https://dc.lft.to/lastmile_qr_scan", "android": "https://dc.lft.to/lastmile_qr_scan"}, "is_reserved": 0}, {"lon": -76.98821683333334, "bike_id": "c78b197dd24e65f0b3ba8aea1d26879a", "lat": 38.90039933333333, "fusion_lon": 0.0, "fusion_lat": 0.0, "type": "electric_scooter", "name": "c78b197dd24e65f0b3ba8aea1d26879a", "is_disabled": 0, "rental_uris": {"ios": "https://dc.lft.to/lastmile_qr_scan", "android": "https://dc.lft.to/lastmile_qr_scan"}, "is_reserved": 0}, {"lon": -76.94879033333333, "bike_id": "2607fb5a7bf0b294cce4311c2757012a", "lat": 38.895493333333334, "fusion_lon": 0.0, "fusion_lat": 0.0, "type": "electric_scooter", "name": "2607fb5a7bf0b294cce4311c2757012a", "is_disabled": 0, "rental_uris": {"ios": "https://dc.lft.to/lastmile_qr_scan", "android": "https://dc.lft.to/lastmile_qr_scan"}, "is_reserved": 0}, {"lon": -77.02699466666667, "bike_id": "1741643588bbf52a904c6db4ba39a4d6", "lat": 38.8981375, "fusion_lon": 0.0, "fusion_lat": 0.0, "type": "electric_scooter", "name": "1741643588bbf52a904c6db4ba39a4d6", "is_disabled": 0, "rental_uris": {"ios": "https://dc.lft.to/lastmile_qr_scan", "android": "https://dc.lft.to/lastmile_qr_scan"}, "is_reserved": 0}, {"lon": -76.9420145, "bike_id": "2e1ca973034a5a1caff0985079700943", "lat": 38.893754666666666, "fusion_lon": 0.0, "fusion_lat": 0.0, "type": "electric_scooter", "name": "2e1ca973034a5a1caff0985079700943", "is_disabled": 0, "rental_uris": {"ios": "https://dc.lft.to/lastmile_qr_scan", "android": "https://dc.lft.to/lastmile_qr_scan"}, "is_reserved": 0}, {"lon": -77.01468683333333, "bike_id": "9ceaea3298e34d1e7342001edf1db1e7", "lat": 38.876390666666666, "fusion_lon": 0.0, "fusion_lat": 0.0, "type": "electric_scooter", "name": "9ceaea3298e34d1e7342001edf1db1e7", "is_disabled": 0, "rental_uris": {"ios": "https://dc.lft.to/lastmile_qr_scan", "android": "https://dc.lft.to/lastmile_qr_scan"}, "is_reserved": 0}, {"lon": -77.04328766666667, "bike_id": "81edcc842412642ffa985f17ef79df6d", "lat": 38.92207233333333, "fusion_lon": 0.0, "fusion_lat": 0.0, "type": "electric_scooter", "name": "81edcc842412642ffa985f17ef79df6d", "is_disabled": 0, "rental_uris": {"ios": "https://dc.lft.to/lastmile_qr_scan", "android": "https://dc.lft.to/lastmile_qr_scan"}, "is_reserved": 0}, {"lon": -77.0557845, "bike_id": "141d52ba9c02b5155f6bdb5a3ace254c", "lat": 38.91047666666667, "fusion_lon": 0.0, "fusion_lat": 0.0, "type": "electric_bike", "name": "141d52ba9c02b5155f6bdb5a3ace254c", "is_disabled": 0, "rental_uris": {"ios": "https://dc.lft.to/lastmile_qr_scan", "android": "https://dc.lft.to/lastmile_qr_scan"}, "is_reserved": 0}, {"lon": -76.98831716666666, "bike_id": "62a7df10058bdb745220beb367cce3ae", "lat": 38.896688, "fusion_lon": 0.0, "fusion_lat": 0.0, "type": "electric_scooter", "name": "62a7df10058bdb745220beb367cce3ae", "is_disabled": 0, "rental_uris": {"ios": "https://dc.lft.to/lastmile_qr_scan", "android": "https://dc.lft.to/lastmile_qr_scan"}, "is_reserved": 0}, {"lon": -76.946858, "bike_id": "ec1637163583448e78354d96147d3c50", "lat": 38.88627366666667, "fusion_lon": 0.0, "fusion_lat": 0.0, "type": "electric_scooter", "name": "ec1637163583448e78354d96147d3c50", "is_disabled": 0, "rental_uris": {"ios": "https://dc.lft.to/lastmile_qr_scan", "android": "https://dc.lft.to/lastmile_qr_scan"}, "is_reserved": 0}, {"lon": -77.03806383333334, "bike_id": "b111ba27a83c0606480c283d934f07b1", "lat": 38.93065883333333, "fusion_lon": 0.0, "fusion_lat": 0.0, "type": "electric_scooter", "name": "b111ba27a83c0606480c283d934f07b1", "is_disabled": 0, "rental_uris": {"ios": "https://dc.lft.to/lastmile_qr_scan", "android": "https://dc.lft.to/lastmile_qr_scan"}, "is_reserved": 0}, {"lon": -76.99758066666666, "bike_id": "ed37df72f9d17acc4e3560ade9cb11e9", "lat": 38.88766916666667, "fusion_lon": 0.0, "fusion_lat": 0.0, "type": "electric_scooter", "name": "ed37df72f9d17acc4e3560ade9cb11e9", "is_disabled": 0, "rental_uris": {"ios": "https://dc.lft.to/lastmile_qr_scan", "android": "https://dc.lft.to/lastmile_qr_scan"}, "is_reserved": 0}, {"lon": -77.03186316666667, "bike_id": "72fd82a296e395154d39c731fbe16757", "lat": 38.914291, "fusion_lon": 0.0, "fusion_lat": 0.0, "type": "electric_scooter", "name": "72fd82a296e395154d39c731fbe16757", "is_disabled": 0, "rental_uris": {"ios": "https://dc.lft.to/lastmile_qr_scan", "android": "https://dc.lft.to/lastmile_qr_scan"}, "is_reserved": 0}, {"lon": -77.0319175, "bike_id": "3e3180686b9744d658010a8ca7a64972", "lat": 38.9151815, "fusion_lon": 0.0, "fusion_lat": 0.0, "type": "electric_scooter", "name": "3e3180686b9744d658010a8ca7a64972", "is_disabled": 0, "rental_uris": {"ios": "https://dc.lft.to/lastmile_qr_scan", "android": "https://dc.lft.to/lastmile_qr_scan"}, "is_reserved": 0}, {"lon": -77.11084016666666, "bike_id": "f71c34042b36b341cf196021980d9ecf", "lat": 38.8117235, "fusion_lon": 0.0, "fusion_lat": 0.0, "type": "electric_bike", "name": "f71c34042b36b341cf196021980d9ecf", "is_disabled": 0, "rental_uris": {"ios": "https://dc.lft.to/lastmile_qr_scan", "android": "https://dc.lft.to/lastmile_qr_scan"}, "is_reserved": 0}, {"lon": -77.04502816666667, "bike_id": "b96c46de1e3445131c96f7259ad82e5b", "lat": 38.905016333333336, "fusion_lon": 0.0, "fusion_lat": 0.0, "type": "electric_scooter", "name": "b96c46de1e3445131c96f7259ad82e5b", "is_disabled": 0, "rental_uris": {"ios": "https://dc.lft.to/lastmile_qr_scan", "android": "https://dc.lft.to/lastmile_qr_scan"}, "is_reserved": 0}, {"lon": -77.015849, "bike_id": "01fef5bab0f8b911b00f83796ba89ba0", "lat": 38.8848785, "fusion_lon": 0.0, "fusion_lat": 0.0, "type": "electric_scooter", "name": "01fef5bab0f8b911b00f83796ba89ba0", "is_disabled": 0, "rental_uris": {"ios": "https://dc.lft.to/lastmile_qr_scan", "android": "https://dc.lft.to/lastmile_qr_scan"}, "is_reserved": 0}, {"lon": -77.04486433333334, "bike_id": "3b23915217a1ed71ba5ee0b479484d0f", "lat": 38.91099916666667, "fusion_lon": 0.0, "fusion_lat": 0.0, "type": "electric_scooter", "name": "3b23915217a1ed71ba5ee0b479484d0f", "is_disabled": 0, "rental_uris": {"ios": "https://dc.lft.to/lastmile_qr_scan", "android": "https://dc.lft.to/lastmile_qr_scan"}, "is_reserved": 0}, {"lon": -76.99508816666666, "bike_id": "30139241895a2e6babd4e783c9091f32", "lat": 38.87912133333333, "fusion_lon": 0.0, "fusion_lat": 0.0, "type": "electric_scooter", "name": "30139241895a2e6babd4e783c9091f32", "is_disabled": 0, "rental_uris": {"ios": "https://dc.lft.to/lastmile_qr_scan", "android": "https://dc.lft.to/lastmile_qr_scan"}, "is_reserved": 0}, {"lon": -76.99794516666667, "bike_id": "8ef621e3b49cee9b54f496ea134f6b05", "lat": 38.950887, "fusion_lon": 0.0, "fusion_lat": 0.0, "type": "electric_bike", "name": "8ef621e3b49cee9b54f496ea134f6b05", "is_disabled": 0, "rental_uris": {"ios": "https://dc.lft.to/lastmile_qr_scan", "android": "https://dc.lft.to/lastmile_qr_scan"}, "is_reserved": 0}, {"lon": -77.034424, "bike_id": "863883b77332d7e2a43b9603bcf86cc0", "lat": 38.90317316666667, "fusion_lon": 0.0, "fusion_lat": 0.0, "type": "electric_scooter", "name": "863883b77332d7e2a43b9603bcf86cc0", "is_disabled": 0, "rental_uris": {"ios": "https://dc.lft.to/lastmile_qr_scan", "android": "https://dc.lft.to/lastmile_qr_scan"}, "is_reserved": 0},