{"data": {"bikes": [{"bike_id": "a675f2b7c71a0bf89ff8d57931afa42e", "is_reserved": 0, "fusion_lon": 0.0, "lat": 38.90517066666666, "is_disabled": 0, "name": "a675f2b7c71a0bf89ff8d57931afa42e", "fusion_lat": 0.0, "rental_uris": {"ios": "https://dc.lft.to/lastmile_qr_scan", "android": "https://dc.lft.to/lastmile_qr_scan"}, "lon": -77.0654275, "type": "electric_scooter"}, {"bike_id": "84ea85e663f1ebc2926ab6fad7e2e827", "is_reserved": 0, "fusion_lon": 0.0, "lat": 39.0304375, "is_disabled": 0, "name": "84ea85e663f1ebc2926ab6fad7e2e827", "fusion_lat": 0.0, "rental_uris": {"ios": "https://dc.lft.to/lastmile_qr_scan", "android": "https://dc.lft.to/lastmile_qr_scan"}, "lon": -77.094874, "type": "electric_bike"}, {"bike_id": "37da006fd9e672dac2daffd062c356ee", "is_reserved": 0, "fusion_lon": 0.0, "lat": 38.9217705, "is_disabled": 0, "name": "37da006fd9e672dac2daffd062c356ee", "fusion_lat": 0.0, "rental_uris": {"ios": "https://dc.lft.to/lastmile_qr_scan", "android": "https://dc.lft.to/lastmile_qr_scan"}, "lon": -77.04235116666666, "type": "electric_scooter"}, {"bike_id": "3c6cfcc5bcc69d46e7fc395ec453a1e7", "is_reserved": 0, "fusion_lon": 0.0, "lat": 38.889648, "is_disabled": 0, "name": "3c6cfcc5bcc69d46e7fc395ec453a1e7", "fusion_lat": 0.0, "rental_uris": {"ios": "https://dc.lft.to/lastmile_qr_scan", "android": "https://dc.lft.to/lastmile_qr_scan"}, "lon": -76.980381, "type": "electric_scooter"}, {"bike_id": "a7bddceac97b3416b3820dd62d01d963", "is_reserved": 0, "fusion_lon": 0.0, "lat": 38.898285333333334, "is_disabled": 0, "name": "a7bddceac97b3416b3820dd62d01d963", "fusion_lat": 0.0, "rental_uris": {"ios": "https://dc.lft.to/lastmile_qr_scan", "android": "https://dc.lft.to/lastmile_qr_scan"}, "lon": -76.98035783333333, "type": "electric_scooter"}, {"bike_id": "ce571d5fe52e9654bc64f83f93885d78", "is_reserved": 0, "fusion_lon": 0.0, "lat": 38.887031666666665, "is_disabled": 0, "name": "ce571d5fe52e9654bc64f83f93885d78", "fusion_lat": 0.0, "rental_uris": {"ios": "https://dc.lft.to/lastmile_qr_scan", "android": "https://dc.lft.to/lastmile_qr_scan"}, "lon": -77.001539, "type": "electric_scooter"}, {"bike_id": "6c66c5de5644ef1d2004da6f2427498c", "is_reserved": 0, "fusion_lon": 0.0, "lat": 38.90327166666667, "is_disabled": 0, "name": "6c66c5de5644ef1d2004da6f2427498c", "fusion_lat": 0.0, "rental_uris": {"ios": "https://dc.lft.to/lastmile_qr_scan", "android": "https://dc.lft.to/lastmile_qr_scan"}, "lon": -76.9801865, "type": "electric_scooter"}, {"bike_id": "cdce7bf367e5af07ed85654f11bbfbe7", "is_reserved": 0, "fusion_lon": 0.0, "lat": 38.92307916666667, "is_disabled": 0, "name": "cdce7bf367e5af07ed85654f11bbfbe7", "fusion_lat": 0.0, "rental_uris": {"ios": "https://dc.lft.to/lastmile_qr_scan", "android": "https://dc.lft.to/lastmile_qr_scan"}, "lon": -77.02123233333333, "type": "electric_scooter"}, {"bike_id": "7db6e5bf62f05babcdf97a2afde8d704", "is_reserved": 0, "fusion_lon": 0.0, "lat": 38.89615516666667, "is_disabled": 0, "name": "7db6e5bf62f05babcdf97a2afde8d704", "fusion_lat": 0.0, "rental_uris": {"ios": "https://dc.lft.to/lastmile_qr_scan", "android": "https://dc.lft.to/lastmile_qr_scan"}, "lon": -77.00265583333334, "type": "electric_scooter"}, {"bike_id": "36f554f21fc471a1b6c5cbcec08e98d5", "is_reserved": 0, "fusion_lon": 0.0, "lat": 38.915475, "is_disabled": 0, "name": "36f554f21fc471a1b6c5cbcec08e98d5", "fusion_lat": 0.0, "rental_uris": {"ios": "https://dc.lft.to/lastmile_qr_scan", "android": "https://dc.lft.to/lastmile_qr_scan"}, "lon": -77.03516833333333, "type": "electric_scooter"}, {"bike_id": "416854bdf2a76f3879eff4d6d92a5a96", "is_reserved": 0, "fusion_lon": 0.0, "lat": 38.908764166666664, "is_disabled": 0, "name": "416854bdf2a76f3879eff4d6d92a5a96", "fusion_lat": 0.0, "rental_uris": {"ios": "https://dc.lft.to/lastmile_qr_scan", "android": "https://dc.lft.to/lastmile_qr_scan"}, "lon": -77.04328516666666, "type": "electric_scooter"}, {"bike_id": "85ee975a314c1ed4320b285b891bfec1", "is_reserved": 0, "fusion_lon": 0.0, "lat": 38.901746333333335, "is_disabled": 0, "name": "85ee975a314c1ed4320b285b891bfec1", "fusion_lat": 0.0, "rental_uris": {"ios": "https://dc.lft.to/lastmile_qr_scan", "android": "https://dc.lft.to/lastmile_qr_scan"}, "lon": -76.98071066666667, "type": "electric_scooter"}, {"bike_id": "de5a71ce8175d22d2c0f0a04dbd80bcf", "is_reserved": 0, "fusion_lon": 0.0, "lat": 38.917739, "is_disabled": 0, "name": "de5a71ce8175d22d2c0f0a04dbd80bcf", "fusion_lat": 0.0, "rental_uris": {"ios": "https://dc.lft.to/lastmile_qr_scan", "android": "https://dc.lft.to/lastmile_qr_scan"}, "lon": -76.973302, "type": "electric_scooter"}, {"bike_id": "c80fa5254655b9a3b91b99bc8ea26fe7", "is_reserved": 0, "fusion_lon": 0.0, "lat": 38.917027833333336, "is_disabled": 0, "name": "c80fa5254655b9a3b91b99bc8ea26fe7", "fusion_lat": 0.0, "rental_uris": {"ios": "https://dc.lft.to/lastmile_qr_scan", "android": "https://dc.lft.to/lastmile_qr_scan"}, "lon": -77.028972, "type": "electric_scooter"}, {"bike_id": "cbecb6e667edb338ee53ee09d88cfa7a", "is_reserved": 0, "fusion_lon": 0.0, "lat": 38.92242, "is_disabled": 0, "name": "cbecb6e667edb338ee53ee09d88cfa7a", "fusion_lat": 0.0, "rental_uris": {"ios": "https://dc.lft.to/lastmile_qr_scan", "android": "https://dc.lft.to/lastmile_qr_scan"}, "lon": -77.04267233333333, "type": "electric_scooter"}, {"bike_id": "b5d5362a5988304a5815d5d52be5c67e", "is_reserved": 0, "fusion_lon": 0.0, "lat": 38.90112466666667, "is_disabled": 0, "name": "b5d5362a5988304a5815d5d52be5c67e", "fusion_lat": 0.0, "rental_uris": {"ios": "https://dc.lft.to/lastmile_qr_scan", "android": "https://dc.lft.to/lastmile_qr_scan"}, "lon": -77.049972, "type": "electric_scooter"}, {"bike_id": "b1c090729cf816140f02ec61607df2fd", "is_reserved": 0, "fusion_lon": 0.0, "lat": 38.9422325, "is_disabled": 0, "name": "b1c090729cf816140f02ec61607df2fd", "fusion_lat": 0.0, "rental_uris": {"ios": "https://dc.lft.to/lastmile_qr_scan", "android": "https://dc.lft.to/lastmile_qr_scan"}, "lon": -77.01537483333334, "type": "electric_scooter"}, {"bike_id": "2ce5d2eeb07b2fcecd2f07cf851e2793", "is_reserved": 0, "fusion_lon": 0.0, "lat": 38.904891166666665, "is_disabled": 0, "name": "2ce5d2eeb07b2fcecd2f07cf851e2793", "fusion_lat": 0.0, "rental_uris": {"ios": "https://dc.lft.to/lastmile_qr_scan", "android": "https://dc.lft.to/lastmile_qr_scan"}, "lon": -77.06011616666666, "type": "electric_scooter"}, {"bike_id": "031366f516761b071b059232fe8debc3", "is_reserved": 0, "fusion_lon": 0.0, "lat": 39.038806, "is_disabled": 0, "name": "031366f516761b071b059232fe8debc3", "fusion_lat": 0.0, "rental_uris": {"ios": "https://dc.lft.to/lastmile_qr_scan", "android": "https://dc.lft.to/lastmile_qr_scan"}, "lon": -76.99045766666667, "type": "electric_bike"}, {"bike_id": "ab908643af9b4ded85df0b585da1a08c", "is_reserved": 0, "fusion_lon": 0.0, "lat": 38.89761, "is_disabled": 0, "name": "ab908643af9b4ded85df0b585da1a08c", "fusion_lat": 0.0, "rental_uris": {"ios": "https://dc.lft.to/lastmile_qr_scan", "android": "https://dc.lft.to/lastmile_qr_scan"}, "lon": -76.98552816666667, "type": "electric_scooter"}, {"bike_id": "d714d73ae0a147319818836515a0d5a2", "is_reserved": 0, "fusion_lon": 0.0, "lat": 38.85803883333333, "is_disabled": 0, "name": "d714d73ae0a147319818836515a0d5a2", "fusion_lat": 0.0, "rental_uris": {"ios": "https://dc.lft.to/lastmile_qr_scan", "android": "https://dc.lft.to/lastmile_qr_scan"}, "lon": -76.98656266666667, "type": "electric_scooter"}, {"bike_id": "c65afb840bb4e988a1547f3e7ecb39e8", "is_reserved": 0, "fusion_lon": 0.0, "lat": 38.944367, "is_disabled": 0, "name": "c65afb840bb4e988a1547f3e7ecb39e8", "fusion_lat": 0.0, "rental_uris": {"ios": "https://dc.lft.to/lastmile_qr_scan", "android": "https://dc.lft.to/lastmile_qr_scan"}, "lon": -77.06354966666666, "type": "electric_scooter"}, {"bike_id": "a3ee8c21a5120b7f70d22ab7c4e3d203", "is_reserved": 0, "fusion_lon": 0.0, "lat": 38.89219933333333, "is_disabled": 0, "name": "a3ee8c21a5120b7f70d22ab7c4e3d203", "fusion_lat": 0.0, "rental_uris": {"ios": "https://dc.lft.to/lastmile_qr_scan", "android": "https://dc.lft.to/lastmile_qr_scan"}, "lon": -77.02447816666667, "type": "electric_scooter"}, {"bike_id": "79f9532bba738fc7968aeebdfa826b96", "is_reserved": 0, "fusion_lon": 0.0, "lat": 38.99842866666667, "is_disabled": 0, "name": "79f9532bba738fc7968aeebdfa826b96", "fusion_lat": 0.0, "rental_uris": {"ios": "https://dc.lft.to/lastmile_qr_scan", "android": "https://dc.lft.to/lastmile_qr_scan"}, "lon": -77.02908116666667, "type": "electric_bike"}, {"bike_id": "1e8ee0fc045eed02c3f855d293b170d3", "is_reserved": 0, "fusion_lon": 0.0, "lat": 38.88544816666667, "is_disabled": 0, "name": "1e8ee0fc045eed02c3f855d293b170d3", "fusion_lat": 0.0, "rental_uris": {"ios": "https://dc.lft.to/lastmile_qr_scan", "android": "https://dc.lft.to/lastmile_qr_scan"}, "lon": -77.11788383333334, "type": "electric_bike"}, {"bike_id": "c22b0477525e53a747f1dc07c78a05de", "is_reserved": 0, "fusion_lon": 0.0, "lat": 38.93301233333333, "is_disabled": 0, "name": "c22b0477525e53a747f1dc07c78a05de", "fusion_lat": 0.0, "rental_uris": {"ios": "https://dc.lft.to/lastmile_qr_scan", "android": "https://dc.lft.to/lastmile_qr_scan"}, "lon": -77.021641, "type": "electric_bike"}, {"bike_id": "48d306f41c7ce6aabf597de285b53eab", "is_reserved": 0, "fusion_lon": 0.0, "lat": 38.934220333333336, "is_disabled": 0, "name": "48d306f41c7ce6aabf597de285b53eab", "fusion_lat": 0.0, "rental_uris": {"ios": "https://dc.lft.to/lastmile_qr_scan", "android": "https://dc.lft.to/lastmile_qr_scan"}, "lon": -76.965112, "type": "electric_scooter"}, {"bike_id": "e82e3fcccc42097ea4d1f2fd85d2c39f", "is_reserved": 0, "fusion_lon": 0.0, "lat": 38.870490833333335, "is_disabled": 0, "name": "e82e3fcccc42097ea4d1f2fd85d2c39f", "fusion_lat": 0.0, "rental_uris": {"ios": "https://dc.lft.to/lastmile_qr_scan", "android": "https://dc.lft.to/lastmile_qr_scan"}, "lon": -77.10999616666666, "type": "electric_bike"}, {"bike_id": "d54950e2de8e2108ab8d5cc8ec6dd29e", "is_reserved": 0, "fusion_lon": 0.0, "lat": 38.906626, "is_disabled": 0, "name": "d54950e2de8e2108ab8d5cc8ec6dd29e", "fusion_lat": 0.0, "rental_uris": {"ios": "https://dc.lft.to/lastmile_qr_scan", "android": "https://dc.lft.to/lastmile_qr_scan"}, "lon": -77.02712533333333, "type": "electric_scooter"}, {"bike_id": "ffda87b69c28c7c6cdd4993a178f47e6", "is_reserved": 0, "fusion_lon": 0.0, "lat": 38.922099333333335, "is_disabled": 0, "name": "ffda87b69c28c7c6cdd4993a178f47e6", "fusion_lat": 0.0, "rental_uris": {"ios": "https://dc.lft.to/lastmile_qr_scan", "android": "https://dc.lft.to/lastmile_qr_scan"}, "lon": -77.036664, "type": "electric_scooter"}, {"bike_id": "bc1d6bc07a3038e12c334d2ec83c07fc", "is_reserved": 0, "fusion_lon": 0.0, "lat": 38.8916855, "is_disabled": 0, "name": "bc1d6bc07a3038e12c334d2ec83c07fc", "fusion_lat": 0.0, "rental_uris": {"ios": "https://dc.lft.to/lastmile_qr_scan", "android": "https://dc.lft.to/lastmile_qr_scan"}, "lon": -77.01546116666667, "type": "electric_scooter"}, {"bike_id": "cdaedc7c131efea5e21133ffa12320d0", "is_reserved": 0, "fusion_lon": 0.0, "lat": 38.90170466666667, "is_disabled": 0, "name": "cdaedc7c131efea5e21133ffa12320d0", "fusion_lat": 0.0, "rental_uris": {"ios": "https://dc.lft.to/lastmile_qr_scan", "android": "https://dc.lft.to/lastmile_qr_scan"}, "lon": -77.02492333333333, "type": "electric_scooter"}, {"bike_id": "9e3ad8241b76635ea40826b6fc08e417", "is_reserved": 0, "fusion_lon": 0.0, "lat": 38.8981345, "is_disabled": 0, "name": "9e3ad8241b76635ea40826b6fc08e417", "fusion_lat": 0.0, "rental_uris": {"ios": "https://dc.lft.to/lastmile_qr_scan", "android": "https://dc.lft.to/lastmile_qr_scan"}, "lon": -77.03301083333334, "type": "electric_scooter"}, {"bike_id": "83d56307c38be898e24ce3cbe15d5e0a", "is_reserved": 0, "fusion_lon": 0.0, "lat": 38.92002383333333, "is_disabled": 0, "name": "83d56307c38be898e24ce3cbe15d5e0a", "fusion_lat": 0.0, "rental_uris": {"ios": "https://dc.lft.to/lastmile_qr_scan", "android": "https://dc.lft.to/lastmile_qr_scan"}, "lon": -77.04179816666667, "type": "electric_scooter"}, {"bike_id": "02d8b15a9e88f5a0a0100a38186af059", "is_reserved": 0, "fusion_lon": 0.0, "lat": 38.8910535, "is_disabled": 0, "name": "02d8b15a9e88f5a0a0100a38186af059", "fusion_lat": 0.0, "rental_uris": {"ios": "https://dc.lft.to/lastmile_qr_scan", "android": "https://dc.lft.to/lastmile_qr_scan"}, "lon": -76.9870625, "type": "electric_scooter"}, {"bike_id": "22e97a9ee9c108f026eef08b9cbd2e3a", "is_reserved": 0, "fusion_lon": 0.0, "lat": 38.9176045, "is_disabled": 0, "name": "22e97a9ee9c108f026eef08b9cbd2e3a", "fusion_lat": 0.0, "rental_uris": {"ios": "https://dc.lft.to/lastmile_qr_scan", "android": "https://dc.lft.to/lastmile_qr_scan"}, "lon": -77.03670633333333, "type": "electric_scooter"}, {"bike_id": "1bcbe5b306fef1371ca89e282a42f582", "is_reserved": 0, "fusion_lon": 0.0, "lat": 38.9185495, "is_disabled": 0, "name": "1bcbe5b306fef1371ca89e282a42f582", "fusion_lat": 0.0, "rental_uris": {"ios": "https://dc.lft.to/lastmile_qr_scan", "android": "https://dc.lft.to/lastmile_qr_scan"}, "lon": -77.04173883333333, "type": "electric_scooter"}, {"bike_id": "d8eefecc948ae5d6bd39a06f2686f891", "is_reserved": 0, "fusion_lon": 0.0, "lat": 38.879146666666664, "is_disabled": 0, "name": "d8eefecc948ae5d6bd39a06f2686f891", "fusion_lat": 0.0, "rental_uris": {"ios": "https://dc.lft.to/lastmile_qr_scan", "android": "https://dc.lft.to/lastmile_qr_scan"}, "lon": -76.99510066666667, "type": "electric_scooter"}, {"bike_id": "a6c968f8d392c2fa3caa48a6ad4daa41", "is_reserved": 0, "fusion_lon": 0.0, "lat": 38.8708435, "is_disabled": 0, "name": "a6c968f8d392c2fa3caa48a6ad4daa41", "fusion_lat": 0.0, "rental_uris": {"ios": "https://dc.lft.to/lastmile_qr_scan", "android": "https://dc.lft.to/lastmile_qr_scan"}, "lon": -77.01209866666666, "type": "electric_bike"}, {"bike_id": "a3ab2df6dfc2cc4c6a80a57767d5476e", "is_reserved": 0, "fusion_lon": 0.0, "lat": 38.896831666666664, "is_disabled": 0, "name": "a3ab2df6dfc2cc4c6a80a57767d5476e", "fusion_lat": 0.0, "rental_uris": {"ios": "https://dc.lft.to/lastmile_qr_scan", "android": "https://dc.lft.to/lastmile_qr_scan"}, "lon": -76.99628566666667, "type": "electric_scooter"}, {"bike_id": "99a4e1576bac3548b221695e0e4446af", "is_reserved": 0, "fusion_lon": 0.0, "lat": 38.88449033333333, "is_disabled": 0, "name": "99a4e1576bac3548b221695e0e4446af", "fusion_lat": 0.0, "rental_uris": {"ios": "https://dc.lft.to/lastmile_qr_scan", "android": "https://dc.lft.to/lastmile_qr_scan"}, "lon": -76.95098483333334, "type": "electric_scooter"}, {"bike_id": "568686fc4891aefe15a631003f1cc0ea", "is_reserved": 0, "fusion_lon": 0.0, "lat": 38.928489, "is_disabled": 0, "name": "568686fc4891aefe15a631003f1cc0ea", "fusion_lat": 0.0, "rental_uris": {"ios": "https://dc.lft.to/lastmile_qr_scan", "android": "https://dc.lft.to/lastmile_qr_scan"}, "lon": -77.01375666666667, "type": "electric_scooter"}, {"bike_id": "0df1b6d853a7be8260045ccab7bc7162", "is_reserved": 0, "fusion_lon": 0.0, "lat": 38.8922125, "is_disabled": 0, "name": "0df1b6d853a7be8260045ccab7bc7162", "fusion_lat": 0.0, "rental_uris": {"ios": "https://dc.lft.to/lastmile_qr_scan", "android": "https://dc.lft.to/lastmile_qr_scan"}, "lon": -77.04194583333333, "type": "electric_scooter"}, {"bike_id": "594bbcb3bbc02bb520cc5eca29ecfebf", "is_reserved": 0, "fusion_lon": 0.0, "lat": 38.89604333333333, "is_disabled": 0, "name": "594bbcb3bbc02bb520cc5eca29ecfebf", "fusion_lat": 0.0, "rental_uris": {"ios": "https://dc.lft.to/lastmile_qr_scan", "android": "https://dc.lft.to/lastmile_qr_scan"}, "lon": -77.00928683333333, "type": "electric_scooter"}, {"bike_id": "53b95e548db46f35c9ac8bcebacbe68f", "is_reserved": 0, "fusion_lon": 0.0, "lat": 38.924107166666666, "is_disabled": 0, "name": "53b95e548db46f35c9ac8bcebacbe68f", "fusion_lat": 0.0, "rental_uris": {"ios": "https://dc.lft.to/lastmile_qr_scan", "android": "https://dc.lft.to/lastmile_qr_scan"}, "lon": -77.03640383333334, "type": "electric_scooter"}, {"bike_id": "6637cf0ae1feffac1947d127485b2f42", "is_reserved": 0, "fusion_lon": 0.0, "lat": 38.91705316666667, "is_disabled": 0, "name": "6637cf0ae1feffac1947d127485b2f42", "fusion_lat": 0.0, "rental_uris": {"ios": "https://dc.lft.to/lastmile_qr_scan", "android": "https://dc.lft.to/lastmile_qr_scan"}, "lon": -77.0241585, "type": "electric_scooter"}, {"bike_id": "7e696f85a7253728f695a986ac699314", "is_reserved": 0, "fusion_lon": 0.0, "lat": 38.921414666666664, "is_disabled": 0, "name": "7e696f85a7253728f695a986ac699314", "fusion_lat": 0.0, "rental_uris": {"ios": "https://dc.lft.to/lastmile_qr_scan", "android": "https://dc.lft.to/lastmile_qr_scan"}, "lon": -77.04221133333333, "type": "electric_scooter"}, {"bike_id": "8b1cef4507d951aaad0a7be7baeea924", "is_reserved": 0, "fusion_lon": 0.0, "lat": 38.920614, "is_disabled": 0, "name": "8b1cef4507d951aaad0a7be7baeea924", "fusion_lat": 0.0, "rental_uris": {"ios": "https://dc.lft.to/lastmile_qr_scan", "android": "https://dc.lft.to/lastmile_qr_scan"}, "lon": -77.04195466666667, "type": "electric_scooter"}, {"bike_id": "128b15e28697c44e5f000cebb9cad9de", "is_reserved": 0, "fusion_lon": 0.0, "lat": 38.9659915, "is_disabled": 0, "name": "128b15e28697c44e5f000cebb9cad9de", "fusion_lat": 0.0, "rental_uris": {"ios": "https://dc.lft.to/lastmile_qr_scan", "android": "https://dc.lft.to/lastmile_qr_scan"}, "lon": -76.98335533333334, "type": "electric_bike"}, {"bike_id": "92552d4fb7430d02690185767e1d2001", "is_reserved": 0, "fusion_lon": 0.0, "lat": 38.90357316666667, "is_disabled": 0, "name": "92552d4fb7430d02690185767e1d2001", "fusion_lat": 0.0, "rental_uris": {"ios": "https://dc.lft.to/lastmile_qr_scan", "android": "https://dc.lft.to/lastmile_qr_scan"}, "lon": -77.01934083333333, "type": "electric_scooter"}, {"bike_id": "b0ad0453b7e55326b1f40db34d7e4e96", "is_reserved": 0, "fusion_lon": 0.0, "lat": 38.91032366666666, "is_disabled": 0, "name": "b0ad0453b7e55326b1f40db34d7e4e96", "fusion_lat": 0.0, "rental_uris": {"ios": "https://dc.lft.to/lastmile_qr_scan", "android": "https://dc.lft.to/lastmile_qr_scan"}, "lon": -77.03802966666667, "type": "electric_scooter"}, {"bike_id": "2925ecd26b31ee305a1b071ed2235928", "is_reserved": 0, "fusion_lon": 0.0, "lat": 38.933809833333335, "is_disabled": 0, "name": "2925ecd26b31ee305a1b071ed2235928", "fusion_lat": 0.0, "rental_uris": {"ios": "https://dc.lft.to/lastmile_qr_scan", "android": "https://dc.lft.to/lastmile_qr_scan"}, "lon": -77.0290385, "type": "electric_scooter"}, {"bike_id": "cb7dc6e18598cbe81fd19c8215b7b261", "is_reserved": 0, "fusion_lon": 0.0, "lat": 38.8983555, "is_disabled": 0, "name": "cb7dc6e18598cbe81fd19c8215b7b261", "fusion_lat": 0.0, "rental_uris": {"ios": "https://dc.lft.to/lastmile_qr_scan", "android": "https://dc.lft.to/lastmile_qr_scan"}, "lon": -76.93106233333333, "type": "electric_scooter"}, {"bike_id": "d78c6e437aeb64859f2f74acf09bf655", "is_reserved": 0, "fusion_lon": 0.0, "lat": 38.92468266666667, "is_disabled": 0, "name": "d78c6e437aeb64859f2f74acf09bf655", "fusion_lat": 0.0, "rental_uris": {"ios": "https://dc.lft.to/lastmile_qr_scan", "android": "https://dc.lft.to/lastmile_qr_scan"}, "lon": -77.02269033333333, "type": "electric_scooter"}, {"bike_id": "4fcc9ff5b2d26e2cc44413dd471e1753", "is_reserved": 0, "fusion_lon": 0.0, "lat": 38.870714166666666, "is_disabled": 0, "name": "4fcc9ff5b2d26e2cc44413dd471e1753", "fusion_lat": 0.0, "rental_uris": {"ios": "https://dc.lft.to/lastmile_qr_scan", "android": "https://dc.lft.to/lastmile_qr_scan"}, "lon": -76.98239083333333, "type": "electric_scooter"}, {"bike_id": "a76bc7587d6e9f7d42c8e23fe2b1da92", "is_reserved": 0, "fusion_lon": 0.0, "lat": 38.90844533333333, "is_disabled": 0, "name": "a76bc7587d6e9f7d42c8e23fe2b1da92", "fusion_lat": 0.0, "rental_uris": {"ios": "https://dc.lft.to/lastmile_qr_scan", "android": "https://dc.lft.to/lastmile_qr_scan"}, "lon": -77.085334, "type": "electric_scooter"}, {"bike_id": "bae8007fe9513c3889d4e50368d14a5c", "is_reserved": 0, "fusion_lon": 0.0, "lat": 38.88359466666667, "is_disabled": 0, "name": "bae8007fe9513c3889d4e50368d14a5c", "fusion_lat": 0.0, "rental_uris": {"ios": "https://dc.lft.to/lastmile_qr_scan", "android": "https://dc.lft.to/lastmile_qr_scan"}, "lon": -77.03176066666667, "type": "electric_scooter"}, {"bike_id": "2e78180501cc26a73aef384262d223b8", "is_reserved": 0, "fusion_lon": 0.0, "lat": 38.9171815, "is_disabled": 0, "name": "2e78180501cc26a73aef384262d223b8", "fusion_lat": 0.0, "rental_uris": {"ios": "https://dc.lft.to/lastmile_qr_scan", "android": "https://dc.lft.to/lastmile_qr_scan"}, "lon": -77.03843983333333, "type": "electric_scooter"}, {"bike_id": "8855efe2f960864e1563ddb6f2ec8b6d", "is_reserved": 0, "fusion_lon": 0.0, "lat": 38.882920666666664, "is_disabled": 0, "name": "8855efe2f960864e1563ddb6f2ec8b6d", "fusion_lat": 0.0, "rental_uris": {"ios": "https://dc.lft.to/lastmile_qr_scan", "android": "https://dc.lft.to/lastmile_qr_scan"}, "lon": -76.99148466666666, "type": "electric_scooter"}, {"bike_id": "449ccd3d060fcdc9a66678703df41edf", "is_reserved": 0, "fusion_lon": 0.0, "lat": 38.902703833333334, "is_disabled": 0, "name": "449ccd3d060fcdc9a66678703df41edf", "fusion_lat": 0.0, "rental_uris": {"ios": "https://dc.lft.to/lastmile_qr_scan", "android": "https://dc.lft.to/lastmile_qr_scan"}, "lon": -77.0411265, "type": "electric_scooter"}, {"bike_id": "7a5030780d0e32b2374ca6ee7985c112", "is_reserved": 0, "fusion_lon": 0.0, "lat": 38.858073833333336, "is_disabled": 0, "name": "7a5030780d0e32b2374ca6ee7985c112", "fusion_lat": 0.0, "rental_uris": {"ios": "https://dc.lft.to/lastmile_qr_scan", "android": "https://dc.lft.to/lastmile_qr_scan"}, "lon": -76.9865505, "type": "electric_scooter"}, {"bike_id": "f4fc1590b05bb5e7e4f6d03c2f1395dd", "is_reserved": 0, "fusion_lon": 0.0, "lat": 38.903816666666664, "is_disabled": 0, "name": "f4fc1590b05bb5e7e4f6d03c2f1395dd", "fusion_lat": 0.0, "rental_uris": {"ios": "https://dc.lft.to/lastmile_qr_scan", "android": "https://dc.lft.to/lastmile_qr_scan"}, "lon": -77.039934, "type": "electric_scooter"}, {"bike_id": "d0b99535f693af65455c21693615c4a3", "is_reserved": 0, "fusion_lon": 0.0, "lat": 38.92554766666667, "is_disabled": 0, "name": "d0b99535f693af65455c21693615c4a3", "fusion_lat": 0.0, "rental_uris": {"ios": "https://dc.lft.to/lastmile_qr_scan", "android": "https://dc.lft.to/lastmile_qr_scan"}, "lon": -77.038008, "type": "electric_scooter"}, {"bike_id": "b2c0814af45b6749472a58349e67c584", "is_reserved": 0, "fusion_lon": 0.0, "lat": 38.8918695, "is_disabled": 0, "name": "b2c0814af45b6749472a58349e67c584", "fusion_lat": 0.0, "rental_uris": {"ios": "https://dc.lft.to/lastmile_qr_scan", "android": "https://dc.lft.to/lastmile_qr_scan"}, "lon": -77.12265166666667, "type": "electric_bike"}, {"bike_id": "09f35006a9d49a0687406b2d1e43d003", "is_reserved": 0, "fusion_lon": 0.0, "lat": 38.89811916666667, "is_disabled": 0, "name": "09f35006a9d49a0687406b2d1e43d003", "fusion_lat": 0.0, "rental_uris": {"ios": "https://dc.lft.to/lastmile_qr_scan", "android": "https://dc.lft.to/lastmile_qr_scan"}, "lon": -76.99086033333333, "type": "electric_bike"}, {"bike_id": "8d2dc769b568115fd724f4d19b85b930", "is_reserved": 0, "fusion_lon": 0.0, "lat": 38.92481183333334, "is_disabled": 0, "name": "8d2dc769b568115fd724f4d19b85b930", "fusion_lat": 0.0, "rental_uris": {"ios": "https://dc.lft.to/lastmile_qr_scan", "android": "https://dc.lft.to/lastmile_qr_scan"}, "lon": -77.0521825, "type": "electric_scooter"}, {"bike_id": "2741fa00aec8d9a18f91b2c4118dcb96", "is_reserved": 0, "fusion_lon": 0.0, "lat": 38.89022766666667, "is_disabled": 0, "name": "2741fa00aec8d9a18f91b2c4118dcb96", "fusion_lat": 0.0, "rental_uris": {"ios": "https://dc.lft.to/lastmile_qr_scan", "android": "https://dc.lft.to/lastmile_qr_scan"}, "lon": -76.94121033333333, "type": "electric_scooter"}, {"bike_id": "a566350221d92b405bb54a959039350b", "is_reserved": 0, "fusion_lon": 0.0, "lat": 38.940894, "is_disabled": 0, "name": "a566350221d92b405bb54a959039350b", "fusion_lat": 0.0, "rental_uris": {"ios": "https://dc.lft.to/lastmile_qr_scan", "android": "https://dc.lft.to/lastmile_qr_scan"}, "lon": -77.025514, "type": "electric_scooter"}, {"bike_id": "a4e1d61a4ac4dfa76e4f3f9079537883", "is_reserved": 0, "fusion_lon": 0.0, "lat": 38.92867016666667, "is_disabled": 0, "name": "a4e1d61a4ac4dfa76e4f3f9079537883", "fusion_lat": 0.0, "rental_uris": {"ios": "https://dc.lft.to/lastmile_qr_scan", "android": "https://dc.lft.to/lastmile_qr_scan"}, "lon": -77.033412, "type": "electric_scooter"}, {"bike_id": "f314b8eb6876e04ba9c9f07171788f7d", "is_reserved": 0, "fusion_lon": 0.0, "lat": 38.90958116666667, "is_disabled": 0, "name": "f314b8eb6876e04ba9c9f07171788f7d", "fusion_lat": 0.0, "rental_uris": {"ios": "https://dc.lft.to/lastmile_qr_scan", "android": "https://dc.lft.to/lastmile_qr_scan"}, "lon": -77.04826766666666, "type": "electric_scooter"}, {"bike_id": "1cb60a17f0a7eb75848e01673a967722", "is_reserved": 0, "fusion_lon": 0.0, "lat": 38.9071825, "is_disabled": 0, "name": "1cb60a17f0a7eb75848e01673a967722", "fusion_lat": 0.0, "rental_uris": {"ios": "https://dc.lft.to/lastmile_qr_scan", "android": "https://dc.lft.to/lastmile_qr_scan"}, "lon": -76.99796116666667, "type": "electric_scooter"}, {"bike_id": "583aa4f9368449767dce34fa88527f05", "is_reserved": 0, "fusion_lon": 0.0, "lat": 38.935979, "is_disabled": 0, "name": "583aa4f9368449767dce34fa88527f05", "fusion_lat": 0.0, "rental_uris": {"ios": "https://dc.lft.to/lastmile_qr_scan", "android": "https://dc.lft.to/lastmile_qr_scan"}, "lon": -77.0233365, "type": "electric_scooter"}, {"bike_id": "9c57940313adc3d497372a47a875995c", "is_reserved": 0, "fusion_lon": 0.0, "lat": 38.851538833333336, "is_disabled": 0, "name": "9c57940313adc3d497372a47a875995c", "fusion_lat": 0.0, "rental_uris": {"ios": "https://dc.lft.to/lastmile_qr_scan", "android": "https://dc.lft.to/lastmile_qr_scan"}, "lon": -77.12879866666667, "type": "electric_bike"}, {"bike_id": "a868844ef85fab4aff28633bf82614d9", "is_reserved": 0, "fusion_lon": 0.0, "lat": 38.91392466666667, "is_disabled": 0, "name": "a868844ef85fab4aff28633bf82614d9", "fusion_lat": 0.0, "rental_uris": {"ios": "https://dc.lft.to/lastmile_qr_scan", "android": "https://dc.lft.to/lastmile_qr_scan"}, "lon": -77.00456466666667, "type": "electric_scooter"}, {"bike_id": "83ed99c422a86c3662159e16aa910ca9", "is_reserved": 0, "fusion_lon": 0.0, "lat": 38.89725883333333, "is_disabled": 0, "name": "83ed99c422a86c3662159e16aa910ca9", "fusion_lat": 0.0, "rental_uris": {"ios": "https://dc.lft.to/lastmile_qr_scan", "android": "https://dc.lft.to/lastmile_qr_scan"}, "lon": -76.9259405, "type": "electric_scooter"}, {"bike_id": "ba41d9c7bc45d36efb4590d44fbe8ec0", "is_reserved": 0, "fusion_lon": 0.0, "lat": 38.89616916666667, "is_disabled": 0, "name": "ba41d9c7bc45d36efb4590d44fbe8ec0", "fusion_lat": 0.0, "rental_uris": {"ios": "https://dc.lft.to/lastmile_qr_scan", "android": "https://dc.lft.to/lastmile_qr_scan"}, "lon": -76.98123783333334, "type": "electric_scooter"}, {"bike_id": "107f2536e8702a68244bfdc625ae2ef5", "is_reserved": 0, "fusion_lon": 0.0, "lat": 38.8924395, "is_disabled": 0, "name": "107f2536e8702a68244bfdc625ae2ef5", "fusion_lat": 0.0, "rental_uris": {"ios": "https://dc.lft.to/lastmile_qr_scan", "android": "https://dc.lft.to/lastmile_qr_scan"}, "lon": -77.03960916666666, "type": "electric_scooter"}, {"bike_id": "60aa607227b0547ef28d2505d0fa5c54", "is_reserved": 0, "fusion_lon": 0.0, "lat": 38.90003266666667, "is_disabled": 0, "name": "60aa607227b0547ef28d2505d0fa5c54", "fusion_lat": 0.0, "rental_uris": {"ios": "https://dc.lft.to/lastmile_qr_scan", "android": "https://dc.lft.to/lastmile_qr_scan"}, "lon": -76.99018066666666, "type": "electric_scooter"}, {"bike_id": "f5164a3de76839d56eac7998cb2a0410", "is_reserved": 0, "fusion_lon": 0.0, "lat": 38.905194333333334, "is_disabled": 0, "name": "f5164a3de76839d56eac7998cb2a0410", "fusion_lat": 0.0, "rental_uris": {"ios": "https://dc.lft.to/lastmile_qr_scan", "android": "https://dc.lft.to/lastmile_qr_scan"}, "lon": -77.06230283333333, "type": "electric_scooter"}, {"bike_id": "048ef3190a31a30a31a8a7ccdc455ea1", "is_reserved": 0, "fusion_lon": 0.0, "lat": 38.95093516666667, "is_disabled": 0, "name": "048ef3190a31a30a31a8a7ccdc455ea1", "fusion_lat": 0.0, "rental_uris": {"ios": "https://dc.lft.to/lastmile_qr_scan", "android": "https://dc.lft.to/lastmile_qr_scan"}, "lon": -77.023435, "type": "electric_scooter"}, {"bike_id": "dcf07c0e97e2da8bebbcdeebaf939261", "is_reserved": 0, "fusion_lon": 0.0, "lat": 38.865699166666666, "is_disabled": 0, "name": "dcf07c0e97e2da8bebbcdeebaf939261", "fusion_lat": 0.0, "rental_uris": {"ios": "https://dc.lft.to/lastmile_qr_scan", "android": "https://dc.lft.to/lastmile_qr_scan"}, "lon": -76.98953166666666, "type": "electric_scooter"}, {"bike_id": "ed6696f69fd7db58166283d68c301d81", "is_reserved": 0, "fusion_lon": 0.0, "lat": 38.89471966666667, "is_disabled": 0, "name": "ed6696f69fd7db58166283d68c301d81", "fusion_lat": 0.0, "rental_uris": {"ios": "https://dc.lft.to/lastmile_qr_scan", "android": "https://dc.lft.to/lastmile_qr_scan"}, "lon": -76.98407016666667, "type": "electric_scooter"}, {"bike_id": "9c6b06cbae612b9808b10a6e3bceabc6", "is_reserved": 0, "fusion_lon": 0.0, "lat": 38.885001833333334, "is_disabled": 0, "name": "9c6b06cbae612b9808b10a6e3bceabc6", "fusion_lat": 0.0, "rental_uris": {"ios": "https://dc.lft.to/lastmile_qr_scan", "android": "https://dc.lft.to/lastmile_qr_scan"}, "lon": -77.0056835, "type": "electric_scooter"}, {"bike_id": "a5c97b620d3403d81381c22374e53d7e", "is_reserved": 0, "fusion_lon": 0.0, "lat": 38.921629, "is_disabled": 0, "name": "a5c97b620d3403d81381c22374e53d7e", "fusion_lat": 0.0, "rental_uris": {"ios": "https://dc.lft.to/lastmile_qr_scan", "android": "https://dc.lft.to/lastmile_qr_scan"}, "lon": -77.03548766666667, "type": "electric_scooter"}, {"bike_id": "6400f881253b91338c65e2884b035e60", "is_reserved": 0, "fusion_lon": 0.0, "lat": 38.903222, "is_disabled": 0, "name": "6400f881253b91338c65e2884b035e60", "fusion_lat": 0.0, "rental_uris": {"ios": "https://dc.lft.to/lastmile_qr_scan", "android": "https://dc.lft.to/lastmile_qr_scan"}, "lon": -77.03746666666666, "type": "electric_scooter"}, {"bike_id": "6e6f98c904836336434c4ad4e8d0bd6d", "is_reserved": 0, "fusion_lon": 0.0, "lat": 38.91404466666667, "is_disabled": 0, "name": "6e6f98c904836336434c4ad4e8d0bd6d", "fusion_lat": 0.0, "rental_uris": {"ios": "https://dc.lft.to/lastmile_qr_scan", "android": "https://dc.lft.to/lastmile_qr_scan"}, "lon": -77.0184785, "type": "electric_scooter"}, {"bike_id": "70fca510b986086f541da83ac4e2a9ce", "is_reserved": 0, "fusion_lon": 0.0, "lat": 38.92035816666667, "is_disabled": 0, "name": "70fca510b986086f541da83ac4e2a9ce", "fusion_lat": 0.0, "rental_uris": {"ios": "https://dc.lft.to/lastmile_qr_scan", "android": "https://dc.lft.to/lastmile_qr_scan"}, "lon": -76.979077, "type": "electric_scooter"}, {"bike_id": "6892cc365b661c2e32bb6b7777bf8eda", "is_reserved": 0, "fusion_lon": 0.0, "lat": 38.909455666666666, "is_disabled": 0, "name": "6892cc365b661c2e32bb6b7777bf8eda", "fusion_lat": 0.0, "rental_uris": {"ios": "https://dc.lft.to/lastmile_qr_scan", "android": "https://dc.lft.to/lastmile_qr_scan"}, "lon": -77.04501866666666, "type": "electric_scooter"}, {"bike_id": "528a5fc4258445bdf5f73858d0ee7b29", "is_reserved": 0, "fusion_lon": 0.0, "lat": 38.91685833333333, "is_disabled": 0, "name": "528a5fc4258445bdf5f73858d0ee7b29", "fusion_lat": 0.0, "rental_uris": {"ios": "https://dc.lft.to/lastmile_qr_scan", "android": "https://dc.lft.to/lastmile_qr_scan"}, "lon": -77.03764816666667, "type": "electric_scooter"}, {"bike_id": "f2d832647ab50c6e674878bdfa23ecbf", "is_reserved": 0, "fusion_lon": 0.0, "lat": 38.906077833333335, "is_disabled": 0, "name": "f2d832647ab50c6e674878bdfa23ecbf", "fusion_lat": 0.0, "rental_uris": {"ios": "https://dc.lft.to/lastmile_qr_scan", "android": "https://dc.lft.to/lastmile_qr_scan"}, "lon": -77.03957933333334, "type": "electric_scooter"}, {"bike_id": "4261d0380c14c8296ecea185c08d0845", "is_reserved": 0, "fusion_lon": 0.0, "lat": 38.9027075, "is_disabled": 0, "name": "4261d0380c14c8296ecea185c08d0845", "fusion_lat": 0.0, "rental_uris": {"ios": "https://dc.lft.to/lastmile_qr_scan", "android": "https://dc.lft.to/lastmile_qr_scan"}, "lon": -77.03844866666667, "type": "electric_scooter"}, {"bike_id": "6d7818ad7d920376008ce28c0eeae0aa", "is_reserved": 0, "fusion_lon": 0.0, "lat": 38.88490783333334, "is_disabled": 0, "name": "6d7818ad7d920376008ce28c0eeae0aa", "fusion_lat": 0.0, "rental_uris": {"ios": "https://dc.lft.to/lastmile_qr_scan", "android": "https://dc.lft.to/lastmile_qr_scan"}, "lon": -77.00717266666666, "type": "electric_scooter"}, {"bike_id": "c3c0bd49b7dbab26b0570f9c34bcc45a", "is_reserved": 0, "fusion_lon": 0.0, "lat": 38.925570666666665, "is_disabled": 0, "name": "c3c0bd49b7dbab26b0570f9c34bcc45a", "fusion_lat": 0.0, "rental_uris": {"ios": "https://dc.lft.to/lastmile_qr_scan", "android": "https://dc.lft.to/lastmile_qr_scan"}, "lon": -77.03815816666666, "type": "electric_scooter"}, {"bike_id": "63636d0027e4adc81622b559a9672162", "is_reserved": 0, "fusion_lon": 0.0, "lat": 38.90827816666667, "is_disabled": 0, "name": "63636d0027e4adc81622b559a9672162", "fusion_lat": 0.0, "rental_uris": {"ios": "https://dc.lft.to/lastmile_qr_scan", "android": "https://dc.lft.to/lastmile_qr_scan"}, "lon": -76.99701966666666, "type": "electric_scooter"}, {"bike_id": "176ea7fc3af3677dba251fc782b1c7e5", "is_reserved": 0, "fusion_lon": 0.0, "lat": 38.922157166666665, "is_disabled": 0, "name": "176ea7fc3af3677dba251fc782b1c7e5", "fusion_lat": 0.0, "rental_uris": {"ios": "https://dc.lft.to/lastmile_qr_scan", "android": "https://dc.lft.to/lastmile_qr_scan"}, "lon": -77.04263683333333, "type": "electric_scooter"}, {"bike_id": "518cba771b03b657c3b6d79fb750745b", "is_reserved": 0, "fusion_lon": 0.0, "lat": 38.92075216666667, "is_disabled": 0, "name": "518cba771b03b657c3b6d79fb750745b", "fusion_lat": 0.0, "rental_uris": {"ios": "https://dc.lft.to/lastmile_qr_scan", "android": "https://dc.lft.to/lastmile_qr_scan"}, "lon": -77.0421275, "type": "electric_scooter"}, {"bike_id": "f486224fc37e4a46ee423296d82d00e2", "is_reserved": 0, "fusion_lon": 0.0, "lat": 38.911829, "is_disabled": 0, "name": "f486224fc37e4a46ee423296d82d00e2", "fusion_lat": 0.0, "rental_uris": {"ios": "https://dc.lft.to/lastmile_qr_scan", "android": "https://dc.lft.to/lastmile_qr_scan"}, "lon": -77.03867483333333, "type": "electric_scooter"}, {"bike_id": "12d2253e62e5e27decfe437fd3d2d8dc", "is_reserved": 0, "fusion_lon": 0.0, "lat": 38.92574116666667, "is_disabled": 0, "name": "12d2253e62e5e27decfe437fd3d2d8dc", "fusion_lat": 0.0, "rental_uris": {"ios": "https://dc.lft.to/lastmile_qr_scan", "android": "https://dc.lft.to/lastmile_qr_scan"}, "lon": -77.0257475, "type": "electric_scooter"}, {"bike_id": "0f7f845827b0975a918af3fbe72eb504", "is_reserved": 0, "fusion_lon": 0.0, "lat": 38.8921245, "is_disabled": 0, "name": "0f7f845827b0975a918af3fbe72eb504", "fusion_lat": 0.0, "rental_uris": {"ios": "https://dc.lft.to/lastmile_qr_scan", "android": "https://dc.lft.to/lastmile_qr_scan"}, "lon": -77.03160333333334, "type": "electric_scooter"}, {"bike_id": "d4616a99a9387f723204a69b85ec8da7", "is_reserved": 0, "fusion_lon": 0.0, "lat": 38.8813865, "is_disabled": 0, "name": "d4616a99a9387f723204a69b85ec8da7", "fusion_lat": 0.0, "rental_uris": {"ios": "https://dc.lft.to/lastmile_qr_scan", "android": "https://dc.lft.to/lastmile_qr_scan"}, "lon": -77.02741583333334, "type": "electric_scooter"}, {"bike_id": "a30b74bb5d6f23a85ed9c8357a2e25cf", "is_reserved": 0, "fusion_lon": 0.0, "lat": 38.905156833333336, "is_disabled": 0, "name": "a30b74bb5d6f23a85ed9c8357a2e25cf", "fusion_lat": 0.0, "rental_uris": {"ios": "https://dc.lft.to/lastmile_qr_scan", "android": "https://dc.lft.to/lastmile_qr_scan"}, "lon": -77.0645715, "type": "electric_scooter"}, {"bike_id": "237242f80155576405eb0b0893e9eaed", "is_reserved": 0, "fusion_lon": 0.0, "lat": 38.96614966666667, "is_disabled": 0, "name": "237242f80155576405eb0b0893e9eaed", "fusion_lat": 0.0, "rental_uris": {"ios": "https://dc.lft.to/lastmile_qr_scan", "android": "https://dc.lft.to/lastmile_qr_scan"}, "lon": -77.03433916666667, "type": "electric_bike"}, {"bike_id": "b09d363780afd881eac94a14ad024cd6", "is_reserved": 0, "fusion_lon": 0.0, "lat": 38.874759833333336, "is_disabled": 0, "name": "b09d363780afd881eac94a14ad024cd6", "fusion_lat": 0.0, "rental_uris": {"ios": "https://dc.lft.to/lastmile_qr_scan", "android": "https://dc.lft.to/lastmile_qr_scan"}, "lon": -76.96534316666667, "type": "electric_bike"}, {"bike_id": "4580083d4eb1b79fe5e07309540e2396", "is_reserved": 0, "fusion_lon": 0.0, "lat": 38.90419083333333, "is_disabled": 0, "name": "4580083d4eb1b79fe5e07309540e2396", "fusion_lat": 0.0, "rental_uris": {"ios": "https://dc.lft.to/lastmile_qr_scan", "android": "https://dc.lft.to/lastmile_qr_scan"}, "lon": -77.04013366666666, "type": "electric_scooter"}, {"bike_id": "4e591b0b5f41d9703aac59aff8aaf1b8", "is_reserved": 0, "fusion_lon": 0.0, "lat": 38.90405666666667, "is_disabled": 0, "name": "4e591b0b5f41d9703aac59aff8aaf1b8", "fusion_lat": 0.0, "rental_uris": {"ios": "https://dc.lft.to/lastmile_qr_scan", "android": "https://dc.lft.to/lastmile_qr_scan"}, "lon": -77.04687783333334, "type": "electric_scooter"}, {"bike_id": "c86b04318fb03c24b573b8c45b406e57", "is_reserved": 0, "fusion_lon": 0.0, "lat": 38.92874033333333, "is_disabled": 0, "name": "c86b04318fb03c24b573b8c45b406e57", "fusion_lat": 0.0, "rental_uris": {"ios": "https://dc.lft.to/lastmile_qr_scan", "android": "https://dc.lft.to/lastmile_qr_scan"}, "lon": -77.03343933333333, "type": "electric_scooter"}, {"bike_id": "3ba93a15077519b588696905217c8852", "is_reserved": 0, "fusion_lon": 0.0, "lat": 38.916882, "is_disabled": 0, "name": "3ba93a15077519b588696905217c8852", "fusion_lat": 0.0, "rental_uris": {"ios": "https://dc.lft.to/lastmile_qr_scan", "android": "https://dc.lft.to/lastmile_qr_scan"}, "lon": -77.03490183333334, "type": "electric_scooter"}, {"bike_id": "2c094933c7007c4bc8fb2534195692eb", "is_reserved": 0, "fusion_lon": 0.0, "lat": 38.92410566666667, "is_disabled": 0, "name": "2c094933c7007c4bc8fb2534195692eb", "fusion_lat": 0.0, "rental_uris": {"ios": "https://dc.lft.to/lastmile_qr_scan", "android": "https://dc.lft.to/lastmile_qr_scan"}, "lon": -77.03549833333334, "type": "electric_scooter"}, {"bike_id": "66c0366c163e48d8ca870dfa27167713", "is_reserved": 0, "fusion_lon": 0.0, "lat": 38.96026233333333, "is_disabled": 0, "name": "66c0366c163e48d8ca870dfa27167713", "fusion_lat": 0.0, "rental_uris": {"ios": "https://dc.lft.to/lastmile_qr_scan", "android": "https://dc.lft.to/lastmile_qr_scan"}, "lon": -77.033856, "type": "electric_bike"}, {"bike_id": "b09db9a19b4a6dea8a478c758409c04f", "is_reserved": 0, "fusion_lon": 0.0, "lat": 38.91001816666667, "is_disabled": 0, "name": "b09db9a19b4a6dea8a478c758409c04f", "fusion_lat": 0.0, "rental_uris": {"ios": "https://dc.lft.to/lastmile_qr_scan", "android": "https://dc.lft.to/lastmile_qr_scan"}, "lon": -77.02098183333334, "type": "electric_scooter"}, {"bike_id": "517c905aece18ac7e3c6f8c336706a7e", "is_reserved": 0, "fusion_lon": 0.0, "lat": 38.92384533333333, "is_disabled": 0, "name": "517c905aece18ac7e3c6f8c336706a7e", "fusion_lat": 0.0, "rental_uris": {"ios": "https://dc.lft.to/lastmile_qr_scan", "android": "https://dc.lft.to/lastmile_qr_scan"}, "lon": -77.02763566666667, "type": "electric_scooter"}, {"bike_id": "6d36c5becd893e306a75260c3cb18dd4", "is_reserved": 0, "fusion_lon": 0.0, "lat": 38.89263033333334, "is_disabled": 0, "name": "6d36c5becd893e306a75260c3cb18dd4", "fusion_lat": 0.0, "rental_uris": {"ios": "https://dc.lft.to/lastmile_qr_scan", "android": "https://dc.lft.to/lastmile_qr_scan"}, "lon": -76.94927616666666, "type": "electric_scooter"}, {"bike_id": "4a83b3003738e7b0598d31b1d67e8789", "is_reserved": 0, "fusion_lon": 0.0, "lat": 38.908121666666666, "is_disabled": 0, "name": "4a83b3003738e7b0598d31b1d67e8789", "fusion_lat": 0.0, "rental_uris": {"ios": "https://dc.lft.to/lastmile_qr_scan", "android": "https://dc.lft.to/lastmile_qr_scan"}, "lon": -76.99853966666667, "type": "electric_scooter"}, {"bike_id": "ba2a52a627595daf6f9884454c698439", "is_reserved": 0, "fusion_lon": 0.0, "lat": 38.920718666666666, "is_disabled": 0, "name": "ba2a52a627595daf6f9884454c698439", "fusion_lat": 0.0, "rental_uris": {"ios": "https://dc.lft.to/lastmile_qr_scan", "android": "https://dc.lft.to/lastmile_qr_scan"}, "lon": -77.045574, "type": "electric_scooter"}, {"bike_id": "cceb9efdf7668f144151841adf0c7921", "is_reserved": 0, "fusion_lon": 0.0, "lat": 38.904642833333334, "is_disabled": 0, "name": "cceb9efdf7668f144151841adf0c7921", "fusion_lat": 0.0, "rental_uris": {"ios": "https://dc.lft.to/lastmile_qr_scan", "android": "https://dc.lft.to/lastmile_qr_scan"}, "lon": -76.9891335, "type": "electric_scooter"}, {"bike_id": "aba45ce42d3b86efdfe5acce5918004d", "is_reserved": 0, "fusion_lon": 0.0, "lat": 38.90478133333333, "is_disabled": 0, "name": "aba45ce42d3b86efdfe5acce5918004d", "fusion_lat": 0.0, "rental_uris": {"ios": "https://dc.lft.to/lastmile_qr_scan", "android": "https://dc.lft.to/lastmile_qr_scan"}, "lon": -77.0071915, "type": "electric_scooter"}, {"bike_id": "ea1cb2f74f867c150066f963a30acf47", "is_reserved": 0, "fusion_lon": 0.0, "lat": 38.884217166666666, "is_disabled": 0, "name": "ea1cb2f74f867c150066f963a30acf47", "fusion_lat": 0.0, "rental_uris": {"ios": "https://dc.lft.to/lastmile_qr_scan", "android": "https://dc.lft.to/lastmile_qr_scan"}, "lon": -77.0254715, "type": "electric_scooter"}, {"bike_id": "075338a1359972afd6b297f1cf366853", "is_reserved": 0, "fusion_lon": 0.0, "lat": 38.904856, "is_disabled": 0, "name": "075338a1359972afd6b297f1cf366853", "fusion_lat": 0.0, "rental_uris": {"ios": "https://dc.lft.to/lastmile_qr_scan", "android": "https://dc.lft.to/lastmile_qr_scan"}, "lon": -77.0601355, "type": "electric_scooter"}, {"bike_id": "895a659565116a0ba353fcec955b3a60", "is_reserved": 0, "fusion_lon": 0.0, "lat": 38.9044655, "is_disabled": 0, "name": "895a659565116a0ba353fcec955b3a60", "fusion_lat": 0.0, "rental_uris": {"ios": "https://dc.lft.to/lastmile_qr_scan", "android": "https://dc.lft.to/lastmile_qr_scan"}, "lon": -77.05921466666666, "type": "electric_scooter"}, {"bike_id": "bf796b2bac2bebdbd612ea244d96b874", "is_reserved": 0, "fusion_lon": 0.0, "lat": 38.9125375, "is_disabled": 0, "name": "bf796b2bac2bebdbd612ea244d96b874", "fusion_lat": 0.0, "rental_uris": {"ios": "https://dc.lft.to/lastmile_qr_scan", "android": "https://dc.lft.to/lastmile_qr_scan"}, "lon": -77.03506933333334, "type": "electric_scooter"}, {"bike_id": "4e9c6f18e60a89f3fd5d45de9e0a9964", "is_reserved": 0, "fusion_lon": 0.0, "lat": 38.901349, "is_disabled": 0, "name": "4e9c6f18e60a89f3fd5d45de9e0a9964", "fusion_lat": 0.0, "rental_uris": {"ios": "https://dc.lft.to/lastmile_qr_scan", "android": "https://dc.lft.to/lastmile_qr_scan"}, "lon": -77.02739733333334, "type": "electric_scooter"}, {"bike_id": "c74ac9a263f70d2a104600e4850c5737", "is_reserved": 0, "fusion_lon": 0.0, "lat": 38.93256066666667, "is_disabled": 0, "name": "c74ac9a263f70d2a104600e4850c5737", "fusion_lat": 0.0, "rental_uris": {"ios": "https://dc.lft.to/lastmile_qr_scan", "android": "https://dc.lft.to/lastmile_qr_scan"}, "lon": -77.0400455, "type": "electric_scooter"}, {"bike_id": "2d33fece802d737f6725f65e812a4f14", "is_reserved": 0, "fusion_lon": 0.0, "lat": 38.9224125, "is_disabled": 0, "name": "2d33fece802d737f6725f65e812a4f14", "fusion_lat": 0.0, "rental_uris": {"ios": "https://dc.lft.to/lastmile_qr_scan", "android": "https://dc.lft.to/lastmile_qr_scan"}, "lon": -77.04331983333333, "type": "electric_scooter"}, {"bike_id": "bb0394f445e67a65cbf682f7a1931492", "is_reserved": 0, "fusion_lon": 0.0, "lat": 38.86617016666667, "is_disabled": 0, "name": "bb0394f445e67a65cbf682f7a1931492", "fusion_lat": 0.0, "rental_uris": {"ios": "https://dc.lft.to/lastmile_qr_scan", "android": "https://dc.lft.to/lastmile_qr_scan"}, "lon": -76.98667683333333, "type": "electric_scooter"}, {"bike_id": "b6de1b5b9583d6b840f79baccf3a16b6", "is_reserved": 0, "fusion_lon": 0.0, "lat": 38.90136116666667, "is_disabled": 0, "name": "b6de1b5b9583d6b840f79baccf3a16b6", "fusion_lat": 0.0, "rental_uris": {"ios": "https://dc.lft.to/lastmile_qr_scan", "android": "https://dc.lft.to/lastmile_qr_scan"}, "lon": -76.97857316666666, "type": "electric_scooter"}, {"bike_id": "7f4700f148ce5f269b3f0aec1ffcd735", "is_reserved": 0, "fusion_lon": 0.0, "lat": 38.913306, "is_disabled": 0, "name": "7f4700f148ce5f269b3f0aec1ffcd735", "fusion_lat": 0.0, "rental_uris": {"ios": "https://dc.lft.to/lastmile_qr_scan", "android": "https://dc.lft.to/lastmile_qr_scan"}, "lon": -77.048443, "type": "electric_scooter"}, {"bike_id": "c63b13c587dae47cc17bc0a413335db6", "is_reserved": 0, "fusion_lon": 0.0, "lat": 38.8826425, "is_disabled": 0, "name": "c63b13c587dae47cc17bc0a413335db6", "fusion_lat": 0.0, "rental_uris": {"ios": "https://dc.lft.to/lastmile_qr_scan", "android": "https://dc.lft.to/lastmile_qr_scan"}, "lon": -76.995187, "type": "electric_scooter"}, {"bike_id": "13c17892acbf5f524a3a0e7d729f0adf", "is_reserved": 0, "fusion_lon": 0.0, "lat": 38.909754166666666, "is_disabled": 0, "name": "13c17892acbf5f524a3a0e7d729f0adf", "fusion_lat": 0.0, "rental_uris": {"ios": "https://dc.lft.to/lastmile_qr_scan", "android": "https://dc.lft.to/lastmile_qr_scan"}, "lon": -77.03192216666666, "type": "electric_scooter"}, {"bike_id": "e71763c3e60413a66f2b345c7a86e231", "is_reserved": 0, "fusion_lon": 0.0, "lat": 38.91889333333334, "is_disabled": 0, "name": "e71763c3e60413a66f2b345c7a86e231", "fusion_lat": 0.0, "rental_uris": {"ios": "https://dc.lft.to/lastmile_qr_scan", "android": "https://dc.lft.to/lastmile_qr_scan"}, "lon": -77.02500083333334, "type": "electric_scooter"}, {"bike_id": "b542f7f6f3f64dcf1bf16d0647c81dea", "is_reserved": 0, "fusion_lon": 0.0, "lat": 38.905701666666666, "is_disabled": 0, "name": "b542f7f6f3f64dcf1bf16d0647c81dea", "fusion_lat": 0.0, "rental_uris": {"ios": "https://dc.lft.to/lastmile_qr_scan", "android": "https://dc.lft.to/lastmile_qr_scan"}, "lon": -77.03830866666667, "type": "electric_scooter"}, {"bike_id": "67f90313cc5e5ffc1537fb92f21bb01d", "is_reserved": 0, "fusion_lon": 0.0, "lat": 38.87964383333333, "is_disabled": 0, "name": "67f90313cc5e5ffc1537fb92f21bb01d", "fusion_lat": 0.0, "rental_uris": {"ios": "https://dc.lft.to/lastmile_qr_scan", "android": "https://dc.lft.to/lastmile_qr_scan"}, "lon": -77.115918, "type": "electric_bike"}, {"bike_id": "849fd907858b895521299c7c19feabfe", "is_reserved": 0, "fusion_lon": 0.0, "lat": 38.8994965, "is_disabled": 0, "name": "849fd907858b895521299c7c19feabfe", "fusion_lat": 0.0, "rental_uris": {"ios": "https://dc.lft.to/lastmile_qr_scan", "android": "https://dc.lft.to/lastmile_qr_scan"}, "lon": -77.03188283333333, "type": "electric_scooter"}, {"bike_id": "a080b8c514a24212ebf3c27898693410", "is_reserved": 0, "fusion_lon": 0.0, "lat": 38.92442166666667, "is_disabled": 0, "name": "a080b8c514a24212ebf3c27898693410", "fusion_lat": 0.0, "rental_uris": {"ios": "https://dc.lft.to/lastmile_qr_scan", "android": "https://dc.lft.to/lastmile_qr_scan"}, "lon": -77.03405616666667, "type": "electric_scooter"}, {"bike_id": "6616042c26755d1c63bfa7f312055164", "is_reserved": 0, "fusion_lon": 0.0, "lat": 38.999354333333336, "is_disabled": 0, "name": "6616042c26755d1c63bfa7f312055164", "fusion_lat": 0.0, "rental_uris": {"ios": "https://dc.lft.to/lastmile_qr_scan", "android": "https://dc.lft.to/lastmile_qr_scan"}, "lon": -77.01773366666667, "type": "electric_bike"}, {"bike_id": "fb1aef59de31d13f74b89c200a85d17d", "is_reserved": 0, "fusion_lon": 0.0, "lat": 38.91991733333333, "is_disabled": 0, "name": "fb1aef59de31d13f74b89c200a85d17d", "fusion_lat": 0.0, "rental_uris": {"ios": "https://dc.lft.to/lastmile_qr_scan", "android": "https://dc.lft.to/lastmile_qr_scan"}, "lon": -77.032331, "type": "electric_scooter"}, {"bike_id": "54c74d6da2fb6573b5e6f746e069f775", "is_reserved": 0, "fusion_lon": 0.0, "lat": 38.89823416666667, "is_disabled": 0, "name": "54c74d6da2fb6573b5e6f746e069f775", "fusion_lat": 0.0, "rental_uris": {"ios": "https://dc.lft.to/lastmile_qr_scan", "android": "https://dc.lft.to/lastmile_qr_scan"}, "lon": -77.0278945, "type": "electric_scooter"}, {"bike_id": "e582deef86ae189dc876dee01675e9d8", "is_reserved": 0, "fusion_lon": 0.0, "lat": 38.9024765, "is_disabled": 0, "name": "e582deef86ae189dc876dee01675e9d8", "fusion_lat": 0.0, "rental_uris": {"ios": "https://dc.lft.to/lastmile_qr_scan", "android": "https://dc.lft.to/lastmile_qr_scan"}, "lon": -77.0413685, "type": "electric_scooter"}, {"bike_id": "c1fd5a21789a15d0c867f30a234c0c0b", "is_reserved": 0, "fusion_lon": 0.0, "lat": 38.91799566666667, "is_disabled": 0, "name": "c1fd5a21789a15d0c867f30a234c0c0b", "fusion_lat": 0.0, "rental_uris": {"ios": "https://dc.lft.to/lastmile_qr_scan", "android": "https://dc.lft.to/lastmile_qr_scan"}, "lon": -77.034449, "type": "electric_scooter"}, {"bike_id": "9e43c693b0763e09715ceff8aae91403", "is_reserved": 0, "fusion_lon": 0.0, "lat": 38.915438, "is_disabled": 0, "name": "9e43c693b0763e09715ceff8aae91403", "fusion_lat": 0.0, "rental_uris": {"ios": "https://dc.lft.to/lastmile_qr_scan", "android": "https://dc.lft.to/lastmile_qr_scan"}, "lon": -77.03204683333334, "type": "electric_scooter"}, {"bike_id": "5660262acd557488ed8f73ae3a23a8d5", "is_reserved": 0, "fusion_lon": 0.0, "lat": 38.92121866666667, "is_disabled": 0, "name": "5660262acd557488ed8f73ae3a23a8d5", "fusion_lat": 0.0, "rental_uris": {"ios": "https://dc.lft.to/lastmile_qr_scan", "android": "https://dc.lft.to/lastmile_qr_scan"}, "lon": -77.0178535, "type": "electric_scooter"}, {"bike_id": "7bd114deab20cdae263e281d3897f728", "is_reserved": 0, "fusion_lon": 0.0, "lat": 38.87887766666667, "is_disabled": 0, "name": "7bd114deab20cdae263e281d3897f728", "fusion_lat": 0.0, "rental_uris": {"ios": "https://dc.lft.to/lastmile_qr_scan", "android": "https://dc.lft.to/lastmile_qr_scan"}, "lon": -76.99154716666666, "type": "electric_scooter"}, {"bike_id": "bd5febdb6117ed5ef5962b5ecb525cae", "is_reserved": 0, "fusion_lon": 0.0, "lat": 38.8921945, "is_disabled": 0, "name": "bd5febdb6117ed5ef5962b5ecb525cae", "fusion_lat": 0.0, "rental_uris": {"ios": "https://dc.lft.to/lastmile_qr_scan", "android": "https://dc.lft.to/lastmile_qr_scan"}, "lon": -77.0433455, "type": "electric_scooter"}, {"bike_id": "24569fc7da4f1a1095d3ec5f68d452d6", "is_reserved": 0, "fusion_lon": 0.0, "lat": 38.920383333333334, "is_disabled": 0, "name": "24569fc7da4f1a1095d3ec5f68d452d6", "fusion_lat": 0.0, "rental_uris": {"ios": "https://dc.lft.to/lastmile_qr_scan", "android": "https://dc.lft.to/lastmile_qr_scan"}, "lon": -76.999426, "type": "electric_scooter"}, {"bike_id": "0186b61ac833032e55d70e532f811b25", "is_reserved": 0, "fusion_lon": 0.0, "lat": 38.903684166666665, "is_disabled": 0, "name": "0186b61ac833032e55d70e532f811b25", "fusion_lat": 0.0, "rental_uris": {"ios": "https://dc.lft.to/lastmile_qr_scan", "android": "https://dc.lft.to/lastmile_qr_scan"}, "lon": -77.01606833333334, "type": "electric_scooter"}, {"bike_id": "5c411f5b545cbb71b64f9355132ed3f4", "is_reserved": 0, "fusion_lon": 0.0, "lat": 38.91429316666667, "is_disabled": 0, "name": "5c411f5b545cbb71b64f9355132ed3f4", "fusion_lat": 0.0, "rental_uris": {"ios": "https://dc.lft.to/lastmile_qr_scan", "android": "https://dc.lft.to/lastmile_qr_scan"}, "lon": -77.032061, "type": "electric_scooter"}, {"bike_id": "27fdc2805eb35ab55927f18eeaf8e3aa", "is_reserved": 0, "fusion_lon": 0.0, "lat": 38.923604833333336, "is_disabled": 0, "name": "27fdc2805eb35ab55927f18eeaf8e3aa", "fusion_lat": 0.0, "rental_uris": {"ios": "https://dc.lft.to/lastmile_qr_scan", "android": "https://dc.lft.to/lastmile_qr_scan"}, "lon": -77.05133566666666, "type": "electric_scooter"}, {"bike_id": "ff34a0ea635153878dfb213b9feca134", "is_reserved": 0, "fusion_lon": 0.0, "lat": 38.872422, "is_disabled": 0, "name": "ff34a0ea635153878dfb213b9feca134", "fusion_lat": 0.0, "rental_uris": {"ios": "https://dc.lft.to/lastmile_qr_scan", "android": "https://dc.lft.to/lastmile_qr_scan"}, "lon": -76.97733283333334, "type": "electric_scooter"}, {"bike_id": "1ca6032822810893338c60b45eca1cdd", "is_reserved": 0, "fusion_lon": 0.0, "lat": 38.921154666666666, "is_disabled": 0, "name": "1ca6032822810893338c60b45eca1cdd", "fusion_lat": 0.0, "rental_uris": {"ios": "https://dc.lft.to/lastmile_qr_scan", "android": "https://dc.lft.to/lastmile_qr_scan"}, "lon": -77.03666983333333, "type": "electric_scooter"}, {"bike_id": "92bc308dff02091ff1c8f2f1230052bc", "is_reserved": 0, "fusion_lon": 0.0, "lat": 38.901906833333335, "is_disabled": 0, "name": "92bc308dff02091ff1c8f2f1230052bc", "fusion_lat": 0.0, "rental_uris": {"ios": "https://dc.lft.to/lastmile_qr_scan", "android": "https://dc.lft.to/lastmile_qr_scan"}, "lon": -76.98069683333334, "type": "electric_scooter"}, {"bike_id": "8280f3a1f341e474c24c24554afdcc8b", "is_reserved": 0, "fusion_lon": 0.0, "lat": 38.86916766666667, "is_disabled": 0, "name": "8280f3a1f341e474c24c24554afdcc8b", "fusion_lat": 0.0, "rental_uris": {"ios": "https://dc.lft.to/lastmile_qr_scan", "android": "https://dc.lft.to/lastmile_qr_scan"}, "lon": -76.983022, "type": "electric_scooter"}, {"bike_id": "2b189b9ec21f3722e06ec8c1bf475d49", "is_reserved": 0, "fusion_lon": 0.0, "lat": 38.9036525, "is_disabled": 0, "name": "2b189b9ec21f3722e06ec8c1bf475d49", "fusion_lat": 0.0, "rental_uris": {"ios": "https://dc.lft.to/lastmile_qr_scan", "android": "https://dc.lft.to/lastmile_qr_scan"}, "lon": -77.029962, "type": "electric_scooter"}, {"bike_id": "5ddd17705499bcb41c36b50d2b793511", "is_reserved": 0, "fusion_lon": 0.0, "lat": 38.88503083333333, "is_disabled": 0, "name": "5ddd17705499bcb41c36b50d2b793511", "fusion_lat": 0.0, "rental_uris": {"ios": "https://dc.lft.to/lastmile_qr_scan", "android": "https://dc.lft.to/lastmile_qr_scan"}, "lon": -77.00565383333333, "type": "electric_scooter"}, {"bike_id": "13a89484cc4b20d40f26d3ab7ef33ec1", "is_reserved": 0, "fusion_lon": 0.0, "lat": 38.9117345, "is_disabled": 0, "name": "13a89484cc4b20d40f26d3ab7ef33ec1", "fusion_lat": 0.0, "rental_uris": {"ios": "https://dc.lft.to/lastmile_qr_scan", "android": "https://dc.lft.to/lastmile_qr_scan"}, "lon": -77.0682885, "type": "electric_scooter"}, {"bike_id": "4f7a5fc4aa7bcb576f0428e6148a4bb1", "is_reserved": 0, "fusion_lon": 0.0, "lat": 38.98652216666667, "is_disabled": 0, "name": "4f7a5fc4aa7bcb576f0428e6148a4bb1", "fusion_lat": 0.0, "rental_uris": {"ios": "https://dc.lft.to/lastmile_qr_scan", "android": "https://dc.lft.to/lastmile_qr_scan"}, "lon": -77.056162, "type": "electric_bike"}, {"bike_id": "98075f1806f63282f457b5e14dc5e64d", "is_reserved": 0, "fusion_lon": 0.0, "lat": 38.903392, "is_disabled": 0, "name": "98075f1806f63282f457b5e14dc5e64d", "fusion_lat": 0.0, "rental_uris": {"ios": "https://dc.lft.to/lastmile_qr_scan", "android": "https://dc.lft.to/lastmile_qr_scan"}, "lon": -77.04343916666667, "type": "electric_scooter"}, {"bike_id": "b07e0e7c4df43c7ef4edac66baabc0a7", "is_reserved": 0, "fusion_lon": 0.0, "lat": 38.88533233333333, "is_disabled": 0, "name": "b07e0e7c4df43c7ef4edac66baabc0a7", "fusion_lat": 0.0, "rental_uris": {"ios": "https://dc.lft.to/lastmile_qr_scan", "android": "https://dc.lft.to/lastmile_qr_scan"}, "lon": -76.99831816666666, "type": "electric_scooter"}, {"bike_id": "96bcdb53637ecb041a21e22e74cb97a4", "is_reserved": 0, "fusion_lon": 0.0, "lat": 38.872075833333334, "is_disabled": 0, "name": "96bcdb53637ecb041a21e22e74cb97a4", "fusion_lat": 0.0, "rental_uris": {"ios": "https://dc.lft.to/lastmile_qr_scan", "android": "https://dc.lft.to/lastmile_qr_scan"}, "lon": -77.00580366666667, "type": "electric_scooter"}, {"bike_id": "ef333c17aa051220b37813718ad5d8db", "is_reserved": 0, "fusion_lon": 0.0, "lat": 38.9210855, "is_disabled": 0, "name": "ef333c17aa051220b37813718ad5d8db", "fusion_lat": 0.0, "rental_uris": {"ios": "https://dc.lft.to/lastmile_qr_scan", "android": "https://dc.lft.to/lastmile_qr_scan"}, "lon": -77.04582716666667, "type": "electric_scooter"}, {"bike_id": "50678b97387e6f95e3a4d4cfcf246869", "is_reserved": 0, "fusion_lon": 0.0, "lat": 38.90250233333333, "is_disabled": 0, "name": "50678b97387e6f95e3a4d4cfcf246869", "fusion_lat": 0.0, "rental_uris": {"ios": "https://dc.lft.to/lastmile_qr_scan", "android": "https://dc.lft.to/lastmile_qr_scan"}, "lon": -77.01824733333333, "type": "electric_scooter"}, {"bike_id": "7880be55213e0e74a48ffe39cbd39079", "is_reserved": 0, "fusion_lon": 0.0, "lat": 38.8441895, "is_disabled": 0, "name": "7880be55213e0e74a48ffe39cbd39079", "fusion_lat": 0.0, "rental_uris": {"ios": "https://dc.lft.to/lastmile_qr_scan", "android": "https://dc.lft.to/lastmile_qr_scan"}, "lon": -76.997777, "type": "electric_scooter"}, {"bike_id": "936e260e83a4a8b33cdc3605bb9dd7bd", "is_reserved": 0, "fusion_lon": 0.0, "lat": 38.91919466666667, "is_disabled": 0, "name": "936e260e83a4a8b33cdc3605bb9dd7bd", "fusion_lat": 0.0, "rental_uris": {"ios": "https://dc.lft.to/lastmile_qr_scan", "android": "https://dc.lft.to/lastmile_qr_scan"}, "lon": -77.03194983333333, "type": "electric_scooter"}, {"bike_id": "6c32921b31de358bb001464e75d0c766", "is_reserved": 0, "fusion_lon": 0.0, "lat": 38.9408255, "is_disabled": 0, "name": "6c32921b31de358bb001464e75d0c766", "fusion_lat": 0.0, "rental_uris": {"ios": "https://dc.lft.to/lastmile_qr_scan", "android": "https://dc.lft.to/lastmile_qr_scan"}, "lon": -77.02727516666667, "type": "electric_scooter"}, {"bike_id": "488f78995fb0f69af4cfdfcfbc4a33c4", "is_reserved": 0, "fusion_lon": 0.0, "lat": 38.9263635, "is_disabled": 0, "name": "488f78995fb0f69af4cfdfcfbc4a33c4", "fusion_lat": 0.0, "rental_uris": {"ios": "https://dc.lft.to/lastmile_qr_scan", "android": "https://dc.lft.to/lastmile_qr_scan"}, "lon": -77.01340816666666, "type": "electric_scooter"}, {"bike_id": "ab358eaa98eb10e3f71633125ab56ba7", "is_reserved": 0, "fusion_lon": 0.0, "lat": 38.91814083333333, "is_disabled": 0, "name": "ab358eaa98eb10e3f71633125ab56ba7", "fusion_lat": 0.0, "rental_uris": {"ios": "https://dc.lft.to/lastmile_qr_scan", "android": "https://dc.lft.to/lastmile_qr_scan"}, "lon": -77.03533466666667, "type": "electric_scooter"}, {"bike_id": "e635940267e28d8c9fc3ef156e84a8fe", "is_reserved": 0, "fusion_lon": 0.0, "lat": 38.9218975, "is_disabled": 0, "name": "e635940267e28d8c9fc3ef156e84a8fe", "fusion_lat": 0.0, "rental_uris": {"ios": "https://dc.lft.to/lastmile_qr_scan", "android": "https://dc.lft.to/lastmile_qr_scan"}, "lon": -77.04264666666667, "type": "electric_scooter"}, {"bike_id": "e913a0bf3b265a3c208202d740e044a3", "is_reserved": 0, "fusion_lon": 0.0, "lat": 38.89825666666667, "is_disabled": 0, "name": "e913a0bf3b265a3c208202d740e044a3", "fusion_lat": 0.0, "rental_uris": {"ios": "https://dc.lft.to/lastmile_qr_scan", "android": "https://dc.lft.to/lastmile_qr_scan"}, "lon": -77.04352133333333, "type": "electric_scooter"}, {"bike_id": "1ae29eb09e813559da51fa0ec6a594cb", "is_reserved": 0, "fusion_lon": 0.0, "lat": 38.95084816666667, "is_disabled": 0, "name": "1ae29eb09e813559da51fa0ec6a594cb", "fusion_lat": 0.0, "rental_uris": {"ios": "https://dc.lft.to/lastmile_qr_scan", "android": "https://dc.lft.to/lastmile_qr_scan"}, "lon": -77.0283285, "type": "electric_scooter"}, {"bike_id": "fe4546d62796a109c1c7d67dad4ad5a4", "is_reserved": 0, "fusion_lon": 0.0, "lat": 38.91961466666667, "is_disabled": 0, "name": "fe4546d62796a109c1c7d67dad4ad5a4", "fusion_lat": 0.0, "rental_uris": {"ios": "https://dc.lft.to/lastmile_qr_scan", "android": "https://dc.lft.to/lastmile_qr_scan"}, "lon": -77.03216, "type": "electric_scooter"}, {"bike_id": "a94a69456aac0787b431003fd6534f73", "is_reserved": 0, "fusion_lon": 0.0, "lat": 38.91945616666667, "is_disabled": 0, "name": "a94a69456aac0787b431003fd6534f73", "fusion_lat": 0.0, "rental_uris": {"ios": "https://dc.lft.to/lastmile_qr_scan", "android": "https://dc.lft.to/lastmile_qr_scan"}, "lon": -77.031887, "type": "electric_scooter"}, {"bike_id": "e2b2477c5c5a9f80e46596b00e195269", "is_reserved": 0, "fusion_lon": 0.0, "lat": 38.935265333333334, "is_disabled": 0, "name": "e2b2477c5c5a9f80e46596b00e195269", "fusion_lat": 0.0, "rental_uris": {"ios": "https://dc.lft.to/lastmile_qr_scan", "android": "https://dc.lft.to/lastmile_qr_scan"}, "lon": -77.023558, "type": "electric_scooter"}, {"bike_id": "8f308c3186d9d7639cf94d952021c626", "is_reserved": 0, "fusion_lon": 0.0, "lat": 38.820832, "is_disabled": 0, "name": "8f308c3186d9d7639cf94d952021c626", "fusion_lat": 0.0, "rental_uris": {"ios": "https://dc.lft.to/lastmile_qr_scan", "android": "https://dc.lft.to/lastmile_qr_scan"}, "lon": -77.05369083333333, "type": "electric_bike"}, {"bike_id": "53f711c221b0dec66c7f0945bfcfe441", "is_reserved": 0, "fusion_lon": 0.0, "lat": 38.991065666666664, "is_disabled": 0, "name": "53f711c221b0dec66c7f0945bfcfe441", "fusion_lat": 0.0, "rental_uris": {"ios": "https://dc.lft.to/lastmile_qr_scan", "android": "https://dc.lft.to/lastmile_qr_scan"}, "lon": -76.98909733333333, "type": "electric_bike"}, {"bike_id": "22f1cacc56e261948b6ab4a42105f428", "is_reserved": 0, "fusion_lon": 0.0, "lat": 38.89903833333334, "is_disabled": 0, "name": "22f1cacc56e261948b6ab4a42105f428", "fusion_lat": 0.0, "rental_uris": {"ios": "https://dc.lft.to/lastmile_qr_scan", "android": "https://dc.lft.to/lastmile_qr_scan"}, "lon": -77.00740133333333, "type": "electric_scooter"}, {"bike_id": "2944aad0315ec7abf542e2943dbc077b", "is_reserved": 0, "fusion_lon": 0.0, "lat": 38.90059866666667, "is_disabled": 0, "name": "2944aad0315ec7abf542e2943dbc077b", "fusion_lat": 0.0, "rental_uris": {"ios": "https://dc.lft.to/lastmile_qr_scan", "android": "https://dc.lft.to/lastmile_qr_scan"}, "lon": -76.93388966666667, "type": "electric_scooter"}, {"bike_id": "1a939414905fd16f53665a2964decda4", "is_reserved": 0, "fusion_lon": 0.0, "lat": 38.909703, "is_disabled": 0, "name": "1a939414905fd16f53665a2964decda4", "fusion_lat": 0.0, "rental_uris": {"ios": "https://dc.lft.to/lastmile_qr_scan", "android": "https://dc.lft.to/lastmile_qr_scan"}, "lon": -77.03277816666667, "type": "electric_scooter"}, {"bike_id": "b2295ebe2364b776fc88b81ff659ad3a", "is_reserved": 0, "fusion_lon": 0.0, "lat": 38.922899, "is_disabled": 0, "name": "b2295ebe2364b776fc88b81ff659ad3a", "fusion_lat": 0.0, "rental_uris": {"ios": "https://dc.lft.to/lastmile_qr_scan", "android": "https://dc.lft.to/lastmile_qr_scan"}, "lon": -77.02080616666667, "type": "electric_scooter"}, {"bike_id": "5c418256a4d71ed3662b967d3f6067ed", "is_reserved": 0, "fusion_lon": 0.0, "lat": 38.990718333333334, "is_disabled": 0, "name": "5c418256a4d71ed3662b967d3f6067ed", "fusion_lat": 0.0, "rental_uris": {"ios": "https://dc.lft.to/lastmile_qr_scan", "android": "https://dc.lft.to/lastmile_qr_scan"}, "lon": -76.87473333333334, "type": "electric_bike"}, {"bike_id": "c6e986d53bf4d1f5bb9f82d8dc9602ae", "is_reserved": 0, "fusion_lon": 0.0, "lat": 38.919330333333335, "is_disabled": 0, "name": "c6e986d53bf4d1f5bb9f82d8dc9602ae", "fusion_lat": 0.0, "rental_uris": {"ios": "https://dc.lft.to/lastmile_qr_scan", "android": "https://dc.lft.to/lastmile_qr_scan"}, "lon": -77.0813645, "type": "electric_scooter"}, {"bike_id": "447bd831f658d7e12c37560103b7a57d", "is_reserved": 0, "fusion_lon": 0.0, "lat": 38.866953, "is_disabled": 0, "name": "447bd831f658d7e12c37560103b7a57d", "fusion_lat": 0.0, "rental_uris": {"ios": "https://dc.lft.to/lastmile_qr_scan", "android": "https://dc.lft.to/lastmile_qr_scan"}, "lon": -76.98715633333333, "type": "electric_scooter"}, {"bike_id": "a996be28b9a03d2a90dccf77629bd1e3", "is_reserved": 0, "fusion_lon": 0.0, "lat": 38.931061, "is_disabled": 0, "name": "a996be28b9a03d2a90dccf77629bd1e3", "fusion_lat": 0.0, "rental_uris": {"ios": "https://dc.lft.to/lastmile_qr_scan", "android": "https://dc.lft.to/lastmile_qr_scan"}, "lon": -77.01852733333334, "type": "electric_scooter"}, {"bike_id": "ff4bcf41740a3d9a0995f89e1bfa6363", "is_reserved": 0, "fusion_lon": 0.0, "lat": 38.88767883333333, "is_disabled": 0, "name": "ff4bcf41740a3d9a0995f89e1bfa6363", "fusion_lat": 0.0, "rental_uris": {"ios": "https://dc.lft.to/lastmile_qr_scan", "android": "https://dc.lft.to/lastmile_qr_scan"}, "lon": -77.022311, "type": "electric_scooter"}, {"bike_id": "48006973d16998bd454235725fdedad1", "is_reserved": 0, "fusion_lon": 0.0, "lat": 38.88428116666667, "is_disabled": 0, "name": "48006973d16998bd454235725fdedad1", "fusion_lat": 0.0, "rental_uris": {"ios": "https://dc.lft.to/lastmile_qr_scan", "android": "https://dc.lft.to/lastmile_qr_scan"}, "lon": -76.95763583333333, "type": "electric_scooter"}, {"bike_id": "0a42c85bc3eaee97611678a9b3ac57dd", "is_reserved": 0, "fusion_lon": 0.0, "lat": 38.92189183333333, "is_disabled": 0, "name": "0a42c85bc3eaee97611678a9b3ac57dd", "fusion_lat": 0.0, "rental_uris": {"ios": "https://dc.lft.to/lastmile_qr_scan", "android": "https://dc.lft.to/lastmile_qr_scan"}, "lon": -77.02410383333333, "type": "electric_scooter"}, {"bike_id": "9ccbb565ceecb88df8b931e411e6de75", "is_reserved": 0, "fusion_lon": 0.0, "lat": 38.909689666666665, "is_disabled": 0, "name": "9ccbb565ceecb88df8b931e411e6de75", "fusion_lat": 0.0, "rental_uris": {"ios": "https://dc.lft.to/lastmile_qr_scan", "android": "https://dc.lft.to/lastmile_qr_scan"}, "lon": -77.03201583333333, "type": "electric_scooter"}, {"bike_id": "1e409b60653fa3929c44bfb30ad70d0d", "is_reserved": 0, "fusion_lon": 0.0, "lat": 38.92775916666667, "is_disabled": 0, "name": "1e409b60653fa3929c44bfb30ad70d0d", "fusion_lat": 0.0, "rental_uris": {"ios": "https://dc.lft.to/lastmile_qr_scan", "android": "https://dc.lft.to/lastmile_qr_scan"}, "lon": -77.02317566666666, "type": "electric_scooter"}, {"bike_id": "1a840a0871e06a103453f50b43d362ba", "is_reserved": 0, "fusion_lon": 0.0, "lat": 38.9482695, "is_disabled": 0, "name": "1a840a0871e06a103453f50b43d362ba", "fusion_lat": 0.0, "rental_uris": {"ios": "https://dc.lft.to/lastmile_qr_scan", "android": "https://dc.lft.to/lastmile_qr_scan"}, "lon": -77.024219, "type": "electric_scooter"}, {"bike_id": "2a0a0b38c373f02fe14d9046beaa78b6", "is_reserved": 0, "fusion_lon": 0.0, "lat": 38.9054455, "is_disabled": 0, "name": "2a0a0b38c373f02fe14d9046beaa78b6", "fusion_lat": 0.0, "rental_uris": {"ios": "https://dc.lft.to/lastmile_qr_scan", "android": "https://dc.lft.to/lastmile_qr_scan"}, "lon": -77.02207433333334, "type": "electric_scooter"}, {"bike_id": "5b111a7d320872158e4de5ca0d942581", "is_reserved": 0, "fusion_lon": 0.0, "lat": 38.924014666666665, "is_disabled": 0, "name": "5b111a7d320872158e4de5ca0d942581", "fusion_lat": 0.0, "rental_uris": {"ios": "https://dc.lft.to/lastmile_qr_scan", "android": "https://dc.lft.to/lastmile_qr_scan"}, "lon": -77.0526695, "type": "electric_scooter"}, {"bike_id": "4cc1d22e76714e77c3cffc480437935e", "is_reserved": 0, "fusion_lon": 0.0, "lat": 38.93236383333333, "is_disabled": 0, "name": "4cc1d22e76714e77c3cffc480437935e", "fusion_lat": 0.0, "rental_uris": {"ios": "https://dc.lft.to/lastmile_qr_scan", "android": "https://dc.lft.to/lastmile_qr_scan"}, "lon": -77.0326425, "type": "electric_scooter"}, {"bike_id": "790a4366e995a5b94ee554e56b3ebb66", "is_reserved": 0, "fusion_lon": 0.0, "lat": 38.91682933333333, "is_disabled": 0, "name": "790a4366e995a5b94ee554e56b3ebb66", "fusion_lat": 0.0, "rental_uris": {"ios": "https://dc.lft.to/lastmile_qr_scan", "android": "https://dc.lft.to/lastmile_qr_scan"}, "lon": -77.0252935, "type": "electric_scooter"}, {"bike_id": "9bbcac096333ff8652a0df3de89abbb8", "is_reserved": 0, "fusion_lon": 0.0, "lat": 38.906107, "is_disabled": 0, "name": "9bbcac096333ff8652a0df3de89abbb8", "fusion_lat": 0.0, "rental_uris": {"ios": "https://dc.lft.to/lastmile_qr_scan", "android": "https://dc.lft.to/lastmile_qr_scan"}, "lon": -77.06520916666666, "type": "electric_scooter"}, {"bike_id": "fcf2ba948e5f9c84a0ca024b1e03fe87", "is_reserved": 0, "fusion_lon": 0.0, "lat": 38.92851133333333, "is_disabled": 0, "name": "fcf2ba948e5f9c84a0ca024b1e03fe87", "fusion_lat": 0.0, "rental_uris": {"ios": "https://dc.lft.to/lastmile_qr_scan", "android": "https://dc.lft.to/lastmile_qr_scan"}, "lon": -77.106807, "type": "electric_bike"}, {"bike_id": "1ac55524766a61db7efcd80f0076f744", "is_reserved": 0, "fusion_lon": 0.0, "lat": 38.9105355, "is_disabled": 0, "name": "1ac55524766a61db7efcd80f0076f744", "fusion_lat": 0.0, "rental_uris": {"ios": "https://dc.lft.to/lastmile_qr_scan", "android": "https://dc.lft.to/lastmile_qr_scan"}, "lon": -77.04583266666667, "type": "electric_scooter"}, {"bike_id": "5ed3ce1c51e8187f88e7ba8d3463586a", "is_reserved": 0, "fusion_lon": 0.0, "lat": 38.887189, "is_disabled": 0, "name": "5ed3ce1c51e8187f88e7ba8d3463586a", "fusion_lat": 0.0, "rental_uris": {"ios": "https://dc.lft.to/lastmile_qr_scan", "android": "https://dc.lft.to/lastmile_qr_scan"}, "lon": -77.0321865, "type": "electric_scooter"}, {"bike_id": "12cbc13f794c082cb57b58356be63d03", "is_reserved": 0, "fusion_lon": 0.0, "lat": 38.8074455, "is_disabled": 0, "name": "12cbc13f794c082cb57b58356be63d03", "fusion_lat": 0.0, "rental_uris": {"ios": "https://dc.lft.to/lastmile_qr_scan", "android": "https://dc.lft.to/lastmile_qr_scan"}, "lon": -77.09430816666666, "type": "electric_bike"}, {"bike_id": "0fb68c8f1205399c6f0fa09f0f234406", "is_reserved": 0, "fusion_lon": 0.0, "lat": 38.93435483333333, "is_disabled": 0, "name": "0fb68c8f1205399c6f0fa09f0f234406", "fusion_lat": 0.0, "rental_uris": {"ios": "https://dc.lft.to/lastmile_qr_scan", "android": "https://dc.lft.to/lastmile_qr_scan"}, "lon": -77.07262183333333, "type": "electric_scooter"}, {"bike_id": "ed86c3b1aab6916a47f284cb81c36ebf", "is_reserved": 0, "fusion_lon": 0.0, "lat": 38.898760833333334, "is_disabled": 0, "name": "ed86c3b1aab6916a47f284cb81c36ebf", "fusion_lat": 0.0, "rental_uris": {"ios": "https://dc.lft.to/lastmile_qr_scan", "android": "https://dc.lft.to/lastmile_qr_scan"}, "lon": -76.931612, "type": "electric_scooter"}, {"bike_id": "4e42f918eaa34cc750a63af66d825fe2", "is_reserved": 0, "fusion_lon": 0.0, "lat": 38.92999733333333, "is_disabled": 0, "name": "4e42f918eaa34cc750a63af66d825fe2", "fusion_lat": 0.0, "rental_uris": {"ios": "https://dc.lft.to/lastmile_qr_scan", "android": "https://dc.lft.to/lastmile_qr_scan"}, "lon": -77.04438283333333, "type": "electric_scooter"}, {"bike_id": "dcb4dbc66205f1e54038928215c90ca1", "is_reserved": 0, "fusion_lon": 0.0, "lat": 38.930178166666664, "is_disabled": 0, "name": "dcb4dbc66205f1e54038928215c90ca1", "fusion_lat": 0.0, "rental_uris": {"ios": "https://dc.lft.to/lastmile_qr_scan", "android": "https://dc.lft.to/lastmile_qr_scan"}, "lon": -77.02339666666667, "type": "electric_scooter"}, {"bike_id": "1531b80d986fcc6b13a2f6abe35c68a1", "is_reserved": 0, "fusion_lon": 0.0, "lat": 38.9212615, "is_disabled": 0, "name": "1531b80d986fcc6b13a2f6abe35c68a1", "fusion_lat": 0.0, "rental_uris": {"ios": "https://dc.lft.to/lastmile_qr_scan", "android": "https://dc.lft.to/lastmile_qr_scan"}, "lon": -77.0458295, "type": "electric_scooter"}, {"bike_id": "7a6a238a98f428152820a60b0e22686a", "is_reserved": 0, "fusion_lon": 0.0, "lat": 38.91813033333333, "is_disabled": 0, "name": "7a6a238a98f428152820a60b0e22686a", "fusion_lat": 0.0, "rental_uris": {"ios": "https://dc.lft.to/lastmile_qr_scan", "android": "https://dc.lft.to/lastmile_qr_scan"}, "lon": -77.026946, "type": "electric_scooter"}, {"bike_id": "0d3e360344b510cfdea5438b17c13888", "is_reserved": 0, "fusion_lon": 0.0, "lat": 38.945207333333336, "is_disabled": 0, "name": "0d3e360344b510cfdea5438b17c13888", "fusion_lat": 0.0, "rental_uris": {"ios": "https://dc.lft.to/lastmile_qr_scan", "android": "https://dc.lft.to/lastmile_qr_scan"}, "lon": -77.02983583333334, "type": "electric_scooter"}, {"bike_id": "1cadc009f1326616a22e884647e92139", "is_reserved": 0, "fusion_lon": 0.0, "lat": 38.89535433333333, "is_disabled": 0, "name": "1cadc009f1326616a22e884647e92139", "fusion_lat": 0.0, "rental_uris": {"ios": "https://dc.lft.to/lastmile_qr_scan", "android": "https://dc.lft.to/lastmile_qr_scan"}, "lon": -76.98065083333333, "type": "electric_scooter"}, {"bike_id": "868aca79fc9fb2c629b7a34940b2a9a3", "is_reserved": 0, "fusion_lon": 0.0, "lat": 38.96699916666667, "is_disabled": 0, "name": "868aca79fc9fb2c629b7a34940b2a9a3", "fusion_lat": 0.0, "rental_uris": {"ios": "https://dc.lft.to/lastmile_qr_scan", "android": "https://dc.lft.to/lastmile_qr_scan"}, "lon": -77.102247, "type": "electric_bike"}, {"bike_id": "54f69ec2d8b67b39d847e781a55f9372", "is_reserved": 0, "fusion_lon": 0.0, "lat": 38.896161166666666, "is_disabled": 0, "name": "54f69ec2d8b67b39d847e781a55f9372", "fusion_lat": 0.0, "rental_uris": {"ios": "https://dc.lft.to/lastmile_qr_scan", "android": "https://dc.lft.to/lastmile_qr_scan"}, "lon": -76.99574966666667, "type": "electric_scooter"}, {"bike_id": "81c016a0b03c5bfa39c31d5fbdc8f79b", "is_reserved": 0, "fusion_lon": 0.0, "lat": 38.901320166666665, "is_disabled": 0, "name": "81c016a0b03c5bfa39c31d5fbdc8f79b", "fusion_lat": 0.0, "rental_uris": {"ios": "https://dc.lft.to/lastmile_qr_scan", "android": "https://dc.lft.to/lastmile_qr_scan"}, "lon": -77.0437235, "type": "electric_scooter"}, {"bike_id": "5635f58b9f9456f1839cbaab3e81c749", "is_reserved": 0, "fusion_lon": 0.0, "lat": 38.90959816666667, "is_disabled": 0, "name": "5635f58b9f9456f1839cbaab3e81c749", "fusion_lat": 0.0, "rental_uris": {"ios": "https://dc.lft.to/lastmile_qr_scan", "android": "https://dc.lft.to/lastmile_qr_scan"}, "lon": -77.0333295, "type": "electric_scooter"}, {"bike_id": "fade0074e199cd7186c2b7b513996f59", "is_reserved": 0, "fusion_lon": 0.0, "lat": 38.903590333333334, "is_disabled": 0, "name": "fade0074e199cd7186c2b7b513996f59", "fusion_lat": 0.0, "rental_uris": {"ios": "https://dc.lft.to/lastmile_qr_scan", "android": "https://dc.lft.to/lastmile_qr_scan"}, "lon": -77.04193966666666, "type": "electric_scooter"}, {"bike_id": "39405541c0976bb135c7a471e6e4d8e4", "is_reserved": 0, "fusion_lon": 0.0, "lat": 38.86158316666667, "is_disabled": 0, "name": "39405541c0976bb135c7a471e6e4d8e4", "fusion_lat": 0.0, "rental_uris": {"ios": "https://dc.lft.to/lastmile_qr_scan", "android": "https://dc.lft.to/lastmile_qr_scan"}, "lon": -77.13097483333334, "type": "electric_bike"}, {"bike_id": "e4be965c6f742c091d347dc52482d035", "is_reserved": 0, "fusion_lon": 0.0, "lat": 38.923814, "is_disabled": 0, "name": "e4be965c6f742c091d347dc52482d035", "fusion_lat": 0.0, "rental_uris": {"ios": "https://dc.lft.to/lastmile_qr_scan", "android": "https://dc.lft.to/lastmile_qr_scan"}, "lon": -77.00070433333333, "type": "electric_scooter"}, {"bike_id": "c70880d0a0145fe0a795ac836e7ff2f7", "is_reserved": 0, "fusion_lon": 0.0, "lat": 38.92370616666667, "is_disabled": 0, "name": "c70880d0a0145fe0a795ac836e7ff2f7", "fusion_lat": 0.0, "rental_uris": {"ios": "https://dc.lft.to/lastmile_qr_scan", "android": "https://dc.lft.to/lastmile_qr_scan"}, "lon": -77.01910966666667, "type": "electric_scooter"}, {"bike_id": "1adfd01332546aaf8d26103a9911e68f", "is_reserved": 0, "fusion_lon": 0.0, "lat": 38.9170275, "is_disabled": 0, "name": "1adfd01332546aaf8d26103a9911e68f", "fusion_lat": 0.0, "rental_uris": {"ios": "https://dc.lft.to/lastmile_qr_scan", "android": "https://dc.lft.to/lastmile_qr_scan"}, "lon": -77.00720383333334, "type": "electric_scooter"}, {"bike_id": "83646a0648806d124f242344fcb89c2f", "is_reserved": 0, "fusion_lon": 0.0, "lat": 38.871419333333336, "is_disabled": 0, "name": "83646a0648806d124f242344fcb89c2f", "fusion_lat": 0.0, "rental_uris": {"ios": "https://dc.lft.to/lastmile_qr_scan", "android": "https://dc.lft.to/lastmile_qr_scan"}, "lon": -76.93703616666667, "type": "electric_bike"}, {"bike_id": "934e0bfea77da6556d54478e753cde47", "is_reserved": 0, "fusion_lon": 0.0, "lat": 38.89965816666667, "is_disabled": 0, "name": "934e0bfea77da6556d54478e753cde47", "fusion_lat": 0.0, "rental_uris": {"ios": "https://dc.lft.to/lastmile_qr_scan", "android": "https://dc.lft.to/lastmile_qr_scan"}, "lon": -77.0557605, "type": "electric_scooter"}, {"bike_id": "c7ec0170a3ddc5c68229d4da7d2f836e", "is_reserved": 0, "fusion_lon": 0.0, "lat": 38.909299833333336, "is_disabled": 0, "name": "c7ec0170a3ddc5c68229d4da7d2f836e", "fusion_lat": 0.0, "rental_uris": {"ios": "https://dc.lft.to/lastmile_qr_scan", "android": "https://dc.lft.to/lastmile_qr_scan"}, "lon": -76.9989085, "type": "electric_scooter"}, {"bike_id": "d03b806ec6c73767cda95975b5ffb55f", "is_reserved": 0, "fusion_lon": 0.0, "lat": 38.910488666666666, "is_disabled": 0, "name": "d03b806ec6c73767cda95975b5ffb55f", "fusion_lat": 0.0, "rental_uris": {"ios": "https://dc.lft.to/lastmile_qr_scan", "android": "https://dc.lft.to/lastmile_qr_scan"}, "lon": -77.024019, "type": "electric_scooter"}, {"bike_id": "f7304e846bf09c5f113f41e2a99f53c4", "is_reserved": 0, "fusion_lon": 0.0, "lat": 38.864562166666666, "is_disabled": 0, "name": "f7304e846bf09c5f113f41e2a99f53c4", "fusion_lat": 0.0, "rental_uris": {"ios": "https://dc.lft.to/lastmile_qr_scan", "android": "https://dc.lft.to/lastmile_qr_scan"}, "lon": -76.94553816666667, "type": "electric_bike"}, {"bike_id": "4ca0770a04e67b7e33065a3feab20a1e", "is_reserved": 0, "fusion_lon": 0.0, "lat": 38.922033666666664, "is_disabled": 0, "name": "4ca0770a04e67b7e33065a3feab20a1e", "fusion_lat": 0.0, "rental_uris": {"ios": "https://dc.lft.to/lastmile_qr_scan", "android": "https://dc.lft.to/lastmile_qr_scan"}, "lon": -77.036668, "type": "electric_scooter"}, {"bike_id": "4ab7348bd6df2f07311b3a944c25be3e", "is_reserved": 0, "fusion_lon": 0.0, "lat": 38.898224166666665, "is_disabled": 0, "name": "4ab7348bd6df2f07311b3a944c25be3e", "fusion_lat": 0.0, "rental_uris": {"ios": "https://dc.lft.to/lastmile_qr_scan", "android": "https://dc.lft.to/lastmile_qr_scan"}, "lon": -77.02466783333334, "type": "electric_scooter"}, {"bike_id": "f46c57e035d56bc0c84d71b2ab5ed4be", "is_reserved": 0, "fusion_lon": 0.0, "lat": 38.927679, "is_disabled": 0, "name": "f46c57e035d56bc0c84d71b2ab5ed4be", "fusion_lat": 0.0, "rental_uris": {"ios": "https://dc.lft.to/lastmile_qr_scan", "android": "https://dc.lft.to/lastmile_qr_scan"}, "lon": -77.05282533333333, "type": "electric_scooter"}, {"bike_id": "30bf3157a9f9c3837cfd8d1115e197d1", "is_reserved": 0, "fusion_lon": 0.0, "lat": 38.93086233333333, "is_disabled": 0, "name": "30bf3157a9f9c3837cfd8d1115e197d1", "fusion_lat": 0.0, "rental_uris": {"ios": "https://dc.lft.to/lastmile_qr_scan", "android": "https://dc.lft.to/lastmile_qr_scan"}, "lon": -77.07781733333333, "type": "electric_scooter"}, {"bike_id": "d8b83748b58a63b717a419d7190d49f0", "is_reserved": 0, "fusion_lon": 0.0, "lat": 38.949239, "is_disabled": 0, "name": "d8b83748b58a63b717a419d7190d49f0", "fusion_lat": 0.0, "rental_uris": {"ios": "https://dc.lft.to/lastmile_qr_scan", "android": "https://dc.lft.to/lastmile_qr_scan"}, "lon": -77.0193805, "type": "electric_scooter"}, {"bike_id": "93f7669279328dd8104c8b10b0068626", "is_reserved": 0, "fusion_lon": 0.0, "lat": 38.90541233333333, "is_disabled": 0, "name": "93f7669279328dd8104c8b10b0068626", "fusion_lat": 0.0, "rental_uris": {"ios": "https://dc.lft.to/lastmile_qr_scan", "android": "https://dc.lft.to/lastmile_qr_scan"}, "lon": -77.04685316666666, "type": "electric_scooter"}, {"bike_id": "32aab16797682b2d736abc52f733b144", "is_reserved": 0, "fusion_lon": 0.0, "lat": 38.93941383333333, "is_disabled": 0, "name": "32aab16797682b2d736abc52f733b144", "fusion_lat": 0.0, "rental_uris": {"ios": "https://dc.lft.to/lastmile_qr_scan", "android": "https://dc.lft.to/lastmile_qr_scan"}, "lon": -77.0610725, "type": "electric_scooter"}, {"bike_id": "e1b7f30ddfb81d3eb60b9ef78ec9acbe", "is_reserved": 0, "fusion_lon": 0.0, "lat": 38.892198666666665, "is_disabled": 0, "name": "e1b7f30ddfb81d3eb60b9ef78ec9acbe", "fusion_lat": 0.0, "rental_uris": {"ios": "https://dc.lft.to/lastmile_qr_scan", "android": "https://dc.lft.to/lastmile_qr_scan"}, "lon": -77.04870166666667, "type": "electric_scooter"}, {"bike_id": "89b161a2dea41e41099fc4112065e06b", "is_reserved": 0, "fusion_lon": 0.0, "lat": 38.892629166666666, "is_disabled": 0, "name": "89b161a2dea41e41099fc4112065e06b", "fusion_lat": 0.0, "rental_uris": {"ios": "https://dc.lft.to/lastmile_qr_scan", "android": "https://dc.lft.to/lastmile_qr_scan"}, "lon": -77.02617966666666, "type": "electric_scooter"}, {"bike_id": "29c86416349aa79d1af20c0128399ce1", "is_reserved": 0, "fusion_lon": 0.0, "lat": 38.897253666666664, "is_disabled": 0, "name": "29c86416349aa79d1af20c0128399ce1", "fusion_lat": 0.0, "rental_uris": {"ios": "https://dc.lft.to/lastmile_qr_scan", "android": "https://dc.lft.to/lastmile_qr_scan"}, "lon": -77.046223, "type": "electric_scooter"}, {"bike_id": "d02d1bb427a103e4c8b495120368e519", "is_reserved": 0, "fusion_lon": 0.0, "lat": 38.91610216666667, "is_disabled": 0, "name": "d02d1bb427a103e4c8b495120368e519", "fusion_lat": 0.0, "rental_uris": {"ios": "https://dc.lft.to/lastmile_qr_scan", "android": "https://dc.lft.to/lastmile_qr_scan"}, "lon": -77.04568583333334, "type": "electric_scooter"}, {"bike_id": "68faf83caf4c2c2f9c27dd90a1c3eafe", "is_reserved": 0, "fusion_lon": 0.0, "lat": 38.861801, "is_disabled": 0, "name": "68faf83caf4c2c2f9c27dd90a1c3eafe", "fusion_lat": 0.0, "rental_uris": {"ios": "https://dc.lft.to/lastmile_qr_scan", "android": "https://dc.lft.to/lastmile_qr_scan"}, "lon": -76.9943175, "type": "electric_scooter"}, {"bike_id": "7365aeb80f7590e8c9aab79a41958da6", "is_reserved": 0, "fusion_lon": 0.0, "lat": 38.89716683333333, "is_disabled": 0, "name": "7365aeb80f7590e8c9aab79a41958da6", "fusion_lat": 0.0, "rental_uris": {"ios": "https://dc.lft.to/lastmile_qr_scan", "android": "https://dc.lft.to/lastmile_qr_scan"}, "lon": -77.007984, "type": "electric_scooter"}, {"bike_id": "6a33e0016940bc99c2bfde03e2e1b524", "is_reserved": 0, "fusion_lon": 0.0, "lat": 38.86516866666667, "is_disabled": 0, "name": "6a33e0016940bc99c2bfde03e2e1b524", "fusion_lat": 0.0, "rental_uris": {"ios": "https://dc.lft.to/lastmile_qr_scan", "android": "https://dc.lft.to/lastmile_qr_scan"}, "lon": -76.99051816666666, "type": "electric_scooter"}, {"bike_id": "f99a42b80c2575ae56bab0138c1b96ec", "is_reserved": 0, "fusion_lon": 0.0, "lat": 38.906813166666666, "is_disabled": 0, "name": "f99a42b80c2575ae56bab0138c1b96ec", "fusion_lat": 0.0, "rental_uris": {"ios": "https://dc.lft.to/lastmile_qr_scan", "android": "https://dc.lft.to/lastmile_qr_scan"}, "lon": -76.9518995, "type": "electric_bike"}, {"bike_id": "43327c643b95b8930605eef4c44cce91", "is_reserved": 0, "fusion_lon": 0.0, "lat": 38.866173333333336, "is_disabled": 0, "name": "43327c643b95b8930605eef4c44cce91", "fusion_lat": 0.0, "rental_uris": {"ios": "https://dc.lft.to/lastmile_qr_scan", "android": "https://dc.lft.to/lastmile_qr_scan"}, "lon": -76.98652066666666, "type": "electric_scooter"}, {"bike_id": "e0b6497162592be0052cf06ebc851a6d", "is_reserved": 0, "fusion_lon": 0.0, "lat": 38.9181255, "is_disabled": 0, "name": "e0b6497162592be0052cf06ebc851a6d", "fusion_lat": 0.0, "rental_uris": {"ios": "https://dc.lft.to/lastmile_qr_scan", "android": "https://dc.lft.to/lastmile_qr_scan"}, "lon": -77.00466233333333, "type": "electric_bike"}, {"bike_id": "9a9ea3a5d9c4c412ad61cad31682b042", "is_reserved": 0, "fusion_lon": 0.0, "lat": 38.95876583333333, "is_disabled": 0, "name": "9a9ea3a5d9c4c412ad61cad31682b042", "fusion_lat": 0.0, "rental_uris": {"ios": "https://dc.lft.to/lastmile_qr_scan", "android": "https://dc.lft.to/lastmile_qr_scan"}, "lon": -77.01039416666667, "type": "electric_bike"}, {"bike_id": "1e35662cacd8c29b016217d38e7bc766", "is_reserved": 0, "fusion_lon": 0.0, "lat": 38.802235833333334, "is_disabled": 0, "name": "1e35662cacd8c29b016217d38e7bc766", "fusion_lat": 0.0, "rental_uris": {"ios": "https://dc.lft.to/lastmile_qr_scan", "android": "https://dc.lft.to/lastmile_qr_scan"}, "lon": -77.07919116666666, "type": "electric_bike"}, {"bike_id": "11037fb14011888fd8866fe92c38b1ad", "is_reserved": 0, "fusion_lon": 0.0, "lat": 38.905286, "is_disabled": 0, "name": "11037fb14011888fd8866fe92c38b1ad", "fusion_lat": 0.0, "rental_uris": {"ios": "https://dc.lft.to/lastmile_qr_scan", "android": "https://dc.lft.to/lastmile_qr_scan"}, "lon": -77.05644566666666, "type": "electric_scooter"}, {"bike_id": "c2f7b545a4b5a01c5ac8287e5df50a5d", "is_reserved": 0, "fusion_lon": 0.0, "lat": 38.882662833333335, "is_disabled": 0, "name": "c2f7b545a4b5a01c5ac8287e5df50a5d", "fusion_lat": 0.0, "rental_uris": {"ios": "https://dc.lft.to/lastmile_qr_scan", "android": "https://dc.lft.to/lastmile_qr_scan"}, "lon": -76.99542366666667, "type": "electric_scooter"}, {"bike_id": "cddde0d683fc9f27d925bce38121ff3d", "is_reserved": 0, "fusion_lon": 0.0, "lat": 38.8947455, "is_disabled": 0, "name": "cddde0d683fc9f27d925bce38121ff3d", "fusion_lat": 0.0, "rental_uris": {"ios": "https://dc.lft.to/lastmile_qr_scan", "android": "https://dc.lft.to/lastmile_qr_scan"}, "lon": -77.02298983333333, "type": "electric_scooter"}, {"bike_id": "fa5de9e0d16e25faf4ba60d11f761af3", "is_reserved": 0, "fusion_lon": 0.0, "lat": 38.90763283333333, "is_disabled": 0, "name": "fa5de9e0d16e25faf4ba60d11f761af3", "fusion_lat": 0.0, "rental_uris": {"ios": "https://dc.lft.to/lastmile_qr_scan", "android": "https://dc.lft.to/lastmile_qr_scan"}, "lon": -77.02067083333333, "type": "electric_scooter"}, {"bike_id": "a3ed060e4a4ad3d67e1620ce92e2e97f", "is_reserved": 0, "fusion_lon": 0.0, "lat": 38.8836795, "is_disabled": 0, "name": "a3ed060e4a4ad3d67e1620ce92e2e97f", "fusion_lat": 0.0, "rental_uris": {"ios": "https://dc.lft.to/lastmile_qr_scan", "android": "https://dc.lft.to/lastmile_qr_scan"}, "lon": -76.995346, "type": "electric_scooter"}, {"bike_id": "c59ab32a461f7b96951b2b1990b06dc4", "is_reserved": 0, "fusion_lon": 0.0, "lat": 38.944101, "is_disabled": 0, "name": "c59ab32a461f7b96951b2b1990b06dc4", "fusion_lat": 0.0, "rental_uris": {"ios": "https://dc.lft.to/lastmile_qr_scan", "android": "https://dc.lft.to/lastmile_qr_scan"}, "lon": -77.0552545, "type": "electric_scooter"}, {"bike_id": "1d04439d9fd5bc328df1c3bbbaf1403d", "is_reserved": 0, "fusion_lon": 0.0, "lat": 38.865023666666666, "is_disabled": 0, "name": "1d04439d9fd5bc328df1c3bbbaf1403d", "fusion_lat": 0.0, "rental_uris": {"ios": "https://dc.lft.to/lastmile_qr_scan", "android": "https://dc.lft.to/lastmile_qr_scan"}, "lon": -76.9897995, "type": "electric_scooter"}, {"bike_id": "b05026405f3a034ce00d608208455402", "is_reserved": 0, "fusion_lon": 0.0, "lat": 38.844220666666665, "is_disabled": 0, "name": "b05026405f3a034ce00d608208455402", "fusion_lat": 0.0, "rental_uris": {"ios": "https://dc.lft.to/lastmile_qr_scan", "android": "https://dc.lft.to/lastmile_qr_scan"}, "lon": -76.99783633333334, "type": "electric_scooter"}, {"bike_id": "8155d8227931425fafe2e3ea324a3f7f", "is_reserved": 0, "fusion_lon": 0.0, "lat": 38.918143666666666, "is_disabled": 0, "name": "8155d8227931425fafe2e3ea324a3f7f", "fusion_lat": 0.0, "rental_uris": {"ios": "https://dc.lft.to/lastmile_qr_scan", "android": "https://dc.lft.to/lastmile_qr_scan"}, "lon": -77.02787766666667, "type": "electric_scooter"}, {"bike_id": "91681838225c90a5b4a75981a82ccb8f", "is_reserved": 0, "fusion_lon": 0.0, "lat": 38.900636, "is_disabled": 0, "name": "91681838225c90a5b4a75981a82ccb8f", "fusion_lat": 0.0, "rental_uris": {"ios": "https://dc.lft.to/lastmile_qr_scan", "android": "https://dc.lft.to/lastmile_qr_scan"}, "lon": -76.998502, "type": "electric_scooter"}, {"bike_id": "7e0707afbc69360ef77fdfd3f6c2c3c2", "is_reserved": 0, "fusion_lon": 0.0, "lat": 38.89220383333333, "is_disabled": 0, "name": "7e0707afbc69360ef77fdfd3f6c2c3c2", "fusion_lat": 0.0, "rental_uris": {"ios": "https://dc.lft.to/lastmile_qr_scan", "android": "https://dc.lft.to/lastmile_qr_scan"}, "lon": -77.04873183333333, "type": "electric_scooter"}, {"bike_id": "11c4da0330b6dfb064773727e310c78c", "is_reserved": 0, "fusion_lon": 0.0, "lat": 38.9031975, "is_disabled": 0, "name": "11c4da0330b6dfb064773727e310c78c", "fusion_lat": 0.0, "rental_uris": {"ios": "https://dc.lft.to/lastmile_qr_scan", "android": "https://dc.lft.to/lastmile_qr_scan"}, "lon": -77.03833866666666, "type": "electric_scooter"}, {"bike_id": "658f9a1924d60253e00e7905710e82d2", "is_reserved": 0, "fusion_lon": 0.0, "lat": 38.958867166666664, "is_disabled": 0, "name": "658f9a1924d60253e00e7905710e82d2", "fusion_lat": 0.0, "rental_uris": {"ios": "https://dc.lft.to/lastmile_qr_scan", "android": "https://dc.lft.to/lastmile_qr_scan"}, "lon": -76.92497016666667, "type": "electric_bike"}, {"bike_id": "29b221dc651f7afd9412cf943b91cb80", "is_reserved": 0, "fusion_lon": 0.0, "lat": 38.92540066666667, "is_disabled": 0, "name": "29b221dc651f7afd9412cf943b91cb80", "fusion_lat": 0.0, "rental_uris": {"ios": "https://dc.lft.to/lastmile_qr_scan", "android": "https://dc.lft.to/lastmile_qr_scan"}, "lon": -76.98131216666667, "type": "electric_scooter"}, {"bike_id": "ebd40e122870f461ac5f40ea5187c4c9", "is_reserved": 0, "fusion_lon": 0.0, "lat": 38.97322033333333, "is_disabled": 0, "name": "ebd40e122870f461ac5f40ea5187c4c9", "fusion_lat": 0.0, "rental_uris": {"ios": "https://dc.lft.to/lastmile_qr_scan", "android": "https://dc.lft.to/lastmile_qr_scan"}, "lon": -77.02152433333333, "type": "electric_bike"}, {"bike_id": "c9ecf3a7e8e95000b0d45d0e8eb60f49", "is_reserved": 0, "fusion_lon": 0.0, "lat": 38.914128833333336, "is_disabled": 0, "name": "c9ecf3a7e8e95000b0d45d0e8eb60f49", "fusion_lat": 0.0, "rental_uris": {"ios": "https://dc.lft.to/lastmile_qr_scan", "android": "https://dc.lft.to/lastmile_qr_scan"}, "lon": -77.031494, "type": "electric_scooter"}, {"bike_id": "c093ab547fb338c136fc843faf9f4299", "is_reserved": 0, "fusion_lon": 0.0, "lat": 38.9111225, "is_disabled": 0, "name": "c093ab547fb338c136fc843faf9f4299", "fusion_lat": 0.0, "rental_uris": {"ios": "https://dc.lft.to/lastmile_qr_scan", "android": "https://dc.lft.to/lastmile_qr_scan"}, "lon": -77.00346516666667, "type": "electric_scooter"}, {"bike_id": "0915afbe3de34f6c7739ee3b4aa22a2c", "is_reserved": 0, "fusion_lon": 0.0, "lat": 38.9102485, "is_disabled": 0, "name": "0915afbe3de34f6c7739ee3b4aa22a2c", "fusion_lat": 0.0, "rental_uris": {"ios": "https://dc.lft.to/lastmile_qr_scan", "android": "https://dc.lft.to/lastmile_qr_scan"}, "lon": -77.04397566666667, "type": "electric_scooter"}, {"bike_id": "80103dbb09ae3b00ebcb9934f5703cf3", "is_reserved": 0, "fusion_lon": 0.0, "lat": 38.898284, "is_disabled": 0, "name": "80103dbb09ae3b00ebcb9934f5703cf3", "fusion_lat": 0.0, "rental_uris": {"ios": "https://dc.lft.to/lastmile_qr_scan", "android": "https://dc.lft.to/lastmile_qr_scan"}, "lon": -76.9464005, "type": "electric_scooter"}, {"bike_id": "e06313b8232058a3d01341a7b0d0f26d", "is_reserved": 0, "fusion_lon": 0.0, "lat": 38.88428733333333, "is_disabled": 0, "name": "e06313b8232058a3d01341a7b0d0f26d", "fusion_lat": 0.0, "rental_uris": {"ios": "https://dc.lft.to/lastmile_qr_scan", "android": "https://dc.lft.to/lastmile_qr_scan"}, "lon": -76.95757233333333, "type": "electric_scooter"}, {"bike_id": "729160323b2c909b94f97f8198145965", "is_reserved": 0, "fusion_lon": 0.0, "lat": 38.931088, "is_disabled": 0, "name": "729160323b2c909b94f97f8198145965", "fusion_lat": 0.0, "rental_uris": {"ios": "https://dc.lft.to/lastmile_qr_scan", "android": "https://dc.lft.to/lastmile_qr_scan"}, "lon": -77.02151133333334, "type": "electric_scooter"}, {"bike_id": "9acde1a1586f8a713ce3a8b99668c338", "is_reserved": 0, "fusion_lon": 0.0, "lat": 38.92356683333333, "is_disabled": 0, "name": "9acde1a1586f8a713ce3a8b99668c338", "fusion_lat": 0.0, "rental_uris": {"ios": "https://dc.lft.to/lastmile_qr_scan", "android": "https://dc.lft.to/lastmile_qr_scan"}, "lon": -77.05048616666667, "type": "electric_scooter"}, {"bike_id": "e6769f15f3cd4c9ec02448cdd56339d8", "is_reserved": 0, "fusion_lon": 0.0, "lat": 38.936886666666666, "is_disabled": 0, "name": "e6769f15f3cd4c9ec02448cdd56339d8", "fusion_lat": 0.0, "rental_uris": {"ios": "https://dc.lft.to/lastmile_qr_scan", "android": "https://dc.lft.to/lastmile_qr_scan"}, "lon": -77.02718916666667, "type": "electric_scooter"}, {"bike_id": "79d924645f0cde28a77f2d043810e07b", "is_reserved": 0, "fusion_lon": 0.0, "lat": 38.8901485, "is_disabled": 0, "name": "79d924645f0cde28a77f2d043810e07b", "fusion_lat": 0.0, "rental_uris": {"ios": "https://dc.lft.to/lastmile_qr_scan", "android": "https://dc.lft.to/lastmile_qr_scan"}, "lon": -76.936974, "type": "electric_scooter"}, {"bike_id": "7ceac588aa0cb422cf1b83cde6d253c1", "is_reserved": 0, "fusion_lon": 0.0, "lat": 38.8929375, "is_disabled": 0, "name": "7ceac588aa0cb422cf1b83cde6d253c1", "fusion_lat": 0.0, "rental_uris": {"ios": "https://dc.lft.to/lastmile_qr_scan", "android": "https://dc.lft.to/lastmile_qr_scan"}, "lon": -77.03943133333334, "type": "electric_scooter"}, {"bike_id": "18579a34aa1fb457c6b4c2a121eb13ef", "is_reserved": 0, "fusion_lon": 0.0, "lat": 38.9072645, "is_disabled": 0, "name": "18579a34aa1fb457c6b4c2a121eb13ef", "fusion_lat": 0.0, "rental_uris": {"ios": "https://dc.lft.to/lastmile_qr_scan", "android": "https://dc.lft.to/lastmile_qr_scan"}, "lon": -77.000608, "type": "electric_scooter"}, {"bike_id": "6b5a8a8a64279c3d9a4abd5308baa643", "is_reserved": 0, "fusion_lon": 0.0, "lat": 38.964946833333336, "is_disabled": 0, "name": "6b5a8a8a64279c3d9a4abd5308baa643", "fusion_lat": 0.0, "rental_uris": {"ios": "https://dc.lft.to/lastmile_qr_scan", "android": "https://dc.lft.to/lastmile_qr_scan"}, "lon": -77.06494183333334, "type": "electric_bike"}, {"bike_id": "2e3a5f787e95f4e96ac25940d6173101", "is_reserved": 0, "fusion_lon": 0.0, "lat": 38.914366333333334, "is_disabled": 0, "name": "2e3a5f787e95f4e96ac25940d6173101", "fusion_lat": 0.0, "rental_uris": {"ios": "https://dc.lft.to/lastmile_qr_scan", "android": "https://dc.lft.to/lastmile_qr_scan"}, "lon": -77.0170745, "type": "electric_scooter"}, {"bike_id": "5387d9e7d489dfe5fdc5883da7d456a6", "is_reserved": 0, "fusion_lon": 0.0, "lat": 38.924616666666665, "is_disabled": 0, "name": "5387d9e7d489dfe5fdc5883da7d456a6", "fusion_lat": 0.0, "rental_uris": {"ios": "https://dc.lft.to/lastmile_qr_scan", "android": "https://dc.lft.to/lastmile_qr_scan"}, "lon": -77.03545516666667, "type": "electric_scooter"}, {"bike_id": "789edc4f8af53cc9f79da3eadc3d736d", "is_reserved": 0, "fusion_lon": 0.0, "lat": 38.91236333333333, "is_disabled": 0, "name": "789edc4f8af53cc9f79da3eadc3d736d", "fusion_lat": 0.0, "rental_uris": {"ios": "https://dc.lft.to/lastmile_qr_scan", "android": "https://dc.lft.to/lastmile_qr_scan"}, "lon": -77.045225, "type": "electric_scooter"}, {"bike_id": "e3de5eed1792be490466a4917bfa7d32", "is_reserved": 0, "fusion_lon": 0.0, "lat": 38.866592, "is_disabled": 0, "name": "e3de5eed1792be490466a4917bfa7d32", "fusion_lat": 0.0, "rental_uris": {"ios": "https://dc.lft.to/lastmile_qr_scan", "android": "https://dc.lft.to/lastmile_qr_scan"}, "lon": -76.98899283333333, "type": "electric_scooter"}, {"bike_id": "2eb0dd53e3e2937f9f8a634712163909", "is_reserved": 0, "fusion_lon": 0.0, "lat": 38.889380833333334, "is_disabled": 0, "name": "2eb0dd53e3e2937f9f8a634712163909", "fusion_lat": 0.0, "rental_uris": {"ios": "https://dc.lft.to/lastmile_qr_scan", "android": "https://dc.lft.to/lastmile_qr_scan"}, "lon": -77.01509633333333, "type": "electric_scooter"}, {"bike_id": "049fb04d3b8eed72ae0bc55d8c8b4198", "is_reserved": 0, "fusion_lon": 0.0, "lat": 38.90265933333333, "is_disabled": 0, "name": "049fb04d3b8eed72ae0bc55d8c8b4198", "fusion_lat": 0.0, "rental_uris": {"ios": "https://dc.lft.to/lastmile_qr_scan", "android": "https://dc.lft.to/lastmile_qr_scan"}, "lon": -77.0599705, "type": "electric_scooter"}, {"bike_id": "ba0d78c762e967acbc0d7743b7f1f8d2", "is_reserved": 0, "fusion_lon": 0.0, "lat": 38.91866783333333, "is_disabled": 0, "name": "ba0d78c762e967acbc0d7743b7f1f8d2", "fusion_lat": 0.0, "rental_uris": {"ios": "https://dc.lft.to/lastmile_qr_scan", "android": "https://dc.lft.to/lastmile_qr_scan"}, "lon": -77.03914233333333, "type": "electric_scooter"}, {"bike_id": "c80884b3afc46a2e5b8ee342eb47c8e6", "is_reserved": 0, "fusion_lon": 0.0, "lat": 38.93053066666667, "is_disabled": 0, "name": "c80884b3afc46a2e5b8ee342eb47c8e6", "fusion_lat": 0.0, "rental_uris": {"ios": "https://dc.lft.to/lastmile_qr_scan", "android": "https://dc.lft.to/lastmile_qr_scan"}, "lon": -77.03225566666667, "type": "electric_scooter"}, {"bike_id": "2858bb30c46f4f55efc01c8cd0620d04", "is_reserved": 0, "fusion_lon": 0.0, "lat": 38.91032083333333, "is_disabled": 0, "name": "2858bb30c46f4f55efc01c8cd0620d04", "fusion_lat": 0.0, "rental_uris": {"ios": "https://dc.lft.to/lastmile_qr_scan", "android": "https://dc.lft.to/lastmile_qr_scan"}, "lon": -77.0439735, "type": "electric_scooter"}, {"bike_id": "e85b42511abdb50a906cbc09780a0922", "is_reserved": 0, "fusion_lon": 0.0, "lat": 38.875459166666666, "is_disabled": 0, "name": "e85b42511abdb50a906cbc09780a0922", "fusion_lat": 0.0, "rental_uris": {"ios": "https://dc.lft.to/lastmile_qr_scan", "android": "https://dc.lft.to/lastmile_qr_scan"}, "lon": -76.96495883333333, "type": "electric_scooter"}, {"bike_id": "0cb425ce6544968adebfce286bdcefb4", "is_reserved": 0, "fusion_lon": 0.0, "lat": 38.9040845, "is_disabled": 0, "name": "0cb425ce6544968adebfce286bdcefb4", "fusion_lat": 0.0, "rental_uris": {"ios": "https://dc.lft.to/lastmile_qr_scan", "android": "https://dc.lft.to/lastmile_qr_scan"}, "lon": -76.9810535, "type": "electric_scooter"}, {"bike_id": "5c549850337952695b340dfc578f6d48", "is_reserved": 0, "fusion_lon": 0.0, "lat": 38.928683, "is_disabled": 0, "name": "5c549850337952695b340dfc578f6d48", "fusion_lat": 0.0, "rental_uris": {"ios": "https://dc.lft.to/lastmile_qr_scan", "android": "https://dc.lft.to/lastmile_qr_scan"}, "lon": -77.03330883333334, "type": "electric_scooter"}, {"bike_id": "33c9b519ce9284c7aeac0b0d112be532", "is_reserved": 0, "fusion_lon": 0.0, "lat": 38.90665383333334, "is_disabled": 0, "name": "33c9b519ce9284c7aeac0b0d112be532", "fusion_lat": 0.0, "rental_uris": {"ios": "https://dc.lft.to/lastmile_qr_scan", "android": "https://dc.lft.to/lastmile_qr_scan"}, "lon": -76.98796766666666, "type": "electric_scooter"}, {"bike_id": "5f8cfa600146733557c68b95aac037ce", "is_reserved": 0, "fusion_lon": 0.0, "lat": 38.86200516666667, "is_disabled": 0, "name": "5f8cfa600146733557c68b95aac037ce", "fusion_lat": 0.0, "rental_uris": {"ios": "https://dc.lft.to/lastmile_qr_scan", "android": "https://dc.lft.to/lastmile_qr_scan"}, "lon": -76.9946505, "type": "electric_scooter"}, {"bike_id": "5f3421e0d8e7c466c59c53e8744515ae", "is_reserved": 0, "fusion_lon": 0.0, "lat": 38.89041683333333, "is_disabled": 0, "name": "5f3421e0d8e7c466c59c53e8744515ae", "fusion_lat": 0.0, "rental_uris": {"ios": "https://dc.lft.to/lastmile_qr_scan", "android": "https://dc.lft.to/lastmile_qr_scan"}, "lon": -76.94077833333333, "type": "electric_scooter"}, {"bike_id": "e6c63962930e35450c891b5b269fb028", "is_reserved": 0, "fusion_lon": 0.0, "lat": 38.95885716666667, "is_disabled": 0, "name": "e6c63962930e35450c891b5b269fb028", "fusion_lat": 0.0, "rental_uris": {"ios": "https://dc.lft.to/lastmile_qr_scan", "android": "https://dc.lft.to/lastmile_qr_scan"}, "lon": -76.92488266666666, "type": "electric_bike"}, {"bike_id": "fddf1424d862aec5ba1d05682e171a57", "is_reserved": 0, "fusion_lon": 0.0, "lat": 38.902596833333334, "is_disabled": 0, "name": "fddf1424d862aec5ba1d05682e171a57", "fusion_lat": 0.0, "rental_uris": {"ios": "https://dc.lft.to/lastmile_qr_scan", "android": "https://dc.lft.to/lastmile_qr_scan"}, "lon": -77.03254283333334, "type": "electric_scooter"}, {"bike_id": "4c8b9a60650953bdf62a5c54bae61349", "is_reserved": 0, "fusion_lon": 0.0, "lat": 38.89993283333333, "is_disabled": 0, "name": "4c8b9a60650953bdf62a5c54bae61349", "fusion_lat": 0.0, "rental_uris": {"ios": "https://dc.lft.to/lastmile_qr_scan", "android": "https://dc.lft.to/lastmile_qr_scan"}, "lon": -77.05232866666667, "type": "electric_scooter"}, {"bike_id": "2801ea608ad814fb26353c74a9686e7e", "is_reserved": 0, "fusion_lon": 0.0, "lat": 38.830511666666666, "is_disabled": 0, "name": "2801ea608ad814fb26353c74a9686e7e", "fusion_lat": 0.0, "rental_uris": {"ios": "https://dc.lft.to/lastmile_qr_scan", "android": "https://dc.lft.to/lastmile_qr_scan"}, "lon": -77.039943, "type": "electric_bike"},