{"data": {"bikes": [{"rental_uris": {"ios": "https://dc.lft.to/lastmile_qr_scan", "android": "https://dc.lft.to/lastmile_qr_scan"}, "fusion_lon": 0.0, "type": "electric_bike", "is_reserved": 0, "lon": -77.09688866666667, "is_disabled": 0, "fusion_lat": 0.0, "bike_id": "e1ab11316c4b45a97692c2f6a9a8368b", "name": "e1ab11316c4b45a97692c2f6a9a8368b", "lat": 38.807361666666665}, {"rental_uris": {"ios": "https://dc.lft.to/lastmile_qr_scan", "android": "https://dc.lft.to/lastmile_qr_scan"}, "fusion_lon": 0.0, "type": "electric_scooter", "is_reserved": 0, "lon": -77.04480016666666, "is_disabled": 0, "fusion_lat": 0.0, "bike_id": "a173670c1e6f322abf9c48aca97a6da8", "name": "a173670c1e6f322abf9c48aca97a6da8", "lat": 38.913571833333336}, {"rental_uris": {"ios": "https://dc.lft.to/lastmile_qr_scan", "android": "https://dc.lft.to/lastmile_qr_scan"}, "fusion_lon": 0.0, "type": "electric_scooter", "is_reserved": 0, "lon": -77.05332383333334, "is_disabled": 0, "fusion_lat": 0.0, "bike_id": "b16f09e1d2eafd0871fc49dbdb173054", "name": "b16f09e1d2eafd0871fc49dbdb173054", "lat": 38.90645516666667}, {"rental_uris": {"ios": "https://dc.lft.to/lastmile_qr_scan", "android": "https://dc.lft.to/lastmile_qr_scan"}, "fusion_lon": 0.0, "type": "electric_scooter", "is_reserved": 0, "lon": -77.04359983333333, "is_disabled": 0, "fusion_lat": 0.0, "bike_id": "0c6f6254805e36af4eb395e7313cb4e5", "name": "0c6f6254805e36af4eb395e7313cb4e5", "lat": 38.921747833333335}, {"rental_uris": {"ios": "https://dc.lft.to/lastmile_qr_scan", "android": "https://dc.lft.to/lastmile_qr_scan"}, "fusion_lon": 0.0, "type": "electric_bike", "is_reserved": 0, "lon": -77.23392183333333, "is_disabled": 0, "fusion_lat": 0.0, "bike_id": "aa42c64ce75c3fbe7831aed59ad3b324", "name": "aa42c64ce75c3fbe7831aed59ad3b324", "lat": 38.871744166666666}, {"rental_uris": {"ios": "https://dc.lft.to/lastmile_qr_scan", "android": "https://dc.lft.to/lastmile_qr_scan"}, "fusion_lon": 0.0, "type": "electric_scooter", "is_reserved": 0, "lon": -76.9833425, "is_disabled": 0, "fusion_lat": 0.0, "bike_id": "6247a2e1061ddc0ab6ece187c52d54aa", "name": "6247a2e1061ddc0ab6ece187c52d54aa", "lat": 38.8954365}, {"rental_uris": {"ios": "https://dc.lft.to/lastmile_qr_scan", "android": "https://dc.lft.to/lastmile_qr_scan"}, "fusion_lon": 0.0, "type": "electric_scooter", "is_reserved": 0, "lon": -77.04545133333333, "is_disabled": 0, "fusion_lat": 0.0, "bike_id": "11807dd446b47d3e6a3acbab5f35d741", "name": "11807dd446b47d3e6a3acbab5f35d741", "lat": 38.907414333333335}, {"rental_uris": {"ios": "https://dc.lft.to/lastmile_qr_scan", "android": "https://dc.lft.to/lastmile_qr_scan"}, "fusion_lon": 0.0, "type": "electric_scooter", "is_reserved": 0, "lon": -77.0002555, "is_disabled": 0, "fusion_lat": 0.0, "bike_id": "a5a92a297dd32a7549c70656daec487f", "name": "a5a92a297dd32a7549c70656daec487f", "lat": 38.8738585}, {"rental_uris": {"ios": "https://dc.lft.to/lastmile_qr_scan", "android": "https://dc.lft.to/lastmile_qr_scan"}, "fusion_lon": 0.0, "type": "electric_scooter", "is_reserved": 0, "lon": -77.00605666666667, "is_disabled": 0, "fusion_lat": 0.0, "bike_id": "a709d61452eda9016165a31791a2f0ef", "name": "a709d61452eda9016165a31791a2f0ef", "lat": 38.91115533333333}, {"rental_uris": {"ios": "https://dc.lft.to/lastmile_qr_scan", "android": "https://dc.lft.to/lastmile_qr_scan"}, "fusion_lon": 0.0, "type": "electric_scooter", "is_reserved": 0, "lon": -76.99791766666667, "is_disabled": 0, "fusion_lat": 0.0, "bike_id": "0019d19a2c790304bd383501b649818a", "name": "0019d19a2c790304bd383501b649818a", "lat": 38.885604666666666}, {"rental_uris": {"ios": "https://dc.lft.to/lastmile_qr_scan", "android": "https://dc.lft.to/lastmile_qr_scan"}, "fusion_lon": 0.0, "type": "electric_scooter", "is_reserved": 0, "lon": -77.042561, "is_disabled": 0, "fusion_lat": 0.0, "bike_id": "6068ddb0cbf3876afe5707a23a75dc35", "name": "6068ddb0cbf3876afe5707a23a75dc35", "lat": 38.92209283333333}, {"rental_uris": {"ios": "https://dc.lft.to/lastmile_qr_scan", "android": "https://dc.lft.to/lastmile_qr_scan"}, "fusion_lon": 0.0, "type": "electric_scooter", "is_reserved": 0, "lon": -77.03184016666667, "is_disabled": 0, "fusion_lat": 0.0, "bike_id": "e266e6284a2e7c20927df961132335ae", "name": "e266e6284a2e7c20927df961132335ae", "lat": 38.91326683333333}, {"rental_uris": {"ios": "https://dc.lft.to/lastmile_qr_scan", "android": "https://dc.lft.to/lastmile_qr_scan"}, "fusion_lon": 0.0, "type": "electric_scooter", "is_reserved": 0, "lon": -77.0386325, "is_disabled": 0, "fusion_lat": 0.0, "bike_id": "a821f1e524ed5f4e225d81df2673598d", "name": "a821f1e524ed5f4e225d81df2673598d", "lat": 38.91705266666666}, {"rental_uris": {"ios": "https://dc.lft.to/lastmile_qr_scan", "android": "https://dc.lft.to/lastmile_qr_scan"}, "fusion_lon": 0.0, "type": "electric_bike", "is_reserved": 0, "lon": -76.91064216666666, "is_disabled": 0, "fusion_lat": 0.0, "bike_id": "3afa3788370d796a8ca3ded573bb2ebc", "name": "3afa3788370d796a8ca3ded573bb2ebc", "lat": 39.010771}, {"rental_uris": {"ios": "https://dc.lft.to/lastmile_qr_scan", "android": "https://dc.lft.to/lastmile_qr_scan"}, "fusion_lon": 0.0, "type": "electric_scooter", "is_reserved": 0, "lon": -77.00341583333334, "is_disabled": 0, "fusion_lat": 0.0, "bike_id": "a4a9b43692c8e8fef9c1ceeca0339a9d", "name": "a4a9b43692c8e8fef9c1ceeca0339a9d", "lat": 38.893564166666664}, {"rental_uris": {"ios": "https://dc.lft.to/lastmile_qr_scan", "android": "https://dc.lft.to/lastmile_qr_scan"}, "fusion_lon": 0.0, "type": "electric_scooter", "is_reserved": 0, "lon": -77.048423, "is_disabled": 0, "fusion_lat": 0.0, "bike_id": "f9e19b3a9d49dcdae02150be225e6490", "name": "f9e19b3a9d49dcdae02150be225e6490", "lat": 38.89966166666667}, {"rental_uris": {"ios": "https://dc.lft.to/lastmile_qr_scan", "android": "https://dc.lft.to/lastmile_qr_scan"}, "fusion_lon": 0.0, "type": "electric_scooter", "is_reserved": 0, "lon": -77.0315745, "is_disabled": 0, "fusion_lat": 0.0, "bike_id": "c706e6a17b32a7803d780c92be1e83e4", "name": "c706e6a17b32a7803d780c92be1e83e4", "lat": 38.920344666666665}, {"rental_uris": {"ios": "https://dc.lft.to/lastmile_qr_scan", "android": "https://dc.lft.to/lastmile_qr_scan"}, "fusion_lon": 0.0, "type": "electric_scooter", "is_reserved": 0, "lon": -77.01961933333334, "is_disabled": 0, "fusion_lat": 0.0, "bike_id": "59448ac2f4842e3a9b1255bd7d787da0", "name": "59448ac2f4842e3a9b1255bd7d787da0", "lat": 38.89330416666667}, {"rental_uris": {"ios": "https://dc.lft.to/lastmile_qr_scan", "android": "https://dc.lft.to/lastmile_qr_scan"}, "fusion_lon": 0.0, "type": "electric_scooter", "is_reserved": 0, "lon": -77.0216525, "is_disabled": 0, "fusion_lat": 0.0, "bike_id": "e95d5e15631869383e6048e4c7876458", "name": "e95d5e15631869383e6048e4c7876458", "lat": 38.930727166666664}, {"rental_uris": {"ios": "https://dc.lft.to/lastmile_qr_scan", "android": "https://dc.lft.to/lastmile_qr_scan"}, "fusion_lon": 0.0, "type": "electric_scooter", "is_reserved": 0, "lon": -77.02812383333334, "is_disabled": 0, "fusion_lat": 0.0, "bike_id": "9a1ff81c180b2602fac32515cb206020", "name": "9a1ff81c180b2602fac32515cb206020", "lat": 38.922402166666664}, {"rental_uris": {"ios": "https://dc.lft.to/lastmile_qr_scan", "android": "https://dc.lft.to/lastmile_qr_scan"}, "fusion_lon": 0.0, "type": "electric_scooter", "is_reserved": 0, "lon": -77.02601466666667, "is_disabled": 0, "fusion_lat": 0.0, "bike_id": "9f154d453c8db6e5e3324813bf41f196", "name": "9f154d453c8db6e5e3324813bf41f196", "lat": 38.92687033333333}, {"rental_uris": {"ios": "https://dc.lft.to/lastmile_qr_scan", "android": "https://dc.lft.to/lastmile_qr_scan"}, "fusion_lon": 0.0, "type": "electric_scooter", "is_reserved": 0, "lon": -77.08188666666666, "is_disabled": 0, "fusion_lat": 0.0, "bike_id": "a239d8b91ade9d3f35064f6d2a0ae156", "name": "a239d8b91ade9d3f35064f6d2a0ae156", "lat": 38.920917833333334}, {"rental_uris": {"ios": "https://dc.lft.to/lastmile_qr_scan", "android": "https://dc.lft.to/lastmile_qr_scan"}, "fusion_lon": 0.0, "type": "electric_scooter", "is_reserved": 0, "lon": -77.01862433333334, "is_disabled": 0, "fusion_lat": 0.0, "bike_id": "2fa43b53aee66c4126d52f9f43ac8ef1", "name": "2fa43b53aee66c4126d52f9f43ac8ef1", "lat": 38.90564166666667}, {"rental_uris": {"ios": "https://dc.lft.to/lastmile_qr_scan", "android": "https://dc.lft.to/lastmile_qr_scan"}, "fusion_lon": 0.0, "type": "electric_scooter", "is_reserved": 0, "lon": -77.01754566666666, "is_disabled": 0, "fusion_lat": 0.0, "bike_id": "8e8b821cd4aab55a71108a927fe8497c", "name": "8e8b821cd4aab55a71108a927fe8497c", "lat": 38.916873}, {"rental_uris": {"ios": "https://dc.lft.to/lastmile_qr_scan", "android": "https://dc.lft.to/lastmile_qr_scan"}, "fusion_lon": 0.0, "type": "electric_scooter", "is_reserved": 0, "lon": -77.02172333333333, "is_disabled": 0, "fusion_lat": 0.0, "bike_id": "85432352f98a9b1ec472be5abdd9443a", "name": "85432352f98a9b1ec472be5abdd9443a", "lat": 38.898876}, {"rental_uris": {"ios": "https://dc.lft.to/lastmile_qr_scan", "android": "https://dc.lft.to/lastmile_qr_scan"}, "fusion_lon": 0.0, "type": "electric_scooter", "is_reserved": 0, "lon": -77.014744, "is_disabled": 0, "fusion_lat": 0.0, "bike_id": "da57bfda5e43e9b46155f8d81280324d", "name": "da57bfda5e43e9b46155f8d81280324d", "lat": 38.913201666666666}, {"rental_uris": {"ios": "https://dc.lft.to/lastmile_qr_scan", "android": "https://dc.lft.to/lastmile_qr_scan"}, "fusion_lon": 0.0, "type": "electric_scooter", "is_reserved": 0, "lon": -77.02146666666667, "is_disabled": 0, "fusion_lat": 0.0, "bike_id": "889e13e436aab1466fc0e95cd36fe7f5", "name": "889e13e436aab1466fc0e95cd36fe7f5", "lat": 38.923397}, {"rental_uris": {"ios": "https://dc.lft.to/lastmile_qr_scan", "android": "https://dc.lft.to/lastmile_qr_scan"}, "fusion_lon": 0.0, "type": "electric_scooter", "is_reserved": 0, "lon": -77.03630816666667, "is_disabled": 0, "fusion_lat": 0.0, "bike_id": "bdb13ef95d0a2b57ab9df565572c852f", "name": "bdb13ef95d0a2b57ab9df565572c852f", "lat": 38.95635766666667}, {"rental_uris": {"ios": "https://dc.lft.to/lastmile_qr_scan", "android": "https://dc.lft.to/lastmile_qr_scan"}, "fusion_lon": 0.0, "type": "electric_scooter", "is_reserved": 0, "lon": -77.0232625, "is_disabled": 0, "fusion_lat": 0.0, "bike_id": "08de8385ad44674f07c18fa18310c892", "name": "08de8385ad44674f07c18fa18310c892", "lat": 38.9176385}, {"rental_uris": {"ios": "https://dc.lft.to/lastmile_qr_scan", "android": "https://dc.lft.to/lastmile_qr_scan"}, "fusion_lon": 0.0, "type": "electric_scooter", "is_reserved": 0, "lon": -77.045465, "is_disabled": 0, "fusion_lat": 0.0, "bike_id": "59513f188100ac436903744af6052143", "name": "59513f188100ac436903744af6052143", "lat": 38.9005565}, {"rental_uris": {"ios": "https://dc.lft.to/lastmile_qr_scan", "android": "https://dc.lft.to/lastmile_qr_scan"}, "fusion_lon": 0.0, "type": "electric_scooter", "is_reserved": 0, "lon": -77.02426633333333, "is_disabled": 0, "fusion_lat": 0.0, "bike_id": "2c10f9258fef91a4240de8ceea6e10f2", "name": "2c10f9258fef91a4240de8ceea6e10f2", "lat": 38.915540166666666}, {"rental_uris": {"ios": "https://dc.lft.to/lastmile_qr_scan", "android": "https://dc.lft.to/lastmile_qr_scan"}, "fusion_lon": 0.0, "type": "electric_scooter", "is_reserved": 0, "lon": -77.04738083333334, "is_disabled": 0, "fusion_lat": 0.0, "bike_id": "d0cc108397c6e36bddeaab0165e6c6ad", "name": "d0cc108397c6e36bddeaab0165e6c6ad", "lat": 38.90526633333333}, {"rental_uris": {"ios": "https://dc.lft.to/lastmile_qr_scan", "android": "https://dc.lft.to/lastmile_qr_scan"}, "fusion_lon": 0.0, "type": "electric_scooter", "is_reserved": 0, "lon": -77.024242, "is_disabled": 0, "fusion_lat": 0.0, "bike_id": "a9120c06a13f87d2bde07802e70c7560", "name": "a9120c06a13f87d2bde07802e70c7560", "lat": 38.93702366666667}, {"rental_uris": {"ios": "https://dc.lft.to/lastmile_qr_scan", "android": "https://dc.lft.to/lastmile_qr_scan"}, "fusion_lon": 0.0, "type": "electric_scooter", "is_reserved": 0, "lon": -77.02388216666667, "is_disabled": 0, "fusion_lat": 0.0, "bike_id": "eeba35c3c5a3b96d33a3ae759213f04f", "name": "eeba35c3c5a3b96d33a3ae759213f04f", "lat": 38.919773}, {"rental_uris": {"ios": "https://dc.lft.to/lastmile_qr_scan", "android": "https://dc.lft.to/lastmile_qr_scan"}, "fusion_lon": 0.0, "type": "electric_scooter", "is_reserved": 0, "lon": -77.01503516666666, "is_disabled": 0, "fusion_lat": 0.0, "bike_id": "38ee1d655dc5a50e992ee265754f80d3", "name": "38ee1d655dc5a50e992ee265754f80d3", "lat": 38.8995715}, {"rental_uris": {"ios": "https://dc.lft.to/lastmile_qr_scan", "android": "https://dc.lft.to/lastmile_qr_scan"}, "fusion_lon": 0.0, "type": "electric_scooter", "is_reserved": 0, "lon": -77.01000483333333, "is_disabled": 0, "fusion_lat": 0.0, "bike_id": "791aeb3c7a87fb0f9f89e2e1773307bb", "name": "791aeb3c7a87fb0f9f89e2e1773307bb", "lat": 38.879407666666665}, {"rental_uris": {"ios": "https://dc.lft.to/lastmile_qr_scan", "android": "https://dc.lft.to/lastmile_qr_scan"}, "fusion_lon": 0.0, "type": "electric_scooter", "is_reserved": 0, "lon": -77.03244583333333, "is_disabled": 0, "fusion_lat": 0.0, "bike_id": "bd8df801a09e32b712d298769ea16903", "name": "bd8df801a09e32b712d298769ea16903", "lat": 38.9286305}, {"rental_uris": {"ios": "https://dc.lft.to/lastmile_qr_scan", "android": "https://dc.lft.to/lastmile_qr_scan"}, "fusion_lon": 0.0, "type": "electric_scooter", "is_reserved": 0, "lon": -77.0160735, "is_disabled": 0, "fusion_lat": 0.0, "bike_id": "1fd01b4e6cb6f9644fbe5abbb82ae3b6", "name": "1fd01b4e6cb6f9644fbe5abbb82ae3b6", "lat": 38.899625}, {"rental_uris": {"ios": "https://dc.lft.to/lastmile_qr_scan", "android": "https://dc.lft.to/lastmile_qr_scan"}, "fusion_lon": 0.0, "type": "electric_scooter", "is_reserved": 0, "lon": -77.04634183333333, "is_disabled": 0, "fusion_lat": 0.0, "bike_id": "ddbc516aae5fa01c28587e92990a3c6d", "name": "ddbc516aae5fa01c28587e92990a3c6d", "lat": 38.919230166666665}, {"rental_uris": {"ios": "https://dc.lft.to/lastmile_qr_scan", "android": "https://dc.lft.to/lastmile_qr_scan"}, "fusion_lon": 0.0, "type": "electric_scooter", "is_reserved": 0, "lon": -77.019684, "is_disabled": 0, "fusion_lat": 0.0, "bike_id": "82328bc1d1bc31723b0ea7c210e60eec", "name": "82328bc1d1bc31723b0ea7c210e60eec", "lat": 38.9203665}, {"rental_uris": {"ios": "https://dc.lft.to/lastmile_qr_scan", "android": "https://dc.lft.to/lastmile_qr_scan"}, "fusion_lon": 0.0, "type": "electric_scooter", "is_reserved": 0, "lon": -77.04504833333333, "is_disabled": 0, "fusion_lat": 0.0, "bike_id": "7df68c5a3fbfbb6e17add78f2b4672fd", "name": "7df68c5a3fbfbb6e17add78f2b4672fd", "lat": 38.89945516666667}, {"rental_uris": {"ios": "https://dc.lft.to/lastmile_qr_scan", "android": "https://dc.lft.to/lastmile_qr_scan"}, "fusion_lon": 0.0, "type": "electric_scooter", "is_reserved": 0, "lon": -77.03579283333333, "is_disabled": 0, "fusion_lat": 0.0, "bike_id": "5f54f51cb779ba73d36b00df1bb57220", "name": "5f54f51cb779ba73d36b00df1bb57220", "lat": 38.9087485}, {"rental_uris": {"ios": "https://dc.lft.to/lastmile_qr_scan", "android": "https://dc.lft.to/lastmile_qr_scan"}, "fusion_lon": 0.0, "type": "electric_scooter", "is_reserved": 0, "lon": -77.0073435, "is_disabled": 0, "fusion_lat": 0.0, "bike_id": "291bff346bc6cdfaab4e6ac5a4396458", "name": "291bff346bc6cdfaab4e6ac5a4396458", "lat": 38.87692633333333}, {"rental_uris": {"ios": "https://dc.lft.to/lastmile_qr_scan", "android": "https://dc.lft.to/lastmile_qr_scan"}, "fusion_lon": 0.0, "type": "electric_scooter", "is_reserved": 0, "lon": -76.9612345, "is_disabled": 0, "fusion_lat": 0.0, "bike_id": "9676fdc7ace8bdff7fb6daae576f96fd", "name": "9676fdc7ace8bdff7fb6daae576f96fd", "lat": 38.89209533333333}, {"rental_uris": {"ios": "https://dc.lft.to/lastmile_qr_scan", "android": "https://dc.lft.to/lastmile_qr_scan"}, "fusion_lon": 0.0, "type": "electric_scooter", "is_reserved": 0, "lon": -77.0391335, "is_disabled": 0, "fusion_lat": 0.0, "bike_id": "358eda90b63d929d36a9881134ab26fb", "name": "358eda90b63d929d36a9881134ab26fb", "lat": 38.924718}, {"rental_uris": {"ios": "https://dc.lft.to/lastmile_qr_scan", "android": "https://dc.lft.to/lastmile_qr_scan"}, "fusion_lon": 0.0, "type": "electric_scooter", "is_reserved": 0, "lon": -77.02317166666667, "is_disabled": 0, "fusion_lat": 0.0, "bike_id": "efae1d2f4c046c56193e20f77cd7e648", "name": "efae1d2f4c046c56193e20f77cd7e648", "lat": 38.93285183333333}, {"rental_uris": {"ios": "https://dc.lft.to/lastmile_qr_scan", "android": "https://dc.lft.to/lastmile_qr_scan"}, "fusion_lon": 0.0, "type": "electric_scooter", "is_reserved": 0, "lon": -77.021205, "is_disabled": 0, "fusion_lat": 0.0, "bike_id": "3920655c9ab70eff95c11b95fb1c9907", "name": "3920655c9ab70eff95c11b95fb1c9907", "lat": 38.9279045}, {"rental_uris": {"ios": "https://dc.lft.to/lastmile_qr_scan", "android": "https://dc.lft.to/lastmile_qr_scan"}, "fusion_lon": 0.0, "type": "electric_scooter", "is_reserved": 0, "lon": -77.02123083333333, "is_disabled": 0, "fusion_lat": 0.0, "bike_id": "648d5aaf2b56a789815e5072fd5fe0e3", "name": "648d5aaf2b56a789815e5072fd5fe0e3", "lat": 38.9242635}, {"rental_uris": {"ios": "https://dc.lft.to/lastmile_qr_scan", "android": "https://dc.lft.to/lastmile_qr_scan"}, "fusion_lon": 0.0, "type": "electric_bike", "is_reserved": 0, "lon": -77.127347, "is_disabled": 0, "fusion_lat": 0.0, "bike_id": "16cd9b6ea48ff78625dcdc68e937bc64", "name": "16cd9b6ea48ff78625dcdc68e937bc64", "lat": 38.89564566666667}, {"rental_uris": {"ios": "https://dc.lft.to/lastmile_qr_scan", "android": "https://dc.lft.to/lastmile_qr_scan"}, "fusion_lon": 0.0, "type": "electric_scooter", "is_reserved": 0, "lon": -77.02413783333333, "is_disabled": 0, "fusion_lat": 0.0, "bike_id": "1e168e441712da74f111184ec0ed7d32", "name": "1e168e441712da74f111184ec0ed7d32", "lat": 38.892236}, {"rental_uris": {"ios": "https://dc.lft.to/lastmile_qr_scan", "android": "https://dc.lft.to/lastmile_qr_scan"}, "fusion_lon": 0.0, "type": "electric_scooter", "is_reserved": 0, "lon": -76.990705, "is_disabled": 0, "fusion_lat": 0.0, "bike_id": "e68e4be70d3f26280209f61aad402441", "name": "e68e4be70d3f26280209f61aad402441", "lat": 38.8562665}, {"rental_uris": {"ios": "https://dc.lft.to/lastmile_qr_scan", "android": "https://dc.lft.to/lastmile_qr_scan"}, "fusion_lon": 0.0, "type": "electric_scooter", "is_reserved": 0, "lon": -77.03202883333333, "is_disabled": 0, "fusion_lat": 0.0, "bike_id": "4e954530b0290c628f59c9a6f38ca9e8", "name": "4e954530b0290c628f59c9a6f38ca9e8", "lat": 38.91738766666667}, {"rental_uris": {"ios": "https://dc.lft.to/lastmile_qr_scan", "android": "https://dc.lft.to/lastmile_qr_scan"}, "fusion_lon": 0.0, "type": "electric_scooter", "is_reserved": 0, "lon": -77.0351985, "is_disabled": 0, "fusion_lat": 0.0, "bike_id": "a8fe97ef37e565fb93934b9110b2bc14", "name": "a8fe97ef37e565fb93934b9110b2bc14", "lat": 38.921556}, {"rental_uris": {"ios": "https://dc.lft.to/lastmile_qr_scan", "android": "https://dc.lft.to/lastmile_qr_scan"}, "fusion_lon": 0.0, "type": "electric_scooter", "is_reserved": 0, "lon": -77.04321333333333, "is_disabled": 0, "fusion_lat": 0.0, "bike_id": "bd8024f7933c70f4b9defb7d9c09b159", "name": "bd8024f7933c70f4b9defb7d9c09b159", "lat": 38.92193616666667}, {"rental_uris": {"ios": "https://dc.lft.to/lastmile_qr_scan", "android": "https://dc.lft.to/lastmile_qr_scan"}, "fusion_lon": 0.0, "type": "electric_scooter", "is_reserved": 0, "lon": -77.02538616666666, "is_disabled": 0, "fusion_lat": 0.0, "bike_id": "a699c1df4058fea5d9ce15044b32da8e", "name": "a699c1df4058fea5d9ce15044b32da8e", "lat": 38.9217465}, {"rental_uris": {"ios": "https://dc.lft.to/lastmile_qr_scan", "android": "https://dc.lft.to/lastmile_qr_scan"}, "fusion_lon": 0.0, "type": "electric_scooter", "is_reserved": 0, "lon": -77.04002433333333, "is_disabled": 0, "fusion_lat": 0.0, "bike_id": "a71e70cc49bd8590a4f5cde8d67e0d70", "name": "a71e70cc49bd8590a4f5cde8d67e0d70", "lat": 38.91804883333333}, {"rental_uris": {"ios": "https://dc.lft.to/lastmile_qr_scan", "android": "https://dc.lft.to/lastmile_qr_scan"}, "fusion_lon": 0.0, "type": "electric_bike", "is_reserved": 0, "lon": -76.99790566666667, "is_disabled": 0, "fusion_lat": 0.0, "bike_id": "b1750c8817b57c5ac0e214cd88c316a8", "name": "b1750c8817b57c5ac0e214cd88c316a8", "lat": 38.998056166666665}, {"rental_uris": {"ios": "https://dc.lft.to/lastmile_qr_scan", "android": "https://dc.lft.to/lastmile_qr_scan"}, "fusion_lon": 0.0, "type": "electric_scooter", "is_reserved": 0, "lon": -77.0400005, "is_disabled": 0, "fusion_lat": 0.0, "bike_id": "0dd1ab313c8d6bd27a0420be89870a83", "name": "0dd1ab313c8d6bd27a0420be89870a83", "lat": 38.9040655}, {"rental_uris": {"ios": "https://dc.lft.to/lastmile_qr_scan", "android": "https://dc.lft.to/lastmile_qr_scan"}, "fusion_lon": 0.0, "type": "electric_scooter", "is_reserved": 0, "lon": -76.993376, "is_disabled": 0, "fusion_lat": 0.0, "bike_id": "1036e83c927bdea3e476a9626e7958e4", "name": "1036e83c927bdea3e476a9626e7958e4", "lat": 38.900562666666666}, {"rental_uris": {"ios": "https://dc.lft.to/lastmile_qr_scan", "android": "https://dc.lft.to/lastmile_qr_scan"}, "fusion_lon": 0.0, "type": "electric_scooter", "is_reserved": 0, "lon": -76.9250565, "is_disabled": 0, "fusion_lat": 0.0, "bike_id": "6f070e5d02fb5b78b8a26e3106140399", "name": "6f070e5d02fb5b78b8a26e3106140399", "lat": 38.886004666666665}, {"rental_uris": {"ios": "https://dc.lft.to/lastmile_qr_scan", "android": "https://dc.lft.to/lastmile_qr_scan"}, "fusion_lon": 0.0, "type": "electric_scooter", "is_reserved": 0, "lon": -77.0451815, "is_disabled": 0, "fusion_lat": 0.0, "bike_id": "23f8d1b8ca9915bfd9fb4fb1799b0def", "name": "23f8d1b8ca9915bfd9fb4fb1799b0def", "lat": 38.914934833333334}, {"rental_uris": {"ios": "https://dc.lft.to/lastmile_qr_scan", "android": "https://dc.lft.to/lastmile_qr_scan"}, "fusion_lon": 0.0, "type": "electric_scooter", "is_reserved": 0, "lon": -77.05474766666667, "is_disabled": 0, "fusion_lat": 0.0, "bike_id": "bab74778e80b4a0b4bcdb9339cc15c8d", "name": "bab74778e80b4a0b4bcdb9339cc15c8d", "lat": 38.89391066666666}, {"rental_uris": {"ios": "https://dc.lft.to/lastmile_qr_scan", "android": "https://dc.lft.to/lastmile_qr_scan"}, "fusion_lon": 0.0, "type": "electric_scooter", "is_reserved": 0, "lon": -76.98825, "is_disabled": 0, "fusion_lat": 0.0, "bike_id": "4bf9ffa0e87fed0645ba27c051b94f9d", "name": "4bf9ffa0e87fed0645ba27c051b94f9d", "lat": 38.900436666666664}, {"rental_uris": {"ios": "https://dc.lft.to/lastmile_qr_scan", "android": "https://dc.lft.to/lastmile_qr_scan"}, "fusion_lon": 0.0, "type": "electric_scooter", "is_reserved": 0, "lon": -77.02816116666666, "is_disabled": 0, "fusion_lat": 0.0, "bike_id": "8e0c7d14fce959ee06d00ffda234ca43", "name": "8e0c7d14fce959ee06d00ffda234ca43", "lat": 38.9023385}, {"rental_uris": {"ios": "https://dc.lft.to/lastmile_qr_scan", "android": "https://dc.lft.to/lastmile_qr_scan"}, "fusion_lon": 0.0, "type": "electric_scooter", "is_reserved": 0, "lon": -77.02813866666666, "is_disabled": 0, "fusion_lat": 0.0, "bike_id": "f94a442ccb25ac1d269577555c9a61d3", "name": "f94a442ccb25ac1d269577555c9a61d3", "lat": 38.956409}, {"rental_uris": {"ios": "https://dc.lft.to/lastmile_qr_scan", "android": "https://dc.lft.to/lastmile_qr_scan"}, "fusion_lon": 0.0, "type": "electric_scooter", "is_reserved": 0, "lon": -77.03563383333334, "is_disabled": 0, "fusion_lat": 0.0, "bike_id": "2ae8b9d1d64461ab0f838b5be5103578", "name": "2ae8b9d1d64461ab0f838b5be5103578", "lat": 38.90470966666667}, {"rental_uris": {"ios": "https://dc.lft.to/lastmile_qr_scan", "android": "https://dc.lft.to/lastmile_qr_scan"}, "fusion_lon": 0.0, "type": "electric_scooter", "is_reserved": 0, "lon": -77.03172883333333, "is_disabled": 0, "fusion_lat": 0.0, "bike_id": "c44a37e7219a1e9e09e370a53eba5227", "name": "c44a37e7219a1e9e09e370a53eba5227", "lat": 38.91645716666667}, {"rental_uris": {"ios": "https://dc.lft.to/lastmile_qr_scan", "android": "https://dc.lft.to/lastmile_qr_scan"}, "fusion_lon": 0.0, "type": "electric_bike", "is_reserved": 0, "lon": -77.02987116666667, "is_disabled": 0, "fusion_lat": 0.0, "bike_id": "ee3db976f2d9ae511ae20f3a8a75c7a1", "name": "ee3db976f2d9ae511ae20f3a8a75c7a1", "lat": 38.9286995}, {"rental_uris": {"ios": "https://dc.lft.to/lastmile_qr_scan", "android": "https://dc.lft.to/lastmile_qr_scan"}, "fusion_lon": 0.0, "type": "electric_scooter", "is_reserved": 0, "lon": -77.038965, "is_disabled": 0, "fusion_lat": 0.0, "bike_id": "678aa319bcced177e3705e4d2c2d5409", "name": "678aa319bcced177e3705e4d2c2d5409", "lat": 38.906561333333336}, {"rental_uris": {"ios": "https://dc.lft.to/lastmile_qr_scan", "android": "https://dc.lft.to/lastmile_qr_scan"}, "fusion_lon": 0.0, "type": "electric_scooter", "is_reserved": 0, "lon": -77.03266583333334, "is_disabled": 0, "fusion_lat": 0.0, "bike_id": "60c96ce8e4d9014ac7bf0d92dabb9f71", "name": "60c96ce8e4d9014ac7bf0d92dabb9f71", "lat": 38.9353645}, {"rental_uris": {"ios": "https://dc.lft.to/lastmile_qr_scan", "android": "https://dc.lft.to/lastmile_qr_scan"}, "fusion_lon": 0.0, "type": "electric_scooter", "is_reserved": 0, "lon": -77.01073716666667, "is_disabled": 0, "fusion_lat": 0.0, "bike_id": "f7f486eeb6a477dbedad2a6a92594ac8", "name": "f7f486eeb6a477dbedad2a6a92594ac8", "lat": 38.911361}, {"rental_uris": {"ios": "https://dc.lft.to/lastmile_qr_scan", "android": "https://dc.lft.to/lastmile_qr_scan"}, "fusion_lon": 0.0, "type": "electric_scooter", "is_reserved": 0, "lon": -77.03646266666667, "is_disabled": 0, "fusion_lat": 0.0, "bike_id": "b5ca5dfe3a2d2cb379d3e0b1302a4f53", "name": "b5ca5dfe3a2d2cb379d3e0b1302a4f53", "lat": 38.9157325}, {"rental_uris": {"ios": "https://dc.lft.to/lastmile_qr_scan", "android": "https://dc.lft.to/lastmile_qr_scan"}, "fusion_lon": 0.0, "type": "electric_bike", "is_reserved": 0, "lon": -76.981992, "is_disabled": 0, "fusion_lat": 0.0, "bike_id": "ca02b99ecf600fb30be696583565f6f8", "name": "ca02b99ecf600fb30be696583565f6f8", "lat": 38.98497316666667}, {"rental_uris": {"ios": "https://dc.lft.to/lastmile_qr_scan", "android": "https://dc.lft.to/lastmile_qr_scan"}, "fusion_lon": 0.0, "type": "electric_scooter", "is_reserved": 0, "lon": -77.0172165, "is_disabled": 0, "fusion_lat": 0.0, "bike_id": "872b323eaafd30abe7892b6d045e2729", "name": "872b323eaafd30abe7892b6d045e2729", "lat": 38.92059833333333}, {"rental_uris": {"ios": "https://dc.lft.to/lastmile_qr_scan", "android": "https://dc.lft.to/lastmile_qr_scan"}, "fusion_lon": 0.0, "type": "electric_scooter", "is_reserved": 0, "lon": -77.01531, "is_disabled": 0, "fusion_lat": 0.0, "bike_id": "4c9a90edf9464904de88073854e35b13", "name": "4c9a90edf9464904de88073854e35b13", "lat": 38.88736266666667}, {"rental_uris": {"ios": "https://dc.lft.to/lastmile_qr_scan", "android": "https://dc.lft.to/lastmile_qr_scan"}, "fusion_lon": 0.0, "type": "electric_scooter", "is_reserved": 0, "lon": -77.026454, "is_disabled": 0, "fusion_lat": 0.0, "bike_id": "16a4f4f60cc9d4382c98b544fd96f719", "name": "16a4f4f60cc9d4382c98b544fd96f719", "lat": 38.881103}, {"rental_uris": {"ios": "https://dc.lft.to/lastmile_qr_scan", "android": "https://dc.lft.to/lastmile_qr_scan"}, "fusion_lon": 0.0, "type": "electric_bike", "is_reserved": 0, "lon": -77.11845883333334, "is_disabled": 0, "fusion_lat": 0.0, "bike_id": "18eb669dc9a2ef918b4a3382ae3b5b38", "name": "18eb669dc9a2ef918b4a3382ae3b5b38", "lat": 38.8772965}, {"rental_uris": {"ios": "https://dc.lft.to/lastmile_qr_scan", "android": "https://dc.lft.to/lastmile_qr_scan"}, "fusion_lon": 0.0, "type": "electric_scooter", "is_reserved": 0, "lon": -77.040993, "is_disabled": 0, "fusion_lat": 0.0, "bike_id": "bd098ea9f84f7b3cee9586dc3327315e", "name": "bd098ea9f84f7b3cee9586dc3327315e", "lat": 38.9010775}, {"rental_uris": {"ios": "https://dc.lft.to/lastmile_qr_scan", "android": "https://dc.lft.to/lastmile_qr_scan"}, "fusion_lon": 0.0, "type": "electric_scooter", "is_reserved": 0, "lon": -77.00755833333334, "is_disabled": 0, "fusion_lat": 0.0, "bike_id": "d9028e06ef22f8f8d77e81b5624aa401", "name": "d9028e06ef22f8f8d77e81b5624aa401", "lat": 38.898930666666665}, {"rental_uris": {"ios": "https://dc.lft.to/lastmile_qr_scan", "android": "https://dc.lft.to/lastmile_qr_scan"}, "fusion_lon": 0.0, "type": "electric_scooter", "is_reserved": 0, "lon": -77.012936, "is_disabled": 0, "fusion_lat": 0.0, "bike_id": "ab517dcdfbbf03b2b30c1fb4d0d8f11b", "name": "ab517dcdfbbf03b2b30c1fb4d0d8f11b", "lat": 38.896970833333334}, {"rental_uris": {"ios": "https://dc.lft.to/lastmile_qr_scan", "android": "https://dc.lft.to/lastmile_qr_scan"}, "fusion_lon": 0.0, "type": "electric_scooter", "is_reserved": 0, "lon": -77.04418966666667, "is_disabled": 0, "fusion_lat": 0.0, "bike_id": "cce5c9c3b6bdf85333e8040afda5f20f", "name": "cce5c9c3b6bdf85333e8040afda5f20f", "lat": 38.91539083333333}, {"rental_uris": {"ios": "https://dc.lft.to/lastmile_qr_scan", "android": "https://dc.lft.to/lastmile_qr_scan"}, "fusion_lon": 0.0, "type": "electric_bike", "is_reserved": 0, "lon": -77.04794333333334, "is_disabled": 0, "fusion_lat": 0.0, "bike_id": "db946764f32941c7a3256355920a7786", "name": "db946764f32941c7a3256355920a7786", "lat": 38.893732166666666}, {"rental_uris": {"ios": "https://dc.lft.to/lastmile_qr_scan", "android": "https://dc.lft.to/lastmile_qr_scan"}, "fusion_lon": 0.0, "type": "electric_scooter", "is_reserved": 0, "lon": -77.02035816666667, "is_disabled": 0, "fusion_lat": 0.0, "bike_id": "71ace2d951325d3caab6e5418ab3deb6", "name": "71ace2d951325d3caab6e5418ab3deb6", "lat": 38.924589833333336}, {"rental_uris": {"ios": "https://dc.lft.to/lastmile_qr_scan", "android": "https://dc.lft.to/lastmile_qr_scan"}, "fusion_lon": 0.0, "type": "electric_scooter", "is_reserved": 0, "lon": -77.0481975, "is_disabled": 0, "fusion_lat": 0.0, "bike_id": "928d620789a639f07a0c7dbe4c4d95de", "name": "928d620789a639f07a0c7dbe4c4d95de", "lat": 38.90193983333333}, {"rental_uris": {"ios": "https://dc.lft.to/lastmile_qr_scan", "android": "https://dc.lft.to/lastmile_qr_scan"}, "fusion_lon": 0.0, "type": "electric_scooter", "is_reserved": 0, "lon": -77.021331, "is_disabled": 0, "fusion_lat": 0.0, "bike_id": "1f193b0e37290b071c6ab38521ac2b78", "name": "1f193b0e37290b071c6ab38521ac2b78", "lat": 38.92365083333333}, {"rental_uris": {"ios": "https://dc.lft.to/lastmile_qr_scan", "android": "https://dc.lft.to/lastmile_qr_scan"}, "fusion_lon": 0.0, "type": "electric_scooter", "is_reserved": 0, "lon": -76.99608933333333, "is_disabled": 0, "fusion_lat": 0.0, "bike_id": "7421d77ba14f4c6647583cb89beb41ac", "name": "7421d77ba14f4c6647583cb89beb41ac", "lat": 38.88717916666667}, {"rental_uris": {"ios": "https://dc.lft.to/lastmile_qr_scan", "android": "https://dc.lft.to/lastmile_qr_scan"}, "fusion_lon": 0.0, "type": "electric_scooter", "is_reserved": 0, "lon": -76.94465183333334, "is_disabled": 0, "fusion_lat": 0.0, "bike_id": "b1975015d318489e5ac00fa75d99bb30", "name": "b1975015d318489e5ac00fa75d99bb30", "lat": 38.890246}, {"rental_uris": {"ios": "https://dc.lft.to/lastmile_qr_scan", "android": "https://dc.lft.to/lastmile_qr_scan"}, "fusion_lon": 0.0, "type": "electric_scooter", "is_reserved": 0, "lon": -77.042742, "is_disabled": 0, "fusion_lat": 0.0, "bike_id": "f32fee0ed6057f552813e5a056b9a52e", "name": "f32fee0ed6057f552813e5a056b9a52e", "lat": 38.91017266666667}, {"rental_uris": {"ios": "https://dc.lft.to/lastmile_qr_scan", "android": "https://dc.lft.to/lastmile_qr_scan"}, "fusion_lon": 0.0, "type": "electric_scooter", "is_reserved": 0, "lon": -77.00434883333334, "is_disabled": 0, "fusion_lat": 0.0, "bike_id": "7e7d5faa7fec9beaecb019d32ac60a56", "name": "7e7d5faa7fec9beaecb019d32ac60a56", "lat": 38.87646133333333}, {"rental_uris": {"ios": "https://dc.lft.to/lastmile_qr_scan", "android": "https://dc.lft.to/lastmile_qr_scan"}, "fusion_lon": 0.0, "type": "electric_scooter", "is_reserved": 0, "lon": -77.01875183333334, "is_disabled": 0, "fusion_lat": 0.0, "bike_id": "1f138da759795cfd910c85c62069e808", "name": "1f138da759795cfd910c85c62069e808", "lat": 38.93196533333333}, {"rental_uris": {"ios": "https://dc.lft.to/lastmile_qr_scan", "android": "https://dc.lft.to/lastmile_qr_scan"}, "fusion_lon": 0.0, "type": "electric_scooter", "is_reserved": 0, "lon": -77.02629033333334, "is_disabled": 0, "fusion_lat": 0.0, "bike_id": "144a4a40518636c8222a265c6992ca65", "name": "144a4a40518636c8222a265c6992ca65", "lat": 38.89972}, {"rental_uris": {"ios": "https://dc.lft.to/lastmile_qr_scan", "android": "https://dc.lft.to/lastmile_qr_scan"}, "fusion_lon": 0.0, "type": "electric_scooter", "is_reserved": 0, "lon": -77.01372583333334, "is_disabled": 0, "fusion_lat": 0.0, "bike_id": "3b8a9d46dc48e4dadd545f401c4d1909", "name": "3b8a9d46dc48e4dadd545f401c4d1909", "lat": 38.928658166666665}, {"rental_uris": {"ios": "https://dc.lft.to/lastmile_qr_scan", "android": "https://dc.lft.to/lastmile_qr_scan"}, "fusion_lon": 0.0, "type": "electric_scooter", "is_reserved": 0, "lon": -77.01088533333333, "is_disabled": 0, "fusion_lat": 0.0, "bike_id": "54a70c0b6699cc7ae754a4a3f5c04f6e", "name": "54a70c0b6699cc7ae754a4a3f5c04f6e", "lat": 38.8960025}, {"rental_uris": {"ios": "https://dc.lft.to/lastmile_qr_scan", "android": "https://dc.lft.to/lastmile_qr_scan"}, "fusion_lon": 0.0, "type": "electric_scooter", "is_reserved": 0, "lon": -77.04191433333334, "is_disabled": 0, "fusion_lat": 0.0, "bike_id": "485e8242d14e5d66573df75756338c1a", "name": "485e8242d14e5d66573df75756338c1a", "lat": 38.92046283333333}, {"rental_uris": {"ios": "https://dc.lft.to/lastmile_qr_scan", "android": "https://dc.lft.to/lastmile_qr_scan"}, "fusion_lon": 0.0, "type": "electric_scooter", "is_reserved": 0, "lon": -77.0201005, "is_disabled": 0, "fusion_lat": 0.0, "bike_id": "f874d934bbd9a8c51b70d4e26aa5c6c9", "name": "f874d934bbd9a8c51b70d4e26aa5c6c9", "lat": 38.92415616666667}, {"rental_uris": {"ios": "https://dc.lft.to/lastmile_qr_scan", "android": "https://dc.lft.to/lastmile_qr_scan"}, "fusion_lon": 0.0, "type": "electric_scooter", "is_reserved": 0, "lon": -76.97137766666667, "is_disabled": 0, "fusion_lat": 0.0, "bike_id": "f3249d6aedb79c483912080341f3e423", "name": "f3249d6aedb79c483912080341f3e423", "lat": 38.91349366666667}, {"rental_uris": {"ios": "https://dc.lft.to/lastmile_qr_scan", "android": "https://dc.lft.to/lastmile_qr_scan"}, "fusion_lon": 0.0, "type": "electric_scooter", "is_reserved": 0, "lon": -77.03864883333334, "is_disabled": 0, "fusion_lat": 0.0, "bike_id": "9721cd509a2683b85edc6131c370d1c5", "name": "9721cd509a2683b85edc6131c370d1c5", "lat": 38.9125475}, {"rental_uris": {"ios": "https://dc.lft.to/lastmile_qr_scan", "android": "https://dc.lft.to/lastmile_qr_scan"}, "fusion_lon": 0.0, "type": "electric_bike", "is_reserved": 0, "lon": -76.92334483333333, "is_disabled": 0, "fusion_lat": 0.0, "bike_id": "5733a286327b1174a80ff4a132c35941", "name": "5733a286327b1174a80ff4a132c35941", "lat": 38.9102765}, {"rental_uris": {"ios": "https://dc.lft.to/lastmile_qr_scan", "android": "https://dc.lft.to/lastmile_qr_scan"}, "fusion_lon": 0.0, "type": "electric_scooter", "is_reserved": 0, "lon": -77.04342566666666, "is_disabled": 0, "fusion_lat": 0.0, "bike_id": "29176f1f55c7ca5c53c7eef13f10b879", "name": "29176f1f55c7ca5c53c7eef13f10b879", "lat": 38.9215235}, {"rental_uris": {"ios": "https://dc.lft.to/lastmile_qr_scan", "android": "https://dc.lft.to/lastmile_qr_scan"}, "fusion_lon": 0.0, "type": "electric_scooter", "is_reserved": 0, "lon": -77.001286, "is_disabled": 0, "fusion_lat": 0.0, "bike_id": "aa5f71996c0bc5a44e08080909bd6692", "name": "aa5f71996c0bc5a44e08080909bd6692", "lat": 38.877941666666665}, {"rental_uris": {"ios": "https://dc.lft.to/lastmile_qr_scan", "android": "https://dc.lft.to/lastmile_qr_scan"}, "fusion_lon": 0.0, "type": "electric_scooter", "is_reserved": 0, "lon": -77.04641333333333, "is_disabled": 0, "fusion_lat": 0.0, "bike_id": "f6dd4795d7163be5119510eaa421e31b", "name": "f6dd4795d7163be5119510eaa421e31b", "lat": 38.923165}, {"rental_uris": {"ios": "https://dc.lft.to/lastmile_qr_scan", "android": "https://dc.lft.to/lastmile_qr_scan"}, "fusion_lon": 0.0, "type": "electric_scooter", "is_reserved": 0, "lon": -77.0454365, "is_disabled": 0, "fusion_lat": 0.0, "bike_id": "e9a9d4b553b77a3ed966de3e02458815", "name": "e9a9d4b553b77a3ed966de3e02458815", "lat": 38.934073}, {"rental_uris": {"ios": "https://dc.lft.to/lastmile_qr_scan", "android": "https://dc.lft.to/lastmile_qr_scan"}, "fusion_lon": 0.0, "type": "electric_scooter", "is_reserved": 0, "lon": -77.03233483333334, "is_disabled": 0, "fusion_lat": 0.0, "bike_id": "f17e2876ca736b6d3d130fc33ead01df", "name": "f17e2876ca736b6d3d130fc33ead01df", "lat": 38.927478666666666}, {"rental_uris": {"ios": "https://dc.lft.to/lastmile_qr_scan", "android": "https://dc.lft.to/lastmile_qr_scan"}, "fusion_lon": 0.0, "type": "electric_scooter", "is_reserved": 0, "lon": -77.0270535, "is_disabled": 0, "fusion_lat": 0.0, "bike_id": "501b0d5a345ba22c08cb73e955bcfd6b", "name": "501b0d5a345ba22c08cb73e955bcfd6b", "lat": 38.89747583333333}, {"rental_uris": {"ios": "https://dc.lft.to/lastmile_qr_scan", "android": "https://dc.lft.to/lastmile_qr_scan"}, "fusion_lon": 0.0, "type": "electric_scooter", "is_reserved": 0, "lon": -77.03287966666667, "is_disabled": 0, "fusion_lat": 0.0, "bike_id": "a350fba7c9146017733be54cf8b7aca8", "name": "a350fba7c9146017733be54cf8b7aca8", "lat": 38.9245315}, {"rental_uris": {"ios": "https://dc.lft.to/lastmile_qr_scan", "android": "https://dc.lft.to/lastmile_qr_scan"}, "fusion_lon": 0.0, "type": "electric_scooter", "is_reserved": 0, "lon": -77.046604, "is_disabled": 0, "fusion_lat": 0.0, "bike_id": "e87d18beb6a6367a010a12bc4546132e", "name": "e87d18beb6a6367a010a12bc4546132e", "lat": 38.892243666666666}, {"rental_uris": {"ios": "https://dc.lft.to/lastmile_qr_scan", "android": "https://dc.lft.to/lastmile_qr_scan"}, "fusion_lon": 0.0, "type": "electric_scooter", "is_reserved": 0, "lon": -77.04685933333333, "is_disabled": 0, "fusion_lat": 0.0, "bike_id": "b8e2ddace9948a12901b50951d4087d5", "name": "b8e2ddace9948a12901b50951d4087d5", "lat": 38.896083833333336}, {"rental_uris": {"ios": "https://dc.lft.to/lastmile_qr_scan", "android": "https://dc.lft.to/lastmile_qr_scan"}, "fusion_lon": 0.0, "type": "electric_scooter", "is_reserved": 0, "lon": -77.03926716666666, "is_disabled": 0, "fusion_lat": 0.0, "bike_id": "c90d16bbe0562f4f554d4a6fb110de87", "name": "c90d16bbe0562f4f554d4a6fb110de87", "lat": 38.91925283333333}, {"rental_uris": {"ios": "https://dc.lft.to/lastmile_qr_scan", "android": "https://dc.lft.to/lastmile_qr_scan"}, "fusion_lon": 0.0, "type": "electric_scooter", "is_reserved": 0, "lon": -77.06400416666666, "is_disabled": 0, "fusion_lat": 0.0, "bike_id": "edb2bcfc200c7fa5941c2af9f4508303", "name": "edb2bcfc200c7fa5941c2af9f4508303", "lat": 38.90849883333333}, {"rental_uris": {"ios": "https://dc.lft.to/lastmile_qr_scan", "android": "https://dc.lft.to/lastmile_qr_scan"}, "fusion_lon": 0.0, "type": "electric_scooter", "is_reserved": 0, "lon": -77.0421305, "is_disabled": 0, "fusion_lat": 0.0, "bike_id": "6346e6740fec4c16276d3a8f47226eec", "name": "6346e6740fec4c16276d3a8f47226eec", "lat": 38.921076166666666}, {"rental_uris": {"ios": "https://dc.lft.to/lastmile_qr_scan", "android": "https://dc.lft.to/lastmile_qr_scan"}, "fusion_lon": 0.0, "type": "electric_bike", "is_reserved": 0, "lon": -76.9987855, "is_disabled": 0, "fusion_lat": 0.0, "bike_id": "1e101c524f13d9e4b4560ed88ad43b43", "name": "1e101c524f13d9e4b4560ed88ad43b43", "lat": 38.93222866666667}, {"rental_uris": {"ios": "https://dc.lft.to/lastmile_qr_scan", "android": "https://dc.lft.to/lastmile_qr_scan"}, "fusion_lon": 0.0, "type": "electric_bike", "is_reserved": 0, "lon": -76.97952466666666, "is_disabled": 0, "fusion_lat": 0.0, "bike_id": "b566319746cb52e9501e8879e9be7dca", "name": "b566319746cb52e9501e8879e9be7dca", "lat": 38.9203185}, {"rental_uris": {"ios": "https://dc.lft.to/lastmile_qr_scan", "android": "https://dc.lft.to/lastmile_qr_scan"}, "fusion_lon": 0.0, "type": "electric_bike", "is_reserved": 0, "lon": -77.0962655, "is_disabled": 0, "fusion_lat": 0.0, "bike_id": "37710024bda005e8e7d64a85a0ae6548", "name": "37710024bda005e8e7d64a85a0ae6548", "lat": 38.9524965}, {"rental_uris": {"ios": "https://dc.lft.to/lastmile_qr_scan", "android": "https://dc.lft.to/lastmile_qr_scan"}, "fusion_lon": 0.0, "type": "electric_scooter", "is_reserved": 0, "lon": -77.02475383333334, "is_disabled": 0, "fusion_lat": 0.0, "bike_id": "a7c187f3ace72a619c00123ca0bc2234", "name": "a7c187f3ace72a619c00123ca0bc2234", "lat": 38.9181505}, {"rental_uris": {"ios": "https://dc.lft.to/lastmile_qr_scan", "android": "https://dc.lft.to/lastmile_qr_scan"}, "fusion_lon": 0.0, "type": "electric_scooter", "is_reserved": 0, "lon": -77.05333216666666, "is_disabled": 0, "fusion_lat": 0.0, "bike_id": "73652468baaefbfe54b5b808c50635d6", "name": "73652468baaefbfe54b5b808c50635d6", "lat": 38.904583}, {"rental_uris": {"ios": "https://dc.lft.to/lastmile_qr_scan", "android": "https://dc.lft.to/lastmile_qr_scan"}, "fusion_lon": 0.0, "type": "electric_bike", "is_reserved": 0, "lon": -76.99061683333333, "is_disabled": 0, "fusion_lat": 0.0, "bike_id": "346f271eb4a988b131351b320f66dde1", "name": "346f271eb4a988b131351b320f66dde1", "lat": 38.920168}, {"rental_uris": {"ios": "https://dc.lft.to/lastmile_qr_scan", "android": "https://dc.lft.to/lastmile_qr_scan"}, "fusion_lon": 0.0, "type": "electric_scooter", "is_reserved": 0, "lon": -77.03196083333333, "is_disabled": 0, "fusion_lat": 0.0, "bike_id": "0da9a0ffcec197e2aefafede92a8293e", "name": "0da9a0ffcec197e2aefafede92a8293e", "lat": 38.91737166666667}, {"rental_uris": {"ios": "https://dc.lft.to/lastmile_qr_scan", "android": "https://dc.lft.to/lastmile_qr_scan"}, "fusion_lon": 0.0, "type": "electric_bike", "is_reserved": 0, "lon": -77.06381366666666, "is_disabled": 0, "fusion_lat": 0.0, "bike_id": "1f4be6c0119be2cf4c4744ccf34a92de", "name": "1f4be6c0119be2cf4c4744ccf34a92de", "lat": 38.84290416666666}, {"rental_uris": {"ios": "https://dc.lft.to/lastmile_qr_scan", "android": "https://dc.lft.to/lastmile_qr_scan"}, "fusion_lon": 0.0, "type": "electric_scooter", "is_reserved": 0, "lon": -77.03278583333334, "is_disabled": 0, "fusion_lat": 0.0, "bike_id": "f9734e80499431e37e02a3714270ffe8", "name": "f9734e80499431e37e02a3714270ffe8", "lat": 38.932496666666665}, {"rental_uris": {"ios": "https://dc.lft.to/lastmile_qr_scan", "android": "https://dc.lft.to/lastmile_qr_scan"}, "fusion_lon": 0.0, "type": "electric_scooter", "is_reserved": 0, "lon": -77.03785866666666, "is_disabled": 0, "fusion_lat": 0.0, "bike_id": "6b359e9045cb27e90766d2e02c81cdb6", "name": "6b359e9045cb27e90766d2e02c81cdb6", "lat": 38.930199333333334}, {"rental_uris": {"ios": "https://dc.lft.to/lastmile_qr_scan", "android": "https://dc.lft.to/lastmile_qr_scan"}, "fusion_lon": 0.0, "type": "electric_scooter", "is_reserved": 0, "lon": -77.03226133333334, "is_disabled": 0, "fusion_lat": 0.0, "bike_id": "b1bc133784ae8f9d3ba60e08de7b7f1a", "name": "b1bc133784ae8f9d3ba60e08de7b7f1a", "lat": 38.91400933333333}, {"rental_uris": {"ios": "https://dc.lft.to/lastmile_qr_scan", "android": "https://dc.lft.to/lastmile_qr_scan"}, "fusion_lon": 0.0, "type": "electric_scooter", "is_reserved": 0, "lon": -77.04177366666667, "is_disabled": 0, "fusion_lat": 0.0, "bike_id": "abac3825001b02e979acfec680858202", "name": "abac3825001b02e979acfec680858202", "lat": 38.9133435}, {"rental_uris": {"ios": "https://dc.lft.to/lastmile_qr_scan", "android": "https://dc.lft.to/lastmile_qr_scan"}, "fusion_lon": 0.0, "type": "electric_scooter", "is_reserved": 0, "lon": -77.024125, "is_disabled": 0, "fusion_lat": 0.0, "bike_id": "c3e0799afb6f0d542039e2d1bbbf9908", "name": "c3e0799afb6f0d542039e2d1bbbf9908", "lat": 38.909582}, {"rental_uris": {"ios": "https://dc.lft.to/lastmile_qr_scan", "android": "https://dc.lft.to/lastmile_qr_scan"}, "fusion_lon": 0.0, "type": "electric_scooter", "is_reserved": 0, "lon": -77.04505033333334, "is_disabled": 0, "fusion_lat": 0.0, "bike_id": "fc956c50f8979ce7c61352f13a12808e", "name": "fc956c50f8979ce7c61352f13a12808e", "lat": 38.900149166666665}, {"rental_uris": {"ios": "https://dc.lft.to/lastmile_qr_scan", "android": "https://dc.lft.to/lastmile_qr_scan"}, "fusion_lon": 0.0, "type": "electric_bike", "is_reserved": 0, "lon": -77.04638733333333, "is_disabled": 0, "fusion_lat": 0.0, "bike_id": "582048dc71be9e152acb210d06d68280", "name": "582048dc71be9e152acb210d06d68280", "lat": 38.81543766666667}, {"rental_uris": {"ios": "https://dc.lft.to/lastmile_qr_scan", "android": "https://dc.lft.to/lastmile_qr_scan"}, "fusion_lon": 0.0, "type": "electric_scooter", "is_reserved": 0, "lon": -77.04177566666667, "is_disabled": 0, "fusion_lat": 0.0, "bike_id": "07f47fa6f405b2292e4bf327be168fb5", "name": "07f47fa6f405b2292e4bf327be168fb5", "lat": 38.92551866666667}, {"rental_uris": {"ios": "https://dc.lft.to/lastmile_qr_scan", "android": "https://dc.lft.to/lastmile_qr_scan"}, "fusion_lon": 0.0, "type": "electric_scooter", "is_reserved": 0, "lon": -77.03370733333334, "is_disabled": 0, "fusion_lat": 0.0, "bike_id": "66fdaac4bbe8def1512a4d27a2878cd6", "name": "66fdaac4bbe8def1512a4d27a2878cd6", "lat": 38.922364333333334}, {"rental_uris": {"ios": "https://dc.lft.to/lastmile_qr_scan", "android": "https://dc.lft.to/lastmile_qr_scan"}, "fusion_lon": 0.0, "type": "electric_scooter", "is_reserved": 0, "lon": -77.050228, "is_disabled": 0, "fusion_lat": 0.0, "bike_id": "fbf68725267a03c5a070986ee40651f4", "name": "fbf68725267a03c5a070986ee40651f4", "lat": 38.90079716666666}, {"rental_uris": {"ios": "https://dc.lft.to/lastmile_qr_scan", "android": "https://dc.lft.to/lastmile_qr_scan"}, "fusion_lon": 0.0, "type": "electric_scooter", "is_reserved": 0, "lon": -76.97860766666666, "is_disabled": 0, "fusion_lat": 0.0, "bike_id": "43e121f4ecbc4ccad00de541d72bb65d", "name": "43e121f4ecbc4ccad00de541d72bb65d", "lat": 38.8972735}, {"rental_uris": {"ios": "https://dc.lft.to/lastmile_qr_scan", "android": "https://dc.lft.to/lastmile_qr_scan"}, "fusion_lon": 0.0, "type": "electric_scooter", "is_reserved": 0, "lon": -77.02449933333334, "is_disabled": 0, "fusion_lat": 0.0, "bike_id": "f41fcf4ea031740410a6d5cb1cf3e9c6", "name": "f41fcf4ea031740410a6d5cb1cf3e9c6", "lat": 38.918034666666664}, {"rental_uris": {"ios": "https://dc.lft.to/lastmile_qr_scan", "android": "https://dc.lft.to/lastmile_qr_scan"}, "fusion_lon": 0.0, "type": "electric_scooter", "is_reserved": 0, "lon": -77.01202616666667, "is_disabled": 0, "fusion_lat": 0.0, "bike_id": "fd1a7681c3c028b26054bc4e09d2855b", "name": "fd1a7681c3c028b26054bc4e09d2855b", "lat": 38.91549166666667}, {"rental_uris": {"ios": "https://dc.lft.to/lastmile_qr_scan", "android": "https://dc.lft.to/lastmile_qr_scan"}, "fusion_lon": 0.0, "type": "electric_bike", "is_reserved": 0, "lon": -77.12646516666666, "is_disabled": 0, "fusion_lat": 0.0, "bike_id": "7b7d115945ff7973b0a822955eb8998e", "name": "7b7d115945ff7973b0a822955eb8998e", "lat": 38.819036}, {"rental_uris": {"ios": "https://dc.lft.to/lastmile_qr_scan", "android": "https://dc.lft.to/lastmile_qr_scan"}, "fusion_lon": 0.0, "type": "electric_scooter", "is_reserved": 0, "lon": -77.0146545, "is_disabled": 0, "fusion_lat": 0.0, "bike_id": "520f2bcf67c1734582233e75fa21a5dd", "name": "520f2bcf67c1734582233e75fa21a5dd", "lat": 38.9266735}, {"rental_uris": {"ios": "https://dc.lft.to/lastmile_qr_scan", "android": "https://dc.lft.to/lastmile_qr_scan"}, "fusion_lon": 0.0, "type": "electric_scooter", "is_reserved": 0, "lon": -77.04490916666667, "is_disabled": 0, "fusion_lat": 0.0, "bike_id": "edc2cd3894ff7daf4b20b54be46f7ceb", "name": "edc2cd3894ff7daf4b20b54be46f7ceb", "lat": 38.9009365}, {"rental_uris": {"ios": "https://dc.lft.to/lastmile_qr_scan", "android": "https://dc.lft.to/lastmile_qr_scan"}, "fusion_lon": 0.0, "type": "electric_scooter", "is_reserved": 0, "lon": -77.00540016666666, "is_disabled": 0, "fusion_lat": 0.0, "bike_id": "0a6fe1ce79ee620e0ff9b896cbe9b28d", "name": "0a6fe1ce79ee620e0ff9b896cbe9b28d", "lat": 38.875442666666665}, {"rental_uris": {"ios": "https://dc.lft.to/lastmile_qr_scan", "android": "https://dc.lft.to/lastmile_qr_scan"}, "fusion_lon": 0.0, "type": "electric_scooter", "is_reserved": 0, "lon": -77.02663766666667, "is_disabled": 0, "fusion_lat": 0.0, "bike_id": "0e649cd5207bd83e46501018b1c50222", "name": "0e649cd5207bd83e46501018b1c50222", "lat": 38.9759835}, {"rental_uris": {"ios": "https://dc.lft.to/lastmile_qr_scan", "android": "https://dc.lft.to/lastmile_qr_scan"}, "fusion_lon": 0.0, "type": "electric_scooter", "is_reserved": 0, "lon": -77.03403016666667, "is_disabled": 0, "fusion_lat": 0.0, "bike_id": "8ac4405539d4f72306adadb293827866", "name": "8ac4405539d4f72306adadb293827866", "lat": 38.928687}, {"rental_uris": {"ios": "https://dc.lft.to/lastmile_qr_scan", "android": "https://dc.lft.to/lastmile_qr_scan"}, "fusion_lon": 0.0, "type": "electric_scooter", "is_reserved": 0, "lon": -77.0352155, "is_disabled": 0, "fusion_lat": 0.0, "bike_id": "1f39537d30b0ffead9cc79a2e8d692bc", "name": "1f39537d30b0ffead9cc79a2e8d692bc", "lat": 38.9215595}, {"rental_uris": {"ios": "https://dc.lft.to/lastmile_qr_scan", "android": "https://dc.lft.to/lastmile_qr_scan"}, "fusion_lon": 0.0, "type": "electric_scooter", "is_reserved": 0, "lon": -76.99628333333334, "is_disabled": 0, "fusion_lat": 0.0, "bike_id": "18edf3657603c74aa928e7cf52b31226", "name": "18edf3657603c74aa928e7cf52b31226", "lat": 38.9000125}, {"rental_uris": {"ios": "https://dc.lft.to/lastmile_qr_scan", "android": "https://dc.lft.to/lastmile_qr_scan"}, "fusion_lon": 0.0, "type": "electric_scooter", "is_reserved": 0, "lon": -77.045273, "is_disabled": 0, "fusion_lat": 0.0, "bike_id": "80a2e1a8ea666605a9d17cd24adc0ab8", "name": "80a2e1a8ea666605a9d17cd24adc0ab8", "lat": 38.90841483333333}, {"rental_uris": {"ios": "https://dc.lft.to/lastmile_qr_scan", "android": "https://dc.lft.to/lastmile_qr_scan"}, "fusion_lon": 0.0, "type": "electric_scooter", "is_reserved": 0, "lon": -77.0454455, "is_disabled": 0, "fusion_lat": 0.0, "bike_id": "54dbf59ed19a6a6772b1309b9e029fb2", "name": "54dbf59ed19a6a6772b1309b9e029fb2", "lat": 38.90749066666667}, {"rental_uris": {"ios": "https://dc.lft.to/lastmile_qr_scan", "android": "https://dc.lft.to/lastmile_qr_scan"}, "fusion_lon": 0.0, "type": "electric_scooter", "is_reserved": 0, "lon": -77.038764, "is_disabled": 0, "fusion_lat": 0.0, "bike_id": "ecedddffeff09ec0628b882c393e3035", "name": "ecedddffeff09ec0628b882c393e3035", "lat": 38.912716333333336}, {"rental_uris": {"ios": "https://dc.lft.to/lastmile_qr_scan", "android": "https://dc.lft.to/lastmile_qr_scan"}, "fusion_lon": 0.0, "type": "electric_scooter", "is_reserved": 0, "lon": -77.0057145, "is_disabled": 0, "fusion_lat": 0.0, "bike_id": "d2be86e83f0340a2d2b499a1b51cd7ff", "name": "d2be86e83f0340a2d2b499a1b51cd7ff", "lat": 38.885126666666665}, {"rental_uris": {"ios": "https://dc.lft.to/lastmile_qr_scan", "android": "https://dc.lft.to/lastmile_qr_scan"}, "fusion_lon": 0.0, "type": "electric_scooter", "is_reserved": 0, "lon": -77.021883, "is_disabled": 0, "fusion_lat": 0.0, "bike_id": "4b4f8b10b4162e517d815ff8d1413a83", "name": "4b4f8b10b4162e517d815ff8d1413a83", "lat": 38.907000833333335}, {"rental_uris": {"ios": "https://dc.lft.to/lastmile_qr_scan", "android": "https://dc.lft.to/lastmile_qr_scan"}, "fusion_lon": 0.0, "type": "electric_scooter", "is_reserved": 0, "lon": -77.01398166666667, "is_disabled": 0, "fusion_lat": 0.0, "bike_id": "fdd5e7d0c2eb1870502936865bc5bbd4", "name": "fdd5e7d0c2eb1870502936865bc5bbd4", "lat": 38.900314333333334}, {"rental_uris": {"ios": "https://dc.lft.to/lastmile_qr_scan", "android": "https://dc.lft.to/lastmile_qr_scan"}, "fusion_lon": 0.0, "type": "electric_bike", "is_reserved": 0, "lon": -77.085233, "is_disabled": 0, "fusion_lat": 0.0, "bike_id": "236982e69684cf3c5728c928c9d048c1", "name": "236982e69684cf3c5728c928c9d048c1", "lat": 38.85650366666667}, {"rental_uris": {"ios": "https://dc.lft.to/lastmile_qr_scan", "android": "https://dc.lft.to/lastmile_qr_scan"}, "fusion_lon": 0.0, "type": "electric_scooter", "is_reserved": 0, "lon": -76.99213416666667, "is_disabled": 0, "fusion_lat": 0.0, "bike_id": "7d67fa6859170e3abfef9a762f15893b", "name": "7d67fa6859170e3abfef9a762f15893b", "lat": 38.897358}, {"rental_uris": {"ios": "https://dc.lft.to/lastmile_qr_scan", "android": "https://dc.lft.to/lastmile_qr_scan"}, "fusion_lon": 0.0, "type": "electric_scooter", "is_reserved": 0, "lon": -77.041694, "is_disabled": 0, "fusion_lat": 0.0, "bike_id": "1c83fb1cde11b922a26bf28450130fc4", "name": "1c83fb1cde11b922a26bf28450130fc4", "lat": 38.919528666666665}, {"rental_uris": {"ios": "https://dc.lft.to/lastmile_qr_scan", "android": "https://dc.lft.to/lastmile_qr_scan"}, "fusion_lon": 0.0, "type": "electric_scooter", "is_reserved": 0, "lon": -77.04051083333333, "is_disabled": 0, "fusion_lat": 0.0, "bike_id": "e9ff1de0cafd9643dfc22c6304733953", "name": "e9ff1de0cafd9643dfc22c6304733953", "lat": 38.902703333333335}, {"rental_uris": {"ios": "https://dc.lft.to/lastmile_qr_scan", "android": "https://dc.lft.to/lastmile_qr_scan"}, "fusion_lon": 0.0, "type": "electric_scooter", "is_reserved": 0, "lon": -77.015068, "is_disabled": 0, "fusion_lat": 0.0, "bike_id": "0a92e33afe605305ca308d90323fc52d", "name": "0a92e33afe605305ca308d90323fc52d", "lat": 38.89963183333333}, {"rental_uris": {"ios": "https://dc.lft.to/lastmile_qr_scan", "android": "https://dc.lft.to/lastmile_qr_scan"}, "fusion_lon": 0.0, "type": "electric_scooter", "is_reserved": 0, "lon": -77.02695333333334, "is_disabled": 0, "fusion_lat": 0.0, "bike_id": "1b06c808423d018c3d68738ab36420b6", "name": "1b06c808423d018c3d68738ab36420b6", "lat": 38.897171166666666}, {"rental_uris": {"ios": "https://dc.lft.to/lastmile_qr_scan", "android": "https://dc.lft.to/lastmile_qr_scan"}, "fusion_lon": 0.0, "type": "electric_scooter", "is_reserved": 0, "lon": -77.04181416666667, "is_disabled": 0, "fusion_lat": 0.0, "bike_id": "294065193f290bb228e9d830c737703c", "name": "294065193f290bb228e9d830c737703c", "lat": 38.904708}, {"rental_uris": {"ios": "https://dc.lft.to/lastmile_qr_scan", "android": "https://dc.lft.to/lastmile_qr_scan"}, "fusion_lon": 0.0, "type": "electric_scooter", "is_reserved": 0, "lon": -77.02796816666667, "is_disabled": 0, "fusion_lat": 0.0, "bike_id": "97fae14c06a05c0e30710a2d8eaa4e39", "name": "97fae14c06a05c0e30710a2d8eaa4e39", "lat": 38.89910183333333}, {"rental_uris": {"ios": "https://dc.lft.to/lastmile_qr_scan", "android": "https://dc.lft.to/lastmile_qr_scan"}, "fusion_lon": 0.0, "type": "electric_scooter", "is_reserved": 0, "lon": -77.05131583333333, "is_disabled": 0, "fusion_lat": 0.0, "bike_id": "491e95efbeb2fa14cc146e61bb0fd38e", "name": "491e95efbeb2fa14cc146e61bb0fd38e", "lat": 38.907127333333335}, {"rental_uris": {"ios": "https://dc.lft.to/lastmile_qr_scan", "android": "https://dc.lft.to/lastmile_qr_scan"}, "fusion_lon": 0.0, "type": "electric_scooter", "is_reserved": 0, "lon": -77.025802, "is_disabled": 0, "fusion_lat": 0.0, "bike_id": "8f3e4eb74b33a6b2a2882cc854565617", "name": "8f3e4eb74b33a6b2a2882cc854565617", "lat": 38.91338416666667}, {"rental_uris": {"ios": "https://dc.lft.to/lastmile_qr_scan", "android": "https://dc.lft.to/lastmile_qr_scan"}, "fusion_lon": 0.0, "type": "electric_scooter", "is_reserved": 0, "lon": -77.01107583333334, "is_disabled": 0, "fusion_lat": 0.0, "bike_id": "377f25be4100f94c2743d67dc7b5859e", "name": "377f25be4100f94c2743d67dc7b5859e", "lat": 38.89478366666667}, {"rental_uris": {"ios": "https://dc.lft.to/lastmile_qr_scan", "android": "https://dc.lft.to/lastmile_qr_scan"}, "fusion_lon": 0.0, "type": "electric_scooter", "is_reserved": 0, "lon": -77.03328983333333, "is_disabled": 0, "fusion_lat": 0.0, "bike_id": "906c45f423dad91288d4ab7282740675", "name": "906c45f423dad91288d4ab7282740675", "lat": 38.897348}, {"rental_uris": {"ios": "https://dc.lft.to/lastmile_qr_scan", "android": "https://dc.lft.to/lastmile_qr_scan"}, "fusion_lon": 0.0, "type": "electric_scooter", "is_reserved": 0, "lon": -77.04329066666666, "is_disabled": 0, "fusion_lat": 0.0, "bike_id": "ffff542879e98893184b02723b849dd6", "name": "ffff542879e98893184b02723b849dd6", "lat": 38.924955}, {"rental_uris": {"ios": "https://dc.lft.to/lastmile_qr_scan", "android": "https://dc.lft.to/lastmile_qr_scan"}, "fusion_lon": 0.0, "type": "electric_scooter", "is_reserved": 0, "lon": -77.072488, "is_disabled": 0, "fusion_lat": 0.0, "bike_id": "f7b551d7ad7d536277125243a981661c", "name": "f7b551d7ad7d536277125243a981661c", "lat": 38.907768833333336}, {"rental_uris": {"ios": "https://dc.lft.to/lastmile_qr_scan", "android": "https://dc.lft.to/lastmile_qr_scan"}, "fusion_lon": 0.0, "type": "electric_scooter", "is_reserved": 0, "lon": -77.031883, "is_disabled": 0, "fusion_lat": 0.0, "bike_id": "62a492c6e46a7bcf20ac8f95776e48ef", "name": "62a492c6e46a7bcf20ac8f95776e48ef", "lat": 38.913304}, {"rental_uris": {"ios": "https://dc.lft.to/lastmile_qr_scan", "android": "https://dc.lft.to/lastmile_qr_scan"}, "fusion_lon": 0.0, "type": "electric_scooter", "is_reserved": 0, "lon": -77.026688, "is_disabled": 0, "fusion_lat": 0.0, "bike_id": "cd1c518cdf637f24d02add93e5693bca", "name": "cd1c518cdf637f24d02add93e5693bca", "lat": 38.92169033333333}, {"rental_uris": {"ios": "https://dc.lft.to/lastmile_qr_scan", "android": "https://dc.lft.to/lastmile_qr_scan"}, "fusion_lon": 0.0, "type": "electric_bike", "is_reserved": 0, "lon": -77.00387016666667, "is_disabled": 0, "fusion_lat": 0.0, "bike_id": "0c40fb40dd67d9341648c8c1ffc10479", "name": "0c40fb40dd67d9341648c8c1ffc10479", "lat": 38.99862016666667}, {"rental_uris": {"ios": "https://dc.lft.to/lastmile_qr_scan", "android": "https://dc.lft.to/lastmile_qr_scan"}, "fusion_lon": 0.0, "type": "electric_scooter", "is_reserved": 0, "lon": -77.02538983333334, "is_disabled": 0, "fusion_lat": 0.0, "bike_id": "165cf8ebe953fa53acad17eefdfbdc55", "name": "165cf8ebe953fa53acad17eefdfbdc55", "lat": 38.89216483333333}, {"rental_uris": {"ios": "https://dc.lft.to/lastmile_qr_scan", "android": "https://dc.lft.to/lastmile_qr_scan"}, "fusion_lon": 0.0, "type": "electric_scooter", "is_reserved": 0, "lon": -77.00788616666667, "is_disabled": 0, "fusion_lat": 0.0, "bike_id": "b7be89062f2da0dcdb90d423c126d380", "name": "b7be89062f2da0dcdb90d423c126d380", "lat": 38.915586166666664}, {"rental_uris": {"ios": "https://dc.lft.to/lastmile_qr_scan", "android": "https://dc.lft.to/lastmile_qr_scan"}, "fusion_lon": 0.0, "type": "electric_scooter", "is_reserved": 0, "lon": -76.98334083333333, "is_disabled": 0, "fusion_lat": 0.0, "bike_id": "c50075239caf132ed0f21ee052eecdbc", "name": "c50075239caf132ed0f21ee052eecdbc", "lat": 38.88704216666667}, {"rental_uris": {"ios": "https://dc.lft.to/lastmile_qr_scan", "android": "https://dc.lft.to/lastmile_qr_scan"}, "fusion_lon": 0.0, "type": "electric_scooter", "is_reserved": 0, "lon": -76.99850683333334, "is_disabled": 0, "fusion_lat": 0.0, "bike_id": "46022dcbfd7daf9198cf7961ca267b53", "name": "46022dcbfd7daf9198cf7961ca267b53", "lat": 38.89621016666667}, {"rental_uris": {"ios": "https://dc.lft.to/lastmile_qr_scan", "android": "https://dc.lft.to/lastmile_qr_scan"}, "fusion_lon": 0.0, "type": "electric_scooter", "is_reserved": 0, "lon": -77.0197, "is_disabled": 0, "fusion_lat": 0.0, "bike_id": "efa5608df5f837629ea71132a6c64d25", "name": "efa5608df5f837629ea71132a6c64d25", "lat": 38.89890233333333}, {"rental_uris": {"ios": "https://dc.lft.to/lastmile_qr_scan", "android": "https://dc.lft.to/lastmile_qr_scan"}, "fusion_lon": 0.0, "type": "electric_scooter", "is_reserved": 0, "lon": -77.01913766666667, "is_disabled": 0, "fusion_lat": 0.0, "bike_id": "daf0fbe01497ab1d39922252c7d1d467", "name": "daf0fbe01497ab1d39922252c7d1d467", "lat": 38.897254333333336}, {"rental_uris": {"ios": "https://dc.lft.to/lastmile_qr_scan", "android": "https://dc.lft.to/lastmile_qr_scan"}, "fusion_lon": 0.0, "type": "electric_scooter", "is_reserved": 0, "lon": -77.02239716666666, "is_disabled": 0, "fusion_lat": 0.0, "bike_id": "17e3d6eb7b5c6d9ade5ab441d05162a8", "name": "17e3d6eb7b5c6d9ade5ab441d05162a8", "lat": 38.92465983333334}, {"rental_uris": {"ios": "https://dc.lft.to/lastmile_qr_scan", "android": "https://dc.lft.to/lastmile_qr_scan"}, "fusion_lon": 0.0, "type": "electric_scooter", "is_reserved": 0, "lon": -77.016808, "is_disabled": 0, "fusion_lat": 0.0, "bike_id": "368a6af5dbbae25967a1ad7539e268ef", "name": "368a6af5dbbae25967a1ad7539e268ef", "lat": 38.8770955}, {"rental_uris": {"ios": "https://dc.lft.to/lastmile_qr_scan", "android": "https://dc.lft.to/lastmile_qr_scan"}, "fusion_lon": 0.0, "type": "electric_scooter", "is_reserved": 0, "lon": -77.0384585, "is_disabled": 0, "fusion_lat": 0.0, "bike_id": "4749397450888cc0f77ffa46aeb6b38c", "name": "4749397450888cc0f77ffa46aeb6b38c", "lat": 38.9264625}, {"rental_uris": {"ios": "https://dc.lft.to/lastmile_qr_scan", "android": "https://dc.lft.to/lastmile_qr_scan"}, "fusion_lon": 0.0, "type": "electric_scooter", "is_reserved": 0, "lon": -77.012659, "is_disabled": 0, "fusion_lat": 0.0, "bike_id": "a1e0c1765cdc0f830086db45c361dd2e", "name": "a1e0c1765cdc0f830086db45c361dd2e", "lat": 38.898153666666666}, {"rental_uris": {"ios": "https://dc.lft.to/lastmile_qr_scan", "android": "https://dc.lft.to/lastmile_qr_scan"}, "fusion_lon": 0.0, "type": "electric_scooter", "is_reserved": 0, "lon": -77.0287455, "is_disabled": 0, "fusion_lat": 0.0, "bike_id": "1d354b8b12c9d0e143a38c2b1b733d1b", "name": "1d354b8b12c9d0e143a38c2b1b733d1b", "lat": 38.89625216666666}, {"rental_uris": {"ios": "https://dc.lft.to/lastmile_qr_scan", "android": "https://dc.lft.to/lastmile_qr_scan"}, "fusion_lon": 0.0, "type": "electric_scooter", "is_reserved": 0, "lon": -76.99160633333334, "is_disabled": 0, "fusion_lat": 0.0, "bike_id": "d5ab44eecf29034e4c9dc5a5eb976a75", "name": "d5ab44eecf29034e4c9dc5a5eb976a75", "lat": 38.9003645}, {"rental_uris": {"ios": "https://dc.lft.to/lastmile_qr_scan", "android": "https://dc.lft.to/lastmile_qr_scan"}, "fusion_lon": 0.0, "type": "electric_scooter", "is_reserved": 0, "lon": -77.03184016666667, "is_disabled": 0, "fusion_lat": 0.0, "bike_id": "b8e7cd92aeb72fb81d1e65f2f95d7831", "name": "b8e7cd92aeb72fb81d1e65f2f95d7831", "lat": 38.9204795}, {"rental_uris": {"ios": "https://dc.lft.to/lastmile_qr_scan", "android": "https://dc.lft.to/lastmile_qr_scan"}, "fusion_lon": 0.0, "type": "electric_bike", "is_reserved": 0, "lon": -76.98601283333333, "is_disabled": 0, "fusion_lat": 0.0, "bike_id": "6a1f9c339e8daeaa86e782a88b5e1954", "name": "6a1f9c339e8daeaa86e782a88b5e1954", "lat": 38.92975283333333}, {"rental_uris": {"ios": "https://dc.lft.to/lastmile_qr_scan", "android": "https://dc.lft.to/lastmile_qr_scan"}, "fusion_lon": 0.0, "type": "electric_scooter", "is_reserved": 0, "lon": -77.06011483333333, "is_disabled": 0, "fusion_lat": 0.0, "bike_id": "f7b952426a8dad2033dcff69779ee8a0", "name": "f7b952426a8dad2033dcff69779ee8a0", "lat": 38.9034815}, {"rental_uris": {"ios": "https://dc.lft.to/lastmile_qr_scan", "android": "https://dc.lft.to/lastmile_qr_scan"}, "fusion_lon": 0.0, "type": "electric_bike", "is_reserved": 0, "lon": -77.076618, "is_disabled": 0, "fusion_lat": 0.0, "bike_id": "82b47a3226d9fbc8bc587edec766b1cf", "name": "82b47a3226d9fbc8bc587edec766b1cf", "lat": 38.80975633333333}, {"rental_uris": {"ios": "https://dc.lft.to/lastmile_qr_scan", "android": "https://dc.lft.to/lastmile_qr_scan"}, "fusion_lon": 0.0, "type": "electric_scooter", "is_reserved": 0, "lon": -77.033387, "is_disabled": 0, "fusion_lat": 0.0, "bike_id": "dbf42d74e6ff94ccba42bd8c5e263972", "name": "dbf42d74e6ff94ccba42bd8c5e263972", "lat": 38.91909966666667}, {"rental_uris": {"ios": "https://dc.lft.to/lastmile_qr_scan", "android": "https://dc.lft.to/lastmile_qr_scan"}, "fusion_lon": 0.0, "type": "electric_scooter", "is_reserved": 0, "lon": -77.0241785, "is_disabled": 0, "fusion_lat": 0.0, "bike_id": "645441f3252545edb5358e7ae1774768", "name": "645441f3252545edb5358e7ae1774768", "lat": 38.91711866666667}, {"rental_uris": {"ios": "https://dc.lft.to/lastmile_qr_scan", "android": "https://dc.lft.to/lastmile_qr_scan"}, "fusion_lon": 0.0, "type": "electric_scooter", "is_reserved": 0, "lon": -77.02135716666666, "is_disabled": 0, "fusion_lat": 0.0, "bike_id": "830361feb3aecb906ee0beea35da6c12", "name": "830361feb3aecb906ee0beea35da6c12", "lat": 38.92405883333333}, {"rental_uris": {"ios": "https://dc.lft.to/lastmile_qr_scan", "android": "https://dc.lft.to/lastmile_qr_scan"}, "fusion_lon": 0.0, "type": "electric_scooter", "is_reserved": 0, "lon": -76.9781905, "is_disabled": 0, "fusion_lat": 0.0, "bike_id": "ad4431c1ee88d0f42f561d10e8b9ee2a", "name": "ad4431c1ee88d0f42f561d10e8b9ee2a", "lat": 38.8939735}, {"rental_uris": {"ios": "https://dc.lft.to/lastmile_qr_scan", "android": "https://dc.lft.to/lastmile_qr_scan"}, "fusion_lon": 0.0, "type": "electric_scooter", "is_reserved": 0, "lon": -77.01604816666666, "is_disabled": 0, "fusion_lat": 0.0, "bike_id": "fac503fcb0cf8aef48867b99f6a3781a", "name": "fac503fcb0cf8aef48867b99f6a3781a", "lat": 38.899635833333335}, {"rental_uris": {"ios": "https://dc.lft.to/lastmile_qr_scan", "android": "https://dc.lft.to/lastmile_qr_scan"}, "fusion_lon": 0.0, "type": "electric_scooter", "is_reserved": 0, "lon": -77.09502766666667, "is_disabled": 0, "fusion_lat": 0.0, "bike_id": "add0bc8f765be29aac3948436efbf2d4", "name": "add0bc8f765be29aac3948436efbf2d4", "lat": 38.9448025}, {"rental_uris": {"ios": "https://dc.lft.to/lastmile_qr_scan", "android": "https://dc.lft.to/lastmile_qr_scan"}, "fusion_lon": 0.0, "type": "electric_scooter", "is_reserved": 0, "lon": -76.98711233333333, "is_disabled": 0, "fusion_lat": 0.0, "bike_id": "0a199fba3425edbe0315bb3dde23631d", "name": "0a199fba3425edbe0315bb3dde23631d", "lat": 38.90058116666667}, {"rental_uris": {"ios": "https://dc.lft.to/lastmile_qr_scan", "android": "https://dc.lft.to/lastmile_qr_scan"}, "fusion_lon": 0.0, "type": "electric_scooter", "is_reserved": 0, "lon": -77.02414966666667, "is_disabled": 0, "fusion_lat": 0.0, "bike_id": "3b443f64fb12fd58526df687d38b81c2", "name": "3b443f64fb12fd58526df687d38b81c2", "lat": 38.909612333333335}, {"rental_uris": {"ios": "https://dc.lft.to/lastmile_qr_scan", "android": "https://dc.lft.to/lastmile_qr_scan"}, "fusion_lon": 0.0, "type": "electric_scooter", "is_reserved": 0, "lon": -77.032102, "is_disabled": 0, "fusion_lat": 0.0, "bike_id": "19bf5d3c1cdd648545b05afe3987a727", "name": "19bf5d3c1cdd648545b05afe3987a727", "lat": 38.902652}, {"rental_uris": {"ios": "https://dc.lft.to/lastmile_qr_scan", "android": "https://dc.lft.to/lastmile_qr_scan"}, "fusion_lon": 0.0, "type": "electric_bike", "is_reserved": 0, "lon": -76.99762566666666, "is_disabled": 0, "fusion_lat": 0.0, "bike_id": "a711cf636361ddcc48ddc50e6479f691", "name": "a711cf636361ddcc48ddc50e6479f691", "lat": 38.922691666666665}, {"rental_uris": {"ios": "https://dc.lft.to/lastmile_qr_scan", "android": "https://dc.lft.to/lastmile_qr_scan"}, "fusion_lon": 0.0, "type": "electric_scooter", "is_reserved": 0, "lon": -77.04194133333333, "is_disabled": 0, "fusion_lat": 0.0, "bike_id": "ff3238904befde552b95e71146eca558", "name": "ff3238904befde552b95e71146eca558", "lat": 38.89975483333333}, {"rental_uris": {"ios": "https://dc.lft.to/lastmile_qr_scan", "android": "https://dc.lft.to/lastmile_qr_scan"}, "fusion_lon": 0.0, "type": "electric_scooter", "is_reserved": 0, "lon": -77.026952, "is_disabled": 0, "fusion_lat": 0.0, "bike_id": "3610f93822fbb8cf8c8d44bea5506200", "name": "3610f93822fbb8cf8c8d44bea5506200", "lat": 38.903537166666666}, {"rental_uris": {"ios": "https://dc.lft.to/lastmile_qr_scan", "android": "https://dc.lft.to/lastmile_qr_scan"}, "fusion_lon": 0.0, "type": "electric_scooter", "is_reserved": 0, "lon": -77.0319165, "is_disabled": 0, "fusion_lat": 0.0, "bike_id": "df7dc8602fe89ce564374e75064962a2", "name": "df7dc8602fe89ce564374e75064962a2", "lat": 38.91538233333333}, {"rental_uris": {"ios": "https://dc.lft.to/lastmile_qr_scan", "android": "https://dc.lft.to/lastmile_qr_scan"}, "fusion_lon": 0.0, "type": "electric_scooter", "is_reserved": 0, "lon": -77.01759983333334, "is_disabled": 0, "fusion_lat": 0.0, "bike_id": "9b2baf757549ab6487d25c936c1e0ec1", "name": "9b2baf757549ab6487d25c936c1e0ec1", "lat": 38.902555166666666}, {"rental_uris": {"ios": "https://dc.lft.to/lastmile_qr_scan", "android": "https://dc.lft.to/lastmile_qr_scan"}, "fusion_lon": 0.0, "type": "electric_scooter", "is_reserved": 0, "lon": -77.01680566666667, "is_disabled": 0, "fusion_lat": 0.0, "bike_id": "78423032c1fe9f662456cde5916da141", "name": "78423032c1fe9f662456cde5916da141", "lat": 38.920403666666665}, {"rental_uris": {"ios": "https://dc.lft.to/lastmile_qr_scan", "android": "https://dc.lft.to/lastmile_qr_scan"}, "fusion_lon": 0.0, "type": "electric_scooter", "is_reserved": 0, "lon": -77.034474, "is_disabled": 0, "fusion_lat": 0.0, "bike_id": "364c5049387f969750395e0ff61d280b", "name": "364c5049387f969750395e0ff61d280b", "lat": 38.92529483333333}, {"rental_uris": {"ios": "https://dc.lft.to/lastmile_qr_scan", "android": "https://dc.lft.to/lastmile_qr_scan"}, "fusion_lon": 0.0, "type": "electric_scooter", "is_reserved": 0, "lon": -77.00797566666667, "is_disabled": 0, "fusion_lat": 0.0, "bike_id": "a44745b62c54ff0621599574601f962c", "name": "a44745b62c54ff0621599574601f962c", "lat": 38.897172833333336}, {"rental_uris": {"ios": "https://dc.lft.to/lastmile_qr_scan", "android": "https://dc.lft.to/lastmile_qr_scan"}, "fusion_lon": 0.0, "type": "electric_scooter", "is_reserved": 0, "lon": -76.983372, "is_disabled": 0, "fusion_lat": 0.0, "bike_id": "12dae1d9f1cb6e212e71b6be9d9e7a04", "name": "12dae1d9f1cb6e212e71b6be9d9e7a04", "lat": 38.89543616666667}, {"rental_uris": {"ios": "https://dc.lft.to/lastmile_qr_scan", "android": "https://dc.lft.to/lastmile_qr_scan"}, "fusion_lon": 0.0, "type": "electric_bike", "is_reserved": 0, "lon": -77.10805933333333, "is_disabled": 0, "fusion_lat": 0.0, "bike_id": "480de9e368745e4282b7d6c0201b60f3", "name": "480de9e368745e4282b7d6c0201b60f3", "lat": 38.856312}, {"rental_uris": {"ios": "https://dc.lft.to/lastmile_qr_scan", "android": "https://dc.lft.to/lastmile_qr_scan"}, "fusion_lon": 0.0, "type": "electric_scooter", "is_reserved": 0, "lon": -77.03498516666667, "is_disabled": 0, "fusion_lat": 0.0, "bike_id": "46107ce23351aa65fbadae7c19ff60b3", "name": "46107ce23351aa65fbadae7c19ff60b3", "lat": 38.918628}, {"rental_uris": {"ios": "https://dc.lft.to/lastmile_qr_scan", "android": "https://dc.lft.to/lastmile_qr_scan"}, "fusion_lon": 0.0, "type": "electric_scooter", "is_reserved": 0, "lon": -77.04653866666666, "is_disabled": 0, "fusion_lat": 0.0, "bike_id": "bbb0b694e193b0f96c77ad6108b0433a", "name": "bbb0b694e193b0f96c77ad6108b0433a", "lat": 38.916409333333334}, {"rental_uris": {"ios": "https://dc.lft.to/lastmile_qr_scan", "android": "https://dc.lft.to/lastmile_qr_scan"}, "fusion_lon": 0.0, "type": "electric_scooter", "is_reserved": 0, "lon": -77.01724566666667, "is_disabled": 0, "fusion_lat": 0.0, "bike_id": "39f88a5b882eb1e85b1db0256258d2b5", "name": "39f88a5b882eb1e85b1db0256258d2b5", "lat": 38.920469833333335}, {"rental_uris": {"ios": "https://dc.lft.to/lastmile_qr_scan", "android": "https://dc.lft.to/lastmile_qr_scan"}, "fusion_lon": 0.0, "type": "electric_scooter", "is_reserved": 0, "lon": -77.0091945, "is_disabled": 0, "fusion_lat": 0.0, "bike_id": "8774addd63f578708e8cc250f48e6fa1", "name": "8774addd63f578708e8cc250f48e6fa1", "lat": 38.9147435}, {"rental_uris": {"ios": "https://dc.lft.to/lastmile_qr_scan", "android": "https://dc.lft.to/lastmile_qr_scan"}, "fusion_lon": 0.0, "type": "electric_scooter", "is_reserved": 0, "lon": -77.0481805, "is_disabled": 0, "fusion_lat": 0.0, "bike_id": "0ae7bc7586a5e6978f083c042e883df5", "name": "0ae7bc7586a5e6978f083c042e883df5", "lat": 38.91638833333333}, {"rental_uris": {"ios": "https://dc.lft.to/lastmile_qr_scan", "android": "https://dc.lft.to/lastmile_qr_scan"}, "fusion_lon": 0.0, "type": "electric_scooter", "is_reserved": 0, "lon": -77.02338266666666, "is_disabled": 0, "fusion_lat": 0.0, "bike_id": "223e4655109af9afbabcc55459566a94", "name": "223e4655109af9afbabcc55459566a94", "lat": 38.91706666666666}, {"rental_uris": {"ios": "https://dc.lft.to/lastmile_qr_scan", "android": "https://dc.lft.to/lastmile_qr_scan"}, "fusion_lon": 0.0, "type": "electric_scooter", "is_reserved": 0, "lon": -77.0250935, "is_disabled": 0, "fusion_lat": 0.0, "bike_id": "3b1002936bb020fbbae485f6936d394c", "name": "3b1002936bb020fbbae485f6936d394c", "lat": 38.8847855}, {"rental_uris": {"ios": "https://dc.lft.to/lastmile_qr_scan", "android": "https://dc.lft.to/lastmile_qr_scan"}, "fusion_lon": 0.0, "type": "electric_scooter", "is_reserved": 0, "lon": -77.002009, "is_disabled": 0, "fusion_lat": 0.0, "bike_id": "464884ed85a559262dc307dad2d2826a", "name": "464884ed85a559262dc307dad2d2826a", "lat": 38.930842}, {"rental_uris": {"ios": "https://dc.lft.to/lastmile_qr_scan", "android": "https://dc.lft.to/lastmile_qr_scan"}, "fusion_lon": 0.0, "type": "electric_scooter", "is_reserved": 0, "lon": -77.021242, "is_disabled": 0, "fusion_lat": 0.0, "bike_id": "a00910efe37e78a58611f3a21afdc8f1", "name": "a00910efe37e78a58611f3a21afdc8f1", "lat": 38.903106666666666}, {"rental_uris": {"ios": "https://dc.lft.to/lastmile_qr_scan", "android": "https://dc.lft.to/lastmile_qr_scan"}, "fusion_lon": 0.0, "type": "electric_scooter", "is_reserved": 0, "lon": -77.03302033333334, "is_disabled": 0, "fusion_lat": 0.0, "bike_id": "1c2112cdf5ea2d9cb0cb0251460dcfb7", "name": "1c2112cdf5ea2d9cb0cb0251460dcfb7", "lat": 38.90388733333333}, {"rental_uris": {"ios": "https://dc.lft.to/lastmile_qr_scan", "android": "https://dc.lft.to/lastmile_qr_scan"}, "fusion_lon": 0.0, "type": "electric_scooter", "is_reserved": 0, "lon": -77.03261833333333, "is_disabled": 0, "fusion_lat": 0.0, "bike_id": "832ee8dc81f511b3b2dae73f87d64339", "name": "832ee8dc81f511b3b2dae73f87d64339", "lat": 38.93750333333333}, {"rental_uris": {"ios": "https://dc.lft.to/lastmile_qr_scan", "android": "https://dc.lft.to/lastmile_qr_scan"}, "fusion_lon": 0.0, "type": "electric_scooter", "is_reserved": 0, "lon": -77.0205415, "is_disabled": 0, "fusion_lat": 0.0, "bike_id": "9ca874ecbe53a48619a08026503ea3a2", "name": "9ca874ecbe53a48619a08026503ea3a2", "lat": 38.92358}, {"rental_uris": {"ios": "https://dc.lft.to/lastmile_qr_scan", "android": "https://dc.lft.to/lastmile_qr_scan"}, "fusion_lon": 0.0, "type": "electric_scooter", "is_reserved": 0, "lon": -77.0268725, "is_disabled": 0, "fusion_lat": 0.0, "bike_id": "91e7bfc811e6d722c661832186226038", "name": "91e7bfc811e6d722c661832186226038", "lat": 38.900715}, {"rental_uris": {"ios": "https://dc.lft.to/lastmile_qr_scan", "android": "https://dc.lft.to/lastmile_qr_scan"}, "fusion_lon": 0.0, "type": "electric_scooter", "is_reserved": 0, "lon": -77.02362583333333, "is_disabled": 0, "fusion_lat": 0.0, "bike_id": "19030a4ec8422cc67f7f6a94bd2b1645", "name": "19030a4ec8422cc67f7f6a94bd2b1645", "lat": 38.91969566666667}, {"rental_uris": {"ios": "https://dc.lft.to/lastmile_qr_scan", "android": "https://dc.lft.to/lastmile_qr_scan"}, "fusion_lon": 0.0, "type": "electric_scooter", "is_reserved": 0, "lon": -77.02533966666667, "is_disabled": 0, "fusion_lat": 0.0, "bike_id": "fdee141b2a419a27dba172ed5a59961d", "name": "fdee141b2a419a27dba172ed5a59961d", "lat": 38.895858}, {"rental_uris": {"ios": "https://dc.lft.to/lastmile_qr_scan", "android": "https://dc.lft.to/lastmile_qr_scan"}, "fusion_lon": 0.0, "type": "electric_scooter", "is_reserved": 0, "lon": -76.9938585, "is_disabled": 0, "fusion_lat": 0.0, "bike_id": "ed0e9e3efceea7745aff89a9d911a499", "name": "ed0e9e3efceea7745aff89a9d911a499", "lat": 38.91009666666667}, {"rental_uris": {"ios": "https://dc.lft.to/lastmile_qr_scan", "android": "https://dc.lft.to/lastmile_qr_scan"}, "fusion_lon": 0.0, "type": "electric_scooter", "is_reserved": 0, "lon": -77.021807, "is_disabled": 0, "fusion_lat": 0.0, "bike_id": "1ad966ebb51316bf9cb6417c73c1aac2", "name": "1ad966ebb51316bf9cb6417c73c1aac2", "lat": 38.892302}, {"rental_uris": {"ios": "https://dc.lft.to/lastmile_qr_scan", "android": "https://dc.lft.to/lastmile_qr_scan"}, "fusion_lon": 0.0, "type": "electric_scooter", "is_reserved": 0, "lon": -77.034715, "is_disabled": 0, "fusion_lat": 0.0, "bike_id": "0c55b3b761b5e58e22e5532389257c7b", "name": "0c55b3b761b5e58e22e5532389257c7b", "lat": 38.935328166666665}, {"rental_uris": {"ios": "https://dc.lft.to/lastmile_qr_scan", "android": "https://dc.lft.to/lastmile_qr_scan"}, "fusion_lon": 0.0, "type": "electric_scooter", "is_reserved": 0, "lon": -77.04021966666667, "is_disabled": 0, "fusion_lat": 0.0, "bike_id": "633f2ec1728dddf0de45ee715da59049", "name": "633f2ec1728dddf0de45ee715da59049", "lat": 38.92163566666667}, {"rental_uris": {"ios": "https://dc.lft.to/lastmile_qr_scan", "android": "https://dc.lft.to/lastmile_qr_scan"}, "fusion_lon": 0.0, "type": "electric_scooter", "is_reserved": 0, "lon": -77.02011233333333, "is_disabled": 0, "fusion_lat": 0.0, "bike_id": "4c9d4f6bd8dddcbf85892847ceb2f84b", "name": "4c9d4f6bd8dddcbf85892847ceb2f84b", "lat": 38.92408316666667}, {"rental_uris": {"ios": "https://dc.lft.to/lastmile_qr_scan", "android": "https://dc.lft.to/lastmile_qr_scan"}, "fusion_lon": 0.0, "type": "electric_scooter", "is_reserved": 0, "lon": -77.02206883333334, "is_disabled": 0, "fusion_lat": 0.0, "bike_id": "f6a5f2754f92e6208fc6ab2b4b21199b", "name": "f6a5f2754f92e6208fc6ab2b4b21199b", "lat": 38.95749166666667}, {"rental_uris": {"ios": "https://dc.lft.to/lastmile_qr_scan", "android": "https://dc.lft.to/lastmile_qr_scan"}, "fusion_lon": 0.0, "type": "electric_scooter", "is_reserved": 0, "lon": -77.02241816666667, "is_disabled": 0, "fusion_lat": 0.0, "bike_id": "da65f93b61e53589da904549ac006713", "name": "da65f93b61e53589da904549ac006713", "lat": 38.90159883333333}, {"rental_uris": {"ios": "https://dc.lft.to/lastmile_qr_scan", "android": "https://dc.lft.to/lastmile_qr_scan"}, "fusion_lon": 0.0, "type": "electric_scooter", "is_reserved": 0, "lon": -77.0532965, "is_disabled": 0, "fusion_lat": 0.0, "bike_id": "07c144ec429a0652ee807dbc0fac21bb", "name": "07c144ec429a0652ee807dbc0fac21bb", "lat": 38.90460133333333}, {"rental_uris": {"ios": "https://dc.lft.to/lastmile_qr_scan", "android": "https://dc.lft.to/lastmile_qr_scan"}, "fusion_lon": 0.0, "type": "electric_scooter", "is_reserved": 0, "lon": -76.98050416666666, "is_disabled": 0, "fusion_lat": 0.0, "bike_id": "9fcdf5980c7c6ed1e0c40a269a7afcc8", "name": "9fcdf5980c7c6ed1e0c40a269a7afcc8", "lat": 38.885267999999996}, {"rental_uris": {"ios": "https://dc.lft.to/lastmile_qr_scan", "android": "https://dc.lft.to/lastmile_qr_scan"}, "fusion_lon": 0.0, "type": "electric_scooter", "is_reserved": 0, "lon": -76.924408, "is_disabled": 0, "fusion_lat": 0.0, "bike_id": "20856c7fdb20abedc7ea98d99f996733", "name": "20856c7fdb20abedc7ea98d99f996733", "lat": 38.88515733333333}, {"rental_uris": {"ios": "https://dc.lft.to/lastmile_qr_scan", "android": "https://dc.lft.to/lastmile_qr_scan"}, "fusion_lon": 0.0, "type": "electric_bike", "is_reserved": 0, "lon": -76.9074785, "is_disabled": 0, "fusion_lat": 0.0, "bike_id": "3a1ae62198d41782ebea9af603ff1bef", "name": "3a1ae62198d41782ebea9af603ff1bef", "lat": 38.89615233333333}, {"rental_uris": {"ios": "https://dc.lft.to/lastmile_qr_scan", "android": "https://dc.lft.to/lastmile_qr_scan"}, "fusion_lon": 0.0, "type": "electric_scooter", "is_reserved": 0, "lon": -76.97701383333333, "is_disabled": 0, "fusion_lat": 0.0, "bike_id": "4294dacf3cb51a38bbe9e2bbbc373089", "name": "4294dacf3cb51a38bbe9e2bbbc373089", "lat": 38.90251766666667}, {"rental_uris": {"ios": "https://dc.lft.to/lastmile_qr_scan", "android": "https://dc.lft.to/lastmile_qr_scan"}, "fusion_lon": 0.0, "type": "electric_scooter", "is_reserved": 0, "lon": -77.07011833333334, "is_disabled": 0, "fusion_lat": 0.0, "bike_id": "544fb8ff55ad580488949d3f00b38060", "name": "544fb8ff55ad580488949d3f00b38060", "lat": 38.90594183333333}, {"rental_uris": {"ios": "https://dc.lft.to/lastmile_qr_scan", "android": "https://dc.lft.to/lastmile_qr_scan"}, "fusion_lon": 0.0, "type": "electric_scooter", "is_reserved": 0, "lon": -77.00428166666667, "is_disabled": 0, "fusion_lat": 0.0, "bike_id": "1ad77f31eb7f75f29556eecda0e88487", "name": "1ad77f31eb7f75f29556eecda0e88487", "lat": 38.87642266666667}, {"rental_uris": {"ios": "https://dc.lft.to/lastmile_qr_scan", "android": "https://dc.lft.to/lastmile_qr_scan"}, "fusion_lon": 0.0, "type": "electric_scooter", "is_reserved": 0, "lon": -77.02729666666667, "is_disabled": 0, "fusion_lat": 0.0, "bike_id": "9336584acf30322000b6eab1696a4bf9", "name": "9336584acf30322000b6eab1696a4bf9", "lat": 38.92781466666667}, {"rental_uris": {"ios": "https://dc.lft.to/lastmile_qr_scan", "android": "https://dc.lft.to/lastmile_qr_scan"}, "fusion_lon": 0.0, "type": "electric_scooter", "is_reserved": 0, "lon": -77.0650005, "is_disabled": 0, "fusion_lat": 0.0, "bike_id": "b80a6dec309921ea34e7cdb87c613217", "name": "b80a6dec309921ea34e7cdb87c613217", "lat": 38.90527483333334}, {"rental_uris": {"ios": "https://dc.lft.to/lastmile_qr_scan", "android": "https://dc.lft.to/lastmile_qr_scan"}, "fusion_lon": 0.0, "type": "electric_scooter", "is_reserved": 0, "lon": -77.0399615, "is_disabled": 0, "fusion_lat": 0.0, "bike_id": "876ab2603ba28926bc2252ec34b42355", "name": "876ab2603ba28926bc2252ec34b42355", "lat": 38.917578}, {"rental_uris": {"ios": "https://dc.lft.to/lastmile_qr_scan", "android": "https://dc.lft.to/lastmile_qr_scan"}, "fusion_lon": 0.0, "type": "electric_scooter", "is_reserved": 0, "lon": -77.01197533333334, "is_disabled": 0, "fusion_lat": 0.0, "bike_id": "7de6ba9e5affb46612d39cd90d90aeb8", "name": "7de6ba9e5affb46612d39cd90d90aeb8", "lat": 38.8966655}, {"rental_uris": {"ios": "https://dc.lft.to/lastmile_qr_scan", "android": "https://dc.lft.to/lastmile_qr_scan"}, "fusion_lon": 0.0, "type": "electric_scooter", "is_reserved": 0, "lon": -77.0445015, "is_disabled": 0, "fusion_lat": 0.0, "bike_id": "01a885c722e87bbeed1591d5348ba065", "name": "01a885c722e87bbeed1591d5348ba065", "lat": 38.9153935}, {"rental_uris": {"ios": "https://dc.lft.to/lastmile_qr_scan", "android": "https://dc.lft.to/lastmile_qr_scan"}, "fusion_lon": 0.0, "type": "electric_scooter", "is_reserved": 0, "lon": -77.04041666666667, "is_disabled": 0, "fusion_lat": 0.0, "bike_id": "e6921fedbe330786fa3177d8ec212b5f", "name": "e6921fedbe330786fa3177d8ec212b5f", "lat": 38.9242665}, {"rental_uris": {"ios": "https://dc.lft.to/lastmile_qr_scan", "android": "https://dc.lft.to/lastmile_qr_scan"}, "fusion_lon": 0.0, "type": "electric_scooter", "is_reserved": 0, "lon": -77.03261933333333, "is_disabled": 0, "fusion_lat": 0.0, "bike_id": "ae18665d7f7a8516c614a58a4fc7b8e2", "name": "ae18665d7f7a8516c614a58a4fc7b8e2", "lat": 38.914042}, {"rental_uris": {"ios": "https://dc.lft.to/lastmile_qr_scan", "android": "https://dc.lft.to/lastmile_qr_scan"}, "fusion_lon": 0.0, "type": "electric_scooter", "is_reserved": 0, "lon": -77.02128916666666, "is_disabled": 0, "fusion_lat": 0.0, "bike_id": "1864a95901555a145b780b326659ea91", "name": "1864a95901555a145b780b326659ea91", "lat": 38.921135}, {"rental_uris": {"ios": "https://dc.lft.to/lastmile_qr_scan", "android": "https://dc.lft.to/lastmile_qr_scan"}, "fusion_lon": 0.0, "type": "electric_scooter", "is_reserved": 0, "lon": -77.00378216666667, "is_disabled": 0, "fusion_lat": 0.0, "bike_id": "bcebc928a7ab917865351a509a9cd3f5", "name": "bcebc928a7ab917865351a509a9cd3f5", "lat": 38.907693333333334}, {"rental_uris": {"ios": "https://dc.lft.to/lastmile_qr_scan", "android": "https://dc.lft.to/lastmile_qr_scan"}, "fusion_lon": 0.0, "type": "electric_scooter", "is_reserved": 0, "lon": -77.03247, "is_disabled": 0, "fusion_lat": 0.0, "bike_id": "e829b7899b5ad389237936b588346e78", "name": "e829b7899b5ad389237936b588346e78", "lat": 38.92859816666667}, {"rental_uris": {"ios": "https://dc.lft.to/lastmile_qr_scan", "android": "https://dc.lft.to/lastmile_qr_scan"}, "fusion_lon": 0.0, "type": "electric_scooter", "is_reserved": 0, "lon": -77.016048, "is_disabled": 0, "fusion_lat": 0.0, "bike_id": "b3328b2aaf3860b8e76ca0b9d5feb712", "name": "b3328b2aaf3860b8e76ca0b9d5feb712", "lat": 38.90585016666667}, {"rental_uris": {"ios": "https://dc.lft.to/lastmile_qr_scan", "android": "https://dc.lft.to/lastmile_qr_scan"}, "fusion_lon": 0.0, "type": "electric_scooter", "is_reserved": 0, "lon": -77.00146116666667, "is_disabled": 0, "fusion_lat": 0.0, "bike_id": "02cf0cfaa92e3e986cbc90a86e649766", "name": "02cf0cfaa92e3e986cbc90a86e649766", "lat": 38.900175}, {"rental_uris": {"ios": "https://dc.lft.to/lastmile_qr_scan", "android": "https://dc.lft.to/lastmile_qr_scan"}, "fusion_lon": 0.0, "type": "electric_scooter", "is_reserved": 0, "lon": -77.0391135, "is_disabled": 0, "fusion_lat": 0.0, "bike_id": "a151324c64d386e8f1a65937e908d3b4", "name": "a151324c64d386e8f1a65937e908d3b4", "lat": 38.902441}, {"rental_uris": {"ios": "https://dc.lft.to/lastmile_qr_scan", "android": "https://dc.lft.to/lastmile_qr_scan"}, "fusion_lon": 0.0, "type": "electric_scooter", "is_reserved": 0, "lon": -77.07468183333333, "is_disabled": 0, "fusion_lat": 0.0, "bike_id": "f6b003112ccebb589d7e448c5c35d61a", "name": "f6b003112ccebb589d7e448c5c35d61a", "lat": 38.906379666666666}, {"rental_uris": {"ios": "https://dc.lft.to/lastmile_qr_scan", "android": "https://dc.lft.to/lastmile_qr_scan"}, "fusion_lon": 0.0, "type": "electric_scooter", "is_reserved": 0, "lon": -77.040384, "is_disabled": 0, "fusion_lat": 0.0, "bike_id": "5cd32d7f562105079d8a034425057be4", "name": "5cd32d7f562105079d8a034425057be4", "lat": 38.903809333333335}, {"rental_uris": {"ios": "https://dc.lft.to/lastmile_qr_scan", "android": "https://dc.lft.to/lastmile_qr_scan"}, "fusion_lon": 0.0, "type": "electric_scooter", "is_reserved": 0, "lon": -77.01576433333334, "is_disabled": 0, "fusion_lat": 0.0, "bike_id": "ce01b10c68b34bf7eed7b7a778254fb1", "name": "ce01b10c68b34bf7eed7b7a778254fb1", "lat": 38.874658833333335}, {"rental_uris": {"ios": "https://dc.lft.to/lastmile_qr_scan", "android": "https://dc.lft.to/lastmile_qr_scan"}, "fusion_lon": 0.0, "type": "electric_scooter", "is_reserved": 0, "lon": -77.02691816666666, "is_disabled": 0, "fusion_lat": 0.0, "bike_id": "79c0e5cb8c3dc6bb05eadfa8ca3649b1", "name": "79c0e5cb8c3dc6bb05eadfa8ca3649b1", "lat": 38.902350166666665}, {"rental_uris": {"ios": "https://dc.lft.to/lastmile_qr_scan", "android": "https://dc.lft.to/lastmile_qr_scan"}, "fusion_lon": 0.0, "type": "electric_scooter", "is_reserved": 0, "lon": -77.01760816666666, "is_disabled": 0, "fusion_lat": 0.0, "bike_id": "4755301a05d6de964236b96baa92e6f3", "name": "4755301a05d6de964236b96baa92e6f3", "lat": 38.88598066666667}, {"rental_uris": {"ios": "https://dc.lft.to/lastmile_qr_scan", "android": "https://dc.lft.to/lastmile_qr_scan"}, "fusion_lon": 0.0, "type": "electric_scooter", "is_reserved": 0, "lon": -77.03648, "is_disabled": 0, "fusion_lat": 0.0, "bike_id": "d741f73151be73d4568669470f18a6bf", "name": "d741f73151be73d4568669470f18a6bf", "lat": 38.92937833333333}, {"rental_uris": {"ios": "https://dc.lft.to/lastmile_qr_scan", "android": "https://dc.lft.to/lastmile_qr_scan"}, "fusion_lon": 0.0, "type": "electric_scooter", "is_reserved": 0, "lon": -77.03821616666667, "is_disabled": 0, "fusion_lat": 0.0, "bike_id": "46536b32471267e8f057d1eb1118de92", "name": "46536b32471267e8f057d1eb1118de92", "lat": 38.90378883333333}, {"rental_uris": {"ios": "https://dc.lft.to/lastmile_qr_scan", "android": "https://dc.lft.to/lastmile_qr_scan"}, "fusion_lon": 0.0, "type": "electric_scooter", "is_reserved": 0, "lon": -77.052267, "is_disabled": 0, "fusion_lat": 0.0, "bike_id": "b8e2a0abede9da5ec8056d8a8e5fbbcf", "name": "b8e2a0abede9da5ec8056d8a8e5fbbcf", "lat": 38.92462416666667}, {"rental_uris": {"ios": "https://dc.lft.to/lastmile_qr_scan", "android": "https://dc.lft.to/lastmile_qr_scan"}, "fusion_lon": 0.0, "type": "electric_scooter", "is_reserved": 0, "lon": -77.03326, "is_disabled": 0, "fusion_lat": 0.0, "bike_id": "b65bfae49c8c377b30691962ec346d35", "name": "b65bfae49c8c377b30691962ec346d35", "lat": 38.901088666666666}, {"rental_uris": {"ios": "https://dc.lft.to/lastmile_qr_scan", "android": "https://dc.lft.to/lastmile_qr_scan"}, "fusion_lon": 0.0, "type": "electric_scooter", "is_reserved": 0, "lon": -77.048017, "is_disabled": 0, "fusion_lat": 0.0, "bike_id": "c5b791dae368f4de66fe1a3361512ec2", "name": "c5b791dae368f4de66fe1a3361512ec2", "lat": 38.892210166666665}, {"rental_uris": {"ios": "https://dc.lft.to/lastmile_qr_scan", "android": "https://dc.lft.to/lastmile_qr_scan"}, "fusion_lon": 0.0, "type": "electric_scooter", "is_reserved": 0, "lon": -77.06896783333333, "is_disabled": 0, "fusion_lat": 0.0, "bike_id": "81ba93368e44ff1a4fff458458f1f013", "name": "81ba93368e44ff1a4fff458458f1f013", "lat": 38.907592333333334}, {"rental_uris": {"ios": "https://dc.lft.to/lastmile_qr_scan", "android": "https://dc.lft.to/lastmile_qr_scan"}, "fusion_lon": 0.0, "type": "electric_bike", "is_reserved": 0, "lon": -76.9910645, "is_disabled": 0, "fusion_lat": 0.0, "bike_id": "224ab4ce76f1ef61533bbb54e5588b21", "name": "224ab4ce76f1ef61533bbb54e5588b21", "lat": 38.8048195}, {"rental_uris": {"ios": "https://dc.lft.to/lastmile_qr_scan", "android": "https://dc.lft.to/lastmile_qr_scan"}, "fusion_lon": 0.0, "type": "electric_bike", "is_reserved": 0, "lon": -76.98723166666667, "is_disabled": 0, "fusion_lat": 0.0, "bike_id": "ae81fa4b6393f70405d881eb05ee4e07", "name": "ae81fa4b6393f70405d881eb05ee4e07", "lat": 38.8633645}, {"rental_uris": {"ios": "https://dc.lft.to/lastmile_qr_scan", "android": "https://dc.lft.to/lastmile_qr_scan"}, "fusion_lon": 0.0, "type": "electric_bike", "is_reserved": 0, "lon": -76.9756315, "is_disabled": 0, "fusion_lat": 0.0, "bike_id": "87dd0e477a207d737be69ffc71ab44f0", "name": "87dd0e477a207d737be69ffc71ab44f0", "lat": 38.872649}, {"rental_uris": {"ios": "https://dc.lft.to/lastmile_qr_scan", "android": "https://dc.lft.to/lastmile_qr_scan"}, "fusion_lon": 0.0, "type": "electric_scooter", "is_reserved": 0, "lon": -77.021553, "is_disabled": 0, "fusion_lat": 0.0, "bike_id": "76ceeb35c21d79043860ad8ffa323982", "name": "76ceeb35c21d79043860ad8ffa323982", "lat": 38.9246095}, {"rental_uris": {"ios": "https://dc.lft.to/lastmile_qr_scan", "android": "https://dc.lft.to/lastmile_qr_scan"}, "fusion_lon": 0.0, "type": "electric_scooter", "is_reserved": 0, "lon": -77.03180366666666, "is_disabled": 0, "fusion_lat": 0.0, "bike_id": "4e924bc707ab6fecfefbcdcb3544b426", "name": "4e924bc707ab6fecfefbcdcb3544b426", "lat": 38.91767983333333}, {"rental_uris": {"ios": "https://dc.lft.to/lastmile_qr_scan", "android": "https://dc.lft.to/lastmile_qr_scan"}, "fusion_lon": 0.0, "type": "electric_scooter", "is_reserved": 0, "lon": -77.0020235, "is_disabled": 0, "fusion_lat": 0.0, "bike_id": "d6ad5c290a6485b8fbf26b5f7a44a25c", "name": "d6ad5c290a6485b8fbf26b5f7a44a25c", "lat": 38.90232616666667}, {"rental_uris": {"ios": "https://dc.lft.to/lastmile_qr_scan", "android": "https://dc.lft.to/lastmile_qr_scan"}, "fusion_lon": 0.0, "type": "electric_scooter", "is_reserved": 0, "lon": -77.03848883333333, "is_disabled": 0, "fusion_lat": 0.0, "bike_id": "302b89dfcbd268f58f253f38cebab0da", "name": "302b89dfcbd268f58f253f38cebab0da", "lat": 38.90406933333333}, {"rental_uris": {"ios": "https://dc.lft.to/lastmile_qr_scan", "android": "https://dc.lft.to/lastmile_qr_scan"}, "fusion_lon": 0.0, "type": "electric_scooter", "is_reserved": 0, "lon": -77.0160705, "is_disabled": 0, "fusion_lat": 0.0, "bike_id": "1eded88ebf4de237a1932ea49d15cac0", "name": "1eded88ebf4de237a1932ea49d15cac0", "lat": 38.8996435}, {"rental_uris": {"ios": "https://dc.lft.to/lastmile_qr_scan", "android": "https://dc.lft.to/lastmile_qr_scan"}, "fusion_lon": 0.0, "type": "electric_scooter", "is_reserved": 0, "lon": -77.0235945, "is_disabled": 0, "fusion_lat": 0.0, "bike_id": "c9d35755f7f3d7c9e5133e44522f1b31", "name": "c9d35755f7f3d7c9e5133e44522f1b31", "lat": 38.90198433333333}, {"rental_uris": {"ios": "https://dc.lft.to/lastmile_qr_scan", "android": "https://dc.lft.to/lastmile_qr_scan"}, "fusion_lon": 0.0, "type": "electric_scooter", "is_reserved": 0, "lon": -77.03427183333334, "is_disabled": 0, "fusion_lat": 0.0, "bike_id": "7285e971b814043dd4a6ce2d0ba1538e", "name": "7285e971b814043dd4a6ce2d0ba1538e", "lat": 38.91916666666667}, {"rental_uris": {"ios": "https://dc.lft.to/lastmile_qr_scan", "android": "https://dc.lft.to/lastmile_qr_scan"}, "fusion_lon": 0.0, "type": "electric_scooter", "is_reserved": 0, "lon": -77.036337, "is_disabled": 0, "fusion_lat": 0.0, "bike_id": "b4056a70511f5a23af247cd4e0fd4415", "name": "b4056a70511f5a23af247cd4e0fd4415", "lat": 38.93481466666667}, {"rental_uris": {"ios": "https://dc.lft.to/lastmile_qr_scan", "android": "https://dc.lft.to/lastmile_qr_scan"}, "fusion_lon": 0.0, "type": "electric_bike", "is_reserved": 0, "lon": -77.096124, "is_disabled": 0, "fusion_lat": 0.0, "bike_id": "0d6b0e4ddcdc47cb815377e2b5487dbe", "name": "0d6b0e4ddcdc47cb815377e2b5487dbe", "lat": 38.974407166666666}, {"rental_uris": {"ios": "https://dc.lft.to/lastmile_qr_scan", "android": "https://dc.lft.to/lastmile_qr_scan"}, "fusion_lon": 0.0, "type": "electric_scooter", "is_reserved": 0, "lon": -76.98608366666667, "is_disabled": 0, "fusion_lat": 0.0, "bike_id": "bd52bad7cde11e2a1149e297768bcb5a", "name": "bd52bad7cde11e2a1149e297768bcb5a", "lat": 38.854585666666665}, {"rental_uris": {"ios": "https://dc.lft.to/lastmile_qr_scan", "android": "https://dc.lft.to/lastmile_qr_scan"}, "fusion_lon": 0.0, "type": "electric_scooter", "is_reserved": 0, "lon": -76.98643683333333, "is_disabled": 0, "fusion_lat": 0.0, "bike_id": "947e2de156bcdd3ae40669b6c29a240a", "name": "947e2de156bcdd3ae40669b6c29a240a", "lat": 38.9328465}, {"rental_uris": {"ios": "https://dc.lft.to/lastmile_qr_scan", "android": "https://dc.lft.to/lastmile_qr_scan"}, "fusion_lon": 0.0, "type": "electric_scooter", "is_reserved": 0, "lon": -77.00575333333333, "is_disabled": 0, "fusion_lat": 0.0, "bike_id": "7c88b83f14892cafeac8602a35092fd0", "name": "7c88b83f14892cafeac8602a35092fd0", "lat": 38.876281}, {"rental_uris": {"ios": "https://dc.lft.to/lastmile_qr_scan", "android": "https://dc.lft.to/lastmile_qr_scan"}, "fusion_lon": 0.0, "type": "electric_scooter", "is_reserved": 0, "lon": -77.0075695, "is_disabled": 0, "fusion_lat": 0.0, "bike_id": "21c069d93be3d058ba56bcce301f8d35", "name": "21c069d93be3d058ba56bcce301f8d35", "lat": 38.876445833333335}, {"rental_uris": {"ios": "https://dc.lft.to/lastmile_qr_scan", "android": "https://dc.lft.to/lastmile_qr_scan"}, "fusion_lon": 0.0, "type": "electric_scooter", "is_reserved": 0, "lon": -77.0354715, "is_disabled": 0, "fusion_lat": 0.0, "bike_id": "98189d83d1d0eb04ee4d725658fe08ec", "name": "98189d83d1d0eb04ee4d725658fe08ec", "lat": 38.918695166666666}, {"rental_uris": {"ios": "https://dc.lft.to/lastmile_qr_scan", "android": "https://dc.lft.to/lastmile_qr_scan"}, "fusion_lon": 0.0, "type": "electric_scooter", "is_reserved": 0, "lon": -76.9960805, "is_disabled": 0, "fusion_lat": 0.0, "bike_id": "b7cc946d324752415a02a188ae1004f5", "name": "b7cc946d324752415a02a188ae1004f5", "lat": 38.88720133333333}, {"rental_uris": {"ios": "https://dc.lft.to/lastmile_qr_scan", "android": "https://dc.lft.to/lastmile_qr_scan"}, "fusion_lon": 0.0, "type": "electric_scooter", "is_reserved": 0, "lon": -77.07431216666667, "is_disabled": 0, "fusion_lat": 0.0, "bike_id": "6404c79a8aeedb5880a15830772fe1fa", "name": "6404c79a8aeedb5880a15830772fe1fa", "lat": 38.935824}, {"rental_uris": {"ios": "https://dc.lft.to/lastmile_qr_scan", "android": "https://dc.lft.to/lastmile_qr_scan"}, "fusion_lon": 0.0, "type": "electric_scooter", "is_reserved": 0, "lon": -77.0020245, "is_disabled": 0, "fusion_lat": 0.0, "bike_id": "497ab7f7a8409b9c331cf651d9dce8af", "name": "497ab7f7a8409b9c331cf651d9dce8af", "lat": 38.9023365}, {"rental_uris": {"ios": "https://dc.lft.to/lastmile_qr_scan", "android": "https://dc.lft.to/lastmile_qr_scan"}, "fusion_lon": 0.0, "type": "electric_scooter", "is_reserved": 0, "lon": -77.04646283333334, "is_disabled": 0, "fusion_lat": 0.0, "bike_id": "0e99c5b38a77a0a576a0f668a63e2844", "name": "0e99c5b38a77a0a576a0f668a63e2844", "lat": 38.9020385}, {"rental_uris": {"ios": "https://dc.lft.to/lastmile_qr_scan", "android": "https://dc.lft.to/lastmile_qr_scan"}, "fusion_lon": 0.0, "type": "electric_scooter", "is_reserved": 0, "lon": -77.02569366666667, "is_disabled": 0, "fusion_lat": 0.0, "bike_id": "f0bce18d32932421cc21ce7dac05456e", "name": "f0bce18d32932421cc21ce7dac05456e", "lat": 38.924758}, {"rental_uris": {"ios": "https://dc.lft.to/lastmile_qr_scan", "android": "https://dc.lft.to/lastmile_qr_scan"}, "fusion_lon": 0.0, "type": "electric_scooter", "is_reserved": 0, "lon": -77.045835, "is_disabled": 0, "fusion_lat": 0.0, "bike_id": "7ea770c3907e01cb1307f920ceb9aa3d", "name": "7ea770c3907e01cb1307f920ceb9aa3d", "lat": 38.902576833333335}, {"rental_uris": {"ios": "https://dc.lft.to/lastmile_qr_scan", "android": "https://dc.lft.to/lastmile_qr_scan"}, "fusion_lon": 0.0, "type": "electric_scooter", "is_reserved": 0, "lon": -77.02599033333334, "is_disabled": 0, "fusion_lat": 0.0, "bike_id": "fdbd92a88df3e154e8fe4ebc98959399", "name": "fdbd92a88df3e154e8fe4ebc98959399", "lat": 38.9048725}, {"rental_uris": {"ios": "https://dc.lft.to/lastmile_qr_scan", "android": "https://dc.lft.to/lastmile_qr_scan"}, "fusion_lon": 0.0, "type": "electric_scooter", "is_reserved": 0, "lon": -77.04344866666666, "is_disabled": 0, "fusion_lat": 0.0, "bike_id": "fb08bd420822a27fec61b2693624eb9d", "name": "fb08bd420822a27fec61b2693624eb9d", "lat": 38.921510166666664}, {"rental_uris": {"ios": "https://dc.lft.to/lastmile_qr_scan", "android": "https://dc.lft.to/lastmile_qr_scan"}, "fusion_lon": 0.0, "type": "electric_scooter", "is_reserved": 0, "lon": -77.03439683333333, "is_disabled": 0, "fusion_lat": 0.0, "bike_id": "762a59b4592e37e98d1c96fd98fc0bcf", "name": "762a59b4592e37e98d1c96fd98fc0bcf", "lat": 38.91801616666667}, {"rental_uris": {"ios": "https://dc.lft.to/lastmile_qr_scan", "android": "https://dc.lft.to/lastmile_qr_scan"}, "fusion_lon": 0.0, "type": "electric_scooter", "is_reserved": 0, "lon": -77.01180783333334, "is_disabled": 0, "fusion_lat": 0.0, "bike_id": "7375e5814ff9ee3ffc70115b76e189ab", "name": "7375e5814ff9ee3ffc70115b76e189ab", "lat": 38.90029116666667}, {"rental_uris": {"ios": "https://dc.lft.to/lastmile_qr_scan", "android": "https://dc.lft.to/lastmile_qr_scan"}, "fusion_lon": 0.0, "type": "electric_scooter", "is_reserved": 0, "lon": -77.005686, "is_disabled": 0, "fusion_lat": 0.0, "bike_id": "e2c7861462cb62e1483518ba17dbc675", "name": "e2c7861462cb62e1483518ba17dbc675", "lat": 38.8850355}, {"rental_uris": {"ios": "https://dc.lft.to/lastmile_qr_scan", "android": "https://dc.lft.to/lastmile_qr_scan"}, "fusion_lon": 0.0, "type": "electric_scooter", "is_reserved": 0, "lon": -77.03863166666666, "is_disabled": 0, "fusion_lat": 0.0, "bike_id": "1c95afab164742b8a39f229b640aee29", "name": "1c95afab164742b8a39f229b640aee29", "lat": 38.91708416666667}, {"rental_uris": {"ios": "https://dc.lft.to/lastmile_qr_scan", "android": "https://dc.lft.to/lastmile_qr_scan"}, "fusion_lon": 0.0, "type": "electric_scooter", "is_reserved": 0, "lon": -77.04999566666666, "is_disabled": 0, "fusion_lat": 0.0, "bike_id": "51ce92358654f843dadd1c9c9689ef15", "name": "51ce92358654f843dadd1c9c9689ef15", "lat": 38.8939965}, {"rental_uris": {"ios": "https://dc.lft.to/lastmile_qr_scan", "android": "https://dc.lft.to/lastmile_qr_scan"}, "fusion_lon": 0.0, "type": "electric_scooter", "is_reserved": 0, "lon": -77.01466983333333, "is_disabled": 0, "fusion_lat": 0.0, "bike_id": "feb49d5b51fdc24a13c792802beacb70", "name": "feb49d5b51fdc24a13c792802beacb70", "lat": 38.92675933333334}, {"rental_uris": {"ios": "https://dc.lft.to/lastmile_qr_scan", "android": "https://dc.lft.to/lastmile_qr_scan"}, "fusion_lon": 0.0, "type": "electric_scooter", "is_reserved": 0, "lon": -77.0384705, "is_disabled": 0, "fusion_lat": 0.0, "bike_id": "727dc7872765ba15d13bef427f18e8e4", "name": "727dc7872765ba15d13bef427f18e8e4", "lat": 38.909837}, {"rental_uris": {"ios": "https://dc.lft.to/lastmile_qr_scan", "android": "https://dc.lft.to/lastmile_qr_scan"}, "fusion_lon": 0.0, "type": "electric_bike", "is_reserved": 0, "lon": -76.99001, "is_disabled": 0, "fusion_lat": 0.0, "bike_id": "dcd7c3d44f1396f220b2700e51a5a01d", "name": "dcd7c3d44f1396f220b2700e51a5a01d", "lat": 38.866254166666664},