{"data": {"bikes": [{"lat": 38.90881383333333, "is_reserved": 0, "lon": -77.07535566666667, "fusion_lon": 0.0, "fusion_lat": 0.0, "is_disabled": 0, "type": "electric_scooter", "bike_id": "2aa59448654ee7beba881b1551af64cb", "rental_uris": {"android": "https://dc.lft.to/lastmile_qr_scan", "ios": "https://dc.lft.to/lastmile_qr_scan"}, "name": "2aa59448654ee7beba881b1551af64cb"}, {"lat": 38.9141745, "is_reserved": 0, "lon": -77.03170283333333, "fusion_lon": 0.0, "fusion_lat": 0.0, "is_disabled": 0, "type": "electric_scooter", "bike_id": "018430d81932307731a00e82c63f1e73", "rental_uris": {"android": "https://dc.lft.to/lastmile_qr_scan", "ios": "https://dc.lft.to/lastmile_qr_scan"}, "name": "018430d81932307731a00e82c63f1e73"}, {"lat": 38.921239666666665, "is_reserved": 0, "lon": -77.03656716666667, "fusion_lon": 0.0, "fusion_lat": 0.0, "is_disabled": 0, "type": "electric_scooter", "bike_id": "924ca34c7b43d9ab1ac6415282e3396c", "rental_uris": {"android": "https://dc.lft.to/lastmile_qr_scan", "ios": "https://dc.lft.to/lastmile_qr_scan"}, "name": "924ca34c7b43d9ab1ac6415282e3396c"}, {"lat": 38.903914, "is_reserved": 0, "lon": -77.01644366666666, "fusion_lon": 0.0, "fusion_lat": 0.0, "is_disabled": 0, "type": "electric_scooter", "bike_id": "d423bb02f8e254407f1d07f8f2f5de3e", "rental_uris": {"android": "https://dc.lft.to/lastmile_qr_scan", "ios": "https://dc.lft.to/lastmile_qr_scan"}, "name": "d423bb02f8e254407f1d07f8f2f5de3e"}, {"lat": 38.92239983333333, "is_reserved": 0, "lon": -77.04286833333333, "fusion_lon": 0.0, "fusion_lat": 0.0, "is_disabled": 0, "type": "electric_scooter", "bike_id": "9995105aa1235a7b7c29f095b9fba10c", "rental_uris": {"android": "https://dc.lft.to/lastmile_qr_scan", "ios": "https://dc.lft.to/lastmile_qr_scan"}, "name": "9995105aa1235a7b7c29f095b9fba10c"}, {"lat": 38.89615766666667, "is_reserved": 0, "lon": -77.02936566666666, "fusion_lon": 0.0, "fusion_lat": 0.0, "is_disabled": 0, "type": "electric_scooter", "bike_id": "156b23b392d819f6b466bb2d89574de2", "rental_uris": {"android": "https://dc.lft.to/lastmile_qr_scan", "ios": "https://dc.lft.to/lastmile_qr_scan"}, "name": "156b23b392d819f6b466bb2d89574de2"}, {"lat": 38.889964166666665, "is_reserved": 0, "lon": -77.04901066666666, "fusion_lon": 0.0, "fusion_lat": 0.0, "is_disabled": 0, "type": "electric_bike", "bike_id": "a11b492ae59884cb833f88e48c4e22d5", "rental_uris": {"android": "https://dc.lft.to/lastmile_qr_scan", "ios": "https://dc.lft.to/lastmile_qr_scan"}, "name": "a11b492ae59884cb833f88e48c4e22d5"}, {"lat": 38.86506266666667, "is_reserved": 0, "lon": -76.990057, "fusion_lon": 0.0, "fusion_lat": 0.0, "is_disabled": 0, "type": "electric_scooter", "bike_id": "472ccb4ffb157f15ced1ed48c62a0d74", "rental_uris": {"android": "https://dc.lft.to/lastmile_qr_scan", "ios": "https://dc.lft.to/lastmile_qr_scan"}, "name": "472ccb4ffb157f15ced1ed48c62a0d74"}, {"lat": 38.928794833333335, "is_reserved": 0, "lon": -77.027044, "fusion_lon": 0.0, "fusion_lat": 0.0, "is_disabled": 0, "type": "electric_scooter", "bike_id": "e6a55c4a5ed0447d04598b8a55fec616", "rental_uris": {"android": "https://dc.lft.to/lastmile_qr_scan", "ios": "https://dc.lft.to/lastmile_qr_scan"}, "name": "e6a55c4a5ed0447d04598b8a55fec616"}, {"lat": 38.90539066666667, "is_reserved": 0, "lon": -77.005672, "fusion_lon": 0.0, "fusion_lat": 0.0, "is_disabled": 0, "type": "electric_scooter", "bike_id": "05da661cad28330fbcc63662d99650d8", "rental_uris": {"android": "https://dc.lft.to/lastmile_qr_scan", "ios": "https://dc.lft.to/lastmile_qr_scan"}, "name": "05da661cad28330fbcc63662d99650d8"}, {"lat": 38.9215885, "is_reserved": 0, "lon": -77.03323683333333, "fusion_lon": 0.0, "fusion_lat": 0.0, "is_disabled": 0, "type": "electric_scooter", "bike_id": "a2694918b80666f7910aac838e5838fb", "rental_uris": {"android": "https://dc.lft.to/lastmile_qr_scan", "ios": "https://dc.lft.to/lastmile_qr_scan"}, "name": "a2694918b80666f7910aac838e5838fb"}, {"lat": 38.9426305, "is_reserved": 0, "lon": -77.02842383333333, "fusion_lon": 0.0, "fusion_lat": 0.0, "is_disabled": 0, "type": "electric_scooter", "bike_id": "a986471b5c1886e6f8b45ee5b6d5647c", "rental_uris": {"android": "https://dc.lft.to/lastmile_qr_scan", "ios": "https://dc.lft.to/lastmile_qr_scan"}, "name": "a986471b5c1886e6f8b45ee5b6d5647c"}, {"lat": 38.90373233333333, "is_reserved": 0, "lon": -77.03594866666667, "fusion_lon": 0.0, "fusion_lat": 0.0, "is_disabled": 0, "type": "electric_scooter", "bike_id": "c13b6d42bc22c12149bdc3dee95b08ce", "rental_uris": {"android": "https://dc.lft.to/lastmile_qr_scan", "ios": "https://dc.lft.to/lastmile_qr_scan"}, "name": "c13b6d42bc22c12149bdc3dee95b08ce"}, {"lat": 38.887343333333334, "is_reserved": 0, "lon": -77.02847316666667, "fusion_lon": 0.0, "fusion_lat": 0.0, "is_disabled": 0, "type": "electric_scooter", "bike_id": "d1f93bcc928cc9ae9c80bf8c0fb23ec6", "rental_uris": {"android": "https://dc.lft.to/lastmile_qr_scan", "ios": "https://dc.lft.to/lastmile_qr_scan"}, "name": "d1f93bcc928cc9ae9c80bf8c0fb23ec6"}, {"lat": 38.912757666666664, "is_reserved": 0, "lon": -77.03191683333333, "fusion_lon": 0.0, "fusion_lat": 0.0, "is_disabled": 0, "type": "electric_scooter", "bike_id": "7f8fd124acdf13133413c2c02b35d5a8", "rental_uris": {"android": "https://dc.lft.to/lastmile_qr_scan", "ios": "https://dc.lft.to/lastmile_qr_scan"}, "name": "7f8fd124acdf13133413c2c02b35d5a8"}, {"lat": 38.896935166666665, "is_reserved": 0, "lon": -77.03150716666667, "fusion_lon": 0.0, "fusion_lat": 0.0, "is_disabled": 0, "type": "electric_scooter", "bike_id": "995adab425e3eae912f6bc8385a30833", "rental_uris": {"android": "https://dc.lft.to/lastmile_qr_scan", "ios": "https://dc.lft.to/lastmile_qr_scan"}, "name": "995adab425e3eae912f6bc8385a30833"}, {"lat": 38.9059265, "is_reserved": 0, "lon": -77.03980816666666, "fusion_lon": 0.0, "fusion_lat": 0.0, "is_disabled": 0, "type": "electric_scooter", "bike_id": "18fb25a9542fc56cd884e3ab15a35aaf", "rental_uris": {"android": "https://dc.lft.to/lastmile_qr_scan", "ios": "https://dc.lft.to/lastmile_qr_scan"}, "name": "18fb25a9542fc56cd884e3ab15a35aaf"}, {"lat": 38.881301666666666, "is_reserved": 0, "lon": -77.01664216666667, "fusion_lon": 0.0, "fusion_lat": 0.0, "is_disabled": 0, "type": "electric_bike", "bike_id": "e8f82e43559db08e982c941f9c38370c", "rental_uris": {"android": "https://dc.lft.to/lastmile_qr_scan", "ios": "https://dc.lft.to/lastmile_qr_scan"}, "name": "e8f82e43559db08e982c941f9c38370c"}, {"lat": 38.896701, "is_reserved": 0, "lon": -77.10434766666667, "fusion_lon": 0.0, "fusion_lat": 0.0, "is_disabled": 0, "type": "electric_bike", "bike_id": "3675b5cede51b47edd582f80a9e948e9", "rental_uris": {"android": "https://dc.lft.to/lastmile_qr_scan", "ios": "https://dc.lft.to/lastmile_qr_scan"}, "name": "3675b5cede51b47edd582f80a9e948e9"}, {"lat": 38.9001595, "is_reserved": 0, "lon": -77.00666716666667, "fusion_lon": 0.0, "fusion_lat": 0.0, "is_disabled": 0, "type": "electric_scooter", "bike_id": "8be555139f0319072912ce08a256aaa4", "rental_uris": {"android": "https://dc.lft.to/lastmile_qr_scan", "ios": "https://dc.lft.to/lastmile_qr_scan"}, "name": "8be555139f0319072912ce08a256aaa4"}, {"lat": 38.899947833333336, "is_reserved": 0, "lon": -77.0006575, "fusion_lon": 0.0, "fusion_lat": 0.0, "is_disabled": 0, "type": "electric_scooter", "bike_id": "b9195999350c444128a74bfbc23a3414", "rental_uris": {"android": "https://dc.lft.to/lastmile_qr_scan", "ios": "https://dc.lft.to/lastmile_qr_scan"}, "name": "b9195999350c444128a74bfbc23a3414"}, {"lat": 38.90638933333334, "is_reserved": 0, "lon": -77.04176266666667, "fusion_lon": 0.0, "fusion_lat": 0.0, "is_disabled": 0, "type": "electric_scooter", "bike_id": "0d657cdc496a06a0d4372719802f439b", "rental_uris": {"android": "https://dc.lft.to/lastmile_qr_scan", "ios": "https://dc.lft.to/lastmile_qr_scan"}, "name": "0d657cdc496a06a0d4372719802f439b"}, {"lat": 38.908439333333334, "is_reserved": 0, "lon": -77.0426535, "fusion_lon": 0.0, "fusion_lat": 0.0, "is_disabled": 0, "type": "electric_scooter", "bike_id": "617a77a95130406062f7f015ecca5905", "rental_uris": {"android": "https://dc.lft.to/lastmile_qr_scan", "ios": "https://dc.lft.to/lastmile_qr_scan"}, "name": "617a77a95130406062f7f015ecca5905"}, {"lat": 38.90513683333333, "is_reserved": 0, "lon": -77.069609, "fusion_lon": 0.0, "fusion_lat": 0.0, "is_disabled": 0, "type": "electric_bike", "bike_id": "ab6429c2b9b401f8648f2f219926a900", "rental_uris": {"android": "https://dc.lft.to/lastmile_qr_scan", "ios": "https://dc.lft.to/lastmile_qr_scan"}, "name": "ab6429c2b9b401f8648f2f219926a900"}, {"lat": 38.914102166666666, "is_reserved": 0, "lon": -77.02118216666666, "fusion_lon": 0.0, "fusion_lat": 0.0, "is_disabled": 0, "type": "electric_scooter", "bike_id": "617e1e2223a906e50f01a7318c824ee9", "rental_uris": {"android": "https://dc.lft.to/lastmile_qr_scan", "ios": "https://dc.lft.to/lastmile_qr_scan"}, "name": "617e1e2223a906e50f01a7318c824ee9"}, {"lat": 38.896987333333335, "is_reserved": 0, "lon": -77.02308033333334, "fusion_lon": 0.0, "fusion_lat": 0.0, "is_disabled": 0, "type": "electric_scooter", "bike_id": "486da2bb53744fb6c37f1cd9d26c434b", "rental_uris": {"android": "https://dc.lft.to/lastmile_qr_scan", "ios": "https://dc.lft.to/lastmile_qr_scan"}, "name": "486da2bb53744fb6c37f1cd9d26c434b"}, {"lat": 38.89226, "is_reserved": 0, "lon": -77.02589733333333, "fusion_lon": 0.0, "fusion_lat": 0.0, "is_disabled": 0, "type": "electric_scooter", "bike_id": "c1e0e782eaec9067027b8c6f5e9b531c", "rental_uris": {"android": "https://dc.lft.to/lastmile_qr_scan", "ios": "https://dc.lft.to/lastmile_qr_scan"}, "name": "c1e0e782eaec9067027b8c6f5e9b531c"}, {"lat": 38.88640083333333, "is_reserved": 0, "lon": -77.01371583333334, "fusion_lon": 0.0, "fusion_lat": 0.0, "is_disabled": 0, "type": "electric_scooter", "bike_id": "b3250d59c38387d552464aff466da910", "rental_uris": {"android": "https://dc.lft.to/lastmile_qr_scan", "ios": "https://dc.lft.to/lastmile_qr_scan"}, "name": "b3250d59c38387d552464aff466da910"}, {"lat": 38.91559133333333, "is_reserved": 0, "lon": -76.97368133333333, "fusion_lon": 0.0, "fusion_lat": 0.0, "is_disabled": 0, "type": "electric_scooter", "bike_id": "19eda75511e6f4789fb6424e77e6a5d5", "rental_uris": {"android": "https://dc.lft.to/lastmile_qr_scan", "ios": "https://dc.lft.to/lastmile_qr_scan"}, "name": "19eda75511e6f4789fb6424e77e6a5d5"}, {"lat": 38.90029766666667, "is_reserved": 0, "lon": -77.032418, "fusion_lon": 0.0, "fusion_lat": 0.0, "is_disabled": 0, "type": "electric_scooter", "bike_id": "a45be304c628064c4f75c2385048ad73", "rental_uris": {"android": "https://dc.lft.to/lastmile_qr_scan", "ios": "https://dc.lft.to/lastmile_qr_scan"}, "name": "a45be304c628064c4f75c2385048ad73"}, {"lat": 38.8668615, "is_reserved": 0, "lon": -76.985698, "fusion_lon": 0.0, "fusion_lat": 0.0, "is_disabled": 0, "type": "electric_scooter", "bike_id": "600660e0ff2aaea3c4de60fc67becd1f", "rental_uris": {"android": "https://dc.lft.to/lastmile_qr_scan", "ios": "https://dc.lft.to/lastmile_qr_scan"}, "name": "600660e0ff2aaea3c4de60fc67becd1f"}, {"lat": 38.8973095, "is_reserved": 0, "lon": -76.94250466666666, "fusion_lon": 0.0, "fusion_lat": 0.0, "is_disabled": 0, "type": "electric_bike", "bike_id": "eee050d3765906e8f523d480a45e11cd", "rental_uris": {"android": "https://dc.lft.to/lastmile_qr_scan", "ios": "https://dc.lft.to/lastmile_qr_scan"}, "name": "eee050d3765906e8f523d480a45e11cd"}, {"lat": 38.86627466666667, "is_reserved": 0, "lon": -76.98713516666666, "fusion_lon": 0.0, "fusion_lat": 0.0, "is_disabled": 0, "type": "electric_scooter", "bike_id": "cba99409ab4d2ccc656a8a91c6c8f8a2", "rental_uris": {"android": "https://dc.lft.to/lastmile_qr_scan", "ios": "https://dc.lft.to/lastmile_qr_scan"}, "name": "cba99409ab4d2ccc656a8a91c6c8f8a2"}, {"lat": 38.917140833333335, "is_reserved": 0, "lon": -77.0260285, "fusion_lon": 0.0, "fusion_lat": 0.0, "is_disabled": 0, "type": "electric_scooter", "bike_id": "638744459444633a9bb65f4c0ba29cbc", "rental_uris": {"android": "https://dc.lft.to/lastmile_qr_scan", "ios": "https://dc.lft.to/lastmile_qr_scan"}, "name": "638744459444633a9bb65f4c0ba29cbc"}, {"lat": 38.89342716666667, "is_reserved": 0, "lon": -76.99154633333333, "fusion_lon": 0.0, "fusion_lat": 0.0, "is_disabled": 0, "type": "electric_bike", "bike_id": "845c8b9818930cd6cd3cce49469db39c", "rental_uris": {"android": "https://dc.lft.to/lastmile_qr_scan", "ios": "https://dc.lft.to/lastmile_qr_scan"}, "name": "845c8b9818930cd6cd3cce49469db39c"}, {"lat": 38.9152775, "is_reserved": 0, "lon": -77.0551105, "fusion_lon": 0.0, "fusion_lat": 0.0, "is_disabled": 0, "type": "electric_scooter", "bike_id": "a71a955ec0de03d3378c4850c1ab1996", "rental_uris": {"android": "https://dc.lft.to/lastmile_qr_scan", "ios": "https://dc.lft.to/lastmile_qr_scan"}, "name": "a71a955ec0de03d3378c4850c1ab1996"}, {"lat": 38.896141, "is_reserved": 0, "lon": -77.027881, "fusion_lon": 0.0, "fusion_lat": 0.0, "is_disabled": 0, "type": "electric_scooter", "bike_id": "e2dcda61b8a8dfe307bf4483eafec3e1", "rental_uris": {"android": "https://dc.lft.to/lastmile_qr_scan", "ios": "https://dc.lft.to/lastmile_qr_scan"}, "name": "e2dcda61b8a8dfe307bf4483eafec3e1"}, {"lat": 38.936307666666664, "is_reserved": 0, "lon": -77.058836, "fusion_lon": 0.0, "fusion_lat": 0.0, "is_disabled": 0, "type": "electric_scooter", "bike_id": "6bb595a64bf378da40d9db49959aa97b", "rental_uris": {"android": "https://dc.lft.to/lastmile_qr_scan", "ios": "https://dc.lft.to/lastmile_qr_scan"}, "name": "6bb595a64bf378da40d9db49959aa97b"}, {"lat": 38.86509066666667, "is_reserved": 0, "lon": -76.99015916666667, "fusion_lon": 0.0, "fusion_lat": 0.0, "is_disabled": 0, "type": "electric_scooter", "bike_id": "147d034272702a04f78245970253e4d1", "rental_uris": {"android": "https://dc.lft.to/lastmile_qr_scan", "ios": "https://dc.lft.to/lastmile_qr_scan"}, "name": "147d034272702a04f78245970253e4d1"}, {"lat": 38.9008175, "is_reserved": 0, "lon": -77.049513, "fusion_lon": 0.0, "fusion_lat": 0.0, "is_disabled": 0, "type": "electric_scooter", "bike_id": "cd7614efa524687523ab8a227140cbd4", "rental_uris": {"android": "https://dc.lft.to/lastmile_qr_scan", "ios": "https://dc.lft.to/lastmile_qr_scan"}, "name": "cd7614efa524687523ab8a227140cbd4"}, {"lat": 38.92332716666667, "is_reserved": 0, "lon": -77.01898833333334, "fusion_lon": 0.0, "fusion_lat": 0.0, "is_disabled": 0, "type": "electric_scooter", "bike_id": "1586e51493d4f77f52ba9e4188eec84c", "rental_uris": {"android": "https://dc.lft.to/lastmile_qr_scan", "ios": "https://dc.lft.to/lastmile_qr_scan"}, "name": "1586e51493d4f77f52ba9e4188eec84c"}, {"lat": 38.900883666666665, "is_reserved": 0, "lon": -76.983337, "fusion_lon": 0.0, "fusion_lat": 0.0, "is_disabled": 0, "type": "electric_scooter", "bike_id": "6f001ab638e6c615274c28bf75f4b654", "rental_uris": {"android": "https://dc.lft.to/lastmile_qr_scan", "ios": "https://dc.lft.to/lastmile_qr_scan"}, "name": "6f001ab638e6c615274c28bf75f4b654"}, {"lat": 38.90235533333333, "is_reserved": 0, "lon": -77.04102883333333, "fusion_lon": 0.0, "fusion_lat": 0.0, "is_disabled": 0, "type": "electric_scooter", "bike_id": "6b02cb6cbe68a0ef2543f9f8ac2c5d33", "rental_uris": {"android": "https://dc.lft.to/lastmile_qr_scan", "ios": "https://dc.lft.to/lastmile_qr_scan"}, "name": "6b02cb6cbe68a0ef2543f9f8ac2c5d33"}, {"lat": 38.871557333333335, "is_reserved": 0, "lon": -77.01322733333333, "fusion_lon": 0.0, "fusion_lat": 0.0, "is_disabled": 0, "type": "electric_scooter", "bike_id": "66503846a6fc3679f45093fea1d4408e", "rental_uris": {"android": "https://dc.lft.to/lastmile_qr_scan", "ios": "https://dc.lft.to/lastmile_qr_scan"}, "name": "66503846a6fc3679f45093fea1d4408e"}, {"lat": 38.8090335, "is_reserved": 0, "lon": -77.08658483333333, "fusion_lon": 0.0, "fusion_lat": 0.0, "is_disabled": 0, "type": "electric_bike", "bike_id": "f57f5e48987ac555ff72ed1e1392ef3a", "rental_uris": {"android": "https://dc.lft.to/lastmile_qr_scan", "ios": "https://dc.lft.to/lastmile_qr_scan"}, "name": "f57f5e48987ac555ff72ed1e1392ef3a"}, {"lat": 38.892421166666665, "is_reserved": 0, "lon": -76.9533105, "fusion_lon": 0.0, "fusion_lat": 0.0, "is_disabled": 0, "type": "electric_scooter", "bike_id": "4b6d560620cbbc14780e44987f7c4293", "rental_uris": {"android": "https://dc.lft.to/lastmile_qr_scan", "ios": "https://dc.lft.to/lastmile_qr_scan"}, "name": "4b6d560620cbbc14780e44987f7c4293"}, {"lat": 38.9199925, "is_reserved": 0, "lon": -77.0327485, "fusion_lon": 0.0, "fusion_lat": 0.0, "is_disabled": 0, "type": "electric_scooter", "bike_id": "52e84364ed8d88d5e70de171d19946e6", "rental_uris": {"android": "https://dc.lft.to/lastmile_qr_scan", "ios": "https://dc.lft.to/lastmile_qr_scan"}, "name": "52e84364ed8d88d5e70de171d19946e6"}, {"lat": 38.9031035, "is_reserved": 0, "lon": -77.01615583333333, "fusion_lon": 0.0, "fusion_lat": 0.0, "is_disabled": 0, "type": "electric_scooter", "bike_id": "341463d48875f1d7a6bbdf5f75b63cb4", "rental_uris": {"android": "https://dc.lft.to/lastmile_qr_scan", "ios": "https://dc.lft.to/lastmile_qr_scan"}, "name": "341463d48875f1d7a6bbdf5f75b63cb4"}, {"lat": 38.874628333333334, "is_reserved": 0, "lon": -77.00491166666667, "fusion_lon": 0.0, "fusion_lat": 0.0, "is_disabled": 0, "type": "electric_scooter", "bike_id": "ce6d4b7412271bd79e310e8674b9bef8", "rental_uris": {"android": "https://dc.lft.to/lastmile_qr_scan", "ios": "https://dc.lft.to/lastmile_qr_scan"}, "name": "ce6d4b7412271bd79e310e8674b9bef8"}, {"lat": 38.86684233333333, "is_reserved": 0, "lon": -76.98541366666667, "fusion_lon": 0.0, "fusion_lat": 0.0, "is_disabled": 0, "type": "electric_scooter", "bike_id": "f0b0fea79d0bd5059e5f7c048977f466", "rental_uris": {"android": "https://dc.lft.to/lastmile_qr_scan", "ios": "https://dc.lft.to/lastmile_qr_scan"}, "name": "f0b0fea79d0bd5059e5f7c048977f466"}, {"lat": 38.93530066666667, "is_reserved": 0, "lon": -77.0234965, "fusion_lon": 0.0, "fusion_lat": 0.0, "is_disabled": 0, "type": "electric_scooter", "bike_id": "a7156474ac7a51f974ca9c8f28a328dc", "rental_uris": {"android": "https://dc.lft.to/lastmile_qr_scan", "ios": "https://dc.lft.to/lastmile_qr_scan"}, "name": "a7156474ac7a51f974ca9c8f28a328dc"}, {"lat": 38.939043, "is_reserved": 0, "lon": -77.084918, "fusion_lon": 0.0, "fusion_lat": 0.0, "is_disabled": 0, "type": "electric_scooter", "bike_id": "c25961e43374a178fbcebdc6eb00f543", "rental_uris": {"android": "https://dc.lft.to/lastmile_qr_scan", "ios": "https://dc.lft.to/lastmile_qr_scan"}, "name": "c25961e43374a178fbcebdc6eb00f543"}, {"lat": 38.917358666666665, "is_reserved": 0, "lon": -77.03187916666667, "fusion_lon": 0.0, "fusion_lat": 0.0, "is_disabled": 0, "type": "electric_scooter", "bike_id": "18b904d1a8c7e5b100b7fa6030d1c66e", "rental_uris": {"android": "https://dc.lft.to/lastmile_qr_scan", "ios": "https://dc.lft.to/lastmile_qr_scan"}, "name": "18b904d1a8c7e5b100b7fa6030d1c66e"}, {"lat": 38.92090533333333, "is_reserved": 0, "lon": -77.02308533333333, "fusion_lon": 0.0, "fusion_lat": 0.0, "is_disabled": 0, "type": "electric_scooter", "bike_id": "1c1ea38c3257fedad36244e3fe195eec", "rental_uris": {"android": "https://dc.lft.to/lastmile_qr_scan", "ios": "https://dc.lft.to/lastmile_qr_scan"}, "name": "1c1ea38c3257fedad36244e3fe195eec"}, {"lat": 38.90374766666667, "is_reserved": 0, "lon": -77.03570733333333, "fusion_lon": 0.0, "fusion_lat": 0.0, "is_disabled": 0, "type": "electric_scooter", "bike_id": "17102337791a75419cf1e77a7562ad32", "rental_uris": {"android": "https://dc.lft.to/lastmile_qr_scan", "ios": "https://dc.lft.to/lastmile_qr_scan"}, "name": "17102337791a75419cf1e77a7562ad32"}, {"lat": 38.880316, "is_reserved": 0, "lon": -77.024865, "fusion_lon": 0.0, "fusion_lat": 0.0, "is_disabled": 0, "type": "electric_scooter", "bike_id": "fc9a4837fcc0e4d073a01530637100cf", "rental_uris": {"android": "https://dc.lft.to/lastmile_qr_scan", "ios": "https://dc.lft.to/lastmile_qr_scan"}, "name": "fc9a4837fcc0e4d073a01530637100cf"}, {"lat": 38.885093833333336, "is_reserved": 0, "lon": -77.00226233333333, "fusion_lon": 0.0, "fusion_lat": 0.0, "is_disabled": 0, "type": "electric_scooter", "bike_id": "dbcfa0adb3e15c7c0bb41cb7cd6964b6", "rental_uris": {"android": "https://dc.lft.to/lastmile_qr_scan", "ios": "https://dc.lft.to/lastmile_qr_scan"}, "name": "dbcfa0adb3e15c7c0bb41cb7cd6964b6"}, {"lat": 38.8589235, "is_reserved": 0, "lon": -77.11862183333334, "fusion_lon": 0.0, "fusion_lat": 0.0, "is_disabled": 0, "type": "electric_bike", "bike_id": "f8ab274d68f08bc55ded56a21243032a", "rental_uris": {"android": "https://dc.lft.to/lastmile_qr_scan", "ios": "https://dc.lft.to/lastmile_qr_scan"}, "name": "f8ab274d68f08bc55ded56a21243032a"}, {"lat": 38.90127966666667, "is_reserved": 0, "lon": -77.032353, "fusion_lon": 0.0, "fusion_lat": 0.0, "is_disabled": 0, "type": "electric_scooter", "bike_id": "b44ecd126b004c7e638aa441ada5a1c1", "rental_uris": {"android": "https://dc.lft.to/lastmile_qr_scan", "ios": "https://dc.lft.to/lastmile_qr_scan"}, "name": "b44ecd126b004c7e638aa441ada5a1c1"}, {"lat": 38.92791033333334, "is_reserved": 0, "lon": -77.02205183333334, "fusion_lon": 0.0, "fusion_lat": 0.0, "is_disabled": 0, "type": "electric_scooter", "bike_id": "48460d96f8a104574a6a021097e135a4", "rental_uris": {"android": "https://dc.lft.to/lastmile_qr_scan", "ios": "https://dc.lft.to/lastmile_qr_scan"}, "name": "48460d96f8a104574a6a021097e135a4"}, {"lat": 38.89730866666667, "is_reserved": 0, "lon": -77.00950316666666, "fusion_lon": 0.0, "fusion_lat": 0.0, "is_disabled": 0, "type": "electric_scooter", "bike_id": "bf36e8ad1d81a997b3d0b71d2c8967e5", "rental_uris": {"android": "https://dc.lft.to/lastmile_qr_scan", "ios": "https://dc.lft.to/lastmile_qr_scan"}, "name": "bf36e8ad1d81a997b3d0b71d2c8967e5"}, {"lat": 38.91607716666667, "is_reserved": 0, "lon": -77.08532633333333, "fusion_lon": 0.0, "fusion_lat": 0.0, "is_disabled": 0, "type": "electric_scooter", "bike_id": "034540c5cca767c136a97269a18099e3", "rental_uris": {"android": "https://dc.lft.to/lastmile_qr_scan", "ios": "https://dc.lft.to/lastmile_qr_scan"}, "name": "034540c5cca767c136a97269a18099e3"}, {"lat": 38.887314833333335, "is_reserved": 0, "lon": -77.015072, "fusion_lon": 0.0, "fusion_lat": 0.0, "is_disabled": 0, "type": "electric_scooter", "bike_id": "622dd04c98c2094749c9d0a9ba1ecd40", "rental_uris": {"android": "https://dc.lft.to/lastmile_qr_scan", "ios": "https://dc.lft.to/lastmile_qr_scan"}, "name": "622dd04c98c2094749c9d0a9ba1ecd40"}, {"lat": 38.907483, "is_reserved": 0, "lon": -77.07165516666667, "fusion_lon": 0.0, "fusion_lat": 0.0, "is_disabled": 0, "type": "electric_scooter", "bike_id": "87269da7c632907ef36975d9308b2504", "rental_uris": {"android": "https://dc.lft.to/lastmile_qr_scan", "ios": "https://dc.lft.to/lastmile_qr_scan"}, "name": "87269da7c632907ef36975d9308b2504"}, {"lat": 38.95250216666667, "is_reserved": 0, "lon": -77.01960166666667, "fusion_lon": 0.0, "fusion_lat": 0.0, "is_disabled": 0, "type": "electric_scooter", "bike_id": "f618e480d10ae1de447a6552d9bb29a6", "rental_uris": {"android": "https://dc.lft.to/lastmile_qr_scan", "ios": "https://dc.lft.to/lastmile_qr_scan"}, "name": "f618e480d10ae1de447a6552d9bb29a6"}, {"lat": 38.98459483333333, "is_reserved": 0, "lon": -76.97054083333333, "fusion_lon": 0.0, "fusion_lat": 0.0, "is_disabled": 0, "type": "electric_bike", "bike_id": "aa8a65ef6594ca56368d44f3de897786", "rental_uris": {"android": "https://dc.lft.to/lastmile_qr_scan", "ios": "https://dc.lft.to/lastmile_qr_scan"}, "name": "aa8a65ef6594ca56368d44f3de897786"}, {"lat": 38.910092, "is_reserved": 0, "lon": -77.03659033333334, "fusion_lon": 0.0, "fusion_lat": 0.0, "is_disabled": 0, "type": "electric_scooter", "bike_id": "d5b2e450617c15db1130e45ff529e4dc", "rental_uris": {"android": "https://dc.lft.to/lastmile_qr_scan", "ios": "https://dc.lft.to/lastmile_qr_scan"}, "name": "d5b2e450617c15db1130e45ff529e4dc"}, {"lat": 38.902389, "is_reserved": 0, "lon": -77.03807866666666, "fusion_lon": 0.0, "fusion_lat": 0.0, "is_disabled": 0, "type": "electric_scooter", "bike_id": "1dee2103a9604e3c654c4eb0157938c5", "rental_uris": {"android": "https://dc.lft.to/lastmile_qr_scan", "ios": "https://dc.lft.to/lastmile_qr_scan"}, "name": "1dee2103a9604e3c654c4eb0157938c5"}, {"lat": 38.9310305, "is_reserved": 0, "lon": -77.03509566666666, "fusion_lon": 0.0, "fusion_lat": 0.0, "is_disabled": 0, "type": "electric_scooter", "bike_id": "43cf81c790f81e4d90ff37878b245bb2", "rental_uris": {"android": "https://dc.lft.to/lastmile_qr_scan", "ios": "https://dc.lft.to/lastmile_qr_scan"}, "name": "43cf81c790f81e4d90ff37878b245bb2"}, {"lat": 38.900446333333335, "is_reserved": 0, "lon": -76.99836683333334, "fusion_lon": 0.0, "fusion_lat": 0.0, "is_disabled": 0, "type": "electric_scooter", "bike_id": "1ddd6d47481165bcda6e968fbbad6d24", "rental_uris": {"android": "https://dc.lft.to/lastmile_qr_scan", "ios": "https://dc.lft.to/lastmile_qr_scan"}, "name": "1ddd6d47481165bcda6e968fbbad6d24"}, {"lat": 38.901261166666664, "is_reserved": 0, "lon": -77.0325005, "fusion_lon": 0.0, "fusion_lat": 0.0, "is_disabled": 0, "type": "electric_scooter", "bike_id": "6b675b5c71e54ac8b410f96cb79d81bc", "rental_uris": {"android": "https://dc.lft.to/lastmile_qr_scan", "ios": "https://dc.lft.to/lastmile_qr_scan"}, "name": "6b675b5c71e54ac8b410f96cb79d81bc"}, {"lat": 38.92407816666667, "is_reserved": 0, "lon": -77.0355115, "fusion_lon": 0.0, "fusion_lat": 0.0, "is_disabled": 0, "type": "electric_scooter", "bike_id": "9a9b8bf5d7dcae882f96c6a657241a1c", "rental_uris": {"android": "https://dc.lft.to/lastmile_qr_scan", "ios": "https://dc.lft.to/lastmile_qr_scan"}, "name": "9a9b8bf5d7dcae882f96c6a657241a1c"}, {"lat": 38.858296, "is_reserved": 0, "lon": -76.99198166666666, "fusion_lon": 0.0, "fusion_lat": 0.0, "is_disabled": 0, "type": "electric_scooter", "bike_id": "d5f68d805075f9cff25d9bd4ac707a45", "rental_uris": {"android": "https://dc.lft.to/lastmile_qr_scan", "ios": "https://dc.lft.to/lastmile_qr_scan"}, "name": "d5f68d805075f9cff25d9bd4ac707a45"}, {"lat": 38.89464533333334, "is_reserved": 0, "lon": -76.94958316666667, "fusion_lon": 0.0, "fusion_lat": 0.0, "is_disabled": 0, "type": "electric_scooter", "bike_id": "d9769d8504be2602218bdfd901666027", "rental_uris": {"android": "https://dc.lft.to/lastmile_qr_scan", "ios": "https://dc.lft.to/lastmile_qr_scan"}, "name": "d9769d8504be2602218bdfd901666027"}, {"lat": 38.89270666666667, "is_reserved": 0, "lon": -76.99258783333333, "fusion_lon": 0.0, "fusion_lat": 0.0, "is_disabled": 0, "type": "electric_scooter", "bike_id": "165cebf29fc0880ddb1708952a669b1a", "rental_uris": {"android": "https://dc.lft.to/lastmile_qr_scan", "ios": "https://dc.lft.to/lastmile_qr_scan"}, "name": "165cebf29fc0880ddb1708952a669b1a"}, {"lat": 38.9170665, "is_reserved": 0, "lon": -77.02464333333333, "fusion_lon": 0.0, "fusion_lat": 0.0, "is_disabled": 0, "type": "electric_scooter", "bike_id": "b0d5510f14990c15571a2f1e8a41e78b", "rental_uris": {"android": "https://dc.lft.to/lastmile_qr_scan", "ios": "https://dc.lft.to/lastmile_qr_scan"}, "name": "b0d5510f14990c15571a2f1e8a41e78b"}, {"lat": 38.871134, "is_reserved": 0, "lon": -76.98236866666667, "fusion_lon": 0.0, "fusion_lat": 0.0, "is_disabled": 0, "type": "electric_scooter", "bike_id": "2db37569fb37d278e0b7785660ecd03b", "rental_uris": {"android": "https://dc.lft.to/lastmile_qr_scan", "ios": "https://dc.lft.to/lastmile_qr_scan"}, "name": "2db37569fb37d278e0b7785660ecd03b"}, {"lat": 38.90868283333333, "is_reserved": 0, "lon": -77.04333616666666, "fusion_lon": 0.0, "fusion_lat": 0.0, "is_disabled": 0, "type": "electric_scooter", "bike_id": "7bdb27c1044243288f8eb9610e5f1e3b", "rental_uris": {"android": "https://dc.lft.to/lastmile_qr_scan", "ios": "https://dc.lft.to/lastmile_qr_scan"}, "name": "7bdb27c1044243288f8eb9610e5f1e3b"}, {"lat": 38.90307216666667, "is_reserved": 0, "lon": -77.03947016666666, "fusion_lon": 0.0, "fusion_lat": 0.0, "is_disabled": 0, "type": "electric_scooter", "bike_id": "e7dfd4112fcf385423a085cbe4abe0cd", "rental_uris": {"android": "https://dc.lft.to/lastmile_qr_scan", "ios": "https://dc.lft.to/lastmile_qr_scan"}, "name": "e7dfd4112fcf385423a085cbe4abe0cd"}, {"lat": 38.90150516666667, "is_reserved": 0, "lon": -77.04867883333333, "fusion_lon": 0.0, "fusion_lat": 0.0, "is_disabled": 0, "type": "electric_scooter", "bike_id": "3df9d2e400fb6ed19c9729dae170e36e", "rental_uris": {"android": "https://dc.lft.to/lastmile_qr_scan", "ios": "https://dc.lft.to/lastmile_qr_scan"}, "name": "3df9d2e400fb6ed19c9729dae170e36e"}, {"lat": 38.89527916666667, "is_reserved": 0, "lon": -77.00341966666667, "fusion_lon": 0.0, "fusion_lat": 0.0, "is_disabled": 0, "type": "electric_scooter", "bike_id": "aa0a9c44035576409e80119c71e12d30", "rental_uris": {"android": "https://dc.lft.to/lastmile_qr_scan", "ios": "https://dc.lft.to/lastmile_qr_scan"}, "name": "aa0a9c44035576409e80119c71e12d30"}, {"lat": 38.89234966666667, "is_reserved": 0, "lon": -77.03211933333333, "fusion_lon": 0.0, "fusion_lat": 0.0, "is_disabled": 0, "type": "electric_scooter", "bike_id": "641872afeca74b1b0824ec4484876dff", "rental_uris": {"android": "https://dc.lft.to/lastmile_qr_scan", "ios": "https://dc.lft.to/lastmile_qr_scan"}, "name": "641872afeca74b1b0824ec4484876dff"}, {"lat": 38.911122166666665, "is_reserved": 0, "lon": -77.04360566666666, "fusion_lon": 0.0, "fusion_lat": 0.0, "is_disabled": 0, "type": "electric_scooter", "bike_id": "96d0daa4042640660ad4d9c8fea393ee", "rental_uris": {"android": "https://dc.lft.to/lastmile_qr_scan", "ios": "https://dc.lft.to/lastmile_qr_scan"}, "name": "96d0daa4042640660ad4d9c8fea393ee"}, {"lat": 38.97809616666667, "is_reserved": 0, "lon": -77.01833616666667, "fusion_lon": 0.0, "fusion_lat": 0.0, "is_disabled": 0, "type": "electric_scooter", "bike_id": "481c4b31f5471635abfc96ab2419d65a", "rental_uris": {"android": "https://dc.lft.to/lastmile_qr_scan", "ios": "https://dc.lft.to/lastmile_qr_scan"}, "name": "481c4b31f5471635abfc96ab2419d65a"}, {"lat": 38.819886, "is_reserved": 0, "lon": -76.99798533333333, "fusion_lon": 0.0, "fusion_lat": 0.0, "is_disabled": 0, "type": "electric_bike", "bike_id": "259bcf3410ce2745066bb362d4cc0c86", "rental_uris": {"android": "https://dc.lft.to/lastmile_qr_scan", "ios": "https://dc.lft.to/lastmile_qr_scan"}, "name": "259bcf3410ce2745066bb362d4cc0c86"}, {"lat": 38.863674, "is_reserved": 0, "lon": -76.99059833333334, "fusion_lon": 0.0, "fusion_lat": 0.0, "is_disabled": 0, "type": "electric_scooter", "bike_id": "7e5a0c2d0cd56efc783fe05f196f4e84", "rental_uris": {"android": "https://dc.lft.to/lastmile_qr_scan", "ios": "https://dc.lft.to/lastmile_qr_scan"}, "name": "7e5a0c2d0cd56efc783fe05f196f4e84"}, {"lat": 38.928625333333336, "is_reserved": 0, "lon": -77.03710533333333, "fusion_lon": 0.0, "fusion_lat": 0.0, "is_disabled": 0, "type": "electric_scooter", "bike_id": "9e1c7f809ed3cbb4b758c21b07128995", "rental_uris": {"android": "https://dc.lft.to/lastmile_qr_scan", "ios": "https://dc.lft.to/lastmile_qr_scan"}, "name": "9e1c7f809ed3cbb4b758c21b07128995"}, {"lat": 38.871780333333334, "is_reserved": 0, "lon": -77.006087, "fusion_lon": 0.0, "fusion_lat": 0.0, "is_disabled": 0, "type": "electric_scooter", "bike_id": "4d372d4e97084b21c202da1aae224263", "rental_uris": {"android": "https://dc.lft.to/lastmile_qr_scan", "ios": "https://dc.lft.to/lastmile_qr_scan"}, "name": "4d372d4e97084b21c202da1aae224263"}, {"lat": 38.9748995, "is_reserved": 0, "lon": -77.01692816666667, "fusion_lon": 0.0, "fusion_lat": 0.0, "is_disabled": 0, "type": "electric_scooter", "bike_id": "3cea3d8254bb5705e1d92ac195cebcea", "rental_uris": {"android": "https://dc.lft.to/lastmile_qr_scan", "ios": "https://dc.lft.to/lastmile_qr_scan"}, "name": "3cea3d8254bb5705e1d92ac195cebcea"}, {"lat": 38.8936545, "is_reserved": 0, "lon": -77.02839566666667, "fusion_lon": 0.0, "fusion_lat": 0.0, "is_disabled": 0, "type": "electric_scooter", "bike_id": "291db8cfbd0281bda62488de0759f61c", "rental_uris": {"android": "https://dc.lft.to/lastmile_qr_scan", "ios": "https://dc.lft.to/lastmile_qr_scan"}, "name": "291db8cfbd0281bda62488de0759f61c"}, {"lat": 38.912479833333336, "is_reserved": 0, "lon": -77.02429283333333, "fusion_lon": 0.0, "fusion_lat": 0.0, "is_disabled": 0, "type": "electric_scooter", "bike_id": "4bad2af3abf08063cf1076979c12ba38", "rental_uris": {"android": "https://dc.lft.to/lastmile_qr_scan", "ios": "https://dc.lft.to/lastmile_qr_scan"}, "name": "4bad2af3abf08063cf1076979c12ba38"}, {"lat": 38.8650645, "is_reserved": 0, "lon": -76.9900395, "fusion_lon": 0.0, "fusion_lat": 0.0, "is_disabled": 0, "type": "electric_scooter", "bike_id": "c236a0e01e4a3b535c7e6ea4c0fdffc2", "rental_uris": {"android": "https://dc.lft.to/lastmile_qr_scan", "ios": "https://dc.lft.to/lastmile_qr_scan"}, "name": "c236a0e01e4a3b535c7e6ea4c0fdffc2"}, {"lat": 38.90010066666667, "is_reserved": 0, "lon": -77.045071, "fusion_lon": 0.0, "fusion_lat": 0.0, "is_disabled": 0, "type": "electric_scooter", "bike_id": "67b8f5bcdfeb23327b2a46365d7d502b", "rental_uris": {"android": "https://dc.lft.to/lastmile_qr_scan", "ios": "https://dc.lft.to/lastmile_qr_scan"}, "name": "67b8f5bcdfeb23327b2a46365d7d502b"}, {"lat": 38.89833, "is_reserved": 0, "lon": -77.0282795, "fusion_lon": 0.0, "fusion_lat": 0.0, "is_disabled": 0, "type": "electric_scooter", "bike_id": "de4952ba576fd5ec3afa4d0082b12fb7", "rental_uris": {"android": "https://dc.lft.to/lastmile_qr_scan", "ios": "https://dc.lft.to/lastmile_qr_scan"}, "name": "de4952ba576fd5ec3afa4d0082b12fb7"}, {"lat": 38.9214195, "is_reserved": 0, "lon": -77.01205733333333, "fusion_lon": 0.0, "fusion_lat": 0.0, "is_disabled": 0, "type": "electric_scooter", "bike_id": "ef7efa8a65035172022cb10325c4fbe7", "rental_uris": {"android": "https://dc.lft.to/lastmile_qr_scan", "ios": "https://dc.lft.to/lastmile_qr_scan"}, "name": "ef7efa8a65035172022cb10325c4fbe7"}, {"lat": 38.91414966666667, "is_reserved": 0, "lon": -77.026106, "fusion_lon": 0.0, "fusion_lat": 0.0, "is_disabled": 0, "type": "electric_scooter", "bike_id": "15df076d7368dc8b73dcc5eecfa37a9a", "rental_uris": {"android": "https://dc.lft.to/lastmile_qr_scan", "ios": "https://dc.lft.to/lastmile_qr_scan"}, "name": "15df076d7368dc8b73dcc5eecfa37a9a"}, {"lat": 38.93054516666667, "is_reserved": 0, "lon": -77.036343, "fusion_lon": 0.0, "fusion_lat": 0.0, "is_disabled": 0, "type": "electric_scooter", "bike_id": "f9357367fefb79233acfba12e8d7aa50", "rental_uris": {"android": "https://dc.lft.to/lastmile_qr_scan", "ios": "https://dc.lft.to/lastmile_qr_scan"}, "name": "f9357367fefb79233acfba12e8d7aa50"}, {"lat": 38.916814, "is_reserved": 0, "lon": -77.02205333333333, "fusion_lon": 0.0, "fusion_lat": 0.0, "is_disabled": 0, "type": "electric_scooter", "bike_id": "91602922fd82661ca75707bc9af2d381", "rental_uris": {"android": "https://dc.lft.to/lastmile_qr_scan", "ios": "https://dc.lft.to/lastmile_qr_scan"}, "name": "91602922fd82661ca75707bc9af2d381"}, {"lat": 38.90017566666667, "is_reserved": 0, "lon": -77.01107916666666, "fusion_lon": 0.0, "fusion_lat": 0.0, "is_disabled": 0, "type": "electric_scooter", "bike_id": "d47859e89c76bc4e34441d623080a7a5", "rental_uris": {"android": "https://dc.lft.to/lastmile_qr_scan", "ios": "https://dc.lft.to/lastmile_qr_scan"}, "name": "d47859e89c76bc4e34441d623080a7a5"}, {"lat": 38.955021333333335, "is_reserved": 0, "lon": -77.02677766666666, "fusion_lon": 0.0, "fusion_lat": 0.0, "is_disabled": 0, "type": "electric_scooter", "bike_id": "90c89ec97ce7114d5cd101f411d1129b", "rental_uris": {"android": "https://dc.lft.to/lastmile_qr_scan", "ios": "https://dc.lft.to/lastmile_qr_scan"}, "name": "90c89ec97ce7114d5cd101f411d1129b"}, {"lat": 38.9318885, "is_reserved": 0, "lon": -77.22925033333334, "fusion_lon": 0.0, "fusion_lat": 0.0, "is_disabled": 0, "type": "electric_bike", "bike_id": "e6f05d1022709c22fadc079a94bde814", "rental_uris": {"android": "https://dc.lft.to/lastmile_qr_scan", "ios": "https://dc.lft.to/lastmile_qr_scan"}, "name": "e6f05d1022709c22fadc079a94bde814"}, {"lat": 38.927058333333335, "is_reserved": 0, "lon": -77.02384916666666, "fusion_lon": 0.0, "fusion_lat": 0.0, "is_disabled": 0, "type": "electric_scooter", "bike_id": "bd39d5cf62159e7c1974ea879a9adcd3", "rental_uris": {"android": "https://dc.lft.to/lastmile_qr_scan", "ios": "https://dc.lft.to/lastmile_qr_scan"}, "name": "bd39d5cf62159e7c1974ea879a9adcd3"}, {"lat": 38.917544666666664, "is_reserved": 0, "lon": -77.01712966666666, "fusion_lon": 0.0, "fusion_lat": 0.0, "is_disabled": 0, "type": "electric_scooter", "bike_id": "5a1f8381cf0ba6876f57e1bd5e0a6b88", "rental_uris": {"android": "https://dc.lft.to/lastmile_qr_scan", "ios": "https://dc.lft.to/lastmile_qr_scan"}, "name": "5a1f8381cf0ba6876f57e1bd5e0a6b88"}, {"lat": 38.873808333333336, "is_reserved": 0, "lon": -77.0007245, "fusion_lon": 0.0, "fusion_lat": 0.0, "is_disabled": 0, "type": "electric_scooter", "bike_id": "a30227f0c0def6c883f2fa2a27500fc9", "rental_uris": {"android": "https://dc.lft.to/lastmile_qr_scan", "ios": "https://dc.lft.to/lastmile_qr_scan"}, "name": "a30227f0c0def6c883f2fa2a27500fc9"}, {"lat": 38.9738425, "is_reserved": 0, "lon": -77.06470816666666, "fusion_lon": 0.0, "fusion_lat": 0.0, "is_disabled": 0, "type": "electric_bike", "bike_id": "cc5429c0ddac7bda8c383c4d638fa4b1", "rental_uris": {"android": "https://dc.lft.to/lastmile_qr_scan", "ios": "https://dc.lft.to/lastmile_qr_scan"}, "name": "cc5429c0ddac7bda8c383c4d638fa4b1"}, {"lat": 38.89918, "is_reserved": 0, "lon": -77.0162185, "fusion_lon": 0.0, "fusion_lat": 0.0, "is_disabled": 0, "type": "electric_scooter", "bike_id": "f1913a876c5cef87d2fb2414afaa2c0a", "rental_uris": {"android": "https://dc.lft.to/lastmile_qr_scan", "ios": "https://dc.lft.to/lastmile_qr_scan"}, "name": "f1913a876c5cef87d2fb2414afaa2c0a"}, {"lat": 38.9162015, "is_reserved": 0, "lon": -77.0320375, "fusion_lon": 0.0, "fusion_lat": 0.0, "is_disabled": 0, "type": "electric_scooter", "bike_id": "f182285cc345318e7bb1619a8ee72c4c", "rental_uris": {"android": "https://dc.lft.to/lastmile_qr_scan", "ios": "https://dc.lft.to/lastmile_qr_scan"}, "name": "f182285cc345318e7bb1619a8ee72c4c"}, {"lat": 38.91695933333333, "is_reserved": 0, "lon": -77.02899416666666, "fusion_lon": 0.0, "fusion_lat": 0.0, "is_disabled": 0, "type": "electric_scooter", "bike_id": "31aa58954e2f1c117d01c5e5e4240d5d", "rental_uris": {"android": "https://dc.lft.to/lastmile_qr_scan", "ios": "https://dc.lft.to/lastmile_qr_scan"}, "name": "31aa58954e2f1c117d01c5e5e4240d5d"}, {"lat": 38.900924333333336, "is_reserved": 0, "lon": -77.02806233333334, "fusion_lon": 0.0, "fusion_lat": 0.0, "is_disabled": 0, "type": "electric_scooter", "bike_id": "44caf1fd59f1aee77464d7a6cc0d26c4", "rental_uris": {"android": "https://dc.lft.to/lastmile_qr_scan", "ios": "https://dc.lft.to/lastmile_qr_scan"}, "name": "44caf1fd59f1aee77464d7a6cc0d26c4"}, {"lat": 38.86245566666667, "is_reserved": 0, "lon": -76.995034, "fusion_lon": 0.0, "fusion_lat": 0.0, "is_disabled": 0, "type": "electric_scooter", "bike_id": "2626d9d366b7072e7a4f788aa37786c7", "rental_uris": {"android": "https://dc.lft.to/lastmile_qr_scan", "ios": "https://dc.lft.to/lastmile_qr_scan"}, "name": "2626d9d366b7072e7a4f788aa37786c7"}, {"lat": 38.885271, "is_reserved": 0, "lon": -76.99825166666666, "fusion_lon": 0.0, "fusion_lat": 0.0, "is_disabled": 0, "type": "electric_scooter", "bike_id": "789334f186142edae57ebf0aecb0bf59", "rental_uris": {"android": "https://dc.lft.to/lastmile_qr_scan", "ios": "https://dc.lft.to/lastmile_qr_scan"}, "name": "789334f186142edae57ebf0aecb0bf59"}, {"lat": 38.9000715, "is_reserved": 0, "lon": -76.986752, "fusion_lon": 0.0, "fusion_lat": 0.0, "is_disabled": 0, "type": "electric_bike", "bike_id": "e52b6b675f17dd7e2b72bf15f3f202c4", "rental_uris": {"android": "https://dc.lft.to/lastmile_qr_scan", "ios": "https://dc.lft.to/lastmile_qr_scan"}, "name": "e52b6b675f17dd7e2b72bf15f3f202c4"}, {"lat": 38.884221, "is_reserved": 0, "lon": -77.02496716666667, "fusion_lon": 0.0, "fusion_lat": 0.0, "is_disabled": 0, "type": "electric_scooter", "bike_id": "efa2108744c117d33cf57c4b346144a2", "rental_uris": {"android": "https://dc.lft.to/lastmile_qr_scan", "ios": "https://dc.lft.to/lastmile_qr_scan"}, "name": "efa2108744c117d33cf57c4b346144a2"}, {"lat": 38.90265933333333, "is_reserved": 0, "lon": -77.03836083333333, "fusion_lon": 0.0, "fusion_lat": 0.0, "is_disabled": 0, "type": "electric_scooter", "bike_id": "74172c92cc42596e6b5c18bc8913c187", "rental_uris": {"android": "https://dc.lft.to/lastmile_qr_scan", "ios": "https://dc.lft.to/lastmile_qr_scan"}, "name": "74172c92cc42596e6b5c18bc8913c187"}, {"lat": 38.92835866666667, "is_reserved": 0, "lon": -77.0550485, "fusion_lon": 0.0, "fusion_lat": 0.0, "is_disabled": 0, "type": "electric_scooter", "bike_id": "ea76a82fe257e52dcb055ab5bfb9872d", "rental_uris": {"android": "https://dc.lft.to/lastmile_qr_scan", "ios": "https://dc.lft.to/lastmile_qr_scan"}, "name": "ea76a82fe257e52dcb055ab5bfb9872d"}, {"lat": 38.95788533333333, "is_reserved": 0, "lon": -77.03215933333334, "fusion_lon": 0.0, "fusion_lat": 0.0, "is_disabled": 0, "type": "electric_scooter", "bike_id": "9a3589883085eedf59314545bb809932", "rental_uris": {"android": "https://dc.lft.to/lastmile_qr_scan", "ios": "https://dc.lft.to/lastmile_qr_scan"}, "name": "9a3589883085eedf59314545bb809932"}, {"lat": 38.897174166666666, "is_reserved": 0, "lon": -77.02463866666666, "fusion_lon": 0.0, "fusion_lat": 0.0, "is_disabled": 0, "type": "electric_scooter", "bike_id": "1b5b829e1c74a87630cb8e12c814ab65", "rental_uris": {"android": "https://dc.lft.to/lastmile_qr_scan", "ios": "https://dc.lft.to/lastmile_qr_scan"}, "name": "1b5b829e1c74a87630cb8e12c814ab65"}, {"lat": 38.90261866666667, "is_reserved": 0, "lon": -77.01905066666667, "fusion_lon": 0.0, "fusion_lat": 0.0, "is_disabled": 0, "type": "electric_scooter", "bike_id": "876311a9e52658fb4537029bee0ad259", "rental_uris": {"android": "https://dc.lft.to/lastmile_qr_scan", "ios": "https://dc.lft.to/lastmile_qr_scan"}, "name": "876311a9e52658fb4537029bee0ad259"}, {"lat": 38.8986385, "is_reserved": 0, "lon": -76.9463365, "fusion_lon": 0.0, "fusion_lat": 0.0, "is_disabled": 0, "type": "electric_scooter", "bike_id": "bc5af99e3a7ef826e76d70dd51336ba0", "rental_uris": {"android": "https://dc.lft.to/lastmile_qr_scan", "ios": "https://dc.lft.to/lastmile_qr_scan"}, "name": "bc5af99e3a7ef826e76d70dd51336ba0"}, {"lat": 38.83154833333333, "is_reserved": 0, "lon": -77.00790766666667, "fusion_lon": 0.0, "fusion_lat": 0.0, "is_disabled": 0, "type": "electric_scooter", "bike_id": "b26d4ef0aff9da9bf46781c55c7a90a8", "rental_uris": {"android": "https://dc.lft.to/lastmile_qr_scan", "ios": "https://dc.lft.to/lastmile_qr_scan"}, "name": "b26d4ef0aff9da9bf46781c55c7a90a8"}, {"lat": 38.923608333333334, "is_reserved": 0, "lon": -77.0512175, "fusion_lon": 0.0, "fusion_lat": 0.0, "is_disabled": 0, "type": "electric_scooter", "bike_id": "c809ff5eea1576b9b222a515cf1a13d5", "rental_uris": {"android": "https://dc.lft.to/lastmile_qr_scan", "ios": "https://dc.lft.to/lastmile_qr_scan"}, "name": "c809ff5eea1576b9b222a515cf1a13d5"}, {"lat": 38.91267766666667, "is_reserved": 0, "lon": -77.03145566666667, "fusion_lon": 0.0, "fusion_lat": 0.0, "is_disabled": 0, "type": "electric_scooter", "bike_id": "810baae5245e14947fa081c94600e6c4", "rental_uris": {"android": "https://dc.lft.to/lastmile_qr_scan", "ios": "https://dc.lft.to/lastmile_qr_scan"}, "name": "810baae5245e14947fa081c94600e6c4"}, {"lat": 38.8947315, "is_reserved": 0, "lon": -77.045257, "fusion_lon": 0.0, "fusion_lat": 0.0, "is_disabled": 0, "type": "electric_scooter", "bike_id": "43a993620f3c2accdff897476560f401", "rental_uris": {"android": "https://dc.lft.to/lastmile_qr_scan", "ios": "https://dc.lft.to/lastmile_qr_scan"}, "name": "43a993620f3c2accdff897476560f401"}, {"lat": 38.936991166666665, "is_reserved": 0, "lon": -77.05593516666667, "fusion_lon": 0.0, "fusion_lat": 0.0, "is_disabled": 0, "type": "electric_bike", "bike_id": "8d29c488ceab6953750092fd80718fbc", "rental_uris": {"android": "https://dc.lft.to/lastmile_qr_scan", "ios": "https://dc.lft.to/lastmile_qr_scan"}, "name": "8d29c488ceab6953750092fd80718fbc"}, {"lat": 38.84851066666667, "is_reserved": 0, "lon": -77.00384, "fusion_lon": 0.0, "fusion_lat": 0.0, "is_disabled": 0, "type": "electric_scooter", "bike_id": "2ab968b9b799962c13f0b23a5e4d7145", "rental_uris": {"android": "https://dc.lft.to/lastmile_qr_scan", "ios": "https://dc.lft.to/lastmile_qr_scan"}, "name": "2ab968b9b799962c13f0b23a5e4d7145"}, {"lat": 38.862575666666665, "is_reserved": 0, "lon": -76.98349883333333, "fusion_lon": 0.0, "fusion_lat": 0.0, "is_disabled": 0, "type": "electric_bike", "bike_id": "b81e6f5af7c2f86f52752b9b9d63c8a2", "rental_uris": {"android": "https://dc.lft.to/lastmile_qr_scan", "ios": "https://dc.lft.to/lastmile_qr_scan"}, "name": "b81e6f5af7c2f86f52752b9b9d63c8a2"}, {"lat": 38.906490166666664, "is_reserved": 0, "lon": -77.02535983333334, "fusion_lon": 0.0, "fusion_lat": 0.0, "is_disabled": 0, "type": "electric_scooter", "bike_id": "8d679c0931eea1299c2e33a5cbf8cfd8", "rental_uris": {"android": "https://dc.lft.to/lastmile_qr_scan", "ios": "https://dc.lft.to/lastmile_qr_scan"}, "name": "8d679c0931eea1299c2e33a5cbf8cfd8"}, {"lat": 38.903014166666665, "is_reserved": 0, "lon": -77.03824583333333, "fusion_lon": 0.0, "fusion_lat": 0.0, "is_disabled": 0, "type": "electric_scooter", "bike_id": "0f34f14bcfc552d5804a62f252f270a0", "rental_uris": {"android": "https://dc.lft.to/lastmile_qr_scan", "ios": "https://dc.lft.to/lastmile_qr_scan"}, "name": "0f34f14bcfc552d5804a62f252f270a0"}, {"lat": 38.8972295, "is_reserved": 0, "lon": -77.0328115, "fusion_lon": 0.0, "fusion_lat": 0.0, "is_disabled": 0, "type": "electric_scooter", "bike_id": "d949945f825d95a7c322e992ed4521af", "rental_uris": {"android": "https://dc.lft.to/lastmile_qr_scan", "ios": "https://dc.lft.to/lastmile_qr_scan"}, "name": "d949945f825d95a7c322e992ed4521af"}, {"lat": 38.923222333333335, "is_reserved": 0, "lon": -77.03405633333334, "fusion_lon": 0.0, "fusion_lat": 0.0, "is_disabled": 0, "type": "electric_scooter", "bike_id": "ec32ed94732953583077cd789ef2064a", "rental_uris": {"android": "https://dc.lft.to/lastmile_qr_scan", "ios": "https://dc.lft.to/lastmile_qr_scan"}, "name": "ec32ed94732953583077cd789ef2064a"}, {"lat": 38.94050566666667, "is_reserved": 0, "lon": -76.904172, "fusion_lon": 0.0, "fusion_lat": 0.0, "is_disabled": 0, "type": "electric_bike", "bike_id": "7af8dc1d2802e04af7249bc9f635e3f5", "rental_uris": {"android": "https://dc.lft.to/lastmile_qr_scan", "ios": "https://dc.lft.to/lastmile_qr_scan"}, "name": "7af8dc1d2802e04af7249bc9f635e3f5"}, {"lat": 38.917661333333335, "is_reserved": 0, "lon": -77.03852266666667, "fusion_lon": 0.0, "fusion_lat": 0.0, "is_disabled": 0, "type": "electric_scooter", "bike_id": "2965fccd7b41b241ce8a337f3a9e6e46", "rental_uris": {"android": "https://dc.lft.to/lastmile_qr_scan", "ios": "https://dc.lft.to/lastmile_qr_scan"}, "name": "2965fccd7b41b241ce8a337f3a9e6e46"}, {"lat": 38.91830983333333, "is_reserved": 0, "lon": -77.03208366666667, "fusion_lon": 0.0, "fusion_lat": 0.0, "is_disabled": 0, "type": "electric_scooter", "bike_id": "7922d0e1414535e3fd0b18bb88542f60", "rental_uris": {"android": "https://dc.lft.to/lastmile_qr_scan", "ios": "https://dc.lft.to/lastmile_qr_scan"}, "name": "7922d0e1414535e3fd0b18bb88542f60"}, {"lat": 38.92843883333333, "is_reserved": 0, "lon": -77.0542715, "fusion_lon": 0.0, "fusion_lat": 0.0, "is_disabled": 0, "type": "electric_scooter", "bike_id": "53f132fb033114745d6f97c6aecdb719", "rental_uris": {"android": "https://dc.lft.to/lastmile_qr_scan", "ios": "https://dc.lft.to/lastmile_qr_scan"}, "name": "53f132fb033114745d6f97c6aecdb719"}, {"lat": 38.904024166666666, "is_reserved": 0, "lon": -77.032297, "fusion_lon": 0.0, "fusion_lat": 0.0, "is_disabled": 0, "type": "electric_scooter", "bike_id": "eb9b08744a5c13ce236903e350f81b55", "rental_uris": {"android": "https://dc.lft.to/lastmile_qr_scan", "ios": "https://dc.lft.to/lastmile_qr_scan"}, "name": "eb9b08744a5c13ce236903e350f81b55"}, {"lat": 38.92068066666667, "is_reserved": 0, "lon": -76.99582316666667, "fusion_lon": 0.0, "fusion_lat": 0.0, "is_disabled": 0, "type": "electric_bike", "bike_id": "50163f984c9581bceca2cc00da701701", "rental_uris": {"android": "https://dc.lft.to/lastmile_qr_scan", "ios": "https://dc.lft.to/lastmile_qr_scan"}, "name": "50163f984c9581bceca2cc00da701701"}, {"lat": 38.89231266666667, "is_reserved": 0, "lon": -77.02384583333334, "fusion_lon": 0.0, "fusion_lat": 0.0, "is_disabled": 0, "type": "electric_scooter", "bike_id": "3371930128518b661853db9fc6576059", "rental_uris": {"android": "https://dc.lft.to/lastmile_qr_scan", "ios": "https://dc.lft.to/lastmile_qr_scan"}, "name": "3371930128518b661853db9fc6576059"}, {"lat": 38.9149865, "is_reserved": 0, "lon": -77.012173, "fusion_lon": 0.0, "fusion_lat": 0.0, "is_disabled": 0, "type": "electric_scooter", "bike_id": "be0378258008a2f6daa74bd64b53057e", "rental_uris": {"android": "https://dc.lft.to/lastmile_qr_scan", "ios": "https://dc.lft.to/lastmile_qr_scan"}, "name": "be0378258008a2f6daa74bd64b53057e"}, {"lat": 38.91119333333333, "is_reserved": 0, "lon": -77.0391845, "fusion_lon": 0.0, "fusion_lat": 0.0, "is_disabled": 0, "type": "electric_scooter", "bike_id": "bcc53dd25789cf1bf0cdc6c1daa13659", "rental_uris": {"android": "https://dc.lft.to/lastmile_qr_scan", "ios": "https://dc.lft.to/lastmile_qr_scan"}, "name": "bcc53dd25789cf1bf0cdc6c1daa13659"}, {"lat": 38.8975085, "is_reserved": 0, "lon": -77.0258885, "fusion_lon": 0.0, "fusion_lat": 0.0, "is_disabled": 0, "type": "electric_scooter", "bike_id": "774c19b63e4eaf3356897d9f8f7f927c", "rental_uris": {"android": "https://dc.lft.to/lastmile_qr_scan", "ios": "https://dc.lft.to/lastmile_qr_scan"}, "name": "774c19b63e4eaf3356897d9f8f7f927c"}, {"lat": 38.897367333333335, "is_reserved": 0, "lon": -77.03016666666667, "fusion_lon": 0.0, "fusion_lat": 0.0, "is_disabled": 0, "type": "electric_scooter", "bike_id": "85979491df2e51f22f28f1efe9669514", "rental_uris": {"android": "https://dc.lft.to/lastmile_qr_scan", "ios": "https://dc.lft.to/lastmile_qr_scan"}, "name": "85979491df2e51f22f28f1efe9669514"}, {"lat": 38.94614416666667, "is_reserved": 0, "lon": -77.09673166666667, "fusion_lon": 0.0, "fusion_lat": 0.0, "is_disabled": 0, "type": "electric_bike", "bike_id": "57bb05dc9da38de92f3c6cf1e747d38d", "rental_uris": {"android": "https://dc.lft.to/lastmile_qr_scan", "ios": "https://dc.lft.to/lastmile_qr_scan"}, "name": "57bb05dc9da38de92f3c6cf1e747d38d"}, {"lat": 38.91149683333333, "is_reserved": 0, "lon": -77.0066285, "fusion_lon": 0.0, "fusion_lat": 0.0, "is_disabled": 0, "type": "electric_scooter", "bike_id": "37590cfb7c7e93d7870dacaecfb7bbd5", "rental_uris": {"android": "https://dc.lft.to/lastmile_qr_scan", "ios": "https://dc.lft.to/lastmile_qr_scan"}, "name": "37590cfb7c7e93d7870dacaecfb7bbd5"}, {"lat": 38.9007985, "is_reserved": 0, "lon": -76.98332733333334, "fusion_lon": 0.0, "fusion_lat": 0.0, "is_disabled": 0, "type": "electric_scooter", "bike_id": "51cb8813b12a4728f52be03b7780417f", "rental_uris": {"android": "https://dc.lft.to/lastmile_qr_scan", "ios": "https://dc.lft.to/lastmile_qr_scan"}, "name": "51cb8813b12a4728f52be03b7780417f"}, {"lat": 38.887115, "is_reserved": 0, "lon": -77.01773166666666, "fusion_lon": 0.0, "fusion_lat": 0.0, "is_disabled": 0, "type": "electric_scooter", "bike_id": "00a5198c0bab46f853d0e9f5fb535b5f", "rental_uris": {"android": "https://dc.lft.to/lastmile_qr_scan", "ios": "https://dc.lft.to/lastmile_qr_scan"}, "name": "00a5198c0bab46f853d0e9f5fb535b5f"}, {"lat": 38.897305333333335, "is_reserved": 0, "lon": -77.048761, "fusion_lon": 0.0, "fusion_lat": 0.0, "is_disabled": 0, "type": "electric_scooter", "bike_id": "35d520ae88213236ae670f53b26b1a4f", "rental_uris": {"android": "https://dc.lft.to/lastmile_qr_scan", "ios": "https://dc.lft.to/lastmile_qr_scan"}, "name": "35d520ae88213236ae670f53b26b1a4f"}, {"lat": 38.87417166666667, "is_reserved": 0, "lon": -76.969117, "fusion_lon": 0.0, "fusion_lat": 0.0, "is_disabled": 0, "type": "electric_scooter", "bike_id": "e2d2eddd69376ba1ca01ab7d7fff4456", "rental_uris": {"android": "https://dc.lft.to/lastmile_qr_scan", "ios": "https://dc.lft.to/lastmile_qr_scan"}, "name": "e2d2eddd69376ba1ca01ab7d7fff4456"}, {"lat": 38.92602316666667, "is_reserved": 0, "lon": -77.03657466666667, "fusion_lon": 0.0, "fusion_lat": 0.0, "is_disabled": 0, "type": "electric_scooter", "bike_id": "792a409164555643d0d062cfacf1e14e", "rental_uris": {"android": "https://dc.lft.to/lastmile_qr_scan", "ios": "https://dc.lft.to/lastmile_qr_scan"}, "name": "792a409164555643d0d062cfacf1e14e"}, {"lat": 38.8987765, "is_reserved": 0, "lon": -77.019922, "fusion_lon": 0.0, "fusion_lat": 0.0, "is_disabled": 0, "type": "electric_scooter", "bike_id": "6efdacb1e4f33e6686e83e4a7dbb9aa9", "rental_uris": {"android": "https://dc.lft.to/lastmile_qr_scan", "ios": "https://dc.lft.to/lastmile_qr_scan"}, "name": "6efdacb1e4f33e6686e83e4a7dbb9aa9"}, {"lat": 38.91944083333333, "is_reserved": 0, "lon": -77.00317, "fusion_lon": 0.0, "fusion_lat": 0.0, "is_disabled": 0, "type": "electric_scooter", "bike_id": "0fa8d1034ae84119e168bf8ae69d920c", "rental_uris": {"android": "https://dc.lft.to/lastmile_qr_scan", "ios": "https://dc.lft.to/lastmile_qr_scan"}, "name": "0fa8d1034ae84119e168bf8ae69d920c"}, {"lat": 38.88685916666667, "is_reserved": 0, "lon": -77.00066033333333, "fusion_lon": 0.0, "fusion_lat": 0.0, "is_disabled": 0, "type": "electric_scooter", "bike_id": "32d33181eaf9850409e40948e930d79f", "rental_uris": {"android": "https://dc.lft.to/lastmile_qr_scan", "ios": "https://dc.lft.to/lastmile_qr_scan"}, "name": "32d33181eaf9850409e40948e930d79f"}, {"lat": 38.91877683333333, "is_reserved": 0, "lon": -77.024722, "fusion_lon": 0.0, "fusion_lat": 0.0, "is_disabled": 0, "type": "electric_scooter", "bike_id": "2616b2d9185f42a75f73beb2eada57ca", "rental_uris": {"android": "https://dc.lft.to/lastmile_qr_scan", "ios": "https://dc.lft.to/lastmile_qr_scan"}, "name": "2616b2d9185f42a75f73beb2eada57ca"}, {"lat": 38.884001166666664, "is_reserved": 0, "lon": -77.0196165, "fusion_lon": 0.0, "fusion_lat": 0.0, "is_disabled": 0, "type": "electric_scooter", "bike_id": "7bedb5f725e6e460432675b980e10595", "rental_uris": {"android": "https://dc.lft.to/lastmile_qr_scan", "ios": "https://dc.lft.to/lastmile_qr_scan"}, "name": "7bedb5f725e6e460432675b980e10595"}, {"lat": 38.898456333333336, "is_reserved": 0, "lon": -76.94250966666667, "fusion_lon": 0.0, "fusion_lat": 0.0, "is_disabled": 0, "type": "electric_scooter", "bike_id": "152e24505711d57f9ea7ab74f7021c5f", "rental_uris": {"android": "https://dc.lft.to/lastmile_qr_scan", "ios": "https://dc.lft.to/lastmile_qr_scan"}, "name": "152e24505711d57f9ea7ab74f7021c5f"}, {"lat": 38.88846866666667, "is_reserved": 0, "lon": -76.92681616666667, "fusion_lon": 0.0, "fusion_lat": 0.0, "is_disabled": 0, "type": "electric_scooter", "bike_id": "5b6e2b44071eb01c34f717d9006d16ad", "rental_uris": {"android": "https://dc.lft.to/lastmile_qr_scan", "ios": "https://dc.lft.to/lastmile_qr_scan"}, "name": "5b6e2b44071eb01c34f717d9006d16ad"}, {"lat": 38.87863983333333, "is_reserved": 0, "lon": -76.96983316666666, "fusion_lon": 0.0, "fusion_lat": 0.0, "is_disabled": 0, "type": "electric_scooter", "bike_id": "a61092424ab8eadeb9f0044ac5bfb7b2", "rental_uris": {"android": "https://dc.lft.to/lastmile_qr_scan", "ios": "https://dc.lft.to/lastmile_qr_scan"}, "name": "a61092424ab8eadeb9f0044ac5bfb7b2"}, {"lat": 38.915694, "is_reserved": 0, "lon": -77.03186183333334, "fusion_lon": 0.0, "fusion_lat": 0.0, "is_disabled": 0, "type": "electric_scooter", "bike_id": "815ccb5fc8654153a937450e3dc9f1da", "rental_uris": {"android": "https://dc.lft.to/lastmile_qr_scan", "ios": "https://dc.lft.to/lastmile_qr_scan"}, "name": "815ccb5fc8654153a937450e3dc9f1da"}, {"lat": 38.875163666666666, "is_reserved": 0, "lon": -77.00076916666667, "fusion_lon": 0.0, "fusion_lat": 0.0, "is_disabled": 0, "type": "electric_scooter", "bike_id": "ec50978fec13eea717e919bc4a18b2ea", "rental_uris": {"android": "https://dc.lft.to/lastmile_qr_scan", "ios": "https://dc.lft.to/lastmile_qr_scan"}, "name": "ec50978fec13eea717e919bc4a18b2ea"}, {"lat": 38.90832416666667, "is_reserved": 0, "lon": -77.03644966666667, "fusion_lon": 0.0, "fusion_lat": 0.0, "is_disabled": 0, "type": "electric_scooter", "bike_id": "e53048a8b60d0048a1beaaf260234012", "rental_uris": {"android": "https://dc.lft.to/lastmile_qr_scan", "ios": "https://dc.lft.to/lastmile_qr_scan"}, "name": "e53048a8b60d0048a1beaaf260234012"}, {"lat": 38.9075665, "is_reserved": 0, "lon": -77.03604216666666, "fusion_lon": 0.0, "fusion_lat": 0.0, "is_disabled": 0, "type": "electric_scooter", "bike_id": "a236d1e96815085177d0fb09325a9b0a", "rental_uris": {"android": "https://dc.lft.to/lastmile_qr_scan", "ios": "https://dc.lft.to/lastmile_qr_scan"}, "name": "a236d1e96815085177d0fb09325a9b0a"}, {"lat": 38.8842705, "is_reserved": 0, "lon": -76.996965, "fusion_lon": 0.0, "fusion_lat": 0.0, "is_disabled": 0, "type": "electric_scooter", "bike_id": "e82a7b3276175af289691f119a3740c1", "rental_uris": {"android": "https://dc.lft.to/lastmile_qr_scan", "ios": "https://dc.lft.to/lastmile_qr_scan"}, "name": "e82a7b3276175af289691f119a3740c1"}, {"lat": 38.896189, "is_reserved": 0, "lon": -77.0224895, "fusion_lon": 0.0, "fusion_lat": 0.0, "is_disabled": 0, "type": "electric_scooter", "bike_id": "260379f67177c7a8668026fa78d5a723", "rental_uris": {"android": "https://dc.lft.to/lastmile_qr_scan", "ios": "https://dc.lft.to/lastmile_qr_scan"}, "name": "260379f67177c7a8668026fa78d5a723"}, {"lat": 38.938803, "is_reserved": 0, "lon": -77.03391766666667, "fusion_lon": 0.0, "fusion_lat": 0.0, "is_disabled": 0, "type": "electric_scooter", "bike_id": "d625dc02f902dfa14f2e93361de0dc1b", "rental_uris": {"android": "https://dc.lft.to/lastmile_qr_scan", "ios": "https://dc.lft.to/lastmile_qr_scan"}, "name": "d625dc02f902dfa14f2e93361de0dc1b"}, {"lat": 38.9072625, "is_reserved": 0, "lon": -77.0237145, "fusion_lon": 0.0, "fusion_lat": 0.0, "is_disabled": 0, "type": "electric_scooter", "bike_id": "18b532e08cff8d44b98eafce342bf553", "rental_uris": {"android": "https://dc.lft.to/lastmile_qr_scan", "ios": "https://dc.lft.to/lastmile_qr_scan"}, "name": "18b532e08cff8d44b98eafce342bf553"}, {"lat": 38.914372666666665, "is_reserved": 0, "lon": -77.0219045, "fusion_lon": 0.0, "fusion_lat": 0.0, "is_disabled": 0, "type": "electric_scooter", "bike_id": "09a88d3e557ad6e16db0dcdf2d040abe", "rental_uris": {"android": "https://dc.lft.to/lastmile_qr_scan", "ios": "https://dc.lft.to/lastmile_qr_scan"}, "name": "09a88d3e557ad6e16db0dcdf2d040abe"}, {"lat": 38.88259216666667, "is_reserved": 0, "lon": -76.93556183333334, "fusion_lon": 0.0, "fusion_lat": 0.0, "is_disabled": 0, "type": "electric_scooter", "bike_id": "7b907bd5a39aa7a0f10d1da0d864341e", "rental_uris": {"android": "https://dc.lft.to/lastmile_qr_scan", "ios": "https://dc.lft.to/lastmile_qr_scan"}, "name": "7b907bd5a39aa7a0f10d1da0d864341e"}, {"lat": 38.905864, "is_reserved": 0, "lon": -77.0570585, "fusion_lon": 0.0, "fusion_lat": 0.0, "is_disabled": 0, "type": "electric_scooter", "bike_id": "c61ffec0e6585f6d2719f51a9962d0a3", "rental_uris": {"android": "https://dc.lft.to/lastmile_qr_scan", "ios": "https://dc.lft.to/lastmile_qr_scan"}, "name": "c61ffec0e6585f6d2719f51a9962d0a3"}, {"lat": 38.908528, "is_reserved": 0, "lon": -76.99806566666666, "fusion_lon": 0.0, "fusion_lat": 0.0, "is_disabled": 0, "type": "electric_scooter", "bike_id": "a5fe7980e6d7203d0cd39f9f1957b042", "rental_uris": {"android": "https://dc.lft.to/lastmile_qr_scan", "ios": "https://dc.lft.to/lastmile_qr_scan"}, "name": "a5fe7980e6d7203d0cd39f9f1957b042"}, {"lat": 38.87659133333333, "is_reserved": 0, "lon": -77.0046095, "fusion_lon": 0.0, "fusion_lat": 0.0, "is_disabled": 0, "type": "electric_scooter", "bike_id": "d9e08e98519efee912eaf991825345b2", "rental_uris": {"android": "https://dc.lft.to/lastmile_qr_scan", "ios": "https://dc.lft.to/lastmile_qr_scan"}, "name": "d9e08e98519efee912eaf991825345b2"}, {"lat": 38.86006283333333, "is_reserved": 0, "lon": -76.99662116666667, "fusion_lon": 0.0, "fusion_lat": 0.0, "is_disabled": 0, "type": "electric_scooter", "bike_id": "6a1e5ce6c9fa444589f2b4634ab79e03", "rental_uris": {"android": "https://dc.lft.to/lastmile_qr_scan", "ios": "https://dc.lft.to/lastmile_qr_scan"}, "name": "6a1e5ce6c9fa444589f2b4634ab79e03"}, {"lat": 38.915962666666665, "is_reserved": 0, "lon": -77.02304, "fusion_lon": 0.0, "fusion_lat": 0.0, "is_disabled": 0, "type": "electric_scooter", "bike_id": "ee06ebe6e7fdf7b1f2f95e39cc4a55ff", "rental_uris": {"android": "https://dc.lft.to/lastmile_qr_scan", "ios": "https://dc.lft.to/lastmile_qr_scan"}, "name": "ee06ebe6e7fdf7b1f2f95e39cc4a55ff"}, {"lat": 38.90710383333333, "is_reserved": 0, "lon": -77.04584083333333, "fusion_lon": 0.0, "fusion_lat": 0.0, "is_disabled": 0, "type": "electric_scooter", "bike_id": "60018fd510ce8e1555d6b7fa9b1112bf", "rental_uris": {"android": "https://dc.lft.to/lastmile_qr_scan", "ios": "https://dc.lft.to/lastmile_qr_scan"}, "name": "60018fd510ce8e1555d6b7fa9b1112bf"}, {"lat": 38.946243833333334, "is_reserved": 0, "lon": -77.0183985, "fusion_lon": 0.0, "fusion_lat": 0.0, "is_disabled": 0, "type": "electric_scooter", "bike_id": "a868e560345ff6f6458f9c4d4f2b93eb", "rental_uris": {"android": "https://dc.lft.to/lastmile_qr_scan", "ios": "https://dc.lft.to/lastmile_qr_scan"}, "name": "a868e560345ff6f6458f9c4d4f2b93eb"}, {"lat": 38.89469, "is_reserved": 0, "lon": -77.02679416666666, "fusion_lon": 0.0, "fusion_lat": 0.0, "is_disabled": 0, "type": "electric_scooter", "bike_id": "1e7271e37a52909c94e5c8af7015d471", "rental_uris": {"android": "https://dc.lft.to/lastmile_qr_scan", "ios": "https://dc.lft.to/lastmile_qr_scan"}, "name": "1e7271e37a52909c94e5c8af7015d471"}, {"lat": 38.900122333333336, "is_reserved": 0, "lon": -77.04495183333333, "fusion_lon": 0.0, "fusion_lat": 0.0, "is_disabled": 0, "type": "electric_scooter", "bike_id": "d348b952832a9e88063cded96c7c8261", "rental_uris": {"android": "https://dc.lft.to/lastmile_qr_scan", "ios": "https://dc.lft.to/lastmile_qr_scan"}, "name": "d348b952832a9e88063cded96c7c8261"}, {"lat": 38.9335535, "is_reserved": 0, "lon": -77.02733333333333, "fusion_lon": 0.0, "fusion_lat": 0.0, "is_disabled": 0, "type": "electric_scooter", "bike_id": "88a522747cfa2f298041a73473753b89", "rental_uris": {"android": "https://dc.lft.to/lastmile_qr_scan", "ios": "https://dc.lft.to/lastmile_qr_scan"}, "name": "88a522747cfa2f298041a73473753b89"}, {"lat": 38.9023965, "is_reserved": 0, "lon": -77.0019765, "fusion_lon": 0.0, "fusion_lat": 0.0, "is_disabled": 0, "type": "electric_scooter", "bike_id": "c4e16722113a405cf36cf7192bcd0ecc", "rental_uris": {"android": "https://dc.lft.to/lastmile_qr_scan", "ios": "https://dc.lft.to/lastmile_qr_scan"}, "name": "c4e16722113a405cf36cf7192bcd0ecc"}, {"lat": 38.9337215, "is_reserved": 0, "lon": -77.07244883333334, "fusion_lon": 0.0, "fusion_lat": 0.0, "is_disabled": 0, "type": "electric_scooter", "bike_id": "8dd59c8216a9943ca1ee5892b90f2673", "rental_uris": {"android": "https://dc.lft.to/lastmile_qr_scan", "ios": "https://dc.lft.to/lastmile_qr_scan"}, "name": "8dd59c8216a9943ca1ee5892b90f2673"}, {"lat": 38.93360066666666, "is_reserved": 0, "lon": -77.057324, "fusion_lon": 0.0, "fusion_lat": 0.0, "is_disabled": 0, "type": "electric_scooter", "bike_id": "b07662fbe3fe43892c3db4ab456ff71b", "rental_uris": {"android": "https://dc.lft.to/lastmile_qr_scan", "ios": "https://dc.lft.to/lastmile_qr_scan"}, "name": "b07662fbe3fe43892c3db4ab456ff71b"}, {"lat": 38.901308666666665, "is_reserved": 0, "lon": -77.0294455, "fusion_lon": 0.0, "fusion_lat": 0.0, "is_disabled": 0, "type": "electric_scooter", "bike_id": "2c0dfb18c03a724c95fef49ae5afd22d", "rental_uris": {"android": "https://dc.lft.to/lastmile_qr_scan", "ios": "https://dc.lft.to/lastmile_qr_scan"}, "name": "2c0dfb18c03a724c95fef49ae5afd22d"}, {"lat": 38.9160745, "is_reserved": 0, "lon": -77.02179683333334, "fusion_lon": 0.0, "fusion_lat": 0.0, "is_disabled": 0, "type": "electric_scooter", "bike_id": "47c4fc5d7b9200b0a8189ea15fdd6092", "rental_uris": {"android": "https://dc.lft.to/lastmile_qr_scan", "ios": "https://dc.lft.to/lastmile_qr_scan"}, "name": "47c4fc5d7b9200b0a8189ea15fdd6092"}, {"lat": 38.8989625, "is_reserved": 0, "lon": -76.98959316666667, "fusion_lon": 0.0, "fusion_lat": 0.0, "is_disabled": 0, "type": "electric_bike", "bike_id": "4279d93040e1d05960ced11ede08a982", "rental_uris": {"android": "https://dc.lft.to/lastmile_qr_scan", "ios": "https://dc.lft.to/lastmile_qr_scan"}, "name": "4279d93040e1d05960ced11ede08a982"}, {"lat": 38.96552966666667, "is_reserved": 0, "lon": -77.00202866666666, "fusion_lon": 0.0, "fusion_lat": 0.0, "is_disabled": 0, "type": "electric_scooter", "bike_id": "e213600de4aff34d2488ca8d59bb3c49", "rental_uris": {"android": "https://dc.lft.to/lastmile_qr_scan", "ios": "https://dc.lft.to/lastmile_qr_scan"}, "name": "e213600de4aff34d2488ca8d59bb3c49"}, {"lat": 38.8940465, "is_reserved": 0, "lon": -77.04419933333334, "fusion_lon": 0.0, "fusion_lat": 0.0, "is_disabled": 0, "type": "electric_scooter", "bike_id": "4977f0ddf4b3112652eb5fa9c8ab70df", "rental_uris": {"android": "https://dc.lft.to/lastmile_qr_scan", "ios": "https://dc.lft.to/lastmile_qr_scan"}, "name": "4977f0ddf4b3112652eb5fa9c8ab70df"}, {"lat": 38.93993866666667, "is_reserved": 0, "lon": -77.01691766666667, "fusion_lon": 0.0, "fusion_lat": 0.0, "is_disabled": 0, "type": "electric_scooter", "bike_id": "ec79e7b6d56cdf33cc057df6b98ec56f", "rental_uris": {"android": "https://dc.lft.to/lastmile_qr_scan", "ios": "https://dc.lft.to/lastmile_qr_scan"}, "name": "ec79e7b6d56cdf33cc057df6b98ec56f"}, {"lat": 38.892209, "is_reserved": 0, "lon": -77.01385233333333, "fusion_lon": 0.0, "fusion_lat": 0.0, "is_disabled": 0, "type": "electric_scooter", "bike_id": "7cdedddbee03424e6490e9b59b01b01c", "rental_uris": {"android": "https://dc.lft.to/lastmile_qr_scan", "ios": "https://dc.lft.to/lastmile_qr_scan"}, "name": "7cdedddbee03424e6490e9b59b01b01c"}, {"lat": 38.914577666666666, "is_reserved": 0, "lon": -77.00211216666666, "fusion_lon": 0.0, "fusion_lat": 0.0, "is_disabled": 0, "type": "electric_scooter", "bike_id": "d43c4e8b6661100f467d2ae039975108", "rental_uris": {"android": "https://dc.lft.to/lastmile_qr_scan", "ios": "https://dc.lft.to/lastmile_qr_scan"}, "name": "d43c4e8b6661100f467d2ae039975108"}, {"lat": 38.899945, "is_reserved": 0, "lon": -76.98560116666667, "fusion_lon": 0.0, "fusion_lat": 0.0, "is_disabled": 0, "type": "electric_scooter", "bike_id": "6b8a24ea43c198686dac6058c860df30", "rental_uris": {"android": "https://dc.lft.to/lastmile_qr_scan", "ios": "https://dc.lft.to/lastmile_qr_scan"}, "name": "6b8a24ea43c198686dac6058c860df30"}, {"lat": 38.93226, "is_reserved": 0, "lon": -77.18123616666666, "fusion_lon": 0.0, "fusion_lat": 0.0, "is_disabled": 0, "type": "electric_bike", "bike_id": "2d8ae7cecd3d7c812e080e7f89aa512c", "rental_uris": {"android": "https://dc.lft.to/lastmile_qr_scan", "ios": "https://dc.lft.to/lastmile_qr_scan"}, "name": "2d8ae7cecd3d7c812e080e7f89aa512c"}, {"lat": 38.9068135, "is_reserved": 0, "lon": -76.98002883333334, "fusion_lon": 0.0, "fusion_lat": 0.0, "is_disabled": 0, "type": "electric_scooter", "bike_id": "be7457e9c3558c990e19bcb3d822dde4", "rental_uris": {"android": "https://dc.lft.to/lastmile_qr_scan", "ios": "https://dc.lft.to/lastmile_qr_scan"}, "name": "be7457e9c3558c990e19bcb3d822dde4"}, {"lat": 38.873745, "is_reserved": 0, "lon": -77.00116533333333, "fusion_lon": 0.0, "fusion_lat": 0.0, "is_disabled": 0, "type": "electric_scooter", "bike_id": "17d722a3b2471103d7791d09f42646d7", "rental_uris": {"android": "https://dc.lft.to/lastmile_qr_scan", "ios": "https://dc.lft.to/lastmile_qr_scan"}, "name": "17d722a3b2471103d7791d09f42646d7"}, {"lat": 38.931084166666665, "is_reserved": 0, "lon": -77.02480933333334, "fusion_lon": 0.0, "fusion_lat": 0.0, "is_disabled": 0, "type": "electric_scooter", "bike_id": "e2a8123e37660510f6b7043764d749a3", "rental_uris": {"android": "https://dc.lft.to/lastmile_qr_scan", "ios": "https://dc.lft.to/lastmile_qr_scan"}, "name": "e2a8123e37660510f6b7043764d749a3"}, {"lat": 38.905106333333336, "is_reserved": 0, "lon": -77.00133016666666, "fusion_lon": 0.0, "fusion_lat": 0.0, "is_disabled": 0, "type": "electric_scooter", "bike_id": "1cb01f0bd35af758a18e6b4ca5c02b8a", "rental_uris": {"android": "https://dc.lft.to/lastmile_qr_scan", "ios": "https://dc.lft.to/lastmile_qr_scan"}, "name": "1cb01f0bd35af758a18e6b4ca5c02b8a"}, {"lat": 38.885245, "is_reserved": 0, "lon": -76.95622083333333, "fusion_lon": 0.0, "fusion_lat": 0.0, "is_disabled": 0, "type": "electric_bike", "bike_id": "268538295fb42792e6425f33a9843b21", "rental_uris": {"android": "https://dc.lft.to/lastmile_qr_scan", "ios": "https://dc.lft.to/lastmile_qr_scan"}, "name": "268538295fb42792e6425f33a9843b21"}, {"lat": 38.92909433333333, "is_reserved": 0, "lon": -77.02366516666666, "fusion_lon": 0.0, "fusion_lat": 0.0, "is_disabled": 0, "type": "electric_scooter", "bike_id": "74afee6fdfc9d075f269d95d2eea60d7", "rental_uris": {"android": "https://dc.lft.to/lastmile_qr_scan", "ios": "https://dc.lft.to/lastmile_qr_scan"}, "name": "74afee6fdfc9d075f269d95d2eea60d7"}, {"lat": 38.881354333333334, "is_reserved": 0, "lon": -77.01662383333333, "fusion_lon": 0.0, "fusion_lat": 0.0, "is_disabled": 0, "type": "electric_scooter", "bike_id": "1b0d6ed85fdba7c8a7d22c2fe0790f83", "rental_uris": {"android": "https://dc.lft.to/lastmile_qr_scan", "ios": "https://dc.lft.to/lastmile_qr_scan"}, "name": "1b0d6ed85fdba7c8a7d22c2fe0790f83"}, {"lat": 38.910251333333335, "is_reserved": 0, "lon": -77.03305616666667, "fusion_lon": 0.0, "fusion_lat": 0.0, "is_disabled": 0, "type": "electric_scooter", "bike_id": "7522c2382f378e2ebf3309fb777a2ca6", "rental_uris": {"android": "https://dc.lft.to/lastmile_qr_scan", "ios": "https://dc.lft.to/lastmile_qr_scan"}, "name": "7522c2382f378e2ebf3309fb777a2ca6"}, {"lat": 38.90016933333333, "is_reserved": 0, "lon": -77.04324116666666, "fusion_lon": 0.0, "fusion_lat": 0.0, "is_disabled": 0, "type": "electric_scooter", "bike_id": "9948762914df26a02dd01efd1ae09588", "rental_uris": {"android": "https://dc.lft.to/lastmile_qr_scan", "ios": "https://dc.lft.to/lastmile_qr_scan"}, "name": "9948762914df26a02dd01efd1ae09588"}, {"lat": 38.908701666666666, "is_reserved": 0, "lon": -77.04684883333333, "fusion_lon": 0.0, "fusion_lat": 0.0, "is_disabled": 0, "type": "electric_scooter", "bike_id": "e2af54eeca94b7a8610b9dd2e2abf9b7", "rental_uris": {"android": "https://dc.lft.to/lastmile_qr_scan", "ios": "https://dc.lft.to/lastmile_qr_scan"}, "name": "e2af54eeca94b7a8610b9dd2e2abf9b7"}, {"lat": 38.860316833333336, "is_reserved": 0, "lon": -76.96709316666667, "fusion_lon": 0.0, "fusion_lat": 0.0, "is_disabled": 0, "type": "electric_scooter", "bike_id": "1644ad335567ce4bdbc8f8d20502930a", "rental_uris": {"android": "https://dc.lft.to/lastmile_qr_scan", "ios": "https://dc.lft.to/lastmile_qr_scan"}, "name": "1644ad335567ce4bdbc8f8d20502930a"}, {"lat": 38.933656666666664, "is_reserved": 0, "lon": -77.05731233333333, "fusion_lon": 0.0, "fusion_lat": 0.0, "is_disabled": 0, "type": "electric_scooter", "bike_id": "f8bbaebc03313b236b372d6fa6989618", "rental_uris": {"android": "https://dc.lft.to/lastmile_qr_scan", "ios": "https://dc.lft.to/lastmile_qr_scan"}, "name": "f8bbaebc03313b236b372d6fa6989618"}, {"lat": 38.89846383333333, "is_reserved": 0, "lon": -77.01213666666666, "fusion_lon": 0.0, "fusion_lat": 0.0, "is_disabled": 0, "type": "electric_scooter", "bike_id": "ca397db6d8a8993b5997253a0ad22f96", "rental_uris": {"android": "https://dc.lft.to/lastmile_qr_scan", "ios": "https://dc.lft.to/lastmile_qr_scan"}, "name": "ca397db6d8a8993b5997253a0ad22f96"}, {"lat": 38.90961633333333, "is_reserved": 0, "lon": -77.02559483333333, "fusion_lon": 0.0, "fusion_lat": 0.0, "is_disabled": 0, "type": "electric_scooter", "bike_id": "b8734da57a4019ce7b0892acb91aa50e", "rental_uris": {"android": "https://dc.lft.to/lastmile_qr_scan", "ios": "https://dc.lft.to/lastmile_qr_scan"}, "name": "b8734da57a4019ce7b0892acb91aa50e"}, {"lat": 38.8763015, "is_reserved": 0, "lon": -77.005708, "fusion_lon": 0.0, "fusion_lat": 0.0, "is_disabled": 0, "type": "electric_scooter", "bike_id": "b7d0150cf71dce1a1e24b07931221502", "rental_uris": {"android": "https://dc.lft.to/lastmile_qr_scan", "ios": "https://dc.lft.to/lastmile_qr_scan"}, "name": "b7d0150cf71dce1a1e24b07931221502"}, {"lat": 38.844703833333334, "is_reserved": 0, "lon": -76.97854933333333, "fusion_lon": 0.0, "fusion_lat": 0.0, "is_disabled": 0, "type": "electric_bike", "bike_id": "0ed95bab2bfb3b6380f591a8326be441", "rental_uris": {"android": "https://dc.lft.to/lastmile_qr_scan", "ios": "https://dc.lft.to/lastmile_qr_scan"}, "name": "0ed95bab2bfb3b6380f591a8326be441"}, {"lat": 38.96677866666667, "is_reserved": 0, "lon": -77.02249816666667, "fusion_lon": 0.0, "fusion_lat": 0.0, "is_disabled": 0, "type": "electric_bike", "bike_id": "41222ca163fd60f3d9e4385cd2a54b8f", "rental_uris": {"android": "https://dc.lft.to/lastmile_qr_scan", "ios": "https://dc.lft.to/lastmile_qr_scan"}, "name": "41222ca163fd60f3d9e4385cd2a54b8f"}, {"lat": 38.84276216666667, "is_reserved": 0, "lon": -76.98844166666666, "fusion_lon": 0.0, "fusion_lat": 0.0, "is_disabled": 0, "type": "electric_bike", "bike_id": "13a4d367f097be104e7ee97b709ca6fa", "rental_uris": {"android": "https://dc.lft.to/lastmile_qr_scan", "ios": "https://dc.lft.to/lastmile_qr_scan"}, "name": "13a4d367f097be104e7ee97b709ca6fa"}, {"lat": 38.90610016666667, "is_reserved": 0, "lon": -77.0565695, "fusion_lon": 0.0, "fusion_lat": 0.0, "is_disabled": 0, "type": "electric_scooter", "bike_id": "4290ac319884d0e9dbe64e805764e84f", "rental_uris": {"android": "https://dc.lft.to/lastmile_qr_scan", "ios": "https://dc.lft.to/lastmile_qr_scan"}, "name": "4290ac319884d0e9dbe64e805764e84f"}, {"lat": 38.89462783333333, "is_reserved": 0, "lon": -77.00346016666667, "fusion_lon": 0.0, "fusion_lat": 0.0, "is_disabled": 0, "type": "electric_scooter", "bike_id": "d74c1c11735d704d1ac70ce774c896a3", "rental_uris": {"android": "https://dc.lft.to/lastmile_qr_scan", "ios": "https://dc.lft.to/lastmile_qr_scan"}, "name": "d74c1c11735d704d1ac70ce774c896a3"}, {"lat": 38.911289, "is_reserved": 0, "lon": -77.03739066666667, "fusion_lon": 0.0, "fusion_lat": 0.0, "is_disabled": 0, "type": "electric_scooter", "bike_id": "da1087207ccaa1229e909c639f3529d7", "rental_uris": {"android": "https://dc.lft.to/lastmile_qr_scan", "ios": "https://dc.lft.to/lastmile_qr_scan"}, "name": "da1087207ccaa1229e909c639f3529d7"}, {"lat": 38.9029765, "is_reserved": 0, "lon": -77.03331083333333, "fusion_lon": 0.0, "fusion_lat": 0.0, "is_disabled": 0, "type": "electric_scooter", "bike_id": "25c5ab133b6a8bebe272a3303b3bfb34", "rental_uris": {"android": "https://dc.lft.to/lastmile_qr_scan", "ios": "https://dc.lft.to/lastmile_qr_scan"}, "name": "25c5ab133b6a8bebe272a3303b3bfb34"}, {"lat": 38.879224, "is_reserved": 0, "lon": -76.99517683333333, "fusion_lon": 0.0, "fusion_lat": 0.0, "is_disabled": 0, "type": "electric_scooter", "bike_id": "655fe49869d522784099f15d826b2664", "rental_uris": {"android": "https://dc.lft.to/lastmile_qr_scan", "ios": "https://dc.lft.to/lastmile_qr_scan"}, "name": "655fe49869d522784099f15d826b2664"}, {"lat": 38.92232966666667, "is_reserved": 0, "lon": -77.00845683333333, "fusion_lon": 0.0, "fusion_lat": 0.0, "is_disabled": 0, "type": "electric_scooter", "bike_id": "25e227532929d5c941fd001ed1c6fcdc", "rental_uris": {"android": "https://dc.lft.to/lastmile_qr_scan", "ios": "https://dc.lft.to/lastmile_qr_scan"}, "name": "25e227532929d5c941fd001ed1c6fcdc"}, {"lat": 38.895372, "is_reserved": 0, "lon": -77.019994, "fusion_lon": 0.0, "fusion_lat": 0.0, "is_disabled": 0, "type": "electric_scooter", "bike_id": "c2d04832a136c521466ec0ee115cda04", "rental_uris": {"android": "https://dc.lft.to/lastmile_qr_scan", "ios": "https://dc.lft.to/lastmile_qr_scan"}, "name": "c2d04832a136c521466ec0ee115cda04"}, {"lat": 38.89522133333333, "is_reserved": 0, "lon": -77.044754, "fusion_lon": 0.0, "fusion_lat": 0.0, "is_disabled": 0, "type": "electric_scooter", "bike_id": "415410d685eab37c6e92d69e89fcc2c8", "rental_uris": {"android": "https://dc.lft.to/lastmile_qr_scan", "ios": "https://dc.lft.to/lastmile_qr_scan"}, "name": "415410d685eab37c6e92d69e89fcc2c8"}, {"lat": 38.90145483333333, "is_reserved": 0, "lon": -76.9979855, "fusion_lon": 0.0, "fusion_lat": 0.0, "is_disabled": 0, "type": "electric_scooter", "bike_id": "f4b70013c536f5c82f9f43b75833bedb", "rental_uris": {"android": "https://dc.lft.to/lastmile_qr_scan", "ios": "https://dc.lft.to/lastmile_qr_scan"}, "name": "f4b70013c536f5c82f9f43b75833bedb"}, {"lat": 38.918378, "is_reserved": 0, "lon": -77.04177483333333, "fusion_lon": 0.0, "fusion_lat": 0.0, "is_disabled": 0, "type": "electric_scooter", "bike_id": "3a72eae3e78f59c679596478a8977851", "rental_uris": {"android": "https://dc.lft.to/lastmile_qr_scan", "ios": "https://dc.lft.to/lastmile_qr_scan"}, "name": "3a72eae3e78f59c679596478a8977851"}, {"lat": 38.949962666666664, "is_reserved": 0, "lon": -77.0218855, "fusion_lon": 0.0, "fusion_lat": 0.0, "is_disabled": 0, "type": "electric_scooter", "bike_id": "38858e3748942b9323e3b41a2413003d", "rental_uris": {"android": "https://dc.lft.to/lastmile_qr_scan", "ios": "https://dc.lft.to/lastmile_qr_scan"}, "name": "38858e3748942b9323e3b41a2413003d"}, {"lat": 38.89243316666666, "is_reserved": 0, "lon": -77.05026466666666, "fusion_lon": 0.0, "fusion_lat": 0.0, "is_disabled": 0, "type": "electric_scooter", "bike_id": "bc713f29806aacc75fb0370143eb9061", "rental_uris": {"android": "https://dc.lft.to/lastmile_qr_scan", "ios": "https://dc.lft.to/lastmile_qr_scan"}, "name": "bc713f29806aacc75fb0370143eb9061"}, {"lat": 38.892233, "is_reserved": 0, "lon": -77.04365, "fusion_lon": 0.0, "fusion_lat": 0.0, "is_disabled": 0, "type": "electric_scooter", "bike_id": "3f9aea0bd2f1d3723ca1a9fc6b355fab", "rental_uris": {"android": "https://dc.lft.to/lastmile_qr_scan", "ios": "https://dc.lft.to/lastmile_qr_scan"}, "name": "3f9aea0bd2f1d3723ca1a9fc6b355fab"}, {"lat": 38.8861675, "is_reserved": 0, "lon": -76.9558435, "fusion_lon": 0.0, "fusion_lat": 0.0, "is_disabled": 0, "type": "electric_scooter", "bike_id": "863f7cb1950a776ca650c3cc34c8851f", "rental_uris": {"android": "https://dc.lft.to/lastmile_qr_scan", "ios": "https://dc.lft.to/lastmile_qr_scan"}, "name": "863f7cb1950a776ca650c3cc34c8851f"}, {"lat": 38.9041175, "is_reserved": 0, "lon": -77.04351283333334, "fusion_lon": 0.0, "fusion_lat": 0.0, "is_disabled": 0, "type": "electric_scooter", "bike_id": "594462e4cf4e8444645ef4c970d57c12", "rental_uris": {"android": "https://dc.lft.to/lastmile_qr_scan", "ios": "https://dc.lft.to/lastmile_qr_scan"}, "name": "594462e4cf4e8444645ef4c970d57c12"}, {"lat": 38.9226365, "is_reserved": 0, "lon": -77.0389355, "fusion_lon": 0.0, "fusion_lat": 0.0, "is_disabled": 0, "type": "electric_scooter", "bike_id": "4d735276824199be7b5203488723ab6b", "rental_uris": {"android": "https://dc.lft.to/lastmile_qr_scan", "ios": "https://dc.lft.to/lastmile_qr_scan"}, "name": "4d735276824199be7b5203488723ab6b"}, {"lat": 38.92735783333333, "is_reserved": 0, "lon": -76.995578, "fusion_lon": 0.0, "fusion_lat": 0.0, "is_disabled": 0, "type": "electric_scooter", "bike_id": "cc400f57efb4c420e3e592e1bb8533f0", "rental_uris": {"android": "https://dc.lft.to/lastmile_qr_scan", "ios": "https://dc.lft.to/lastmile_qr_scan"}, "name": "cc400f57efb4c420e3e592e1bb8533f0"}, {"lat": 38.92702233333333, "is_reserved": 0, "lon": -77.03630583333333, "fusion_lon": 0.0, "fusion_lat": 0.0, "is_disabled": 0, "type": "electric_scooter", "bike_id": "872db7f5c26f5aca4c5e45521ae8a2b2", "rental_uris": {"android": "https://dc.lft.to/lastmile_qr_scan", "ios": "https://dc.lft.to/lastmile_qr_scan"}, "name": "872db7f5c26f5aca4c5e45521ae8a2b2"}, {"lat": 38.9010695, "is_reserved": 0, "lon": -77.0705845, "fusion_lon": 0.0, "fusion_lat": 0.0, "is_disabled": 0, "type": "electric_scooter", "bike_id": "a229543879b495b4318ecc3ec4942a77", "rental_uris": {"android": "https://dc.lft.to/lastmile_qr_scan", "ios": "https://dc.lft.to/lastmile_qr_scan"}, "name": "a229543879b495b4318ecc3ec4942a77"}, {"lat": 38.919172333333336, "is_reserved": 0, "lon": -77.02619783333333, "fusion_lon": 0.0, "fusion_lat": 0.0, "is_disabled": 0, "type": "electric_scooter", "bike_id": "55d802ec959e9d2d46d1ed84af0cc3d1", "rental_uris": {"android": "https://dc.lft.to/lastmile_qr_scan", "ios": "https://dc.lft.to/lastmile_qr_scan"}, "name": "55d802ec959e9d2d46d1ed84af0cc3d1"}, {"lat": 38.9068325, "is_reserved": 0, "lon": -76.98671883333333, "fusion_lon": 0.0, "fusion_lat": 0.0, "is_disabled": 0, "type": "electric_scooter", "bike_id": "c9e95fa96d90e0e1c1c8855b17949683", "rental_uris": {"android": "https://dc.lft.to/lastmile_qr_scan", "ios": "https://dc.lft.to/lastmile_qr_scan"}, "name": "c9e95fa96d90e0e1c1c8855b17949683"}, {"lat": 38.90264633333334, "is_reserved": 0, "lon": -77.03065533333333, "fusion_lon": 0.0, "fusion_lat": 0.0, "is_disabled": 0, "type": "electric_scooter", "bike_id": "8ad37ab40f23202d74f962b75a623990", "rental_uris": {"android": "https://dc.lft.to/lastmile_qr_scan", "ios": "https://dc.lft.to/lastmile_qr_scan"}, "name": "8ad37ab40f23202d74f962b75a623990"}, {"lat": 38.904728166666665, "is_reserved": 0, "lon": -77.02719766666667, "fusion_lon": 0.0, "fusion_lat": 0.0, "is_disabled": 0, "type": "electric_scooter", "bike_id": "20550f35a121611d2a6c385edac192f2", "rental_uris": {"android": "https://dc.lft.to/lastmile_qr_scan", "ios": "https://dc.lft.to/lastmile_qr_scan"}, "name": "20550f35a121611d2a6c385edac192f2"}, {"lat": 38.978551, "is_reserved": 0, "lon": -76.94045566666667, "fusion_lon": 0.0, "fusion_lat": 0.0, "is_disabled": 0, "type": "electric_bike", "bike_id": "baa6d0ee55205099c3fd37e61b21c88c", "rental_uris": {"android": "https://dc.lft.to/lastmile_qr_scan", "ios": "https://dc.lft.to/lastmile_qr_scan"}, "name": "baa6d0ee55205099c3fd37e61b21c88c"}, {"lat": 38.915442166666665, "is_reserved": 0, "lon": -77.02399066666666, "fusion_lon": 0.0, "fusion_lat": 0.0, "is_disabled": 0, "type": "electric_scooter", "bike_id": "a94488fa2aa5083c295c949f37859f67", "rental_uris": {"android": "https://dc.lft.to/lastmile_qr_scan", "ios": "https://dc.lft.to/lastmile_qr_scan"}, "name": "a94488fa2aa5083c295c949f37859f67"}, {"lat": 38.91930033333333, "is_reserved": 0, "lon": -77.04550066666667, "fusion_lon": 0.0, "fusion_lat": 0.0, "is_disabled": 0, "type": "electric_scooter", "bike_id": "474a626f1e40dafb1dbc60e42157d936", "rental_uris": {"android": "https://dc.lft.to/lastmile_qr_scan", "ios": "https://dc.lft.to/lastmile_qr_scan"}, "name": "474a626f1e40dafb1dbc60e42157d936"}, {"lat": 38.866990666666666, "is_reserved": 0, "lon": -76.987082, "fusion_lon": 0.0, "fusion_lat": 0.0, "is_disabled": 0, "type": "electric_scooter", "bike_id": "a95413ad54c616592e7458cd7d6b60a6", "rental_uris": {"android": "https://dc.lft.to/lastmile_qr_scan", "ios": "https://dc.lft.to/lastmile_qr_scan"}, "name": "a95413ad54c616592e7458cd7d6b60a6"}, {"lat": 38.89869383333333, "is_reserved": 0, "lon": -76.94638016666667, "fusion_lon": 0.0, "fusion_lat": 0.0, "is_disabled": 0, "type": "electric_scooter", "bike_id": "6cb8d61ba1cf897c1268411fd149b813", "rental_uris": {"android": "https://dc.lft.to/lastmile_qr_scan", "ios": "https://dc.lft.to/lastmile_qr_scan"}, "name": "6cb8d61ba1cf897c1268411fd149b813"}, {"lat": 38.903497, "is_reserved": 0, "lon": -77.04508883333334, "fusion_lon": 0.0, "fusion_lat": 0.0, "is_disabled": 0, "type": "electric_scooter", "bike_id": "7c3e121616770a6d605c8f93f3490169", "rental_uris": {"android": "https://dc.lft.to/lastmile_qr_scan", "ios": "https://dc.lft.to/lastmile_qr_scan"}, "name": "7c3e121616770a6d605c8f93f3490169"}, {"lat": 38.88827933333334, "is_reserved": 0, "lon": -77.04939866666666, "fusion_lon": 0.0, "fusion_lat": 0.0, "is_disabled": 0, "type": "electric_scooter", "bike_id": "afa845aa09d407866bf316e720052990", "rental_uris": {"android": "https://dc.lft.to/lastmile_qr_scan", "ios": "https://dc.lft.to/lastmile_qr_scan"}, "name": "afa845aa09d407866bf316e720052990"}, {"lat": 38.918965, "is_reserved": 0, "lon": -77.04160883333333, "fusion_lon": 0.0, "fusion_lat": 0.0, "is_disabled": 0, "type": "electric_scooter", "bike_id": "63ddb2f589e48dd0b1f6cfd33c0cf344", "rental_uris": {"android": "https://dc.lft.to/lastmile_qr_scan", "ios": "https://dc.lft.to/lastmile_qr_scan"}, "name": "63ddb2f589e48dd0b1f6cfd33c0cf344"}, {"lat": 38.902462666666665, "is_reserved": 0, "lon": -76.93761116666667, "fusion_lon": 0.0, "fusion_lat": 0.0, "is_disabled": 0, "type": "electric_scooter", "bike_id": "36555754880ea97b82f7cb72b5fe59dc", "rental_uris": {"android": "https://dc.lft.to/lastmile_qr_scan", "ios": "https://dc.lft.to/lastmile_qr_scan"}, "name": "36555754880ea97b82f7cb72b5fe59dc"}, {"lat": 38.94120266666667, "is_reserved": 0, "lon": -77.0190675, "fusion_lon": 0.0, "fusion_lat": 0.0, "is_disabled": 0, "type": "electric_scooter", "bike_id": "e213c1067b1b6b6b4ae9ac3f03eef969", "rental_uris": {"android": "https://dc.lft.to/lastmile_qr_scan", "ios": "https://dc.lft.to/lastmile_qr_scan"}, "name": "e213c1067b1b6b6b4ae9ac3f03eef969"}, {"lat": 38.99526766666666, "is_reserved": 0, "lon": -77.069476, "fusion_lon": 0.0, "fusion_lat": 0.0, "is_disabled": 0, "type": "electric_bike", "bike_id": "9ab1fb4f7177a21f7835d6c01fb50127", "rental_uris": {"android": "https://dc.lft.to/lastmile_qr_scan", "ios": "https://dc.lft.to/lastmile_qr_scan"}, "name": "9ab1fb4f7177a21f7835d6c01fb50127"}, {"lat": 38.907657, "is_reserved": 0, "lon": -77.0022765, "fusion_lon": 0.0, "fusion_lat": 0.0, "is_disabled": 0, "type": "electric_scooter", "bike_id": "233f88b3492c5dad03513babc3e3a3e7", "rental_uris": {"android": "https://dc.lft.to/lastmile_qr_scan", "ios": "https://dc.lft.to/lastmile_qr_scan"}, "name": "233f88b3492c5dad03513babc3e3a3e7"}, {"lat": 38.83888966666667, "is_reserved": 0, "lon": -77.0006375, "fusion_lon": 0.0, "fusion_lat": 0.0, "is_disabled": 0, "type": "electric_scooter", "bike_id": "8d72a6e7cbda0b0e3409b94b2647fd2e", "rental_uris": {"android": "https://dc.lft.to/lastmile_qr_scan", "ios": "https://dc.lft.to/lastmile_qr_scan"}, "name": "8d72a6e7cbda0b0e3409b94b2647fd2e"}, {"lat": 38.92091, "is_reserved": 0, "lon": -77.02307566666667, "fusion_lon": 0.0, "fusion_lat": 0.0, "is_disabled": 0, "type": "electric_scooter", "bike_id": "66c5e82fab9fe227cc93ca64b8c03e12", "rental_uris": {"android": "https://dc.lft.to/lastmile_qr_scan", "ios": "https://dc.lft.to/lastmile_qr_scan"}, "name": "66c5e82fab9fe227cc93ca64b8c03e12"}, {"lat": 38.906669666666666, "is_reserved": 0, "lon": -77.02370383333333, "fusion_lon": 0.0, "fusion_lat": 0.0, "is_disabled": 0, "type": "electric_scooter", "bike_id": "c66311da3b079a6df61e614851808aff", "rental_uris": {"android": "https://dc.lft.to/lastmile_qr_scan", "ios": "https://dc.lft.to/lastmile_qr_scan"}, "name": "c66311da3b079a6df61e614851808aff"}, {"lat": 38.92082116666667, "is_reserved": 0, "lon": -77.02385233333334, "fusion_lon": 0.0, "fusion_lat": 0.0, "is_disabled": 0, "type": "electric_scooter", "bike_id": "e48619b219d8a3b563c690eea52f15b5", "rental_uris": {"android": "https://dc.lft.to/lastmile_qr_scan", "ios": "https://dc.lft.to/lastmile_qr_scan"}, "name": "e48619b219d8a3b563c690eea52f15b5"}, {"lat": 38.90017183333333, "is_reserved": 0, "lon": -76.98766466666666, "fusion_lon": 0.0, "fusion_lat": 0.0, "is_disabled": 0, "type": "electric_scooter", "bike_id": "b48f1ec7fb368d6ae55c274c1b440861", "rental_uris": {"android": "https://dc.lft.to/lastmile_qr_scan", "ios": "https://dc.lft.to/lastmile_qr_scan"}, "name": "b48f1ec7fb368d6ae55c274c1b440861"}, {"lat": 38.898687, "is_reserved": 0, "lon": -77.04678266666667, "fusion_lon": 0.0, "fusion_lat": 0.0, "is_disabled": 0, "type": "electric_scooter", "bike_id": "9fe114f3e7ce2c554c0b19b2ce8fc153", "rental_uris": {"android": "https://dc.lft.to/lastmile_qr_scan", "ios": "https://dc.lft.to/lastmile_qr_scan"}, "name": "9fe114f3e7ce2c554c0b19b2ce8fc153"}, {"lat": 38.8983135, "is_reserved": 0, "lon": -77.0333315, "fusion_lon": 0.0, "fusion_lat": 0.0, "is_disabled": 0, "type": "electric_scooter", "bike_id": "6966b3100f6ed5f5ac802ec5870c4deb", "rental_uris": {"android": "https://dc.lft.to/lastmile_qr_scan", "ios": "https://dc.lft.to/lastmile_qr_scan"}, "name": "6966b3100f6ed5f5ac802ec5870c4deb"}, {"lat": 38.87542166666667, "is_reserved": 0, "lon": -77.00533316666667, "fusion_lon": 0.0, "fusion_lat": 0.0, "is_disabled": 0, "type": "electric_scooter", "bike_id": "711bb9930f6a7eacfaea6f2021e78cec", "rental_uris": {"android": "https://dc.lft.to/lastmile_qr_scan", "ios": "https://dc.lft.to/lastmile_qr_scan"}, "name": "711bb9930f6a7eacfaea6f2021e78cec"}, {"lat": 38.936004833333335, "is_reserved": 0, "lon": -77.05886316666667, "fusion_lon": 0.0, "fusion_lat": 0.0, "is_disabled": 0, "type": "electric_scooter", "bike_id": "8e6cfbdfe7621d6aa13ce2be36525f9e", "rental_uris": {"android": "https://dc.lft.to/lastmile_qr_scan", "ios": "https://dc.lft.to/lastmile_qr_scan"}, "name": "8e6cfbdfe7621d6aa13ce2be36525f9e"}, {"lat": 38.93578316666667, "is_reserved": 0, "lon": -77.032611, "fusion_lon": 0.0, "fusion_lat": 0.0, "is_disabled": 0, "type": "electric_scooter", "bike_id": "73a134e0d8b24f5d8b87a25af63573b9", "rental_uris": {"android": "https://dc.lft.to/lastmile_qr_scan", "ios": "https://dc.lft.to/lastmile_qr_scan"}, "name": "73a134e0d8b24f5d8b87a25af63573b9"}, {"lat": 38.904659, "is_reserved": 0, "lon": -77.01937483333333, "fusion_lon": 0.0, "fusion_lat": 0.0, "is_disabled": 0, "type": "electric_scooter", "bike_id": "af06714ca339596396300598dc874ca5", "rental_uris": {"android": "https://dc.lft.to/lastmile_qr_scan", "ios": "https://dc.lft.to/lastmile_qr_scan"}, "name": "af06714ca339596396300598dc874ca5"}, {"lat": 38.88736883333333, "is_reserved": 0, "lon": -77.01531183333333, "fusion_lon": 0.0, "fusion_lat": 0.0, "is_disabled": 0, "type": "electric_scooter", "bike_id": "9da8784fc2a2ff4458014ecd92d26873", "rental_uris": {"android": "https://dc.lft.to/lastmile_qr_scan", "ios": "https://dc.lft.to/lastmile_qr_scan"}, "name": "9da8784fc2a2ff4458014ecd92d26873"}, {"lat": 38.9141895, "is_reserved": 0, "lon": -77.01992283333334, "fusion_lon": 0.0, "fusion_lat": 0.0, "is_disabled": 0, "type": "electric_scooter", "bike_id": "06009b5a1cd889e111d378c113700f60", "rental_uris": {"android": "https://dc.lft.to/lastmile_qr_scan", "ios": "https://dc.lft.to/lastmile_qr_scan"}, "name": "06009b5a1cd889e111d378c113700f60"}, {"lat": 38.8871775, "is_reserved": 0, "lon": -77.00194016666667, "fusion_lon": 0.0, "fusion_lat": 0.0, "is_disabled": 0, "type": "electric_scooter", "bike_id": "b1aec1740fdb0966e0281c7f51401c2d", "rental_uris": {"android": "https://dc.lft.to/lastmile_qr_scan", "ios": "https://dc.lft.to/lastmile_qr_scan"}, "name": "b1aec1740fdb0966e0281c7f51401c2d"}, {"lat": 38.930535166666665, "is_reserved": 0, "lon": -77.03631866666667, "fusion_lon": 0.0, "fusion_lat": 0.0, "is_disabled": 0, "type": "electric_scooter", "bike_id": "2e2914bd1fd3adbfdf4d15217cbeaf71", "rental_uris": {"android": "https://dc.lft.to/lastmile_qr_scan", "ios": "https://dc.lft.to/lastmile_qr_scan"}, "name": "2e2914bd1fd3adbfdf4d15217cbeaf71"}, {"lat": 38.88042566666667, "is_reserved": 0, "lon": -77.01981316666667, "fusion_lon": 0.0, "fusion_lat": 0.0, "is_disabled": 0, "type": "electric_scooter", "bike_id": "104d9b34ca9c763c5948d37cc2768494", "rental_uris": {"android": "https://dc.lft.to/lastmile_qr_scan", "ios": "https://dc.lft.to/lastmile_qr_scan"}, "name": "104d9b34ca9c763c5948d37cc2768494"}, {"lat": 38.9210775, "is_reserved": 0, "lon": -77.01807616666666, "fusion_lon": 0.0, "fusion_lat": 0.0, "is_disabled": 0, "type": "electric_scooter", "bike_id": "e9e3d287102e4e75113a4c8d2fc44b5f", "rental_uris": {"android": "https://dc.lft.to/lastmile_qr_scan", "ios": "https://dc.lft.to/lastmile_qr_scan"}, "name": "e9e3d287102e4e75113a4c8d2fc44b5f"}, {"lat": 38.967380666666664, "is_reserved": 0, "lon": -76.96045383333333, "fusion_lon": 0.0, "fusion_lat": 0.0, "is_disabled": 0, "type": "electric_bike", "bike_id": "70d3642498b512d662e3669f473a459e", "rental_uris": {"android": "https://dc.lft.to/lastmile_qr_scan", "ios": "https://dc.lft.to/lastmile_qr_scan"}, "name": "70d3642498b512d662e3669f473a459e"}, {"lat": 38.86373483333333, "is_reserved": 0, "lon": -76.99060966666667, "fusion_lon": 0.0, "fusion_lat": 0.0, "is_disabled": 0, "type": "electric_scooter", "bike_id": "9567a5ebb52a94e621423921c8e48493", "rental_uris": {"android": "https://dc.lft.to/lastmile_qr_scan", "ios": "https://dc.lft.to/lastmile_qr_scan"}, "name": "9567a5ebb52a94e621423921c8e48493"}, {"lat": 38.914111166666665, "is_reserved": 0, "lon": -77.02118816666666, "fusion_lon": 0.0, "fusion_lat": 0.0, "is_disabled": 0, "type": "electric_scooter", "bike_id": "70c7a5e150a484673f1274d80128e24e", "rental_uris": {"android": "https://dc.lft.to/lastmile_qr_scan", "ios": "https://dc.lft.to/lastmile_qr_scan"}, "name": "70c7a5e150a484673f1274d80128e24e"}, {"lat": 38.903097833333334, "is_reserved": 0, "lon": -77.04878566666666, "fusion_lon": 0.0, "fusion_lat": 0.0, "is_disabled": 0, "type": "electric_scooter", "bike_id": "3b16273439b11b19d3ba184cf9255d5b", "rental_uris": {"android": "https://dc.lft.to/lastmile_qr_scan", "ios": "https://dc.lft.to/lastmile_qr_scan"}, "name": "3b16273439b11b19d3ba184cf9255d5b"}, {"lat": 38.93218016666667, "is_reserved": 0, "lon": -77.03366316666667, "fusion_lon": 0.0, "fusion_lat": 0.0, "is_disabled": 0, "type": "electric_scooter", "bike_id": "f6ea5aa23a754c4c20cdb11abf6780bd", "rental_uris": {"android": "https://dc.lft.to/lastmile_qr_scan", "ios": "https://dc.lft.to/lastmile_qr_scan"}, "name": "f6ea5aa23a754c4c20cdb11abf6780bd"}, {"lat": 38.923345, "is_reserved": 0, "lon": -77.0536245, "fusion_lon": 0.0, "fusion_lat": 0.0, "is_disabled": 0, "type": "electric_bike", "bike_id": "1d7e26e9d050b8241ff80821b6f1edb7", "rental_uris": {"android": "https://dc.lft.to/lastmile_qr_scan", "ios": "https://dc.lft.to/lastmile_qr_scan"}, "name": "1d7e26e9d050b8241ff80821b6f1edb7"}, {"lat": 38.90390466666667, "is_reserved": 0, "lon": -76.989412, "fusion_lon": 0.0, "fusion_lat": 0.0, "is_disabled": 0, "type": "electric_scooter", "bike_id": "161095c108b7c0a720af3a595aaf2e1e", "rental_uris": {"android": "https://dc.lft.to/lastmile_qr_scan", "ios": "https://dc.lft.to/lastmile_qr_scan"}, "name": "161095c108b7c0a720af3a595aaf2e1e"}, {"lat": 38.88709333333333, "is_reserved": 0, "lon": -77.0177395, "fusion_lon": 0.0, "fusion_lat": 0.0, "is_disabled": 0, "type": "electric_scooter", "bike_id": "85414247e554ec447a214a9deb1ef549", "rental_uris": {"android": "https://dc.lft.to/lastmile_qr_scan", "ios": "https://dc.lft.to/lastmile_qr_scan"}, "name": "85414247e554ec447a214a9deb1ef549"}, {"lat": 38.917629166666664, "is_reserved": 0, "lon": -77.0149935, "fusion_lon": 0.0, "fusion_lat": 0.0, "is_disabled": 0, "type": "electric_scooter", "bike_id": "6ab831c74136ab9c67ac0abcbd55427c", "rental_uris": {"android": "https://dc.lft.to/lastmile_qr_scan", "ios": "https://dc.lft.to/lastmile_qr_scan"}, "name": "6ab831c74136ab9c67ac0abcbd55427c"}, {"lat": 38.90794533333333, "is_reserved": 0, "lon": -77.0418125, "fusion_lon": 0.0, "fusion_lat": 0.0, "is_disabled": 0, "type": "electric_scooter", "bike_id": "549d847133345a63000dcfb5384aca7d", "rental_uris": {"android": "https://dc.lft.to/lastmile_qr_scan", "ios": "https://dc.lft.to/lastmile_qr_scan"}, "name": "549d847133345a63000dcfb5384aca7d"}, {"lat": 38.936749166666665, "is_reserved": 0, "lon": -76.9907115, "fusion_lon": 0.0, "fusion_lat": 0.0, "is_disabled": 0, "type": "electric_bike", "bike_id": "128fbeaaa4a92cfe2ce329e3edc91439", "rental_uris": {"android": "https://dc.lft.to/lastmile_qr_scan", "ios": "https://dc.lft.to/lastmile_qr_scan"}, "name": "128fbeaaa4a92cfe2ce329e3edc91439"}, {"lat": 38.92653966666666, "is_reserved": 0, "lon": -77.03727566666667, "fusion_lon": 0.0, "fusion_lat": 0.0, "is_disabled": 0, "type": "electric_scooter", "bike_id": "22def439d2426d8d413ffd431c73fc28", "rental_uris": {"android": "https://dc.lft.to/lastmile_qr_scan", "ios": "https://dc.lft.to/lastmile_qr_scan"}, "name": "22def439d2426d8d413ffd431c73fc28"}, {"lat": 38.90547883333333, "is_reserved": 0, "lon": -77.027173, "fusion_lon": 0.0, "fusion_lat": 0.0, "is_disabled": 0, "type": "electric_scooter", "bike_id": "8f222406d6d4e08f26062e7d397777a4", "rental_uris": {"android": "https://dc.lft.to/lastmile_qr_scan", "ios": "https://dc.lft.to/lastmile_qr_scan"}, "name": "8f222406d6d4e08f26062e7d397777a4"}, {"lat": 38.934357166666665, "is_reserved": 0, "lon": -77.03278833333333, "fusion_lon": 0.0, "fusion_lat": 0.0, "is_disabled": 0, "type": "electric_scooter", "bike_id": "1c34fed9a09e773656e25fe5b245a499", "rental_uris": {"android": "https://dc.lft.to/lastmile_qr_scan", "ios": "https://dc.lft.to/lastmile_qr_scan"}, "name": "1c34fed9a09e773656e25fe5b245a499"}, {"lat": 38.91685116666667, "is_reserved": 0, "lon": -77.03584583333334, "fusion_lon": 0.0, "fusion_lat": 0.0, "is_disabled": 0, "type": "electric_scooter", "bike_id": "9b9957ea2b20ebd2a22e7396b70885a8", "rental_uris": {"android": "https://dc.lft.to/lastmile_qr_scan", "ios": "https://dc.lft.to/lastmile_qr_scan"}, "name": "9b9957ea2b20ebd2a22e7396b70885a8"}, {"lat": 38.8814585, "is_reserved": 0, "lon": -77.01660816666667, "fusion_lon": 0.0, "fusion_lat": 0.0, "is_disabled": 0, "type": "electric_scooter", "bike_id": "edb57e09790c9c8ab14043c854010ea8", "rental_uris": {"android": "https://dc.lft.to/lastmile_qr_scan", "ios": "https://dc.lft.to/lastmile_qr_scan"}, "name": "edb57e09790c9c8ab14043c854010ea8"}, {"lat": 38.9257365, "is_reserved": 0, "lon": -77.03789066666667, "fusion_lon": 0.0, "fusion_lat": 0.0, "is_disabled": 0, "type": "electric_scooter", "bike_id": "e036b54485263ac82c308958eca371e8", "rental_uris": {"android": "https://dc.lft.to/lastmile_qr_scan", "ios": "https://dc.lft.to/lastmile_qr_scan"}, "name": "e036b54485263ac82c308958eca371e8"}, {"lat": 38.90034766666667, "is_reserved": 0, "lon": -76.99844483333334, "fusion_lon": 0.0, "fusion_lat": 0.0, "is_disabled": 0, "type": "electric_scooter", "bike_id": "c0fee9a96c4ea8116b8cdc6830666a4c", "rental_uris": {"android": "https://dc.lft.to/lastmile_qr_scan", "ios": "https://dc.lft.to/lastmile_qr_scan"}, "name": "c0fee9a96c4ea8116b8cdc6830666a4c"}, {"lat": 38.90293883333333, "is_reserved": 0, "lon": -77.0334445, "fusion_lon": 0.0, "fusion_lat": 0.0, "is_disabled": 0, "type": "electric_scooter", "bike_id": "d441b6d0d08dec8efffe4226ec5270d5", "rental_uris": {"android": "https://dc.lft.to/lastmile_qr_scan", "ios": "https://dc.lft.to/lastmile_qr_scan"}, "name": "d441b6d0d08dec8efffe4226ec5270d5"}, {"lat": 38.899181, "is_reserved": 0, "lon": -77.04490366666667, "fusion_lon": 0.0, "fusion_lat": 0.0, "is_disabled": 0, "type": "electric_scooter", "bike_id": "99e697f92ab8448158aa7e02dae3c429", "rental_uris": {"android": "https://dc.lft.to/lastmile_qr_scan", "ios": "https://dc.lft.to/lastmile_qr_scan"}, "name": "99e697f92ab8448158aa7e02dae3c429"}, {"lat": 38.93375016666667, "is_reserved": 0, "lon": -76.99520666666666, "fusion_lon": 0.0, "fusion_lat": 0.0, "is_disabled": 0, "type": "electric_scooter", "bike_id": "cc93bf7108f33f0021ca79372b4e02eb", "rental_uris": {"android": "https://dc.lft.to/lastmile_qr_scan", "ios": "https://dc.lft.to/lastmile_qr_scan"}, "name": "cc93bf7108f33f0021ca79372b4e02eb"}, {"lat": 38.926442, "is_reserved": 0, "lon": -76.98422483333333, "fusion_lon": 0.0, "fusion_lat": 0.0, "is_disabled": 0, "type": "electric_bike", "bike_id": "08c61e10d24314b559f5114416f80d34", "rental_uris": {"android": "https://dc.lft.to/lastmile_qr_scan", "ios": "https://dc.lft.to/lastmile_qr_scan"}, "name": "08c61e10d24314b559f5114416f80d34"}, {"lat": 38.90538883333333, "is_reserved": 0, "lon": -77.03988433333333, "fusion_lon": 0.0, "fusion_lat": 0.0, "is_disabled": 0, "type": "electric_scooter", "bike_id": "1b71f89bd7c189030d75b41ea6b733f0", "rental_uris": {"android": "https://dc.lft.to/lastmile_qr_scan", "ios": "https://dc.lft.to/lastmile_qr_scan"}, "name": "1b71f89bd7c189030d75b41ea6b733f0"},