{"data": {"bikes": [{"is_disabled": 0, "fusion_lon": 0.0, "fusion_lat": 0.0, "lat": 38.90164766666667, "type": "electric_scooter", "lon": -77.02217433333334, "bike_id": "0e5906f79844ea50221a072058f49fe9", "rental_uris": {"android": "https://dc.lft.to/lastmile_qr_scan", "ios": "https://dc.lft.to/lastmile_qr_scan"}, "name": "0e5906f79844ea50221a072058f49fe9", "is_reserved": 0}, {"is_disabled": 0, "fusion_lon": 0.0, "fusion_lat": 0.0, "lat": 38.909666666666666, "type": "electric_scooter", "lon": -77.03633283333333, "bike_id": "fe8582b758adf11c0e2b20b301fc757e", "rental_uris": {"android": "https://dc.lft.to/lastmile_qr_scan", "ios": "https://dc.lft.to/lastmile_qr_scan"}, "name": "fe8582b758adf11c0e2b20b301fc757e", "is_reserved": 0}, {"is_disabled": 0, "fusion_lon": 0.0, "fusion_lat": 0.0, "lat": 38.92283333333334, "type": "electric_scooter", "lon": -77.04471616666666, "bike_id": "1ddd8644030b1a0af453946ecf2048e7", "rental_uris": {"android": "https://dc.lft.to/lastmile_qr_scan", "ios": "https://dc.lft.to/lastmile_qr_scan"}, "name": "1ddd8644030b1a0af453946ecf2048e7", "is_reserved": 0}, {"is_disabled": 0, "fusion_lon": 0.0, "fusion_lat": 0.0, "lat": 38.919572333333335, "type": "electric_scooter", "lon": -77.0007745, "bike_id": "ef52277fcbda66c3df74d007a071ef9d", "rental_uris": {"android": "https://dc.lft.to/lastmile_qr_scan", "ios": "https://dc.lft.to/lastmile_qr_scan"}, "name": "ef52277fcbda66c3df74d007a071ef9d", "is_reserved": 0}, {"is_disabled": 0, "fusion_lon": 0.0, "fusion_lat": 0.0, "lat": 38.892221166666666, "type": "electric_scooter", "lon": -77.022631, "bike_id": "aae658f72f4e96c21b5bf3ce186dbde8", "rental_uris": {"android": "https://dc.lft.to/lastmile_qr_scan", "ios": "https://dc.lft.to/lastmile_qr_scan"}, "name": "aae658f72f4e96c21b5bf3ce186dbde8", "is_reserved": 0}, {"is_disabled": 0, "fusion_lon": 0.0, "fusion_lat": 0.0, "lat": 38.878688333333336, "type": "electric_scooter", "lon": -76.96530383333334, "bike_id": "f11dcc8305676ff569611434576749bb", "rental_uris": {"android": "https://dc.lft.to/lastmile_qr_scan", "ios": "https://dc.lft.to/lastmile_qr_scan"}, "name": "f11dcc8305676ff569611434576749bb", "is_reserved": 0}, {"is_disabled": 0, "fusion_lon": 0.0, "fusion_lat": 0.0, "lat": 38.93677066666667, "type": "electric_scooter", "lon": -77.03621016666666, "bike_id": "371cc0d3ad790ba6eafd73b8ba556f9e", "rental_uris": {"android": "https://dc.lft.to/lastmile_qr_scan", "ios": "https://dc.lft.to/lastmile_qr_scan"}, "name": "371cc0d3ad790ba6eafd73b8ba556f9e", "is_reserved": 0}, {"is_disabled": 0, "fusion_lon": 0.0, "fusion_lat": 0.0, "lat": 38.824434333333336, "type": "electric_bike", "lon": -77.070462, "bike_id": "b77b2209ba84a929b1addf95c76c0045", "rental_uris": {"android": "https://dc.lft.to/lastmile_qr_scan", "ios": "https://dc.lft.to/lastmile_qr_scan"}, "name": "b77b2209ba84a929b1addf95c76c0045", "is_reserved": 0}, {"is_disabled": 0, "fusion_lon": 0.0, "fusion_lat": 0.0, "lat": 38.86527066666667, "type": "electric_bike", "lon": -77.128264, "bike_id": "852dfb6cf8003e9c7b77704d3bbc22ab", "rental_uris": {"android": "https://dc.lft.to/lastmile_qr_scan", "ios": "https://dc.lft.to/lastmile_qr_scan"}, "name": "852dfb6cf8003e9c7b77704d3bbc22ab", "is_reserved": 0}, {"is_disabled": 0, "fusion_lon": 0.0, "fusion_lat": 0.0, "lat": 38.91598533333333, "type": "electric_scooter", "lon": -77.0230065, "bike_id": "fe4e8dffea9f7e7c58b1251b4243e362", "rental_uris": {"android": "https://dc.lft.to/lastmile_qr_scan", "ios": "https://dc.lft.to/lastmile_qr_scan"}, "name": "fe4e8dffea9f7e7c58b1251b4243e362", "is_reserved": 0}, {"is_disabled": 0, "fusion_lon": 0.0, "fusion_lat": 0.0, "lat": 38.92256883333334, "type": "electric_scooter", "lon": -77.04202966666666, "bike_id": "ca5bc7cfd8f97cc3c49a02504063307b", "rental_uris": {"android": "https://dc.lft.to/lastmile_qr_scan", "ios": "https://dc.lft.to/lastmile_qr_scan"}, "name": "ca5bc7cfd8f97cc3c49a02504063307b", "is_reserved": 0}, {"is_disabled": 0, "fusion_lon": 0.0, "fusion_lat": 0.0, "lat": 38.921450166666666, "type": "electric_scooter", "lon": -77.03448666666667, "bike_id": "f468fc7be316149e2105df82d36b4389", "rental_uris": {"android": "https://dc.lft.to/lastmile_qr_scan", "ios": "https://dc.lft.to/lastmile_qr_scan"}, "name": "f468fc7be316149e2105df82d36b4389", "is_reserved": 0}, {"is_disabled": 0, "fusion_lon": 0.0, "fusion_lat": 0.0, "lat": 38.8635285, "type": "electric_scooter", "lon": -76.99056033333333, "bike_id": "7a5a244a7e135d57292eb830d69a42d8", "rental_uris": {"android": "https://dc.lft.to/lastmile_qr_scan", "ios": "https://dc.lft.to/lastmile_qr_scan"}, "name": "7a5a244a7e135d57292eb830d69a42d8", "is_reserved": 0}, {"is_disabled": 0, "fusion_lon": 0.0, "fusion_lat": 0.0, "lat": 38.82783083333333, "type": "electric_bike", "lon": -77.110838, "bike_id": "4a6c87fe4cd8151dc4135547a7c0844b", "rental_uris": {"android": "https://dc.lft.to/lastmile_qr_scan", "ios": "https://dc.lft.to/lastmile_qr_scan"}, "name": "4a6c87fe4cd8151dc4135547a7c0844b", "is_reserved": 0}, {"is_disabled": 0, "fusion_lon": 0.0, "fusion_lat": 0.0, "lat": 38.98824483333333, "type": "electric_bike", "lon": -76.987545, "bike_id": "82d18d53ce20d63a26c8e06b001c3e8a", "rental_uris": {"android": "https://dc.lft.to/lastmile_qr_scan", "ios": "https://dc.lft.to/lastmile_qr_scan"}, "name": "82d18d53ce20d63a26c8e06b001c3e8a", "is_reserved": 0}, {"is_disabled": 0, "fusion_lon": 0.0, "fusion_lat": 0.0, "lat": 38.86247866666667, "type": "electric_scooter", "lon": -76.99532616666667, "bike_id": "78813f4c4e98fd36e754a97bdc40bfde", "rental_uris": {"android": "https://dc.lft.to/lastmile_qr_scan", "ios": "https://dc.lft.to/lastmile_qr_scan"}, "name": "78813f4c4e98fd36e754a97bdc40bfde", "is_reserved": 0}, {"is_disabled": 0, "fusion_lon": 0.0, "fusion_lat": 0.0, "lat": 38.906369166666664, "type": "electric_scooter", "lon": -77.029507, "bike_id": "d892099e378c931f9bec0c823602a802", "rental_uris": {"android": "https://dc.lft.to/lastmile_qr_scan", "ios": "https://dc.lft.to/lastmile_qr_scan"}, "name": "d892099e378c931f9bec0c823602a802", "is_reserved": 0}, {"is_disabled": 0, "fusion_lon": 0.0, "fusion_lat": 0.0, "lat": 38.88513283333333, "type": "electric_scooter", "lon": -76.9985385, "bike_id": "796fbeeb17a8b50953b3de3158390e5b", "rental_uris": {"android": "https://dc.lft.to/lastmile_qr_scan", "ios": "https://dc.lft.to/lastmile_qr_scan"}, "name": "796fbeeb17a8b50953b3de3158390e5b", "is_reserved": 0}, {"is_disabled": 0, "fusion_lon": 0.0, "fusion_lat": 0.0, "lat": 38.88018433333333, "type": "electric_scooter", "lon": -76.93116216666667, "bike_id": "d06aa4a9b0f9ff9c4fb2bb35bd906950", "rental_uris": {"android": "https://dc.lft.to/lastmile_qr_scan", "ios": "https://dc.lft.to/lastmile_qr_scan"}, "name": "d06aa4a9b0f9ff9c4fb2bb35bd906950", "is_reserved": 0}, {"is_disabled": 0, "fusion_lon": 0.0, "fusion_lat": 0.0, "lat": 38.9059525, "type": "electric_scooter", "lon": -77.02382733333333, "bike_id": "942a3867b2d31442148c096bbf0e1b5c", "rental_uris": {"android": "https://dc.lft.to/lastmile_qr_scan", "ios": "https://dc.lft.to/lastmile_qr_scan"}, "name": "942a3867b2d31442148c096bbf0e1b5c", "is_reserved": 0}, {"is_disabled": 0, "fusion_lon": 0.0, "fusion_lat": 0.0, "lat": 38.90032716666666, "type": "electric_scooter", "lon": -77.0118565, "bike_id": "3e9895ff22a876e14bbbfe0b829cf8d8", "rental_uris": {"android": "https://dc.lft.to/lastmile_qr_scan", "ios": "https://dc.lft.to/lastmile_qr_scan"}, "name": "3e9895ff22a876e14bbbfe0b829cf8d8", "is_reserved": 0}, {"is_disabled": 0, "fusion_lon": 0.0, "fusion_lat": 0.0, "lat": 38.9153845, "type": "electric_scooter", "lon": -77.03212483333333, "bike_id": "b4528a54d1187a664b2af79a9ff64565", "rental_uris": {"android": "https://dc.lft.to/lastmile_qr_scan", "ios": "https://dc.lft.to/lastmile_qr_scan"}, "name": "b4528a54d1187a664b2af79a9ff64565", "is_reserved": 0}, {"is_disabled": 0, "fusion_lon": 0.0, "fusion_lat": 0.0, "lat": 38.92035116666667, "type": "electric_scooter", "lon": -77.025852, "bike_id": "29c3c2817fe02dcf3379e106d5812e97", "rental_uris": {"android": "https://dc.lft.to/lastmile_qr_scan", "ios": "https://dc.lft.to/lastmile_qr_scan"}, "name": "29c3c2817fe02dcf3379e106d5812e97", "is_reserved": 0}, {"is_disabled": 0, "fusion_lon": 0.0, "fusion_lat": 0.0, "lat": 38.89533683333333, "type": "electric_scooter", "lon": -77.0283395, "bike_id": "dd645c47895e6837546dfee151782e6d", "rental_uris": {"android": "https://dc.lft.to/lastmile_qr_scan", "ios": "https://dc.lft.to/lastmile_qr_scan"}, "name": "dd645c47895e6837546dfee151782e6d", "is_reserved": 0}, {"is_disabled": 0, "fusion_lon": 0.0, "fusion_lat": 0.0, "lat": 38.85331033333333, "type": "electric_scooter", "lon": -76.96602633333333, "bike_id": "d72af90c360163073eff4636b1373327", "rental_uris": {"android": "https://dc.lft.to/lastmile_qr_scan", "ios": "https://dc.lft.to/lastmile_qr_scan"}, "name": "d72af90c360163073eff4636b1373327", "is_reserved": 0}, {"is_disabled": 0, "fusion_lon": 0.0, "fusion_lat": 0.0, "lat": 38.9154525, "type": "electric_scooter", "lon": -77.03851916666666, "bike_id": "2b3a6deb7377a662a05608d6db113e84", "rental_uris": {"android": "https://dc.lft.to/lastmile_qr_scan", "ios": "https://dc.lft.to/lastmile_qr_scan"}, "name": "2b3a6deb7377a662a05608d6db113e84", "is_reserved": 0}, {"is_disabled": 0, "fusion_lon": 0.0, "fusion_lat": 0.0, "lat": 38.897532166666664, "type": "electric_scooter", "lon": -77.02166633333333, "bike_id": "c98471cc8f69af0271c728da139cb80f", "rental_uris": {"android": "https://dc.lft.to/lastmile_qr_scan", "ios": "https://dc.lft.to/lastmile_qr_scan"}, "name": "c98471cc8f69af0271c728da139cb80f", "is_reserved": 0}, {"is_disabled": 0, "fusion_lon": 0.0, "fusion_lat": 0.0, "lat": 38.925492166666665, "type": "electric_scooter", "lon": -77.05298516666667, "bike_id": "f8b9170e7755c81bb6f54193ab7c137f", "rental_uris": {"android": "https://dc.lft.to/lastmile_qr_scan", "ios": "https://dc.lft.to/lastmile_qr_scan"}, "name": "f8b9170e7755c81bb6f54193ab7c137f", "is_reserved": 0}, {"is_disabled": 0, "fusion_lon": 0.0, "fusion_lat": 0.0, "lat": 38.93489783333333, "type": "electric_scooter", "lon": -77.03276016666666, "bike_id": "d75b3a02d5726485f0900b744ec76900", "rental_uris": {"android": "https://dc.lft.to/lastmile_qr_scan", "ios": "https://dc.lft.to/lastmile_qr_scan"}, "name": "d75b3a02d5726485f0900b744ec76900", "is_reserved": 0}, {"is_disabled": 0, "fusion_lon": 0.0, "fusion_lat": 0.0, "lat": 39.000177666666666, "type": "electric_bike", "lon": -76.872853, "bike_id": "eba7eaad6945ccd1a1758c1a88ee0447", "rental_uris": {"android": "https://dc.lft.to/lastmile_qr_scan", "ios": "https://dc.lft.to/lastmile_qr_scan"}, "name": "eba7eaad6945ccd1a1758c1a88ee0447", "is_reserved": 0}, {"is_disabled": 0, "fusion_lon": 0.0, "fusion_lat": 0.0, "lat": 38.901650833333335, "type": "electric_scooter", "lon": -77.02203883333334, "bike_id": "6158611b3582ee99237961dfb8f5c6c8", "rental_uris": {"android": "https://dc.lft.to/lastmile_qr_scan", "ios": "https://dc.lft.to/lastmile_qr_scan"}, "name": "6158611b3582ee99237961dfb8f5c6c8", "is_reserved": 0}, {"is_disabled": 0, "fusion_lon": 0.0, "fusion_lat": 0.0, "lat": 38.82876233333333, "type": "electric_bike", "lon": -77.11217516666666, "bike_id": "eb64b726124c4471ffebb0fd04aaf402", "rental_uris": {"android": "https://dc.lft.to/lastmile_qr_scan", "ios": "https://dc.lft.to/lastmile_qr_scan"}, "name": "eb64b726124c4471ffebb0fd04aaf402", "is_reserved": 0}, {"is_disabled": 0, "fusion_lon": 0.0, "fusion_lat": 0.0, "lat": 38.9170735, "type": "electric_scooter", "lon": -77.02845033333334, "bike_id": "8bb243b6e6dff672e8044976391508fc", "rental_uris": {"android": "https://dc.lft.to/lastmile_qr_scan", "ios": "https://dc.lft.to/lastmile_qr_scan"}, "name": "8bb243b6e6dff672e8044976391508fc", "is_reserved": 0}, {"is_disabled": 0, "fusion_lon": 0.0, "fusion_lat": 0.0, "lat": 38.9182175, "type": "electric_scooter", "lon": -77.0401065, "bike_id": "f055291f936b4e68b1d9d39ee335686e", "rental_uris": {"android": "https://dc.lft.to/lastmile_qr_scan", "ios": "https://dc.lft.to/lastmile_qr_scan"}, "name": "f055291f936b4e68b1d9d39ee335686e", "is_reserved": 0}, {"is_disabled": 0, "fusion_lon": 0.0, "fusion_lat": 0.0, "lat": 38.90263366666667, "type": "electric_scooter", "lon": -77.061027, "bike_id": "f6b3745f578e08a76a07d759237c24f4", "rental_uris": {"android": "https://dc.lft.to/lastmile_qr_scan", "ios": "https://dc.lft.to/lastmile_qr_scan"}, "name": "f6b3745f578e08a76a07d759237c24f4", "is_reserved": 0}, {"is_disabled": 0, "fusion_lon": 0.0, "fusion_lat": 0.0, "lat": 38.928133, "type": "electric_scooter", "lon": -77.02352716666667, "bike_id": "e76e32bbc95857747aa3dfdb52e0b77a", "rental_uris": {"android": "https://dc.lft.to/lastmile_qr_scan", "ios": "https://dc.lft.to/lastmile_qr_scan"}, "name": "e76e32bbc95857747aa3dfdb52e0b77a", "is_reserved": 0}, {"is_disabled": 0, "fusion_lon": 0.0, "fusion_lat": 0.0, "lat": 38.93413366666667, "type": "electric_scooter", "lon": -77.01966816666666, "bike_id": "8cae66802160412c2e4956e9f3e6fd31", "rental_uris": {"android": "https://dc.lft.to/lastmile_qr_scan", "ios": "https://dc.lft.to/lastmile_qr_scan"}, "name": "8cae66802160412c2e4956e9f3e6fd31", "is_reserved": 0}, {"is_disabled": 0, "fusion_lon": 0.0, "fusion_lat": 0.0, "lat": 38.92493483333333, "type": "electric_scooter", "lon": -77.0393695, "bike_id": "ca6743618c179c3dafde33c63171fd3b", "rental_uris": {"android": "https://dc.lft.to/lastmile_qr_scan", "ios": "https://dc.lft.to/lastmile_qr_scan"}, "name": "ca6743618c179c3dafde33c63171fd3b", "is_reserved": 0}, {"is_disabled": 0, "fusion_lon": 0.0, "fusion_lat": 0.0, "lat": 38.907500666666664, "type": "electric_scooter", "lon": -77.03201283333334, "bike_id": "2be6d554ae8b770a3c9d4988845e90ac", "rental_uris": {"android": "https://dc.lft.to/lastmile_qr_scan", "ios": "https://dc.lft.to/lastmile_qr_scan"}, "name": "2be6d554ae8b770a3c9d4988845e90ac", "is_reserved": 0}, {"is_disabled": 0, "fusion_lon": 0.0, "fusion_lat": 0.0, "lat": 38.89965933333333, "type": "electric_scooter", "lon": -77.016306, "bike_id": "28e454158da487bfabcfd497e3a32265", "rental_uris": {"android": "https://dc.lft.to/lastmile_qr_scan", "ios": "https://dc.lft.to/lastmile_qr_scan"}, "name": "28e454158da487bfabcfd497e3a32265", "is_reserved": 0}, {"is_disabled": 0, "fusion_lon": 0.0, "fusion_lat": 0.0, "lat": 39.05267116666667, "type": "electric_bike", "lon": -77.04386366666667, "bike_id": "50da0ddf60a8ec7422ceab63a249c2c9", "rental_uris": {"android": "https://dc.lft.to/lastmile_qr_scan", "ios": "https://dc.lft.to/lastmile_qr_scan"}, "name": "50da0ddf60a8ec7422ceab63a249c2c9", "is_reserved": 0}, {"is_disabled": 0, "fusion_lon": 0.0, "fusion_lat": 0.0, "lat": 38.8787845, "type": "electric_scooter", "lon": -77.0194955, "bike_id": "66c5f3742b382cc02c2a3b29b3af31c2", "rental_uris": {"android": "https://dc.lft.to/lastmile_qr_scan", "ios": "https://dc.lft.to/lastmile_qr_scan"}, "name": "66c5f3742b382cc02c2a3b29b3af31c2", "is_reserved": 0}, {"is_disabled": 0, "fusion_lon": 0.0, "fusion_lat": 0.0, "lat": 38.90960416666667, "type": "electric_scooter", "lon": -77.03954316666666, "bike_id": "1fff6f88649ca95d9e03f4a4ba1e3e56", "rental_uris": {"android": "https://dc.lft.to/lastmile_qr_scan", "ios": "https://dc.lft.to/lastmile_qr_scan"}, "name": "1fff6f88649ca95d9e03f4a4ba1e3e56", "is_reserved": 0}, {"is_disabled": 0, "fusion_lon": 0.0, "fusion_lat": 0.0, "lat": 38.91707, "type": "electric_bike", "lon": -77.0956495, "bike_id": "3811e8ed5f031e849ce6481b1ed6736e", "rental_uris": {"android": "https://dc.lft.to/lastmile_qr_scan", "ios": "https://dc.lft.to/lastmile_qr_scan"}, "name": "3811e8ed5f031e849ce6481b1ed6736e", "is_reserved": 0}, {"is_disabled": 0, "fusion_lon": 0.0, "fusion_lat": 0.0, "lat": 38.94888516666666, "type": "electric_bike", "lon": -76.963702, "bike_id": "a92201ac3f39c392b26809d0b5a11d8c", "rental_uris": {"android": "https://dc.lft.to/lastmile_qr_scan", "ios": "https://dc.lft.to/lastmile_qr_scan"}, "name": "a92201ac3f39c392b26809d0b5a11d8c", "is_reserved": 0}, {"is_disabled": 0, "fusion_lon": 0.0, "fusion_lat": 0.0, "lat": 38.9336865, "type": "electric_scooter", "lon": -77.0575585, "bike_id": "b4d698773bae598151bf3a7b798a5129", "rental_uris": {"android": "https://dc.lft.to/lastmile_qr_scan", "ios": "https://dc.lft.to/lastmile_qr_scan"}, "name": "b4d698773bae598151bf3a7b798a5129", "is_reserved": 0}, {"is_disabled": 0, "fusion_lon": 0.0, "fusion_lat": 0.0, "lat": 38.917357833333334, "type": "electric_scooter", "lon": -77.0364785, "bike_id": "cf55611b9271eb1a6674ac7a88d8a893", "rental_uris": {"android": "https://dc.lft.to/lastmile_qr_scan", "ios": "https://dc.lft.to/lastmile_qr_scan"}, "name": "cf55611b9271eb1a6674ac7a88d8a893", "is_reserved": 0}, {"is_disabled": 0, "fusion_lon": 0.0, "fusion_lat": 0.0, "lat": 38.89773683333333, "type": "electric_scooter", "lon": -77.05012166666667, "bike_id": "a88a433628d9b720616da32f62bddbf8", "rental_uris": {"android": "https://dc.lft.to/lastmile_qr_scan", "ios": "https://dc.lft.to/lastmile_qr_scan"}, "name": "a88a433628d9b720616da32f62bddbf8", "is_reserved": 0}, {"is_disabled": 0, "fusion_lon": 0.0, "fusion_lat": 0.0, "lat": 38.900325333333335, "type": "electric_scooter", "lon": -77.03373666666667, "bike_id": "2b901b37481ee8eb8d64fbf9b9947a04", "rental_uris": {"android": "https://dc.lft.to/lastmile_qr_scan", "ios": "https://dc.lft.to/lastmile_qr_scan"}, "name": "2b901b37481ee8eb8d64fbf9b9947a04", "is_reserved": 0}, {"is_disabled": 0, "fusion_lon": 0.0, "fusion_lat": 0.0, "lat": 38.91706766666667, "type": "electric_scooter", "lon": -77.03209566666666, "bike_id": "6228bee1ded0db6a8dcdfd7feb31b821", "rental_uris": {"android": "https://dc.lft.to/lastmile_qr_scan", "ios": "https://dc.lft.to/lastmile_qr_scan"}, "name": "6228bee1ded0db6a8dcdfd7feb31b821", "is_reserved": 0}, {"is_disabled": 0, "fusion_lon": 0.0, "fusion_lat": 0.0, "lat": 38.896847, "type": "electric_scooter", "lon": -76.93541583333334, "bike_id": "e84049f9c7b55f261be623a9c8161f48", "rental_uris": {"android": "https://dc.lft.to/lastmile_qr_scan", "ios": "https://dc.lft.to/lastmile_qr_scan"}, "name": "e84049f9c7b55f261be623a9c8161f48", "is_reserved": 0}, {"is_disabled": 0, "fusion_lon": 0.0, "fusion_lat": 0.0, "lat": 38.924209833333336, "type": "electric_scooter", "lon": -77.0201305, "bike_id": "e21133d741b44f4dd3e3ebf41ab9914b", "rental_uris": {"android": "https://dc.lft.to/lastmile_qr_scan", "ios": "https://dc.lft.to/lastmile_qr_scan"}, "name": "e21133d741b44f4dd3e3ebf41ab9914b", "is_reserved": 0}, {"is_disabled": 0, "fusion_lon": 0.0, "fusion_lat": 0.0, "lat": 38.8972575, "type": "electric_scooter", "lon": -77.04684316666666, "bike_id": "102ecf6a05f1182c2611fd5afbdec164", "rental_uris": {"android": "https://dc.lft.to/lastmile_qr_scan", "ios": "https://dc.lft.to/lastmile_qr_scan"}, "name": "102ecf6a05f1182c2611fd5afbdec164", "is_reserved": 0}, {"is_disabled": 0, "fusion_lon": 0.0, "fusion_lat": 0.0, "lat": 38.90560983333334, "type": "electric_scooter", "lon": -77.00591866666667, "bike_id": "6f2ec31b440f403612a83c49e4d567db", "rental_uris": {"android": "https://dc.lft.to/lastmile_qr_scan", "ios": "https://dc.lft.to/lastmile_qr_scan"}, "name": "6f2ec31b440f403612a83c49e4d567db", "is_reserved": 0}, {"is_disabled": 0, "fusion_lon": 0.0, "fusion_lat": 0.0, "lat": 38.9157145, "type": "electric_scooter", "lon": -77.04174433333333, "bike_id": "ff690083ba9d9de49da7524e7ea5ee17", "rental_uris": {"android": "https://dc.lft.to/lastmile_qr_scan", "ios": "https://dc.lft.to/lastmile_qr_scan"}, "name": "ff690083ba9d9de49da7524e7ea5ee17", "is_reserved": 0}, {"is_disabled": 0, "fusion_lon": 0.0, "fusion_lat": 0.0, "lat": 38.90531583333333, "type": "electric_scooter", "lon": -77.02957433333333, "bike_id": "28a3085a6a0ed65d0e1ea0919bedbbcf", "rental_uris": {"android": "https://dc.lft.to/lastmile_qr_scan", "ios": "https://dc.lft.to/lastmile_qr_scan"}, "name": "28a3085a6a0ed65d0e1ea0919bedbbcf", "is_reserved": 0}, {"is_disabled": 0, "fusion_lon": 0.0, "fusion_lat": 0.0, "lat": 38.912550833333334, "type": "electric_scooter", "lon": -77.03274516666667, "bike_id": "a0cd2f148aacab6d01d7931517f100e1", "rental_uris": {"android": "https://dc.lft.to/lastmile_qr_scan", "ios": "https://dc.lft.to/lastmile_qr_scan"}, "name": "a0cd2f148aacab6d01d7931517f100e1", "is_reserved": 0}, {"is_disabled": 0, "fusion_lon": 0.0, "fusion_lat": 0.0, "lat": 38.91569533333333, "type": "electric_scooter", "lon": -77.032749, "bike_id": "c1cdf48966fa174b468a54f0bbd76914", "rental_uris": {"android": "https://dc.lft.to/lastmile_qr_scan", "ios": "https://dc.lft.to/lastmile_qr_scan"}, "name": "c1cdf48966fa174b468a54f0bbd76914", "is_reserved": 0}, {"is_disabled": 0, "fusion_lon": 0.0, "fusion_lat": 0.0, "lat": 38.895486166666664, "type": "electric_scooter", "lon": -77.011161, "bike_id": "7a158fcee2ca59db4c81d9ec5ae95515", "rental_uris": {"android": "https://dc.lft.to/lastmile_qr_scan", "ios": "https://dc.lft.to/lastmile_qr_scan"}, "name": "7a158fcee2ca59db4c81d9ec5ae95515", "is_reserved": 0}, {"is_disabled": 0, "fusion_lon": 0.0, "fusion_lat": 0.0, "lat": 38.9024, "type": "electric_scooter", "lon": -77.00207383333333, "bike_id": "f2a9979696cac7326c149521e752ce27", "rental_uris": {"android": "https://dc.lft.to/lastmile_qr_scan", "ios": "https://dc.lft.to/lastmile_qr_scan"}, "name": "f2a9979696cac7326c149521e752ce27", "is_reserved": 0}, {"is_disabled": 0, "fusion_lon": 0.0, "fusion_lat": 0.0, "lat": 38.917914, "type": "electric_scooter", "lon": -77.023001, "bike_id": "fc5d28688bf5cb5ebe3382fdb2fc52b9", "rental_uris": {"android": "https://dc.lft.to/lastmile_qr_scan", "ios": "https://dc.lft.to/lastmile_qr_scan"}, "name": "fc5d28688bf5cb5ebe3382fdb2fc52b9", "is_reserved": 0}, {"is_disabled": 0, "fusion_lon": 0.0, "fusion_lat": 0.0, "lat": 38.918708333333335, "type": "electric_bike", "lon": -76.96124366666666, "bike_id": "2f94baad614c45beb4e7f0e8797dea22", "rental_uris": {"android": "https://dc.lft.to/lastmile_qr_scan", "ios": "https://dc.lft.to/lastmile_qr_scan"}, "name": "2f94baad614c45beb4e7f0e8797dea22", "is_reserved": 0}, {"is_disabled": 0, "fusion_lon": 0.0, "fusion_lat": 0.0, "lat": 38.905472, "type": "electric_scooter", "lon": -77.0294735, "bike_id": "bec5e51b4ad5e5b47a8d1ff8e91a705b", "rental_uris": {"android": "https://dc.lft.to/lastmile_qr_scan", "ios": "https://dc.lft.to/lastmile_qr_scan"}, "name": "bec5e51b4ad5e5b47a8d1ff8e91a705b", "is_reserved": 0}, {"is_disabled": 0, "fusion_lon": 0.0, "fusion_lat": 0.0, "lat": 38.918772, "type": "electric_scooter", "lon": -77.04732866666667, "bike_id": "21c0f70973465f46d402ebc7f2697334", "rental_uris": {"android": "https://dc.lft.to/lastmile_qr_scan", "ios": "https://dc.lft.to/lastmile_qr_scan"}, "name": "21c0f70973465f46d402ebc7f2697334", "is_reserved": 0}, {"is_disabled": 0, "fusion_lon": 0.0, "fusion_lat": 0.0, "lat": 38.86112583333333, "type": "electric_scooter", "lon": -76.983735, "bike_id": "41d9c585abff61443c05b8543cd66a8b", "rental_uris": {"android": "https://dc.lft.to/lastmile_qr_scan", "ios": "https://dc.lft.to/lastmile_qr_scan"}, "name": "41d9c585abff61443c05b8543cd66a8b", "is_reserved": 0}, {"is_disabled": 0, "fusion_lon": 0.0, "fusion_lat": 0.0, "lat": 38.912163166666666, "type": "electric_scooter", "lon": -77.027148, "bike_id": "2d928d2078524a514f72b11979830c7f", "rental_uris": {"android": "https://dc.lft.to/lastmile_qr_scan", "ios": "https://dc.lft.to/lastmile_qr_scan"}, "name": "2d928d2078524a514f72b11979830c7f", "is_reserved": 0}, {"is_disabled": 0, "fusion_lon": 0.0, "fusion_lat": 0.0, "lat": 38.8961705, "type": "electric_scooter", "lon": -76.99637416666667, "bike_id": "675d754d4131243445d1490cc592e055", "rental_uris": {"android": "https://dc.lft.to/lastmile_qr_scan", "ios": "https://dc.lft.to/lastmile_qr_scan"}, "name": "675d754d4131243445d1490cc592e055", "is_reserved": 0}, {"is_disabled": 0, "fusion_lon": 0.0, "fusion_lat": 0.0, "lat": 38.899630333333334, "type": "electric_scooter", "lon": -77.04618016666667, "bike_id": "59acfbdcfc5412d17f1b0c3aaacbaa67", "rental_uris": {"android": "https://dc.lft.to/lastmile_qr_scan", "ios": "https://dc.lft.to/lastmile_qr_scan"}, "name": "59acfbdcfc5412d17f1b0c3aaacbaa67", "is_reserved": 0}, {"is_disabled": 0, "fusion_lon": 0.0, "fusion_lat": 0.0, "lat": 38.932552, "type": "electric_scooter", "lon": -77.0329025, "bike_id": "5b49fdbb60b2b9b5dcbcd83efdc2eaa6", "rental_uris": {"android": "https://dc.lft.to/lastmile_qr_scan", "ios": "https://dc.lft.to/lastmile_qr_scan"}, "name": "5b49fdbb60b2b9b5dcbcd83efdc2eaa6", "is_reserved": 0}, {"is_disabled": 0, "fusion_lon": 0.0, "fusion_lat": 0.0, "lat": 38.922469, "type": "electric_scooter", "lon": -77.030858, "bike_id": "3e31a88468bae3976a1ad27401856dd9", "rental_uris": {"android": "https://dc.lft.to/lastmile_qr_scan", "ios": "https://dc.lft.to/lastmile_qr_scan"}, "name": "3e31a88468bae3976a1ad27401856dd9", "is_reserved": 0}, {"is_disabled": 0, "fusion_lon": 0.0, "fusion_lat": 0.0, "lat": 38.901797, "type": "electric_scooter", "lon": -76.92827966666667, "bike_id": "0e6ccbb78f7ddd364937c0491dd7da54", "rental_uris": {"android": "https://dc.lft.to/lastmile_qr_scan", "ios": "https://dc.lft.to/lastmile_qr_scan"}, "name": "0e6ccbb78f7ddd364937c0491dd7da54", "is_reserved": 0}, {"is_disabled": 0, "fusion_lon": 0.0, "fusion_lat": 0.0, "lat": 38.9073395, "type": "electric_scooter", "lon": -77.0295275, "bike_id": "f25a063f763d7f41d58b4c82c30d1b65", "rental_uris": {"android": "https://dc.lft.to/lastmile_qr_scan", "ios": "https://dc.lft.to/lastmile_qr_scan"}, "name": "f25a063f763d7f41d58b4c82c30d1b65", "is_reserved": 0}, {"is_disabled": 0, "fusion_lon": 0.0, "fusion_lat": 0.0, "lat": 38.918677, "type": "electric_scooter", "lon": -77.0449, "bike_id": "47c417d3af776d2b0c3c43ffa2005fad", "rental_uris": {"android": "https://dc.lft.to/lastmile_qr_scan", "ios": "https://dc.lft.to/lastmile_qr_scan"}, "name": "47c417d3af776d2b0c3c43ffa2005fad", "is_reserved": 0}, {"is_disabled": 0, "fusion_lon": 0.0, "fusion_lat": 0.0, "lat": 38.976766833333336, "type": "electric_bike", "lon": -76.971731, "bike_id": "dfdf5d5c94a1ebb6c8a94f093496699e", "rental_uris": {"android": "https://dc.lft.to/lastmile_qr_scan", "ios": "https://dc.lft.to/lastmile_qr_scan"}, "name": "dfdf5d5c94a1ebb6c8a94f093496699e", "is_reserved": 0}, {"is_disabled": 0, "fusion_lon": 0.0, "fusion_lat": 0.0, "lat": 38.89236483333333, "type": "electric_bike", "lon": -76.95224033333334, "bike_id": "d47c661260049034ecfda8598f9b040d", "rental_uris": {"android": "https://dc.lft.to/lastmile_qr_scan", "ios": "https://dc.lft.to/lastmile_qr_scan"}, "name": "d47c661260049034ecfda8598f9b040d", "is_reserved": 0}, {"is_disabled": 0, "fusion_lon": 0.0, "fusion_lat": 0.0, "lat": 38.9170455, "type": "electric_scooter", "lon": -77.01069333333334, "bike_id": "1366f804bcdf6906530a1ac177134a4f", "rental_uris": {"android": "https://dc.lft.to/lastmile_qr_scan", "ios": "https://dc.lft.to/lastmile_qr_scan"}, "name": "1366f804bcdf6906530a1ac177134a4f", "is_reserved": 0}, {"is_disabled": 0, "fusion_lon": 0.0, "fusion_lat": 0.0, "lat": 38.896024, "type": "electric_scooter", "lon": -77.00920733333334, "bike_id": "3ba007309b3fb4cdedcd930d69adaa99", "rental_uris": {"android": "https://dc.lft.to/lastmile_qr_scan", "ios": "https://dc.lft.to/lastmile_qr_scan"}, "name": "3ba007309b3fb4cdedcd930d69adaa99", "is_reserved": 0}, {"is_disabled": 0, "fusion_lon": 0.0, "fusion_lat": 0.0, "lat": 38.90546066666667, "type": "electric_scooter", "lon": -77.04653566666667, "bike_id": "8de16838b9839df8ec8c7f1147f8a5da", "rental_uris": {"android": "https://dc.lft.to/lastmile_qr_scan", "ios": "https://dc.lft.to/lastmile_qr_scan"}, "name": "8de16838b9839df8ec8c7f1147f8a5da", "is_reserved": 0}, {"is_disabled": 0, "fusion_lon": 0.0, "fusion_lat": 0.0, "lat": 38.925914166666665, "type": "electric_bike", "lon": -76.88911333333333, "bike_id": "69898aeafc95be8e33ff7e4790725f46", "rental_uris": {"android": "https://dc.lft.to/lastmile_qr_scan", "ios": "https://dc.lft.to/lastmile_qr_scan"}, "name": "69898aeafc95be8e33ff7e4790725f46", "is_reserved": 0}, {"is_disabled": 0, "fusion_lon": 0.0, "fusion_lat": 0.0, "lat": 38.954161166666665, "type": "electric_scooter", "lon": -77.02845966666666, "bike_id": "7661a3b891acfd637aae224693541b26", "rental_uris": {"android": "https://dc.lft.to/lastmile_qr_scan", "ios": "https://dc.lft.to/lastmile_qr_scan"}, "name": "7661a3b891acfd637aae224693541b26", "is_reserved": 0}, {"is_disabled": 0, "fusion_lon": 0.0, "fusion_lat": 0.0, "lat": 38.885056166666665, "type": "electric_scooter", "lon": -77.020926, "bike_id": "e15e8cafe43fb3847d5eb83ffaffdc96", "rental_uris": {"android": "https://dc.lft.to/lastmile_qr_scan", "ios": "https://dc.lft.to/lastmile_qr_scan"}, "name": "e15e8cafe43fb3847d5eb83ffaffdc96", "is_reserved": 0}, {"is_disabled": 0, "fusion_lon": 0.0, "fusion_lat": 0.0, "lat": 38.936668166666664, "type": "electric_scooter", "lon": -77.05931083333333, "bike_id": "ce5b00cb8b1c6c970c4e16daac1b6e85", "rental_uris": {"android": "https://dc.lft.to/lastmile_qr_scan", "ios": "https://dc.lft.to/lastmile_qr_scan"}, "name": "ce5b00cb8b1c6c970c4e16daac1b6e85", "is_reserved": 0}, {"is_disabled": 0, "fusion_lon": 0.0, "fusion_lat": 0.0, "lat": 38.896143333333335, "type": "electric_scooter", "lon": -77.02674316666666, "bike_id": "158455f75fe99d3d8b3b74a07de321e8", "rental_uris": {"android": "https://dc.lft.to/lastmile_qr_scan", "ios": "https://dc.lft.to/lastmile_qr_scan"}, "name": "158455f75fe99d3d8b3b74a07de321e8", "is_reserved": 0}, {"is_disabled": 0, "fusion_lon": 0.0, "fusion_lat": 0.0, "lat": 38.889829666666664, "type": "electric_scooter", "lon": -77.0033875, "bike_id": "66d640944df4903897a823bc543eb0fe", "rental_uris": {"android": "https://dc.lft.to/lastmile_qr_scan", "ios": "https://dc.lft.to/lastmile_qr_scan"}, "name": "66d640944df4903897a823bc543eb0fe", "is_reserved": 0}, {"is_disabled": 0, "fusion_lon": 0.0, "fusion_lat": 0.0, "lat": 38.90784133333333, "type": "electric_scooter", "lon": -77.0451065, "bike_id": "cfe52957161b244e4f596e11bf5a01f7", "rental_uris": {"android": "https://dc.lft.to/lastmile_qr_scan", "ios": "https://dc.lft.to/lastmile_qr_scan"}, "name": "cfe52957161b244e4f596e11bf5a01f7", "is_reserved": 0}, {"is_disabled": 0, "fusion_lon": 0.0, "fusion_lat": 0.0, "lat": 38.86464316666667, "type": "electric_scooter", "lon": -76.99610966666667, "bike_id": "fc6479cbbce1f8e01dcfa080376acad7", "rental_uris": {"android": "https://dc.lft.to/lastmile_qr_scan", "ios": "https://dc.lft.to/lastmile_qr_scan"}, "name": "fc6479cbbce1f8e01dcfa080376acad7", "is_reserved": 0}, {"is_disabled": 0, "fusion_lon": 0.0, "fusion_lat": 0.0, "lat": 38.9047325, "type": "electric_scooter", "lon": -77.00614433333334, "bike_id": "abad91e56f339cb9aae6b80ef6bb14de", "rental_uris": {"android": "https://dc.lft.to/lastmile_qr_scan", "ios": "https://dc.lft.to/lastmile_qr_scan"}, "name": "abad91e56f339cb9aae6b80ef6bb14de", "is_reserved": 0}, {"is_disabled": 0, "fusion_lon": 0.0, "fusion_lat": 0.0, "lat": 38.9181135, "type": "electric_scooter", "lon": -77.03568183333333, "bike_id": "afd0d55866a301b25d721cd7557bdb2a", "rental_uris": {"android": "https://dc.lft.to/lastmile_qr_scan", "ios": "https://dc.lft.to/lastmile_qr_scan"}, "name": "afd0d55866a301b25d721cd7557bdb2a", "is_reserved": 0}, {"is_disabled": 0, "fusion_lon": 0.0, "fusion_lat": 0.0, "lat": 38.911106833333335, "type": "electric_scooter", "lon": -77.03868583333333, "bike_id": "97de3513d62737cd821c18ada1e4eba0", "rental_uris": {"android": "https://dc.lft.to/lastmile_qr_scan", "ios": "https://dc.lft.to/lastmile_qr_scan"}, "name": "97de3513d62737cd821c18ada1e4eba0", "is_reserved": 0}, {"is_disabled": 0, "fusion_lon": 0.0, "fusion_lat": 0.0, "lat": 38.924930833333335, "type": "electric_scooter", "lon": -77.03935483333333, "bike_id": "5844f85b2de9d7286bafb3c149a7173f", "rental_uris": {"android": "https://dc.lft.to/lastmile_qr_scan", "ios": "https://dc.lft.to/lastmile_qr_scan"}, "name": "5844f85b2de9d7286bafb3c149a7173f", "is_reserved": 0}, {"is_disabled": 0, "fusion_lon": 0.0, "fusion_lat": 0.0, "lat": 38.90832983333333, "type": "electric_scooter", "lon": -77.034572, "bike_id": "4e94fba420ae5ef21b0a040c2a20a9ca", "rental_uris": {"android": "https://dc.lft.to/lastmile_qr_scan", "ios": "https://dc.lft.to/lastmile_qr_scan"}, "name": "4e94fba420ae5ef21b0a040c2a20a9ca", "is_reserved": 0}, {"is_disabled": 0, "fusion_lon": 0.0, "fusion_lat": 0.0, "lat": 38.88581716666667, "type": "electric_scooter", "lon": -77.012281, "bike_id": "15f3c4b229fb6ef7d180f5f1e9ac4bbb", "rental_uris": {"android": "https://dc.lft.to/lastmile_qr_scan", "ios": "https://dc.lft.to/lastmile_qr_scan"}, "name": "15f3c4b229fb6ef7d180f5f1e9ac4bbb", "is_reserved": 0}, {"is_disabled": 0, "fusion_lon": 0.0, "fusion_lat": 0.0, "lat": 38.8983405, "type": "electric_scooter", "lon": -77.03184033333334, "bike_id": "86410274b569b9a145c728537396e895", "rental_uris": {"android": "https://dc.lft.to/lastmile_qr_scan", "ios": "https://dc.lft.to/lastmile_qr_scan"}, "name": "86410274b569b9a145c728537396e895", "is_reserved": 0}, {"is_disabled": 0, "fusion_lon": 0.0, "fusion_lat": 0.0, "lat": 38.909529, "type": "electric_scooter", "lon": -77.02717683333333, "bike_id": "e20bbee444817f4de12ab1b074595090", "rental_uris": {"android": "https://dc.lft.to/lastmile_qr_scan", "ios": "https://dc.lft.to/lastmile_qr_scan"}, "name": "e20bbee444817f4de12ab1b074595090", "is_reserved": 0}, {"is_disabled": 0, "fusion_lon": 0.0, "fusion_lat": 0.0, "lat": 38.90389583333334, "type": "electric_scooter", "lon": -77.0280625, "bike_id": "f33120fa07dd205a8dab2e08d96d0ce4", "rental_uris": {"android": "https://dc.lft.to/lastmile_qr_scan", "ios": "https://dc.lft.to/lastmile_qr_scan"}, "name": "f33120fa07dd205a8dab2e08d96d0ce4", "is_reserved": 0}, {"is_disabled": 0, "fusion_lon": 0.0, "fusion_lat": 0.0, "lat": 38.89562633333333, "type": "electric_scooter", "lon": -77.022782, "bike_id": "8d43648a4ddec1fb32dae6e1516d6b72", "rental_uris": {"android": "https://dc.lft.to/lastmile_qr_scan", "ios": "https://dc.lft.to/lastmile_qr_scan"}, "name": "8d43648a4ddec1fb32dae6e1516d6b72", "is_reserved": 0}, {"is_disabled": 0, "fusion_lon": 0.0, "fusion_lat": 0.0, "lat": 38.916094333333334, "type": "electric_scooter", "lon": -77.040187, "bike_id": "bde70899b5dfb3a672e0596343cb6340", "rental_uris": {"android": "https://dc.lft.to/lastmile_qr_scan", "ios": "https://dc.lft.to/lastmile_qr_scan"}, "name": "bde70899b5dfb3a672e0596343cb6340", "is_reserved": 0}, {"is_disabled": 0, "fusion_lon": 0.0, "fusion_lat": 0.0, "lat": 38.975366333333334, "type": "electric_bike", "lon": -76.995363, "bike_id": "c4d3b2e8bc95934c922d8e2900da70b6", "rental_uris": {"android": "https://dc.lft.to/lastmile_qr_scan", "ios": "https://dc.lft.to/lastmile_qr_scan"}, "name": "c4d3b2e8bc95934c922d8e2900da70b6", "is_reserved": 0}, {"is_disabled": 0, "fusion_lon": 0.0, "fusion_lat": 0.0, "lat": 38.911499, "type": "electric_scooter", "lon": -77.02384566666667, "bike_id": "89fdcda00f169187534afb52e720e5ea", "rental_uris": {"android": "https://dc.lft.to/lastmile_qr_scan", "ios": "https://dc.lft.to/lastmile_qr_scan"}, "name": "89fdcda00f169187534afb52e720e5ea", "is_reserved": 0}, {"is_disabled": 0, "fusion_lon": 0.0, "fusion_lat": 0.0, "lat": 38.8983345, "type": "electric_scooter", "lon": -76.94635933333333, "bike_id": "724aae6f8adc2fd6d252a6e3497384a5", "rental_uris": {"android": "https://dc.lft.to/lastmile_qr_scan", "ios": "https://dc.lft.to/lastmile_qr_scan"}, "name": "724aae6f8adc2fd6d252a6e3497384a5", "is_reserved": 0}, {"is_disabled": 0, "fusion_lon": 0.0, "fusion_lat": 0.0, "lat": 38.93307883333333, "type": "electric_scooter", "lon": -77.03263716666666, "bike_id": "cd6152b0001e02f170a2f2e43448c92d", "rental_uris": {"android": "https://dc.lft.to/lastmile_qr_scan", "ios": "https://dc.lft.to/lastmile_qr_scan"}, "name": "cd6152b0001e02f170a2f2e43448c92d", "is_reserved": 0}, {"is_disabled": 0, "fusion_lon": 0.0, "fusion_lat": 0.0, "lat": 38.908518, "type": "electric_scooter", "lon": -77.00987233333333, "bike_id": "9e3fa7bfe242c3f15964c5a4f48d9a30", "rental_uris": {"android": "https://dc.lft.to/lastmile_qr_scan", "ios": "https://dc.lft.to/lastmile_qr_scan"}, "name": "9e3fa7bfe242c3f15964c5a4f48d9a30", "is_reserved": 0}, {"is_disabled": 0, "fusion_lon": 0.0, "fusion_lat": 0.0, "lat": 38.923318333333334, "type": "electric_scooter", "lon": -77.0431365, "bike_id": "cc3a4b344115e976b6f979e63bcb80b4", "rental_uris": {"android": "https://dc.lft.to/lastmile_qr_scan", "ios": "https://dc.lft.to/lastmile_qr_scan"}, "name": "cc3a4b344115e976b6f979e63bcb80b4", "is_reserved": 0}, {"is_disabled": 0, "fusion_lon": 0.0, "fusion_lat": 0.0, "lat": 38.9169535, "type": "electric_scooter", "lon": -77.02988416666666, "bike_id": "b85f5e241d6f6bb031409f75eed27ace", "rental_uris": {"android": "https://dc.lft.to/lastmile_qr_scan", "ios": "https://dc.lft.to/lastmile_qr_scan"}, "name": "b85f5e241d6f6bb031409f75eed27ace", "is_reserved": 0}, {"is_disabled": 0, "fusion_lon": 0.0, "fusion_lat": 0.0, "lat": 38.915877333333334, "type": "electric_bike", "lon": -76.9715185, "bike_id": "f39fd6b008a3bebc31aa316dcd51215a", "rental_uris": {"android": "https://dc.lft.to/lastmile_qr_scan", "ios": "https://dc.lft.to/lastmile_qr_scan"}, "name": "f39fd6b008a3bebc31aa316dcd51215a", "is_reserved": 0}, {"is_disabled": 0, "fusion_lon": 0.0, "fusion_lat": 0.0, "lat": 38.90504266666667, "type": "electric_scooter", "lon": -77.02949216666667, "bike_id": "bd9672e318c33e69a52cf2acb6c627e8", "rental_uris": {"android": "https://dc.lft.to/lastmile_qr_scan", "ios": "https://dc.lft.to/lastmile_qr_scan"}, "name": "bd9672e318c33e69a52cf2acb6c627e8", "is_reserved": 0}, {"is_disabled": 0, "fusion_lon": 0.0, "fusion_lat": 0.0, "lat": 38.883750166666665, "type": "electric_bike", "lon": -77.0176975, "bike_id": "ec27caab0a7df8a98e1b6b74ff4b73b0", "rental_uris": {"android": "https://dc.lft.to/lastmile_qr_scan", "ios": "https://dc.lft.to/lastmile_qr_scan"}, "name": "ec27caab0a7df8a98e1b6b74ff4b73b0", "is_reserved": 0}, {"is_disabled": 0, "fusion_lon": 0.0, "fusion_lat": 0.0, "lat": 38.869105, "type": "electric_bike", "lon": -77.131822, "bike_id": "965bef99edadb86cd66629daa4db019b", "rental_uris": {"android": "https://dc.lft.to/lastmile_qr_scan", "ios": "https://dc.lft.to/lastmile_qr_scan"}, "name": "965bef99edadb86cd66629daa4db019b", "is_reserved": 0}, {"is_disabled": 0, "fusion_lon": 0.0, "fusion_lat": 0.0, "lat": 38.93557916666666, "type": "electric_bike", "lon": -77.082005, "bike_id": "acffcd8ec08e2d5deeb61f56c2e7fd1b", "rental_uris": {"android": "https://dc.lft.to/lastmile_qr_scan", "ios": "https://dc.lft.to/lastmile_qr_scan"}, "name": "acffcd8ec08e2d5deeb61f56c2e7fd1b", "is_reserved": 0}, {"is_disabled": 0, "fusion_lon": 0.0, "fusion_lat": 0.0, "lat": 38.9199435, "type": "electric_bike", "lon": -76.97315666666667, "bike_id": "8926b4dece21e37b3fa124dcc44d55ff", "rental_uris": {"android": "https://dc.lft.to/lastmile_qr_scan", "ios": "https://dc.lft.to/lastmile_qr_scan"}, "name": "8926b4dece21e37b3fa124dcc44d55ff", "is_reserved": 0}, {"is_disabled": 0, "fusion_lon": 0.0, "fusion_lat": 0.0, "lat": 38.88511366666667, "type": "electric_scooter", "lon": -77.02098866666667, "bike_id": "01921440e7739ed58af07346f2d522f9", "rental_uris": {"android": "https://dc.lft.to/lastmile_qr_scan", "ios": "https://dc.lft.to/lastmile_qr_scan"}, "name": "01921440e7739ed58af07346f2d522f9", "is_reserved": 0}, {"is_disabled": 0, "fusion_lon": 0.0, "fusion_lat": 0.0, "lat": 38.89922216666667, "type": "electric_scooter", "lon": -77.0292465, "bike_id": "eb5d5752db979f7811b236e9c2e1fc80", "rental_uris": {"android": "https://dc.lft.to/lastmile_qr_scan", "ios": "https://dc.lft.to/lastmile_qr_scan"}, "name": "eb5d5752db979f7811b236e9c2e1fc80", "is_reserved": 0}, {"is_disabled": 0, "fusion_lon": 0.0, "fusion_lat": 0.0, "lat": 38.90956583333333, "type": "electric_scooter", "lon": -77.0486615, "bike_id": "05201b8bc322eacb4d7776d108b5fefd", "rental_uris": {"android": "https://dc.lft.to/lastmile_qr_scan", "ios": "https://dc.lft.to/lastmile_qr_scan"}, "name": "05201b8bc322eacb4d7776d108b5fefd", "is_reserved": 0}, {"is_disabled": 0, "fusion_lon": 0.0, "fusion_lat": 0.0, "lat": 38.88986633333333, "type": "electric_scooter", "lon": -77.0490215, "bike_id": "6103432073473a8afb38f84c8b42996f", "rental_uris": {"android": "https://dc.lft.to/lastmile_qr_scan", "ios": "https://dc.lft.to/lastmile_qr_scan"}, "name": "6103432073473a8afb38f84c8b42996f", "is_reserved": 0}, {"is_disabled": 0, "fusion_lon": 0.0, "fusion_lat": 0.0, "lat": 38.9095205, "type": "electric_scooter", "lon": -77.02717883333334, "bike_id": "32de0a40f46ca9bfaeacfc6af334d549", "rental_uris": {"android": "https://dc.lft.to/lastmile_qr_scan", "ios": "https://dc.lft.to/lastmile_qr_scan"}, "name": "32de0a40f46ca9bfaeacfc6af334d549", "is_reserved": 0}, {"is_disabled": 0, "fusion_lon": 0.0, "fusion_lat": 0.0, "lat": 38.923286833333336, "type": "electric_scooter", "lon": -77.03668016666667, "bike_id": "ef11a7d84ae09a83fdb871aee19b6a00", "rental_uris": {"android": "https://dc.lft.to/lastmile_qr_scan", "ios": "https://dc.lft.to/lastmile_qr_scan"}, "name": "ef11a7d84ae09a83fdb871aee19b6a00", "is_reserved": 0}, {"is_disabled": 0, "fusion_lon": 0.0, "fusion_lat": 0.0, "lat": 38.93009516666667, "type": "electric_scooter", "lon": -77.022076, "bike_id": "45a1e9c32da23220321fbbeb909ba245", "rental_uris": {"android": "https://dc.lft.to/lastmile_qr_scan", "ios": "https://dc.lft.to/lastmile_qr_scan"}, "name": "45a1e9c32da23220321fbbeb909ba245", "is_reserved": 0}, {"is_disabled": 0, "fusion_lon": 0.0, "fusion_lat": 0.0, "lat": 38.90828916666667, "type": "electric_scooter", "lon": -76.9970085, "bike_id": "e9715e1770e03267834b25592b93870a", "rental_uris": {"android": "https://dc.lft.to/lastmile_qr_scan", "ios": "https://dc.lft.to/lastmile_qr_scan"}, "name": "e9715e1770e03267834b25592b93870a", "is_reserved": 0}, {"is_disabled": 0, "fusion_lon": 0.0, "fusion_lat": 0.0, "lat": 38.94916966666667, "type": "electric_bike", "lon": -77.00805283333334, "bike_id": "5336de503e20b1fad835b7f8cc036e4e", "rental_uris": {"android": "https://dc.lft.to/lastmile_qr_scan", "ios": "https://dc.lft.to/lastmile_qr_scan"}, "name": "5336de503e20b1fad835b7f8cc036e4e", "is_reserved": 0}, {"is_disabled": 0, "fusion_lon": 0.0, "fusion_lat": 0.0, "lat": 38.908710166666665, "type": "electric_scooter", "lon": -77.03380533333333, "bike_id": "b0f4708b629b281643ffadd7c4f5cd52", "rental_uris": {"android": "https://dc.lft.to/lastmile_qr_scan", "ios": "https://dc.lft.to/lastmile_qr_scan"}, "name": "b0f4708b629b281643ffadd7c4f5cd52", "is_reserved": 0}, {"is_disabled": 0, "fusion_lon": 0.0, "fusion_lat": 0.0, "lat": 38.89751183333333, "type": "electric_scooter", "lon": -77.0214935, "bike_id": "b3eb85878180c46a7b33f1215bf5ad1e", "rental_uris": {"android": "https://dc.lft.to/lastmile_qr_scan", "ios": "https://dc.lft.to/lastmile_qr_scan"}, "name": "b3eb85878180c46a7b33f1215bf5ad1e", "is_reserved": 0}, {"is_disabled": 0, "fusion_lon": 0.0, "fusion_lat": 0.0, "lat": 38.91423533333333, "type": "electric_scooter", "lon": -77.0390685, "bike_id": "9c4ecbc6d78498674a11b034909ad4af", "rental_uris": {"android": "https://dc.lft.to/lastmile_qr_scan", "ios": "https://dc.lft.to/lastmile_qr_scan"}, "name": "9c4ecbc6d78498674a11b034909ad4af", "is_reserved": 0}, {"is_disabled": 0, "fusion_lon": 0.0, "fusion_lat": 0.0, "lat": 38.87713266666667, "type": "electric_scooter", "lon": -77.017572, "bike_id": "fcb66b967b3bcc973ddfd3190024afd6", "rental_uris": {"android": "https://dc.lft.to/lastmile_qr_scan", "ios": "https://dc.lft.to/lastmile_qr_scan"}, "name": "fcb66b967b3bcc973ddfd3190024afd6", "is_reserved": 0}, {"is_disabled": 0, "fusion_lon": 0.0, "fusion_lat": 0.0, "lat": 38.93697933333333, "type": "electric_bike", "lon": -77.02979816666667, "bike_id": "b45ffbbcbe0c102c3115c91066c1ac36", "rental_uris": {"android": "https://dc.lft.to/lastmile_qr_scan", "ios": "https://dc.lft.to/lastmile_qr_scan"}, "name": "b45ffbbcbe0c102c3115c91066c1ac36", "is_reserved": 0}, {"is_disabled": 0, "fusion_lon": 0.0, "fusion_lat": 0.0, "lat": 38.8973745, "type": "electric_scooter", "lon": -77.0335695, "bike_id": "35d8ca8789ad078262c242fa59890917", "rental_uris": {"android": "https://dc.lft.to/lastmile_qr_scan", "ios": "https://dc.lft.to/lastmile_qr_scan"}, "name": "35d8ca8789ad078262c242fa59890917", "is_reserved": 0}, {"is_disabled": 0, "fusion_lon": 0.0, "fusion_lat": 0.0, "lat": 38.918249, "type": "electric_scooter", "lon": -77.03465433333334, "bike_id": "6da6b3145c7279b539ce15e4251093c8", "rental_uris": {"android": "https://dc.lft.to/lastmile_qr_scan", "ios": "https://dc.lft.to/lastmile_qr_scan"}, "name": "6da6b3145c7279b539ce15e4251093c8", "is_reserved": 0}, {"is_disabled": 0, "fusion_lon": 0.0, "fusion_lat": 0.0, "lat": 38.9120325, "type": "electric_scooter", "lon": -77.0008845, "bike_id": "e20472423fef08c60f1ec21875b29165", "rental_uris": {"android": "https://dc.lft.to/lastmile_qr_scan", "ios": "https://dc.lft.to/lastmile_qr_scan"}, "name": "e20472423fef08c60f1ec21875b29165", "is_reserved": 0}, {"is_disabled": 0, "fusion_lon": 0.0, "fusion_lat": 0.0, "lat": 38.91038533333333, "type": "electric_scooter", "lon": -77.01496433333334, "bike_id": "3b97b5167e3d1ab231c6012afebb6a43", "rental_uris": {"android": "https://dc.lft.to/lastmile_qr_scan", "ios": "https://dc.lft.to/lastmile_qr_scan"}, "name": "3b97b5167e3d1ab231c6012afebb6a43", "is_reserved": 0}, {"is_disabled": 0, "fusion_lon": 0.0, "fusion_lat": 0.0, "lat": 38.91351933333333, "type": "electric_scooter", "lon": -77.0321425, "bike_id": "fe5933a1f357a32f896d6440a3a3768a", "rental_uris": {"android": "https://dc.lft.to/lastmile_qr_scan", "ios": "https://dc.lft.to/lastmile_qr_scan"}, "name": "fe5933a1f357a32f896d6440a3a3768a", "is_reserved": 0}, {"is_disabled": 0, "fusion_lon": 0.0, "fusion_lat": 0.0, "lat": 38.909515999999996, "type": "electric_scooter", "lon": -77.02382966666667, "bike_id": "7db808a0261cd9e38e8935155dffa906", "rental_uris": {"android": "https://dc.lft.to/lastmile_qr_scan", "ios": "https://dc.lft.to/lastmile_qr_scan"}, "name": "7db808a0261cd9e38e8935155dffa906", "is_reserved": 0}, {"is_disabled": 0, "fusion_lon": 0.0, "fusion_lat": 0.0, "lat": 38.922346, "type": "electric_scooter", "lon": -76.97532783333334, "bike_id": "e29fba98d336e89ca29b4ae6748d1b36", "rental_uris": {"android": "https://dc.lft.to/lastmile_qr_scan", "ios": "https://dc.lft.to/lastmile_qr_scan"}, "name": "e29fba98d336e89ca29b4ae6748d1b36", "is_reserved": 0}, {"is_disabled": 0, "fusion_lon": 0.0, "fusion_lat": 0.0, "lat": 38.916941333333334, "type": "electric_scooter", "lon": -77.03188233333333, "bike_id": "3b45e00007e3568c184456d38277a501", "rental_uris": {"android": "https://dc.lft.to/lastmile_qr_scan", "ios": "https://dc.lft.to/lastmile_qr_scan"}, "name": "3b45e00007e3568c184456d38277a501", "is_reserved": 0}, {"is_disabled": 0, "fusion_lon": 0.0, "fusion_lat": 0.0, "lat": 38.91179833333333, "type": "electric_scooter", "lon": -77.039684, "bike_id": "3527c809d649f5bc8e5c738795dc6f34", "rental_uris": {"android": "https://dc.lft.to/lastmile_qr_scan", "ios": "https://dc.lft.to/lastmile_qr_scan"}, "name": "3527c809d649f5bc8e5c738795dc6f34", "is_reserved": 0}, {"is_disabled": 0, "fusion_lon": 0.0, "fusion_lat": 0.0, "lat": 38.812737, "type": "electric_bike", "lon": -77.06173566666666, "bike_id": "49e55c28c0cb25a459540a9042bd0054", "rental_uris": {"android": "https://dc.lft.to/lastmile_qr_scan", "ios": "https://dc.lft.to/lastmile_qr_scan"}, "name": "49e55c28c0cb25a459540a9042bd0054", "is_reserved": 0}, {"is_disabled": 0, "fusion_lon": 0.0, "fusion_lat": 0.0, "lat": 38.9346545, "type": "electric_scooter", "lon": -77.06880766666667, "bike_id": "de9c72bebd42abc355e14313ef4830da", "rental_uris": {"android": "https://dc.lft.to/lastmile_qr_scan", "ios": "https://dc.lft.to/lastmile_qr_scan"}, "name": "de9c72bebd42abc355e14313ef4830da", "is_reserved": 0}, {"is_disabled": 0, "fusion_lon": 0.0, "fusion_lat": 0.0, "lat": 38.89763516666667, "type": "electric_scooter", "lon": -77.010262, "bike_id": "69cca940cf80facb10a97ac9a2cbf0ae", "rental_uris": {"android": "https://dc.lft.to/lastmile_qr_scan", "ios": "https://dc.lft.to/lastmile_qr_scan"}, "name": "69cca940cf80facb10a97ac9a2cbf0ae", "is_reserved": 0}, {"is_disabled": 0, "fusion_lon": 0.0, "fusion_lat": 0.0, "lat": 38.97261183333333, "type": "electric_bike", "lon": -76.99168733333333, "bike_id": "d1f23382521181b1790361a1c383b63e", "rental_uris": {"android": "https://dc.lft.to/lastmile_qr_scan", "ios": "https://dc.lft.to/lastmile_qr_scan"}, "name": "d1f23382521181b1790361a1c383b63e", "is_reserved": 0}, {"is_disabled": 0, "fusion_lon": 0.0, "fusion_lat": 0.0, "lat": 38.917841833333334, "type": "electric_scooter", "lon": -77.0345225, "bike_id": "61f8af0efb0afcd9ca23d3f9115fe43b", "rental_uris": {"android": "https://dc.lft.to/lastmile_qr_scan", "ios": "https://dc.lft.to/lastmile_qr_scan"}, "name": "61f8af0efb0afcd9ca23d3f9115fe43b", "is_reserved": 0}, {"is_disabled": 0, "fusion_lon": 0.0, "fusion_lat": 0.0, "lat": 38.9176215, "type": "electric_scooter", "lon": -77.02810766666667, "bike_id": "f576ddeeb0746f23030db7efa164c3dd", "rental_uris": {"android": "https://dc.lft.to/lastmile_qr_scan", "ios": "https://dc.lft.to/lastmile_qr_scan"}, "name": "f576ddeeb0746f23030db7efa164c3dd", "is_reserved": 0}, {"is_disabled": 0, "fusion_lon": 0.0, "fusion_lat": 0.0, "lat": 38.918114333333335, "type": "electric_scooter", "lon": -77.03185533333334, "bike_id": "8a40696610b065994283df6b3def66e1", "rental_uris": {"android": "https://dc.lft.to/lastmile_qr_scan", "ios": "https://dc.lft.to/lastmile_qr_scan"}, "name": "8a40696610b065994283df6b3def66e1", "is_reserved": 0}, {"is_disabled": 0, "fusion_lon": 0.0, "fusion_lat": 0.0, "lat": 38.9040975, "type": "electric_scooter", "lon": -77.04042733333333, "bike_id": "091c2389eb2c5f4c3962880be6d1ffaf", "rental_uris": {"android": "https://dc.lft.to/lastmile_qr_scan", "ios": "https://dc.lft.to/lastmile_qr_scan"}, "name": "091c2389eb2c5f4c3962880be6d1ffaf", "is_reserved": 0}, {"is_disabled": 0, "fusion_lon": 0.0, "fusion_lat": 0.0, "lat": 38.839324833333336, "type": "electric_bike", "lon": -77.07907966666667, "bike_id": "ae3179677505083972682bb8fd0e7f99", "rental_uris": {"android": "https://dc.lft.to/lastmile_qr_scan", "ios": "https://dc.lft.to/lastmile_qr_scan"}, "name": "ae3179677505083972682bb8fd0e7f99", "is_reserved": 0}, {"is_disabled": 0, "fusion_lon": 0.0, "fusion_lat": 0.0, "lat": 38.93224816666667, "type": "electric_scooter", "lon": -76.9948675, "bike_id": "608b758f68c7b34a774f3e7cd011fe79", "rental_uris": {"android": "https://dc.lft.to/lastmile_qr_scan", "ios": "https://dc.lft.to/lastmile_qr_scan"}, "name": "608b758f68c7b34a774f3e7cd011fe79", "is_reserved": 0}, {"is_disabled": 0, "fusion_lon": 0.0, "fusion_lat": 0.0, "lat": 38.89740916666667, "type": "electric_scooter", "lon": -77.047264, "bike_id": "7840da2e0dc7537f80efe1258ecde853", "rental_uris": {"android": "https://dc.lft.to/lastmile_qr_scan", "ios": "https://dc.lft.to/lastmile_qr_scan"}, "name": "7840da2e0dc7537f80efe1258ecde853", "is_reserved": 0}, {"is_disabled": 0, "fusion_lon": 0.0, "fusion_lat": 0.0, "lat": 38.9265945, "type": "electric_bike", "lon": -76.99754983333334, "bike_id": "cd261db173c77f46fa7452a012e3b769", "rental_uris": {"android": "https://dc.lft.to/lastmile_qr_scan", "ios": "https://dc.lft.to/lastmile_qr_scan"}, "name": "cd261db173c77f46fa7452a012e3b769", "is_reserved": 0}, {"is_disabled": 0, "fusion_lon": 0.0, "fusion_lat": 0.0, "lat": 38.7762085, "type": "electric_bike", "lon": -77.08354133333333, "bike_id": "b0f70475e7edfdbfcd618aef14590d68", "rental_uris": {"android": "https://dc.lft.to/lastmile_qr_scan", "ios": "https://dc.lft.to/lastmile_qr_scan"}, "name": "b0f70475e7edfdbfcd618aef14590d68", "is_reserved": 0}, {"is_disabled": 0, "fusion_lon": 0.0, "fusion_lat": 0.0, "lat": 38.889609, "type": "electric_scooter", "lon": -76.99143933333333, "bike_id": "e3360223d75eb606830fbd4fdf86dcb1", "rental_uris": {"android": "https://dc.lft.to/lastmile_qr_scan", "ios": "https://dc.lft.to/lastmile_qr_scan"}, "name": "e3360223d75eb606830fbd4fdf86dcb1", "is_reserved": 0}, {"is_disabled": 0, "fusion_lon": 0.0, "fusion_lat": 0.0, "lat": 38.88851833333333, "type": "electric_bike", "lon": -76.97697683333334, "bike_id": "4a68be1970a34cbff65c8015534b6d51", "rental_uris": {"android": "https://dc.lft.to/lastmile_qr_scan", "ios": "https://dc.lft.to/lastmile_qr_scan"}, "name": "4a68be1970a34cbff65c8015534b6d51", "is_reserved": 0}, {"is_disabled": 0, "fusion_lon": 0.0, "fusion_lat": 0.0, "lat": 38.89829616666667, "type": "electric_scooter", "lon": -77.02962516666666, "bike_id": "e7904145f1b2bedb97a5ee92fc2f40c0", "rental_uris": {"android": "https://dc.lft.to/lastmile_qr_scan", "ios": "https://dc.lft.to/lastmile_qr_scan"}, "name": "e7904145f1b2bedb97a5ee92fc2f40c0", "is_reserved": 0}, {"is_disabled": 0, "fusion_lon": 0.0, "fusion_lat": 0.0, "lat": 38.88745933333333, "type": "electric_scooter", "lon": -77.014321, "bike_id": "844a463bcc4a90cf1eb9dae6df3a1a7d", "rental_uris": {"android": "https://dc.lft.to/lastmile_qr_scan", "ios": "https://dc.lft.to/lastmile_qr_scan"}, "name": "844a463bcc4a90cf1eb9dae6df3a1a7d", "is_reserved": 0}, {"is_disabled": 0, "fusion_lon": 0.0, "fusion_lat": 0.0, "lat": 38.91535866666667, "type": "electric_scooter", "lon": -77.02184133333333, "bike_id": "ad1b4380add9b2c47a3d21d353b4667d", "rental_uris": {"android": "https://dc.lft.to/lastmile_qr_scan", "ios": "https://dc.lft.to/lastmile_qr_scan"}, "name": "ad1b4380add9b2c47a3d21d353b4667d", "is_reserved": 0}, {"is_disabled": 0, "fusion_lon": 0.0, "fusion_lat": 0.0, "lat": 38.86672733333333, "type": "electric_scooter", "lon": -76.9888415, "bike_id": "fc118d92df5da8193fb6eb5797f80f92", "rental_uris": {"android": "https://dc.lft.to/lastmile_qr_scan", "ios": "https://dc.lft.to/lastmile_qr_scan"}, "name": "fc118d92df5da8193fb6eb5797f80f92", "is_reserved": 0}, {"is_disabled": 0, "fusion_lon": 0.0, "fusion_lat": 0.0, "lat": 38.91765516666667, "type": "electric_scooter", "lon": -77.03197583333333, "bike_id": "447c67d5b65901f18cbceca4c2ee6cb5", "rental_uris": {"android": "https://dc.lft.to/lastmile_qr_scan", "ios": "https://dc.lft.to/lastmile_qr_scan"}, "name": "447c67d5b65901f18cbceca4c2ee6cb5", "is_reserved": 0}, {"is_disabled": 0, "fusion_lon": 0.0, "fusion_lat": 0.0, "lat": 38.91036733333333, "type": "electric_scooter", "lon": -77.038031, "bike_id": "ef76207f8630645b269c55b01956681a", "rental_uris": {"android": "https://dc.lft.to/lastmile_qr_scan", "ios": "https://dc.lft.to/lastmile_qr_scan"}, "name": "ef76207f8630645b269c55b01956681a", "is_reserved": 0}, {"is_disabled": 0, "fusion_lon": 0.0, "fusion_lat": 0.0, "lat": 38.92835933333333, "type": "electric_scooter", "lon": -77.0554295, "bike_id": "3a6a155e269cbfbaf19793c8d9535630", "rental_uris": {"android": "https://dc.lft.to/lastmile_qr_scan", "ios": "https://dc.lft.to/lastmile_qr_scan"}, "name": "3a6a155e269cbfbaf19793c8d9535630", "is_reserved": 0}, {"is_disabled": 0, "fusion_lon": 0.0, "fusion_lat": 0.0, "lat": 38.8680305, "type": "electric_scooter", "lon": -77.01178016666667, "bike_id": "70012ec836a5569e1e77dc597ac9b0e9", "rental_uris": {"android": "https://dc.lft.to/lastmile_qr_scan", "ios": "https://dc.lft.to/lastmile_qr_scan"}, "name": "70012ec836a5569e1e77dc597ac9b0e9", "is_reserved": 0}, {"is_disabled": 0, "fusion_lon": 0.0, "fusion_lat": 0.0, "lat": 38.89389416666667, "type": "electric_scooter", "lon": -76.949979, "bike_id": "5fd945c376f3f0f09db0d90ea0777259", "rental_uris": {"android": "https://dc.lft.to/lastmile_qr_scan", "ios": "https://dc.lft.to/lastmile_qr_scan"}, "name": "5fd945c376f3f0f09db0d90ea0777259", "is_reserved": 0}, {"is_disabled": 0, "fusion_lon": 0.0, "fusion_lat": 0.0, "lat": 39.054587833333336, "type": "electric_bike", "lon": -77.14329866666667, "bike_id": "3392b19091bd56dcc533490314f7d3c8", "rental_uris": {"android": "https://dc.lft.to/lastmile_qr_scan", "ios": "https://dc.lft.to/lastmile_qr_scan"}, "name": "3392b19091bd56dcc533490314f7d3c8", "is_reserved": 0}, {"is_disabled": 0, "fusion_lon": 0.0, "fusion_lat": 0.0, "lat": 38.89849183333333, "type": "electric_scooter", "lon": -77.02189133333333, "bike_id": "ba161b09ff258cee93444ddafdc6f581", "rental_uris": {"android": "https://dc.lft.to/lastmile_qr_scan", "ios": "https://dc.lft.to/lastmile_qr_scan"}, "name": "ba161b09ff258cee93444ddafdc6f581", "is_reserved": 0}, {"is_disabled": 0, "fusion_lon": 0.0, "fusion_lat": 0.0, "lat": 38.94588133333333, "type": "electric_bike", "lon": -77.34408116666667, "bike_id": "d5f7bfec5c40edaf54dc877f54ab2366", "rental_uris": {"android": "https://dc.lft.to/lastmile_qr_scan", "ios": "https://dc.lft.to/lastmile_qr_scan"}, "name": "d5f7bfec5c40edaf54dc877f54ab2366", "is_reserved": 0}, {"is_disabled": 0, "fusion_lon": 0.0, "fusion_lat": 0.0, "lat": 38.896748333333335, "type": "electric_scooter", "lon": -76.94709716666667, "bike_id": "da41073c6288bf7d439413cc83d77273", "rental_uris": {"android": "https://dc.lft.to/lastmile_qr_scan", "ios": "https://dc.lft.to/lastmile_qr_scan"}, "name": "da41073c6288bf7d439413cc83d77273", "is_reserved": 0}, {"is_disabled": 0, "fusion_lon": 0.0, "fusion_lat": 0.0, "lat": 38.848398333333336, "type": "electric_bike", "lon": -77.0805545, "bike_id": "a661f6aa8c9324526d9ee808c7cddc7e", "rental_uris": {"android": "https://dc.lft.to/lastmile_qr_scan", "ios": "https://dc.lft.to/lastmile_qr_scan"}, "name": "a661f6aa8c9324526d9ee808c7cddc7e", "is_reserved": 0}, {"is_disabled": 0, "fusion_lon": 0.0, "fusion_lat": 0.0, "lat": 38.953572666666666, "type": "electric_bike", "lon": -76.98092033333333, "bike_id": "05d994f88e1e280f7a9125abbae03e8b", "rental_uris": {"android": "https://dc.lft.to/lastmile_qr_scan", "ios": "https://dc.lft.to/lastmile_qr_scan"}, "name": "05d994f88e1e280f7a9125abbae03e8b", "is_reserved": 0}, {"is_disabled": 0, "fusion_lon": 0.0, "fusion_lat": 0.0, "lat": 38.944461, "type": "electric_scooter", "lon": -77.06355866666667, "bike_id": "fe699db9d0857095e022641613a7004f", "rental_uris": {"android": "https://dc.lft.to/lastmile_qr_scan", "ios": "https://dc.lft.to/lastmile_qr_scan"}, "name": "fe699db9d0857095e022641613a7004f", "is_reserved": 0}, {"is_disabled": 0, "fusion_lon": 0.0, "fusion_lat": 0.0, "lat": 38.91419333333333, "type": "electric_scooter", "lon": -77.04156266666666, "bike_id": "b0439a980804fbc97c50d81c48518ba0", "rental_uris": {"android": "https://dc.lft.to/lastmile_qr_scan", "ios": "https://dc.lft.to/lastmile_qr_scan"}, "name": "b0439a980804fbc97c50d81c48518ba0", "is_reserved": 0}, {"is_disabled": 0, "fusion_lon": 0.0, "fusion_lat": 0.0, "lat": 38.90025133333333, "type": "electric_scooter", "lon": -76.997755, "bike_id": "b1157b63d11955bdd2686727a8dafbc7", "rental_uris": {"android": "https://dc.lft.to/lastmile_qr_scan", "ios": "https://dc.lft.to/lastmile_qr_scan"}, "name": "b1157b63d11955bdd2686727a8dafbc7", "is_reserved": 0}, {"is_disabled": 0, "fusion_lon": 0.0, "fusion_lat": 0.0, "lat": 38.966045, "type": "electric_bike", "lon": -76.9833445, "bike_id": "da24bbd7fb6b5df5b8a3beadea9ca813", "rental_uris": {"android": "https://dc.lft.to/lastmile_qr_scan", "ios": "https://dc.lft.to/lastmile_qr_scan"}, "name": "da24bbd7fb6b5df5b8a3beadea9ca813", "is_reserved": 0}, {"is_disabled": 0, "fusion_lon": 0.0, "fusion_lat": 0.0, "lat": 38.87574333333333, "type": "electric_scooter", "lon": -77.01992433333334, "bike_id": "0588a65e0aa8021bf4b5c92e6e962d65", "rental_uris": {"android": "https://dc.lft.to/lastmile_qr_scan", "ios": "https://dc.lft.to/lastmile_qr_scan"}, "name": "0588a65e0aa8021bf4b5c92e6e962d65", "is_reserved": 0}, {"is_disabled": 0, "fusion_lon": 0.0, "fusion_lat": 0.0, "lat": 38.91789883333333, "type": "electric_scooter", "lon": -77.03660266666667, "bike_id": "9cc01f5e158f09d647ee037ea5fc9c6b", "rental_uris": {"android": "https://dc.lft.to/lastmile_qr_scan", "ios": "https://dc.lft.to/lastmile_qr_scan"}, "name": "9cc01f5e158f09d647ee037ea5fc9c6b", "is_reserved": 0}, {"is_disabled": 0, "fusion_lon": 0.0, "fusion_lat": 0.0, "lat": 38.93395616666667, "type": "electric_scooter", "lon": -77.02724166666667, "bike_id": "1e53cca3036574e8140010f628f9fb42", "rental_uris": {"android": "https://dc.lft.to/lastmile_qr_scan", "ios": "https://dc.lft.to/lastmile_qr_scan"}, "name": "1e53cca3036574e8140010f628f9fb42", "is_reserved": 0}, {"is_disabled": 0, "fusion_lon": 0.0, "fusion_lat": 0.0, "lat": 38.90275416666667, "type": "electric_scooter", "lon": -77.03645183333333, "bike_id": "a1f61a71759f546a26c4e79c5d94203e", "rental_uris": {"android": "https://dc.lft.to/lastmile_qr_scan", "ios": "https://dc.lft.to/lastmile_qr_scan"}, "name": "a1f61a71759f546a26c4e79c5d94203e", "is_reserved": 0}, {"is_disabled": 0, "fusion_lon": 0.0, "fusion_lat": 0.0, "lat": 38.915401333333335, "type": "electric_scooter", "lon": -77.0217695, "bike_id": "7db90eba8c55dfbee9303d36a043e041", "rental_uris": {"android": "https://dc.lft.to/lastmile_qr_scan", "ios": "https://dc.lft.to/lastmile_qr_scan"}, "name": "7db90eba8c55dfbee9303d36a043e041", "is_reserved": 0}, {"is_disabled": 0, "fusion_lon": 0.0, "fusion_lat": 0.0, "lat": 38.9215395, "type": "electric_scooter", "lon": -77.03510216666666, "bike_id": "ec485fc7b00e2f875e18f6309c6afb2e", "rental_uris": {"android": "https://dc.lft.to/lastmile_qr_scan", "ios": "https://dc.lft.to/lastmile_qr_scan"}, "name": "ec485fc7b00e2f875e18f6309c6afb2e", "is_reserved": 0}, {"is_disabled": 0, "fusion_lon": 0.0, "fusion_lat": 0.0, "lat": 38.921506666666666, "type": "electric_scooter", "lon": -77.03508016666666, "bike_id": "1ab0a3941cd107f45189b873a8acbdc1", "rental_uris": {"android": "https://dc.lft.to/lastmile_qr_scan", "ios": "https://dc.lft.to/lastmile_qr_scan"}, "name": "1ab0a3941cd107f45189b873a8acbdc1", "is_reserved": 0}, {"is_disabled": 0, "fusion_lon": 0.0, "fusion_lat": 0.0, "lat": 38.905794, "type": "electric_scooter", "lon": -77.023708, "bike_id": "32fc4d4c823f18d2eacbd0446227b699", "rental_uris": {"android": "https://dc.lft.to/lastmile_qr_scan", "ios": "https://dc.lft.to/lastmile_qr_scan"}, "name": "32fc4d4c823f18d2eacbd0446227b699", "is_reserved": 0}, {"is_disabled": 0, "fusion_lon": 0.0, "fusion_lat": 0.0, "lat": 38.908445666666665, "type": "electric_scooter", "lon": -77.02383, "bike_id": "73a8f3b76a2dd7f4d0282a5dac812ca5", "rental_uris": {"android": "https://dc.lft.to/lastmile_qr_scan", "ios": "https://dc.lft.to/lastmile_qr_scan"}, "name": "73a8f3b76a2dd7f4d0282a5dac812ca5", "is_reserved": 0}, {"is_disabled": 0, "fusion_lon": 0.0, "fusion_lat": 0.0, "lat": 38.915555166666664, "type": "electric_scooter", "lon": -77.01238883333333, "bike_id": "232119d5ed3d34c2c8af2fad3440d922", "rental_uris": {"android": "https://dc.lft.to/lastmile_qr_scan", "ios": "https://dc.lft.to/lastmile_qr_scan"}, "name": "232119d5ed3d34c2c8af2fad3440d922", "is_reserved": 0}, {"is_disabled": 0, "fusion_lon": 0.0, "fusion_lat": 0.0, "lat": 38.892633833333335, "type": "electric_scooter", "lon": -77.03178133333333, "bike_id": "2b816057e64317486211f0aeb29ac625", "rental_uris": {"android": "https://dc.lft.to/lastmile_qr_scan", "ios": "https://dc.lft.to/lastmile_qr_scan"}, "name": "2b816057e64317486211f0aeb29ac625", "is_reserved": 0}, {"is_disabled": 0, "fusion_lon": 0.0, "fusion_lat": 0.0, "lat": 38.9232205, "type": "electric_scooter", "lon": -77.04211466666666, "bike_id": "f1f7ee11a073321ef380023d0f810d9f", "rental_uris": {"android": "https://dc.lft.to/lastmile_qr_scan", "ios": "https://dc.lft.to/lastmile_qr_scan"}, "name": "f1f7ee11a073321ef380023d0f810d9f", "is_reserved": 0}, {"is_disabled": 0, "fusion_lon": 0.0, "fusion_lat": 0.0, "lat": 38.921655666666666, "type": "electric_scooter", "lon": -77.03844883333333, "bike_id": "fe517c6153c7e5e9229426a21b3ec7cf", "rental_uris": {"android": "https://dc.lft.to/lastmile_qr_scan", "ios": "https://dc.lft.to/lastmile_qr_scan"}, "name": "fe517c6153c7e5e9229426a21b3ec7cf", "is_reserved": 0}, {"is_disabled": 0, "fusion_lon": 0.0, "fusion_lat": 0.0, "lat": 38.914198, "type": "electric_scooter", "lon": -77.0415805, "bike_id": "0324d0b3aa4e30decbdb5df3e8b13b35", "rental_uris": {"android": "https://dc.lft.to/lastmile_qr_scan", "ios": "https://dc.lft.to/lastmile_qr_scan"}, "name": "0324d0b3aa4e30decbdb5df3e8b13b35", "is_reserved": 0}, {"is_disabled": 0, "fusion_lon": 0.0, "fusion_lat": 0.0, "lat": 38.92109383333333, "type": "electric_scooter", "lon": -77.04213916666667, "bike_id": "82184d54529536d2ade63a0d19f22a7e", "rental_uris": {"android": "https://dc.lft.to/lastmile_qr_scan", "ios": "https://dc.lft.to/lastmile_qr_scan"}, "name": "82184d54529536d2ade63a0d19f22a7e", "is_reserved": 0}, {"is_disabled": 0, "fusion_lon": 0.0, "fusion_lat": 0.0, "lat": 38.9171235, "type": "electric_scooter", "lon": -77.03480283333333, "bike_id": "d1cd8426a4fe3947ab4359c6b539c73f", "rental_uris": {"android": "https://dc.lft.to/lastmile_qr_scan", "ios": "https://dc.lft.to/lastmile_qr_scan"}, "name": "d1cd8426a4fe3947ab4359c6b539c73f", "is_reserved": 0}, {"is_disabled": 0, "fusion_lon": 0.0, "fusion_lat": 0.0, "lat": 38.927397666666664, "type": "electric_scooter", "lon": -77.01204516666667, "bike_id": "dd8a92ff8401a8a9d0137d5d4f7af2d7", "rental_uris": {"android": "https://dc.lft.to/lastmile_qr_scan", "ios": "https://dc.lft.to/lastmile_qr_scan"}, "name": "dd8a92ff8401a8a9d0137d5d4f7af2d7", "is_reserved": 0}, {"is_disabled": 0, "fusion_lon": 0.0, "fusion_lat": 0.0, "lat": 38.932481833333334, "type": "electric_scooter", "lon": -77.03285166666667, "bike_id": "a86cc6311e9cdcb286b26e1bddbf4335", "rental_uris": {"android": "https://dc.lft.to/lastmile_qr_scan", "ios": "https://dc.lft.to/lastmile_qr_scan"}, "name": "a86cc6311e9cdcb286b26e1bddbf4335", "is_reserved": 0}, {"is_disabled": 0, "fusion_lon": 0.0, "fusion_lat": 0.0, "lat": 38.900615333333334, "type": "electric_scooter", "lon": -77.01286783333333, "bike_id": "f1d222d721004962546bc1fdd8d155cd", "rental_uris": {"android": "https://dc.lft.to/lastmile_qr_scan", "ios": "https://dc.lft.to/lastmile_qr_scan"}, "name": "f1d222d721004962546bc1fdd8d155cd", "is_reserved": 0}, {"is_disabled": 0, "fusion_lon": 0.0, "fusion_lat": 0.0, "lat": 38.908605333333334, "type": "electric_scooter", "lon": -77.02685816666667, "bike_id": "b1a27f1dd0e59834316fd2b4641fe2e8", "rental_uris": {"android": "https://dc.lft.to/lastmile_qr_scan", "ios": "https://dc.lft.to/lastmile_qr_scan"}, "name": "b1a27f1dd0e59834316fd2b4641fe2e8", "is_reserved": 0}, {"is_disabled": 0, "fusion_lon": 0.0, "fusion_lat": 0.0, "lat": 38.902700333333335, "type": "electric_scooter", "lon": -77.01769466666667, "bike_id": "5b2979fab2700ca4c1bbbe2e2b58c490", "rental_uris": {"android": "https://dc.lft.to/lastmile_qr_scan", "ios": "https://dc.lft.to/lastmile_qr_scan"}, "name": "5b2979fab2700ca4c1bbbe2e2b58c490", "is_reserved": 0}, {"is_disabled": 0, "fusion_lon": 0.0, "fusion_lat": 0.0, "lat": 38.9195695, "type": "electric_scooter", "lon": -77.0007705, "bike_id": "99b92270551bad4584c56d4a39e92c7f", "rental_uris": {"android": "https://dc.lft.to/lastmile_qr_scan", "ios": "https://dc.lft.to/lastmile_qr_scan"}, "name": "99b92270551bad4584c56d4a39e92c7f", "is_reserved": 0}, {"is_disabled": 0, "fusion_lon": 0.0, "fusion_lat": 0.0, "lat": 38.924728333333334, "type": "electric_scooter", "lon": -77.03061683333334, "bike_id": "7363406aacec929a99e8a5508c887d6d", "rental_uris": {"android": "https://dc.lft.to/lastmile_qr_scan", "ios": "https://dc.lft.to/lastmile_qr_scan"}, "name": "7363406aacec929a99e8a5508c887d6d", "is_reserved": 0}, {"is_disabled": 0, "fusion_lon": 0.0, "fusion_lat": 0.0, "lat": 38.9068915, "type": "electric_bike", "lon": -76.95196966666667, "bike_id": "233b8945d647a5e0d6093691be567623", "rental_uris": {"android": "https://dc.lft.to/lastmile_qr_scan", "ios": "https://dc.lft.to/lastmile_qr_scan"}, "name": "233b8945d647a5e0d6093691be567623", "is_reserved": 0}, {"is_disabled": 0, "fusion_lon": 0.0, "fusion_lat": 0.0, "lat": 38.90538383333333, "type": "electric_scooter", "lon": -77.0570955, "bike_id": "00f79b1896dd4b661873af98147065ee", "rental_uris": {"android": "https://dc.lft.to/lastmile_qr_scan", "ios": "https://dc.lft.to/lastmile_qr_scan"}, "name": "00f79b1896dd4b661873af98147065ee", "is_reserved": 0}, {"is_disabled": 0, "fusion_lon": 0.0, "fusion_lat": 0.0, "lat": 38.9258255, "type": "electric_scooter", "lon": -77.03213533333333, "bike_id": "071e01dc69e1c9743bf042f050e45360", "rental_uris": {"android": "https://dc.lft.to/lastmile_qr_scan", "ios": "https://dc.lft.to/lastmile_qr_scan"}, "name": "071e01dc69e1c9743bf042f050e45360", "is_reserved": 0}, {"is_disabled": 0, "fusion_lon": 0.0, "fusion_lat": 0.0, "lat": 38.919594833333335, "type": "electric_scooter", "lon": -77.01656566666666, "bike_id": "c18a0b378f562c565b9d17e133c7d7e2", "rental_uris": {"android": "https://dc.lft.to/lastmile_qr_scan", "ios": "https://dc.lft.to/lastmile_qr_scan"}, "name": "c18a0b378f562c565b9d17e133c7d7e2", "is_reserved": 0}, {"is_disabled": 0, "fusion_lon": 0.0, "fusion_lat": 0.0, "lat": 38.9375615, "type": "electric_scooter", "lon": -77.02503083333333, "bike_id": "4dd1254bc260467c966f883a19591627", "rental_uris": {"android": "https://dc.lft.to/lastmile_qr_scan", "ios": "https://dc.lft.to/lastmile_qr_scan"}, "name": "4dd1254bc260467c966f883a19591627", "is_reserved": 0}, {"is_disabled": 0, "fusion_lon": 0.0, "fusion_lat": 0.0, "lat": 38.95772616666667, "type": "electric_bike", "lon": -76.94103016666666, "bike_id": "02b339135eb6dd70c9120eef8dcabb37", "rental_uris": {"android": "https://dc.lft.to/lastmile_qr_scan", "ios": "https://dc.lft.to/lastmile_qr_scan"}, "name": "02b339135eb6dd70c9120eef8dcabb37", "is_reserved": 0}, {"is_disabled": 0, "fusion_lon": 0.0, "fusion_lat": 0.0, "lat": 38.89364466666667, "type": "electric_scooter", "lon": -76.940195, "bike_id": "22fedcc1fa549f29c1b42f27093469c7", "rental_uris": {"android": "https://dc.lft.to/lastmile_qr_scan", "ios": "https://dc.lft.to/lastmile_qr_scan"}, "name": "22fedcc1fa549f29c1b42f27093469c7", "is_reserved": 0}, {"is_disabled": 0, "fusion_lon": 0.0, "fusion_lat": 0.0, "lat": 38.8747435, "type": "electric_bike", "lon": -76.96523416666666, "bike_id": "307faa60331c366ba44ae9216f3e4fb6", "rental_uris": {"android": "https://dc.lft.to/lastmile_qr_scan", "ios": "https://dc.lft.to/lastmile_qr_scan"}, "name": "307faa60331c366ba44ae9216f3e4fb6", "is_reserved": 0}, {"is_disabled": 0, "fusion_lon": 0.0, "fusion_lat": 0.0, "lat": 38.900945, "type": "electric_scooter", "lon": -77.03165233333333, "bike_id": "bc48d5770bcac82bfc831dd510f894c3", "rental_uris": {"android": "https://dc.lft.to/lastmile_qr_scan", "ios": "https://dc.lft.to/lastmile_qr_scan"}, "name": "bc48d5770bcac82bfc831dd510f894c3", "is_reserved": 0}, {"is_disabled": 0, "fusion_lon": 0.0, "fusion_lat": 0.0, "lat": 38.888926833333336, "type": "electric_scooter", "lon": -77.01552733333334, "bike_id": "97ff7efaf10dac5f4596988e85ee3f2b", "rental_uris": {"android": "https://dc.lft.to/lastmile_qr_scan", "ios": "https://dc.lft.to/lastmile_qr_scan"}, "name": "97ff7efaf10dac5f4596988e85ee3f2b", "is_reserved": 0}, {"is_disabled": 0, "fusion_lon": 0.0, "fusion_lat": 0.0, "lat": 38.892228, "type": "electric_scooter", "lon": -77.04665883333334, "bike_id": "563c2479ddd7b8c2c489181be9a1dd7c", "rental_uris": {"android": "https://dc.lft.to/lastmile_qr_scan", "ios": "https://dc.lft.to/lastmile_qr_scan"}, "name": "563c2479ddd7b8c2c489181be9a1dd7c", "is_reserved": 0}, {"is_disabled": 0, "fusion_lon": 0.0, "fusion_lat": 0.0, "lat": 38.931315833333336, "type": "electric_scooter", "lon": -77.02811283333334, "bike_id": "c735ed2c4ac511038e4143ba68e2aa4b", "rental_uris": {"android": "https://dc.lft.to/lastmile_qr_scan", "ios": "https://dc.lft.to/lastmile_qr_scan"}, "name": "c735ed2c4ac511038e4143ba68e2aa4b", "is_reserved": 0}, {"is_disabled": 0, "fusion_lon": 0.0, "fusion_lat": 0.0, "lat": 38.85807283333333, "type": "electric_scooter", "lon": -76.986559, "bike_id": "fdfcedcc6ea59a14b7ace6beb57df6f3", "rental_uris": {"android": "https://dc.lft.to/lastmile_qr_scan", "ios": "https://dc.lft.to/lastmile_qr_scan"}, "name": "fdfcedcc6ea59a14b7ace6beb57df6f3", "is_reserved": 0}, {"is_disabled": 0, "fusion_lon": 0.0, "fusion_lat": 0.0, "lat": 38.91303283333333, "type": "electric_bike", "lon": -77.02176916666667, "bike_id": "c1b38cf2e73dc42f12291198a4c3cdf1", "rental_uris": {"android": "https://dc.lft.to/lastmile_qr_scan", "ios": "https://dc.lft.to/lastmile_qr_scan"}, "name": "c1b38cf2e73dc42f12291198a4c3cdf1", "is_reserved": 0}, {"is_disabled": 0, "fusion_lon": 0.0, "fusion_lat": 0.0, "lat": 38.967554, "type": "electric_bike", "lon": -77.09160583333333, "bike_id": "2dabaef870735028f060b6a61dda789a", "rental_uris": {"android": "https://dc.lft.to/lastmile_qr_scan", "ios": "https://dc.lft.to/lastmile_qr_scan"}, "name": "2dabaef870735028f060b6a61dda789a", "is_reserved": 0}, {"is_disabled": 0, "fusion_lon": 0.0, "fusion_lat": 0.0, "lat": 38.91260416666667, "type": "electric_scooter", "lon": -77.047814, "bike_id": "921fec023013412845269ee2a46c955b", "rental_uris": {"android": "https://dc.lft.to/lastmile_qr_scan", "ios": "https://dc.lft.to/lastmile_qr_scan"}, "name": "921fec023013412845269ee2a46c955b", "is_reserved": 0}, {"is_disabled": 0, "fusion_lon": 0.0, "fusion_lat": 0.0, "lat": 38.928236, "type": "electric_scooter", "lon": -77.02258133333333, "bike_id": "2315fc7756fe53bfcb7a719111d3005f", "rental_uris": {"android": "https://dc.lft.to/lastmile_qr_scan", "ios": "https://dc.lft.to/lastmile_qr_scan"}, "name": "2315fc7756fe53bfcb7a719111d3005f", "is_reserved": 0}, {"is_disabled": 0, "fusion_lon": 0.0, "fusion_lat": 0.0, "lat": 38.91265416666667, "type": "electric_scooter", "lon": -77.0169415, "bike_id": "c705a6913d32340026fd1b8dedf56a5c", "rental_uris": {"android": "https://dc.lft.to/lastmile_qr_scan", "ios": "https://dc.lft.to/lastmile_qr_scan"}, "name": "c705a6913d32340026fd1b8dedf56a5c", "is_reserved": 0}, {"is_disabled": 0, "fusion_lon": 0.0, "fusion_lat": 0.0, "lat": 38.901587, "type": "electric_scooter", "lon": -77.012103, "bike_id": "4a14faf244c070a8c24886312e3b818a", "rental_uris": {"android": "https://dc.lft.to/lastmile_qr_scan", "ios": "https://dc.lft.to/lastmile_qr_scan"}, "name": "4a14faf244c070a8c24886312e3b818a", "is_reserved": 0}, {"is_disabled": 0, "fusion_lon": 0.0, "fusion_lat": 0.0, "lat": 38.895243, "type": "electric_scooter", "lon": -77.02950866666667, "bike_id": "75d615cb0fffeda57c0d0048670268a9", "rental_uris": {"android": "https://dc.lft.to/lastmile_qr_scan", "ios": "https://dc.lft.to/lastmile_qr_scan"}, "name": "75d615cb0fffeda57c0d0048670268a9", "is_reserved": 0}, {"is_disabled": 0, "fusion_lon": 0.0, "fusion_lat": 0.0, "lat": 38.99909, "type": "electric_bike", "lon": -77.02876983333333, "bike_id": "7191b2b98d58a1c4ac155afca9645338", "rental_uris": {"android": "https://dc.lft.to/lastmile_qr_scan", "ios": "https://dc.lft.to/lastmile_qr_scan"}, "name": "7191b2b98d58a1c4ac155afca9645338", "is_reserved": 0}, {"is_disabled": 0, "fusion_lon": 0.0, "fusion_lat": 0.0, "lat": 38.907238666666665, "type": "electric_scooter", "lon": -77.04675516666667, "bike_id": "e52c8a57464a9d93493b8ecc83c7693c", "rental_uris": {"android": "https://dc.lft.to/lastmile_qr_scan", "ios": "https://dc.lft.to/lastmile_qr_scan"}, "name": "e52c8a57464a9d93493b8ecc83c7693c", "is_reserved": 0}, {"is_disabled": 0, "fusion_lon": 0.0, "fusion_lat": 0.0, "lat": 38.920173, "type": "electric_scooter", "lon": -77.032042, "bike_id": "82ab0eb3e48a53781de5966c351779db", "rental_uris": {"android": "https://dc.lft.to/lastmile_qr_scan", "ios": "https://dc.lft.to/lastmile_qr_scan"}, "name": "82ab0eb3e48a53781de5966c351779db", "is_reserved": 0}, {"is_disabled": 0, "fusion_lon": 0.0, "fusion_lat": 0.0, "lat": 38.91874033333333, "type": "electric_scooter", "lon": -77.04487666666667, "bike_id": "9a8203c354166e056ae984a4caed568e", "rental_uris": {"android": "https://dc.lft.to/lastmile_qr_scan", "ios": "https://dc.lft.to/lastmile_qr_scan"}, "name": "9a8203c354166e056ae984a4caed568e", "is_reserved": 0}, {"is_disabled": 0, "fusion_lon": 0.0, "fusion_lat": 0.0, "lat": 38.9097285, "type": "electric_scooter", "lon": -77.045367, "bike_id": "98cc5c78122369bd8c7f4e8465a28c67", "rental_uris": {"android": "https://dc.lft.to/lastmile_qr_scan", "ios": "https://dc.lft.to/lastmile_qr_scan"}, "name": "98cc5c78122369bd8c7f4e8465a28c67", "is_reserved": 0}, {"is_disabled": 0, "fusion_lon": 0.0, "fusion_lat": 0.0, "lat": 38.90283733333333, "type": "electric_scooter", "lon": -77.02430183333334, "bike_id": "bf05c6fda49e5060c528a594a6818fd0", "rental_uris": {"android": "https://dc.lft.to/lastmile_qr_scan", "ios": "https://dc.lft.to/lastmile_qr_scan"}, "name": "bf05c6fda49e5060c528a594a6818fd0", "is_reserved": 0}, {"is_disabled": 0, "fusion_lon": 0.0, "fusion_lat": 0.0, "lat": 38.91788233333333, "type": "electric_scooter", "lon": -77.02316383333333, "bike_id": "ac6c2cb624a46d82a85ee5f022260dcf", "rental_uris": {"android": "https://dc.lft.to/lastmile_qr_scan", "ios": "https://dc.lft.to/lastmile_qr_scan"}, "name": "ac6c2cb624a46d82a85ee5f022260dcf", "is_reserved": 0}, {"is_disabled": 0, "fusion_lon": 0.0, "fusion_lat": 0.0, "lat": 38.98023966666667, "type": "electric_bike", "lon": -76.92919316666666, "bike_id": "d58d112485091dc4cf42a1bdb6cbc2d5", "rental_uris": {"android": "https://dc.lft.to/lastmile_qr_scan", "ios": "https://dc.lft.to/lastmile_qr_scan"}, "name": "d58d112485091dc4cf42a1bdb6cbc2d5", "is_reserved": 0}, {"is_disabled": 0, "fusion_lon": 0.0, "fusion_lat": 0.0, "lat": 38.9054775, "type": "electric_scooter", "lon": -77.051002, "bike_id": "6eef932b808fa41360d9a8d7cc2b7734", "rental_uris": {"android": "https://dc.lft.to/lastmile_qr_scan", "ios": "https://dc.lft.to/lastmile_qr_scan"}, "name": "6eef932b808fa41360d9a8d7cc2b7734", "is_reserved": 0}, {"is_disabled": 0, "fusion_lon": 0.0, "fusion_lat": 0.0, "lat": 38.877348166666664, "type": "electric_scooter", "lon": -77.00074833333333, "bike_id": "664ca2c9cc2c8dcd1a731ac2aae148dd", "rental_uris": {"android": "https://dc.lft.to/lastmile_qr_scan", "ios": "https://dc.lft.to/lastmile_qr_scan"}, "name": "664ca2c9cc2c8dcd1a731ac2aae148dd", "is_reserved": 0}, {"is_disabled": 0, "fusion_lon": 0.0, "fusion_lat": 0.0, "lat": 38.89558233333333, "type": "electric_scooter", "lon": -77.00405883333333, "bike_id": "9fa80a29a9358daca2bd34fc16d24cb1", "rental_uris": {"android": "https://dc.lft.to/lastmile_qr_scan", "ios": "https://dc.lft.to/lastmile_qr_scan"}, "name": "9fa80a29a9358daca2bd34fc16d24cb1", "is_reserved": 0}, {"is_disabled": 0, "fusion_lon": 0.0, "fusion_lat": 0.0, "lat": 38.898767666666664, "type": "electric_scooter", "lon": -76.931868, "bike_id": "ab3916bd2a248108b32ad285d7286949", "rental_uris": {"android": "https://dc.lft.to/lastmile_qr_scan", "ios": "https://dc.lft.to/lastmile_qr_scan"}, "name": "ab3916bd2a248108b32ad285d7286949", "is_reserved": 0}, {"is_disabled": 0, "fusion_lon": 0.0, "fusion_lat": 0.0, "lat": 38.8984355, "type": "electric_scooter", "lon": -76.94639033333333, "bike_id": "f57d48e8966754ed2911fbbc528e2560", "rental_uris": {"android": "https://dc.lft.to/lastmile_qr_scan", "ios": "https://dc.lft.to/lastmile_qr_scan"}, "name": "f57d48e8966754ed2911fbbc528e2560", "is_reserved": 0}, {"is_disabled": 0, "fusion_lon": 0.0, "fusion_lat": 0.0, "lat": 38.917160333333335, "type": "electric_scooter", "lon": -77.03859933333334, "bike_id": "626b159bd831fe144e1d8b2b4c875140", "rental_uris": {"android": "https://dc.lft.to/lastmile_qr_scan", "ios": "https://dc.lft.to/lastmile_qr_scan"}, "name": "626b159bd831fe144e1d8b2b4c875140", "is_reserved": 0}, {"is_disabled": 0, "fusion_lon": 0.0, "fusion_lat": 0.0, "lat": 38.9211175, "type": "electric_scooter", "lon": -77.04225333333333, "bike_id": "a5f4c879581e04d2c70a448e18014c81", "rental_uris": {"android": "https://dc.lft.to/lastmile_qr_scan", "ios": "https://dc.lft.to/lastmile_qr_scan"}, "name": "a5f4c879581e04d2c70a448e18014c81", "is_reserved": 0}, {"is_disabled": 0, "fusion_lon": 0.0, "fusion_lat": 0.0, "lat": 38.90583633333333, "type": "electric_scooter", "lon": -77.00500066666666, "bike_id": "013eba626ec72adb2bd4bceecb03560f", "rental_uris": {"android": "https://dc.lft.to/lastmile_qr_scan", "ios": "https://dc.lft.to/lastmile_qr_scan"}, "name": "013eba626ec72adb2bd4bceecb03560f", "is_reserved": 0}, {"is_disabled": 0, "fusion_lon": 0.0, "fusion_lat": 0.0, "lat": 38.915756333333334, "type": "electric_scooter", "lon": -77.02001466666667, "bike_id": "1c29df8ddcc61af441d3878db31e1340", "rental_uris": {"android": "https://dc.lft.to/lastmile_qr_scan", "ios": "https://dc.lft.to/lastmile_qr_scan"}, "name": "1c29df8ddcc61af441d3878db31e1340", "is_reserved": 0}, {"is_disabled": 0, "fusion_lon": 0.0, "fusion_lat": 0.0, "lat": 38.91268983333333, "type": "electric_scooter", "lon": -77.0414685, "bike_id": "71f3bc358e010fbed43f7e41c9d14f73", "rental_uris": {"android": "https://dc.lft.to/lastmile_qr_scan", "ios": "https://dc.lft.to/lastmile_qr_scan"}, "name": "71f3bc358e010fbed43f7e41c9d14f73", "is_reserved": 0}, {"is_disabled": 0, "fusion_lon": 0.0, "fusion_lat": 0.0, "lat": 38.89233733333333, "type": "electric_scooter", "lon": -77.02589633333334, "bike_id": "c41b7b63f093b7705f3f49debdf2357c", "rental_uris": {"android": "https://dc.lft.to/lastmile_qr_scan", "ios": "https://dc.lft.to/lastmile_qr_scan"}, "name": "c41b7b63f093b7705f3f49debdf2357c", "is_reserved": 0}, {"is_disabled": 0, "fusion_lon": 0.0, "fusion_lat": 0.0, "lat": 38.919933666666665, "type": "electric_scooter", "lon": -77.03279833333333, "bike_id": "6eff0d484ffc82acedc60367ecd7b21c", "rental_uris": {"android": "https://dc.lft.to/lastmile_qr_scan", "ios": "https://dc.lft.to/lastmile_qr_scan"}, "name": "6eff0d484ffc82acedc60367ecd7b21c", "is_reserved": 0}, {"is_disabled": 0, "fusion_lon": 0.0, "fusion_lat": 0.0, "lat": 38.90561183333333, "type": "electric_scooter", "lon": -77.03639366666667, "bike_id": "ad942b207ce0a7d4a37dde2828d1e369", "rental_uris": {"android": "https://dc.lft.to/lastmile_qr_scan", "ios": "https://dc.lft.to/lastmile_qr_scan"}, "name": "ad942b207ce0a7d4a37dde2828d1e369", "is_reserved": 0}, {"is_disabled": 0, "fusion_lon": 0.0, "fusion_lat": 0.0, "lat": 38.92222833333334, "type": "electric_scooter", "lon": -77.03298116666667, "bike_id": "fc864cc259ae4697dec6d5662c46b65c", "rental_uris": {"android": "https://dc.lft.to/lastmile_qr_scan", "ios": "https://dc.lft.to/lastmile_qr_scan"}, "name": "fc864cc259ae4697dec6d5662c46b65c", "is_reserved": 0}, {"is_disabled": 0, "fusion_lon": 0.0, "fusion_lat": 0.0, "lat": 38.922521, "type": "electric_scooter", "lon": -77.04128366666667, "bike_id": "c1b6b9da60addc0c6105ea8adb6194f3", "rental_uris": {"android": "https://dc.lft.to/lastmile_qr_scan", "ios": "https://dc.lft.to/lastmile_qr_scan"}, "name": "c1b6b9da60addc0c6105ea8adb6194f3", "is_reserved": 0}, {"is_disabled": 0, "fusion_lon": 0.0, "fusion_lat": 0.0, "lat": 38.92576416666667, "type": "electric_scooter", "lon": -76.994962, "bike_id": "63431ae1c6129224a7da9bce9a9a1769", "rental_uris": {"android": "https://dc.lft.to/lastmile_qr_scan", "ios": "https://dc.lft.to/lastmile_qr_scan"}, "name": "63431ae1c6129224a7da9bce9a9a1769", "is_reserved": 0}, {"is_disabled": 0, "fusion_lon": 0.0, "fusion_lat": 0.0, "lat": 38.919915833333334, "type": "electric_scooter", "lon": -77.02515133333333, "bike_id": "af04e9eb371f17262c79a9997e387898", "rental_uris": {"android": "https://dc.lft.to/lastmile_qr_scan", "ios": "https://dc.lft.to/lastmile_qr_scan"}, "name": "af04e9eb371f17262c79a9997e387898", "is_reserved": 0}, {"is_disabled": 0, "fusion_lon": 0.0, "fusion_lat": 0.0, "lat": 38.907941666666666, "type": "electric_scooter", "lon": -77.04986833333334, "bike_id": "766e96bc3a13f77f99b720618435de95", "rental_uris": {"android": "https://dc.lft.to/lastmile_qr_scan", "ios": "https://dc.lft.to/lastmile_qr_scan"}, "name": "766e96bc3a13f77f99b720618435de95", "is_reserved": 0}, {"is_disabled": 0, "fusion_lon": 0.0, "fusion_lat": 0.0, "lat": 38.907662, "type": "electric_scooter", "lon": -77.02815183333334, "bike_id": "3593a458663f820a3959c4e71f59cc9d", "rental_uris": {"android": "https://dc.lft.to/lastmile_qr_scan", "ios": "https://dc.lft.to/lastmile_qr_scan"}, "name": "3593a458663f820a3959c4e71f59cc9d", "is_reserved": 0}, {"is_disabled": 0, "fusion_lon": 0.0, "fusion_lat": 0.0, "lat": 38.87626316666667, "type": "electric_scooter", "lon": -76.96526516666667, "bike_id": "0be9b629064f6c516ed7b1af77d53683", "rental_uris": {"android": "https://dc.lft.to/lastmile_qr_scan", "ios": "https://dc.lft.to/lastmile_qr_scan"}, "name": "0be9b629064f6c516ed7b1af77d53683", "is_reserved": 0}, {"is_disabled": 0, "fusion_lon": 0.0, "fusion_lat": 0.0, "lat": 38.921367833333335, "type": "electric_bike", "lon": -76.975329, "bike_id": "23e42a1dfe008d9f164ca6a3db7a5f3f", "rental_uris": {"android": "https://dc.lft.to/lastmile_qr_scan", "ios": "https://dc.lft.to/lastmile_qr_scan"}, "name": "23e42a1dfe008d9f164ca6a3db7a5f3f", "is_reserved": 0}, {"is_disabled": 0, "fusion_lon": 0.0, "fusion_lat": 0.0, "lat": 38.90044733333333, "type": "electric_scooter", "lon": -76.98844366666667, "bike_id": "2da11004af189e13f9a1be74d79deed0", "rental_uris": {"android": "https://dc.lft.to/lastmile_qr_scan", "ios": "https://dc.lft.to/lastmile_qr_scan"}, "name": "2da11004af189e13f9a1be74d79deed0", "is_reserved": 0}, {"is_disabled": 0, "fusion_lon": 0.0, "fusion_lat": 0.0, "lat": 38.91813166666667, "type": "electric_scooter", "lon": -77.0102305, "bike_id": "43105f1cc3d47ace794958a21d399923", "rental_uris": {"android": "https://dc.lft.to/lastmile_qr_scan", "ios": "https://dc.lft.to/lastmile_qr_scan"}, "name": "43105f1cc3d47ace794958a21d399923", "is_reserved": 0}, {"is_disabled": 0, "fusion_lon": 0.0, "fusion_lat": 0.0, "lat": 38.91056666666667, "type": "electric_scooter", "lon": -77.0434735, "bike_id": "5669a80a0291e4d7ac2688dea70082c5", "rental_uris": {"android": "https://dc.lft.to/lastmile_qr_scan", "ios": "https://dc.lft.to/lastmile_qr_scan"}, "name": "5669a80a0291e4d7ac2688dea70082c5", "is_reserved": 0}, {"is_disabled": 0, "fusion_lon": 0.0, "fusion_lat": 0.0, "lat": 38.8520665, "type": "electric_bike", "lon": -77.10130716666667, "bike_id": "57ceae5ad5a63f4f95a03e30585e1f01", "rental_uris": {"android": "https://dc.lft.to/lastmile_qr_scan", "ios": "https://dc.lft.to/lastmile_qr_scan"}, "name": "57ceae5ad5a63f4f95a03e30585e1f01", "is_reserved": 0}, {"is_disabled": 0, "fusion_lon": 0.0, "fusion_lat": 0.0, "lat": 38.9257375, "type": "electric_scooter", "lon": -76.99493666666666, "bike_id": "d08c5b9e05505c9aea9de3f5e9cc866f", "rental_uris": {"android": "https://dc.lft.to/lastmile_qr_scan", "ios": "https://dc.lft.to/lastmile_qr_scan"}, "name": "d08c5b9e05505c9aea9de3f5e9cc866f", "is_reserved": 0}, {"is_disabled": 0, "fusion_lon": 0.0, "fusion_lat": 0.0, "lat": 38.902441333333336, "type": "electric_scooter", "lon": -77.01942683333333, "bike_id": "bdd51d6fbb92dbed30661adf576777eb", "rental_uris": {"android": "https://dc.lft.to/lastmile_qr_scan", "ios": "https://dc.lft.to/lastmile_qr_scan"}, "name": "bdd51d6fbb92dbed30661adf576777eb", "is_reserved": 0}, {"is_disabled": 0, "fusion_lon": 0.0, "fusion_lat": 0.0, "lat": 38.9180495, "type": "electric_scooter", "lon": -77.04036266666667, "bike_id": "ba7004e28e5983d9d0e87ad08f062f81", "rental_uris": {"android": "https://dc.lft.to/lastmile_qr_scan", "ios": "https://dc.lft.to/lastmile_qr_scan"}, "name": "ba7004e28e5983d9d0e87ad08f062f81", "is_reserved": 0}, {"is_disabled": 0, "fusion_lon": 0.0, "fusion_lat": 0.0, "lat": 38.882112666666664, "type": "electric_bike", "lon": -77.1077815, "bike_id": "42c1515945d31385482c2be2f2d095d8", "rental_uris": {"android": "https://dc.lft.to/lastmile_qr_scan", "ios": "https://dc.lft.to/lastmile_qr_scan"}, "name": "42c1515945d31385482c2be2f2d095d8", "is_reserved": 0}, {"is_disabled": 0, "fusion_lon": 0.0, "fusion_lat": 0.0, "lat": 38.88344716666667, "type": "electric_scooter", "lon": -76.941771, "bike_id": "f96a31d6e32a51c47aaeee2b45a55b15", "rental_uris": {"android": "https://dc.lft.to/lastmile_qr_scan", "ios": "https://dc.lft.to/lastmile_qr_scan"}, "name": "f96a31d6e32a51c47aaeee2b45a55b15", "is_reserved": 0}, {"is_disabled": 0, "fusion_lon": 0.0, "fusion_lat": 0.0, "lat": 38.89995, "type": "electric_scooter", "lon": -76.92229316666666, "bike_id": "c39e5679dc5f2b201362e841a94c1459", "rental_uris": {"android": "https://dc.lft.to/lastmile_qr_scan", "ios": "https://dc.lft.to/lastmile_qr_scan"}, "name": "c39e5679dc5f2b201362e841a94c1459", "is_reserved": 0}, {"is_disabled": 0, "fusion_lon": 0.0, "fusion_lat": 0.0, "lat": 38.902158666666665, "type": "electric_scooter", "lon": -77.02378933333334, "bike_id": "86a2734c237f4d7b7b9223f48fbcd9bb", "rental_uris": {"android": "https://dc.lft.to/lastmile_qr_scan", "ios": "https://dc.lft.to/lastmile_qr_scan"}, "name": "86a2734c237f4d7b7b9223f48fbcd9bb", "is_reserved": 0}, {"is_disabled": 0, "fusion_lon": 0.0, "fusion_lat": 0.0, "lat": 38.90732333333333, "type": "electric_scooter", "lon": -77.02954833333334, "bike_id": "0526f88084cf3b48270dcd57b6f656e5", "rental_uris": {"android": "https://dc.lft.to/lastmile_qr_scan", "ios": "https://dc.lft.to/lastmile_qr_scan"}, "name": "0526f88084cf3b48270dcd57b6f656e5", "is_reserved": 0}, {"is_disabled": 0, "fusion_lon": 0.0, "fusion_lat": 0.0, "lat": 38.903598333333335, "type": "electric_scooter", "lon": -77.06270383333333, "bike_id": "9d79c806b25f478cc9a65755813bcec6", "rental_uris": {"android": "https://dc.lft.to/lastmile_qr_scan", "ios": "https://dc.lft.to/lastmile_qr_scan"}, "name": "9d79c806b25f478cc9a65755813bcec6", "is_reserved": 0}, {"is_disabled": 0, "fusion_lon": 0.0, "fusion_lat": 0.0, "lat": 38.918612, "type": "electric_scooter", "lon": -77.04175366666666, "bike_id": "b266093cdff564c71189e9f99aae46fc", "rental_uris": {"android": "https://dc.lft.to/lastmile_qr_scan", "ios": "https://dc.lft.to/lastmile_qr_scan"}, "name": "b266093cdff564c71189e9f99aae46fc", "is_reserved": 0}, {"is_disabled": 0, "fusion_lon": 0.0, "fusion_lat": 0.0, "lat": 38.91128366666667, "type": "electric_scooter", "lon": -77.044236, "bike_id": "00745334d6bf3ea01c0c1c57cb7f4368", "rental_uris": {"android": "https://dc.lft.to/lastmile_qr_scan", "ios": "https://dc.lft.to/lastmile_qr_scan"}, "name": "00745334d6bf3ea01c0c1c57cb7f4368", "is_reserved": 0}, {"is_disabled": 0, "fusion_lon": 0.0, "fusion_lat": 0.0, "lat": 38.90729116666667, "type": "electric_scooter", "lon": -77.02362433333333, "bike_id": "310337925a6862f36703ccb5be346f58", "rental_uris": {"android": "https://dc.lft.to/lastmile_qr_scan", "ios": "https://dc.lft.to/lastmile_qr_scan"}, "name": "310337925a6862f36703ccb5be346f58", "is_reserved": 0}, {"is_disabled": 0, "fusion_lon": 0.0, "fusion_lat": 0.0, "lat": 38.901313333333334, "type": "electric_scooter", "lon": -77.017801, "bike_id": "cb28b808ddb59c5d92c703a7303f0068", "rental_uris": {"android": "https://dc.lft.to/lastmile_qr_scan", "ios": "https://dc.lft.to/lastmile_qr_scan"}, "name": "cb28b808ddb59c5d92c703a7303f0068", "is_reserved": 0}, {"is_disabled": 0, "fusion_lon": 0.0, "fusion_lat": 0.0, "lat": 38.9181875, "type": "electric_scooter", "lon": -77.012153, "bike_id": "f7fc66aae718a50c16478cdea3e1ec24", "rental_uris": {"android": "https://dc.lft.to/lastmile_qr_scan", "ios": "https://dc.lft.to/lastmile_qr_scan"}, "name": "f7fc66aae718a50c16478cdea3e1ec24", "is_reserved": 0}, {"is_disabled": 0, "fusion_lon": 0.0, "fusion_lat": 0.0, "lat": 38.845158, "type": "electric_bike", "lon": -77.078038, "bike_id": "77ce9e1d5f40e22a578fbff9c8bd0546", "rental_uris": {"android": "https://dc.lft.to/lastmile_qr_scan", "ios": "https://dc.lft.to/lastmile_qr_scan"}, "name": "77ce9e1d5f40e22a578fbff9c8bd0546", "is_reserved": 0}, {"is_disabled": 0, "fusion_lon": 0.0, "fusion_lat": 0.0, "lat": 38.92472866666667, "type": "electric_scooter", "lon": -77.02983383333333, "bike_id": "b3147302afc91922a5e3c21cb00a3105", "rental_uris": {"android": "https://dc.lft.to/lastmile_qr_scan", "ios": "https://dc.lft.to/lastmile_qr_scan"}, "name": "b3147302afc91922a5e3c21cb00a3105", "is_reserved": 0}, {"is_disabled": 0, "fusion_lon": 0.0, "fusion_lat": 0.0, "lat": 38.9204925, "type": "electric_scooter", "lon": -77.0261665, "bike_id": "3fe3859bfa4b2edf59e29645fdf5d53a", "rental_uris": {"android": "https://dc.lft.to/lastmile_qr_scan", "ios": "https://dc.lft.to/lastmile_qr_scan"}, "name": "3fe3859bfa4b2edf59e29645fdf5d53a", "is_reserved": 0}, {"is_disabled": 0, "fusion_lon": 0.0, "fusion_lat": 0.0, "lat": 38.908363, "type": "electric_scooter", "lon": -76.99699066666666, "bike_id": "3706d9c142002681162b531f675d70e2", "rental_uris": {"android": "https://dc.lft.to/lastmile_qr_scan", "ios": "https://dc.lft.to/lastmile_qr_scan"}, "name": "3706d9c142002681162b531f675d70e2", "is_reserved": 0}, {"is_disabled": 0, "fusion_lon": 0.0, "fusion_lat": 0.0, "lat": 38.911935166666666, "type": "electric_scooter", "lon": -77.04167666666666, "bike_id": "9ea51ed89d9d81200b05eb73d441d90b", "rental_uris": {"android": "https://dc.lft.to/lastmile_qr_scan", "ios": "https://dc.lft.to/lastmile_qr_scan"}, "name": "9ea51ed89d9d81200b05eb73d441d90b", "is_reserved": 0}, {"is_disabled": 0, "fusion_lon": 0.0, "fusion_lat": 0.0, "lat": 38.838111166666664, "type": "electric_scooter", "lon": -77.00434633333333, "bike_id": "099e64e457260948dacc90c29b44b980", "rental_uris": {"android": "https://dc.lft.to/lastmile_qr_scan", "ios": "https://dc.lft.to/lastmile_qr_scan"}, "name": "099e64e457260948dacc90c29b44b980", "is_reserved": 0}, {"is_disabled": 0, "fusion_lon": 0.0, "fusion_lat": 0.0, "lat": 38.89424483333333, "type": "electric_scooter", "lon": -76.91221583333333, "bike_id": "1bed17e18672ea555d25e41d94d3ae9c", "rental_uris": {"android": "https://dc.lft.to/lastmile_qr_scan", "ios": "https://dc.lft.to/lastmile_qr_scan"}, "name": "1bed17e18672ea555d25e41d94d3ae9c", "is_reserved": 0}, {"is_disabled": 0, "fusion_lon": 0.0, "fusion_lat": 0.0, "lat": 38.937039166666665, "type": "electric_scooter", "lon": -77.06104183333333, "bike_id": "23f4c20daf6edd307407688f5adc9d06", "rental_uris": {"android": "https://dc.lft.to/lastmile_qr_scan", "ios": "https://dc.lft.to/lastmile_qr_scan"}, "name": "23f4c20daf6edd307407688f5adc9d06", "is_reserved": 0}, {"is_disabled": 0, "fusion_lon": 0.0, "fusion_lat": 0.0, "lat": 38.89535266666667, "type": "electric_scooter", "lon": -77.01106716666666, "bike_id": "18dccfe3d9e0dad9c19aaca382d03c86", "rental_uris": {"android": "https://dc.lft.to/lastmile_qr_scan", "ios": "https://dc.lft.to/lastmile_qr_scan"}, "name": "18dccfe3d9e0dad9c19aaca382d03c86", "is_reserved": 0}, {"is_disabled": 0, "fusion_lon": 0.0, "fusion_lat": 0.0, "lat": 38.92077366666667, "type": "electric_scooter", "lon": -77.02393083333334, "bike_id": "33ed5aeffcfd84b840734aaf98d7f7cf", "rental_uris": {"android": "https://dc.lft.to/lastmile_qr_scan", "ios": "https://dc.lft.to/lastmile_qr_scan"}, "name": "33ed5aeffcfd84b840734aaf98d7f7cf", "is_reserved": 0}, {"is_disabled": 0, "fusion_lon": 0.0, "fusion_lat": 0.0, "lat": 38.93706233333333, "type": "electric_scooter", "lon": -77.02397266666667, "bike_id": "c41fca6fbd68d561c6ae0a54b5d76310", "rental_uris": {"android": "https://dc.lft.to/lastmile_qr_scan", "ios": "https://dc.lft.to/lastmile_qr_scan"}, "name": "c41fca6fbd68d561c6ae0a54b5d76310", "is_reserved": 0}, {"is_disabled": 0, "fusion_lon": 0.0, "fusion_lat": 0.0, "lat": 38.892242833333334, "type": "electric_scooter", "lon": -77.043616, "bike_id": "5e062a75108e2516f0247b0608d32c1b", "rental_uris": {"android": "https://dc.lft.to/lastmile_qr_scan", "ios": "https://dc.lft.to/lastmile_qr_scan"}, "name": "5e062a75108e2516f0247b0608d32c1b", "is_reserved": 0}, {"is_disabled": 0, "fusion_lon": 0.0, "fusion_lat": 0.0, "lat": 38.90504383333333, "type": "electric_scooter", "lon": -77.029466, "bike_id": "e0961ac560486e83571b5582e2faff60", "rental_uris": {"android": "https://dc.lft.to/lastmile_qr_scan", "ios": "https://dc.lft.to/lastmile_qr_scan"}, "name": "e0961ac560486e83571b5582e2faff60", "is_reserved": 0}, {"is_disabled": 0, "fusion_lon": 0.0, "fusion_lat": 0.0, "lat": 38.9260065, "type": "electric_scooter", "lon": -77.02152366666667, "bike_id": "747651b6c465a652c5991b0bf3e94cce", "rental_uris": {"android": "https://dc.lft.to/lastmile_qr_scan", "ios": "https://dc.lft.to/lastmile_qr_scan"}, "name": "747651b6c465a652c5991b0bf3e94cce", "is_reserved": 0}, {"is_disabled": 0, "fusion_lon": 0.0, "fusion_lat": 0.0, "lat": 38.93152516666667, "type": "electric_scooter", "lon": -77.034491, "bike_id": "d24e3a2c8e323826962b6262461d347a", "rental_uris": {"android": "https://dc.lft.to/lastmile_qr_scan", "ios": "https://dc.lft.to/lastmile_qr_scan"}, "name": "d24e3a2c8e323826962b6262461d347a", "is_reserved": 0}, {"is_disabled": 0, "fusion_lon": 0.0, "fusion_lat": 0.0, "lat": 38.953125, "type": "electric_scooter", "lon": -77.0360025, "bike_id": "64a22e0cf762bf812a7a3ef7b3b185ff", "rental_uris": {"android": "https://dc.lft.to/lastmile_qr_scan", "ios": "https://dc.lft.to/lastmile_qr_scan"}, "name": "64a22e0cf762bf812a7a3ef7b3b185ff", "is_reserved": 0}, {"is_disabled": 0, "fusion_lon": 0.0, "fusion_lat": 0.0, "lat": 38.90394916666666, "type": "electric_scooter", "lon": -77.02799866666666, "bike_id": "c5f1a898368cd1c16fbe14774e35b6cc", "rental_uris": {"android": "https://dc.lft.to/lastmile_qr_scan", "ios": "https://dc.lft.to/lastmile_qr_scan"}, "name": "c5f1a898368cd1c16fbe14774e35b6cc", "is_reserved": 0}, {"is_disabled": 0, "fusion_lon": 0.0, "fusion_lat": 0.0, "lat": 38.916884, "type": "electric_scooter", "lon": -77.037712, "bike_id": "4b1adf16576332f27d9c2ce22238cdb5", "rental_uris": {"android": "https://dc.lft.to/lastmile_qr_scan", "ios": "https://dc.lft.to/lastmile_qr_scan"}, "name": "4b1adf16576332f27d9c2ce22238cdb5", "is_reserved": 0}, {"is_disabled": 0, "fusion_lon": 0.0, "fusion_lat": 0.0, "lat": 38.91914233333333, "type": "electric_scooter", "lon": -77.02137433333333, "bike_id": "2ed6b9660b0b070494c8028063fa4932", "rental_uris": {"android": "https://dc.lft.to/lastmile_qr_scan", "ios": "https://dc.lft.to/lastmile_qr_scan"}, "name": "2ed6b9660b0b070494c8028063fa4932", "is_reserved": 0}, {"is_disabled": 0, "fusion_lon": 0.0, "fusion_lat": 0.0, "lat": 38.89970683333333, "type": "electric_scooter", "lon": -77.04618816666667, "bike_id": "2e12546f8abec81eee147c5cc39ebd73", "rental_uris": {"android": "https://dc.lft.to/lastmile_qr_scan", "ios": "https://dc.lft.to/lastmile_qr_scan"}, "name": "2e12546f8abec81eee147c5cc39ebd73", "is_reserved": 0}, {"is_disabled": 0, "fusion_lon": 0.0, "fusion_lat": 0.0, "lat": 38.900451833333335, "type": "electric_scooter", "lon": -77.00080183333333, "bike_id": "34144a1d536664a6ea29068efd6cc066", "rental_uris": {"android": "https://dc.lft.to/lastmile_qr_scan", "ios": "https://dc.lft.to/lastmile_qr_scan"}, "name": "34144a1d536664a6ea29068efd6cc066", "is_reserved": 0}, {"is_disabled": 0, "fusion_lon": 0.0, "fusion_lat": 0.0, "lat": 38.898427166666664, "type": "electric_scooter", "lon": -76.94638433333333, "bike_id": "56f47a0ac4a4c6e95d2c857c3a76b7de", "rental_uris": {"android": "https://dc.lft.to/lastmile_qr_scan", "ios": "https://dc.lft.to/lastmile_qr_scan"}, "name": "56f47a0ac4a4c6e95d2c857c3a76b7de", "is_reserved": 0}, {"is_disabled": 0, "fusion_lon": 0.0, "fusion_lat": 0.0, "lat": 38.901660666666665, "type": "electric_scooter", "lon": -77.02216983333334, "bike_id": "d077498c2f03d93ec3bab77b6d931549", "rental_uris": {"android": "https://dc.lft.to/lastmile_qr_scan", "ios": "https://dc.lft.to/lastmile_qr_scan"}, "name": "d077498c2f03d93ec3bab77b6d931549", "is_reserved": 0}, {"is_disabled": 0, "fusion_lon": 0.0, "fusion_lat": 0.0, "lat": 38.912311, "type": "electric_scooter", "lon": -77.032067, "bike_id": "ee2a5984d098a0551dba31369fbff71b", "rental_uris": {"android": "https://dc.lft.to/lastmile_qr_scan", "ios": "https://dc.lft.to/lastmile_qr_scan"}, "name": "ee2a5984d098a0551dba31369fbff71b", "is_reserved": 0}, {"is_disabled": 0, "fusion_lon": 0.0, "fusion_lat": 0.0, "lat": 38.920216, "type": "electric_scooter", "lon": -77.02408083333333, "bike_id": "b40ed65d4646dcfd37a453f4a2709dac", "rental_uris": {"android": "https://dc.lft.to/lastmile_qr_scan", "ios": "https://dc.lft.to/lastmile_qr_scan"}, "name": "b40ed65d4646dcfd37a453f4a2709dac", "is_reserved": 0},