{"data": {"bikes": [{"name": "a1fe59ca39deb092155d1d2e9a839200", "is_disabled": 0, "fusion_lat": 0.0, "fusion_lon": 0.0, "type": "electric_bike", "lat": 38.92868983333334, "bike_id": "a1fe59ca39deb092155d1d2e9a839200", "is_reserved": 0, "lon": -77.0328635, "rental_uris": {"android": "https://dc.lft.to/lastmile_qr_scan", "ios": "https://dc.lft.to/lastmile_qr_scan"}}, {"name": "62c5521ad8b47b47d903a5cf2697d300", "is_disabled": 0, "fusion_lat": 0.0, "fusion_lon": 0.0, "type": "electric_scooter", "lat": 38.950692333333336, "bike_id": "62c5521ad8b47b47d903a5cf2697d300", "is_reserved": 0, "lon": -77.0653395, "rental_uris": {"android": "https://dc.lft.to/lastmile_qr_scan", "ios": "https://dc.lft.to/lastmile_qr_scan"}}, {"name": "d4f1daaa443c0ab66bb746600900a935", "is_disabled": 0, "fusion_lat": 0.0, "fusion_lon": 0.0, "type": "electric_scooter", "lat": 38.9248825, "bike_id": "d4f1daaa443c0ab66bb746600900a935", "is_reserved": 0, "lon": -77.0366565, "rental_uris": {"android": "https://dc.lft.to/lastmile_qr_scan", "ios": "https://dc.lft.to/lastmile_qr_scan"}}, {"name": "3d7eb9db7cedecacef12431a6947a6be", "is_disabled": 0, "fusion_lat": 0.0, "fusion_lon": 0.0, "type": "electric_scooter", "lat": 38.92852716666667, "bike_id": "3d7eb9db7cedecacef12431a6947a6be", "is_reserved": 0, "lon": -77.03323166666667, "rental_uris": {"android": "https://dc.lft.to/lastmile_qr_scan", "ios": "https://dc.lft.to/lastmile_qr_scan"}}, {"name": "22942e12e76f818fbf07b3b7e513570c", "is_disabled": 0, "fusion_lat": 0.0, "fusion_lon": 0.0, "type": "electric_scooter", "lat": 38.917330166666666, "bike_id": "22942e12e76f818fbf07b3b7e513570c", "is_reserved": 0, "lon": -77.04088583333333, "rental_uris": {"android": "https://dc.lft.to/lastmile_qr_scan", "ios": "https://dc.lft.to/lastmile_qr_scan"}}, {"name": "0b4965164df8058414211dd7c8cf5e17", "is_disabled": 0, "fusion_lat": 0.0, "fusion_lon": 0.0, "type": "electric_scooter", "lat": 38.919138, "bike_id": "0b4965164df8058414211dd7c8cf5e17", "is_reserved": 0, "lon": -77.03013683333333, "rental_uris": {"android": "https://dc.lft.to/lastmile_qr_scan", "ios": "https://dc.lft.to/lastmile_qr_scan"}}, {"name": "994048cfb6f15ecd920496362d4ba3eb", "is_disabled": 0, "fusion_lat": 0.0, "fusion_lon": 0.0, "type": "electric_scooter", "lat": 38.9242005, "bike_id": "994048cfb6f15ecd920496362d4ba3eb", "is_reserved": 0, "lon": -77.05059833333334, "rental_uris": {"android": "https://dc.lft.to/lastmile_qr_scan", "ios": "https://dc.lft.to/lastmile_qr_scan"}}, {"name": "52a7f053cce76e81c326296143f4582a", "is_disabled": 0, "fusion_lat": 0.0, "fusion_lon": 0.0, "type": "electric_scooter", "lat": 38.85062333333333, "bike_id": "52a7f053cce76e81c326296143f4582a", "is_reserved": 0, "lon": -76.97013066666666, "rental_uris": {"android": "https://dc.lft.to/lastmile_qr_scan", "ios": "https://dc.lft.to/lastmile_qr_scan"}}, {"name": "413bf713684f8d92a05e34dcc1a8108a", "is_disabled": 0, "fusion_lat": 0.0, "fusion_lon": 0.0, "type": "electric_scooter", "lat": 38.9180355, "bike_id": "413bf713684f8d92a05e34dcc1a8108a", "is_reserved": 0, "lon": -77.03637933333333, "rental_uris": {"android": "https://dc.lft.to/lastmile_qr_scan", "ios": "https://dc.lft.to/lastmile_qr_scan"}}, {"name": "e36fb93e61b315f8cd0833fc8ca405e1", "is_disabled": 0, "fusion_lat": 0.0, "fusion_lon": 0.0, "type": "electric_scooter", "lat": 38.901345166666665, "bike_id": "e36fb93e61b315f8cd0833fc8ca405e1", "is_reserved": 0, "lon": -77.01312833333333, "rental_uris": {"android": "https://dc.lft.to/lastmile_qr_scan", "ios": "https://dc.lft.to/lastmile_qr_scan"}}, {"name": "86f33145a32885e29e08793c1fe9252e", "is_disabled": 0, "fusion_lat": 0.0, "fusion_lon": 0.0, "type": "electric_scooter", "lat": 38.89303233333333, "bike_id": "86f33145a32885e29e08793c1fe9252e", "is_reserved": 0, "lon": -76.939799, "rental_uris": {"android": "https://dc.lft.to/lastmile_qr_scan", "ios": "https://dc.lft.to/lastmile_qr_scan"}}, {"name": "2d9c2983fe0d45eb4244a89736225006", "is_disabled": 0, "fusion_lat": 0.0, "fusion_lon": 0.0, "type": "electric_scooter", "lat": 38.90917666666667, "bike_id": "2d9c2983fe0d45eb4244a89736225006", "is_reserved": 0, "lon": -77.07265016666666, "rental_uris": {"android": "https://dc.lft.to/lastmile_qr_scan", "ios": "https://dc.lft.to/lastmile_qr_scan"}}, {"name": "60049db9791b7fe121fd471628b45dd7", "is_disabled": 0, "fusion_lat": 0.0, "fusion_lon": 0.0, "type": "electric_scooter", "lat": 38.9286365, "bike_id": "60049db9791b7fe121fd471628b45dd7", "is_reserved": 0, "lon": -77.03194883333333, "rental_uris": {"android": "https://dc.lft.to/lastmile_qr_scan", "ios": "https://dc.lft.to/lastmile_qr_scan"}}, {"name": "6418c428ad3b7620bd2dc416f728cebe", "is_disabled": 0, "fusion_lat": 0.0, "fusion_lon": 0.0, "type": "electric_bike", "lat": 38.95326383333333, "bike_id": "6418c428ad3b7620bd2dc416f728cebe", "is_reserved": 0, "lon": -76.954333, "rental_uris": {"android": "https://dc.lft.to/lastmile_qr_scan", "ios": "https://dc.lft.to/lastmile_qr_scan"}}, {"name": "970b0a8d8b5c2c444932bb4d2efbad7b", "is_disabled": 0, "fusion_lat": 0.0, "fusion_lon": 0.0, "type": "electric_scooter", "lat": 38.894308, "bike_id": "970b0a8d8b5c2c444932bb4d2efbad7b", "is_reserved": 0, "lon": -77.04006616666666, "rental_uris": {"android": "https://dc.lft.to/lastmile_qr_scan", "ios": "https://dc.lft.to/lastmile_qr_scan"}}, {"name": "1745a1582a2b720d2bdf69ffd8cfb107", "is_disabled": 0, "fusion_lat": 0.0, "fusion_lon": 0.0, "type": "electric_scooter", "lat": 38.92157266666667, "bike_id": "1745a1582a2b720d2bdf69ffd8cfb107", "is_reserved": 0, "lon": -77.03377116666667, "rental_uris": {"android": "https://dc.lft.to/lastmile_qr_scan", "ios": "https://dc.lft.to/lastmile_qr_scan"}}, {"name": "c069d46230722d5a3239c80eb6457a42", "is_disabled": 0, "fusion_lat": 0.0, "fusion_lon": 0.0, "type": "electric_scooter", "lat": 38.90492066666667, "bike_id": "c069d46230722d5a3239c80eb6457a42", "is_reserved": 0, "lon": -76.987175, "rental_uris": {"android": "https://dc.lft.to/lastmile_qr_scan", "ios": "https://dc.lft.to/lastmile_qr_scan"}}, {"name": "b5f6b6b05b9e97115e1fb49b0661a4b9", "is_disabled": 0, "fusion_lat": 0.0, "fusion_lon": 0.0, "type": "electric_bike", "lat": 38.93229316666667, "bike_id": "b5f6b6b05b9e97115e1fb49b0661a4b9", "is_reserved": 0, "lon": -77.18122016666666, "rental_uris": {"android": "https://dc.lft.to/lastmile_qr_scan", "ios": "https://dc.lft.to/lastmile_qr_scan"}}, {"name": "f4fa6580fc69213b156eb68cf7e21815", "is_disabled": 0, "fusion_lat": 0.0, "fusion_lon": 0.0, "type": "electric_scooter", "lat": 38.93244983333334, "bike_id": "f4fa6580fc69213b156eb68cf7e21815", "is_reserved": 0, "lon": -77.02846, "rental_uris": {"android": "https://dc.lft.to/lastmile_qr_scan", "ios": "https://dc.lft.to/lastmile_qr_scan"}}, {"name": "d53fdda765d9bdb19b9d30d3a92785f2", "is_disabled": 0, "fusion_lat": 0.0, "fusion_lon": 0.0, "type": "electric_scooter", "lat": 38.89704316666667, "bike_id": "d53fdda765d9bdb19b9d30d3a92785f2", "is_reserved": 0, "lon": -77.03038366666667, "rental_uris": {"android": "https://dc.lft.to/lastmile_qr_scan", "ios": "https://dc.lft.to/lastmile_qr_scan"}}, {"name": "7c6740cd2373d5462251034c02ede41a", "is_disabled": 0, "fusion_lat": 0.0, "fusion_lon": 0.0, "type": "electric_scooter", "lat": 38.90720066666667, "bike_id": "7c6740cd2373d5462251034c02ede41a", "is_reserved": 0, "lon": -77.04340883333333, "rental_uris": {"android": "https://dc.lft.to/lastmile_qr_scan", "ios": "https://dc.lft.to/lastmile_qr_scan"}}, {"name": "f90a179481a8557d53ee9d5b3fe9a5f9", "is_disabled": 0, "fusion_lat": 0.0, "fusion_lon": 0.0, "type": "electric_scooter", "lat": 38.917706, "bike_id": "f90a179481a8557d53ee9d5b3fe9a5f9", "is_reserved": 0, "lon": -77.0405955, "rental_uris": {"android": "https://dc.lft.to/lastmile_qr_scan", "ios": "https://dc.lft.to/lastmile_qr_scan"}}, {"name": "8a8bab4f62cfc3aad7544769ccce318d", "is_disabled": 0, "fusion_lat": 0.0, "fusion_lon": 0.0, "type": "electric_scooter", "lat": 38.926295, "bike_id": "8a8bab4f62cfc3aad7544769ccce318d", "is_reserved": 0, "lon": -77.04310433333333, "rental_uris": {"android": "https://dc.lft.to/lastmile_qr_scan", "ios": "https://dc.lft.to/lastmile_qr_scan"}}, {"name": "4b232f5f4f539478e52fe40e55fa051e", "is_disabled": 0, "fusion_lat": 0.0, "fusion_lon": 0.0, "type": "electric_scooter", "lat": 38.90010616666667, "bike_id": "4b232f5f4f539478e52fe40e55fa051e", "is_reserved": 0, "lon": -77.04135066666667, "rental_uris": {"android": "https://dc.lft.to/lastmile_qr_scan", "ios": "https://dc.lft.to/lastmile_qr_scan"}}, {"name": "296e3ad3c45da4476dd0fc76e55158a9", "is_disabled": 0, "fusion_lat": 0.0, "fusion_lon": 0.0, "type": "electric_scooter", "lat": 38.91634916666667, "bike_id": "296e3ad3c45da4476dd0fc76e55158a9", "is_reserved": 0, "lon": -77.04797216666667, "rental_uris": {"android": "https://dc.lft.to/lastmile_qr_scan", "ios": "https://dc.lft.to/lastmile_qr_scan"}}, {"name": "5ff383e97b0b014a058234d0e489fefe", "is_disabled": 0, "fusion_lat": 0.0, "fusion_lon": 0.0, "type": "electric_scooter", "lat": 38.914871, "bike_id": "5ff383e97b0b014a058234d0e489fefe", "is_reserved": 0, "lon": -77.0408965, "rental_uris": {"android": "https://dc.lft.to/lastmile_qr_scan", "ios": "https://dc.lft.to/lastmile_qr_scan"}}, {"name": "15ba5ef53d2b72c6e2c851c8cd7a315c", "is_disabled": 0, "fusion_lat": 0.0, "fusion_lon": 0.0, "type": "electric_scooter", "lat": 38.93024616666667, "bike_id": "15ba5ef53d2b72c6e2c851c8cd7a315c", "is_reserved": 0, "lon": -77.06313466666667, "rental_uris": {"android": "https://dc.lft.to/lastmile_qr_scan", "ios": "https://dc.lft.to/lastmile_qr_scan"}}, {"name": "031d211db57f65f5169a673d8b4f8628", "is_disabled": 0, "fusion_lat": 0.0, "fusion_lon": 0.0, "type": "electric_bike", "lat": 39.050487333333336, "bike_id": "031d211db57f65f5169a673d8b4f8628", "is_reserved": 0, "lon": -77.05145733333333, "rental_uris": {"android": "https://dc.lft.to/lastmile_qr_scan", "ios": "https://dc.lft.to/lastmile_qr_scan"}}, {"name": "74d19d422ace9ff9e4d7f7fd8b15090a", "is_disabled": 0, "fusion_lat": 0.0, "fusion_lon": 0.0, "type": "electric_scooter", "lat": 38.902498333333334, "bike_id": "74d19d422ace9ff9e4d7f7fd8b15090a", "is_reserved": 0, "lon": -77.03325383333333, "rental_uris": {"android": "https://dc.lft.to/lastmile_qr_scan", "ios": "https://dc.lft.to/lastmile_qr_scan"}}, {"name": "1f862d2439aa318dae207f54a49b9dac", "is_disabled": 0, "fusion_lat": 0.0, "fusion_lon": 0.0, "type": "electric_scooter", "lat": 38.88506816666667, "bike_id": "1f862d2439aa318dae207f54a49b9dac", "is_reserved": 0, "lon": -77.00566983333333, "rental_uris": {"android": "https://dc.lft.to/lastmile_qr_scan", "ios": "https://dc.lft.to/lastmile_qr_scan"}}, {"name": "0682d97187a9ef548593e4b1ea4aa5fc", "is_disabled": 0, "fusion_lat": 0.0, "fusion_lon": 0.0, "type": "electric_scooter", "lat": 38.894130833333335, "bike_id": "0682d97187a9ef548593e4b1ea4aa5fc", "is_reserved": 0, "lon": -77.02776633333333, "rental_uris": {"android": "https://dc.lft.to/lastmile_qr_scan", "ios": "https://dc.lft.to/lastmile_qr_scan"}}, {"name": "479033d1f838151b4c9509d81add1e4f", "is_disabled": 0, "fusion_lat": 0.0, "fusion_lon": 0.0, "type": "electric_scooter", "lat": 38.905707666666665, "bike_id": "479033d1f838151b4c9509d81add1e4f", "is_reserved": 0, "lon": -77.04395033333333, "rental_uris": {"android": "https://dc.lft.to/lastmile_qr_scan", "ios": "https://dc.lft.to/lastmile_qr_scan"}}, {"name": "375d484f024c415ee6f8fc1d5c04ee72", "is_disabled": 0, "fusion_lat": 0.0, "fusion_lon": 0.0, "type": "electric_bike", "lat": 38.83234233333334, "bike_id": "375d484f024c415ee6f8fc1d5c04ee72", "is_reserved": 0, "lon": -76.94616333333333, "rental_uris": {"android": "https://dc.lft.to/lastmile_qr_scan", "ios": "https://dc.lft.to/lastmile_qr_scan"}}, {"name": "7042092efb7e0b39b0892e6a82a11780", "is_disabled": 0, "fusion_lat": 0.0, "fusion_lon": 0.0, "type": "electric_scooter", "lat": 38.91178216666667, "bike_id": "7042092efb7e0b39b0892e6a82a11780", "is_reserved": 0, "lon": -77.0318285, "rental_uris": {"android": "https://dc.lft.to/lastmile_qr_scan", "ios": "https://dc.lft.to/lastmile_qr_scan"}}, {"name": "69a249d6a581a26b394da17c06a6b997", "is_disabled": 0, "fusion_lat": 0.0, "fusion_lon": 0.0, "type": "electric_scooter", "lat": 38.906381, "bike_id": "69a249d6a581a26b394da17c06a6b997", "is_reserved": 0, "lon": -77.04644183333333, "rental_uris": {"android": "https://dc.lft.to/lastmile_qr_scan", "ios": "https://dc.lft.to/lastmile_qr_scan"}}, {"name": "080e376eba69b20ce4dc43387425239a", "is_disabled": 0, "fusion_lat": 0.0, "fusion_lon": 0.0, "type": "electric_scooter", "lat": 38.876655166666666, "bike_id": "080e376eba69b20ce4dc43387425239a", "is_reserved": 0, "lon": -77.004529, "rental_uris": {"android": "https://dc.lft.to/lastmile_qr_scan", "ios": "https://dc.lft.to/lastmile_qr_scan"}}, {"name": "cc5d92181920ff381109138d2d62ce55", "is_disabled": 0, "fusion_lat": 0.0, "fusion_lon": 0.0, "type": "electric_scooter", "lat": 38.9040905, "bike_id": "cc5d92181920ff381109138d2d62ce55", "is_reserved": 0, "lon": -76.97335333333334, "rental_uris": {"android": "https://dc.lft.to/lastmile_qr_scan", "ios": "https://dc.lft.to/lastmile_qr_scan"}}, {"name": "1ed4dc62c4d2c9c4ee5b7e2db750a670", "is_disabled": 0, "fusion_lat": 0.0, "fusion_lon": 0.0, "type": "electric_scooter", "lat": 38.92186066666667, "bike_id": "1ed4dc62c4d2c9c4ee5b7e2db750a670", "is_reserved": 0, "lon": -77.0434585, "rental_uris": {"android": "https://dc.lft.to/lastmile_qr_scan", "ios": "https://dc.lft.to/lastmile_qr_scan"}}, {"name": "5f51121ca1c00b9a61060b1ea9ccde79", "is_disabled": 0, "fusion_lat": 0.0, "fusion_lon": 0.0, "type": "electric_scooter", "lat": 38.90646016666667, "bike_id": "5f51121ca1c00b9a61060b1ea9ccde79", "is_reserved": 0, "lon": -77.0383145, "rental_uris": {"android": "https://dc.lft.to/lastmile_qr_scan", "ios": "https://dc.lft.to/lastmile_qr_scan"}}, {"name": "e0f8665242ae28289175b80ed518bd5f", "is_disabled": 0, "fusion_lat": 0.0, "fusion_lon": 0.0, "type": "electric_scooter", "lat": 38.9063185, "bike_id": "e0f8665242ae28289175b80ed518bd5f", "is_reserved": 0, "lon": -77.02979283333333, "rental_uris": {"android": "https://dc.lft.to/lastmile_qr_scan", "ios": "https://dc.lft.to/lastmile_qr_scan"}}, {"name": "961d2d270f9fa8544107cea6cfe6d8ed", "is_disabled": 0, "fusion_lat": 0.0, "fusion_lon": 0.0, "type": "electric_scooter", "lat": 38.916957333333336, "bike_id": "961d2d270f9fa8544107cea6cfe6d8ed", "is_reserved": 0, "lon": -77.036832, "rental_uris": {"android": "https://dc.lft.to/lastmile_qr_scan", "ios": "https://dc.lft.to/lastmile_qr_scan"}}, {"name": "7c98eebf048e1632805f1cf0f4736bc9", "is_disabled": 0, "fusion_lat": 0.0, "fusion_lon": 0.0, "type": "electric_scooter", "lat": 38.9036825, "bike_id": "7c98eebf048e1632805f1cf0f4736bc9", "is_reserved": 0, "lon": -77.04026733333333, "rental_uris": {"android": "https://dc.lft.to/lastmile_qr_scan", "ios": "https://dc.lft.to/lastmile_qr_scan"}}, {"name": "85fb7846542bdf5e0b4917cdebfa552c", "is_disabled": 0, "fusion_lat": 0.0, "fusion_lon": 0.0, "type": "electric_scooter", "lat": 38.91788716666667, "bike_id": "85fb7846542bdf5e0b4917cdebfa552c", "is_reserved": 0, "lon": -77.0323295, "rental_uris": {"android": "https://dc.lft.to/lastmile_qr_scan", "ios": "https://dc.lft.to/lastmile_qr_scan"}}, {"name": "4c420e20533afee651ca7eed86f4455d", "is_disabled": 0, "fusion_lat": 0.0, "fusion_lon": 0.0, "type": "electric_scooter", "lat": 38.92119866666667, "bike_id": "4c420e20533afee651ca7eed86f4455d", "is_reserved": 0, "lon": -77.03328433333333, "rental_uris": {"android": "https://dc.lft.to/lastmile_qr_scan", "ios": "https://dc.lft.to/lastmile_qr_scan"}}, {"name": "6c351738d0086a54010e6aa42c7af74c", "is_disabled": 0, "fusion_lat": 0.0, "fusion_lon": 0.0, "type": "electric_scooter", "lat": 38.9300345, "bike_id": "6c351738d0086a54010e6aa42c7af74c", "is_reserved": 0, "lon": -77.01300883333333, "rental_uris": {"android": "https://dc.lft.to/lastmile_qr_scan", "ios": "https://dc.lft.to/lastmile_qr_scan"}}, {"name": "83183c09cf4e7bee2b2a19e35bc94555", "is_disabled": 0, "fusion_lat": 0.0, "fusion_lon": 0.0, "type": "electric_scooter", "lat": 38.92359066666667, "bike_id": "83183c09cf4e7bee2b2a19e35bc94555", "is_reserved": 0, "lon": -77.05073316666666, "rental_uris": {"android": "https://dc.lft.to/lastmile_qr_scan", "ios": "https://dc.lft.to/lastmile_qr_scan"}}, {"name": "bad0c861bd395b74767a346b4fbf3913", "is_disabled": 0, "fusion_lat": 0.0, "fusion_lon": 0.0, "type": "electric_scooter", "lat": 38.9086975, "bike_id": "bad0c861bd395b74767a346b4fbf3913", "is_reserved": 0, "lon": -77.03751833333334, "rental_uris": {"android": "https://dc.lft.to/lastmile_qr_scan", "ios": "https://dc.lft.to/lastmile_qr_scan"}}, {"name": "bb6b9d6262534f7c00e9c89db0bc628a", "is_disabled": 0, "fusion_lat": 0.0, "fusion_lon": 0.0, "type": "electric_scooter", "lat": 38.89374433333333, "bike_id": "bb6b9d6262534f7c00e9c89db0bc628a", "is_reserved": 0, "lon": -77.0240785, "rental_uris": {"android": "https://dc.lft.to/lastmile_qr_scan", "ios": "https://dc.lft.to/lastmile_qr_scan"}}, {"name": "9e259fefe92a906a0876f539cb984519", "is_disabled": 0, "fusion_lat": 0.0, "fusion_lon": 0.0, "type": "electric_scooter", "lat": 38.89221083333333, "bike_id": "9e259fefe92a906a0876f539cb984519", "is_reserved": 0, "lon": -77.04374883333334, "rental_uris": {"android": "https://dc.lft.to/lastmile_qr_scan", "ios": "https://dc.lft.to/lastmile_qr_scan"}}, {"name": "51ecb0b2190baa068cbbacabd148fdaa", "is_disabled": 0, "fusion_lat": 0.0, "fusion_lon": 0.0, "type": "electric_scooter", "lat": 38.89525016666666, "bike_id": "51ecb0b2190baa068cbbacabd148fdaa", "is_reserved": 0, "lon": -77.00331833333334, "rental_uris": {"android": "https://dc.lft.to/lastmile_qr_scan", "ios": "https://dc.lft.to/lastmile_qr_scan"}}, {"name": "13aad5f22630c939da2e9206078730e5", "is_disabled": 0, "fusion_lat": 0.0, "fusion_lon": 0.0, "type": "electric_scooter", "lat": 38.8746, "bike_id": "13aad5f22630c939da2e9206078730e5", "is_reserved": 0, "lon": -77.00540016666666, "rental_uris": {"android": "https://dc.lft.to/lastmile_qr_scan", "ios": "https://dc.lft.to/lastmile_qr_scan"}}, {"name": "80bd10ab6dec0dcf0186ef8394331084", "is_disabled": 0, "fusion_lat": 0.0, "fusion_lon": 0.0, "type": "electric_scooter", "lat": 38.91994, "bike_id": "80bd10ab6dec0dcf0186ef8394331084", "is_reserved": 0, "lon": -77.032098, "rental_uris": {"android": "https://dc.lft.to/lastmile_qr_scan", "ios": "https://dc.lft.to/lastmile_qr_scan"}}, {"name": "bd4f7f97c7f0c32387210495924e4a5f", "is_disabled": 0, "fusion_lat": 0.0, "fusion_lon": 0.0, "type": "electric_scooter", "lat": 38.90764016666667, "bike_id": "bd4f7f97c7f0c32387210495924e4a5f", "is_reserved": 0, "lon": -77.03805716666666, "rental_uris": {"android": "https://dc.lft.to/lastmile_qr_scan", "ios": "https://dc.lft.to/lastmile_qr_scan"}}, {"name": "e6f0298f1c42912fec08da6c87be9094", "is_disabled": 0, "fusion_lat": 0.0, "fusion_lon": 0.0, "type": "electric_scooter", "lat": 38.92168933333333, "bike_id": "e6f0298f1c42912fec08da6c87be9094", "is_reserved": 0, "lon": -77.032067, "rental_uris": {"android": "https://dc.lft.to/lastmile_qr_scan", "ios": "https://dc.lft.to/lastmile_qr_scan"}}, {"name": "82860dac3d89dc4aa308d2242c99d63b", "is_disabled": 0, "fusion_lat": 0.0, "fusion_lon": 0.0, "type": "electric_scooter", "lat": 38.90739466666667, "bike_id": "82860dac3d89dc4aa308d2242c99d63b", "is_reserved": 0, "lon": -77.04477366666667, "rental_uris": {"android": "https://dc.lft.to/lastmile_qr_scan", "ios": "https://dc.lft.to/lastmile_qr_scan"}}, {"name": "d3e3f3c704ceab37dca4d07d1f7789af", "is_disabled": 0, "fusion_lat": 0.0, "fusion_lon": 0.0, "type": "electric_scooter", "lat": 38.83578716666667, "bike_id": "d3e3f3c704ceab37dca4d07d1f7789af", "is_reserved": 0, "lon": -76.99493283333334, "rental_uris": {"android": "https://dc.lft.to/lastmile_qr_scan", "ios": "https://dc.lft.to/lastmile_qr_scan"}}, {"name": "a9f4bda313787fc64d0294f151b8ea78", "is_disabled": 0, "fusion_lat": 0.0, "fusion_lon": 0.0, "type": "electric_scooter", "lat": 38.903702833333334, "bike_id": "a9f4bda313787fc64d0294f151b8ea78", "is_reserved": 0, "lon": -77.02683216666667, "rental_uris": {"android": "https://dc.lft.to/lastmile_qr_scan", "ios": "https://dc.lft.to/lastmile_qr_scan"}}, {"name": "5212e1aa96a0346512d89bc9c25eb9b9", "is_disabled": 0, "fusion_lat": 0.0, "fusion_lon": 0.0, "type": "electric_scooter", "lat": 38.885105, "bike_id": "5212e1aa96a0346512d89bc9c25eb9b9", "is_reserved": 0, "lon": -77.00273166666666, "rental_uris": {"android": "https://dc.lft.to/lastmile_qr_scan", "ios": "https://dc.lft.to/lastmile_qr_scan"}}, {"name": "e873f117d62d641ab59594dfb8ca4138", "is_disabled": 0, "fusion_lat": 0.0, "fusion_lon": 0.0, "type": "electric_scooter", "lat": 38.93788383333333, "bike_id": "e873f117d62d641ab59594dfb8ca4138", "is_reserved": 0, "lon": -77.03291216666666, "rental_uris": {"android": "https://dc.lft.to/lastmile_qr_scan", "ios": "https://dc.lft.to/lastmile_qr_scan"}}, {"name": "9a8f0660f3c6ae9dae2906708224c517", "is_disabled": 0, "fusion_lat": 0.0, "fusion_lon": 0.0, "type": "electric_scooter", "lat": 38.90739116666666, "bike_id": "9a8f0660f3c6ae9dae2906708224c517", "is_reserved": 0, "lon": -77.04269133333334, "rental_uris": {"android": "https://dc.lft.to/lastmile_qr_scan", "ios": "https://dc.lft.to/lastmile_qr_scan"}}, {"name": "a9bbb830737c3a3ff4701655e4e6181a", "is_disabled": 0, "fusion_lat": 0.0, "fusion_lon": 0.0, "type": "electric_scooter", "lat": 38.91549666666667, "bike_id": "a9bbb830737c3a3ff4701655e4e6181a", "is_reserved": 0, "lon": -77.02555366666667, "rental_uris": {"android": "https://dc.lft.to/lastmile_qr_scan", "ios": "https://dc.lft.to/lastmile_qr_scan"}}, {"name": "63510988c2172ed5fe33b5ae9b22ca57", "is_disabled": 0, "fusion_lat": 0.0, "fusion_lon": 0.0, "type": "electric_scooter", "lat": 38.92255566666667, "bike_id": "63510988c2172ed5fe33b5ae9b22ca57", "is_reserved": 0, "lon": -77.03060583333334, "rental_uris": {"android": "https://dc.lft.to/lastmile_qr_scan", "ios": "https://dc.lft.to/lastmile_qr_scan"}}, {"name": "d55e566c214e0e4b95173333d70fc3f0", "is_disabled": 0, "fusion_lat": 0.0, "fusion_lon": 0.0, "type": "electric_scooter", "lat": 38.90602466666667, "bike_id": "d55e566c214e0e4b95173333d70fc3f0", "is_reserved": 0, "lon": -77.0629455, "rental_uris": {"android": "https://dc.lft.to/lastmile_qr_scan", "ios": "https://dc.lft.to/lastmile_qr_scan"}}, {"name": "c29feeffb62e4b077c70f3aef5c7d64d", "is_disabled": 0, "fusion_lat": 0.0, "fusion_lon": 0.0, "type": "electric_scooter", "lat": 38.900803333333336, "bike_id": "c29feeffb62e4b077c70f3aef5c7d64d", "is_reserved": 0, "lon": -77.04740666666666, "rental_uris": {"android": "https://dc.lft.to/lastmile_qr_scan", "ios": "https://dc.lft.to/lastmile_qr_scan"}}, {"name": "880fa18c47bf3dd4eb184df2610b2aa9", "is_disabled": 0, "fusion_lat": 0.0, "fusion_lon": 0.0, "type": "electric_scooter", "lat": 38.911062666666666, "bike_id": "880fa18c47bf3dd4eb184df2610b2aa9", "is_reserved": 0, "lon": -77.0446335, "rental_uris": {"android": "https://dc.lft.to/lastmile_qr_scan", "ios": "https://dc.lft.to/lastmile_qr_scan"}}, {"name": "6fa2123f1cd27ab0ec654e77f014ae94", "is_disabled": 0, "fusion_lat": 0.0, "fusion_lon": 0.0, "type": "electric_scooter", "lat": 38.89746266666667, "bike_id": "6fa2123f1cd27ab0ec654e77f014ae94", "is_reserved": 0, "lon": -77.04379266666666, "rental_uris": {"android": "https://dc.lft.to/lastmile_qr_scan", "ios": "https://dc.lft.to/lastmile_qr_scan"}}, {"name": "16615d40d5eea81f82ab187ce4d59477", "is_disabled": 0, "fusion_lat": 0.0, "fusion_lon": 0.0, "type": "electric_scooter", "lat": 38.910928, "bike_id": "16615d40d5eea81f82ab187ce4d59477", "is_reserved": 0, "lon": -77.0448515, "rental_uris": {"android": "https://dc.lft.to/lastmile_qr_scan", "ios": "https://dc.lft.to/lastmile_qr_scan"}}, {"name": "420627992a4547ea6606defb7403ffe0", "is_disabled": 0, "fusion_lat": 0.0, "fusion_lon": 0.0, "type": "electric_scooter", "lat": 38.90450716666667, "bike_id": "420627992a4547ea6606defb7403ffe0", "is_reserved": 0, "lon": -77.0344845, "rental_uris": {"android": "https://dc.lft.to/lastmile_qr_scan", "ios": "https://dc.lft.to/lastmile_qr_scan"}}, {"name": "abd52b387d4d8eadd869fff0191d69c4", "is_disabled": 0, "fusion_lat": 0.0, "fusion_lon": 0.0, "type": "electric_bike", "lat": 38.8730015, "bike_id": "abd52b387d4d8eadd869fff0191d69c4", "is_reserved": 0, "lon": -77.1393655, "rental_uris": {"android": "https://dc.lft.to/lastmile_qr_scan", "ios": "https://dc.lft.to/lastmile_qr_scan"}}, {"name": "f8388900a98cba651722bd9c9be1d695", "is_disabled": 0, "fusion_lat": 0.0, "fusion_lon": 0.0, "type": "electric_bike", "lat": 38.853736166666664, "bike_id": "f8388900a98cba651722bd9c9be1d695", "is_reserved": 0, "lon": -77.124658, "rental_uris": {"android": "https://dc.lft.to/lastmile_qr_scan", "ios": "https://dc.lft.to/lastmile_qr_scan"}}, {"name": "c780ebb0e6588943b273a91d62dcb575", "is_disabled": 0, "fusion_lat": 0.0, "fusion_lon": 0.0, "type": "electric_scooter", "lat": 38.89221283333333, "bike_id": "c780ebb0e6588943b273a91d62dcb575", "is_reserved": 0, "lon": -77.04803816666667, "rental_uris": {"android": "https://dc.lft.to/lastmile_qr_scan", "ios": "https://dc.lft.to/lastmile_qr_scan"}}, {"name": "aad7429fed65e807fa87384eda7cf926", "is_disabled": 0, "fusion_lat": 0.0, "fusion_lon": 0.0, "type": "electric_scooter", "lat": 38.904378333333334, "bike_id": "aad7429fed65e807fa87384eda7cf926", "is_reserved": 0, "lon": -77.03072983333334, "rental_uris": {"android": "https://dc.lft.to/lastmile_qr_scan", "ios": "https://dc.lft.to/lastmile_qr_scan"}}, {"name": "2055c4bdfb099e6de351cf936203e559", "is_disabled": 0, "fusion_lat": 0.0, "fusion_lon": 0.0, "type": "electric_scooter", "lat": 38.936133, "bike_id": "2055c4bdfb099e6de351cf936203e559", "is_reserved": 0, "lon": -77.06756333333334, "rental_uris": {"android": "https://dc.lft.to/lastmile_qr_scan", "ios": "https://dc.lft.to/lastmile_qr_scan"}}, {"name": "9af63d8bacacb32f07f6fa1745e763a6", "is_disabled": 0, "fusion_lat": 0.0, "fusion_lon": 0.0, "type": "electric_scooter", "lat": 38.895371833333336, "bike_id": "9af63d8bacacb32f07f6fa1745e763a6", "is_reserved": 0, "lon": -77.03261866666666, "rental_uris": {"android": "https://dc.lft.to/lastmile_qr_scan", "ios": "https://dc.lft.to/lastmile_qr_scan"}}, {"name": "c847593e9bd6b82c149b7bbc19fc0134", "is_disabled": 0, "fusion_lat": 0.0, "fusion_lon": 0.0, "type": "electric_scooter", "lat": 38.88467033333333, "bike_id": "c847593e9bd6b82c149b7bbc19fc0134", "is_reserved": 0, "lon": -77.03189933333333, "rental_uris": {"android": "https://dc.lft.to/lastmile_qr_scan", "ios": "https://dc.lft.to/lastmile_qr_scan"}}, {"name": "b9b31d9aff15a22e5bf7babec3599e83", "is_disabled": 0, "fusion_lat": 0.0, "fusion_lon": 0.0, "type": "electric_scooter", "lat": 38.925360833333336, "bike_id": "b9b31d9aff15a22e5bf7babec3599e83", "is_reserved": 0, "lon": -77.03793583333334, "rental_uris": {"android": "https://dc.lft.to/lastmile_qr_scan", "ios": "https://dc.lft.to/lastmile_qr_scan"}}, {"name": "7af9a9e9786a2022f26afb7d948ba652", "is_disabled": 0, "fusion_lat": 0.0, "fusion_lon": 0.0, "type": "electric_scooter", "lat": 38.90066266666667, "bike_id": "7af9a9e9786a2022f26afb7d948ba652", "is_reserved": 0, "lon": -77.01325183333333, "rental_uris": {"android": "https://dc.lft.to/lastmile_qr_scan", "ios": "https://dc.lft.to/lastmile_qr_scan"}}, {"name": "759d83ae9d539239a3f8177f9a86ae1d", "is_disabled": 0, "fusion_lat": 0.0, "fusion_lon": 0.0, "type": "electric_scooter", "lat": 38.866975333333336, "bike_id": "759d83ae9d539239a3f8177f9a86ae1d", "is_reserved": 0, "lon": -76.98596516666667, "rental_uris": {"android": "https://dc.lft.to/lastmile_qr_scan", "ios": "https://dc.lft.to/lastmile_qr_scan"}}, {"name": "37ac635b5b28e7895bc3ca9aa8cf3a98", "is_disabled": 0, "fusion_lat": 0.0, "fusion_lon": 0.0, "type": "electric_scooter", "lat": 38.90323433333333, "bike_id": "37ac635b5b28e7895bc3ca9aa8cf3a98", "is_reserved": 0, "lon": -76.97548916666666, "rental_uris": {"android": "https://dc.lft.to/lastmile_qr_scan", "ios": "https://dc.lft.to/lastmile_qr_scan"}}, {"name": "bfcd7ddc00b2692aeb6b4bf073c25f59", "is_disabled": 0, "fusion_lat": 0.0, "fusion_lon": 0.0, "type": "electric_scooter", "lat": 38.9012165, "bike_id": "bfcd7ddc00b2692aeb6b4bf073c25f59", "is_reserved": 0, "lon": -77.043501, "rental_uris": {"android": "https://dc.lft.to/lastmile_qr_scan", "ios": "https://dc.lft.to/lastmile_qr_scan"}}, {"name": "1b4988a6abd6e8abf38e6575e38aae5c", "is_disabled": 0, "fusion_lat": 0.0, "fusion_lon": 0.0, "type": "electric_bike", "lat": 38.80709816666667, "bike_id": "1b4988a6abd6e8abf38e6575e38aae5c", "is_reserved": 0, "lon": -77.0617505, "rental_uris": {"android": "https://dc.lft.to/lastmile_qr_scan", "ios": "https://dc.lft.to/lastmile_qr_scan"}}, {"name": "35be1fcb2d28f3f2ccc19a5338c84b30", "is_disabled": 0, "fusion_lat": 0.0, "fusion_lon": 0.0, "type": "electric_scooter", "lat": 38.89852966666667, "bike_id": "35be1fcb2d28f3f2ccc19a5338c84b30", "is_reserved": 0, "lon": -76.98163933333333, "rental_uris": {"android": "https://dc.lft.to/lastmile_qr_scan", "ios": "https://dc.lft.to/lastmile_qr_scan"}}, {"name": "0aed830291620aa33435bae2bf4a96e1", "is_disabled": 0, "fusion_lat": 0.0, "fusion_lon": 0.0, "type": "electric_scooter", "lat": 38.92808333333333, "bike_id": "0aed830291620aa33435bae2bf4a96e1", "is_reserved": 0, "lon": -77.01410616666666, "rental_uris": {"android": "https://dc.lft.to/lastmile_qr_scan", "ios": "https://dc.lft.to/lastmile_qr_scan"}}, {"name": "b0de11a567dc2a37d3a3b4c537a696cf", "is_disabled": 0, "fusion_lat": 0.0, "fusion_lon": 0.0, "type": "electric_scooter", "lat": 38.922405499999996, "bike_id": "b0de11a567dc2a37d3a3b4c537a696cf", "is_reserved": 0, "lon": -77.03665683333334, "rental_uris": {"android": "https://dc.lft.to/lastmile_qr_scan", "ios": "https://dc.lft.to/lastmile_qr_scan"}}, {"name": "89ff616462b626c5c2014e0b776c11c9", "is_disabled": 0, "fusion_lat": 0.0, "fusion_lon": 0.0, "type": "electric_bike", "lat": 38.93632216666666, "bike_id": "89ff616462b626c5c2014e0b776c11c9", "is_reserved": 0, "lon": -77.0211555, "rental_uris": {"android": "https://dc.lft.to/lastmile_qr_scan", "ios": "https://dc.lft.to/lastmile_qr_scan"}}, {"name": "cf740422b23ebb5708c931da0cd7e9ce", "is_disabled": 0, "fusion_lat": 0.0, "fusion_lon": 0.0, "type": "electric_bike", "lat": 38.807629166666665, "bike_id": "cf740422b23ebb5708c931da0cd7e9ce", "is_reserved": 0, "lon": -77.094686, "rental_uris": {"android": "https://dc.lft.to/lastmile_qr_scan", "ios": "https://dc.lft.to/lastmile_qr_scan"}}, {"name": "814d07f8a7338c73460db4653fecd760", "is_disabled": 0, "fusion_lat": 0.0, "fusion_lon": 0.0, "type": "electric_scooter", "lat": 38.9012305, "bike_id": "814d07f8a7338c73460db4653fecd760", "is_reserved": 0, "lon": -77.02996516666667, "rental_uris": {"android": "https://dc.lft.to/lastmile_qr_scan", "ios": "https://dc.lft.to/lastmile_qr_scan"}}, {"name": "aabdd5b595c686c3a48f63fc451366a5", "is_disabled": 0, "fusion_lat": 0.0, "fusion_lon": 0.0, "type": "electric_scooter", "lat": 38.88614166666667, "bike_id": "aabdd5b595c686c3a48f63fc451366a5", "is_reserved": 0, "lon": -76.95576583333333, "rental_uris": {"android": "https://dc.lft.to/lastmile_qr_scan", "ios": "https://dc.lft.to/lastmile_qr_scan"}}, {"name": "2c03f947fb2634c237ed69869914aa47", "is_disabled": 0, "fusion_lat": 0.0, "fusion_lon": 0.0, "type": "electric_scooter", "lat": 38.920956333333336, "bike_id": "2c03f947fb2634c237ed69869914aa47", "is_reserved": 0, "lon": -77.03945933333334, "rental_uris": {"android": "https://dc.lft.to/lastmile_qr_scan", "ios": "https://dc.lft.to/lastmile_qr_scan"}}, {"name": "5f3be8e0e103c19f8940a6ac3bf0cf54", "is_disabled": 0, "fusion_lat": 0.0, "fusion_lon": 0.0, "type": "electric_scooter", "lat": 38.89760016666666, "bike_id": "5f3be8e0e103c19f8940a6ac3bf0cf54", "is_reserved": 0, "lon": -77.04656016666667, "rental_uris": {"android": "https://dc.lft.to/lastmile_qr_scan", "ios": "https://dc.lft.to/lastmile_qr_scan"}}, {"name": "f8b4066d5fbb654f2c8576f2bda0b861", "is_disabled": 0, "fusion_lat": 0.0, "fusion_lon": 0.0, "type": "electric_scooter", "lat": 38.887307666666665, "bike_id": "f8b4066d5fbb654f2c8576f2bda0b861", "is_reserved": 0, "lon": -77.0283005, "rental_uris": {"android": "https://dc.lft.to/lastmile_qr_scan", "ios": "https://dc.lft.to/lastmile_qr_scan"}}, {"name": "77389765ef210e59d43c0288a8f5f858", "is_disabled": 0, "fusion_lat": 0.0, "fusion_lon": 0.0, "type": "electric_scooter", "lat": 38.89270066666667, "bike_id": "77389765ef210e59d43c0288a8f5f858", "is_reserved": 0, "lon": -77.00360183333333, "rental_uris": {"android": "https://dc.lft.to/lastmile_qr_scan", "ios": "https://dc.lft.to/lastmile_qr_scan"}}, {"name": "2b32d6f7a1b77b47536f461ff8afe5dd", "is_disabled": 0, "fusion_lat": 0.0, "fusion_lon": 0.0, "type": "electric_scooter", "lat": 38.940397833333336, "bike_id": "2b32d6f7a1b77b47536f461ff8afe5dd", "is_reserved": 0, "lon": -77.029154, "rental_uris": {"android": "https://dc.lft.to/lastmile_qr_scan", "ios": "https://dc.lft.to/lastmile_qr_scan"}}, {"name": "31383490719589e6590f0a918f1e1bca", "is_disabled": 0, "fusion_lat": 0.0, "fusion_lon": 0.0, "type": "electric_scooter", "lat": 38.8647295, "bike_id": "31383490719589e6590f0a918f1e1bca", "is_reserved": 0, "lon": -76.97747, "rental_uris": {"android": "https://dc.lft.to/lastmile_qr_scan", "ios": "https://dc.lft.to/lastmile_qr_scan"}}, {"name": "fe11a1c9a1fd6573b045a7baa8c5cf6f", "is_disabled": 0, "fusion_lat": 0.0, "fusion_lon": 0.0, "type": "electric_bike", "lat": 38.9031485, "bike_id": "fe11a1c9a1fd6573b045a7baa8c5cf6f", "is_reserved": 0, "lon": -76.912188, "rental_uris": {"android": "https://dc.lft.to/lastmile_qr_scan", "ios": "https://dc.lft.to/lastmile_qr_scan"}}, {"name": "f76c84674f4adb250a0ea47e8d846e65", "is_disabled": 0, "fusion_lat": 0.0, "fusion_lon": 0.0, "type": "electric_scooter", "lat": 38.885144, "bike_id": "f76c84674f4adb250a0ea47e8d846e65", "is_reserved": 0, "lon": -77.00584766666667, "rental_uris": {"android": "https://dc.lft.to/lastmile_qr_scan", "ios": "https://dc.lft.to/lastmile_qr_scan"}}, {"name": "54ed610c905f313fa01c074247215d6b", "is_disabled": 0, "fusion_lat": 0.0, "fusion_lon": 0.0, "type": "electric_bike", "lat": 38.838294, "bike_id": "54ed610c905f313fa01c074247215d6b", "is_reserved": 0, "lon": -77.079116, "rental_uris": {"android": "https://dc.lft.to/lastmile_qr_scan", "ios": "https://dc.lft.to/lastmile_qr_scan"}}, {"name": "15e5ce580b3fe57636b49c84e2aa75b6", "is_disabled": 0, "fusion_lat": 0.0, "fusion_lon": 0.0, "type": "electric_scooter", "lat": 38.918716333333336, "bike_id": "15e5ce580b3fe57636b49c84e2aa75b6", "is_reserved": 0, "lon": -77.0446205, "rental_uris": {"android": "https://dc.lft.to/lastmile_qr_scan", "ios": "https://dc.lft.to/lastmile_qr_scan"}}, {"name": "31dd1a1ce40d9379d15e1db4a027481b", "is_disabled": 0, "fusion_lat": 0.0, "fusion_lon": 0.0, "type": "electric_bike", "lat": 38.908358166666666, "bike_id": "31dd1a1ce40d9379d15e1db4a027481b", "is_reserved": 0, "lon": -76.93309183333334, "rental_uris": {"android": "https://dc.lft.to/lastmile_qr_scan", "ios": "https://dc.lft.to/lastmile_qr_scan"}}, {"name": "02e2ae423d2425aba75bf43527510876", "is_disabled": 0, "fusion_lat": 0.0, "fusion_lon": 0.0, "type": "electric_scooter", "lat": 38.88508316666667, "bike_id": "02e2ae423d2425aba75bf43527510876", "is_reserved": 0, "lon": -76.997596, "rental_uris": {"android": "https://dc.lft.to/lastmile_qr_scan", "ios": "https://dc.lft.to/lastmile_qr_scan"}}, {"name": "7a2413d781a99e9a301acb0cecb8aa11", "is_disabled": 0, "fusion_lat": 0.0, "fusion_lon": 0.0, "type": "electric_scooter", "lat": 38.90202166666667, "bike_id": "7a2413d781a99e9a301acb0cecb8aa11", "is_reserved": 0, "lon": -77.0431495, "rental_uris": {"android": "https://dc.lft.to/lastmile_qr_scan", "ios": "https://dc.lft.to/lastmile_qr_scan"}}, {"name": "2e0684e16f68bd89956e1206e80110bd", "is_disabled": 0, "fusion_lat": 0.0, "fusion_lon": 0.0, "type": "electric_bike", "lat": 38.9027975, "bike_id": "2e0684e16f68bd89956e1206e80110bd", "is_reserved": 0, "lon": -77.0137005, "rental_uris": {"android": "https://dc.lft.to/lastmile_qr_scan", "ios": "https://dc.lft.to/lastmile_qr_scan"}}, {"name": "c8cefc5ec5de6d01f4db47a68d34d2dc", "is_disabled": 0, "fusion_lat": 0.0, "fusion_lon": 0.0, "type": "electric_scooter", "lat": 38.884079, "bike_id": "c8cefc5ec5de6d01f4db47a68d34d2dc", "is_reserved": 0, "lon": -76.95390433333333, "rental_uris": {"android": "https://dc.lft.to/lastmile_qr_scan", "ios": "https://dc.lft.to/lastmile_qr_scan"}}, {"name": "34dab338f04c6dfd372bbf44b8d11cdb", "is_disabled": 0, "fusion_lat": 0.0, "fusion_lon": 0.0, "type": "electric_scooter", "lat": 38.884896166666664, "bike_id": "34dab338f04c6dfd372bbf44b8d11cdb", "is_reserved": 0, "lon": -77.00714883333333, "rental_uris": {"android": "https://dc.lft.to/lastmile_qr_scan", "ios": "https://dc.lft.to/lastmile_qr_scan"}}, {"name": "f97d62c0358898425148d96bb8b6d672", "is_disabled": 0, "fusion_lat": 0.0, "fusion_lon": 0.0, "type": "electric_scooter", "lat": 38.901182166666665, "bike_id": "f97d62c0358898425148d96bb8b6d672", "is_reserved": 0, "lon": -77.0500635, "rental_uris": {"android": "https://dc.lft.to/lastmile_qr_scan", "ios": "https://dc.lft.to/lastmile_qr_scan"}}, {"name": "11fa7d6dfd120911c794f38e3b7253f7", "is_disabled": 0, "fusion_lat": 0.0, "fusion_lon": 0.0, "type": "electric_scooter", "lat": 38.90070083333333, "bike_id": "11fa7d6dfd120911c794f38e3b7253f7", "is_reserved": 0, "lon": -77.00197416666667, "rental_uris": {"android": "https://dc.lft.to/lastmile_qr_scan", "ios": "https://dc.lft.to/lastmile_qr_scan"}}, {"name": "451ee5ef3db2cd84d1732b672c6c666c", "is_disabled": 0, "fusion_lat": 0.0, "fusion_lon": 0.0, "type": "electric_scooter", "lat": 38.92275716666666, "bike_id": "451ee5ef3db2cd84d1732b672c6c666c", "is_reserved": 0, "lon": -77.04257433333333, "rental_uris": {"android": "https://dc.lft.to/lastmile_qr_scan", "ios": "https://dc.lft.to/lastmile_qr_scan"}}, {"name": "714199df0518d1c99ed42b38b569a9b4", "is_disabled": 0, "fusion_lat": 0.0, "fusion_lon": 0.0, "type": "electric_scooter", "lat": 38.90071016666667, "bike_id": "714199df0518d1c99ed42b38b569a9b4", "is_reserved": 0, "lon": -76.94687783333333, "rental_uris": {"android": "https://dc.lft.to/lastmile_qr_scan", "ios": "https://dc.lft.to/lastmile_qr_scan"}}, {"name": "0669f09cf46131d6bf997a7e0adb037e", "is_disabled": 0, "fusion_lat": 0.0, "fusion_lon": 0.0, "type": "electric_bike", "lat": 38.95173416666667, "bike_id": "0669f09cf46131d6bf997a7e0adb037e", "is_reserved": 0, "lon": -76.97730016666667, "rental_uris": {"android": "https://dc.lft.to/lastmile_qr_scan", "ios": "https://dc.lft.to/lastmile_qr_scan"}}, {"name": "1777d265c7c99f2261cb0ef5ea2b64c5", "is_disabled": 0, "fusion_lat": 0.0, "fusion_lon": 0.0, "type": "electric_scooter", "lat": 38.902738, "bike_id": "1777d265c7c99f2261cb0ef5ea2b64c5", "is_reserved": 0, "lon": -77.03454916666666, "rental_uris": {"android": "https://dc.lft.to/lastmile_qr_scan", "ios": "https://dc.lft.to/lastmile_qr_scan"}}, {"name": "0eaeb3fffd46b88e5f07db28961cba61", "is_disabled": 0, "fusion_lat": 0.0, "fusion_lon": 0.0, "type": "electric_bike", "lat": 38.93445533333333, "bike_id": "0eaeb3fffd46b88e5f07db28961cba61", "is_reserved": 0, "lon": -77.03277016666667, "rental_uris": {"android": "https://dc.lft.to/lastmile_qr_scan", "ios": "https://dc.lft.to/lastmile_qr_scan"}}, {"name": "28ef86f0dea099bd7f2807a6bbf7c987", "is_disabled": 0, "fusion_lat": 0.0, "fusion_lon": 0.0, "type": "electric_bike", "lat": 38.96277116666667, "bike_id": "28ef86f0dea099bd7f2807a6bbf7c987", "is_reserved": 0, "lon": -77.01459416666667, "rental_uris": {"android": "https://dc.lft.to/lastmile_qr_scan", "ios": "https://dc.lft.to/lastmile_qr_scan"}}, {"name": "fb0a12a16cd8477fb3b9909cda334dab", "is_disabled": 0, "fusion_lat": 0.0, "fusion_lon": 0.0, "type": "electric_scooter", "lat": 38.866823, "bike_id": "fb0a12a16cd8477fb3b9909cda334dab", "is_reserved": 0, "lon": -76.98611483333333, "rental_uris": {"android": "https://dc.lft.to/lastmile_qr_scan", "ios": "https://dc.lft.to/lastmile_qr_scan"}}, {"name": "207b47bd5b1c639902be1c1a1f9bc71a", "is_disabled": 0, "fusion_lat": 0.0, "fusion_lon": 0.0, "type": "electric_scooter", "lat": 38.89876666666667, "bike_id": "207b47bd5b1c639902be1c1a1f9bc71a", "is_reserved": 0, "lon": -76.93188083333334, "rental_uris": {"android": "https://dc.lft.to/lastmile_qr_scan", "ios": "https://dc.lft.to/lastmile_qr_scan"}}, {"name": "5b04c3f37aa7720bf194118fa5c7bf42", "is_disabled": 0, "fusion_lat": 0.0, "fusion_lon": 0.0, "type": "electric_bike", "lat": 38.83792, "bike_id": "5b04c3f37aa7720bf194118fa5c7bf42", "is_reserved": 0, "lon": -76.99753433333333, "rental_uris": {"android": "https://dc.lft.to/lastmile_qr_scan", "ios": "https://dc.lft.to/lastmile_qr_scan"}}, {"name": "2dcc533ba4a2545a10e945caac039809", "is_disabled": 0, "fusion_lat": 0.0, "fusion_lon": 0.0, "type": "electric_scooter", "lat": 38.91552133333333, "bike_id": "2dcc533ba4a2545a10e945caac039809", "is_reserved": 0, "lon": -77.02370016666667, "rental_uris": {"android": "https://dc.lft.to/lastmile_qr_scan", "ios": "https://dc.lft.to/lastmile_qr_scan"}}, {"name": "357989d333ed87f88958990ecadce2e4", "is_disabled": 0, "fusion_lat": 0.0, "fusion_lon": 0.0, "type": "electric_scooter", "lat": 38.900032333333336, "bike_id": "357989d333ed87f88958990ecadce2e4", "is_reserved": 0, "lon": -76.99842116666667, "rental_uris": {"android": "https://dc.lft.to/lastmile_qr_scan", "ios": "https://dc.lft.to/lastmile_qr_scan"}}, {"name": "ea51a27a24d6db350fc936a262ec65a7", "is_disabled": 0, "fusion_lat": 0.0, "fusion_lon": 0.0, "type": "electric_scooter", "lat": 38.87943966666667, "bike_id": "ea51a27a24d6db350fc936a262ec65a7", "is_reserved": 0, "lon": -77.00660683333334, "rental_uris": {"android": "https://dc.lft.to/lastmile_qr_scan", "ios": "https://dc.lft.to/lastmile_qr_scan"}}, {"name": "541c989e20cddc2ff3744ddd95bc7b92", "is_disabled": 0, "fusion_lat": 0.0, "fusion_lon": 0.0, "type": "electric_scooter", "lat": 38.910317166666665, "bike_id": "541c989e20cddc2ff3744ddd95bc7b92", "is_reserved": 0, "lon": -76.99340316666667, "rental_uris": {"android": "https://dc.lft.to/lastmile_qr_scan", "ios": "https://dc.lft.to/lastmile_qr_scan"}}, {"name": "6d8af0f8a999af20f6bb7f2c54d9dae3", "is_disabled": 0, "fusion_lat": 0.0, "fusion_lon": 0.0, "type": "electric_scooter", "lat": 38.9023635, "bike_id": "6d8af0f8a999af20f6bb7f2c54d9dae3", "is_reserved": 0, "lon": -77.0267345, "rental_uris": {"android": "https://dc.lft.to/lastmile_qr_scan", "ios": "https://dc.lft.to/lastmile_qr_scan"}}, {"name": "fdcc1c9b5ca0684d2871f8dbdaf7fe77", "is_disabled": 0, "fusion_lat": 0.0, "fusion_lon": 0.0, "type": "electric_scooter", "lat": 38.90120816666666, "bike_id": "fdcc1c9b5ca0684d2871f8dbdaf7fe77", "is_reserved": 0, "lon": -77.03976233333333, "rental_uris": {"android": "https://dc.lft.to/lastmile_qr_scan", "ios": "https://dc.lft.to/lastmile_qr_scan"}}, {"name": "52a32b25d48318708a5c780c6a214c49", "is_disabled": 0, "fusion_lat": 0.0, "fusion_lon": 0.0, "type": "electric_scooter", "lat": 38.9266165, "bike_id": "52a32b25d48318708a5c780c6a214c49", "is_reserved": 0, "lon": -77.00870516666667, "rental_uris": {"android": "https://dc.lft.to/lastmile_qr_scan", "ios": "https://dc.lft.to/lastmile_qr_scan"}}, {"name": "500b7b805acecb5d0df724da2297ad46", "is_disabled": 0, "fusion_lat": 0.0, "fusion_lon": 0.0, "type": "electric_bike", "lat": 39.054962, "bike_id": "500b7b805acecb5d0df724da2297ad46", "is_reserved": 0, "lon": -77.1179185, "rental_uris": {"android": "https://dc.lft.to/lastmile_qr_scan", "ios": "https://dc.lft.to/lastmile_qr_scan"}}, {"name": "fbf5d7867995b4c77a19d55cc7fb500c", "is_disabled": 0, "fusion_lat": 0.0, "fusion_lon": 0.0, "type": "electric_scooter", "lat": 38.9065405, "bike_id": "fbf5d7867995b4c77a19d55cc7fb500c", "is_reserved": 0, "lon": -77.0514965, "rental_uris": {"android": "https://dc.lft.to/lastmile_qr_scan", "ios": "https://dc.lft.to/lastmile_qr_scan"}}, {"name": "4efe1978b01ddf51ff2e3b74e4b49a4e", "is_disabled": 0, "fusion_lat": 0.0, "fusion_lon": 0.0, "type": "electric_bike", "lat": 38.88749333333333, "bike_id": "4efe1978b01ddf51ff2e3b74e4b49a4e", "is_reserved": 0, "lon": -76.90081283333333, "rental_uris": {"android": "https://dc.lft.to/lastmile_qr_scan", "ios": "https://dc.lft.to/lastmile_qr_scan"}}, {"name": "498767747871cee0e17a49dbc70a8989", "is_disabled": 0, "fusion_lat": 0.0, "fusion_lon": 0.0, "type": "electric_scooter", "lat": 38.9023895, "bike_id": "498767747871cee0e17a49dbc70a8989", "is_reserved": 0, "lon": -77.00199066666667, "rental_uris": {"android": "https://dc.lft.to/lastmile_qr_scan", "ios": "https://dc.lft.to/lastmile_qr_scan"}}, {"name": "2d63f8807f920a5ff70a1981ba1b29f7", "is_disabled": 0, "fusion_lat": 0.0, "fusion_lon": 0.0, "type": "electric_scooter", "lat": 38.920815833333336, "bike_id": "2d63f8807f920a5ff70a1981ba1b29f7", "is_reserved": 0, "lon": -77.0205765, "rental_uris": {"android": "https://dc.lft.to/lastmile_qr_scan", "ios": "https://dc.lft.to/lastmile_qr_scan"}}, {"name": "58bda2803c1904633509cc1f636bc345", "is_disabled": 0, "fusion_lat": 0.0, "fusion_lon": 0.0, "type": "electric_bike", "lat": 39.0341445, "bike_id": "58bda2803c1904633509cc1f636bc345", "is_reserved": 0, "lon": -77.04094533333334, "rental_uris": {"android": "https://dc.lft.to/lastmile_qr_scan", "ios": "https://dc.lft.to/lastmile_qr_scan"}}, {"name": "30a9d83f0391845f46fec21cd45b6d4f", "is_disabled": 0, "fusion_lat": 0.0, "fusion_lon": 0.0, "type": "electric_bike", "lat": 38.883334833333336, "bike_id": "30a9d83f0391845f46fec21cd45b6d4f", "is_reserved": 0, "lon": -77.06565533333334, "rental_uris": {"android": "https://dc.lft.to/lastmile_qr_scan", "ios": "https://dc.lft.to/lastmile_qr_scan"}}, {"name": "2d898f64516d76a8ee38819db273ebf9", "is_disabled": 0, "fusion_lat": 0.0, "fusion_lon": 0.0, "type": "electric_scooter", "lat": 38.908622333333334, "bike_id": "2d898f64516d76a8ee38819db273ebf9", "is_reserved": 0, "lon": -77.04287966666666, "rental_uris": {"android": "https://dc.lft.to/lastmile_qr_scan", "ios": "https://dc.lft.to/lastmile_qr_scan"}}, {"name": "1d9983ff5034865df7ffc362ecf5ea9f", "is_disabled": 0, "fusion_lat": 0.0, "fusion_lon": 0.0, "type": "electric_scooter", "lat": 38.897022166666666, "bike_id": "1d9983ff5034865df7ffc362ecf5ea9f", "is_reserved": 0, "lon": -76.93000066666667, "rental_uris": {"android": "https://dc.lft.to/lastmile_qr_scan", "ios": "https://dc.lft.to/lastmile_qr_scan"}}, {"name": "624541734787f1290f1285cebecacacd", "is_disabled": 0, "fusion_lat": 0.0, "fusion_lon": 0.0, "type": "electric_scooter", "lat": 38.9231985, "bike_id": "624541734787f1290f1285cebecacacd", "is_reserved": 0, "lon": -77.03536766666667, "rental_uris": {"android": "https://dc.lft.to/lastmile_qr_scan", "ios": "https://dc.lft.to/lastmile_qr_scan"}}, {"name": "d1fc1576d7c29ab8f67120ff97dfacbc", "is_disabled": 0, "fusion_lat": 0.0, "fusion_lon": 0.0, "type": "electric_scooter", "lat": 38.90281433333333, "bike_id": "d1fc1576d7c29ab8f67120ff97dfacbc", "is_reserved": 0, "lon": -77.02065616666667, "rental_uris": {"android": "https://dc.lft.to/lastmile_qr_scan", "ios": "https://dc.lft.to/lastmile_qr_scan"}}, {"name": "4af7f719b275b3593a20713a23b84a01", "is_disabled": 0, "fusion_lat": 0.0, "fusion_lon": 0.0, "type": "electric_scooter", "lat": 38.9075255, "bike_id": "4af7f719b275b3593a20713a23b84a01", "is_reserved": 0, "lon": -77.041354, "rental_uris": {"android": "https://dc.lft.to/lastmile_qr_scan", "ios": "https://dc.lft.to/lastmile_qr_scan"}}, {"name": "a1cfbd66380b67beb0a190b2c054bd8e", "is_disabled": 0, "fusion_lat": 0.0, "fusion_lon": 0.0, "type": "electric_scooter", "lat": 38.9099065, "bike_id": "a1cfbd66380b67beb0a190b2c054bd8e", "is_reserved": 0, "lon": -77.0320155, "rental_uris": {"android": "https://dc.lft.to/lastmile_qr_scan", "ios": "https://dc.lft.to/lastmile_qr_scan"}}, {"name": "9c9b89d1ff4ab571ca2881f1ee0bd039", "is_disabled": 0, "fusion_lat": 0.0, "fusion_lon": 0.0, "type": "electric_scooter", "lat": 38.89985733333333, "bike_id": "9c9b89d1ff4ab571ca2881f1ee0bd039", "is_reserved": 0, "lon": -77.040233, "rental_uris": {"android": "https://dc.lft.to/lastmile_qr_scan", "ios": "https://dc.lft.to/lastmile_qr_scan"}}, {"name": "f3a368ebc9f3754a1092b5e0c127130c", "is_disabled": 0, "fusion_lat": 0.0, "fusion_lon": 0.0, "type": "electric_scooter", "lat": 38.905182833333335, "bike_id": "f3a368ebc9f3754a1092b5e0c127130c", "is_reserved": 0, "lon": -77.04180733333334, "rental_uris": {"android": "https://dc.lft.to/lastmile_qr_scan", "ios": "https://dc.lft.to/lastmile_qr_scan"}}, {"name": "fba85e185ae8885597c03744366745ef", "is_disabled": 0, "fusion_lat": 0.0, "fusion_lon": 0.0, "type": "electric_bike", "lat": 38.89817333333333, "bike_id": "fba85e185ae8885597c03744366745ef", "is_reserved": 0, "lon": -77.0249645, "rental_uris": {"android": "https://dc.lft.to/lastmile_qr_scan", "ios": "https://dc.lft.to/lastmile_qr_scan"}}, {"name": "e37e6d4a72ddf1d82982416ffc34cbca", "is_disabled": 0, "fusion_lat": 0.0, "fusion_lon": 0.0, "type": "electric_scooter", "lat": 38.920042333333335, "bike_id": "e37e6d4a72ddf1d82982416ffc34cbca", "is_reserved": 0, "lon": -77.0322085, "rental_uris": {"android": "https://dc.lft.to/lastmile_qr_scan", "ios": "https://dc.lft.to/lastmile_qr_scan"}}, {"name": "dbce1413fdc98d9fcbb8a946550c4f38", "is_disabled": 0, "fusion_lat": 0.0, "fusion_lon": 0.0, "type": "electric_scooter", "lat": 38.90723916666666, "bike_id": "dbce1413fdc98d9fcbb8a946550c4f38", "is_reserved": 0, "lon": -77.00059033333334, "rental_uris": {"android": "https://dc.lft.to/lastmile_qr_scan", "ios": "https://dc.lft.to/lastmile_qr_scan"}}, {"name": "cf3b507876845589065f0a9623e22ce6", "is_disabled": 0, "fusion_lat": 0.0, "fusion_lon": 0.0, "type": "electric_scooter", "lat": 38.89997416666667, "bike_id": "cf3b507876845589065f0a9623e22ce6", "is_reserved": 0, "lon": -77.03204233333334, "rental_uris": {"android": "https://dc.lft.to/lastmile_qr_scan", "ios": "https://dc.lft.to/lastmile_qr_scan"}}, {"name": "744aa8774a54e134dc3b6e6f16404db7", "is_disabled": 0, "fusion_lat": 0.0, "fusion_lon": 0.0, "type": "electric_scooter", "lat": 38.909144166666664, "bike_id": "744aa8774a54e134dc3b6e6f16404db7", "is_reserved": 0, "lon": -77.072725, "rental_uris": {"android": "https://dc.lft.to/lastmile_qr_scan", "ios": "https://dc.lft.to/lastmile_qr_scan"}}, {"name": "98fd3c379a569577f8814910da64b022", "is_disabled": 0, "fusion_lat": 0.0, "fusion_lon": 0.0, "type": "electric_scooter", "lat": 38.902968, "bike_id": "98fd3c379a569577f8814910da64b022", "is_reserved": 0, "lon": -77.03465533333333, "rental_uris": {"android": "https://dc.lft.to/lastmile_qr_scan", "ios": "https://dc.lft.to/lastmile_qr_scan"}}, {"name": "e247b4f47aa9b54e69326c8d4f77993c", "is_disabled": 0, "fusion_lat": 0.0, "fusion_lon": 0.0, "type": "electric_scooter", "lat": 38.90250416666667, "bike_id": "e247b4f47aa9b54e69326c8d4f77993c", "is_reserved": 0, "lon": -77.04575416666667, "rental_uris": {"android": "https://dc.lft.to/lastmile_qr_scan", "ios": "https://dc.lft.to/lastmile_qr_scan"}}, {"name": "99f9a8f73b20f9ee23dd6454fe164953", "is_disabled": 0, "fusion_lat": 0.0, "fusion_lon": 0.0, "type": "electric_scooter", "lat": 38.86629666666666, "bike_id": "99f9a8f73b20f9ee23dd6454fe164953", "is_reserved": 0, "lon": -76.9890955, "rental_uris": {"android": "https://dc.lft.to/lastmile_qr_scan", "ios": "https://dc.lft.to/lastmile_qr_scan"}}, {"name": "94769d37469de44f4efc569ea7de48ec", "is_disabled": 0, "fusion_lat": 0.0, "fusion_lon": 0.0, "type": "electric_scooter", "lat": 38.90635183333333, "bike_id": "94769d37469de44f4efc569ea7de48ec", "is_reserved": 0, "lon": -77.00491666666667, "rental_uris": {"android": "https://dc.lft.to/lastmile_qr_scan", "ios": "https://dc.lft.to/lastmile_qr_scan"}}, {"name": "53c8a48b73a508253abdc5392a0c8c5c", "is_disabled": 0, "fusion_lat": 0.0, "fusion_lon": 0.0, "type": "electric_scooter", "lat": 38.900923166666665, "bike_id": "53c8a48b73a508253abdc5392a0c8c5c", "is_reserved": 0, "lon": -76.97643566666666, "rental_uris": {"android": "https://dc.lft.to/lastmile_qr_scan", "ios": "https://dc.lft.to/lastmile_qr_scan"}}, {"name": "00538cf6c76e9d634b5bbce9e2ba0537", "is_disabled": 0, "fusion_lat": 0.0, "fusion_lon": 0.0, "type": "electric_scooter", "lat": 38.92401566666667, "bike_id": "00538cf6c76e9d634b5bbce9e2ba0537", "is_reserved": 0, "lon": -77.026952, "rental_uris": {"android": "https://dc.lft.to/lastmile_qr_scan", "ios": "https://dc.lft.to/lastmile_qr_scan"}}, {"name": "36ddbff8fee3df2885fbde4b8d700e16", "is_disabled": 0, "fusion_lat": 0.0, "fusion_lon": 0.0, "type": "electric_scooter", "lat": 38.895253333333336, "bike_id": "36ddbff8fee3df2885fbde4b8d700e16", "is_reserved": 0, "lon": -77.00340983333334, "rental_uris": {"android": "https://dc.lft.to/lastmile_qr_scan", "ios": "https://dc.lft.to/lastmile_qr_scan"}}, {"name": "583e77e6cad2458617ee08a6abd0737d", "is_disabled": 0, "fusion_lat": 0.0, "fusion_lon": 0.0, "type": "electric_scooter", "lat": 38.893444333333335, "bike_id": "583e77e6cad2458617ee08a6abd0737d", "is_reserved": 0, "lon": -77.01228, "rental_uris": {"android": "https://dc.lft.to/lastmile_qr_scan", "ios": "https://dc.lft.to/lastmile_qr_scan"}}, {"name": "f27085e412bc248e3aeddbc90a4cf0f8", "is_disabled": 0, "fusion_lat": 0.0, "fusion_lon": 0.0, "type": "electric_scooter", "lat": 38.899165333333336, "bike_id": "f27085e412bc248e3aeddbc90a4cf0f8", "is_reserved": 0, "lon": -76.93370316666666, "rental_uris": {"android": "https://dc.lft.to/lastmile_qr_scan", "ios": "https://dc.lft.to/lastmile_qr_scan"}}, {"name": "a93f81f5b47dd402c7ef75137ad98e6f", "is_disabled": 0, "fusion_lat": 0.0, "fusion_lon": 0.0, "type": "electric_scooter", "lat": 38.915699833333335, "bike_id": "a93f81f5b47dd402c7ef75137ad98e6f", "is_reserved": 0, "lon": -77.02385116666666, "rental_uris": {"android": "https://dc.lft.to/lastmile_qr_scan", "ios": "https://dc.lft.to/lastmile_qr_scan"}}, {"name": "4353b7a67a1688b82ce98d67f6479393", "is_disabled": 0, "fusion_lat": 0.0, "fusion_lon": 0.0, "type": "electric_scooter", "lat": 38.895245833333334, "bike_id": "4353b7a67a1688b82ce98d67f6479393", "is_reserved": 0, "lon": -77.003355, "rental_uris": {"android": "https://dc.lft.to/lastmile_qr_scan", "ios": "https://dc.lft.to/lastmile_qr_scan"}}, {"name": "8e828640c4cbb5f581230e3f42b27d67", "is_disabled": 0, "fusion_lat": 0.0, "fusion_lon": 0.0, "type": "electric_scooter", "lat": 38.909709, "bike_id": "8e828640c4cbb5f581230e3f42b27d67", "is_reserved": 0, "lon": -77.03588983333333, "rental_uris": {"android": "https://dc.lft.to/lastmile_qr_scan", "ios": "https://dc.lft.to/lastmile_qr_scan"}}, {"name": "b71371bbb26ffefad930d8190233ef4e", "is_disabled": 0, "fusion_lat": 0.0, "fusion_lon": 0.0, "type": "electric_scooter", "lat": 38.92872416666667, "bike_id": "b71371bbb26ffefad930d8190233ef4e", "is_reserved": 0, "lon": -77.01364866666667, "rental_uris": {"android": "https://dc.lft.to/lastmile_qr_scan", "ios": "https://dc.lft.to/lastmile_qr_scan"}}, {"name": "d7b39876c478737fc65fa7f272015add", "is_disabled": 0, "fusion_lat": 0.0, "fusion_lon": 0.0, "type": "electric_scooter", "lat": 38.904480166666666, "bike_id": "d7b39876c478737fc65fa7f272015add", "is_reserved": 0, "lon": -76.9800595, "rental_uris": {"android": "https://dc.lft.to/lastmile_qr_scan", "ios": "https://dc.lft.to/lastmile_qr_scan"}}, {"name": "f02fe94858cca5495d1cf6adcd283a33", "is_disabled": 0, "fusion_lat": 0.0, "fusion_lon": 0.0, "type": "electric_scooter", "lat": 38.900558833333335, "bike_id": "f02fe94858cca5495d1cf6adcd283a33", "is_reserved": 0, "lon": -77.04340766666667, "rental_uris": {"android": "https://dc.lft.to/lastmile_qr_scan", "ios": "https://dc.lft.to/lastmile_qr_scan"}}, {"name": "72acf4a4b99cdc1ba5d4e8a52b7cdc8d", "is_disabled": 0, "fusion_lat": 0.0, "fusion_lon": 0.0, "type": "electric_scooter", "lat": 38.9056595, "bike_id": "72acf4a4b99cdc1ba5d4e8a52b7cdc8d", "is_reserved": 0, "lon": -77.04338566666667, "rental_uris": {"android": "https://dc.lft.to/lastmile_qr_scan", "ios": "https://dc.lft.to/lastmile_qr_scan"}}, {"name": "1d15dcdeed03075fce83a153e042e980", "is_disabled": 0, "fusion_lat": 0.0, "fusion_lon": 0.0, "type": "electric_scooter", "lat": 38.910249666666665, "bike_id": "1d15dcdeed03075fce83a153e042e980", "is_reserved": 0, "lon": -77.03204716666667, "rental_uris": {"android": "https://dc.lft.to/lastmile_qr_scan", "ios": "https://dc.lft.to/lastmile_qr_scan"}}, {"name": "005a023e70a04913cad83f9bc22ff5d8", "is_disabled": 0, "fusion_lat": 0.0, "fusion_lon": 0.0, "type": "electric_bike", "lat": 38.968015, "bike_id": "005a023e70a04913cad83f9bc22ff5d8", "is_reserved": 0, "lon": -77.00041, "rental_uris": {"android": "https://dc.lft.to/lastmile_qr_scan", "ios": "https://dc.lft.to/lastmile_qr_scan"}}, {"name": "35b7a0612b9383e1c8eee2c30554b37a", "is_disabled": 0, "fusion_lat": 0.0, "fusion_lon": 0.0, "type": "electric_scooter", "lat": 38.89747333333333, "bike_id": "35b7a0612b9383e1c8eee2c30554b37a", "is_reserved": 0, "lon": -77.04944516666667, "rental_uris": {"android": "https://dc.lft.to/lastmile_qr_scan", "ios": "https://dc.lft.to/lastmile_qr_scan"}}, {"name": "3ca4732e4a3e2637682060401b4ddf46", "is_disabled": 0, "fusion_lat": 0.0, "fusion_lon": 0.0, "type": "electric_scooter", "lat": 38.89859633333333, "bike_id": "3ca4732e4a3e2637682060401b4ddf46", "is_reserved": 0, "lon": -77.02364833333333, "rental_uris": {"android": "https://dc.lft.to/lastmile_qr_scan", "ios": "https://dc.lft.to/lastmile_qr_scan"}}, {"name": "eb1baa425a262d0fdbace119fabe3531", "is_disabled": 0, "fusion_lat": 0.0, "fusion_lon": 0.0, "type": "electric_scooter", "lat": 38.9238765, "bike_id": "eb1baa425a262d0fdbace119fabe3531", "is_reserved": 0, "lon": -77.04072033333334, "rental_uris": {"android": "https://dc.lft.to/lastmile_qr_scan", "ios": "https://dc.lft.to/lastmile_qr_scan"}}, {"name": "698d58c603d4d8860046be5b6674f2d1", "is_disabled": 0, "fusion_lat": 0.0, "fusion_lon": 0.0, "type": "electric_scooter", "lat": 38.887251166666665, "bike_id": "698d58c603d4d8860046be5b6674f2d1", "is_reserved": 0, "lon": -77.02815783333334, "rental_uris": {"android": "https://dc.lft.to/lastmile_qr_scan", "ios": "https://dc.lft.to/lastmile_qr_scan"}}, {"name": "3b3749ea62542cecb7b615f0394a830c", "is_disabled": 0, "fusion_lat": 0.0, "fusion_lon": 0.0, "type": "electric_scooter", "lat": 38.90723116666667, "bike_id": "3b3749ea62542cecb7b615f0394a830c", "is_reserved": 0, "lon": -77.02888266666666, "rental_uris": {"android": "https://dc.lft.to/lastmile_qr_scan", "ios": "https://dc.lft.to/lastmile_qr_scan"}}, {"name": "4d34c84ba6b63a42ba84dd47fe35fe4a", "is_disabled": 0, "fusion_lat": 0.0, "fusion_lon": 0.0, "type": "electric_scooter", "lat": 38.904572333333334, "bike_id": "4d34c84ba6b63a42ba84dd47fe35fe4a", "is_reserved": 0, "lon": -77.0323455, "rental_uris": {"android": "https://dc.lft.to/lastmile_qr_scan", "ios": "https://dc.lft.to/lastmile_qr_scan"}}, {"name": "ac0c1c83351cf60f76ccfd717cc5a5cf", "is_disabled": 0, "fusion_lat": 0.0, "fusion_lon": 0.0, "type": "electric_scooter", "lat": 38.94311583333333, "bike_id": "ac0c1c83351cf60f76ccfd717cc5a5cf", "is_reserved": 0, "lon": -77.08832333333334, "rental_uris": {"android": "https://dc.lft.to/lastmile_qr_scan", "ios": "https://dc.lft.to/lastmile_qr_scan"}}, {"name": "3f761281a40f4c3a736563e9a448398a", "is_disabled": 0, "fusion_lat": 0.0, "fusion_lon": 0.0, "type": "electric_scooter", "lat": 38.8665905, "bike_id": "3f761281a40f4c3a736563e9a448398a", "is_reserved": 0, "lon": -76.9888045, "rental_uris": {"android": "https://dc.lft.to/lastmile_qr_scan", "ios": "https://dc.lft.to/lastmile_qr_scan"}}, {"name": "3801686ae376b8820fa687377104d357", "is_disabled": 0, "fusion_lat": 0.0, "fusion_lon": 0.0, "type": "electric_scooter", "lat": 38.927496, "bike_id": "3801686ae376b8820fa687377104d357", "is_reserved": 0, "lon": -77.03554866666667, "rental_uris": {"android": "https://dc.lft.to/lastmile_qr_scan", "ios": "https://dc.lft.to/lastmile_qr_scan"}}, {"name": "2a02dd64e5b19750050442bd325807ef", "is_disabled": 0, "fusion_lat": 0.0, "fusion_lon": 0.0, "type": "electric_bike", "lat": 39.052783, "bike_id": "2a02dd64e5b19750050442bd325807ef", "is_reserved": 0, "lon": -77.080721, "rental_uris": {"android": "https://dc.lft.to/lastmile_qr_scan", "ios": "https://dc.lft.to/lastmile_qr_scan"}}, {"name": "b1d5bc832bc033796ac80dc930c89560", "is_disabled": 0, "fusion_lat": 0.0, "fusion_lon": 0.0, "type": "electric_scooter", "lat": 38.86998083333334, "bike_id": "b1d5bc832bc033796ac80dc930c89560", "is_reserved": 0, "lon": -76.9758785, "rental_uris": {"android": "https://dc.lft.to/lastmile_qr_scan", "ios": "https://dc.lft.to/lastmile_qr_scan"}}, {"name": "934f1e87ed82f4cdc2fa6a3db6a23270", "is_disabled": 0, "fusion_lat": 0.0, "fusion_lon": 0.0, "type": "electric_scooter", "lat": 38.9149, "bike_id": "934f1e87ed82f4cdc2fa6a3db6a23270", "is_reserved": 0, "lon": -77.0147105, "rental_uris": {"android": "https://dc.lft.to/lastmile_qr_scan", "ios": "https://dc.lft.to/lastmile_qr_scan"}}, {"name": "27048e15b519aa96d41b301a118a7e3f", "is_disabled": 0, "fusion_lat": 0.0, "fusion_lon": 0.0, "type": "electric_scooter", "lat": 38.93672683333333, "bike_id": "27048e15b519aa96d41b301a118a7e3f", "is_reserved": 0, "lon": -77.03592966666666, "rental_uris": {"android": "https://dc.lft.to/lastmile_qr_scan", "ios": "https://dc.lft.to/lastmile_qr_scan"}}, {"name": "07bc8fd16af307b6dca3908e962cc918", "is_disabled": 0, "fusion_lat": 0.0, "fusion_lon": 0.0, "type": "electric_scooter", "lat": 38.923178, "bike_id": "07bc8fd16af307b6dca3908e962cc918", "is_reserved": 0, "lon": -77.05124116666667, "rental_uris": {"android": "https://dc.lft.to/lastmile_qr_scan", "ios": "https://dc.lft.to/lastmile_qr_scan"}}, {"name": "5e6a9ee77b85a4b999d71956c4ec6cbd", "is_disabled": 0, "fusion_lat": 0.0, "fusion_lon": 0.0, "type": "electric_scooter", "lat": 38.9035095, "bike_id": "5e6a9ee77b85a4b999d71956c4ec6cbd", "is_reserved": 0, "lon": -77.03926633333333, "rental_uris": {"android": "https://dc.lft.to/lastmile_qr_scan", "ios": "https://dc.lft.to/lastmile_qr_scan"}}, {"name": "41477f1b03c89e52c0f9396cb1dd3a9e", "is_disabled": 0, "fusion_lat": 0.0, "fusion_lon": 0.0, "type": "electric_scooter", "lat": 38.90844516666667, "bike_id": "41477f1b03c89e52c0f9396cb1dd3a9e", "is_reserved": 0, "lon": -77.03314, "rental_uris": {"android": "https://dc.lft.to/lastmile_qr_scan", "ios": "https://dc.lft.to/lastmile_qr_scan"}}, {"name": "0bcb4e251ef68bab1a89b75018169e4d", "is_disabled": 0, "fusion_lat": 0.0, "fusion_lon": 0.0, "type": "electric_scooter", "lat": 38.89545366666667, "bike_id": "0bcb4e251ef68bab1a89b75018169e4d", "is_reserved": 0, "lon": -77.05660483333334, "rental_uris": {"android": "https://dc.lft.to/lastmile_qr_scan", "ios": "https://dc.lft.to/lastmile_qr_scan"}}, {"name": "33596ffcc74fa0d41f8f54393c5c9545", "is_disabled": 0, "fusion_lat": 0.0, "fusion_lon": 0.0, "type": "electric_scooter", "lat": 38.9111135, "bike_id": "33596ffcc74fa0d41f8f54393c5c9545", "is_reserved": 0, "lon": -77.02104933333334, "rental_uris": {"android": "https://dc.lft.to/lastmile_qr_scan", "ios": "https://dc.lft.to/lastmile_qr_scan"}}, {"name": "c3f32524f65aefec06b32135d735325d", "is_disabled": 0, "fusion_lat": 0.0, "fusion_lon": 0.0, "type": "electric_bike", "lat": 38.90839716666667, "bike_id": "c3f32524f65aefec06b32135d735325d", "is_reserved": 0, "lon": -77.04027333333333, "rental_uris": {"android": "https://dc.lft.to/lastmile_qr_scan", "ios": "https://dc.lft.to/lastmile_qr_scan"}}, {"name": "b23612b732e01ebe0689cf169f877f0c", "is_disabled": 0, "fusion_lat": 0.0, "fusion_lon": 0.0, "type": "electric_scooter", "lat": 38.905263, "bike_id": "b23612b732e01ebe0689cf169f877f0c", "is_reserved": 0, "lon": -77.04203433333333, "rental_uris": {"android": "https://dc.lft.to/lastmile_qr_scan", "ios": "https://dc.lft.to/lastmile_qr_scan"}}, {"name": "21217408305f7245522fd7c17c73c8e9", "is_disabled": 0, "fusion_lat": 0.0, "fusion_lon": 0.0, "type": "electric_scooter", "lat": 38.90828483333333, "bike_id": "21217408305f7245522fd7c17c73c8e9", "is_reserved": 0, "lon": -77.0741355, "rental_uris": {"android": "https://dc.lft.to/lastmile_qr_scan", "ios": "https://dc.lft.to/lastmile_qr_scan"}}, {"name": "0ce812b3f715078e69d231084c42427c", "is_disabled": 0, "fusion_lat": 0.0, "fusion_lon": 0.0, "type": "electric_scooter", "lat": 38.95075166666667, "bike_id": "0ce812b3f715078e69d231084c42427c", "is_reserved": 0, "lon": -76.9956675, "rental_uris": {"android": "https://dc.lft.to/lastmile_qr_scan", "ios": "https://dc.lft.to/lastmile_qr_scan"}}, {"name": "f2fb6bd0a28583a578a26bbe2ebd2270", "is_disabled": 0, "fusion_lat": 0.0, "fusion_lon": 0.0, "type": "electric_scooter", "lat": 38.90393683333333, "bike_id": "f2fb6bd0a28583a578a26bbe2ebd2270", "is_reserved": 0, "lon": -77.0434185, "rental_uris": {"android": "https://dc.lft.to/lastmile_qr_scan", "ios": "https://dc.lft.to/lastmile_qr_scan"}}, {"name": "cabba2b5e07c9719259f64b5986a609b", "is_disabled": 0, "fusion_lat": 0.0, "fusion_lon": 0.0, "type": "electric_bike", "lat": 38.929638, "bike_id": "cabba2b5e07c9719259f64b5986a609b", "is_reserved": 0, "lon": -77.22577916666667, "rental_uris": {"android": "https://dc.lft.to/lastmile_qr_scan", "ios": "https://dc.lft.to/lastmile_qr_scan"}}, {"name": "42003c992ecc7989c388c3d42731026b", "is_disabled": 0, "fusion_lat": 0.0, "fusion_lon": 0.0, "type": "electric_scooter", "lat": 38.90042166666667, "bike_id": "42003c992ecc7989c388c3d42731026b", "is_reserved": 0, "lon": -77.024009, "rental_uris": {"android": "https://dc.lft.to/lastmile_qr_scan", "ios": "https://dc.lft.to/lastmile_qr_scan"}}, {"name": "b669e772432eb444401d87c8ba3809be", "is_disabled": 0, "fusion_lat": 0.0, "fusion_lon": 0.0, "type": "electric_scooter", "lat": 38.95924883333333, "bike_id": "b669e772432eb444401d87c8ba3809be", "is_reserved": 0, "lon": -77.03131333333333, "rental_uris": {"android": "https://dc.lft.to/lastmile_qr_scan", "ios": "https://dc.lft.to/lastmile_qr_scan"}}, {"name": "1efdf0e01c1571c0e976d0f023d8ee39", "is_disabled": 0, "fusion_lat": 0.0, "fusion_lon": 0.0, "type": "electric_scooter", "lat": 38.942929, "bike_id": "1efdf0e01c1571c0e976d0f023d8ee39", "is_reserved": 0, "lon": -77.02172783333333, "rental_uris": {"android": "https://dc.lft.to/lastmile_qr_scan", "ios": "https://dc.lft.to/lastmile_qr_scan"}}, {"name": "316ec83f491bd42464a74f9faec6b02f", "is_disabled": 0, "fusion_lat": 0.0, "fusion_lon": 0.0, "type": "electric_scooter", "lat": 38.888229, "bike_id": "316ec83f491bd42464a74f9faec6b02f", "is_reserved": 0, "lon": -76.95100966666666, "rental_uris": {"android": "https://dc.lft.to/lastmile_qr_scan", "ios": "https://dc.lft.to/lastmile_qr_scan"}}, {"name": "4415c6a1fc8319573c0df4265295b235", "is_disabled": 0, "fusion_lat": 0.0, "fusion_lon": 0.0, "type": "electric_scooter", "lat": 38.9077645, "bike_id": "4415c6a1fc8319573c0df4265295b235", "is_reserved": 0, "lon": -77.0381365, "rental_uris": {"android": "https://dc.lft.to/lastmile_qr_scan", "ios": "https://dc.lft.to/lastmile_qr_scan"}}, {"name": "415dba3246c1728da01f6c45de9f024d", "is_disabled": 0, "fusion_lat": 0.0, "fusion_lon": 0.0, "type": "electric_scooter", "lat": 38.909363, "bike_id": "415dba3246c1728da01f6c45de9f024d", "is_reserved": 0, "lon": -77.030674, "rental_uris": {"android": "https://dc.lft.to/lastmile_qr_scan", "ios": "https://dc.lft.to/lastmile_qr_scan"}}, {"name": "1d7c1e133c774d2bbab407ba91b934c7", "is_disabled": 0, "fusion_lat": 0.0, "fusion_lon": 0.0, "type": "electric_scooter", "lat": 38.8930225, "bike_id": "1d7c1e133c774d2bbab407ba91b934c7", "is_reserved": 0, "lon": -76.992719, "rental_uris": {"android": "https://dc.lft.to/lastmile_qr_scan", "ios": "https://dc.lft.to/lastmile_qr_scan"}}, {"name": "3bd5a7662bc079d0e508903ca4582088", "is_disabled": 0, "fusion_lat": 0.0, "fusion_lon": 0.0, "type": "electric_bike", "lat": 38.90601516666667, "bike_id": "3bd5a7662bc079d0e508903ca4582088", "is_reserved": 0, "lon": -77.06293783333334, "rental_uris": {"android": "https://dc.lft.to/lastmile_qr_scan", "ios": "https://dc.lft.to/lastmile_qr_scan"}}, {"name": "bfc3dcc355551429c93da02734067569", "is_disabled": 0, "fusion_lat": 0.0, "fusion_lon": 0.0, "type": "electric_scooter", "lat": 38.87980983333333, "bike_id": "bfc3dcc355551429c93da02734067569", "is_reserved": 0, "lon": -77.02422533333333, "rental_uris": {"android": "https://dc.lft.to/lastmile_qr_scan", "ios": "https://dc.lft.to/lastmile_qr_scan"}}, {"name": "fc8410e05d188806b72237d3e8bbd14c", "is_disabled": 0, "fusion_lat": 0.0, "fusion_lon": 0.0, "type": "electric_scooter", "lat": 38.917053333333335, "bike_id": "fc8410e05d188806b72237d3e8bbd14c", "is_reserved": 0, "lon": -77.00960016666667, "rental_uris": {"android": "https://dc.lft.to/lastmile_qr_scan", "ios": "https://dc.lft.to/lastmile_qr_scan"}}, {"name": "73ffcbbf02ea877da2e6ce6266744714", "is_disabled": 0, "fusion_lat": 0.0, "fusion_lon": 0.0, "type": "electric_scooter", "lat": 38.92897166666667, "bike_id": "73ffcbbf02ea877da2e6ce6266744714", "is_reserved": 0, "lon": -77.01638383333334, "rental_uris": {"android": "https://dc.lft.to/lastmile_qr_scan", "ios": "https://dc.lft.to/lastmile_qr_scan"}}, {"name": "c7c4acec2fdfd1b7a4c1c0eb4281d1e6", "is_disabled": 0, "fusion_lat": 0.0, "fusion_lon": 0.0, "type": "electric_scooter", "lat": 38.880523833333335, "bike_id": "c7c4acec2fdfd1b7a4c1c0eb4281d1e6", "is_reserved": 0, "lon": -76.93217183333333, "rental_uris": {"android": "https://dc.lft.to/lastmile_qr_scan", "ios": "https://dc.lft.to/lastmile_qr_scan"}}, {"name": "3f5f0545c904183596d111a9e839db3f", "is_disabled": 0, "fusion_lat": 0.0, "fusion_lon": 0.0, "type": "electric_scooter", "lat": 38.909584833333334, "bike_id": "3f5f0545c904183596d111a9e839db3f", "is_reserved": 0, "lon": -77.03569233333333, "rental_uris": {"android": "https://dc.lft.to/lastmile_qr_scan", "ios": "https://dc.lft.to/lastmile_qr_scan"}}, {"name": "2e8bca70e5f643f210f8ad847f8c77b5", "is_disabled": 0, "fusion_lat": 0.0, "fusion_lon": 0.0, "type": "electric_scooter", "lat": 38.8982235, "bike_id": "2e8bca70e5f643f210f8ad847f8c77b5", "is_reserved": 0, "lon": -77.0160395, "rental_uris": {"android": "https://dc.lft.to/lastmile_qr_scan", "ios": "https://dc.lft.to/lastmile_qr_scan"}}, {"name": "981e7788951dc39b7b067fac9504e1ee", "is_disabled": 0, "fusion_lat": 0.0, "fusion_lon": 0.0, "type": "electric_scooter", "lat": 38.89221366666666, "bike_id": "981e7788951dc39b7b067fac9504e1ee", "is_reserved": 0, "lon": -77.02228866666667, "rental_uris": {"android": "https://dc.lft.to/lastmile_qr_scan", "ios": "https://dc.lft.to/lastmile_qr_scan"}}, {"name": "33f79c90a85b2f1f412be1711b2b92fe", "is_disabled": 0, "fusion_lat": 0.0, "fusion_lon": 0.0, "type": "electric_scooter", "lat": 38.90358333333333, "bike_id": "33f79c90a85b2f1f412be1711b2b92fe", "is_reserved": 0, "lon": -77.04553866666667, "rental_uris": {"android": "https://dc.lft.to/lastmile_qr_scan", "ios": "https://dc.lft.to/lastmile_qr_scan"}}, {"name": "6543cb1d7d9d740a9af5185a9627455c", "is_disabled": 0, "fusion_lat": 0.0, "fusion_lon": 0.0, "type": "electric_scooter", "lat": 38.90855066666666, "bike_id": "6543cb1d7d9d740a9af5185a9627455c", "is_reserved": 0, "lon": -77.04307516666667, "rental_uris": {"android": "https://dc.lft.to/lastmile_qr_scan", "ios": "https://dc.lft.to/lastmile_qr_scan"}}, {"name": "ce481127cf2205470043f3da4fb2e31a", "is_disabled": 0, "fusion_lat": 0.0, "fusion_lon": 0.0, "type": "electric_scooter", "lat": 38.924607, "bike_id": "ce481127cf2205470043f3da4fb2e31a", "is_reserved": 0, "lon": -77.03997933333333, "rental_uris": {"android": "https://dc.lft.to/lastmile_qr_scan", "ios": "https://dc.lft.to/lastmile_qr_scan"}}, {"name": "697c4ac254e3cae17497506383fea757", "is_disabled": 0, "fusion_lat": 0.0, "fusion_lon": 0.0, "type": "electric_scooter", "lat": 38.87636583333333, "bike_id": "697c4ac254e3cae17497506383fea757", "is_reserved": 0, "lon": -77.00040883333334, "rental_uris": {"android": "https://dc.lft.to/lastmile_qr_scan", "ios": "https://dc.lft.to/lastmile_qr_scan"}}, {"name": "4e68345a499db8e71dae5ba87d30ffeb", "is_disabled": 0, "fusion_lat": 0.0, "fusion_lon": 0.0, "type": "electric_scooter", "lat": 38.8922505, "bike_id": "4e68345a499db8e71dae5ba87d30ffeb", "is_reserved": 0, "lon": -77.03198533333334, "rental_uris": {"android": "https://dc.lft.to/lastmile_qr_scan", "ios": "https://dc.lft.to/lastmile_qr_scan"}}, {"name": "c8c7f623d13ffe488a078ff6bce39acf", "is_disabled": 0, "fusion_lat": 0.0, "fusion_lon": 0.0, "type": "electric_scooter", "lat": 38.9041025, "bike_id": "c8c7f623d13ffe488a078ff6bce39acf", "is_reserved": 0, "lon": -77.04347816666667, "rental_uris": {"android": "https://dc.lft.to/lastmile_qr_scan", "ios": "https://dc.lft.to/lastmile_qr_scan"}}, {"name": "475fbdaa2ef390911addd44a86f7f4cd", "is_disabled": 0, "fusion_lat": 0.0, "fusion_lon": 0.0, "type": "electric_scooter", "lat": 38.911050833333334, "bike_id": "475fbdaa2ef390911addd44a86f7f4cd", "is_reserved": 0, "lon": -77.00211833333333, "rental_uris": {"android": "https://dc.lft.to/lastmile_qr_scan", "ios": "https://dc.lft.to/lastmile_qr_scan"}}, {"name": "7b48b43d6e90e084f9ee7abe49e53d8b", "is_disabled": 0, "fusion_lat": 0.0, "fusion_lon": 0.0, "type": "electric_scooter", "lat": 38.909854833333334, "bike_id": "7b48b43d6e90e084f9ee7abe49e53d8b", "is_reserved": 0, "lon": -77.03226116666667, "rental_uris": {"android": "https://dc.lft.to/lastmile_qr_scan", "ios": "https://dc.lft.to/lastmile_qr_scan"}}, {"name": "38e4cca7950503cb61c05bfcfe15a052", "is_disabled": 0, "fusion_lat": 0.0, "fusion_lon": 0.0, "type": "electric_scooter", "lat": 38.9000965, "bike_id": "38e4cca7950503cb61c05bfcfe15a052", "is_reserved": 0, "lon": -77.04135733333334, "rental_uris": {"android": "https://dc.lft.to/lastmile_qr_scan", "ios": "https://dc.lft.to/lastmile_qr_scan"}}, {"name": "13d611be0e79f35f461e715c62041879", "is_disabled": 0, "fusion_lat": 0.0, "fusion_lon": 0.0, "type": "electric_scooter", "lat": 38.885000166666664, "bike_id": "13d611be0e79f35f461e715c62041879", "is_reserved": 0, "lon": -77.01994866666666, "rental_uris": {"android": "https://dc.lft.to/lastmile_qr_scan", "ios": "https://dc.lft.to/lastmile_qr_scan"}}, {"name": "4773fe28323c90e51b43f016ec4ff65a", "is_disabled": 0, "fusion_lat": 0.0, "fusion_lon": 0.0, "type": "electric_scooter", "lat": 38.9176245, "bike_id": "4773fe28323c90e51b43f016ec4ff65a", "is_reserved": 0, "lon": -77.0121235, "rental_uris": {"android": "https://dc.lft.to/lastmile_qr_scan", "ios": "https://dc.lft.to/lastmile_qr_scan"}}, {"name": "bcb31c6bd8011a1507c08f8d970067ac", "is_disabled": 0, "fusion_lat": 0.0, "fusion_lon": 0.0, "type": "electric_scooter", "lat": 38.894741833333335, "bike_id": "bcb31c6bd8011a1507c08f8d970067ac", "is_reserved": 0, "lon": -77.00140583333334, "rental_uris": {"android": "https://dc.lft.to/lastmile_qr_scan", "ios": "https://dc.lft.to/lastmile_qr_scan"}}, {"name": "58a3e7b6a57648c7446e7e76c625149c", "is_disabled": 0, "fusion_lat": 0.0, "fusion_lon": 0.0, "type": "electric_scooter", "lat": 38.92545333333333, "bike_id": "58a3e7b6a57648c7446e7e76c625149c", "is_reserved": 0, "lon": -77.040455, "rental_uris": {"android": "https://dc.lft.to/lastmile_qr_scan", "ios": "https://dc.lft.to/lastmile_qr_scan"}}, {"name": "306a142a21d95b6e20ce76e87c64c3c0", "is_disabled": 0, "fusion_lat": 0.0, "fusion_lon": 0.0, "type": "electric_scooter", "lat": 38.94205983333333, "bike_id": "306a142a21d95b6e20ce76e87c64c3c0", "is_reserved": 0, "lon": -77.02512916666667, "rental_uris": {"android": "https://dc.lft.to/lastmile_qr_scan", "ios": "https://dc.lft.to/lastmile_qr_scan"}}, {"name": "0f00512f2fd89378461cae82d0a6c0db", "is_disabled": 0, "fusion_lat": 0.0, "fusion_lon": 0.0, "type": "electric_scooter", "lat": 38.86634566666667, "bike_id": "0f00512f2fd89378461cae82d0a6c0db", "is_reserved": 0, "lon": -76.98267, "rental_uris": {"android": "https://dc.lft.to/lastmile_qr_scan", "ios": "https://dc.lft.to/lastmile_qr_scan"}}, {"name": "a682d079a3a39bcd984a4142d5112e38", "is_disabled": 0, "fusion_lat": 0.0, "fusion_lon": 0.0, "type": "electric_scooter", "lat": 38.90117733333334, "bike_id": "a682d079a3a39bcd984a4142d5112e38", "is_reserved": 0, "lon": -77.04028016666666, "rental_uris": {"android": "https://dc.lft.to/lastmile_qr_scan", "ios": "https://dc.lft.to/lastmile_qr_scan"}}, {"name": "8e69f771cd91c4e87748371c83aa2329", "is_disabled": 0, "fusion_lat": 0.0, "fusion_lon": 0.0, "type": "electric_scooter", "lat": 38.90374083333333, "bike_id": "8e69f771cd91c4e87748371c83aa2329", "is_reserved": 0, "lon": -77.034531, "rental_uris": {"android": "https://dc.lft.to/lastmile_qr_scan", "ios": "https://dc.lft.to/lastmile_qr_scan"}}, {"name": "1839c1d623d8aa06c309ee41875f3708", "is_disabled": 0, "fusion_lat": 0.0, "fusion_lon": 0.0, "type": "electric_scooter", "lat": 38.902091166666665, "bike_id": "1839c1d623d8aa06c309ee41875f3708", "is_reserved": 0, "lon": -77.0512405, "rental_uris": {"android": "https://dc.lft.to/lastmile_qr_scan", "ios": "https://dc.lft.to/lastmile_qr_scan"}}, {"name": "edd85499ad881d2fbac879d508daaad9", "is_disabled": 0, "fusion_lat": 0.0, "fusion_lon": 0.0, "type": "electric_scooter", "lat": 38.91380783333334, "bike_id": "edd85499ad881d2fbac879d508daaad9", "is_reserved": 0, "lon": -77.0414205, "rental_uris": {"android": "https://dc.lft.to/lastmile_qr_scan", "ios": "https://dc.lft.to/lastmile_qr_scan"}}, {"name": "598803c2b9b5cab94cc7e395766cfcb0", "is_disabled": 0, "fusion_lat": 0.0, "fusion_lon": 0.0, "type": "electric_scooter", "lat": 38.916935, "bike_id": "598803c2b9b5cab94cc7e395766cfcb0", "is_reserved": 0, "lon": -77.02598716666667, "rental_uris": {"android": "https://dc.lft.to/lastmile_qr_scan", "ios": "https://dc.lft.to/lastmile_qr_scan"}}, {"name": "a18348749270b0623b23806e776a2758", "is_disabled": 0, "fusion_lat": 0.0, "fusion_lon": 0.0, "type": "electric_scooter", "lat": 38.92721066666667, "bike_id": "a18348749270b0623b23806e776a2758", "is_reserved": 0, "lon": -77.0399215, "rental_uris": {"android": "https://dc.lft.to/lastmile_qr_scan", "ios": "https://dc.lft.to/lastmile_qr_scan"}}, {"name": "eaf6e1df569463ae3e71a46fc3595354", "is_disabled": 0, "fusion_lat": 0.0, "fusion_lon": 0.0, "type": "electric_scooter", "lat": 38.90041166666666, "bike_id": "eaf6e1df569463ae3e71a46fc3595354", "is_reserved": 0, "lon": -77.00738866666667, "rental_uris": {"android": "https://dc.lft.to/lastmile_qr_scan", "ios": "https://dc.lft.to/lastmile_qr_scan"}}, {"name": "1d8a283a57e889b0349eb412be4d897d", "is_disabled": 0, "fusion_lat": 0.0, "fusion_lon": 0.0, "type": "electric_scooter", "lat": 38.908266, "bike_id": "1d8a283a57e889b0349eb412be4d897d", "is_reserved": 0, "lon": -76.94158416666667, "rental_uris": {"android": "https://dc.lft.to/lastmile_qr_scan", "ios": "https://dc.lft.to/lastmile_qr_scan"}}, {"name": "31b650bbcd197c686e8c2ee4dad9211a", "is_disabled": 0, "fusion_lat": 0.0, "fusion_lon": 0.0, "type": "electric_scooter", "lat": 38.91792383333333, "bike_id": "31b650bbcd197c686e8c2ee4dad9211a", "is_reserved": 0, "lon": -77.03225933333333, "rental_uris": {"android": "https://dc.lft.to/lastmile_qr_scan", "ios": "https://dc.lft.to/lastmile_qr_scan"}}, {"name": "c6c33ed89ae16efd4cc061bec8dd6c5f", "is_disabled": 0, "fusion_lat": 0.0, "fusion_lon": 0.0, "type": "electric_scooter", "lat": 38.9063525, "bike_id": "c6c33ed89ae16efd4cc061bec8dd6c5f", "is_reserved": 0, "lon": -77.06879433333333, "rental_uris": {"android": "https://dc.lft.to/lastmile_qr_scan", "ios": "https://dc.lft.to/lastmile_qr_scan"}}, {"name": "50743902c20d15b705241fa62f0020e4", "is_disabled": 0, "fusion_lat": 0.0, "fusion_lon": 0.0, "type": "electric_scooter", "lat": 38.895504833333334, "bike_id": "50743902c20d15b705241fa62f0020e4", "is_reserved": 0, "lon": -76.94886883333334, "rental_uris": {"android": "https://dc.lft.to/lastmile_qr_scan", "ios": "https://dc.lft.to/lastmile_qr_scan"}}, {"name": "f4e93e3e29ac33f11ab0c66785f1ba01", "is_disabled": 0, "fusion_lat": 0.0, "fusion_lon": 0.0, "type": "electric_bike", "lat": 38.87280283333333, "bike_id": "f4e93e3e29ac33f11ab0c66785f1ba01", "is_reserved": 0, "lon": -77.23331333333333, "rental_uris": {"android": "https://dc.lft.to/lastmile_qr_scan", "ios": "https://dc.lft.to/lastmile_qr_scan"}}, {"name": "5ea4510af2a8c51d36f8e9d2c7c00691", "is_disabled": 0, "fusion_lat": 0.0, "fusion_lon": 0.0, "type": "electric_scooter", "lat": 38.901652, "bike_id": "5ea4510af2a8c51d36f8e9d2c7c00691", "is_reserved": 0, "lon": -77.060039, "rental_uris": {"android": "https://dc.lft.to/lastmile_qr_scan", "ios": "https://dc.lft.to/lastmile_qr_scan"}}, {"name": "64c66959a6e6e35da579e99551a633c1", "is_disabled": 0, "fusion_lat": 0.0, "fusion_lon": 0.0, "type": "electric_scooter", "lat": 38.92334266666667, "bike_id": "64c66959a6e6e35da579e99551a633c1", "is_reserved": 0, "lon": -77.04185766666667, "rental_uris": {"android": "https://dc.lft.to/lastmile_qr_scan", "ios": "https://dc.lft.to/lastmile_qr_scan"}}, {"name": "42870273981d273fe7bfe7d2c540bf3a", "is_disabled": 0, "fusion_lat": 0.0, "fusion_lon": 0.0, "type": "electric_scooter", "lat": 38.907793, "bike_id": "42870273981d273fe7bfe7d2c540bf3a", "is_reserved": 0, "lon": -77.072473, "rental_uris": {"android": "https://dc.lft.to/lastmile_qr_scan", "ios": "https://dc.lft.to/lastmile_qr_scan"}}, {"name": "973eb1763be0b142dfeba9db548b2838", "is_disabled": 0, "fusion_lat": 0.0, "fusion_lon": 0.0, "type": "electric_scooter", "lat": 38.905574, "bike_id": "973eb1763be0b142dfeba9db548b2838", "is_reserved": 0, "lon": -77.00280966666666, "rental_uris": {"android": "https://dc.lft.to/lastmile_qr_scan", "ios": "https://dc.lft.to/lastmile_qr_scan"}}, {"name": "67446a8203c9bf0e8be9d4ad8ff0b234", "is_disabled": 0, "fusion_lat": 0.0, "fusion_lon": 0.0, "type": "electric_scooter", "lat": 38.86055916666667, "bike_id": "67446a8203c9bf0e8be9d4ad8ff0b234", "is_reserved": 0, "lon": -76.985063, "rental_uris": {"android": "https://dc.lft.to/lastmile_qr_scan", "ios": "https://dc.lft.to/lastmile_qr_scan"}}, {"name": "873d13180b1e46337334d9312d988a1c", "is_disabled": 0, "fusion_lat": 0.0, "fusion_lon": 0.0, "type": "electric_scooter", "lat": 38.89614533333334, "bike_id": "873d13180b1e46337334d9312d988a1c", "is_reserved": 0, "lon": -77.01116383333333, "rental_uris": {"android": "https://dc.lft.to/lastmile_qr_scan", "ios": "https://dc.lft.to/lastmile_qr_scan"}}, {"name": "7de4aab05c207fe6b7bd45a933dad7f1", "is_disabled": 0, "fusion_lat": 0.0, "fusion_lon": 0.0, "type": "electric_scooter", "lat": 38.92461483333334, "bike_id": "7de4aab05c207fe6b7bd45a933dad7f1", "is_reserved": 0, "lon": -77.0404395, "rental_uris": {"android": "https://dc.lft.to/lastmile_qr_scan", "ios": "https://dc.lft.to/lastmile_qr_scan"}}, {"name": "3c277d324cec43117dffa4f57b247e95", "is_disabled": 0, "fusion_lat": 0.0, "fusion_lon": 0.0, "type": "electric_scooter", "lat": 38.90005716666667, "bike_id": "3c277d324cec43117dffa4f57b247e95", "is_reserved": 0, "lon": -76.99628383333334, "rental_uris": {"android": "https://dc.lft.to/lastmile_qr_scan", "ios": "https://dc.lft.to/lastmile_qr_scan"}}, {"name": "5b3135125bf19fed0cbf2d06cddfb774", "is_disabled": 0, "fusion_lat": 0.0, "fusion_lon": 0.0, "type": "electric_scooter", "lat": 38.89608116666667, "bike_id": "5b3135125bf19fed0cbf2d06cddfb774", "is_reserved": 0, "lon": -76.99970566666667, "rental_uris": {"android": "https://dc.lft.to/lastmile_qr_scan", "ios": "https://dc.lft.to/lastmile_qr_scan"}}, {"name": "37aabb3b4011dda204e92838351d55bd", "is_disabled": 0, "fusion_lat": 0.0, "fusion_lon": 0.0, "type": "electric_scooter", "lat": 38.89870883333333, "bike_id": "37aabb3b4011dda204e92838351d55bd", "is_reserved": 0, "lon": -77.03274466666667, "rental_uris": {"android": "https://dc.lft.to/lastmile_qr_scan", "ios": "https://dc.lft.to/lastmile_qr_scan"}}, {"name": "876d1e9ec1ee3f0839ef04fec50ba74a", "is_disabled": 0, "fusion_lat": 0.0, "fusion_lon": 0.0, "type": "electric_scooter", "lat": 38.907333666666666, "bike_id": "876d1e9ec1ee3f0839ef04fec50ba74a", "is_reserved": 0, "lon": -76.98693383333334, "rental_uris": {"android": "https://dc.lft.to/lastmile_qr_scan", "ios": "https://dc.lft.to/lastmile_qr_scan"}}, {"name": "862e57fa125ba0bbcf6347833a1fbc12", "is_disabled": 0, "fusion_lat": 0.0, "fusion_lon": 0.0, "type": "electric_scooter", "lat": 38.90369183333333, "bike_id": "862e57fa125ba0bbcf6347833a1fbc12", "is_reserved": 0, "lon": -76.99710783333333, "rental_uris": {"android": "https://dc.lft.to/lastmile_qr_scan", "ios": "https://dc.lft.to/lastmile_qr_scan"}}, {"name": "7a7b32ffbd9290e9718a4f0a5cd723a0", "is_disabled": 0, "fusion_lat": 0.0, "fusion_lon": 0.0, "type": "electric_scooter", "lat": 38.92112133333333, "bike_id": "7a7b32ffbd9290e9718a4f0a5cd723a0", "is_reserved": 0, "lon": -77.03920683333334, "rental_uris": {"android": "https://dc.lft.to/lastmile_qr_scan", "ios": "https://dc.lft.to/lastmile_qr_scan"}}, {"name": "d427470673ad12e2ff41ea3c7c202109", "is_disabled": 0, "fusion_lat": 0.0, "fusion_lon": 0.0, "type": "electric_bike", "lat": 39.043079666666664, "bike_id": "d427470673ad12e2ff41ea3c7c202109", "is_reserved": 0, "lon": -77.05158783333333, "rental_uris": {"android": "https://dc.lft.to/lastmile_qr_scan", "ios": "https://dc.lft.to/lastmile_qr_scan"}}, {"name": "20e6e370995a3f39a06d8637a9a7ca14", "is_disabled": 0, "fusion_lat": 0.0, "fusion_lon": 0.0, "type": "electric_scooter", "lat": 38.922164, "bike_id": "20e6e370995a3f39a06d8637a9a7ca14", "is_reserved": 0, "lon": -77.03655383333333, "rental_uris": {"android": "https://dc.lft.to/lastmile_qr_scan", "ios": "https://dc.lft.to/lastmile_qr_scan"}}, {"name": "89aa222b60286ebb6f2c27426b15c46f", "is_disabled": 0, "fusion_lat": 0.0, "fusion_lon": 0.0, "type": "electric_scooter", "lat": 38.921574166666666, "bike_id": "89aa222b60286ebb6f2c27426b15c46f", "is_reserved": 0, "lon": -77.03474866666667, "rental_uris": {"android": "https://dc.lft.to/lastmile_qr_scan", "ios": "https://dc.lft.to/lastmile_qr_scan"}}, {"name": "86198fdd87be8c07b0fc13c075d06996", "is_disabled": 0, "fusion_lat": 0.0, "fusion_lon": 0.0, "type": "electric_scooter", "lat": 38.911927666666664, "bike_id": "86198fdd87be8c07b0fc13c075d06996", "is_reserved": 0, "lon": -77.00507783333333, "rental_uris": {"android": "https://dc.lft.to/lastmile_qr_scan", "ios": "https://dc.lft.to/lastmile_qr_scan"}}, {"name": "af92a558569f806558a29340bea6fa6f", "is_disabled": 0, "fusion_lat": 0.0, "fusion_lon": 0.0, "type": "electric_scooter", "lat": 38.9153555, "bike_id": "af92a558569f806558a29340bea6fa6f", "is_reserved": 0, "lon": -76.97019666666667, "rental_uris": {"android": "https://dc.lft.to/lastmile_qr_scan", "ios": "https://dc.lft.to/lastmile_qr_scan"}}, {"name": "e24cf5f648fac0959a93990a38fc0926", "is_disabled": 0, "fusion_lat": 0.0, "fusion_lon": 0.0, "type": "electric_scooter", "lat": 38.917046, "bike_id": "e24cf5f648fac0959a93990a38fc0926", "is_reserved": 0, "lon": -77.02889783333333, "rental_uris": {"android": "https://dc.lft.to/lastmile_qr_scan", "ios": "https://dc.lft.to/lastmile_qr_scan"}}, {"name": "e16d2c5f6062f56d59c343c2fe303c04", "is_disabled": 0, "fusion_lat": 0.0, "fusion_lon": 0.0, "type": "electric_scooter", "lat": 38.8836735, "bike_id": "e16d2c5f6062f56d59c343c2fe303c04", "is_reserved": 0, "lon": -76.99510533333333, "rental_uris": {"android": "https://dc.lft.to/lastmile_qr_scan", "ios": "https://dc.lft.to/lastmile_qr_scan"}}, {"name": "f0b005280c54b0a4a1d0420bed42fc66", "is_disabled": 0, "fusion_lat": 0.0, "fusion_lon": 0.0, "type": "electric_scooter", "lat": 38.8922095, "bike_id": "f0b005280c54b0a4a1d0420bed42fc66", "is_reserved": 0, "lon": -77.04690033333334, "rental_uris": {"android": "https://dc.lft.to/lastmile_qr_scan", "ios": "https://dc.lft.to/lastmile_qr_scan"}}, {"name": "557c65cc60a9a9773f24e08bb5e1a4b4", "is_disabled": 0, "fusion_lat": 0.0, "fusion_lon": 0.0, "type": "electric_scooter", "lat": 38.923426166666665, "bike_id": "557c65cc60a9a9773f24e08bb5e1a4b4", "is_reserved": 0, "lon": -77.05114366666666, "rental_uris": {"android": "https://dc.lft.to/lastmile_qr_scan", "ios": "https://dc.lft.to/lastmile_qr_scan"}}, {"name": "141ba7ef2db7b293d24bf2891890f522", "is_disabled": 0, "fusion_lat": 0.0, "fusion_lon": 0.0, "type": "electric_scooter", "lat": 38.90598583333333, "bike_id": "141ba7ef2db7b293d24bf2891890f522", "is_reserved": 0, "lon": -77.064214, "rental_uris": {"android": "https://dc.lft.to/lastmile_qr_scan", "ios": "https://dc.lft.to/lastmile_qr_scan"}}, {"name": "bbb166f0b90c6eac73299f2483fe9441", "is_disabled": 0, "fusion_lat": 0.0, "fusion_lon": 0.0, "type": "electric_scooter", "lat": 38.908689, "bike_id": "bbb166f0b90c6eac73299f2483fe9441", "is_reserved": 0, "lon": -77.071667, "rental_uris": {"android": "https://dc.lft.to/lastmile_qr_scan", "ios": "https://dc.lft.to/lastmile_qr_scan"}}, {"name": "4c6a4cdc49441347f322b01ed0ff2016", "is_disabled": 0, "fusion_lat": 0.0, "fusion_lon": 0.0, "type": "electric_scooter", "lat": 38.882703166666666, "bike_id": "4c6a4cdc49441347f322b01ed0ff2016", "is_reserved": 0, "lon": -76.992585, "rental_uris": {"android": "https://dc.lft.to/lastmile_qr_scan", "ios": "https://dc.lft.to/lastmile_qr_scan"}}, {"name": "e88de719d69fc5d8ae492d897e263849", "is_disabled": 0, "fusion_lat": 0.0, "fusion_lon": 0.0, "type": "electric_bike", "lat": 38.82786433333333, "bike_id": "e88de719d69fc5d8ae492d897e263849", "is_reserved": 0, "lon": -77.00912833333334, "rental_uris": {"android": "https://dc.lft.to/lastmile_qr_scan", "ios": "https://dc.lft.to/lastmile_qr_scan"}}, {"name": "ebfe80f50133a132f551b8f0d1beab7c", "is_disabled": 0, "fusion_lat": 0.0, "fusion_lon": 0.0, "type": "electric_scooter", "lat": 38.902684, "bike_id": "ebfe80f50133a132f551b8f0d1beab7c", "is_reserved": 0, "lon": -77.03847816666666, "rental_uris": {"android": "https://dc.lft.to/lastmile_qr_scan", "ios": "https://dc.lft.to/lastmile_qr_scan"}}, {"name": "a4ce8c6762a087d7b6a484d6d8be821a", "is_disabled": 0, "fusion_lat": 0.0, "fusion_lon": 0.0, "type": "electric_scooter", "lat": 38.905076666666666, "bike_id": "a4ce8c6762a087d7b6a484d6d8be821a", "is_reserved": 0, "lon": -76.9848635, "rental_uris": {"android": "https://dc.lft.to/lastmile_qr_scan", "ios": "https://dc.lft.to/lastmile_qr_scan"}}, {"name": "76a57bab90dde1acc3c07666e3e3cfbd", "is_disabled": 0, "fusion_lat": 0.0, "fusion_lon": 0.0, "type": "electric_scooter", "lat": 38.898782833333335, "bike_id": "76a57bab90dde1acc3c07666e3e3cfbd", "is_reserved": 0, "lon": -77.01133866666666, "rental_uris": {"android": "https://dc.lft.to/lastmile_qr_scan", "ios": "https://dc.lft.to/lastmile_qr_scan"}}, {"name": "5e894149c361c9468ab4958efba8c039", "is_disabled": 0, "fusion_lat": 0.0, "fusion_lon": 0.0, "type": "electric_scooter", "lat": 38.8791485, "bike_id": "5e894149c361c9468ab4958efba8c039", "is_reserved": 0, "lon": -77.00801616666666, "rental_uris": {"android": "https://dc.lft.to/lastmile_qr_scan", "ios": "https://dc.lft.to/lastmile_qr_scan"}}, {"name": "0160d08b0028f5e38f982f9cb43aaa49", "is_disabled": 0, "fusion_lat": 0.0, "fusion_lon": 0.0, "type": "electric_scooter", "lat": 38.90266666666667, "bike_id": "0160d08b0028f5e38f982f9cb43aaa49", "is_reserved": 0, "lon": -77.00579816666666, "rental_uris": {"android": "https://dc.lft.to/lastmile_qr_scan", "ios": "https://dc.lft.to/lastmile_qr_scan"}}, {"name": "f8d33af0773bfd61df8ac3b2d348a3bc", "is_disabled": 0, "fusion_lat": 0.0, "fusion_lon": 0.0, "type": "electric_scooter", "lat": 38.907265333333335, "bike_id": "f8d33af0773bfd61df8ac3b2d348a3bc", "is_reserved": 0, "lon": -77.04235383333334, "rental_uris": {"android": "https://dc.lft.to/lastmile_qr_scan", "ios": "https://dc.lft.to/lastmile_qr_scan"}}, {"name": "ba42a63ea62abe208a6f0ee3b1883a64", "is_disabled": 0, "fusion_lat": 0.0, "fusion_lon": 0.0, "type": "electric_scooter", "lat": 38.915574666666664, "bike_id": "ba42a63ea62abe208a6f0ee3b1883a64", "is_reserved": 0, "lon": -77.0438975, "rental_uris": {"android": "https://dc.lft.to/lastmile_qr_scan", "ios": "https://dc.lft.to/lastmile_qr_scan"}}, {"name": "a959ef4c0ae2d7165ee192bdc644426e", "is_disabled": 0, "fusion_lat": 0.0, "fusion_lon": 0.0, "type": "electric_scooter", "lat": 38.93175983333333, "bike_id": "a959ef4c0ae2d7165ee192bdc644426e", "is_reserved": 0, "lon": -77.03867883333334, "rental_uris": {"android": "https://dc.lft.to/lastmile_qr_scan", "ios": "https://dc.lft.to/lastmile_qr_scan"}}, {"name": "a8fe095de42fb37ecff8973e2234a48f", "is_disabled": 0, "fusion_lat": 0.0, "fusion_lon": 0.0, "type": "electric_scooter", "lat": 38.91101783333333, "bike_id": "a8fe095de42fb37ecff8973e2234a48f", "is_reserved": 0, "lon": -77.02507833333334, "rental_uris": {"android": "https://dc.lft.to/lastmile_qr_scan", "ios": "https://dc.lft.to/lastmile_qr_scan"}}, {"name": "8a9b3269bd59a1999075823f19502c0d", "is_disabled": 0, "fusion_lat": 0.0, "fusion_lon": 0.0, "type": "electric_scooter", "lat": 38.90056233333333, "bike_id": "8a9b3269bd59a1999075823f19502c0d", "is_reserved": 0, "lon": -77.04632316666667, "rental_uris": {"android": "https://dc.lft.to/lastmile_qr_scan", "ios": "https://dc.lft.to/lastmile_qr_scan"}}, {"name": "59c389e7deaf61402fb2f408374ff923", "is_disabled": 0, "fusion_lat": 0.0, "fusion_lon": 0.0, "type": "electric_scooter", "lat": 38.90510916666667, "bike_id": "59c389e7deaf61402fb2f408374ff923", "is_reserved": 0, "lon": -77.0701175, "rental_uris": {"android": "https://dc.lft.to/lastmile_qr_scan", "ios": "https://dc.lft.to/lastmile_qr_scan"}}, {"name": "f0709c43ac0f2dbf8fab5c767f64879d", "is_disabled": 0, "fusion_lat": 0.0, "fusion_lon": 0.0, "type": "electric_scooter", "lat": 38.93612866666667, "bike_id": "f0709c43ac0f2dbf8fab5c767f64879d", "is_reserved": 0, "lon": -77.03783066666666, "rental_uris": {"android": "https://dc.lft.to/lastmile_qr_scan", "ios": "https://dc.lft.to/lastmile_qr_scan"}}, {"name": "fab9998462649c7f22d846c5f5e72387", "is_disabled": 0, "fusion_lat": 0.0, "fusion_lon": 0.0, "type": "electric_bike", "lat": 38.948403666666664, "bike_id": "fab9998462649c7f22d846c5f5e72387", "is_reserved": 0, "lon": -76.99902216666666, "rental_uris": {"android": "https://dc.lft.to/lastmile_qr_scan", "ios": "https://dc.lft.to/lastmile_qr_scan"}}, {"name": "d3c9a3ee20e9c15b5990e9f3df50f737", "is_disabled": 0, "fusion_lat": 0.0, "fusion_lon": 0.0, "type": "electric_bike", "lat": 38.963083, "bike_id": "d3c9a3ee20e9c15b5990e9f3df50f737", "is_reserved": 0, "lon": -77.01125516666667, "rental_uris": {"android": "https://dc.lft.to/lastmile_qr_scan", "ios": "https://dc.lft.to/lastmile_qr_scan"}}, {"name": "ce10e2b718f0298510eb84cc52adaaf2", "is_disabled": 0, "fusion_lat": 0.0, "fusion_lon": 0.0, "type": "electric_scooter", "lat": 38.930404833333334, "bike_id": "ce10e2b718f0298510eb84cc52adaaf2", "is_reserved": 0, "lon": -77.012245, "rental_uris": {"android": "https://dc.lft.to/lastmile_qr_scan", "ios": "https://dc.lft.to/lastmile_qr_scan"}}, {"name": "c369ad2359426f92af1a5d1f88bbc6e5", "is_disabled": 0, "fusion_lat": 0.0, "fusion_lon": 0.0, "type": "electric_scooter", "lat": 38.90145116666667, "bike_id": "c369ad2359426f92af1a5d1f88bbc6e5", "is_reserved": 0, "lon": -77.02815683333333, "rental_uris": {"android": "https://dc.lft.to/lastmile_qr_scan", "ios": "https://dc.lft.to/lastmile_qr_scan"}}, {"name": "d873462421a6789794ab1c6db025e6ae", "is_disabled": 0, "fusion_lat": 0.0, "fusion_lon": 0.0, "type": "electric_scooter", "lat": 38.9075945, "bike_id": "d873462421a6789794ab1c6db025e6ae", "is_reserved": 0, "lon": -77.04291983333333, "rental_uris": {"android": "https://dc.lft.to/lastmile_qr_scan", "ios": "https://dc.lft.to/lastmile_qr_scan"}}, {"name": "545a55bd6b9dc2d52e8d33d932665f6d", "is_disabled": 0, "fusion_lat": 0.0, "fusion_lon": 0.0, "type": "electric_scooter", "lat": 38.91816566666667, "bike_id": "545a55bd6b9dc2d52e8d33d932665f6d", "is_reserved": 0, "lon": -77.08961883333333, "rental_uris": {"android": "https://dc.lft.to/lastmile_qr_scan", "ios": "https://dc.lft.to/lastmile_qr_scan"}}, {"name": "8c4eb53740b91545c7105e97109986b3", "is_disabled": 0, "fusion_lat": 0.0, "fusion_lon": 0.0, "type": "electric_scooter", "lat": 38.904798, "bike_id": "8c4eb53740b91545c7105e97109986b3", "is_reserved": 0, "lon": -77.042122, "rental_uris": {"android": "https://dc.lft.to/lastmile_qr_scan", "ios": "https://dc.lft.to/lastmile_qr_scan"}}, {"name": "696d0a51ce823c7362ec2e9bbcafd2bc", "is_disabled": 0, "fusion_lat": 0.0, "fusion_lon": 0.0, "type": "electric_scooter", "lat": 38.91707183333333, "bike_id": "696d0a51ce823c7362ec2e9bbcafd2bc", "is_reserved": 0, "lon": -77.03471616666667, "rental_uris": {"android": "https://dc.lft.to/lastmile_qr_scan", "ios": "https://dc.lft.to/lastmile_qr_scan"}}, {"name": "36f0a097c4e5f643b6d23ccd68b6183f", "is_disabled": 0, "fusion_lat": 0.0, "fusion_lon": 0.0, "type": "electric_scooter", "lat": 38.90953783333333, "bike_id": "36f0a097c4e5f643b6d23ccd68b6183f", "is_reserved": 0, "lon": -77.03191233333334, "rental_uris": {"android": "https://dc.lft.to/lastmile_qr_scan", "ios": "https://dc.lft.to/lastmile_qr_scan"}}, {"name": "d8a46b4b6d0c0eed53f0e2a05a05ad08", "is_disabled": 0, "fusion_lat": 0.0, "fusion_lon": 0.0, "type": "electric_bike", "lat": 38.963202333333335, "bike_id": "d8a46b4b6d0c0eed53f0e2a05a05ad08", "is_reserved": 0, "lon": -76.973598, "rental_uris": {"android": "https://dc.lft.to/lastmile_qr_scan", "ios": "https://dc.lft.to/lastmile_qr_scan"}}, {"name": "4fb6292f7717fe07d1cacbee3bf06c9f", "is_disabled": 0, "fusion_lat": 0.0, "fusion_lon": 0.0, "type": "electric_scooter", "lat": 38.903975833333334, "bike_id": "4fb6292f7717fe07d1cacbee3bf06c9f", "is_reserved": 0, "lon": -77.03452383333334, "rental_uris": {"android": "https://dc.lft.to/lastmile_qr_scan", "ios": "https://dc.lft.to/lastmile_qr_scan"}}, {"name": "b46fe86807b6b80b2a16c7d61085beae", "is_disabled": 0, "fusion_lat": 0.0, "fusion_lon": 0.0, "type": "electric_scooter", "lat": 38.880816, "bike_id": "b46fe86807b6b80b2a16c7d61085beae", "is_reserved": 0, "lon": -76.98518033333333, "rental_uris": {"android": "https://dc.lft.to/lastmile_qr_scan", "ios": "https://dc.lft.to/lastmile_qr_scan"}}, {"name": "16155cbe5568caf6f7982891134fa059", "is_disabled": 0, "fusion_lat": 0.0, "fusion_lon": 0.0, "type": "electric_scooter", "lat": 38.927506, "bike_id": "16155cbe5568caf6f7982891134fa059", "is_reserved": 0, "lon": -77.024235, "rental_uris": {"android": "https://dc.lft.to/lastmile_qr_scan", "ios": "https://dc.lft.to/lastmile_qr_scan"}}, {"name": "5fe870a8b074e4ee642c691125eb2a00", "is_disabled": 0, "fusion_lat": 0.0, "fusion_lon": 0.0, "type": "electric_scooter", "lat": 38.8994815, "bike_id": "5fe870a8b074e4ee642c691125eb2a00", "is_reserved": 0, "lon": -77.04484833333333, "rental_uris": {"android": "https://dc.lft.to/lastmile_qr_scan", "ios": "https://dc.lft.to/lastmile_qr_scan"}}, {"name": "1a0b1cfc78709d0a28afd747a6580b35", "is_disabled": 0, "fusion_lat": 0.0, "fusion_lon": 0.0, "type": "electric_scooter", "lat": 38.8955265, "bike_id": "1a0b1cfc78709d0a28afd747a6580b35", "is_reserved": 0, "lon": -76.94879183333333, "rental_uris": {"android": "https://dc.lft.to/lastmile_qr_scan", "ios": "https://dc.lft.to/lastmile_qr_scan"}}, {"name": "0382eb1926584b6d88b106894b7b98d3", "is_disabled": 0, "fusion_lat": 0.0, "fusion_lon": 0.0, "type": "electric_scooter", "lat": 38.898671666666665, "bike_id": "0382eb1926584b6d88b106894b7b98d3", "is_reserved": 0, "lon": -76.94662283333334, "rental_uris": {"android": "https://dc.lft.to/lastmile_qr_scan", "ios": "https://dc.lft.to/lastmile_qr_scan"}}, {"name": "e7ab9d1a183ef821f421bd24ea476a13", "is_disabled": 0, "fusion_lat": 0.0, "fusion_lon": 0.0, "type": "electric_scooter", "lat": 38.885073166666665, "bike_id": "e7ab9d1a183ef821f421bd24ea476a13", "is_reserved": 0, "lon": -76.9984125, "rental_uris": {"android": "https://dc.lft.to/lastmile_qr_scan", "ios": "https://dc.lft.to/lastmile_qr_scan"}}, {"name": "fcf098f0e949b1fe939a8a74dd5311ff", "is_disabled": 0, "fusion_lat": 0.0, "fusion_lon": 0.0, "type": "electric_scooter", "lat": 38.9236, "bike_id": "fcf098f0e949b1fe939a8a74dd5311ff", "is_reserved": 0, "lon": -77.019426, "rental_uris": {"android": "https://dc.lft.to/lastmile_qr_scan", "ios": "https://dc.lft.to/lastmile_qr_scan"}},