{"data": {"bikes": [{"lat": 38.911501333333334, "is_disabled": 0, "type": "electric_scooter", "lon": -77.0383765, "bike_id": "a5a475bb0c9244afd495aec60f549a61", "fusion_lat": 0.0, "name": "a5a475bb0c9244afd495aec60f549a61", "is_reserved": 0, "rental_uris": {"android": "https://dc.lft.to/lastmile_qr_scan", "ios": "https://dc.lft.to/lastmile_qr_scan"}, "fusion_lon": 0.0}, {"lat": 38.91775333333333, "is_disabled": 0, "type": "electric_scooter", "lon": -77.04100066666666, "bike_id": "511c8b13560161e19f6196071fcd8723", "fusion_lat": 0.0, "name": "511c8b13560161e19f6196071fcd8723", "is_reserved": 0, "rental_uris": {"android": "https://dc.lft.to/lastmile_qr_scan", "ios": "https://dc.lft.to/lastmile_qr_scan"}, "fusion_lon": 0.0}, {"lat": 38.896948333333334, "is_disabled": 0, "type": "electric_scooter", "lon": -77.0049405, "bike_id": "50cb22300f031c829b2380fd758c91a2", "fusion_lat": 0.0, "name": "50cb22300f031c829b2380fd758c91a2", "is_reserved": 0, "rental_uris": {"android": "https://dc.lft.to/lastmile_qr_scan", "ios": "https://dc.lft.to/lastmile_qr_scan"}, "fusion_lon": 0.0}, {"lat": 38.9225185, "is_disabled": 0, "type": "electric_scooter", "lon": -77.01937333333333, "bike_id": "e6825b9e0ac492571a945f9ef182094f", "fusion_lat": 0.0, "name": "e6825b9e0ac492571a945f9ef182094f", "is_reserved": 0, "rental_uris": {"android": "https://dc.lft.to/lastmile_qr_scan", "ios": "https://dc.lft.to/lastmile_qr_scan"}, "fusion_lon": 0.0}, {"lat": 38.89489316666667, "is_disabled": 0, "type": "electric_scooter", "lon": -77.00253933333333, "bike_id": "810c875b77fa6c6bf6711d177873333a", "fusion_lat": 0.0, "name": "810c875b77fa6c6bf6711d177873333a", "is_reserved": 0, "rental_uris": {"android": "https://dc.lft.to/lastmile_qr_scan", "ios": "https://dc.lft.to/lastmile_qr_scan"}, "fusion_lon": 0.0}, {"lat": 38.896598, "is_disabled": 0, "type": "electric_scooter", "lon": -77.04652316666666, "bike_id": "24b3e760a3a849052a997d88c069ddee", "fusion_lat": 0.0, "name": "24b3e760a3a849052a997d88c069ddee", "is_reserved": 0, "rental_uris": {"android": "https://dc.lft.to/lastmile_qr_scan", "ios": "https://dc.lft.to/lastmile_qr_scan"}, "fusion_lon": 0.0}, {"lat": 38.94311016666666, "is_disabled": 0, "type": "electric_scooter", "lon": -77.061388, "bike_id": "91016acd6dd3a23b9c63a78d8af61668", "fusion_lat": 0.0, "name": "91016acd6dd3a23b9c63a78d8af61668", "is_reserved": 0, "rental_uris": {"android": "https://dc.lft.to/lastmile_qr_scan", "ios": "https://dc.lft.to/lastmile_qr_scan"}, "fusion_lon": 0.0}, {"lat": 38.917072833333336, "is_disabled": 0, "type": "electric_scooter", "lon": -77.03468466666666, "bike_id": "c6cd1a60761843aa82b5056d90dd63e1", "fusion_lat": 0.0, "name": "c6cd1a60761843aa82b5056d90dd63e1", "is_reserved": 0, "rental_uris": {"android": "https://dc.lft.to/lastmile_qr_scan", "ios": "https://dc.lft.to/lastmile_qr_scan"}, "fusion_lon": 0.0}, {"lat": 38.92114733333333, "is_disabled": 0, "type": "electric_scooter", "lon": -77.04191683333333, "bike_id": "2e48d1f4695e195708039c1ae4fd6e25", "fusion_lat": 0.0, "name": "2e48d1f4695e195708039c1ae4fd6e25", "is_reserved": 0, "rental_uris": {"android": "https://dc.lft.to/lastmile_qr_scan", "ios": "https://dc.lft.to/lastmile_qr_scan"}, "fusion_lon": 0.0}, {"lat": 38.88631516666667, "is_disabled": 0, "type": "electric_scooter", "lon": -76.9549125, "bike_id": "883032ec1a96dd38e4ee4775c3a29b34", "fusion_lat": 0.0, "name": "883032ec1a96dd38e4ee4775c3a29b34", "is_reserved": 0, "rental_uris": {"android": "https://dc.lft.to/lastmile_qr_scan", "ios": "https://dc.lft.to/lastmile_qr_scan"}, "fusion_lon": 0.0}, {"lat": 38.906509666666665, "is_disabled": 0, "type": "electric_scooter", "lon": -77.014143, "bike_id": "ce3fecf271a0ed187a29fb73bbb10f56", "fusion_lat": 0.0, "name": "ce3fecf271a0ed187a29fb73bbb10f56", "is_reserved": 0, "rental_uris": {"android": "https://dc.lft.to/lastmile_qr_scan", "ios": "https://dc.lft.to/lastmile_qr_scan"}, "fusion_lon": 0.0}, {"lat": 38.9157295, "is_disabled": 0, "type": "electric_scooter", "lon": -77.05023166666666, "bike_id": "71de660234c611f53e3f6051e1596845", "fusion_lat": 0.0, "name": "71de660234c611f53e3f6051e1596845", "is_reserved": 0, "rental_uris": {"android": "https://dc.lft.to/lastmile_qr_scan", "ios": "https://dc.lft.to/lastmile_qr_scan"}, "fusion_lon": 0.0}, {"lat": 38.90485916666667, "is_disabled": 0, "type": "electric_scooter", "lon": -76.973355, "bike_id": "18763da5c97e51273a07a626459db8de", "fusion_lat": 0.0, "name": "18763da5c97e51273a07a626459db8de", "is_reserved": 0, "rental_uris": {"android": "https://dc.lft.to/lastmile_qr_scan", "ios": "https://dc.lft.to/lastmile_qr_scan"}, "fusion_lon": 0.0}, {"lat": 38.94704483333334, "is_disabled": 0, "type": "electric_scooter", "lon": -77.01936816666667, "bike_id": "2e2dddd8e958c8108aa7a9297855b225", "fusion_lat": 0.0, "name": "2e2dddd8e958c8108aa7a9297855b225", "is_reserved": 0, "rental_uris": {"android": "https://dc.lft.to/lastmile_qr_scan", "ios": "https://dc.lft.to/lastmile_qr_scan"}, "fusion_lon": 0.0}, {"lat": 38.870683666666665, "is_disabled": 0, "type": "electric_scooter", "lon": -76.97971333333334, "bike_id": "ac6539b111174e511034ab4a43af48df", "fusion_lat": 0.0, "name": "ac6539b111174e511034ab4a43af48df", "is_reserved": 0, "rental_uris": {"android": "https://dc.lft.to/lastmile_qr_scan", "ios": "https://dc.lft.to/lastmile_qr_scan"}, "fusion_lon": 0.0}, {"lat": 38.90032983333333, "is_disabled": 0, "type": "electric_scooter", "lon": -77.021793, "bike_id": "98a035d9bb1253adef6c84a4a860d123", "fusion_lat": 0.0, "name": "98a035d9bb1253adef6c84a4a860d123", "is_reserved": 0, "rental_uris": {"android": "https://dc.lft.to/lastmile_qr_scan", "ios": "https://dc.lft.to/lastmile_qr_scan"}, "fusion_lon": 0.0}, {"lat": 38.89296483333333, "is_disabled": 0, "type": "electric_scooter", "lon": -77.00209683333334, "bike_id": "284c7ca912b346b1892986c6d21321b7", "fusion_lat": 0.0, "name": "284c7ca912b346b1892986c6d21321b7", "is_reserved": 0, "rental_uris": {"android": "https://dc.lft.to/lastmile_qr_scan", "ios": "https://dc.lft.to/lastmile_qr_scan"}, "fusion_lon": 0.0}, {"lat": 38.91751133333333, "is_disabled": 0, "type": "electric_scooter", "lon": -77.039943, "bike_id": "3a53bdc9f240fe3a85426f1443d6ce50", "fusion_lat": 0.0, "name": "3a53bdc9f240fe3a85426f1443d6ce50", "is_reserved": 0, "rental_uris": {"android": "https://dc.lft.to/lastmile_qr_scan", "ios": "https://dc.lft.to/lastmile_qr_scan"}, "fusion_lon": 0.0}, {"lat": 38.9038515, "is_disabled": 0, "type": "electric_scooter", "lon": -77.0280965, "bike_id": "84f6dc7f4f0cd9b323cdebfa90c62231", "fusion_lat": 0.0, "name": "84f6dc7f4f0cd9b323cdebfa90c62231", "is_reserved": 0, "rental_uris": {"android": "https://dc.lft.to/lastmile_qr_scan", "ios": "https://dc.lft.to/lastmile_qr_scan"}, "fusion_lon": 0.0}, {"lat": 38.857908, "is_disabled": 0, "type": "electric_bike", "lon": -76.98748466666666, "bike_id": "1b785a4bd6777446ac886a0c07d6db1b", "fusion_lat": 0.0, "name": "1b785a4bd6777446ac886a0c07d6db1b", "is_reserved": 0, "rental_uris": {"android": "https://dc.lft.to/lastmile_qr_scan", "ios": "https://dc.lft.to/lastmile_qr_scan"}, "fusion_lon": 0.0}, {"lat": 38.93327283333333, "is_disabled": 0, "type": "electric_scooter", "lon": -77.043982, "bike_id": "b7c185c5e74645eabc8a9e548115f795", "fusion_lat": 0.0, "name": "b7c185c5e74645eabc8a9e548115f795", "is_reserved": 0, "rental_uris": {"android": "https://dc.lft.to/lastmile_qr_scan", "ios": "https://dc.lft.to/lastmile_qr_scan"}, "fusion_lon": 0.0}, {"lat": 38.80227683333333, "is_disabled": 0, "type": "electric_bike", "lon": -77.07920366666667, "bike_id": "0d628fa7511e4bdfeba64ff5066b96fa", "fusion_lat": 0.0, "name": "0d628fa7511e4bdfeba64ff5066b96fa", "is_reserved": 0, "rental_uris": {"android": "https://dc.lft.to/lastmile_qr_scan", "ios": "https://dc.lft.to/lastmile_qr_scan"}, "fusion_lon": 0.0}, {"lat": 38.92107583333333, "is_disabled": 0, "type": "electric_scooter", "lon": -77.0469565, "bike_id": "843168ea82b6794426abe493d85a7d6d", "fusion_lat": 0.0, "name": "843168ea82b6794426abe493d85a7d6d", "is_reserved": 0, "rental_uris": {"android": "https://dc.lft.to/lastmile_qr_scan", "ios": "https://dc.lft.to/lastmile_qr_scan"}, "fusion_lon": 0.0}, {"lat": 38.899587, "is_disabled": 0, "type": "electric_scooter", "lon": -77.052084, "bike_id": "41fde714447b1f51b0b1dba38308c8a6", "fusion_lat": 0.0, "name": "41fde714447b1f51b0b1dba38308c8a6", "is_reserved": 0, "rental_uris": {"android": "https://dc.lft.to/lastmile_qr_scan", "ios": "https://dc.lft.to/lastmile_qr_scan"}, "fusion_lon": 0.0}, {"lat": 38.9063035, "is_disabled": 0, "type": "electric_bike", "lon": -77.07030433333334, "bike_id": "223710ba23802d2a63b78257555f13a0", "fusion_lat": 0.0, "name": "223710ba23802d2a63b78257555f13a0", "is_reserved": 0, "rental_uris": {"android": "https://dc.lft.to/lastmile_qr_scan", "ios": "https://dc.lft.to/lastmile_qr_scan"}, "fusion_lon": 0.0}, {"lat": 38.93612383333333, "is_disabled": 0, "type": "electric_scooter", "lon": -77.057571, "bike_id": "fd648a91b8d002f23d90d9f93e232ce5", "fusion_lat": 0.0, "name": "fd648a91b8d002f23d90d9f93e232ce5", "is_reserved": 0, "rental_uris": {"android": "https://dc.lft.to/lastmile_qr_scan", "ios": "https://dc.lft.to/lastmile_qr_scan"}, "fusion_lon": 0.0}, {"lat": 38.932006, "is_disabled": 0, "type": "electric_scooter", "lon": -77.03856266666666, "bike_id": "78c3ec2597b6af82b53a046c0dfd900b", "fusion_lat": 0.0, "name": "78c3ec2597b6af82b53a046c0dfd900b", "is_reserved": 0, "rental_uris": {"android": "https://dc.lft.to/lastmile_qr_scan", "ios": "https://dc.lft.to/lastmile_qr_scan"}, "fusion_lon": 0.0}, {"lat": 38.91033133333333, "is_disabled": 0, "type": "electric_scooter", "lon": -77.03383416666667, "bike_id": "5e99be80b22bd9e96a8dd405f22c5bc7", "fusion_lat": 0.0, "name": "5e99be80b22bd9e96a8dd405f22c5bc7", "is_reserved": 0, "rental_uris": {"android": "https://dc.lft.to/lastmile_qr_scan", "ios": "https://dc.lft.to/lastmile_qr_scan"}, "fusion_lon": 0.0}, {"lat": 38.898426666666666, "is_disabled": 0, "type": "electric_scooter", "lon": -76.944672, "bike_id": "a6fb2b3476da33402b64ddc695f68294", "fusion_lat": 0.0, "name": "a6fb2b3476da33402b64ddc695f68294", "is_reserved": 0, "rental_uris": {"android": "https://dc.lft.to/lastmile_qr_scan", "ios": "https://dc.lft.to/lastmile_qr_scan"}, "fusion_lon": 0.0}, {"lat": 38.89357966666667, "is_disabled": 0, "type": "electric_scooter", "lon": -77.04159416666667, "bike_id": "6be403221a49192073dc6f76a00da3c4", "fusion_lat": 0.0, "name": "6be403221a49192073dc6f76a00da3c4", "is_reserved": 0, "rental_uris": {"android": "https://dc.lft.to/lastmile_qr_scan", "ios": "https://dc.lft.to/lastmile_qr_scan"}, "fusion_lon": 0.0}, {"lat": 38.86294983333333, "is_disabled": 0, "type": "electric_scooter", "lon": -76.99241116666667, "bike_id": "f23681b6cf40929d076ff59099a63b61", "fusion_lat": 0.0, "name": "f23681b6cf40929d076ff59099a63b61", "is_reserved": 0, "rental_uris": {"android": "https://dc.lft.to/lastmile_qr_scan", "ios": "https://dc.lft.to/lastmile_qr_scan"}, "fusion_lon": 0.0}, {"lat": 38.8960045, "is_disabled": 0, "type": "electric_bike", "lon": -77.03102416666667, "bike_id": "367efd00c777ecd291146f52107c50f7", "fusion_lat": 0.0, "name": "367efd00c777ecd291146f52107c50f7", "is_reserved": 0, "rental_uris": {"android": "https://dc.lft.to/lastmile_qr_scan", "ios": "https://dc.lft.to/lastmile_qr_scan"}, "fusion_lon": 0.0}, {"lat": 38.91317816666667, "is_disabled": 0, "type": "electric_scooter", "lon": -77.04563, "bike_id": "10feff8f38bfeb6ea2c9e0444e2b8475", "fusion_lat": 0.0, "name": "10feff8f38bfeb6ea2c9e0444e2b8475", "is_reserved": 0, "rental_uris": {"android": "https://dc.lft.to/lastmile_qr_scan", "ios": "https://dc.lft.to/lastmile_qr_scan"}, "fusion_lon": 0.0}, {"lat": 38.93518733333333, "is_disabled": 0, "type": "electric_bike", "lon": -76.98345783333333, "bike_id": "21664dcdbb852fe454dc15eecfd68ca1", "fusion_lat": 0.0, "name": "21664dcdbb852fe454dc15eecfd68ca1", "is_reserved": 0, "rental_uris": {"android": "https://dc.lft.to/lastmile_qr_scan", "ios": "https://dc.lft.to/lastmile_qr_scan"}, "fusion_lon": 0.0}, {"lat": 39.09437533333333, "is_disabled": 0, "type": "electric_bike", "lon": -77.13461533333333, "bike_id": "204c280c765cc61386d8ed0f701298d2", "fusion_lat": 0.0, "name": "204c280c765cc61386d8ed0f701298d2", "is_reserved": 0, "rental_uris": {"android": "https://dc.lft.to/lastmile_qr_scan", "ios": "https://dc.lft.to/lastmile_qr_scan"}, "fusion_lon": 0.0}, {"lat": 38.928577833333335, "is_disabled": 0, "type": "electric_scooter", "lon": -77.030992, "bike_id": "b2175d9a5f6c682df6451c9a02f315db", "fusion_lat": 0.0, "name": "b2175d9a5f6c682df6451c9a02f315db", "is_reserved": 0, "rental_uris": {"android": "https://dc.lft.to/lastmile_qr_scan", "ios": "https://dc.lft.to/lastmile_qr_scan"}, "fusion_lon": 0.0}, {"lat": 38.950747666666665, "is_disabled": 0, "type": "electric_bike", "lon": -77.01201733333333, "bike_id": "1c2cdaa8886c1d656f873206886e4925", "fusion_lat": 0.0, "name": "1c2cdaa8886c1d656f873206886e4925", "is_reserved": 0, "rental_uris": {"android": "https://dc.lft.to/lastmile_qr_scan", "ios": "https://dc.lft.to/lastmile_qr_scan"}, "fusion_lon": 0.0}, {"lat": 38.903371166666666, "is_disabled": 0, "type": "electric_scooter", "lon": -76.97057783333334, "bike_id": "64e333938aaee9150f388a61e90e16ce", "fusion_lat": 0.0, "name": "64e333938aaee9150f388a61e90e16ce", "is_reserved": 0, "rental_uris": {"android": "https://dc.lft.to/lastmile_qr_scan", "ios": "https://dc.lft.to/lastmile_qr_scan"}, "fusion_lon": 0.0}, {"lat": 38.898843166666666, "is_disabled": 0, "type": "electric_scooter", "lon": -77.02953116666667, "bike_id": "2c72683d118c1e768cc8fa798779e726", "fusion_lat": 0.0, "name": "2c72683d118c1e768cc8fa798779e726", "is_reserved": 0, "rental_uris": {"android": "https://dc.lft.to/lastmile_qr_scan", "ios": "https://dc.lft.to/lastmile_qr_scan"}, "fusion_lon": 0.0}, {"lat": 38.95734233333334, "is_disabled": 0, "type": "electric_scooter", "lon": -77.023858, "bike_id": "88d7aabd9a3d82ba9f75937c9ec82d6f", "fusion_lat": 0.0, "name": "88d7aabd9a3d82ba9f75937c9ec82d6f", "is_reserved": 0, "rental_uris": {"android": "https://dc.lft.to/lastmile_qr_scan", "ios": "https://dc.lft.to/lastmile_qr_scan"}, "fusion_lon": 0.0}, {"lat": 38.91119066666667, "is_disabled": 0, "type": "electric_scooter", "lon": -77.029005, "bike_id": "7a00553579583d752af46f91a39d1e03", "fusion_lat": 0.0, "name": "7a00553579583d752af46f91a39d1e03", "is_reserved": 0, "rental_uris": {"android": "https://dc.lft.to/lastmile_qr_scan", "ios": "https://dc.lft.to/lastmile_qr_scan"}, "fusion_lon": 0.0}, {"lat": 38.90373966666667, "is_disabled": 0, "type": "electric_scooter", "lon": -77.03310883333333, "bike_id": "777a9dabb2132652e762be6ebb59d621", "fusion_lat": 0.0, "name": "777a9dabb2132652e762be6ebb59d621", "is_reserved": 0, "rental_uris": {"android": "https://dc.lft.to/lastmile_qr_scan", "ios": "https://dc.lft.to/lastmile_qr_scan"}, "fusion_lon": 0.0}, {"lat": 38.897870166666664, "is_disabled": 0, "type": "electric_bike", "lon": -77.0072985, "bike_id": "36e00bb47d3843870da358f8cf80b53b", "fusion_lat": 0.0, "name": "36e00bb47d3843870da358f8cf80b53b", "is_reserved": 0, "rental_uris": {"android": "https://dc.lft.to/lastmile_qr_scan", "ios": "https://dc.lft.to/lastmile_qr_scan"}, "fusion_lon": 0.0}, {"lat": 38.887677833333335, "is_disabled": 0, "type": "electric_scooter", "lon": -76.98354583333334, "bike_id": "bb3142b29da5f548506a3858747bed1a", "fusion_lat": 0.0, "name": "bb3142b29da5f548506a3858747bed1a", "is_reserved": 0, "rental_uris": {"android": "https://dc.lft.to/lastmile_qr_scan", "ios": "https://dc.lft.to/lastmile_qr_scan"}, "fusion_lon": 0.0}, {"lat": 38.911924, "is_disabled": 0, "type": "electric_scooter", "lon": -77.04474516666667, "bike_id": "9b488bb9fd5be6e70af7a2daa9f19b62", "fusion_lat": 0.0, "name": "9b488bb9fd5be6e70af7a2daa9f19b62", "is_reserved": 0, "rental_uris": {"android": "https://dc.lft.to/lastmile_qr_scan", "ios": "https://dc.lft.to/lastmile_qr_scan"}, "fusion_lon": 0.0}, {"lat": 38.935681333333335, "is_disabled": 0, "type": "electric_scooter", "lon": -77.03732266666667, "bike_id": "3ee183384c4860e5c34b3ff7c3b13ab2", "fusion_lat": 0.0, "name": "3ee183384c4860e5c34b3ff7c3b13ab2", "is_reserved": 0, "rental_uris": {"android": "https://dc.lft.to/lastmile_qr_scan", "ios": "https://dc.lft.to/lastmile_qr_scan"}, "fusion_lon": 0.0}, {"lat": 38.89293766666667, "is_disabled": 0, "type": "electric_scooter", "lon": -77.0322655, "bike_id": "af45f51d69fc37acc973a7851793efd1", "fusion_lat": 0.0, "name": "af45f51d69fc37acc973a7851793efd1", "is_reserved": 0, "rental_uris": {"android": "https://dc.lft.to/lastmile_qr_scan", "ios": "https://dc.lft.to/lastmile_qr_scan"}, "fusion_lon": 0.0}, {"lat": 38.86619433333333, "is_disabled": 0, "type": "electric_scooter", "lon": -76.98665033333333, "bike_id": "dc9937ea0892af3de26ca5b73c9174ac", "fusion_lat": 0.0, "name": "dc9937ea0892af3de26ca5b73c9174ac", "is_reserved": 0, "rental_uris": {"android": "https://dc.lft.to/lastmile_qr_scan", "ios": "https://dc.lft.to/lastmile_qr_scan"}, "fusion_lon": 0.0}, {"lat": 38.911691833333336, "is_disabled": 0, "type": "electric_scooter", "lon": -77.038629, "bike_id": "a508145fb51d13f04ba9aa4a3b340044", "fusion_lat": 0.0, "name": "a508145fb51d13f04ba9aa4a3b340044", "is_reserved": 0, "rental_uris": {"android": "https://dc.lft.to/lastmile_qr_scan", "ios": "https://dc.lft.to/lastmile_qr_scan"}, "fusion_lon": 0.0}, {"lat": 38.915631, "is_disabled": 0, "type": "electric_scooter", "lon": -77.00975966666667, "bike_id": "42fc4bd00e42107a88db2ba3c5b69055", "fusion_lat": 0.0, "name": "42fc4bd00e42107a88db2ba3c5b69055", "is_reserved": 0, "rental_uris": {"android": "https://dc.lft.to/lastmile_qr_scan", "ios": "https://dc.lft.to/lastmile_qr_scan"}, "fusion_lon": 0.0}, {"lat": 38.90560583333333, "is_disabled": 0, "type": "electric_scooter", "lon": -77.05699316666667, "bike_id": "98447c92cfef2ba199ed96d8757e60a4", "fusion_lat": 0.0, "name": "98447c92cfef2ba199ed96d8757e60a4", "is_reserved": 0, "rental_uris": {"android": "https://dc.lft.to/lastmile_qr_scan", "ios": "https://dc.lft.to/lastmile_qr_scan"}, "fusion_lon": 0.0}, {"lat": 38.914995, "is_disabled": 0, "type": "electric_scooter", "lon": -76.98363766666667, "bike_id": "6fc20ebe5dfba8a0f9c97230ee663182", "fusion_lat": 0.0, "name": "6fc20ebe5dfba8a0f9c97230ee663182", "is_reserved": 0, "rental_uris": {"android": "https://dc.lft.to/lastmile_qr_scan", "ios": "https://dc.lft.to/lastmile_qr_scan"}, "fusion_lon": 0.0}, {"lat": 38.90886866666666, "is_disabled": 0, "type": "electric_scooter", "lon": -77.03668133333333, "bike_id": "e5a37e9bb360bfaa44ab2016f52a7627", "fusion_lat": 0.0, "name": "e5a37e9bb360bfaa44ab2016f52a7627", "is_reserved": 0, "rental_uris": {"android": "https://dc.lft.to/lastmile_qr_scan", "ios": "https://dc.lft.to/lastmile_qr_scan"}, "fusion_lon": 0.0}, {"lat": 38.88274283333333, "is_disabled": 0, "type": "electric_bike", "lon": -76.932467, "bike_id": "4c2273c50575267d7fe8be20a4a748b8", "fusion_lat": 0.0, "name": "4c2273c50575267d7fe8be20a4a748b8", "is_reserved": 0, "rental_uris": {"android": "https://dc.lft.to/lastmile_qr_scan", "ios": "https://dc.lft.to/lastmile_qr_scan"}, "fusion_lon": 0.0}, {"lat": 38.917186, "is_disabled": 0, "type": "electric_scooter", "lon": -77.027104, "bike_id": "7b994bd7dde9e09f70075dd337f6f341", "fusion_lat": 0.0, "name": "7b994bd7dde9e09f70075dd337f6f341", "is_reserved": 0, "rental_uris": {"android": "https://dc.lft.to/lastmile_qr_scan", "ios": "https://dc.lft.to/lastmile_qr_scan"}, "fusion_lon": 0.0}, {"lat": 39.05630716666667, "is_disabled": 0, "type": "electric_bike", "lon": -77.125311, "bike_id": "a30235a5ff93e00f7c467c0b815e7b81", "fusion_lat": 0.0, "name": "a30235a5ff93e00f7c467c0b815e7b81", "is_reserved": 0, "rental_uris": {"android": "https://dc.lft.to/lastmile_qr_scan", "ios": "https://dc.lft.to/lastmile_qr_scan"}, "fusion_lon": 0.0}, {"lat": 38.906803833333335, "is_disabled": 0, "type": "electric_scooter", "lon": -77.03760666666666, "bike_id": "322ce67dda5c1f49bc7aef8a3e45a79f", "fusion_lat": 0.0, "name": "322ce67dda5c1f49bc7aef8a3e45a79f", "is_reserved": 0, "rental_uris": {"android": "https://dc.lft.to/lastmile_qr_scan", "ios": "https://dc.lft.to/lastmile_qr_scan"}, "fusion_lon": 0.0}, {"lat": 38.924787333333335, "is_disabled": 0, "type": "electric_scooter", "lon": -77.0284415, "bike_id": "988703e06089f30f49a2d95981d99cd8", "fusion_lat": 0.0, "name": "988703e06089f30f49a2d95981d99cd8", "is_reserved": 0, "rental_uris": {"android": "https://dc.lft.to/lastmile_qr_scan", "ios": "https://dc.lft.to/lastmile_qr_scan"}, "fusion_lon": 0.0}, {"lat": 38.898129833333336, "is_disabled": 0, "type": "electric_scooter", "lon": -76.99697966666666, "bike_id": "d6433973bc0e82801ba5c306909cdaaa", "fusion_lat": 0.0, "name": "d6433973bc0e82801ba5c306909cdaaa", "is_reserved": 0, "rental_uris": {"android": "https://dc.lft.to/lastmile_qr_scan", "ios": "https://dc.lft.to/lastmile_qr_scan"}, "fusion_lon": 0.0}, {"lat": 38.88577816666667, "is_disabled": 0, "type": "electric_scooter", "lon": -76.91913033333333, "bike_id": "b481913ac457e60cec277a52631b20c5", "fusion_lat": 0.0, "name": "b481913ac457e60cec277a52631b20c5", "is_reserved": 0, "rental_uris": {"android": "https://dc.lft.to/lastmile_qr_scan", "ios": "https://dc.lft.to/lastmile_qr_scan"}, "fusion_lon": 0.0}, {"lat": 38.91744683333334, "is_disabled": 0, "type": "electric_scooter", "lon": -77.0318335, "bike_id": "7a5769b2e040bb52b5c306e1679d94ae", "fusion_lat": 0.0, "name": "7a5769b2e040bb52b5c306e1679d94ae", "is_reserved": 0, "rental_uris": {"android": "https://dc.lft.to/lastmile_qr_scan", "ios": "https://dc.lft.to/lastmile_qr_scan"}, "fusion_lon": 0.0}, {"lat": 38.86231166666666, "is_disabled": 0, "type": "electric_scooter", "lon": -76.99548666666666, "bike_id": "6ed10eeb84485125be92a78253e3431d", "fusion_lat": 0.0, "name": "6ed10eeb84485125be92a78253e3431d", "is_reserved": 0, "rental_uris": {"android": "https://dc.lft.to/lastmile_qr_scan", "ios": "https://dc.lft.to/lastmile_qr_scan"}, "fusion_lon": 0.0}, {"lat": 38.91375583333333, "is_disabled": 0, "type": "electric_scooter", "lon": -77.02691933333334, "bike_id": "a45055653a2c661d673cda4d419b1af3", "fusion_lat": 0.0, "name": "a45055653a2c661d673cda4d419b1af3", "is_reserved": 0, "rental_uris": {"android": "https://dc.lft.to/lastmile_qr_scan", "ios": "https://dc.lft.to/lastmile_qr_scan"}, "fusion_lon": 0.0}, {"lat": 38.92757066666667, "is_disabled": 0, "type": "electric_scooter", "lon": -77.03220966666666, "bike_id": "34931515f388a44b69800e069f0d14c5", "fusion_lat": 0.0, "name": "34931515f388a44b69800e069f0d14c5", "is_reserved": 0, "rental_uris": {"android": "https://dc.lft.to/lastmile_qr_scan", "ios": "https://dc.lft.to/lastmile_qr_scan"}, "fusion_lon": 0.0}, {"lat": 38.88636066666667, "is_disabled": 0, "type": "electric_bike", "lon": -76.95474683333333, "bike_id": "18d6bff67267fa9cc938429145cb5674", "fusion_lat": 0.0, "name": "18d6bff67267fa9cc938429145cb5674", "is_reserved": 0, "rental_uris": {"android": "https://dc.lft.to/lastmile_qr_scan", "ios": "https://dc.lft.to/lastmile_qr_scan"}, "fusion_lon": 0.0}, {"lat": 38.96146516666667, "is_disabled": 0, "type": "electric_scooter", "lon": -77.02790683333333, "bike_id": "241f5c1a4c72ee2f702d7aab021e464f", "fusion_lat": 0.0, "name": "241f5c1a4c72ee2f702d7aab021e464f", "is_reserved": 0, "rental_uris": {"android": "https://dc.lft.to/lastmile_qr_scan", "ios": "https://dc.lft.to/lastmile_qr_scan"}, "fusion_lon": 0.0}, {"lat": 38.908577, "is_disabled": 0, "type": "electric_scooter", "lon": -77.045996, "bike_id": "99405134ed0a1a8490ba391bd42dbbd4", "fusion_lat": 0.0, "name": "99405134ed0a1a8490ba391bd42dbbd4", "is_reserved": 0, "rental_uris": {"android": "https://dc.lft.to/lastmile_qr_scan", "ios": "https://dc.lft.to/lastmile_qr_scan"}, "fusion_lon": 0.0}, {"lat": 38.87012133333333, "is_disabled": 0, "type": "electric_bike", "lon": -76.96023883333334, "bike_id": "d2b289fada0efef11596a15e80d519d0", "fusion_lat": 0.0, "name": "d2b289fada0efef11596a15e80d519d0", "is_reserved": 0, "rental_uris": {"android": "https://dc.lft.to/lastmile_qr_scan", "ios": "https://dc.lft.to/lastmile_qr_scan"}, "fusion_lon": 0.0}, {"lat": 38.93347833333333, "is_disabled": 0, "type": "electric_scooter", "lon": -77.05711816666667, "bike_id": "c6bc7afa7035afd69d20bdaf3c93c7f7", "fusion_lat": 0.0, "name": "c6bc7afa7035afd69d20bdaf3c93c7f7", "is_reserved": 0, "rental_uris": {"android": "https://dc.lft.to/lastmile_qr_scan", "ios": "https://dc.lft.to/lastmile_qr_scan"}, "fusion_lon": 0.0}, {"lat": 38.9059585, "is_disabled": 0, "type": "electric_scooter", "lon": -77.0630785, "bike_id": "10205a632f0e66c3c2ce90f3f58929ef", "fusion_lat": 0.0, "name": "10205a632f0e66c3c2ce90f3f58929ef", "is_reserved": 0, "rental_uris": {"android": "https://dc.lft.to/lastmile_qr_scan", "ios": "https://dc.lft.to/lastmile_qr_scan"}, "fusion_lon": 0.0}, {"lat": 38.836726166666665, "is_disabled": 0, "type": "electric_scooter", "lon": -77.00578316666666, "bike_id": "33d644c2dc594b6b21b14f72542adf6e", "fusion_lat": 0.0, "name": "33d644c2dc594b6b21b14f72542adf6e", "is_reserved": 0, "rental_uris": {"android": "https://dc.lft.to/lastmile_qr_scan", "ios": "https://dc.lft.to/lastmile_qr_scan"}, "fusion_lon": 0.0}, {"lat": 38.919152833333335, "is_disabled": 0, "type": "electric_scooter", "lon": -77.01347166666666, "bike_id": "68f1ed40709c148ed6d8779c75c18fbc", "fusion_lat": 0.0, "name": "68f1ed40709c148ed6d8779c75c18fbc", "is_reserved": 0, "rental_uris": {"android": "https://dc.lft.to/lastmile_qr_scan", "ios": "https://dc.lft.to/lastmile_qr_scan"}, "fusion_lon": 0.0}, {"lat": 38.93498266666667, "is_disabled": 0, "type": "electric_scooter", "lon": -77.0580395, "bike_id": "e137096b2278d62a4a53b2f4fb583928", "fusion_lat": 0.0, "name": "e137096b2278d62a4a53b2f4fb583928", "is_reserved": 0, "rental_uris": {"android": "https://dc.lft.to/lastmile_qr_scan", "ios": "https://dc.lft.to/lastmile_qr_scan"}, "fusion_lon": 0.0}, {"lat": 38.930363166666666, "is_disabled": 0, "type": "electric_scooter", "lon": -77.03632983333334, "bike_id": "bb351e48505b171310a39f26a5e52133", "fusion_lat": 0.0, "name": "bb351e48505b171310a39f26a5e52133", "is_reserved": 0, "rental_uris": {"android": "https://dc.lft.to/lastmile_qr_scan", "ios": "https://dc.lft.to/lastmile_qr_scan"}, "fusion_lon": 0.0}, {"lat": 38.9003875, "is_disabled": 0, "type": "electric_scooter", "lon": -77.03960416666666, "bike_id": "3f816460ceb20d2e48c72feecb4c8e3a", "fusion_lat": 0.0, "name": "3f816460ceb20d2e48c72feecb4c8e3a", "is_reserved": 0, "rental_uris": {"android": "https://dc.lft.to/lastmile_qr_scan", "ios": "https://dc.lft.to/lastmile_qr_scan"}, "fusion_lon": 0.0}, {"lat": 38.96091033333333, "is_disabled": 0, "type": "electric_scooter", "lon": -77.08284766666667, "bike_id": "8363ff43cebe7ad7c05cf93e5cec6f54", "fusion_lat": 0.0, "name": "8363ff43cebe7ad7c05cf93e5cec6f54", "is_reserved": 0, "rental_uris": {"android": "https://dc.lft.to/lastmile_qr_scan", "ios": "https://dc.lft.to/lastmile_qr_scan"}, "fusion_lon": 0.0}, {"lat": 38.900027, "is_disabled": 0, "type": "electric_scooter", "lon": -76.99854933333333, "bike_id": "548875281aace19db55b1dc072bd71e5", "fusion_lat": 0.0, "name": "548875281aace19db55b1dc072bd71e5", "is_reserved": 0, "rental_uris": {"android": "https://dc.lft.to/lastmile_qr_scan", "ios": "https://dc.lft.to/lastmile_qr_scan"}, "fusion_lon": 0.0}, {"lat": 38.9169425, "is_disabled": 0, "type": "electric_scooter", "lon": -77.034842, "bike_id": "6fbeaab68b38722bbff347527c3e3c11", "fusion_lat": 0.0, "name": "6fbeaab68b38722bbff347527c3e3c11", "is_reserved": 0, "rental_uris": {"android": "https://dc.lft.to/lastmile_qr_scan", "ios": "https://dc.lft.to/lastmile_qr_scan"}, "fusion_lon": 0.0}, {"lat": 39.01591233333333, "is_disabled": 0, "type": "electric_bike", "lon": -77.04433, "bike_id": "f6e43def3b042b5049e544bbd8205a2a", "fusion_lat": 0.0, "name": "f6e43def3b042b5049e544bbd8205a2a", "is_reserved": 0, "rental_uris": {"android": "https://dc.lft.to/lastmile_qr_scan", "ios": "https://dc.lft.to/lastmile_qr_scan"}, "fusion_lon": 0.0}, {"lat": 38.891233, "is_disabled": 0, "type": "electric_scooter", "lon": -76.94092666666667, "bike_id": "9ef5b9af352fd2a59799f71136539796", "fusion_lat": 0.0, "name": "9ef5b9af352fd2a59799f71136539796", "is_reserved": 0, "rental_uris": {"android": "https://dc.lft.to/lastmile_qr_scan", "ios": "https://dc.lft.to/lastmile_qr_scan"}, "fusion_lon": 0.0}, {"lat": 38.9046975, "is_disabled": 0, "type": "electric_scooter", "lon": -77.03259216666666, "bike_id": "26c9fffd4c2fa027c9cc4be88f5fd1ea", "fusion_lat": 0.0, "name": "26c9fffd4c2fa027c9cc4be88f5fd1ea", "is_reserved": 0, "rental_uris": {"android": "https://dc.lft.to/lastmile_qr_scan", "ios": "https://dc.lft.to/lastmile_qr_scan"}, "fusion_lon": 0.0}, {"lat": 38.93551316666667, "is_disabled": 0, "type": "electric_scooter", "lon": -77.0587195, "bike_id": "a32f93b3da8e97202034195cc0f70420", "fusion_lat": 0.0, "name": "a32f93b3da8e97202034195cc0f70420", "is_reserved": 0, "rental_uris": {"android": "https://dc.lft.to/lastmile_qr_scan", "ios": "https://dc.lft.to/lastmile_qr_scan"}, "fusion_lon": 0.0}, {"lat": 38.9118525, "is_disabled": 0, "type": "electric_scooter", "lon": -77.03158783333333, "bike_id": "90620a9e3a86bc4cd29743d976ce7698", "fusion_lat": 0.0, "name": "90620a9e3a86bc4cd29743d976ce7698", "is_reserved": 0, "rental_uris": {"android": "https://dc.lft.to/lastmile_qr_scan", "ios": "https://dc.lft.to/lastmile_qr_scan"}, "fusion_lon": 0.0}, {"lat": 38.89819983333334, "is_disabled": 0, "type": "electric_scooter", "lon": -77.04024, "bike_id": "ff3e2da6e8d40a1ceb12c05239ee5925", "fusion_lat": 0.0, "name": "ff3e2da6e8d40a1ceb12c05239ee5925", "is_reserved": 0, "rental_uris": {"android": "https://dc.lft.to/lastmile_qr_scan", "ios": "https://dc.lft.to/lastmile_qr_scan"}, "fusion_lon": 0.0}, {"lat": 38.932889833333334, "is_disabled": 0, "type": "electric_scooter", "lon": -77.0397215, "bike_id": "774c2dcbc1a40c7bb30200b03390c6ac", "fusion_lat": 0.0, "name": "774c2dcbc1a40c7bb30200b03390c6ac", "is_reserved": 0, "rental_uris": {"android": "https://dc.lft.to/lastmile_qr_scan", "ios": "https://dc.lft.to/lastmile_qr_scan"}, "fusion_lon": 0.0}, {"lat": 38.90560933333333, "is_disabled": 0, "type": "electric_scooter", "lon": -77.02020916666666, "bike_id": "8ad58687f590ae48e2459d31cd58189b", "fusion_lat": 0.0, "name": "8ad58687f590ae48e2459d31cd58189b", "is_reserved": 0, "rental_uris": {"android": "https://dc.lft.to/lastmile_qr_scan", "ios": "https://dc.lft.to/lastmile_qr_scan"}, "fusion_lon": 0.0}, {"lat": 38.846580833333334, "is_disabled": 0, "type": "electric_bike", "lon": -76.97931, "bike_id": "0f77b4a8674e15517b9453ab32f04b8b", "fusion_lat": 0.0, "name": "0f77b4a8674e15517b9453ab32f04b8b", "is_reserved": 0, "rental_uris": {"android": "https://dc.lft.to/lastmile_qr_scan", "ios": "https://dc.lft.to/lastmile_qr_scan"}, "fusion_lon": 0.0}, {"lat": 38.90797533333333, "is_disabled": 0, "type": "electric_scooter", "lon": -77.046749, "bike_id": "4a27923418e8c4665f20cc90168acc6c", "fusion_lat": 0.0, "name": "4a27923418e8c4665f20cc90168acc6c", "is_reserved": 0, "rental_uris": {"android": "https://dc.lft.to/lastmile_qr_scan", "ios": "https://dc.lft.to/lastmile_qr_scan"}, "fusion_lon": 0.0}, {"lat": 38.931725666666665, "is_disabled": 0, "type": "electric_scooter", "lon": -77.02813283333333, "bike_id": "c491859e8566a76b0de85c8458ef89c1", "fusion_lat": 0.0, "name": "c491859e8566a76b0de85c8458ef89c1", "is_reserved": 0, "rental_uris": {"android": "https://dc.lft.to/lastmile_qr_scan", "ios": "https://dc.lft.to/lastmile_qr_scan"}, "fusion_lon": 0.0}, {"lat": 38.9540735, "is_disabled": 0, "type": "electric_scooter", "lon": -77.03631966666667, "bike_id": "4c3ad82d1ee0e3a94bc0c4d11467b3d3", "fusion_lat": 0.0, "name": "4c3ad82d1ee0e3a94bc0c4d11467b3d3", "is_reserved": 0, "rental_uris": {"android": "https://dc.lft.to/lastmile_qr_scan", "ios": "https://dc.lft.to/lastmile_qr_scan"}, "fusion_lon": 0.0}, {"lat": 38.90553666666667, "is_disabled": 0, "type": "electric_scooter", "lon": -77.034564, "bike_id": "c8e7fc448363d42ff8415322e56d3bfc", "fusion_lat": 0.0, "name": "c8e7fc448363d42ff8415322e56d3bfc", "is_reserved": 0, "rental_uris": {"android": "https://dc.lft.to/lastmile_qr_scan", "ios": "https://dc.lft.to/lastmile_qr_scan"}, "fusion_lon": 0.0}, {"lat": 38.9341415, "is_disabled": 0, "type": "electric_scooter", "lon": -77.057852, "bike_id": "ead008e9cf3871f992374892b036431b", "fusion_lat": 0.0, "name": "ead008e9cf3871f992374892b036431b", "is_reserved": 0, "rental_uris": {"android": "https://dc.lft.to/lastmile_qr_scan", "ios": "https://dc.lft.to/lastmile_qr_scan"}, "fusion_lon": 0.0}, {"lat": 38.9054435, "is_disabled": 0, "type": "electric_scooter", "lon": -77.033991, "bike_id": "28aa37b578560972a2967735a167ddfb", "fusion_lat": 0.0, "name": "28aa37b578560972a2967735a167ddfb", "is_reserved": 0, "rental_uris": {"android": "https://dc.lft.to/lastmile_qr_scan", "ios": "https://dc.lft.to/lastmile_qr_scan"}, "fusion_lon": 0.0}, {"lat": 38.91985566666666, "is_disabled": 0, "type": "electric_scooter", "lon": -77.03234266666666, "bike_id": "e53e1c734b2901dcf11e9efb903e6761", "fusion_lat": 0.0, "name": "e53e1c734b2901dcf11e9efb903e6761", "is_reserved": 0, "rental_uris": {"android": "https://dc.lft.to/lastmile_qr_scan", "ios": "https://dc.lft.to/lastmile_qr_scan"}, "fusion_lon": 0.0}, {"lat": 38.922078166666665, "is_disabled": 0, "type": "electric_scooter", "lon": -77.0413165, "bike_id": "c3dd9b53b16d41565281c26276de676f", "fusion_lat": 0.0, "name": "c3dd9b53b16d41565281c26276de676f", "is_reserved": 0, "rental_uris": {"android": "https://dc.lft.to/lastmile_qr_scan", "ios": "https://dc.lft.to/lastmile_qr_scan"}, "fusion_lon": 0.0}, {"lat": 38.8690495, "is_disabled": 0, "type": "electric_bike", "lon": -77.13182633333334, "bike_id": "0c06a8276c03b31aab77ffae5fc13655", "fusion_lat": 0.0, "name": "0c06a8276c03b31aab77ffae5fc13655", "is_reserved": 0, "rental_uris": {"android": "https://dc.lft.to/lastmile_qr_scan", "ios": "https://dc.lft.to/lastmile_qr_scan"}, "fusion_lon": 0.0}, {"lat": 38.91046466666667, "is_disabled": 0, "type": "electric_scooter", "lon": -77.01514166666666, "bike_id": "1fc621b29314335fcaf9a2dc08429e34", "fusion_lat": 0.0, "name": "1fc621b29314335fcaf9a2dc08429e34", "is_reserved": 0, "rental_uris": {"android": "https://dc.lft.to/lastmile_qr_scan", "ios": "https://dc.lft.to/lastmile_qr_scan"}, "fusion_lon": 0.0}, {"lat": 38.902575666666664, "is_disabled": 0, "type": "electric_scooter", "lon": -77.018342, "bike_id": "d91232d24f4bd14c72ca4b6f259d4d3f", "fusion_lat": 0.0, "name": "d91232d24f4bd14c72ca4b6f259d4d3f", "is_reserved": 0, "rental_uris": {"android": "https://dc.lft.to/lastmile_qr_scan", "ios": "https://dc.lft.to/lastmile_qr_scan"}, "fusion_lon": 0.0}, {"lat": 38.899872, "is_disabled": 0, "type": "electric_scooter", "lon": -76.99486383333333, "bike_id": "87fa02ee3767c100157b00b8e048408b", "fusion_lat": 0.0, "name": "87fa02ee3767c100157b00b8e048408b", "is_reserved": 0, "rental_uris": {"android": "https://dc.lft.to/lastmile_qr_scan", "ios": "https://dc.lft.to/lastmile_qr_scan"}, "fusion_lon": 0.0}, {"lat": 38.890441333333335, "is_disabled": 0, "type": "electric_scooter", "lon": -76.951404, "bike_id": "8ebe8b17ce9b52c603ce29c2be1aaf3e", "fusion_lat": 0.0, "name": "8ebe8b17ce9b52c603ce29c2be1aaf3e", "is_reserved": 0, "rental_uris": {"android": "https://dc.lft.to/lastmile_qr_scan", "ios": "https://dc.lft.to/lastmile_qr_scan"}, "fusion_lon": 0.0}, {"lat": 38.90153866666667, "is_disabled": 0, "type": "electric_scooter", "lon": -77.02020683333333, "bike_id": "e2c76ab251a208abbc59f8fad3d685be", "fusion_lat": 0.0, "name": "e2c76ab251a208abbc59f8fad3d685be", "is_reserved": 0, "rental_uris": {"android": "https://dc.lft.to/lastmile_qr_scan", "ios": "https://dc.lft.to/lastmile_qr_scan"}, "fusion_lon": 0.0}, {"lat": 38.911880833333335, "is_disabled": 0, "type": "electric_scooter", "lon": -77.03844366666667, "bike_id": "9748131719d47b26ca3a8d0be7f90698", "fusion_lat": 0.0, "name": "9748131719d47b26ca3a8d0be7f90698", "is_reserved": 0, "rental_uris": {"android": "https://dc.lft.to/lastmile_qr_scan", "ios": "https://dc.lft.to/lastmile_qr_scan"}, "fusion_lon": 0.0}, {"lat": 38.90733066666667, "is_disabled": 0, "type": "electric_scooter", "lon": -77.04826433333334, "bike_id": "ca44190383b930bfcf5f6aef3bdc0418", "fusion_lat": 0.0, "name": "ca44190383b930bfcf5f6aef3bdc0418", "is_reserved": 0, "rental_uris": {"android": "https://dc.lft.to/lastmile_qr_scan", "ios": "https://dc.lft.to/lastmile_qr_scan"}, "fusion_lon": 0.0}, {"lat": 38.90968183333333, "is_disabled": 0, "type": "electric_scooter", "lon": -77.04516916666667, "bike_id": "1df7a26c3e4cabaf7e034cdc5db64866", "fusion_lat": 0.0, "name": "1df7a26c3e4cabaf7e034cdc5db64866", "is_reserved": 0, "rental_uris": {"android": "https://dc.lft.to/lastmile_qr_scan", "ios": "https://dc.lft.to/lastmile_qr_scan"}, "fusion_lon": 0.0}, {"lat": 38.929089833333336, "is_disabled": 0, "type": "electric_scooter", "lon": -77.03276283333334, "bike_id": "b83ed3048129f83e5ce977ee9200f5f7", "fusion_lat": 0.0, "name": "b83ed3048129f83e5ce977ee9200f5f7", "is_reserved": 0, "rental_uris": {"android": "https://dc.lft.to/lastmile_qr_scan", "ios": "https://dc.lft.to/lastmile_qr_scan"}, "fusion_lon": 0.0}, {"lat": 38.927042666666665, "is_disabled": 0, "type": "electric_scooter", "lon": -77.02327766666667, "bike_id": "3dc5d10a64abcfe39bf444baf62bd0d2", "fusion_lat": 0.0, "name": "3dc5d10a64abcfe39bf444baf62bd0d2", "is_reserved": 0, "rental_uris": {"android": "https://dc.lft.to/lastmile_qr_scan", "ios": "https://dc.lft.to/lastmile_qr_scan"}, "fusion_lon": 0.0}, {"lat": 39.03046166666667, "is_disabled": 0, "type": "electric_bike", "lon": -77.09488566666667, "bike_id": "fb53836a228d34574102e8d1e16faa56", "fusion_lat": 0.0, "name": "fb53836a228d34574102e8d1e16faa56", "is_reserved": 0, "rental_uris": {"android": "https://dc.lft.to/lastmile_qr_scan", "ios": "https://dc.lft.to/lastmile_qr_scan"}, "fusion_lon": 0.0}, {"lat": 38.9181375, "is_disabled": 0, "type": "electric_scooter", "lon": -77.02868816666667, "bike_id": "e82ec7ea8302a8520da22781324a51a1", "fusion_lat": 0.0, "name": "e82ec7ea8302a8520da22781324a51a1", "is_reserved": 0, "rental_uris": {"android": "https://dc.lft.to/lastmile_qr_scan", "ios": "https://dc.lft.to/lastmile_qr_scan"}, "fusion_lon": 0.0}, {"lat": 38.895230833333336, "is_disabled": 0, "type": "electric_scooter", "lon": -77.04356883333334, "bike_id": "62cb050c738e83829894356fa961817f", "fusion_lat": 0.0, "name": "62cb050c738e83829894356fa961817f", "is_reserved": 0, "rental_uris": {"android": "https://dc.lft.to/lastmile_qr_scan", "ios": "https://dc.lft.to/lastmile_qr_scan"}, "fusion_lon": 0.0}, {"lat": 38.88512383333333, "is_disabled": 0, "type": "electric_scooter", "lon": -77.00681383333334, "bike_id": "d631658fd899e749d54f6cd630e357ad", "fusion_lat": 0.0, "name": "d631658fd899e749d54f6cd630e357ad", "is_reserved": 0, "rental_uris": {"android": "https://dc.lft.to/lastmile_qr_scan", "ios": "https://dc.lft.to/lastmile_qr_scan"}, "fusion_lon": 0.0}, {"lat": 38.9231995, "is_disabled": 0, "type": "electric_scooter", "lon": -77.038942, "bike_id": "e247057f3432d7b39dcadbabc28c7086", "fusion_lat": 0.0, "name": "e247057f3432d7b39dcadbabc28c7086", "is_reserved": 0, "rental_uris": {"android": "https://dc.lft.to/lastmile_qr_scan", "ios": "https://dc.lft.to/lastmile_qr_scan"}, "fusion_lon": 0.0}, {"lat": 38.91946516666667, "is_disabled": 0, "type": "electric_scooter", "lon": -77.025029, "bike_id": "b992a974a8d744db869067fd85058a5b", "fusion_lat": 0.0, "name": "b992a974a8d744db869067fd85058a5b", "is_reserved": 0, "rental_uris": {"android": "https://dc.lft.to/lastmile_qr_scan", "ios": "https://dc.lft.to/lastmile_qr_scan"}, "fusion_lon": 0.0}, {"lat": 38.919515, "is_disabled": 0, "type": "electric_scooter", "lon": -76.98080183333333, "bike_id": "324fa6839a59db0fcf69868c470ca8b1", "fusion_lat": 0.0, "name": "324fa6839a59db0fcf69868c470ca8b1", "is_reserved": 0, "rental_uris": {"android": "https://dc.lft.to/lastmile_qr_scan", "ios": "https://dc.lft.to/lastmile_qr_scan"}, "fusion_lon": 0.0}, {"lat": 38.90328366666667, "is_disabled": 0, "type": "electric_scooter", "lon": -77.0378485, "bike_id": "bf13414bb58b3ded81a9fa263a2206b4", "fusion_lat": 0.0, "name": "bf13414bb58b3ded81a9fa263a2206b4", "is_reserved": 0, "rental_uris": {"android": "https://dc.lft.to/lastmile_qr_scan", "ios": "https://dc.lft.to/lastmile_qr_scan"}, "fusion_lon": 0.0}, {"lat": 38.91743183333333, "is_disabled": 0, "type": "electric_scooter", "lon": -77.02286966666667, "bike_id": "bc0f4d3c5047d3c165a6369a75b5c9a0", "fusion_lat": 0.0, "name": "bc0f4d3c5047d3c165a6369a75b5c9a0", "is_reserved": 0, "rental_uris": {"android": "https://dc.lft.to/lastmile_qr_scan", "ios": "https://dc.lft.to/lastmile_qr_scan"}, "fusion_lon": 0.0}, {"lat": 38.972293, "is_disabled": 0, "type": "electric_bike", "lon": -76.99344066666667, "bike_id": "83402827761976479e2fc94ae4acb109", "fusion_lat": 0.0, "name": "83402827761976479e2fc94ae4acb109", "is_reserved": 0, "rental_uris": {"android": "https://dc.lft.to/lastmile_qr_scan", "ios": "https://dc.lft.to/lastmile_qr_scan"}, "fusion_lon": 0.0}, {"lat": 38.860526666666665, "is_disabled": 0, "type": "electric_scooter", "lon": -77.05758616666667, "bike_id": "fcfceb42245df89e81d6f92d50729ca3", "fusion_lat": 0.0, "name": "fcfceb42245df89e81d6f92d50729ca3", "is_reserved": 0, "rental_uris": {"android": "https://dc.lft.to/lastmile_qr_scan", "ios": "https://dc.lft.to/lastmile_qr_scan"}, "fusion_lon": 0.0}, {"lat": 38.892380333333335, "is_disabled": 0, "type": "electric_scooter", "lon": -77.032111, "bike_id": "23c05e296bcc0df1bb054c912308aa20", "fusion_lat": 0.0, "name": "23c05e296bcc0df1bb054c912308aa20", "is_reserved": 0, "rental_uris": {"android": "https://dc.lft.to/lastmile_qr_scan", "ios": "https://dc.lft.to/lastmile_qr_scan"}, "fusion_lon": 0.0}, {"lat": 38.9223855, "is_disabled": 0, "type": "electric_scooter", "lon": -77.04571916666667, "bike_id": "316b0145f5fddf84f37f8a868c665924", "fusion_lat": 0.0, "name": "316b0145f5fddf84f37f8a868c665924", "is_reserved": 0, "rental_uris": {"android": "https://dc.lft.to/lastmile_qr_scan", "ios": "https://dc.lft.to/lastmile_qr_scan"}, "fusion_lon": 0.0}, {"lat": 38.915834333333336, "is_disabled": 0, "type": "electric_scooter", "lon": -77.0321205, "bike_id": "4d009afb119af1b1f264a37407041715", "fusion_lat": 0.0, "name": "4d009afb119af1b1f264a37407041715", "is_reserved": 0, "rental_uris": {"android": "https://dc.lft.to/lastmile_qr_scan", "ios": "https://dc.lft.to/lastmile_qr_scan"}, "fusion_lon": 0.0}, {"lat": 38.9295035, "is_disabled": 0, "type": "electric_scooter", "lon": -77.03266966666666, "bike_id": "16784573a20f8433efd57839bdaef741", "fusion_lat": 0.0, "name": "16784573a20f8433efd57839bdaef741", "is_reserved": 0, "rental_uris": {"android": "https://dc.lft.to/lastmile_qr_scan", "ios": "https://dc.lft.to/lastmile_qr_scan"}, "fusion_lon": 0.0}, {"lat": 38.9169525, "is_disabled": 0, "type": "electric_scooter", "lon": -77.04279466666667, "bike_id": "c936cadf73f35b276ee50e4c178c81f0", "fusion_lat": 0.0, "name": "c936cadf73f35b276ee50e4c178c81f0", "is_reserved": 0, "rental_uris": {"android": "https://dc.lft.to/lastmile_qr_scan", "ios": "https://dc.lft.to/lastmile_qr_scan"}, "fusion_lon": 0.0}, {"lat": 38.89226383333333, "is_disabled": 0, "type": "electric_scooter", "lon": -77.050077, "bike_id": "5b02fd6fbb6942e2ad7820755a942abb", "fusion_lat": 0.0, "name": "5b02fd6fbb6942e2ad7820755a942abb", "is_reserved": 0, "rental_uris": {"android": "https://dc.lft.to/lastmile_qr_scan", "ios": "https://dc.lft.to/lastmile_qr_scan"}, "fusion_lon": 0.0}, {"lat": 38.898899166666666, "is_disabled": 0, "type": "electric_scooter", "lon": -77.039589, "bike_id": "00abcad3809f5527bb6ea3c32f0fcea2", "fusion_lat": 0.0, "name": "00abcad3809f5527bb6ea3c32f0fcea2", "is_reserved": 0, "rental_uris": {"android": "https://dc.lft.to/lastmile_qr_scan", "ios": "https://dc.lft.to/lastmile_qr_scan"}, "fusion_lon": 0.0}, {"lat": 38.900365666666666, "is_disabled": 0, "type": "electric_scooter", "lon": -77.0058165, "bike_id": "89c3c2233ad9181b371ab291d4e02f7c", "fusion_lat": 0.0, "name": "89c3c2233ad9181b371ab291d4e02f7c", "is_reserved": 0, "rental_uris": {"android": "https://dc.lft.to/lastmile_qr_scan", "ios": "https://dc.lft.to/lastmile_qr_scan"}, "fusion_lon": 0.0}, {"lat": 38.91395633333333, "is_disabled": 0, "type": "electric_scooter", "lon": -77.04609916666666, "bike_id": "c98f762c2bcb204252b1f9a9feb249c2", "fusion_lat": 0.0, "name": "c98f762c2bcb204252b1f9a9feb249c2", "is_reserved": 0, "rental_uris": {"android": "https://dc.lft.to/lastmile_qr_scan", "ios": "https://dc.lft.to/lastmile_qr_scan"}, "fusion_lon": 0.0}, {"lat": 38.9246415, "is_disabled": 0, "type": "electric_bike", "lon": -77.20844816666667, "bike_id": "2ebe9b0035a3eb972bff7d6910ffda0c", "fusion_lat": 0.0, "name": "2ebe9b0035a3eb972bff7d6910ffda0c", "is_reserved": 0, "rental_uris": {"android": "https://dc.lft.to/lastmile_qr_scan", "ios": "https://dc.lft.to/lastmile_qr_scan"}, "fusion_lon": 0.0}, {"lat": 38.91050283333333, "is_disabled": 0, "type": "electric_scooter", "lon": -77.04342133333333, "bike_id": "3c2f2c1f9ad81a49fbafa7eed31a42a1", "fusion_lat": 0.0, "name": "3c2f2c1f9ad81a49fbafa7eed31a42a1", "is_reserved": 0, "rental_uris": {"android": "https://dc.lft.to/lastmile_qr_scan", "ios": "https://dc.lft.to/lastmile_qr_scan"}, "fusion_lon": 0.0}, {"lat": 38.95272883333333, "is_disabled": 0, "type": "electric_scooter", "lon": -77.036549, "bike_id": "324da8075b343ee9cb3c837fcf29cdc3", "fusion_lat": 0.0, "name": "324da8075b343ee9cb3c837fcf29cdc3", "is_reserved": 0, "rental_uris": {"android": "https://dc.lft.to/lastmile_qr_scan", "ios": "https://dc.lft.to/lastmile_qr_scan"}, "fusion_lon": 0.0}, {"lat": 38.922473333333336, "is_disabled": 0, "type": "electric_scooter", "lon": -76.99388783333333, "bike_id": "2165f50f52c0d2058dea6a1142dba45f", "fusion_lat": 0.0, "name": "2165f50f52c0d2058dea6a1142dba45f", "is_reserved": 0, "rental_uris": {"android": "https://dc.lft.to/lastmile_qr_scan", "ios": "https://dc.lft.to/lastmile_qr_scan"}, "fusion_lon": 0.0}, {"lat": 38.94454366666667, "is_disabled": 0, "type": "electric_scooter", "lon": -77.060334, "bike_id": "2f296362addd5098125c775343b167a4", "fusion_lat": 0.0, "name": "2f296362addd5098125c775343b167a4", "is_reserved": 0, "rental_uris": {"android": "https://dc.lft.to/lastmile_qr_scan", "ios": "https://dc.lft.to/lastmile_qr_scan"}, "fusion_lon": 0.0}, {"lat": 38.890928833333334, "is_disabled": 0, "type": "electric_scooter", "lon": -76.94302216666667, "bike_id": "800625be472e7293e7d93d853db1de54", "fusion_lat": 0.0, "name": "800625be472e7293e7d93d853db1de54", "is_reserved": 0, "rental_uris": {"android": "https://dc.lft.to/lastmile_qr_scan", "ios": "https://dc.lft.to/lastmile_qr_scan"}, "fusion_lon": 0.0}, {"lat": 38.858077333333334, "is_disabled": 0, "type": "electric_scooter", "lon": -76.98655, "bike_id": "f437a7dc5aeeb34bbe75911663557aff", "fusion_lat": 0.0, "name": "f437a7dc5aeeb34bbe75911663557aff", "is_reserved": 0, "rental_uris": {"android": "https://dc.lft.to/lastmile_qr_scan", "ios": "https://dc.lft.to/lastmile_qr_scan"}, "fusion_lon": 0.0}, {"lat": 38.918137333333334, "is_disabled": 0, "type": "electric_scooter", "lon": -77.02876066666667, "bike_id": "d568e00369c6bd155251b1376a546a76", "fusion_lat": 0.0, "name": "d568e00369c6bd155251b1376a546a76", "is_reserved": 0, "rental_uris": {"android": "https://dc.lft.to/lastmile_qr_scan", "ios": "https://dc.lft.to/lastmile_qr_scan"}, "fusion_lon": 0.0}, {"lat": 38.9180775, "is_disabled": 0, "type": "electric_scooter", "lon": -77.03663266666666, "bike_id": "66011bf3d3790ec221a3fa9ddda144a8", "fusion_lat": 0.0, "name": "66011bf3d3790ec221a3fa9ddda144a8", "is_reserved": 0, "rental_uris": {"android": "https://dc.lft.to/lastmile_qr_scan", "ios": "https://dc.lft.to/lastmile_qr_scan"}, "fusion_lon": 0.0}, {"lat": 38.855151166666666, "is_disabled": 0, "type": "electric_bike", "lon": -76.98430266666666, "bike_id": "65d2ec8a76c2615c25ff0fde83095a51", "fusion_lat": 0.0, "name": "65d2ec8a76c2615c25ff0fde83095a51", "is_reserved": 0, "rental_uris": {"android": "https://dc.lft.to/lastmile_qr_scan", "ios": "https://dc.lft.to/lastmile_qr_scan"}, "fusion_lon": 0.0}, {"lat": 38.89221533333333, "is_disabled": 0, "type": "electric_scooter", "lon": -77.04867466666667, "bike_id": "f6a672fd152da13529308a0dcb6d84bc", "fusion_lat": 0.0, "name": "f6a672fd152da13529308a0dcb6d84bc", "is_reserved": 0, "rental_uris": {"android": "https://dc.lft.to/lastmile_qr_scan", "ios": "https://dc.lft.to/lastmile_qr_scan"}, "fusion_lon": 0.0}, {"lat": 38.8481825, "is_disabled": 0, "type": "electric_bike", "lon": -77.0790905, "bike_id": "20ae225ae8966a8079bb5d3bad52f1c3", "fusion_lat": 0.0, "name": "20ae225ae8966a8079bb5d3bad52f1c3", "is_reserved": 0, "rental_uris": {"android": "https://dc.lft.to/lastmile_qr_scan", "ios": "https://dc.lft.to/lastmile_qr_scan"}, "fusion_lon": 0.0}, {"lat": 38.897547333333335, "is_disabled": 0, "type": "electric_scooter", "lon": -76.9418465, "bike_id": "246277924b39cda88c47e619e2a736af", "fusion_lat": 0.0, "name": "246277924b39cda88c47e619e2a736af", "is_reserved": 0, "rental_uris": {"android": "https://dc.lft.to/lastmile_qr_scan", "ios": "https://dc.lft.to/lastmile_qr_scan"}, "fusion_lon": 0.0}, {"lat": 38.8948595, "is_disabled": 0, "type": "electric_scooter", "lon": -77.02812, "bike_id": "ed4e5191fa51f991f8f86aaafceacd4c", "fusion_lat": 0.0, "name": "ed4e5191fa51f991f8f86aaafceacd4c", "is_reserved": 0, "rental_uris": {"android": "https://dc.lft.to/lastmile_qr_scan", "ios": "https://dc.lft.to/lastmile_qr_scan"}, "fusion_lon": 0.0}, {"lat": 38.903605666666664, "is_disabled": 0, "type": "electric_scooter", "lon": -77.03909766666666, "bike_id": "0c0b4520eef64903b4cbc58f9ef45b7c", "fusion_lat": 0.0, "name": "0c0b4520eef64903b4cbc58f9ef45b7c", "is_reserved": 0, "rental_uris": {"android": "https://dc.lft.to/lastmile_qr_scan", "ios": "https://dc.lft.to/lastmile_qr_scan"}, "fusion_lon": 0.0}, {"lat": 38.902387, "is_disabled": 0, "type": "electric_scooter", "lon": -77.0269415, "bike_id": "6faf246c14ef5954df63ebf6793cdece", "fusion_lat": 0.0, "name": "6faf246c14ef5954df63ebf6793cdece", "is_reserved": 0, "rental_uris": {"android": "https://dc.lft.to/lastmile_qr_scan", "ios": "https://dc.lft.to/lastmile_qr_scan"}, "fusion_lon": 0.0}, {"lat": 38.901253833333335, "is_disabled": 0, "type": "electric_scooter", "lon": -77.03184833333333, "bike_id": "6e8c7c3e40c9b80ed70b9a19fb95af05", "fusion_lat": 0.0, "name": "6e8c7c3e40c9b80ed70b9a19fb95af05", "is_reserved": 0, "rental_uris": {"android": "https://dc.lft.to/lastmile_qr_scan", "ios": "https://dc.lft.to/lastmile_qr_scan"}, "fusion_lon": 0.0}, {"lat": 38.90642016666666, "is_disabled": 0, "type": "electric_scooter", "lon": -77.04874916666667, "bike_id": "a726cf5c38132840f4e54c3043cdb702", "fusion_lat": 0.0, "name": "a726cf5c38132840f4e54c3043cdb702", "is_reserved": 0, "rental_uris": {"android": "https://dc.lft.to/lastmile_qr_scan", "ios": "https://dc.lft.to/lastmile_qr_scan"}, "fusion_lon": 0.0}, {"lat": 38.88431283333333, "is_disabled": 0, "type": "electric_scooter", "lon": -76.95761833333333, "bike_id": "6af5b144dd24e771c12d0ac24436bede", "fusion_lat": 0.0, "name": "6af5b144dd24e771c12d0ac24436bede", "is_reserved": 0, "rental_uris": {"android": "https://dc.lft.to/lastmile_qr_scan", "ios": "https://dc.lft.to/lastmile_qr_scan"}, "fusion_lon": 0.0}, {"lat": 38.885138, "is_disabled": 0, "type": "electric_scooter", "lon": -77.00570183333333, "bike_id": "bda1faa0c2c5f1c96a52ab4495553b1b", "fusion_lat": 0.0, "name": "bda1faa0c2c5f1c96a52ab4495553b1b", "is_reserved": 0, "rental_uris": {"android": "https://dc.lft.to/lastmile_qr_scan", "ios": "https://dc.lft.to/lastmile_qr_scan"}, "fusion_lon": 0.0}, {"lat": 38.92050283333333, "is_disabled": 0, "type": "electric_scooter", "lon": -77.02431233333333, "bike_id": "3fb0307e438d32591a30759f895e214b", "fusion_lat": 0.0, "name": "3fb0307e438d32591a30759f895e214b", "is_reserved": 0, "rental_uris": {"android": "https://dc.lft.to/lastmile_qr_scan", "ios": "https://dc.lft.to/lastmile_qr_scan"}, "fusion_lon": 0.0}, {"lat": 38.95401833333333, "is_disabled": 0, "type": "electric_scooter", "lon": -77.02750466666667, "bike_id": "1e73ee3488ef460d71d7f31439287f4b", "fusion_lat": 0.0, "name": "1e73ee3488ef460d71d7f31439287f4b", "is_reserved": 0, "rental_uris": {"android": "https://dc.lft.to/lastmile_qr_scan", "ios": "https://dc.lft.to/lastmile_qr_scan"}, "fusion_lon": 0.0}, {"lat": 38.90782316666667, "is_disabled": 0, "type": "electric_scooter", "lon": -77.06405416666666, "bike_id": "d848617ae9078bf603ff5ce158077efd", "fusion_lat": 0.0, "name": "d848617ae9078bf603ff5ce158077efd", "is_reserved": 0, "rental_uris": {"android": "https://dc.lft.to/lastmile_qr_scan", "ios": "https://dc.lft.to/lastmile_qr_scan"}, "fusion_lon": 0.0}, {"lat": 38.903202666666665, "is_disabled": 0, "type": "electric_scooter", "lon": -77.02546466666666, "bike_id": "a24c334f8075826f88ffaaf6920903c1", "fusion_lat": 0.0, "name": "a24c334f8075826f88ffaaf6920903c1", "is_reserved": 0, "rental_uris": {"android": "https://dc.lft.to/lastmile_qr_scan", "ios": "https://dc.lft.to/lastmile_qr_scan"}, "fusion_lon": 0.0}, {"lat": 38.909454833333335, "is_disabled": 0, "type": "electric_scooter", "lon": -77.0406175, "bike_id": "6afbe0ba1118e93612139ec8688e5c1e", "fusion_lat": 0.0, "name": "6afbe0ba1118e93612139ec8688e5c1e", "is_reserved": 0, "rental_uris": {"android": "https://dc.lft.to/lastmile_qr_scan", "ios": "https://dc.lft.to/lastmile_qr_scan"}, "fusion_lon": 0.0}, {"lat": 38.92868583333333, "is_disabled": 0, "type": "electric_scooter", "lon": -77.03222383333333, "bike_id": "76fba110db34f36545d1e4a3a56b8955", "fusion_lat": 0.0, "name": "76fba110db34f36545d1e4a3a56b8955", "is_reserved": 0, "rental_uris": {"android": "https://dc.lft.to/lastmile_qr_scan", "ios": "https://dc.lft.to/lastmile_qr_scan"}, "fusion_lon": 0.0}, {"lat": 38.80268216666666, "is_disabled": 0, "type": "electric_bike", "lon": -77.0811225, "bike_id": "c607e91a383dcf1916239d969002eade", "fusion_lat": 0.0, "name": "c607e91a383dcf1916239d969002eade", "is_reserved": 0, "rental_uris": {"android": "https://dc.lft.to/lastmile_qr_scan", "ios": "https://dc.lft.to/lastmile_qr_scan"}, "fusion_lon": 0.0}, {"lat": 38.900339333333335, "is_disabled": 0, "type": "electric_scooter", "lon": -77.03193216666666, "bike_id": "2ac5b24602f17be9b95b13ca32b986d6", "fusion_lat": 0.0, "name": "2ac5b24602f17be9b95b13ca32b986d6", "is_reserved": 0, "rental_uris": {"android": "https://dc.lft.to/lastmile_qr_scan", "ios": "https://dc.lft.to/lastmile_qr_scan"}, "fusion_lon": 0.0}, {"lat": 38.89624333333333, "is_disabled": 0, "type": "electric_scooter", "lon": -77.023037, "bike_id": "25416f18e434ee77b6650951e0b0ee9c", "fusion_lat": 0.0, "name": "25416f18e434ee77b6650951e0b0ee9c", "is_reserved": 0, "rental_uris": {"android": "https://dc.lft.to/lastmile_qr_scan", "ios": "https://dc.lft.to/lastmile_qr_scan"}, "fusion_lon": 0.0}, {"lat": 38.917106, "is_disabled": 0, "type": "electric_scooter", "lon": -77.03501683333333, "bike_id": "61643d34f6ce497c1f5b14d0b0eb2123", "fusion_lat": 0.0, "name": "61643d34f6ce497c1f5b14d0b0eb2123", "is_reserved": 0, "rental_uris": {"android": "https://dc.lft.to/lastmile_qr_scan", "ios": "https://dc.lft.to/lastmile_qr_scan"}, "fusion_lon": 0.0}, {"lat": 38.931945666666664, "is_disabled": 0, "type": "electric_scooter", "lon": -77.02359883333334, "bike_id": "d09462f78769217b09640cb7910cc7b8", "fusion_lat": 0.0, "name": "d09462f78769217b09640cb7910cc7b8", "is_reserved": 0, "rental_uris": {"android": "https://dc.lft.to/lastmile_qr_scan", "ios": "https://dc.lft.to/lastmile_qr_scan"}, "fusion_lon": 0.0}, {"lat": 38.91731266666667, "is_disabled": 0, "type": "electric_scooter", "lon": -77.02405883333333, "bike_id": "1163d12375272066db9c15a28b3a358d", "fusion_lat": 0.0, "name": "1163d12375272066db9c15a28b3a358d", "is_reserved": 0, "rental_uris": {"android": "https://dc.lft.to/lastmile_qr_scan", "ios": "https://dc.lft.to/lastmile_qr_scan"}, "fusion_lon": 0.0}, {"lat": 38.908995, "is_disabled": 0, "type": "electric_scooter", "lon": -77.04310733333334, "bike_id": "b788e2e297d47f9f98f8734fc1e94909", "fusion_lat": 0.0, "name": "b788e2e297d47f9f98f8734fc1e94909", "is_reserved": 0, "rental_uris": {"android": "https://dc.lft.to/lastmile_qr_scan", "ios": "https://dc.lft.to/lastmile_qr_scan"}, "fusion_lon": 0.0}, {"lat": 38.939566666666664, "is_disabled": 0, "type": "electric_bike", "lon": -77.36091016666667, "bike_id": "82bb78133be8046820721abc8b275695", "fusion_lat": 0.0, "name": "82bb78133be8046820721abc8b275695", "is_reserved": 0, "rental_uris": {"android": "https://dc.lft.to/lastmile_qr_scan", "ios": "https://dc.lft.to/lastmile_qr_scan"}, "fusion_lon": 0.0}, {"lat": 38.9170655, "is_disabled": 0, "type": "electric_scooter", "lon": -77.00115566666666, "bike_id": "77fb85de13e3433265822f3ac4a45a4d", "fusion_lat": 0.0, "name": "77fb85de13e3433265822f3ac4a45a4d", "is_reserved": 0, "rental_uris": {"android": "https://dc.lft.to/lastmile_qr_scan", "ios": "https://dc.lft.to/lastmile_qr_scan"}, "fusion_lon": 0.0}, {"lat": 38.952886166666666, "is_disabled": 0, "type": "electric_bike", "lon": -76.94599316666667, "bike_id": "3e4c60356ddcd85724b88cde43532036", "fusion_lat": 0.0, "name": "3e4c60356ddcd85724b88cde43532036", "is_reserved": 0, "rental_uris": {"android": "https://dc.lft.to/lastmile_qr_scan", "ios": "https://dc.lft.to/lastmile_qr_scan"}, "fusion_lon": 0.0}, {"lat": 38.8955515, "is_disabled": 0, "type": "electric_scooter", "lon": -76.9308405, "bike_id": "2a240900c4d7a52e8d3026feeac6529f", "fusion_lat": 0.0, "name": "2a240900c4d7a52e8d3026feeac6529f", "is_reserved": 0, "rental_uris": {"android": "https://dc.lft.to/lastmile_qr_scan", "ios": "https://dc.lft.to/lastmile_qr_scan"}, "fusion_lon": 0.0}, {"lat": 38.95628466666667, "is_disabled": 0, "type": "electric_bike", "lon": -77.0229275, "bike_id": "9753a59ed46014b76fe6b0ea945e08d6", "fusion_lat": 0.0, "name": "9753a59ed46014b76fe6b0ea945e08d6", "is_reserved": 0, "rental_uris": {"android": "https://dc.lft.to/lastmile_qr_scan", "ios": "https://dc.lft.to/lastmile_qr_scan"}, "fusion_lon": 0.0}, {"lat": 38.90585816666667, "is_disabled": 0, "type": "electric_scooter", "lon": -77.04683, "bike_id": "d41c84aa0df06d73342cf0f9777eaa31", "fusion_lat": 0.0, "name": "d41c84aa0df06d73342cf0f9777eaa31", "is_reserved": 0, "rental_uris": {"android": "https://dc.lft.to/lastmile_qr_scan", "ios": "https://dc.lft.to/lastmile_qr_scan"}, "fusion_lon": 0.0}, {"lat": 38.92002566666667, "is_disabled": 0, "type": "electric_scooter", "lon": -77.0387475, "bike_id": "514f690abbef5ef82ca2068b720660ca", "fusion_lat": 0.0, "name": "514f690abbef5ef82ca2068b720660ca", "is_reserved": 0, "rental_uris": {"android": "https://dc.lft.to/lastmile_qr_scan", "ios": "https://dc.lft.to/lastmile_qr_scan"}, "fusion_lon": 0.0}, {"lat": 38.9275485, "is_disabled": 0, "type": "electric_scooter", "lon": -77.03219133333333, "bike_id": "ece51d5fea75fb1cf33ffe44d1666c59", "fusion_lat": 0.0, "name": "ece51d5fea75fb1cf33ffe44d1666c59", "is_reserved": 0, "rental_uris": {"android": "https://dc.lft.to/lastmile_qr_scan", "ios": "https://dc.lft.to/lastmile_qr_scan"}, "fusion_lon": 0.0}, {"lat": 38.922863, "is_disabled": 0, "type": "electric_scooter", "lon": -77.029687, "bike_id": "31b077d9683863339c3d94622d2ef64a", "fusion_lat": 0.0, "name": "31b077d9683863339c3d94622d2ef64a", "is_reserved": 0, "rental_uris": {"android": "https://dc.lft.to/lastmile_qr_scan", "ios": "https://dc.lft.to/lastmile_qr_scan"}, "fusion_lon": 0.0}, {"lat": 38.92800583333333, "is_disabled": 0, "type": "electric_scooter", "lon": -77.04318333333333, "bike_id": "d738b0da8d36728f35990e1fa03629ec", "fusion_lat": 0.0, "name": "d738b0da8d36728f35990e1fa03629ec", "is_reserved": 0, "rental_uris": {"android": "https://dc.lft.to/lastmile_qr_scan", "ios": "https://dc.lft.to/lastmile_qr_scan"}, "fusion_lon": 0.0}, {"lat": 38.866570333333335, "is_disabled": 0, "type": "electric_scooter", "lon": -76.98884366666667, "bike_id": "33988df54b31e389979b484d4903a2c8", "fusion_lat": 0.0, "name": "33988df54b31e389979b484d4903a2c8", "is_reserved": 0, "rental_uris": {"android": "https://dc.lft.to/lastmile_qr_scan", "ios": "https://dc.lft.to/lastmile_qr_scan"}, "fusion_lon": 0.0}, {"lat": 38.9398455, "is_disabled": 0, "type": "electric_scooter", "lon": -77.071825, "bike_id": "be60fce5896c768afa016f4e736b5ad1", "fusion_lat": 0.0, "name": "be60fce5896c768afa016f4e736b5ad1", "is_reserved": 0, "rental_uris": {"android": "https://dc.lft.to/lastmile_qr_scan", "ios": "https://dc.lft.to/lastmile_qr_scan"}, "fusion_lon": 0.0}, {"lat": 38.925692833333336, "is_disabled": 0, "type": "electric_scooter", "lon": -77.057669, "bike_id": "1a18a39454464b85c44e3ab337a0d60e", "fusion_lat": 0.0, "name": "1a18a39454464b85c44e3ab337a0d60e", "is_reserved": 0, "rental_uris": {"android": "https://dc.lft.to/lastmile_qr_scan", "ios": "https://dc.lft.to/lastmile_qr_scan"}, "fusion_lon": 0.0}, {"lat": 38.899261833333334, "is_disabled": 0, "type": "electric_scooter", "lon": -77.03935716666666, "bike_id": "96e4e4a4e16ab7755654a5ed4e7afac7", "fusion_lat": 0.0, "name": "96e4e4a4e16ab7755654a5ed4e7afac7", "is_reserved": 0, "rental_uris": {"android": "https://dc.lft.to/lastmile_qr_scan", "ios": "https://dc.lft.to/lastmile_qr_scan"}, "fusion_lon": 0.0}, {"lat": 38.89732583333333, "is_disabled": 0, "type": "electric_scooter", "lon": -77.04540483333334, "bike_id": "09cbf12b4e11ecd99974482830640956", "fusion_lat": 0.0, "name": "09cbf12b4e11ecd99974482830640956", "is_reserved": 0, "rental_uris": {"android": "https://dc.lft.to/lastmile_qr_scan", "ios": "https://dc.lft.to/lastmile_qr_scan"}, "fusion_lon": 0.0}, {"lat": 38.89915583333333, "is_disabled": 0, "type": "electric_scooter", "lon": -76.93349366666666, "bike_id": "d3f539e53e2a9ce1a7d571ea7a1c97ee", "fusion_lat": 0.0, "name": "d3f539e53e2a9ce1a7d571ea7a1c97ee", "is_reserved": 0, "rental_uris": {"android": "https://dc.lft.to/lastmile_qr_scan", "ios": "https://dc.lft.to/lastmile_qr_scan"}, "fusion_lon": 0.0}, {"lat": 38.9167865, "is_disabled": 0, "type": "electric_scooter", "lon": -77.02975683333334, "bike_id": "f5af685a97f54e0fea35ef8f65e20be2", "fusion_lat": 0.0, "name": "f5af685a97f54e0fea35ef8f65e20be2", "is_reserved": 0, "rental_uris": {"android": "https://dc.lft.to/lastmile_qr_scan", "ios": "https://dc.lft.to/lastmile_qr_scan"}, "fusion_lon": 0.0}, {"lat": 38.93269433333333, "is_disabled": 0, "type": "electric_scooter", "lon": -77.03267616666666, "bike_id": "2ffb20cafd52615fe0cd5e6dbbb18750", "fusion_lat": 0.0, "name": "2ffb20cafd52615fe0cd5e6dbbb18750", "is_reserved": 0, "rental_uris": {"android": "https://dc.lft.to/lastmile_qr_scan", "ios": "https://dc.lft.to/lastmile_qr_scan"}, "fusion_lon": 0.0}, {"lat": 38.879939666666665, "is_disabled": 0, "type": "electric_scooter", "lon": -76.98546666666667, "bike_id": "b16c16fed9d2057ad152458e923879cf", "fusion_lat": 0.0, "name": "b16c16fed9d2057ad152458e923879cf", "is_reserved": 0, "rental_uris": {"android": "https://dc.lft.to/lastmile_qr_scan", "ios": "https://dc.lft.to/lastmile_qr_scan"}, "fusion_lon": 0.0}, {"lat": 38.8925805, "is_disabled": 0, "type": "electric_scooter", "lon": -76.94160233333334, "bike_id": "e629dcf907908f206c2ce495613f5441", "fusion_lat": 0.0, "name": "e629dcf907908f206c2ce495613f5441", "is_reserved": 0, "rental_uris": {"android": "https://dc.lft.to/lastmile_qr_scan", "ios": "https://dc.lft.to/lastmile_qr_scan"}, "fusion_lon": 0.0}, {"lat": 38.80683166666667, "is_disabled": 0, "type": "electric_bike", "lon": -77.081204, "bike_id": "48db7dbf7a7345393e3e69b9f972d21b", "fusion_lat": 0.0, "name": "48db7dbf7a7345393e3e69b9f972d21b", "is_reserved": 0, "rental_uris": {"android": "https://dc.lft.to/lastmile_qr_scan", "ios": "https://dc.lft.to/lastmile_qr_scan"}, "fusion_lon": 0.0}, {"lat": 38.8056185, "is_disabled": 0, "type": "electric_bike", "lon": -77.132454, "bike_id": "e50cf21c6087bdc175ede226445c7fd2", "fusion_lat": 0.0, "name": "e50cf21c6087bdc175ede226445c7fd2", "is_reserved": 0, "rental_uris": {"android": "https://dc.lft.to/lastmile_qr_scan", "ios": "https://dc.lft.to/lastmile_qr_scan"}, "fusion_lon": 0.0}, {"lat": 38.904043, "is_disabled": 0, "type": "electric_scooter", "lon": -77.02087383333334, "bike_id": "958768be5100222e25cf5ef777e56cc4", "fusion_lat": 0.0, "name": "958768be5100222e25cf5ef777e56cc4", "is_reserved": 0, "rental_uris": {"android": "https://dc.lft.to/lastmile_qr_scan", "ios": "https://dc.lft.to/lastmile_qr_scan"}, "fusion_lon": 0.0}, {"lat": 38.85815516666667, "is_disabled": 0, "type": "electric_scooter", "lon": -76.98990633333334, "bike_id": "e21101b66317fce22f0f5471b07e0037", "fusion_lat": 0.0, "name": "e21101b66317fce22f0f5471b07e0037", "is_reserved": 0, "rental_uris": {"android": "https://dc.lft.to/lastmile_qr_scan", "ios": "https://dc.lft.to/lastmile_qr_scan"}, "fusion_lon": 0.0}, {"lat": 38.897673833333336, "is_disabled": 0, "type": "electric_scooter", "lon": -77.03207716666667, "bike_id": "7e22ac282d4f5915698e26cdc389c234", "fusion_lat": 0.0, "name": "7e22ac282d4f5915698e26cdc389c234", "is_reserved": 0, "rental_uris": {"android": "https://dc.lft.to/lastmile_qr_scan", "ios": "https://dc.lft.to/lastmile_qr_scan"}, "fusion_lon": 0.0}, {"lat": 38.927567, "is_disabled": 0, "type": "electric_scooter", "lon": -77.02317533333333, "bike_id": "0ade792b6a7fd057110e6a97e8acbb66", "fusion_lat": 0.0, "name": "0ade792b6a7fd057110e6a97e8acbb66", "is_reserved": 0, "rental_uris": {"android": "https://dc.lft.to/lastmile_qr_scan", "ios": "https://dc.lft.to/lastmile_qr_scan"}, "fusion_lon": 0.0}, {"lat": 38.916995, "is_disabled": 0, "type": "electric_scooter", "lon": -77.04340416666666, "bike_id": "254c4718bb94e43385fe72066a52037a", "fusion_lat": 0.0, "name": "254c4718bb94e43385fe72066a52037a", "is_reserved": 0, "rental_uris": {"android": "https://dc.lft.to/lastmile_qr_scan", "ios": "https://dc.lft.to/lastmile_qr_scan"}, "fusion_lon": 0.0}, {"lat": 38.93566466666667, "is_disabled": 0, "type": "electric_scooter", "lon": -77.08769383333333, "bike_id": "c7eb460691a52265509989b53f4c1e38", "fusion_lat": 0.0, "name": "c7eb460691a52265509989b53f4c1e38", "is_reserved": 0, "rental_uris": {"android": "https://dc.lft.to/lastmile_qr_scan", "ios": "https://dc.lft.to/lastmile_qr_scan"}, "fusion_lon": 0.0}, {"lat": 38.952683, "is_disabled": 0, "type": "electric_bike", "lon": -77.06986433333333, "bike_id": "921c9e70ee56ea313932b75ccbccb495", "fusion_lat": 0.0, "name": "921c9e70ee56ea313932b75ccbccb495", "is_reserved": 0, "rental_uris": {"android": "https://dc.lft.to/lastmile_qr_scan", "ios": "https://dc.lft.to/lastmile_qr_scan"}, "fusion_lon": 0.0}, {"lat": 38.90488666666667, "is_disabled": 0, "type": "electric_scooter", "lon": -77.00136683333334, "bike_id": "ecc22cbc20a964d841e4d5ecb8e44585", "fusion_lat": 0.0, "name": "ecc22cbc20a964d841e4d5ecb8e44585", "is_reserved": 0, "rental_uris": {"android": "https://dc.lft.to/lastmile_qr_scan", "ios": "https://dc.lft.to/lastmile_qr_scan"}, "fusion_lon": 0.0}, {"lat": 38.9068165, "is_disabled": 0, "type": "electric_scooter", "lon": -77.027012, "bike_id": "50ed9ef7a2e5de7fcc7b23fd6b032f4a", "fusion_lat": 0.0, "name": "50ed9ef7a2e5de7fcc7b23fd6b032f4a", "is_reserved": 0, "rental_uris": {"android": "https://dc.lft.to/lastmile_qr_scan", "ios": "https://dc.lft.to/lastmile_qr_scan"}, "fusion_lon": 0.0}, {"lat": 38.91664866666667, "is_disabled": 0, "type": "electric_scooter", "lon": -77.02394666666666, "bike_id": "b4ee531cf71c01cca69d54f4061bf958", "fusion_lat": 0.0, "name": "b4ee531cf71c01cca69d54f4061bf958", "is_reserved": 0, "rental_uris": {"android": "https://dc.lft.to/lastmile_qr_scan", "ios": "https://dc.lft.to/lastmile_qr_scan"}, "fusion_lon": 0.0}, {"lat": 38.920051666666666, "is_disabled": 0, "type": "electric_scooter", "lon": -77.01731683333334, "bike_id": "414914ade4c9a95228d0f7425320eed2", "fusion_lat": 0.0, "name": "414914ade4c9a95228d0f7425320eed2", "is_reserved": 0, "rental_uris": {"android": "https://dc.lft.to/lastmile_qr_scan", "ios": "https://dc.lft.to/lastmile_qr_scan"}, "fusion_lon": 0.0}, {"lat": 38.903684, "is_disabled": 0, "type": "electric_scooter", "lon": -77.007552, "bike_id": "50375cdf1a64f2a78289dc99a7070ea7", "fusion_lat": 0.0, "name": "50375cdf1a64f2a78289dc99a7070ea7", "is_reserved": 0, "rental_uris": {"android": "https://dc.lft.to/lastmile_qr_scan", "ios": "https://dc.lft.to/lastmile_qr_scan"}, "fusion_lon": 0.0}, {"lat": 38.887634, "is_disabled": 0, "type": "electric_scooter", "lon": -76.95598916666667, "bike_id": "3c0ceddcdd7739c050432adc5137d087", "fusion_lat": 0.0, "name": "3c0ceddcdd7739c050432adc5137d087", "is_reserved": 0, "rental_uris": {"android": "https://dc.lft.to/lastmile_qr_scan", "ios": "https://dc.lft.to/lastmile_qr_scan"}, "fusion_lon": 0.0}, {"lat": 38.909518, "is_disabled": 0, "type": "electric_scooter", "lon": -77.01837766666667, "bike_id": "9ff2c98c73785ea206e328456e118861", "fusion_lat": 0.0, "name": "9ff2c98c73785ea206e328456e118861", "is_reserved": 0, "rental_uris": {"android": "https://dc.lft.to/lastmile_qr_scan", "ios": "https://dc.lft.to/lastmile_qr_scan"}, "fusion_lon": 0.0}, {"lat": 38.922217333333336, "is_disabled": 0, "type": "electric_scooter", "lon": -77.0424795, "bike_id": "dcb495c6b9deade820231c1cac839f19", "fusion_lat": 0.0, "name": "dcb495c6b9deade820231c1cac839f19", "is_reserved": 0, "rental_uris": {"android": "https://dc.lft.to/lastmile_qr_scan", "ios": "https://dc.lft.to/lastmile_qr_scan"}, "fusion_lon": 0.0}, {"lat": 38.94222583333333, "is_disabled": 0, "type": "electric_scooter", "lon": -77.01394216666667, "bike_id": "7acb7fa69e1ac2eaea98df93e5d51a63", "fusion_lat": 0.0, "name": "7acb7fa69e1ac2eaea98df93e5d51a63", "is_reserved": 0, "rental_uris": {"android": "https://dc.lft.to/lastmile_qr_scan", "ios": "https://dc.lft.to/lastmile_qr_scan"}, "fusion_lon": 0.0}, {"lat": 38.903690166666664, "is_disabled": 0, "type": "electric_scooter", "lon": -77.06287666666667, "bike_id": "1587693a431d0a8fc5c4d54cc315b614", "fusion_lat": 0.0, "name": "1587693a431d0a8fc5c4d54cc315b614", "is_reserved": 0, "rental_uris": {"android": "https://dc.lft.to/lastmile_qr_scan", "ios": "https://dc.lft.to/lastmile_qr_scan"}, "fusion_lon": 0.0}, {"lat": 38.931125, "is_disabled": 0, "type": "electric_scooter", "lon": -77.03031233333333, "bike_id": "c29cd144c4e5598be55e775433a7159a", "fusion_lat": 0.0, "name": "c29cd144c4e5598be55e775433a7159a", "is_reserved": 0, "rental_uris": {"android": "https://dc.lft.to/lastmile_qr_scan", "ios": "https://dc.lft.to/lastmile_qr_scan"}, "fusion_lon": 0.0}, {"lat": 38.8900555, "is_disabled": 0, "type": "electric_scooter", "lon": -76.937442, "bike_id": "96b06c89b004198938e01fc744a5563e", "fusion_lat": 0.0, "name": "96b06c89b004198938e01fc744a5563e", "is_reserved": 0, "rental_uris": {"android": "https://dc.lft.to/lastmile_qr_scan", "ios": "https://dc.lft.to/lastmile_qr_scan"}, "fusion_lon": 0.0}, {"lat": 38.904171, "is_disabled": 0, "type": "electric_scooter", "lon": -76.99073533333333, "bike_id": "c92644de77aeb0bc76f2854403358274", "fusion_lat": 0.0, "name": "c92644de77aeb0bc76f2854403358274", "is_reserved": 0, "rental_uris": {"android": "https://dc.lft.to/lastmile_qr_scan", "ios": "https://dc.lft.to/lastmile_qr_scan"}, "fusion_lon": 0.0}, {"lat": 38.879717166666666, "is_disabled": 0, "type": "electric_scooter", "lon": -77.0061065, "bike_id": "2069ecfbd3920de0ef1c8f135963f057", "fusion_lat": 0.0, "name": "2069ecfbd3920de0ef1c8f135963f057", "is_reserved": 0, "rental_uris": {"android": "https://dc.lft.to/lastmile_qr_scan", "ios": "https://dc.lft.to/lastmile_qr_scan"}, "fusion_lon": 0.0}, {"lat": 38.900406333333336, "is_disabled": 0, "type": "electric_scooter", "lon": -76.99014366666667, "bike_id": "021d2da90ddb5a41614c20cca23d85c1", "fusion_lat": 0.0, "name": "021d2da90ddb5a41614c20cca23d85c1", "is_reserved": 0, "rental_uris": {"android": "https://dc.lft.to/lastmile_qr_scan", "ios": "https://dc.lft.to/lastmile_qr_scan"}, "fusion_lon": 0.0}, {"lat": 38.90402533333334, "is_disabled": 0, "type": "electric_scooter", "lon": -77.04344383333333, "bike_id": "ae86dacf7412d52fc988289a5e672cab", "fusion_lat": 0.0, "name": "ae86dacf7412d52fc988289a5e672cab", "is_reserved": 0, "rental_uris": {"android": "https://dc.lft.to/lastmile_qr_scan", "ios": "https://dc.lft.to/lastmile_qr_scan"}, "fusion_lon": 0.0}, {"lat": 38.90140816666667, "is_disabled": 0, "type": "electric_scooter", "lon": -76.98058516666667, "bike_id": "d2a0acf693ff17e193cae443846cdbbd", "fusion_lat": 0.0, "name": "d2a0acf693ff17e193cae443846cdbbd", "is_reserved": 0, "rental_uris": {"android": "https://dc.lft.to/lastmile_qr_scan", "ios": "https://dc.lft.to/lastmile_qr_scan"}, "fusion_lon": 0.0}, {"lat": 38.846104833333335, "is_disabled": 0, "type": "electric_bike", "lon": -76.96911, "bike_id": "248d719f98e02903cf09a6ab0059eee5", "fusion_lat": 0.0, "name": "248d719f98e02903cf09a6ab0059eee5", "is_reserved": 0, "rental_uris": {"android": "https://dc.lft.to/lastmile_qr_scan", "ios": "https://dc.lft.to/lastmile_qr_scan"}, "fusion_lon": 0.0}, {"lat": 38.90853, "is_disabled": 0, "type": "electric_scooter", "lon": -77.00627183333333, "bike_id": "227b40b5deaf5136fc3344acaee0632a", "fusion_lat": 0.0, "name": "227b40b5deaf5136fc3344acaee0632a", "is_reserved": 0, "rental_uris": {"android": "https://dc.lft.to/lastmile_qr_scan", "ios": "https://dc.lft.to/lastmile_qr_scan"}, "fusion_lon": 0.0}, {"lat": 38.919738833333334, "is_disabled": 0, "type": "electric_scooter", "lon": -77.00024366666666, "bike_id": "8c105f3f78ea229710e72ce668dca15f", "fusion_lat": 0.0, "name": "8c105f3f78ea229710e72ce668dca15f", "is_reserved": 0, "rental_uris": {"android": "https://dc.lft.to/lastmile_qr_scan", "ios": "https://dc.lft.to/lastmile_qr_scan"}, "fusion_lon": 0.0}, {"lat": 38.90600716666667, "is_disabled": 0, "type": "electric_scooter", "lon": -77.02499816666666, "bike_id": "97d74091e66def9bf124a009dcd9f040", "fusion_lat": 0.0, "name": "97d74091e66def9bf124a009dcd9f040", "is_reserved": 0, "rental_uris": {"android": "https://dc.lft.to/lastmile_qr_scan", "ios": "https://dc.lft.to/lastmile_qr_scan"}, "fusion_lon": 0.0}, {"lat": 38.827850833333336, "is_disabled": 0, "type": "electric_bike", "lon": -77.00921516666666, "bike_id": "dbafe40339d3353deb813a5217480adf", "fusion_lat": 0.0, "name": "dbafe40339d3353deb813a5217480adf", "is_reserved": 0, "rental_uris": {"android": "https://dc.lft.to/lastmile_qr_scan", "ios": "https://dc.lft.to/lastmile_qr_scan"}, "fusion_lon": 0.0}, {"lat": 38.9388865, "is_disabled": 0, "type": "electric_scooter", "lon": -77.03317866666667, "bike_id": "23748ee52d8959443f52ba677249473f", "fusion_lat": 0.0, "name": "23748ee52d8959443f52ba677249473f", "is_reserved": 0, "rental_uris": {"android": "https://dc.lft.to/lastmile_qr_scan", "ios": "https://dc.lft.to/lastmile_qr_scan"}, "fusion_lon": 0.0}, {"lat": 38.912178833333336, "is_disabled": 0, "type": "electric_scooter", "lon": -77.02716383333333, "bike_id": "223bc5630caf00a36912784f13b27102", "fusion_lat": 0.0, "name": "223bc5630caf00a36912784f13b27102", "is_reserved": 0, "rental_uris": {"android": "https://dc.lft.to/lastmile_qr_scan", "ios": "https://dc.lft.to/lastmile_qr_scan"}, "fusion_lon": 0.0}, {"lat": 38.88364683333333, "is_disabled": 0, "type": "electric_scooter", "lon": -76.99506233333334, "bike_id": "2520df8e2cb6e4f5e86f96bce5e525c7", "fusion_lat": 0.0, "name": "2520df8e2cb6e4f5e86f96bce5e525c7", "is_reserved": 0, "rental_uris": {"android": "https://dc.lft.to/lastmile_qr_scan", "ios": "https://dc.lft.to/lastmile_qr_scan"}, "fusion_lon": 0.0}, {"lat": 38.9163545, "is_disabled": 0, "type": "electric_scooter", "lon": -77.03216283333333, "bike_id": "6b3eac8e96192d8865ca6623fbe3911a", "fusion_lat": 0.0, "name": "6b3eac8e96192d8865ca6623fbe3911a", "is_reserved": 0, "rental_uris": {"android": "https://dc.lft.to/lastmile_qr_scan", "ios": "https://dc.lft.to/lastmile_qr_scan"}, "fusion_lon": 0.0}, {"lat": 38.9319175, "is_disabled": 0, "type": "electric_scooter", "lon": -77.02565433333334, "bike_id": "2d2b128149ee92ded74774584fe9d9a6", "fusion_lat": 0.0, "name": "2d2b128149ee92ded74774584fe9d9a6", "is_reserved": 0, "rental_uris": {"android": "https://dc.lft.to/lastmile_qr_scan", "ios": "https://dc.lft.to/lastmile_qr_scan"}, "fusion_lon": 0.0}, {"lat": 38.9329515, "is_disabled": 0, "type": "electric_scooter", "lon": -77.0454095, "bike_id": "60f3621d9a8f2ba536b872bc0e015be1", "fusion_lat": 0.0, "name": "60f3621d9a8f2ba536b872bc0e015be1", "is_reserved": 0, "rental_uris": {"android": "https://dc.lft.to/lastmile_qr_scan", "ios": "https://dc.lft.to/lastmile_qr_scan"}, "fusion_lon": 0.0}, {"lat": 38.88092783333333, "is_disabled": 0, "type": "electric_scooter", "lon": -76.99249283333333, "bike_id": "2f7410f83564ca0da310d92b606e86e4", "fusion_lat": 0.0, "name": "2f7410f83564ca0da310d92b606e86e4", "is_reserved": 0, "rental_uris": {"android": "https://dc.lft.to/lastmile_qr_scan", "ios": "https://dc.lft.to/lastmile_qr_scan"}, "fusion_lon": 0.0}, {"lat": 38.887954666666666, "is_disabled": 0, "type": "electric_scooter", "lon": -76.93362233333333, "bike_id": "7796fb42a03e6f1bb4646931c3703126", "fusion_lat": 0.0, "name": "7796fb42a03e6f1bb4646931c3703126", "is_reserved": 0, "rental_uris": {"android": "https://dc.lft.to/lastmile_qr_scan", "ios": "https://dc.lft.to/lastmile_qr_scan"}, "fusion_lon": 0.0}, {"lat": 38.984267333333335, "is_disabled": 0, "type": "electric_scooter", "lon": -77.02675066666667, "bike_id": "b47b34071ccfbb2090797848333ff2b8", "fusion_lat": 0.0, "name": "b47b34071ccfbb2090797848333ff2b8", "is_reserved": 0, "rental_uris": {"android": "https://dc.lft.to/lastmile_qr_scan", "ios": "https://dc.lft.to/lastmile_qr_scan"}, "fusion_lon": 0.0}, {"lat": 38.89249816666667, "is_disabled": 0, "type": "electric_scooter", "lon": -77.02209183333333, "bike_id": "a3068a9f80d5188bec18207c7acbf44b", "fusion_lat": 0.0, "name": "a3068a9f80d5188bec18207c7acbf44b", "is_reserved": 0, "rental_uris": {"android": "https://dc.lft.to/lastmile_qr_scan", "ios": "https://dc.lft.to/lastmile_qr_scan"}, "fusion_lon": 0.0}, {"lat": 38.93983566666667, "is_disabled": 0, "type": "electric_scooter", "lon": -77.0296515, "bike_id": "fdc9bdc79a4aa0b66d85dc690f200d08", "fusion_lat": 0.0, "name": "fdc9bdc79a4aa0b66d85dc690f200d08", "is_reserved": 0, "rental_uris": {"android": "https://dc.lft.to/lastmile_qr_scan", "ios": "https://dc.lft.to/lastmile_qr_scan"}, "fusion_lon": 0.0}, {"lat": 38.88682683333333, "is_disabled": 0, "type": "electric_scooter", "lon": -77.013028, "bike_id": "dfb30db45f8b119c2f5042b06a63578e", "fusion_lat": 0.0, "name": "dfb30db45f8b119c2f5042b06a63578e", "is_reserved": 0, "rental_uris": {"android": "https://dc.lft.to/lastmile_qr_scan", "ios": "https://dc.lft.to/lastmile_qr_scan"}, "fusion_lon": 0.0}, {"lat": 38.814284666666666, "is_disabled": 0, "type": "electric_bike", "lon": -77.118952, "bike_id": "02ec5784a5281d7f4c9b316b9c01790a", "fusion_lat": 0.0, "name": "02ec5784a5281d7f4c9b316b9c01790a", "is_reserved": 0, "rental_uris": {"android": "https://dc.lft.to/lastmile_qr_scan", "ios": "https://dc.lft.to/lastmile_qr_scan"}, "fusion_lon": 0.0}, {"lat": 38.914155666666666, "is_disabled": 0, "type": "electric_scooter", "lon": -77.03175266666666, "bike_id": "b4bc406b99d8978cbf02a30d19fd0aca", "fusion_lat": 0.0, "name": "b4bc406b99d8978cbf02a30d19fd0aca", "is_reserved": 0, "rental_uris": {"android": "https://dc.lft.to/lastmile_qr_scan", "ios": "https://dc.lft.to/lastmile_qr_scan"}, "fusion_lon": 0.0}, {"lat": 38.884944833333336, "is_disabled": 0, "type": "electric_scooter", "lon": -77.00709183333333, "bike_id": "905d848e3fdeb70db0782c45c5aaf692", "fusion_lat": 0.0, "name": "905d848e3fdeb70db0782c45c5aaf692", "is_reserved": 0, "rental_uris": {"android": "https://dc.lft.to/lastmile_qr_scan", "ios": "https://dc.lft.to/lastmile_qr_scan"}, "fusion_lon": 0.0}, {"lat": 38.86619983333333, "is_disabled": 0, "type": "electric_scooter", "lon": -76.98665633333333, "bike_id": "8ee43f7b7c55171204a7550fcc2d1a89", "fusion_lat": 0.0, "name": "8ee43f7b7c55171204a7550fcc2d1a89", "is_reserved": 0, "rental_uris": {"android": "https://dc.lft.to/lastmile_qr_scan", "ios": "https://dc.lft.to/lastmile_qr_scan"}, "fusion_lon": 0.0}, {"lat": 38.84608433333333, "is_disabled": 0, "type": "electric_bike", "lon": -77.076885, "bike_id": "54ecd290eac69aaa66c305120955a0dc", "fusion_lat": 0.0, "name": "54ecd290eac69aaa66c305120955a0dc", "is_reserved": 0, "rental_uris": {"android": "https://dc.lft.to/lastmile_qr_scan", "ios": "https://dc.lft.to/lastmile_qr_scan"}, "fusion_lon": 0.0}, {"lat": 38.870650833333336, "is_disabled": 0, "type": "electric_scooter", "lon": -77.00840283333334, "bike_id": "90d1309b0b3463306c98d1ebe504d3b0", "fusion_lat": 0.0, "name": "90d1309b0b3463306c98d1ebe504d3b0", "is_reserved": 0, "rental_uris": {"android": "https://dc.lft.to/lastmile_qr_scan", "ios": "https://dc.lft.to/lastmile_qr_scan"}, "fusion_lon": 0.0}, {"lat": 38.901492166666664, "is_disabled": 0, "type": "electric_scooter", "lon": -77.04832133333333, "bike_id": "a853ec14f7299f0a01a4f9328f121165", "fusion_lat": 0.0, "name": "a853ec14f7299f0a01a4f9328f121165", "is_reserved": 0, "rental_uris": {"android": "https://dc.lft.to/lastmile_qr_scan", "ios": "https://dc.lft.to/lastmile_qr_scan"}, "fusion_lon": 0.0}, {"lat": 38.862097166666665, "is_disabled": 0, "type": "electric_bike", "lon": -76.997823, "bike_id": "a49f1c85134a7af501e6cefa8b3693bb", "fusion_lat": 0.0, "name": "a49f1c85134a7af501e6cefa8b3693bb", "is_reserved": 0, "rental_uris": {"android": "https://dc.lft.to/lastmile_qr_scan", "ios": "https://dc.lft.to/lastmile_qr_scan"}, "fusion_lon": 0.0}, {"lat": 38.916961666666666, "is_disabled": 0, "type": "electric_scooter", "lon": -77.03154783333333, "bike_id": "124643a9bbd413af7ee0c92ef1b3cc8f", "fusion_lat": 0.0, "name": "124643a9bbd413af7ee0c92ef1b3cc8f", "is_reserved": 0, "rental_uris": {"android": "https://dc.lft.to/lastmile_qr_scan", "ios": "https://dc.lft.to/lastmile_qr_scan"}, "fusion_lon": 0.0}, {"lat": 38.903895, "is_disabled": 0, "type": "electric_scooter", "lon": -77.02798466666667, "bike_id": "4bf550110daa4a5ed9b5023d5c410463", "fusion_lat": 0.0, "name": "4bf550110daa4a5ed9b5023d5c410463", "is_reserved": 0, "rental_uris": {"android": "https://dc.lft.to/lastmile_qr_scan", "ios": "https://dc.lft.to/lastmile_qr_scan"}, "fusion_lon": 0.0}, {"lat": 38.896130666666664, "is_disabled": 0, "type": "electric_scooter", "lon": -77.03021683333333, "bike_id": "43c48ad5e23380b2308104c900611e05", "fusion_lat": 0.0, "name": "43c48ad5e23380b2308104c900611e05", "is_reserved": 0, "rental_uris": {"android": "https://dc.lft.to/lastmile_qr_scan", "ios": "https://dc.lft.to/lastmile_qr_scan"}, "fusion_lon": 0.0}, {"lat": 38.924203, "is_disabled": 0, "type": "electric_scooter", "lon": -77.02983033333334, "bike_id": "d279b908c1fab976dad8e8cb4311fe24", "fusion_lat": 0.0, "name": "d279b908c1fab976dad8e8cb4311fe24", "is_reserved": 0, "rental_uris": {"android": "https://dc.lft.to/lastmile_qr_scan", "ios": "https://dc.lft.to/lastmile_qr_scan"}, "fusion_lon": 0.0}, {"lat": 38.898218, "is_disabled": 0, "type": "electric_scooter", "lon": -77.030079, "bike_id": "93d57bacf57c3420960a5bba8508083a", "fusion_lat": 0.0, "name": "93d57bacf57c3420960a5bba8508083a", "is_reserved": 0, "rental_uris": {"android": "https://dc.lft.to/lastmile_qr_scan", "ios": "https://dc.lft.to/lastmile_qr_scan"}, "fusion_lon": 0.0}, {"lat": 38.9078425, "is_disabled": 0, "type": "electric_scooter", "lon": -77.003825, "bike_id": "2f0e218bce0338925bef0c2611d01a34", "fusion_lat": 0.0, "name": "2f0e218bce0338925bef0c2611d01a34", "is_reserved": 0, "rental_uris": {"android": "https://dc.lft.to/lastmile_qr_scan", "ios": "https://dc.lft.to/lastmile_qr_scan"}, "fusion_lon": 0.0}, {"lat": 38.9067005, "is_disabled": 0, "type": "electric_scooter", "lon": -76.989948, "bike_id": "e9b6f6b9459e73d1c3992468ca7c2391", "fusion_lat": 0.0, "name": "e9b6f6b9459e73d1c3992468ca7c2391", "is_reserved": 0, "rental_uris": {"android": "https://dc.lft.to/lastmile_qr_scan", "ios": "https://dc.lft.to/lastmile_qr_scan"}, "fusion_lon": 0.0}, {"lat": 38.938484333333335, "is_disabled": 0, "type": "electric_bike", "lon": -77.0723455, "bike_id": "6647cd5c0a916a64579944b3700f6d6b", "fusion_lat": 0.0, "name": "6647cd5c0a916a64579944b3700f6d6b", "is_reserved": 0, "rental_uris": {"android": "https://dc.lft.to/lastmile_qr_scan", "ios": "https://dc.lft.to/lastmile_qr_scan"}, "fusion_lon": 0.0}, {"lat": 38.902801, "is_disabled": 0, "type": "electric_scooter", "lon": -77.03865933333333, "bike_id": "87ff8357593af0699ac3d46d87a82d96", "fusion_lat": 0.0, "name": "87ff8357593af0699ac3d46d87a82d96", "is_reserved": 0, "rental_uris": {"android": "https://dc.lft.to/lastmile_qr_scan", "ios": "https://dc.lft.to/lastmile_qr_scan"}, "fusion_lon": 0.0}, {"lat": 38.93533216666667, "is_disabled": 0, "type": "electric_scooter", "lon": -77.03406966666667, "bike_id": "6a3cfc97a7a2358d31f7220289299a9d", "fusion_lat": 0.0, "name": "6a3cfc97a7a2358d31f7220289299a9d", "is_reserved": 0, "rental_uris": {"android": "https://dc.lft.to/lastmile_qr_scan", "ios": "https://dc.lft.to/lastmile_qr_scan"}, "fusion_lon": 0.0}, {"lat": 38.90719883333333, "is_disabled": 0, "type": "electric_scooter", "lon": -76.98927366666666, "bike_id": "f61261213c6de955979a60adab219b6e", "fusion_lat": 0.0, "name": "f61261213c6de955979a60adab219b6e", "is_reserved": 0, "rental_uris": {"android": "https://dc.lft.to/lastmile_qr_scan", "ios": "https://dc.lft.to/lastmile_qr_scan"}, "fusion_lon": 0.0}, {"lat": 38.930886666666666, "is_disabled": 0, "type": "electric_scooter", "lon": -77.07752916666666, "bike_id": "05183c2c46a4c79ff8e4793ff4f2cfda", "fusion_lat": 0.0, "name": "05183c2c46a4c79ff8e4793ff4f2cfda", "is_reserved": 0, "rental_uris": {"android": "https://dc.lft.to/lastmile_qr_scan", "ios": "https://dc.lft.to/lastmile_qr_scan"}, "fusion_lon": 0.0}, {"lat": 38.920661333333335, "is_disabled": 0, "type": "electric_bike", "lon": -76.983692, "bike_id": "6dde9fafd5bc438142e3c49c93765a25", "fusion_lat": 0.0, "name": "6dde9fafd5bc438142e3c49c93765a25", "is_reserved": 0, "rental_uris": {"android": "https://dc.lft.to/lastmile_qr_scan", "ios": "https://dc.lft.to/lastmile_qr_scan"}, "fusion_lon": 0.0}, {"lat": 38.91895066666667, "is_disabled": 0, "type": "electric_scooter", "lon": -77.039115, "bike_id": "0b33a657832502551275da75097be2fc", "fusion_lat": 0.0, "name": "0b33a657832502551275da75097be2fc", "is_reserved": 0, "rental_uris": {"android": "https://dc.lft.to/lastmile_qr_scan", "ios": "https://dc.lft.to/lastmile_qr_scan"}, "fusion_lon": 0.0}, {"lat": 38.905763666666665, "is_disabled": 0, "type": "electric_scooter", "lon": -77.0089345, "bike_id": "fcf146e94d7e4bc8bc82f5aaeb04825d", "fusion_lat": 0.0, "name": "fcf146e94d7e4bc8bc82f5aaeb04825d", "is_reserved": 0, "rental_uris": {"android": "https://dc.lft.to/lastmile_qr_scan", "ios": "https://dc.lft.to/lastmile_qr_scan"}, "fusion_lon": 0.0}, {"lat": 38.8961045, "is_disabled": 0, "type": "electric_scooter", "lon": -76.95606183333334, "bike_id": "7f621462b1575a7c36d31a3fa2f282e0", "fusion_lat": 0.0, "name": "7f621462b1575a7c36d31a3fa2f282e0", "is_reserved": 0, "rental_uris": {"android": "https://dc.lft.to/lastmile_qr_scan", "ios": "https://dc.lft.to/lastmile_qr_scan"}, "fusion_lon": 0.0}, {"lat": 38.938856333333334, "is_disabled": 0, "type": "electric_scooter", "lon": -77.03227683333333, "bike_id": "b577d418613577d3029f6ded7da5c09f", "fusion_lat": 0.0, "name": "b577d418613577d3029f6ded7da5c09f", "is_reserved": 0, "rental_uris": {"android": "https://dc.lft.to/lastmile_qr_scan", "ios": "https://dc.lft.to/lastmile_qr_scan"}, "fusion_lon": 0.0}, {"lat": 38.921512, "is_disabled": 0, "type": "electric_scooter", "lon": -77.03506516666667, "bike_id": "5afdd9058319ba7a980acca1183d63d2", "fusion_lat": 0.0, "name": "5afdd9058319ba7a980acca1183d63d2", "is_reserved": 0, "rental_uris": {"android": "https://dc.lft.to/lastmile_qr_scan", "ios": "https://dc.lft.to/lastmile_qr_scan"}, "fusion_lon": 0.0}, {"lat": 38.91711516666667, "is_disabled": 0, "type": "electric_scooter", "lon": -77.03865183333333, "bike_id": "5df5bbcd3409ee99342539c59022c9e6", "fusion_lat": 0.0, "name": "5df5bbcd3409ee99342539c59022c9e6", "is_reserved": 0, "rental_uris": {"android": "https://dc.lft.to/lastmile_qr_scan", "ios": "https://dc.lft.to/lastmile_qr_scan"}, "fusion_lon": 0.0}, {"lat": 38.886637666666665, "is_disabled": 0, "type": "electric_bike", "lon": -77.16238983333334, "bike_id": "d25827a601fcbb04d106b1dbb2d6245f", "fusion_lat": 0.0, "name": "d25827a601fcbb04d106b1dbb2d6245f", "is_reserved": 0, "rental_uris": {"android": "https://dc.lft.to/lastmile_qr_scan", "ios": "https://dc.lft.to/lastmile_qr_scan"}, "fusion_lon": 0.0}, {"lat": 38.90504033333333, "is_disabled": 0, "type": "electric_scooter", "lon": -77.064739, "bike_id": "5cd41fc524f926db1ad945c4bd313f05", "fusion_lat": 0.0, "name": "5cd41fc524f926db1ad945c4bd313f05", "is_reserved": 0, "rental_uris": {"android": "https://dc.lft.to/lastmile_qr_scan", "ios": "https://dc.lft.to/lastmile_qr_scan"}, "fusion_lon": 0.0}, {"lat": 38.93579583333333, "is_disabled": 0, "type": "electric_scooter", "lon": -77.06097683333333, "bike_id": "36ac0b9b593e0a09c0a97284589fccf1", "fusion_lat": 0.0, "name": "36ac0b9b593e0a09c0a97284589fccf1", "is_reserved": 0, "rental_uris": {"android": "https://dc.lft.to/lastmile_qr_scan", "ios": "https://dc.lft.to/lastmile_qr_scan"}, "fusion_lon": 0.0}, {"lat": 38.91051933333333, "is_disabled": 0, "type": "electric_scooter", "lon": -77.04580883333334, "bike_id": "661c55c8cd80d85cdacdd192af727c3c", "fusion_lat": 0.0, "name": "661c55c8cd80d85cdacdd192af727c3c", "is_reserved": 0, "rental_uris": {"android": "https://dc.lft.to/lastmile_qr_scan", "ios": "https://dc.lft.to/lastmile_qr_scan"}, "fusion_lon": 0.0}, {"lat": 38.92139183333333, "is_disabled": 0, "type": "electric_scooter", "lon": -77.04127733333333, "bike_id": "b5031a4410e832eafe85828eb56b9161", "fusion_lat": 0.0, "name": "b5031a4410e832eafe85828eb56b9161", "is_reserved": 0, "rental_uris": {"android": "https://dc.lft.to/lastmile_qr_scan", "ios": "https://dc.lft.to/lastmile_qr_scan"}, "fusion_lon": 0.0}, {"lat": 38.901587666666664, "is_disabled": 0, "type": "electric_scooter", "lon": -77.0416695, "bike_id": "210d5f2006a62660be39b2dea4a97622", "fusion_lat": 0.0, "name": "210d5f2006a62660be39b2dea4a97622", "is_reserved": 0, "rental_uris": {"android": "https://dc.lft.to/lastmile_qr_scan", "ios": "https://dc.lft.to/lastmile_qr_scan"}, "fusion_lon": 0.0}, {"lat": 38.900159, "is_disabled": 0, "type": "electric_scooter", "lon": -76.99878266666667, "bike_id": "578d7cbeeb6e0bc57c7199bf7179e5eb", "fusion_lat": 0.0, "name": "578d7cbeeb6e0bc57c7199bf7179e5eb", "is_reserved": 0, "rental_uris": {"android": "https://dc.lft.to/lastmile_qr_scan", "ios": "https://dc.lft.to/lastmile_qr_scan"}, "fusion_lon": 0.0}, {"lat": 38.90139533333333, "is_disabled": 0, "type": "electric_scooter", "lon": -77.01618383333333, "bike_id": "7632a4938a82277d04b2204cf9362a7a", "fusion_lat": 0.0, "name": "7632a4938a82277d04b2204cf9362a7a", "is_reserved": 0, "rental_uris": {"android": "https://dc.lft.to/lastmile_qr_scan", "ios": "https://dc.lft.to/lastmile_qr_scan"}, "fusion_lon": 0.0}, {"lat": 38.95269716666667, "is_disabled": 0, "type": "electric_bike", "lon": -77.06976333333333, "bike_id": "f69f13e0fc457576f01bcdb29afd1c76", "fusion_lat": 0.0, "name": "f69f13e0fc457576f01bcdb29afd1c76", "is_reserved": 0, "rental_uris": {"android": "https://dc.lft.to/lastmile_qr_scan", "ios": "https://dc.lft.to/lastmile_qr_scan"}, "fusion_lon": 0.0}, {"lat": 38.90679883333333, "is_disabled": 0, "type": "electric_scooter", "lon": -77.035241, "bike_id": "b48cb4365793a496da8bd607e719cd81", "fusion_lat": 0.0, "name": "b48cb4365793a496da8bd607e719cd81", "is_reserved": 0, "rental_uris": {"android": "https://dc.lft.to/lastmile_qr_scan", "ios": "https://dc.lft.to/lastmile_qr_scan"}, "fusion_lon": 0.0}, {"lat": 38.902127166666666, "is_disabled": 0, "type": "electric_scooter", "lon": -76.98207933333333, "bike_id": "5cab973825d5e624e0712fa1f803e815", "fusion_lat": 0.0, "name": "5cab973825d5e624e0712fa1f803e815", "is_reserved": 0, "rental_uris": {"android": "https://dc.lft.to/lastmile_qr_scan", "ios": "https://dc.lft.to/lastmile_qr_scan"}, "fusion_lon": 0.0}, {"lat": 38.896814666666664, "is_disabled": 0, "type": "electric_scooter", "lon": -76.93611616666666, "bike_id": "6a9602d9943f60c1fa34f7760e3237e0", "fusion_lat": 0.0, "name": "6a9602d9943f60c1fa34f7760e3237e0", "is_reserved": 0, "rental_uris": {"android": "https://dc.lft.to/lastmile_qr_scan", "ios": "https://dc.lft.to/lastmile_qr_scan"}, "fusion_lon": 0.0}, {"lat": 38.9059, "is_disabled": 0, "type": "electric_scooter", "lon": -77.02238433333333, "bike_id": "7bace123efab24778b2b5c253e5ecc51", "fusion_lat": 0.0, "name": "7bace123efab24778b2b5c253e5ecc51", "is_reserved": 0, "rental_uris": {"android": "https://dc.lft.to/lastmile_qr_scan", "ios": "https://dc.lft.to/lastmile_qr_scan"}, "fusion_lon": 0.0}, {"lat": 38.887182833333334, "is_disabled": 0, "type": "electric_scooter", "lon": -76.9547925, "bike_id": "0016523a34254dde10c541b8df9dba74", "fusion_lat": 0.0, "name": "0016523a34254dde10c541b8df9dba74", "is_reserved": 0, "rental_uris": {"android": "https://dc.lft.to/lastmile_qr_scan", "ios": "https://dc.lft.to/lastmile_qr_scan"}, "fusion_lon": 0.0}, {"lat": 38.913600833333334, "is_disabled": 0, "type": "electric_scooter", "lon": -77.04572933333333, "bike_id": "557f74303d4286b641bb8247eb97834d", "fusion_lat": 0.0, "name": "557f74303d4286b641bb8247eb97834d", "is_reserved": 0, "rental_uris": {"android": "https://dc.lft.to/lastmile_qr_scan", "ios": "https://dc.lft.to/lastmile_qr_scan"}, "fusion_lon": 0.0}, {"lat": 38.89613516666667, "is_disabled": 0, "type": "electric_scooter", "lon": -77.02191, "bike_id": "566a73ecdedba823ae2f57b0143782c3", "fusion_lat": 0.0, "name": "566a73ecdedba823ae2f57b0143782c3", "is_reserved": 0, "rental_uris": {"android": "https://dc.lft.to/lastmile_qr_scan", "ios": "https://dc.lft.to/lastmile_qr_scan"}, "fusion_lon": 0.0}, {"lat": 38.98814483333334, "is_disabled": 0, "type": "electric_bike", "lon": -77.02660216666666, "bike_id": "8816a20cf7c2e66441cfde8f078d5159", "fusion_lat": 0.0, "name": "8816a20cf7c2e66441cfde8f078d5159", "is_reserved": 0, "rental_uris": {"android": "https://dc.lft.to/lastmile_qr_scan", "ios": "https://dc.lft.to/lastmile_qr_scan"}, "fusion_lon": 0.0}, {"lat": 38.905507166666666, "is_disabled": 0, "type": "electric_scooter", "lon": -77.02000483333333, "bike_id": "a46e30f132c9e57dcd91b98a99aa2c9a", "fusion_lat": 0.0, "name": "a46e30f132c9e57dcd91b98a99aa2c9a", "is_reserved": 0, "rental_uris": {"android": "https://dc.lft.to/lastmile_qr_scan", "ios": "https://dc.lft.to/lastmile_qr_scan"}, "fusion_lon": 0.0}, {"lat": 38.91347233333333, "is_disabled": 0, "type": "electric_scooter", "lon": -77.03185466666666, "bike_id": "8b07365cea15871e93ab7150bd64e7de", "fusion_lat": 0.0, "name": "8b07365cea15871e93ab7150bd64e7de", "is_reserved": 0, "rental_uris": {"android": "https://dc.lft.to/lastmile_qr_scan", "ios": "https://dc.lft.to/lastmile_qr_scan"}, "fusion_lon": 0.0}, {"lat": 38.863674833333334, "is_disabled": 0, "type": "electric_scooter", "lon": -76.99046883333334, "bike_id": "98afbb530e80978714727dcf8b120fbe", "fusion_lat": 0.0, "name": "98afbb530e80978714727dcf8b120fbe", "is_reserved": 0, "rental_uris": {"android": "https://dc.lft.to/lastmile_qr_scan", "ios": "https://dc.lft.to/lastmile_qr_scan"}, "fusion_lon": 0.0}, {"lat": 38.892581, "is_disabled": 0, "type": "electric_scooter", "lon": -77.0334795, "bike_id": "c32154fde0d84a2adb03324ac7344104", "fusion_lat": 0.0, "name": "c32154fde0d84a2adb03324ac7344104", "is_reserved": 0, "rental_uris": {"android": "https://dc.lft.to/lastmile_qr_scan", "ios": "https://dc.lft.to/lastmile_qr_scan"}, "fusion_lon": 0.0}, {"lat": 38.95182166666667, "is_disabled": 0, "type": "electric_bike", "lon": -76.93547016666666, "bike_id": "1a365593b50f66dab3b981d1cfbbaba7", "fusion_lat": 0.0, "name": "1a365593b50f66dab3b981d1cfbbaba7", "is_reserved": 0, "rental_uris": {"android": "https://dc.lft.to/lastmile_qr_scan", "ios": "https://dc.lft.to/lastmile_qr_scan"}, "fusion_lon": 0.0}, {"lat": 38.879594166666664, "is_disabled": 0, "type": "electric_bike", "lon": -77.10727233333333, "bike_id": "7a158e8c88734c33b56754f321973015", "fusion_lat": 0.0, "name": "7a158e8c88734c33b56754f321973015", "is_reserved": 0, "rental_uris": {"android": "https://dc.lft.to/lastmile_qr_scan", "ios": "https://dc.lft.to/lastmile_qr_scan"}, "fusion_lon": 0.0}, {"lat": 38.8708975, "is_disabled": 0, "type": "electric_scooter", "lon": -77.011906, "bike_id": "898cc23f15b7ea2da17e222164816f27", "fusion_lat": 0.0, "name": "898cc23f15b7ea2da17e222164816f27", "is_reserved": 0, "rental_uris": {"android": "https://dc.lft.to/lastmile_qr_scan", "ios": "https://dc.lft.to/lastmile_qr_scan"}, "fusion_lon": 0.0}, {"lat": 38.89580733333333, "is_disabled": 0, "type": "electric_scooter", "lon": -77.02175866666667, "bike_id": "1d27d6ea3a149ed12bda052d236e88b4", "fusion_lat": 0.0, "name": "1d27d6ea3a149ed12bda052d236e88b4", "is_reserved": 0, "rental_uris": {"android": "https://dc.lft.to/lastmile_qr_scan", "ios": "https://dc.lft.to/lastmile_qr_scan"}, "fusion_lon": 0.0}, {"lat": 38.92473566666666, "is_disabled": 0, "type": "electric_scooter", "lon": -77.03390733333333, "bike_id": "44b85ef349ba16d5ac446980020d110e", "fusion_lat": 0.0, "name": "44b85ef349ba16d5ac446980020d110e", "is_reserved": 0, "rental_uris": {"android": "https://dc.lft.to/lastmile_qr_scan", "ios": "https://dc.lft.to/lastmile_qr_scan"}, "fusion_lon": 0.0}, {"lat": 38.917234, "is_disabled": 0, "type": "electric_scooter", "lon": -77.02401783333333, "bike_id": "68464be6d58c91788860990b4df78e4d", "fusion_lat": 0.0, "name": "68464be6d58c91788860990b4df78e4d", "is_reserved": 0, "rental_uris": {"android": "https://dc.lft.to/lastmile_qr_scan", "ios": "https://dc.lft.to/lastmile_qr_scan"}, "fusion_lon": 0.0}, {"lat": 38.896069, "is_disabled": 0, "type": "electric_scooter", "lon": -76.95523766666666, "bike_id": "48e0fceb898407c719afd30bceeeda0f", "fusion_lat": 0.0, "name": "48e0fceb898407c719afd30bceeeda0f", "is_reserved": 0, "rental_uris": {"android": "https://dc.lft.to/lastmile_qr_scan", "ios": "https://dc.lft.to/lastmile_qr_scan"}, "fusion_lon": 0.0}, {"lat": 38.91704633333333, "is_disabled": 0, "type": "electric_scooter", "lon": -77.02719283333333, "bike_id": "e115a8ab5418d4baabf036c86183d163", "fusion_lat": 0.0, "name": "e115a8ab5418d4baabf036c86183d163", "is_reserved": 0, "rental_uris": {"android": "https://dc.lft.to/lastmile_qr_scan", "ios": "https://dc.lft.to/lastmile_qr_scan"}, "fusion_lon": 0.0}, {"lat": 38.8847845, "is_disabled": 0, "type": "electric_scooter", "lon": -76.94526266666666, "bike_id": "22cefa90976e69f969736588445a1f31", "fusion_lat": 0.0, "name": "22cefa90976e69f969736588445a1f31", "is_reserved": 0, "rental_uris": {"android": "https://dc.lft.to/lastmile_qr_scan", "ios": "https://dc.lft.to/lastmile_qr_scan"}, "fusion_lon": 0.0}, {"lat": 38.905459, "is_disabled": 0, "type": "electric_scooter", "lon": -77.00568583333333, "bike_id": "039d50f64d676640372d28e2f98496a6", "fusion_lat": 0.0, "name": "039d50f64d676640372d28e2f98496a6", "is_reserved": 0, "rental_uris": {"android": "https://dc.lft.to/lastmile_qr_scan", "ios": "https://dc.lft.to/lastmile_qr_scan"}, "fusion_lon": 0.0}, {"lat": 38.91752866666667, "is_disabled": 0, "type": "electric_scooter", "lon": -77.038849, "bike_id": "99b6c20bb0bea82a9819dad5de98fa1e", "fusion_lat": 0.0, "name": "99b6c20bb0bea82a9819dad5de98fa1e", "is_reserved": 0, "rental_uris": {"android": "https://dc.lft.to/lastmile_qr_scan", "ios": "https://dc.lft.to/lastmile_qr_scan"}, "fusion_lon": 0.0}, {"lat": 38.9192255, "is_disabled": 0, "type": "electric_scooter", "lon": -77.033957, "bike_id": "71a654daf1f353061c3b8ad1d51ebe5d", "fusion_lat": 0.0, "name": "71a654daf1f353061c3b8ad1d51ebe5d", "is_reserved": 0, "rental_uris": {"android": "https://dc.lft.to/lastmile_qr_scan", "ios": "https://dc.lft.to/lastmile_qr_scan"}, "fusion_lon": 0.0},