{"data": {"bikes": [{"lon": -77.048159, "bike_id": "7a8332b77c7e711626dcd3c78f5c318b", "lat": 38.92041366666667, "fusion_lon": 0.0, "fusion_lat": 0.0, "type": "electric_scooter", "name": "7a8332b77c7e711626dcd3c78f5c318b", "is_disabled": 0, "rental_uris": {"ios": "https://dc.lft.to/lastmile_qr_scan", "android": "https://dc.lft.to/lastmile_qr_scan"}, "is_reserved": 0}, {"lon": -77.0377635, "bike_id": "10f99c26d703457e4f7892583de3fe2f", "lat": 38.9256975, "fusion_lon": 0.0, "fusion_lat": 0.0, "type": "electric_scooter", "name": "10f99c26d703457e4f7892583de3fe2f", "is_disabled": 0, "rental_uris": {"ios": "https://dc.lft.to/lastmile_qr_scan", "android": "https://dc.lft.to/lastmile_qr_scan"}, "is_reserved": 0}, {"lon": -77.00889083333334, "bike_id": "acd356fb0447156ff2fc4201739966c8", "lat": 38.9171115, "fusion_lon": 0.0, "fusion_lat": 0.0, "type": "electric_scooter", "name": "acd356fb0447156ff2fc4201739966c8", "is_disabled": 0, "rental_uris": {"ios": "https://dc.lft.to/lastmile_qr_scan", "android": "https://dc.lft.to/lastmile_qr_scan"}, "is_reserved": 0}, {"lon": -77.02588733333333, "bike_id": "88bb2b42e0edd534eb385fdbbbd8e153", "lat": 38.8923055, "fusion_lon": 0.0, "fusion_lat": 0.0, "type": "electric_scooter", "name": "88bb2b42e0edd534eb385fdbbbd8e153", "is_disabled": 0, "rental_uris": {"ios": "https://dc.lft.to/lastmile_qr_scan", "android": "https://dc.lft.to/lastmile_qr_scan"}, "is_reserved": 0}, {"lon": -76.994659, "bike_id": "aaf9d5551186474805b324e0bc5c15a5", "lat": 38.8622235, "fusion_lon": 0.0, "fusion_lat": 0.0, "type": "electric_scooter", "name": "aaf9d5551186474805b324e0bc5c15a5", "is_disabled": 0, "rental_uris": {"ios": "https://dc.lft.to/lastmile_qr_scan", "android": "https://dc.lft.to/lastmile_qr_scan"}, "is_reserved": 0}, {"lon": -77.0019195, "bike_id": "9569e7d5b3acdf8f52f8a2a475f42cd7", "lat": 38.900352833333336, "fusion_lon": 0.0, "fusion_lat": 0.0, "type": "electric_scooter", "name": "9569e7d5b3acdf8f52f8a2a475f42cd7", "is_disabled": 0, "rental_uris": {"ios": "https://dc.lft.to/lastmile_qr_scan", "android": "https://dc.lft.to/lastmile_qr_scan"}, "is_reserved": 0}, {"lon": -77.04815516666666, "bike_id": "aa1338d009298cc85b5283e5905236e8", "lat": 38.9162145, "fusion_lon": 0.0, "fusion_lat": 0.0, "type": "electric_scooter", "name": "aa1338d009298cc85b5283e5905236e8", "is_disabled": 0, "rental_uris": {"ios": "https://dc.lft.to/lastmile_qr_scan", "android": "https://dc.lft.to/lastmile_qr_scan"}, "is_reserved": 0}, {"lon": -77.03402766666666, "bike_id": "fd362c94bbb3b5605a397764dcefe4f5", "lat": 38.93129316666667, "fusion_lon": 0.0, "fusion_lat": 0.0, "type": "electric_scooter", "name": "fd362c94bbb3b5605a397764dcefe4f5", "is_disabled": 0, "rental_uris": {"ios": "https://dc.lft.to/lastmile_qr_scan", "android": "https://dc.lft.to/lastmile_qr_scan"}, "is_reserved": 0}, {"lon": -77.02673733333333, "bike_id": "56e938caef890691e11ea6e755fd1f5e", "lat": 38.9843255, "fusion_lon": 0.0, "fusion_lat": 0.0, "type": "electric_scooter", "name": "56e938caef890691e11ea6e755fd1f5e", "is_disabled": 0, "rental_uris": {"ios": "https://dc.lft.to/lastmile_qr_scan", "android": "https://dc.lft.to/lastmile_qr_scan"}, "is_reserved": 0}, {"lon": -77.02390283333334, "bike_id": "5e41815df9c12fce406df48a3c0c4a6f", "lat": 38.9085345, "fusion_lon": 0.0, "fusion_lat": 0.0, "type": "electric_scooter", "name": "5e41815df9c12fce406df48a3c0c4a6f", "is_disabled": 0, "rental_uris": {"ios": "https://dc.lft.to/lastmile_qr_scan", "android": "https://dc.lft.to/lastmile_qr_scan"}, "is_reserved": 0}, {"lon": -77.0649395, "bike_id": "37ec2aa4a1bdca750a30998402e26607", "lat": 38.929078, "fusion_lon": 0.0, "fusion_lat": 0.0, "type": "electric_scooter", "name": "37ec2aa4a1bdca750a30998402e26607", "is_disabled": 0, "rental_uris": {"ios": "https://dc.lft.to/lastmile_qr_scan", "android": "https://dc.lft.to/lastmile_qr_scan"}, "is_reserved": 0}, {"lon": -77.0111795, "bike_id": "e51778b599c48e2851c0c457cb7ea2ff", "lat": 38.88552116666666, "fusion_lon": 0.0, "fusion_lat": 0.0, "type": "electric_scooter", "name": "e51778b599c48e2851c0c457cb7ea2ff", "is_disabled": 0, "rental_uris": {"ios": "https://dc.lft.to/lastmile_qr_scan", "android": "https://dc.lft.to/lastmile_qr_scan"}, "is_reserved": 0}, {"lon": -77.09603483333333, "bike_id": "b9575ee5f31db398eec51b5b720cb0c9", "lat": 39.028906666666664, "fusion_lon": 0.0, "fusion_lat": 0.0, "type": "electric_bike", "name": "b9575ee5f31db398eec51b5b720cb0c9", "is_disabled": 0, "rental_uris": {"ios": "https://dc.lft.to/lastmile_qr_scan", "android": "https://dc.lft.to/lastmile_qr_scan"}, "is_reserved": 0}, {"lon": -77.13104616666666, "bike_id": "f6363fd241cf4b116fbf6a473040d6c0", "lat": 39.024386, "fusion_lon": 0.0, "fusion_lat": 0.0, "type": "electric_bike", "name": "f6363fd241cf4b116fbf6a473040d6c0", "is_disabled": 0, "rental_uris": {"ios": "https://dc.lft.to/lastmile_qr_scan", "android": "https://dc.lft.to/lastmile_qr_scan"}, "is_reserved": 0}, {"lon": -77.05626066666666, "bike_id": "ebaee1798317d577592debb747f7739c", "lat": 38.96078, "fusion_lon": 0.0, "fusion_lat": 0.0, "type": "electric_scooter", "name": "ebaee1798317d577592debb747f7739c", "is_disabled": 0, "rental_uris": {"ios": "https://dc.lft.to/lastmile_qr_scan", "android": "https://dc.lft.to/lastmile_qr_scan"}, "is_reserved": 0}, {"lon": -77.03469233333334, "bike_id": "1eec55c4f0d2b6622648c3c4946b2f8e", "lat": 38.92049733333333, "fusion_lon": 0.0, "fusion_lat": 0.0, "type": "electric_scooter", "name": "1eec55c4f0d2b6622648c3c4946b2f8e", "is_disabled": 0, "rental_uris": {"ios": "https://dc.lft.to/lastmile_qr_scan", "android": "https://dc.lft.to/lastmile_qr_scan"}, "is_reserved": 0}, {"lon": -77.04495166666666, "bike_id": "aced91a50a09c6672b4d388bae95fd47", "lat": 38.900316333333336, "fusion_lon": 0.0, "fusion_lat": 0.0, "type": "electric_scooter", "name": "aced91a50a09c6672b4d388bae95fd47", "is_disabled": 0, "rental_uris": {"ios": "https://dc.lft.to/lastmile_qr_scan", "android": "https://dc.lft.to/lastmile_qr_scan"}, "is_reserved": 0}, {"lon": -77.03466116666667, "bike_id": "9464e55807dd5cc547a28e03487be3b4", "lat": 38.90730516666667, "fusion_lon": 0.0, "fusion_lat": 0.0, "type": "electric_scooter", "name": "9464e55807dd5cc547a28e03487be3b4", "is_disabled": 0, "rental_uris": {"ios": "https://dc.lft.to/lastmile_qr_scan", "android": "https://dc.lft.to/lastmile_qr_scan"}, "is_reserved": 0}, {"lon": -77.03551116666667, "bike_id": "9a92f743b6c6aa7cd2d6f06b6b8b4f3a", "lat": 38.9241835, "fusion_lon": 0.0, "fusion_lat": 0.0, "type": "electric_scooter", "name": "9a92f743b6c6aa7cd2d6f06b6b8b4f3a", "is_disabled": 0, "rental_uris": {"ios": "https://dc.lft.to/lastmile_qr_scan", "android": "https://dc.lft.to/lastmile_qr_scan"}, "is_reserved": 0}, {"lon": -77.00406016666666, "bike_id": "430a2c8394c0401526f34c2917d6071d", "lat": 38.87878366666666, "fusion_lon": 0.0, "fusion_lat": 0.0, "type": "electric_scooter", "name": "430a2c8394c0401526f34c2917d6071d", "is_disabled": 0, "rental_uris": {"ios": "https://dc.lft.to/lastmile_qr_scan", "android": "https://dc.lft.to/lastmile_qr_scan"}, "is_reserved": 0}, {"lon": -77.01047883333334, "bike_id": "c4fa7870a1a1055fa4e596c80ecec196", "lat": 38.963465, "fusion_lon": 0.0, "fusion_lat": 0.0, "type": "electric_scooter", "name": "c4fa7870a1a1055fa4e596c80ecec196", "is_disabled": 0, "rental_uris": {"ios": "https://dc.lft.to/lastmile_qr_scan", "android": "https://dc.lft.to/lastmile_qr_scan"}, "is_reserved": 0}, {"lon": -77.02602066666667, "bike_id": "e027a6269cfb3b8be8f77a233cd82d0c", "lat": 38.92794216666667, "fusion_lon": 0.0, "fusion_lat": 0.0, "type": "electric_scooter", "name": "e027a6269cfb3b8be8f77a233cd82d0c", "is_disabled": 0, "rental_uris": {"ios": "https://dc.lft.to/lastmile_qr_scan", "android": "https://dc.lft.to/lastmile_qr_scan"}, "is_reserved": 0}, {"lon": -77.119188, "bike_id": "772b5abdec5757905f451aabaf45e140", "lat": 38.87634166666667, "fusion_lon": 0.0, "fusion_lat": 0.0, "type": "electric_bike", "name": "772b5abdec5757905f451aabaf45e140", "is_disabled": 0, "rental_uris": {"ios": "https://dc.lft.to/lastmile_qr_scan", "android": "https://dc.lft.to/lastmile_qr_scan"}, "is_reserved": 0}, {"lon": -77.0701115, "bike_id": "b8cd1c8f9bde19e370a391664d3156ac", "lat": 38.905905, "fusion_lon": 0.0, "fusion_lat": 0.0, "type": "electric_bike", "name": "b8cd1c8f9bde19e370a391664d3156ac", "is_disabled": 0, "rental_uris": {"ios": "https://dc.lft.to/lastmile_qr_scan", "android": "https://dc.lft.to/lastmile_qr_scan"}, "is_reserved": 0}, {"lon": -77.0396215, "bike_id": "18890d70d8c6f238475c6c962575ca89", "lat": 38.923157333333336, "fusion_lon": 0.0, "fusion_lat": 0.0, "type": "electric_scooter", "name": "18890d70d8c6f238475c6c962575ca89", "is_disabled": 0, "rental_uris": {"ios": "https://dc.lft.to/lastmile_qr_scan", "android": "https://dc.lft.to/lastmile_qr_scan"}, "is_reserved": 0}, {"lon": -77.00577383333334, "bike_id": "9eef67c14b4a5a1d8411547f920b40b6", "lat": 38.876559666666665, "fusion_lon": 0.0, "fusion_lat": 0.0, "type": "electric_scooter", "name": "9eef67c14b4a5a1d8411547f920b40b6", "is_disabled": 0, "rental_uris": {"ios": "https://dc.lft.to/lastmile_qr_scan", "android": "https://dc.lft.to/lastmile_qr_scan"}, "is_reserved": 0}, {"lon": -77.05334533333334, "bike_id": "8a51aab3540e0eddb68c681507165f01", "lat": 38.898747166666666, "fusion_lon": 0.0, "fusion_lat": 0.0, "type": "electric_scooter", "name": "8a51aab3540e0eddb68c681507165f01", "is_disabled": 0, "rental_uris": {"ios": "https://dc.lft.to/lastmile_qr_scan", "android": "https://dc.lft.to/lastmile_qr_scan"}, "is_reserved": 0}, {"lon": -77.01762733333334, "bike_id": "0faf4ea0ed94adfd71f86916ff38b0a0", "lat": 38.8721855, "fusion_lon": 0.0, "fusion_lat": 0.0, "type": "electric_scooter", "name": "0faf4ea0ed94adfd71f86916ff38b0a0", "is_disabled": 0, "rental_uris": {"ios": "https://dc.lft.to/lastmile_qr_scan", "android": "https://dc.lft.to/lastmile_qr_scan"}, "is_reserved": 0}, {"lon": -77.02029666666667, "bike_id": "06ad008cc3deb9ed1be5758b8e7d3c60", "lat": 38.916575333333334, "fusion_lon": 0.0, "fusion_lat": 0.0, "type": "electric_scooter", "name": "06ad008cc3deb9ed1be5758b8e7d3c60", "is_disabled": 0, "rental_uris": {"ios": "https://dc.lft.to/lastmile_qr_scan", "android": "https://dc.lft.to/lastmile_qr_scan"}, "is_reserved": 0}, {"lon": -77.00922366666667, "bike_id": "5ed59bc8f72f9348d215fd1e3c281607", "lat": 38.9106805, "fusion_lon": 0.0, "fusion_lat": 0.0, "type": "electric_scooter", "name": "5ed59bc8f72f9348d215fd1e3c281607", "is_disabled": 0, "rental_uris": {"ios": "https://dc.lft.to/lastmile_qr_scan", "android": "https://dc.lft.to/lastmile_qr_scan"}, "is_reserved": 0}, {"lon": -77.002319, "bike_id": "2078bc251357849a4e1ec06b2eb19ec8", "lat": 38.90257583333333, "fusion_lon": 0.0, "fusion_lat": 0.0, "type": "electric_scooter", "name": "2078bc251357849a4e1ec06b2eb19ec8", "is_disabled": 0, "rental_uris": {"ios": "https://dc.lft.to/lastmile_qr_scan", "android": "https://dc.lft.to/lastmile_qr_scan"}, "is_reserved": 0}, {"lon": -77.01761316666666, "bike_id": "d7e96945114487cfbb1582b238751799", "lat": 38.88208766666666, "fusion_lon": 0.0, "fusion_lat": 0.0, "type": "electric_scooter", "name": "d7e96945114487cfbb1582b238751799", "is_disabled": 0, "rental_uris": {"ios": "https://dc.lft.to/lastmile_qr_scan", "android": "https://dc.lft.to/lastmile_qr_scan"}, "is_reserved": 0}, {"lon": -76.99707566666666, "bike_id": "72e53caa7eb6d69b3da0b0b29a2cc067", "lat": 38.8443075, "fusion_lon": 0.0, "fusion_lat": 0.0, "type": "electric_scooter", "name": "72e53caa7eb6d69b3da0b0b29a2cc067", "is_disabled": 0, "rental_uris": {"ios": "https://dc.lft.to/lastmile_qr_scan", "android": "https://dc.lft.to/lastmile_qr_scan"}, "is_reserved": 0}, {"lon": -77.0117085, "bike_id": "4dbc7f973de58f178ef56eca3162b3aa", "lat": 38.8960825, "fusion_lon": 0.0, "fusion_lat": 0.0, "type": "electric_scooter", "name": "4dbc7f973de58f178ef56eca3162b3aa", "is_disabled": 0, "rental_uris": {"ios": "https://dc.lft.to/lastmile_qr_scan", "android": "https://dc.lft.to/lastmile_qr_scan"}, "is_reserved": 0}, {"lon": -77.005375, "bike_id": "d35d9c3ab18d792d8499209fdcc16da2", "lat": 38.87543083333333, "fusion_lon": 0.0, "fusion_lat": 0.0, "type": "electric_scooter", "name": "d35d9c3ab18d792d8499209fdcc16da2", "is_disabled": 0, "rental_uris": {"ios": "https://dc.lft.to/lastmile_qr_scan", "android": "https://dc.lft.to/lastmile_qr_scan"}, "is_reserved": 0}, {"lon": -77.02964816666666, "bike_id": "9324673addde4cd2874ee904ba6fadbc", "lat": 38.922889, "fusion_lon": 0.0, "fusion_lat": 0.0, "type": "electric_scooter", "name": "9324673addde4cd2874ee904ba6fadbc", "is_disabled": 0, "rental_uris": {"ios": "https://dc.lft.to/lastmile_qr_scan", "android": "https://dc.lft.to/lastmile_qr_scan"}, "is_reserved": 0}, {"lon": -77.025139, "bike_id": "ff723d2baeb4f172344ca23a7ea52179", "lat": 38.94204166666667, "fusion_lon": 0.0, "fusion_lat": 0.0, "type": "electric_scooter", "name": "ff723d2baeb4f172344ca23a7ea52179", "is_disabled": 0, "rental_uris": {"ios": "https://dc.lft.to/lastmile_qr_scan", "android": "https://dc.lft.to/lastmile_qr_scan"}, "is_reserved": 0}, {"lon": -76.97602266666667, "bike_id": "953ab8965dcce594990268c3de2b91aa", "lat": 38.89751016666666, "fusion_lon": 0.0, "fusion_lat": 0.0, "type": "electric_scooter", "name": "953ab8965dcce594990268c3de2b91aa", "is_disabled": 0, "rental_uris": {"ios": "https://dc.lft.to/lastmile_qr_scan", "android": "https://dc.lft.to/lastmile_qr_scan"}, "is_reserved": 0}, {"lon": -76.9789015, "bike_id": "ccd77023f08d6cde82814fe40157e30a", "lat": 38.88536666666667, "fusion_lon": 0.0, "fusion_lat": 0.0, "type": "electric_scooter", "name": "ccd77023f08d6cde82814fe40157e30a", "is_disabled": 0, "rental_uris": {"ios": "https://dc.lft.to/lastmile_qr_scan", "android": "https://dc.lft.to/lastmile_qr_scan"}, "is_reserved": 0}, {"lon": -76.98334616666666, "bike_id": "aa121465432b8d34a3c5e464912527bc", "lat": 38.895461, "fusion_lon": 0.0, "fusion_lat": 0.0, "type": "electric_scooter", "name": "aa121465432b8d34a3c5e464912527bc", "is_disabled": 0, "rental_uris": {"ios": "https://dc.lft.to/lastmile_qr_scan", "android": "https://dc.lft.to/lastmile_qr_scan"}, "is_reserved": 0}, {"lon": -77.1180225, "bike_id": "10f78ce140c834232567fc3ff5683904", "lat": 38.87379, "fusion_lon": 0.0, "fusion_lat": 0.0, "type": "electric_bike", "name": "10f78ce140c834232567fc3ff5683904", "is_disabled": 0, "rental_uris": {"ios": "https://dc.lft.to/lastmile_qr_scan", "android": "https://dc.lft.to/lastmile_qr_scan"}, "is_reserved": 0}, {"lon": -77.03162983333333, "bike_id": "0d06519a39b2d191bdfcf622a199ca4f", "lat": 38.89221766666667, "fusion_lon": 0.0, "fusion_lat": 0.0, "type": "electric_scooter", "name": "0d06519a39b2d191bdfcf622a199ca4f", "is_disabled": 0, "rental_uris": {"ios": "https://dc.lft.to/lastmile_qr_scan", "android": "https://dc.lft.to/lastmile_qr_scan"}, "is_reserved": 0}, {"lon": -77.02689016666666, "bike_id": "01e6f8549091067df73a0914db5bb93e", "lat": 38.90239566666666, "fusion_lon": 0.0, "fusion_lat": 0.0, "type": "electric_scooter", "name": "01e6f8549091067df73a0914db5bb93e", "is_disabled": 0, "rental_uris": {"ios": "https://dc.lft.to/lastmile_qr_scan", "android": "https://dc.lft.to/lastmile_qr_scan"}, "is_reserved": 0}, {"lon": -77.03250383333334, "bike_id": "59901a4888249da5119c4a43020cfa4f", "lat": 38.927678666666665, "fusion_lon": 0.0, "fusion_lat": 0.0, "type": "electric_scooter", "name": "59901a4888249da5119c4a43020cfa4f", "is_disabled": 0, "rental_uris": {"ios": "https://dc.lft.to/lastmile_qr_scan", "android": "https://dc.lft.to/lastmile_qr_scan"}, "is_reserved": 0}, {"lon": -76.99509283333333, "bike_id": "52dff0eb771b13e1b23b54124d156424", "lat": 38.89769733333333, "fusion_lon": 0.0, "fusion_lat": 0.0, "type": "electric_scooter", "name": "52dff0eb771b13e1b23b54124d156424", "is_disabled": 0, "rental_uris": {"ios": "https://dc.lft.to/lastmile_qr_scan", "android": "https://dc.lft.to/lastmile_qr_scan"}, "is_reserved": 0}, {"lon": -77.02482983333333, "bike_id": "5ec9753bccea77ff1752b42ec652dd2a", "lat": 38.904064, "fusion_lon": 0.0, "fusion_lat": 0.0, "type": "electric_scooter", "name": "5ec9753bccea77ff1752b42ec652dd2a", "is_disabled": 0, "rental_uris": {"ios": "https://dc.lft.to/lastmile_qr_scan", "android": "https://dc.lft.to/lastmile_qr_scan"}, "is_reserved": 0}, {"lon": -77.00719283333333, "bike_id": "a216143bd5e24d7d2a3c235c921c0725", "lat": 38.83344183333333, "fusion_lon": 0.0, "fusion_lat": 0.0, "type": "electric_bike", "name": "a216143bd5e24d7d2a3c235c921c0725", "is_disabled": 0, "rental_uris": {"ios": "https://dc.lft.to/lastmile_qr_scan", "android": "https://dc.lft.to/lastmile_qr_scan"}, "is_reserved": 0}, {"lon": -77.04111816666666, "bike_id": "5ac05bc3419b21a3068d4652eb69e529", "lat": 38.928005, "fusion_lon": 0.0, "fusion_lat": 0.0, "type": "electric_scooter", "name": "5ac05bc3419b21a3068d4652eb69e529", "is_disabled": 0, "rental_uris": {"ios": "https://dc.lft.to/lastmile_qr_scan", "android": "https://dc.lft.to/lastmile_qr_scan"}, "is_reserved": 0}, {"lon": -77.038526, "bike_id": "673279f1e0ea0fa28d62db15426fcc57", "lat": 38.90817416666667, "fusion_lon": 0.0, "fusion_lat": 0.0, "type": "electric_scooter", "name": "673279f1e0ea0fa28d62db15426fcc57", "is_disabled": 0, "rental_uris": {"ios": "https://dc.lft.to/lastmile_qr_scan", "android": "https://dc.lft.to/lastmile_qr_scan"}, "is_reserved": 0}, {"lon": -76.9626175, "bike_id": "72e591ac7118ce9dee390005e7fdf597", "lat": 38.882462, "fusion_lon": 0.0, "fusion_lat": 0.0, "type": "electric_bike", "name": "72e591ac7118ce9dee390005e7fdf597", "is_disabled": 0, "rental_uris": {"ios": "https://dc.lft.to/lastmile_qr_scan", "android": "https://dc.lft.to/lastmile_qr_scan"}, "is_reserved": 0}, {"lon": -76.99159483333334, "bike_id": "dc3c9232954ae63f4dc893a0dd547a82", "lat": 38.882048833333336, "fusion_lon": 0.0, "fusion_lat": 0.0, "type": "electric_scooter", "name": "dc3c9232954ae63f4dc893a0dd547a82", "is_disabled": 0, "rental_uris": {"ios": "https://dc.lft.to/lastmile_qr_scan", "android": "https://dc.lft.to/lastmile_qr_scan"}, "is_reserved": 0}, {"lon": -77.0097585, "bike_id": "c75f62a581492c0f633f8a8091b0de2c", "lat": 38.9078655, "fusion_lon": 0.0, "fusion_lat": 0.0, "type": "electric_scooter", "name": "c75f62a581492c0f633f8a8091b0de2c", "is_disabled": 0, "rental_uris": {"ios": "https://dc.lft.to/lastmile_qr_scan", "android": "https://dc.lft.to/lastmile_qr_scan"}, "is_reserved": 0}, {"lon": -77.04227, "bike_id": "820015f9a8f15deaa2e38435e9d4c0f2", "lat": 38.909248833333336, "fusion_lon": 0.0, "fusion_lat": 0.0, "type": "electric_scooter", "name": "820015f9a8f15deaa2e38435e9d4c0f2", "is_disabled": 0, "rental_uris": {"ios": "https://dc.lft.to/lastmile_qr_scan", "android": "https://dc.lft.to/lastmile_qr_scan"}, "is_reserved": 0}, {"lon": -77.03347716666667, "bike_id": "f9c9593e0857938e1ddbf4d32763644f", "lat": 38.9170065, "fusion_lon": 0.0, "fusion_lat": 0.0, "type": "electric_scooter", "name": "f9c9593e0857938e1ddbf4d32763644f", "is_disabled": 0, "rental_uris": {"ios": "https://dc.lft.to/lastmile_qr_scan", "android": "https://dc.lft.to/lastmile_qr_scan"}, "is_reserved": 0}, {"lon": -77.0093755, "bike_id": "8492165f9f4d206220d963eee241302b", "lat": 38.883151166666664, "fusion_lon": 0.0, "fusion_lat": 0.0, "type": "electric_scooter", "name": "8492165f9f4d206220d963eee241302b", "is_disabled": 0, "rental_uris": {"ios": "https://dc.lft.to/lastmile_qr_scan", "android": "https://dc.lft.to/lastmile_qr_scan"}, "is_reserved": 0}, {"lon": -77.0304355, "bike_id": "5846b1e777916503696168823d6d6d83", "lat": 38.91332883333333, "fusion_lon": 0.0, "fusion_lat": 0.0, "type": "electric_scooter", "name": "5846b1e777916503696168823d6d6d83", "is_disabled": 0, "rental_uris": {"ios": "https://dc.lft.to/lastmile_qr_scan", "android": "https://dc.lft.to/lastmile_qr_scan"}, "is_reserved": 0}, {"lon": -77.03659666666667, "bike_id": "7fee0800047f8989be6b7d894ee61355", "lat": 38.92299333333333, "fusion_lon": 0.0, "fusion_lat": 0.0, "type": "electric_scooter", "name": "7fee0800047f8989be6b7d894ee61355", "is_disabled": 0, "rental_uris": {"ios": "https://dc.lft.to/lastmile_qr_scan", "android": "https://dc.lft.to/lastmile_qr_scan"}, "is_reserved": 0}, {"lon": -77.02531216666667, "bike_id": "f139e88704e2336b3c00e3168fd35e4a", "lat": 38.937536, "fusion_lon": 0.0, "fusion_lat": 0.0, "type": "electric_scooter", "name": "f139e88704e2336b3c00e3168fd35e4a", "is_disabled": 0, "rental_uris": {"ios": "https://dc.lft.to/lastmile_qr_scan", "android": "https://dc.lft.to/lastmile_qr_scan"}, "is_reserved": 0}, {"lon": -77.04581383333333, "bike_id": "2343bda8fefedcf2b61eb89dfd2e572a", "lat": 38.918585, "fusion_lon": 0.0, "fusion_lat": 0.0, "type": "electric_scooter", "name": "2343bda8fefedcf2b61eb89dfd2e572a", "is_disabled": 0, "rental_uris": {"ios": "https://dc.lft.to/lastmile_qr_scan", "android": "https://dc.lft.to/lastmile_qr_scan"}, "is_reserved": 0}, {"lon": -76.98569366666666, "bike_id": "e4b56d5eaa7a2147ed30599079a3510f", "lat": 38.8834815, "fusion_lon": 0.0, "fusion_lat": 0.0, "type": "electric_scooter", "name": "e4b56d5eaa7a2147ed30599079a3510f", "is_disabled": 0, "rental_uris": {"ios": "https://dc.lft.to/lastmile_qr_scan", "android": "https://dc.lft.to/lastmile_qr_scan"}, "is_reserved": 0}, {"lon": -77.04866133333333, "bike_id": "27118a793cc99ebea0b2aafa0d81eeac", "lat": 38.8922485, "fusion_lon": 0.0, "fusion_lat": 0.0, "type": "electric_scooter", "name": "27118a793cc99ebea0b2aafa0d81eeac", "is_disabled": 0, "rental_uris": {"ios": "https://dc.lft.to/lastmile_qr_scan", "android": "https://dc.lft.to/lastmile_qr_scan"}, "is_reserved": 0}, {"lon": -77.0214825, "bike_id": "eac129d899ab8983da3ff4779892e83e", "lat": 38.902922833333335, "fusion_lon": 0.0, "fusion_lat": 0.0, "type": "electric_scooter", "name": "eac129d899ab8983da3ff4779892e83e", "is_disabled": 0, "rental_uris": {"ios": "https://dc.lft.to/lastmile_qr_scan", "android": "https://dc.lft.to/lastmile_qr_scan"}, "is_reserved": 0}, {"lon": -77.04599216666666, "bike_id": "15496800daccada869f5217977447ac5", "lat": 39.02460716666667, "fusion_lon": 0.0, "fusion_lat": 0.0, "type": "electric_bike", "name": "15496800daccada869f5217977447ac5", "is_disabled": 0, "rental_uris": {"ios": "https://dc.lft.to/lastmile_qr_scan", "android": "https://dc.lft.to/lastmile_qr_scan"}, "is_reserved": 0}, {"lon": -76.974588, "bike_id": "74c42e79b9be4c3a33ee5bd459ed575a", "lat": 38.86535583333333, "fusion_lon": 0.0, "fusion_lat": 0.0, "type": "electric_scooter", "name": "74c42e79b9be4c3a33ee5bd459ed575a", "is_disabled": 0, "rental_uris": {"ios": "https://dc.lft.to/lastmile_qr_scan", "android": "https://dc.lft.to/lastmile_qr_scan"}, "is_reserved": 0}, {"lon": -77.0735285, "bike_id": "947198dd6872da075211d2a49f603978", "lat": 38.9305575, "fusion_lon": 0.0, "fusion_lat": 0.0, "type": "electric_bike", "name": "947198dd6872da075211d2a49f603978", "is_disabled": 0, "rental_uris": {"ios": "https://dc.lft.to/lastmile_qr_scan", "android": "https://dc.lft.to/lastmile_qr_scan"}, "is_reserved": 0}, {"lon": -77.04940733333333, "bike_id": "1143b414e9660ea79db6f4b0e5da337f", "lat": 38.91830066666667, "fusion_lon": 0.0, "fusion_lat": 0.0, "type": "electric_scooter", "name": "1143b414e9660ea79db6f4b0e5da337f", "is_disabled": 0, "rental_uris": {"ios": "https://dc.lft.to/lastmile_qr_scan", "android": "https://dc.lft.to/lastmile_qr_scan"}, "is_reserved": 0}, {"lon": -77.03850683333333, "bike_id": "6988fa2b0afb0086cd1fdc14262ad056", "lat": 38.90747433333333, "fusion_lon": 0.0, "fusion_lat": 0.0, "type": "electric_scooter", "name": "6988fa2b0afb0086cd1fdc14262ad056", "is_disabled": 0, "rental_uris": {"ios": "https://dc.lft.to/lastmile_qr_scan", "android": "https://dc.lft.to/lastmile_qr_scan"}, "is_reserved": 0}, {"lon": -76.99606166666666, "bike_id": "40b8206741402099792d6d2ca790c66f", "lat": 38.9096455, "fusion_lon": 0.0, "fusion_lat": 0.0, "type": "electric_scooter", "name": "40b8206741402099792d6d2ca790c66f", "is_disabled": 0, "rental_uris": {"ios": "https://dc.lft.to/lastmile_qr_scan", "android": "https://dc.lft.to/lastmile_qr_scan"}, "is_reserved": 0}, {"lon": -76.99336516666666, "bike_id": "3864d78a1e60ed14266992d19b1dcd4f", "lat": 38.87145866666667, "fusion_lon": 0.0, "fusion_lat": 0.0, "type": "electric_scooter", "name": "3864d78a1e60ed14266992d19b1dcd4f", "is_disabled": 0, "rental_uris": {"ios": "https://dc.lft.to/lastmile_qr_scan", "android": "https://dc.lft.to/lastmile_qr_scan"}, "is_reserved": 0}, {"lon": -77.02087883333333, "bike_id": "927736b341ced38cadf05f9390a53779", "lat": 38.9575495, "fusion_lon": 0.0, "fusion_lat": 0.0, "type": "electric_scooter", "name": "927736b341ced38cadf05f9390a53779", "is_disabled": 0, "rental_uris": {"ios": "https://dc.lft.to/lastmile_qr_scan", "android": "https://dc.lft.to/lastmile_qr_scan"}, "is_reserved": 0}, {"lon": -76.960597, "bike_id": "de09bfde6f8f0c8e9939ff5ae0ad4d6d", "lat": 38.884053333333334, "fusion_lon": 0.0, "fusion_lat": 0.0, "type": "electric_bike", "name": "de09bfde6f8f0c8e9939ff5ae0ad4d6d", "is_disabled": 0, "rental_uris": {"ios": "https://dc.lft.to/lastmile_qr_scan", "android": "https://dc.lft.to/lastmile_qr_scan"}, "is_reserved": 0}, {"lon": -76.98726333333333, "bike_id": "177f2e37a5a7a6b017b925b38b1e6d72", "lat": 38.867114666666666, "fusion_lon": 0.0, "fusion_lat": 0.0, "type": "electric_scooter", "name": "177f2e37a5a7a6b017b925b38b1e6d72", "is_disabled": 0, "rental_uris": {"ios": "https://dc.lft.to/lastmile_qr_scan", "android": "https://dc.lft.to/lastmile_qr_scan"}, "is_reserved": 0}, {"lon": -77.03344283333334, "bike_id": "71ea09a1809e37c59088dfe8ad815d21", "lat": 38.936383166666666, "fusion_lon": 0.0, "fusion_lat": 0.0, "type": "electric_scooter", "name": "71ea09a1809e37c59088dfe8ad815d21", "is_disabled": 0, "rental_uris": {"ios": "https://dc.lft.to/lastmile_qr_scan", "android": "https://dc.lft.to/lastmile_qr_scan"}, "is_reserved": 0}, {"lon": -77.0219625, "bike_id": "4bd8e05e589bbb3163b71415e5f23745", "lat": 38.90274216666667, "fusion_lon": 0.0, "fusion_lat": 0.0, "type": "electric_scooter", "name": "4bd8e05e589bbb3163b71415e5f23745", "is_disabled": 0, "rental_uris": {"ios": "https://dc.lft.to/lastmile_qr_scan", "android": "https://dc.lft.to/lastmile_qr_scan"}, "is_reserved": 0}, {"lon": -76.98859283333333, "bike_id": "2cf193f7bafcc89e7d7708e69bdc7e50", "lat": 38.954768666666666, "fusion_lon": 0.0, "fusion_lat": 0.0, "type": "electric_bike", "name": "2cf193f7bafcc89e7d7708e69bdc7e50", "is_disabled": 0, "rental_uris": {"ios": "https://dc.lft.to/lastmile_qr_scan", "android": "https://dc.lft.to/lastmile_qr_scan"}, "is_reserved": 0}, {"lon": -76.94887383333334, "bike_id": "651422f80eae864b92b0b04b1679b507", "lat": 38.8951285, "fusion_lon": 0.0, "fusion_lat": 0.0, "type": "electric_scooter", "name": "651422f80eae864b92b0b04b1679b507", "is_disabled": 0, "rental_uris": {"ios": "https://dc.lft.to/lastmile_qr_scan", "android": "https://dc.lft.to/lastmile_qr_scan"}, "is_reserved": 0}, {"lon": -76.97222433333333, "bike_id": "fcb5fc79d2fa291322781ef6807cca90", "lat": 38.914421, "fusion_lon": 0.0, "fusion_lat": 0.0, "type": "electric_bike", "name": "fcb5fc79d2fa291322781ef6807cca90", "is_disabled": 0, "rental_uris": {"ios": "https://dc.lft.to/lastmile_qr_scan", "android": "https://dc.lft.to/lastmile_qr_scan"}, "is_reserved": 0}, {"lon": -77.01647383333334, "bike_id": "caa253a8d2f94fa575aa07145d083175", "lat": 38.90574266666667, "fusion_lon": 0.0, "fusion_lat": 0.0, "type": "electric_scooter", "name": "caa253a8d2f94fa575aa07145d083175", "is_disabled": 0, "rental_uris": {"ios": "https://dc.lft.to/lastmile_qr_scan", "android": "https://dc.lft.to/lastmile_qr_scan"}, "is_reserved": 0}, {"lon": -77.0278595, "bike_id": "2e052ca2a713afbec5f08bf5b8400532", "lat": 38.89689466666667, "fusion_lon": 0.0, "fusion_lat": 0.0, "type": "electric_scooter", "name": "2e052ca2a713afbec5f08bf5b8400532", "is_disabled": 0, "rental_uris": {"ios": "https://dc.lft.to/lastmile_qr_scan", "android": "https://dc.lft.to/lastmile_qr_scan"}, "is_reserved": 0}, {"lon": -77.02504283333333, "bike_id": "22529789a86cb2a0f02297a9fa6ba9c4", "lat": 38.920207166666664, "fusion_lon": 0.0, "fusion_lat": 0.0, "type": "electric_scooter", "name": "22529789a86cb2a0f02297a9fa6ba9c4", "is_disabled": 0, "rental_uris": {"ios": "https://dc.lft.to/lastmile_qr_scan", "android": "https://dc.lft.to/lastmile_qr_scan"}, "is_reserved": 0}, {"lon": -76.98708066666667, "bike_id": "85c670cdc8a259859b6a00c43202ec41", "lat": 38.86541316666667, "fusion_lon": 0.0, "fusion_lat": 0.0, "type": "electric_scooter", "name": "85c670cdc8a259859b6a00c43202ec41", "is_disabled": 0, "rental_uris": {"ios": "https://dc.lft.to/lastmile_qr_scan", "android": "https://dc.lft.to/lastmile_qr_scan"}, "is_reserved": 0}, {"lon": -77.04506466666666, "bike_id": "a6968115155f9d5c695676593b0808b0", "lat": 38.9193965, "fusion_lon": 0.0, "fusion_lat": 0.0, "type": "electric_scooter", "name": "a6968115155f9d5c695676593b0808b0", "is_disabled": 0, "rental_uris": {"ios": "https://dc.lft.to/lastmile_qr_scan", "android": "https://dc.lft.to/lastmile_qr_scan"}, "is_reserved": 0}, {"lon": -77.04870216666667, "bike_id": "23b30d940850d97a9223556917e993ba", "lat": 38.9097215, "fusion_lon": 0.0, "fusion_lat": 0.0, "type": "electric_scooter", "name": "23b30d940850d97a9223556917e993ba", "is_disabled": 0, "rental_uris": {"ios": "https://dc.lft.to/lastmile_qr_scan", "android": "https://dc.lft.to/lastmile_qr_scan"}, "is_reserved": 0}, {"lon": -77.051385, "bike_id": "dc265e49a4c478bb7afb2fffe15b2b58", "lat": 38.898656, "fusion_lon": 0.0, "fusion_lat": 0.0, "type": "electric_scooter", "name": "dc265e49a4c478bb7afb2fffe15b2b58", "is_disabled": 0, "rental_uris": {"ios": "https://dc.lft.to/lastmile_qr_scan", "android": "https://dc.lft.to/lastmile_qr_scan"}, "is_reserved": 0}, {"lon": -77.01285416666667, "bike_id": "a59ed0165a48619dc9bd927949159578", "lat": 38.910362166666665, "fusion_lon": 0.0, "fusion_lat": 0.0, "type": "electric_scooter", "name": "a59ed0165a48619dc9bd927949159578", "is_disabled": 0, "rental_uris": {"ios": "https://dc.lft.to/lastmile_qr_scan", "android": "https://dc.lft.to/lastmile_qr_scan"}, "is_reserved": 0}, {"lon": -77.0214575, "bike_id": "076e8caed08068b446f2a8c4e045d2bd", "lat": 38.89406433333333, "fusion_lon": 0.0, "fusion_lat": 0.0, "type": "electric_scooter", "name": "076e8caed08068b446f2a8c4e045d2bd", "is_disabled": 0, "rental_uris": {"ios": "https://dc.lft.to/lastmile_qr_scan", "android": "https://dc.lft.to/lastmile_qr_scan"}, "is_reserved": 0}, {"lon": -77.03634566666666, "bike_id": "da53e1cb7d7f426be5aa2292642d189a", "lat": 38.9186265, "fusion_lon": 0.0, "fusion_lat": 0.0, "type": "electric_scooter", "name": "da53e1cb7d7f426be5aa2292642d189a", "is_disabled": 0, "rental_uris": {"ios": "https://dc.lft.to/lastmile_qr_scan", "android": "https://dc.lft.to/lastmile_qr_scan"}, "is_reserved": 0}, {"lon": -77.02590633333334, "bike_id": "ba76942d26a67b5315c58cae529120c0", "lat": 38.9050115, "fusion_lon": 0.0, "fusion_lat": 0.0, "type": "electric_scooter", "name": "ba76942d26a67b5315c58cae529120c0", "is_disabled": 0, "rental_uris": {"ios": "https://dc.lft.to/lastmile_qr_scan", "android": "https://dc.lft.to/lastmile_qr_scan"}, "is_reserved": 0}, {"lon": -76.98942316666667, "bike_id": "647955c32db0503b4eebc68daf56a467", "lat": 38.91839, "fusion_lon": 0.0, "fusion_lat": 0.0, "type": "electric_scooter", "name": "647955c32db0503b4eebc68daf56a467", "is_disabled": 0, "rental_uris": {"ios": "https://dc.lft.to/lastmile_qr_scan", "android": "https://dc.lft.to/lastmile_qr_scan"}, "is_reserved": 0}, {"lon": -77.04986516666666, "bike_id": "da8c28f549859d4338cd8720426156a3", "lat": 38.89466616666667, "fusion_lon": 0.0, "fusion_lat": 0.0, "type": "electric_scooter", "name": "da8c28f549859d4338cd8720426156a3", "is_disabled": 0, "rental_uris": {"ios": "https://dc.lft.to/lastmile_qr_scan", "android": "https://dc.lft.to/lastmile_qr_scan"}, "is_reserved": 0}, {"lon": -77.04339016666667, "bike_id": "92fb8c2cb1f76a626c504065452f7014", "lat": 38.907852166666665, "fusion_lon": 0.0, "fusion_lat": 0.0, "type": "electric_scooter", "name": "92fb8c2cb1f76a626c504065452f7014", "is_disabled": 0, "rental_uris": {"ios": "https://dc.lft.to/lastmile_qr_scan", "android": "https://dc.lft.to/lastmile_qr_scan"}, "is_reserved": 0}, {"lon": -77.03503116666667, "bike_id": "7205804a877b3cef11f0f0abc025bdfd", "lat": 38.9249885, "fusion_lon": 0.0, "fusion_lat": 0.0, "type": "electric_scooter", "name": "7205804a877b3cef11f0f0abc025bdfd", "is_disabled": 0, "rental_uris": {"ios": "https://dc.lft.to/lastmile_qr_scan", "android": "https://dc.lft.to/lastmile_qr_scan"}, "is_reserved": 0}, {"lon": -77.01199533333333, "bike_id": "4d75f0e1aeaa394e19ccc4ab76ac4b02", "lat": 38.893166666666666, "fusion_lon": 0.0, "fusion_lat": 0.0, "type": "electric_scooter", "name": "4d75f0e1aeaa394e19ccc4ab76ac4b02", "is_disabled": 0, "rental_uris": {"ios": "https://dc.lft.to/lastmile_qr_scan", "android": "https://dc.lft.to/lastmile_qr_scan"}, "is_reserved": 0}, {"lon": -77.002858, "bike_id": "f259e8172006c53141a52eff51ecc8f0", "lat": 38.918155, "fusion_lon": 0.0, "fusion_lat": 0.0, "type": "electric_scooter", "name": "f259e8172006c53141a52eff51ecc8f0", "is_disabled": 0, "rental_uris": {"ios": "https://dc.lft.to/lastmile_qr_scan", "android": "https://dc.lft.to/lastmile_qr_scan"}, "is_reserved": 0}, {"lon": -77.009271, "bike_id": "ca7df636503f6a80a2e4a23101516e5f", "lat": 38.91807216666667, "fusion_lon": 0.0, "fusion_lat": 0.0, "type": "electric_scooter", "name": "ca7df636503f6a80a2e4a23101516e5f", "is_disabled": 0, "rental_uris": {"ios": "https://dc.lft.to/lastmile_qr_scan", "android": "https://dc.lft.to/lastmile_qr_scan"}, "is_reserved": 0}, {"lon": -77.001317, "bike_id": "95d86cca995a72557f0e409231b38fb1", "lat": 38.8852615, "fusion_lon": 0.0, "fusion_lat": 0.0, "type": "electric_scooter", "name": "95d86cca995a72557f0e409231b38fb1", "is_disabled": 0, "rental_uris": {"ios": "https://dc.lft.to/lastmile_qr_scan", "android": "https://dc.lft.to/lastmile_qr_scan"}, "is_reserved": 0}, {"lon": -77.0258555, "bike_id": "7a741ca51a757501fde2e50d5cd6e6e2", "lat": 38.903725, "fusion_lon": 0.0, "fusion_lat": 0.0, "type": "electric_scooter", "name": "7a741ca51a757501fde2e50d5cd6e6e2", "is_disabled": 0, "rental_uris": {"ios": "https://dc.lft.to/lastmile_qr_scan", "android": "https://dc.lft.to/lastmile_qr_scan"}, "is_reserved": 0}, {"lon": -76.98878983333333, "bike_id": "fecd4c2e91154fc9ce07419905ac535c", "lat": 38.86660116666667, "fusion_lon": 0.0, "fusion_lat": 0.0, "type": "electric_scooter", "name": "fecd4c2e91154fc9ce07419905ac535c", "is_disabled": 0, "rental_uris": {"ios": "https://dc.lft.to/lastmile_qr_scan", "android": "https://dc.lft.to/lastmile_qr_scan"}, "is_reserved": 0}, {"lon": -77.02491316666666, "bike_id": "6b0c66f9732c35b317f3c451fb122e90", "lat": 38.94189033333333, "fusion_lon": 0.0, "fusion_lat": 0.0, "type": "electric_scooter", "name": "6b0c66f9732c35b317f3c451fb122e90", "is_disabled": 0, "rental_uris": {"ios": "https://dc.lft.to/lastmile_qr_scan", "android": "https://dc.lft.to/lastmile_qr_scan"}, "is_reserved": 0}, {"lon": -77.0229745, "bike_id": "d9a745d9ab8a1b24f255c90b69e2344e", "lat": 38.9232965, "fusion_lon": 0.0, "fusion_lat": 0.0, "type": "electric_bike", "name": "d9a745d9ab8a1b24f255c90b69e2344e", "is_disabled": 0, "rental_uris": {"ios": "https://dc.lft.to/lastmile_qr_scan", "android": "https://dc.lft.to/lastmile_qr_scan"}, "is_reserved": 0}, {"lon": -77.06140616666667, "bike_id": "c127a17e825e83882d49e2b9c22af52e", "lat": 38.943626, "fusion_lon": 0.0, "fusion_lat": 0.0, "type": "electric_scooter", "name": "c127a17e825e83882d49e2b9c22af52e", "is_disabled": 0, "rental_uris": {"ios": "https://dc.lft.to/lastmile_qr_scan", "android": "https://dc.lft.to/lastmile_qr_scan"}, "is_reserved": 0}, {"lon": -77.05117983333334, "bike_id": "c1eda1bf6e4af026286edc2e0fa093db", "lat": 38.9234535, "fusion_lon": 0.0, "fusion_lat": 0.0, "type": "electric_scooter", "name": "c1eda1bf6e4af026286edc2e0fa093db", "is_disabled": 0, "rental_uris": {"ios": "https://dc.lft.to/lastmile_qr_scan", "android": "https://dc.lft.to/lastmile_qr_scan"}, "is_reserved": 0}, {"lon": -77.07790383333334, "bike_id": "92b9e6f1561e98223d6c1bdf66a545c1", "lat": 38.99600316666667, "fusion_lon": 0.0, "fusion_lat": 0.0, "type": "electric_bike", "name": "92b9e6f1561e98223d6c1bdf66a545c1", "is_disabled": 0, "rental_uris": {"ios": "https://dc.lft.to/lastmile_qr_scan", "android": "https://dc.lft.to/lastmile_qr_scan"}, "is_reserved": 0}, {"lon": -76.99783866666667, "bike_id": "3a34b4767dc618be8655ff73110901b7", "lat": 38.910531666666664, "fusion_lon": 0.0, "fusion_lat": 0.0, "type": "electric_scooter", "name": "3a34b4767dc618be8655ff73110901b7", "is_disabled": 0, "rental_uris": {"ios": "https://dc.lft.to/lastmile_qr_scan", "android": "https://dc.lft.to/lastmile_qr_scan"}, "is_reserved": 0}, {"lon": -76.98717966666666, "bike_id": "a6a377c7357cd82ed20ad70e8d27113d", "lat": 38.86631416666667, "fusion_lon": 0.0, "fusion_lat": 0.0, "type": "electric_scooter", "name": "a6a377c7357cd82ed20ad70e8d27113d", "is_disabled": 0, "rental_uris": {"ios": "https://dc.lft.to/lastmile_qr_scan", "android": "https://dc.lft.to/lastmile_qr_scan"}, "is_reserved": 0}, {"lon": -77.058612, "bike_id": "9d6ca5fb2444307ab10351c5dd910546", "lat": 38.936058, "fusion_lon": 0.0, "fusion_lat": 0.0, "type": "electric_scooter", "name": "9d6ca5fb2444307ab10351c5dd910546", "is_disabled": 0, "rental_uris": {"ios": "https://dc.lft.to/lastmile_qr_scan", "android": "https://dc.lft.to/lastmile_qr_scan"}, "is_reserved": 0}, {"lon": -76.94993216666667, "bike_id": "9403b4d36c56340afc2851eaa5458ff8", "lat": 38.8938605, "fusion_lon": 0.0, "fusion_lat": 0.0, "type": "electric_scooter", "name": "9403b4d36c56340afc2851eaa5458ff8", "is_disabled": 0, "rental_uris": {"ios": "https://dc.lft.to/lastmile_qr_scan", "android": "https://dc.lft.to/lastmile_qr_scan"}, "is_reserved": 0}, {"lon": -77.024275, "bike_id": "71fa44f2f85392d2dfd1c989d2ab18fc", "lat": 38.9141325, "fusion_lon": 0.0, "fusion_lat": 0.0, "type": "electric_scooter", "name": "71fa44f2f85392d2dfd1c989d2ab18fc", "is_disabled": 0, "rental_uris": {"ios": "https://dc.lft.to/lastmile_qr_scan", "android": "https://dc.lft.to/lastmile_qr_scan"}, "is_reserved": 0}, {"lon": -76.98018283333333, "bike_id": "abea3caad61fc70570a6f91bf58e36c5", "lat": 38.89891216666667, "fusion_lon": 0.0, "fusion_lat": 0.0, "type": "electric_scooter", "name": "abea3caad61fc70570a6f91bf58e36c5", "is_disabled": 0, "rental_uris": {"ios": "https://dc.lft.to/lastmile_qr_scan", "android": "https://dc.lft.to/lastmile_qr_scan"}, "is_reserved": 0}, {"lon": -77.01447383333333, "bike_id": "5b0520415f1f5af94c4e564fc78bc9bc", "lat": 38.87932933333333, "fusion_lon": 0.0, "fusion_lat": 0.0, "type": "electric_scooter", "name": "5b0520415f1f5af94c4e564fc78bc9bc", "is_disabled": 0, "rental_uris": {"ios": "https://dc.lft.to/lastmile_qr_scan", "android": "https://dc.lft.to/lastmile_qr_scan"}, "is_reserved": 0}, {"lon": -77.07434583333334, "bike_id": "c1df3ba24233339f2555d3a13de4ed90", "lat": 38.9995035, "fusion_lon": 0.0, "fusion_lat": 0.0, "type": "electric_bike", "name": "c1df3ba24233339f2555d3a13de4ed90", "is_disabled": 0, "rental_uris": {"ios": "https://dc.lft.to/lastmile_qr_scan", "android": "https://dc.lft.to/lastmile_qr_scan"}, "is_reserved": 0}, {"lon": -77.00736783333333, "bike_id": "f3c81d0941bb399139ba6d417b02a39b", "lat": 38.9162875, "fusion_lon": 0.0, "fusion_lat": 0.0, "type": "electric_scooter", "name": "f3c81d0941bb399139ba6d417b02a39b", "is_disabled": 0, "rental_uris": {"ios": "https://dc.lft.to/lastmile_qr_scan", "android": "https://dc.lft.to/lastmile_qr_scan"}, "is_reserved": 0}, {"lon": -77.01429616666667, "bike_id": "8654376a2953d29c748e21ce8f797e5e", "lat": 38.91460583333333, "fusion_lon": 0.0, "fusion_lat": 0.0, "type": "electric_scooter", "name": "8654376a2953d29c748e21ce8f797e5e", "is_disabled": 0, "rental_uris": {"ios": "https://dc.lft.to/lastmile_qr_scan", "android": "https://dc.lft.to/lastmile_qr_scan"}, "is_reserved": 0}, {"lon": -77.03262966666667, "bike_id": "1e13d6e4d097ea1c6d78967f961aa914", "lat": 38.935643666666664, "fusion_lon": 0.0, "fusion_lat": 0.0, "type": "electric_scooter", "name": "1e13d6e4d097ea1c6d78967f961aa914", "is_disabled": 0, "rental_uris": {"ios": "https://dc.lft.to/lastmile_qr_scan", "android": "https://dc.lft.to/lastmile_qr_scan"}, "is_reserved": 0}, {"lon": -77.04902283333334, "bike_id": "2f8e17f9166976f63dcbe48cbc6c81f5", "lat": 38.903483333333334, "fusion_lon": 0.0, "fusion_lat": 0.0, "type": "electric_scooter", "name": "2f8e17f9166976f63dcbe48cbc6c81f5", "is_disabled": 0, "rental_uris": {"ios": "https://dc.lft.to/lastmile_qr_scan", "android": "https://dc.lft.to/lastmile_qr_scan"}, "is_reserved": 0}, {"lon": -77.01653833333333, "bike_id": "4b60a84431273f063ace2d2921e9c5b8", "lat": 38.929020333333334, "fusion_lon": 0.0, "fusion_lat": 0.0, "type": "electric_scooter", "name": "4b60a84431273f063ace2d2921e9c5b8", "is_disabled": 0, "rental_uris": {"ios": "https://dc.lft.to/lastmile_qr_scan", "android": "https://dc.lft.to/lastmile_qr_scan"}, "is_reserved": 0}, {"lon": -76.99545266666667, "bike_id": "b7a5e0334e02b27bc72baff729d33f1c", "lat": 38.8625925, "fusion_lon": 0.0, "fusion_lat": 0.0, "type": "electric_scooter", "name": "b7a5e0334e02b27bc72baff729d33f1c", "is_disabled": 0, "rental_uris": {"ios": "https://dc.lft.to/lastmile_qr_scan", "android": "https://dc.lft.to/lastmile_qr_scan"}, "is_reserved": 0}, {"lon": -76.99548183333333, "bike_id": "c24d83efac231b0d18d619d96bcdb7e5", "lat": 38.92679783333333, "fusion_lon": 0.0, "fusion_lat": 0.0, "type": "electric_scooter", "name": "c24d83efac231b0d18d619d96bcdb7e5", "is_disabled": 0, "rental_uris": {"ios": "https://dc.lft.to/lastmile_qr_scan", "android": "https://dc.lft.to/lastmile_qr_scan"}, "is_reserved": 0}, {"lon": -77.03858033333333, "bike_id": "b474a2816d4a8970f7b159dcb89a92c1", "lat": 38.931335833333335, "fusion_lon": 0.0, "fusion_lat": 0.0, "type": "electric_scooter", "name": "b474a2816d4a8970f7b159dcb89a92c1", "is_disabled": 0, "rental_uris": {"ios": "https://dc.lft.to/lastmile_qr_scan", "android": "https://dc.lft.to/lastmile_qr_scan"}, "is_reserved": 0}, {"lon": -77.0234895, "bike_id": "3e26aceab3bd0474622f8e6121199f7c", "lat": 38.935285666666665, "fusion_lon": 0.0, "fusion_lat": 0.0, "type": "electric_scooter", "name": "3e26aceab3bd0474622f8e6121199f7c", "is_disabled": 0, "rental_uris": {"ios": "https://dc.lft.to/lastmile_qr_scan", "android": "https://dc.lft.to/lastmile_qr_scan"}, "is_reserved": 0}, {"lon": -77.02617216666667, "bike_id": "5573c8fcb82b98293ccc1c0840dadf63", "lat": 38.896010833333335, "fusion_lon": 0.0, "fusion_lat": 0.0, "type": "electric_scooter", "name": "5573c8fcb82b98293ccc1c0840dadf63", "is_disabled": 0, "rental_uris": {"ios": "https://dc.lft.to/lastmile_qr_scan", "android": "https://dc.lft.to/lastmile_qr_scan"}, "is_reserved": 0}, {"lon": -76.937362, "bike_id": "23f3db9b39090cdc98c78d59cb00e86d", "lat": 38.8900775, "fusion_lon": 0.0, "fusion_lat": 0.0, "type": "electric_scooter", "name": "23f3db9b39090cdc98c78d59cb00e86d", "is_disabled": 0, "rental_uris": {"ios": "https://dc.lft.to/lastmile_qr_scan", "android": "https://dc.lft.to/lastmile_qr_scan"}, "is_reserved": 0}, {"lon": -77.02996483333334, "bike_id": "1a056b8d982f558b46c320a12ab67e1e", "lat": 38.9247185, "fusion_lon": 0.0, "fusion_lat": 0.0, "type": "electric_scooter", "name": "1a056b8d982f558b46c320a12ab67e1e", "is_disabled": 0, "rental_uris": {"ios": "https://dc.lft.to/lastmile_qr_scan", "android": "https://dc.lft.to/lastmile_qr_scan"}, "is_reserved": 0}, {"lon": -76.93130316666667, "bike_id": "b05de6b9a9278e5f82af72ce85d8b50f", "lat": 38.8761175, "fusion_lon": 0.0, "fusion_lat": 0.0, "type": "electric_scooter", "name": "b05de6b9a9278e5f82af72ce85d8b50f", "is_disabled": 0, "rental_uris": {"ios": "https://dc.lft.to/lastmile_qr_scan", "android": "https://dc.lft.to/lastmile_qr_scan"}, "is_reserved": 0}, {"lon": -77.05454066666667, "bike_id": "52227ac0b5c169112327d920ccc1cf44", "lat": 38.928714, "fusion_lon": 0.0, "fusion_lat": 0.0, "type": "electric_scooter", "name": "52227ac0b5c169112327d920ccc1cf44", "is_disabled": 0, "rental_uris": {"ios": "https://dc.lft.to/lastmile_qr_scan", "android": "https://dc.lft.to/lastmile_qr_scan"}, "is_reserved": 0}, {"lon": -77.03168816666667, "bike_id": "7eae5355907cf146c64975ca57451370", "lat": 38.89216016666666, "fusion_lon": 0.0, "fusion_lat": 0.0, "type": "electric_scooter", "name": "7eae5355907cf146c64975ca57451370", "is_disabled": 0, "rental_uris": {"ios": "https://dc.lft.to/lastmile_qr_scan", "android": "https://dc.lft.to/lastmile_qr_scan"}, "is_reserved": 0}, {"lon": -77.01474466666667, "bike_id": "e2c3e5ce667800a3b42168774e064db0", "lat": 38.896007833333336, "fusion_lon": 0.0, "fusion_lat": 0.0, "type": "electric_scooter", "name": "e2c3e5ce667800a3b42168774e064db0", "is_disabled": 0, "rental_uris": {"ios": "https://dc.lft.to/lastmile_qr_scan", "android": "https://dc.lft.to/lastmile_qr_scan"}, "is_reserved": 0}, {"lon": -77.02735566666667, "bike_id": "8b02dc2d50187f2f44bb1dc48d63b30b", "lat": 38.933868, "fusion_lon": 0.0, "fusion_lat": 0.0, "type": "electric_scooter", "name": "8b02dc2d50187f2f44bb1dc48d63b30b", "is_disabled": 0, "rental_uris": {"ios": "https://dc.lft.to/lastmile_qr_scan", "android": "https://dc.lft.to/lastmile_qr_scan"}, "is_reserved": 0}, {"lon": -77.021891, "bike_id": "a1340b8406b212262fd41486b229d7bc", "lat": 38.89475016666667, "fusion_lon": 0.0, "fusion_lat": 0.0, "type": "electric_scooter", "name": "a1340b8406b212262fd41486b229d7bc", "is_disabled": 0, "rental_uris": {"ios": "https://dc.lft.to/lastmile_qr_scan", "android": "https://dc.lft.to/lastmile_qr_scan"}, "is_reserved": 0}, {"lon": -77.0254555, "bike_id": "e99ce552820e1096910681ffb7334061", "lat": 38.90730633333333, "fusion_lon": 0.0, "fusion_lat": 0.0, "type": "electric_scooter", "name": "e99ce552820e1096910681ffb7334061", "is_disabled": 0, "rental_uris": {"ios": "https://dc.lft.to/lastmile_qr_scan", "android": "https://dc.lft.to/lastmile_qr_scan"}, "is_reserved": 0}, {"lon": -77.03970216666667, "bike_id": "8cb0791677eff97f06f59c59f864b886", "lat": 38.92314233333333, "fusion_lon": 0.0, "fusion_lat": 0.0, "type": "electric_scooter", "name": "8cb0791677eff97f06f59c59f864b886", "is_disabled": 0, "rental_uris": {"ios": "https://dc.lft.to/lastmile_qr_scan", "android": "https://dc.lft.to/lastmile_qr_scan"}, "is_reserved": 0}, {"lon": -77.00842666666667, "bike_id": "acdd3c271d18edd9c1e715597bd30a74", "lat": 38.91627583333333, "fusion_lon": 0.0, "fusion_lat": 0.0, "type": "electric_scooter", "name": "acdd3c271d18edd9c1e715597bd30a74", "is_disabled": 0, "rental_uris": {"ios": "https://dc.lft.to/lastmile_qr_scan", "android": "https://dc.lft.to/lastmile_qr_scan"}, "is_reserved": 0}, {"lon": -77.02432333333333, "bike_id": "7cf30eb26e867fd2cc4f0c322d2eb596", "lat": 38.914171, "fusion_lon": 0.0, "fusion_lat": 0.0, "type": "electric_scooter", "name": "7cf30eb26e867fd2cc4f0c322d2eb596", "is_disabled": 0, "rental_uris": {"ios": "https://dc.lft.to/lastmile_qr_scan", "android": "https://dc.lft.to/lastmile_qr_scan"}, "is_reserved": 0}, {"lon": -77.036556, "bike_id": "dc5652bb09902294221952c16eb498be", "lat": 38.92098933333333, "fusion_lon": 0.0, "fusion_lat": 0.0, "type": "electric_scooter", "name": "dc5652bb09902294221952c16eb498be", "is_disabled": 0, "rental_uris": {"ios": "https://dc.lft.to/lastmile_qr_scan", "android": "https://dc.lft.to/lastmile_qr_scan"}, "is_reserved": 0}, {"lon": -77.03482233333334, "bike_id": "303567fe264b5708124b78f4cc6207ed", "lat": 38.907503166666665, "fusion_lon": 0.0, "fusion_lat": 0.0, "type": "electric_scooter", "name": "303567fe264b5708124b78f4cc6207ed", "is_disabled": 0, "rental_uris": {"ios": "https://dc.lft.to/lastmile_qr_scan", "android": "https://dc.lft.to/lastmile_qr_scan"}, "is_reserved": 0}, {"lon": -77.059604, "bike_id": "ade43fcf701048c96fee84ccc74e6a98", "lat": 38.862561, "fusion_lon": 0.0, "fusion_lat": 0.0, "type": "electric_scooter", "name": "ade43fcf701048c96fee84ccc74e6a98", "is_disabled": 0, "rental_uris": {"ios": "https://dc.lft.to/lastmile_qr_scan", "android": "https://dc.lft.to/lastmile_qr_scan"}, "is_reserved": 0}, {"lon": -77.01742616666667, "bike_id": "88e6cd36b318aada1b39f97270ff7552", "lat": 38.9752065, "fusion_lon": 0.0, "fusion_lat": 0.0, "type": "electric_scooter", "name": "88e6cd36b318aada1b39f97270ff7552", "is_disabled": 0, "rental_uris": {"ios": "https://dc.lft.to/lastmile_qr_scan", "android": "https://dc.lft.to/lastmile_qr_scan"}, "is_reserved": 0}, {"lon": -77.012185, "bike_id": "69e8c3b1f29cdae4322b583c6cb37136", "lat": 38.9168595, "fusion_lon": 0.0, "fusion_lat": 0.0, "type": "electric_scooter", "name": "69e8c3b1f29cdae4322b583c6cb37136", "is_disabled": 0, "rental_uris": {"ios": "https://dc.lft.to/lastmile_qr_scan", "android": "https://dc.lft.to/lastmile_qr_scan"}, "is_reserved": 0}, {"lon": -77.039836, "bike_id": "6da558bfb688c155bf6b923513d0076f", "lat": 38.92455833333333, "fusion_lon": 0.0, "fusion_lat": 0.0, "type": "electric_scooter", "name": "6da558bfb688c155bf6b923513d0076f", "is_disabled": 0, "rental_uris": {"ios": "https://dc.lft.to/lastmile_qr_scan", "android": "https://dc.lft.to/lastmile_qr_scan"}, "is_reserved": 0}, {"lon": -77.02395966666667, "bike_id": "3ab6adb8f933acdc592e7593b36d45ab", "lat": 38.9001535, "fusion_lon": 0.0, "fusion_lat": 0.0, "type": "electric_scooter", "name": "3ab6adb8f933acdc592e7593b36d45ab", "is_disabled": 0, "rental_uris": {"ios": "https://dc.lft.to/lastmile_qr_scan", "android": "https://dc.lft.to/lastmile_qr_scan"}, "is_reserved": 0}, {"lon": -77.02498183333333, "bike_id": "8b32adb04475a65c51e78037cb9c942f", "lat": 38.90424, "fusion_lon": 0.0, "fusion_lat": 0.0, "type": "electric_scooter", "name": "8b32adb04475a65c51e78037cb9c942f", "is_disabled": 0, "rental_uris": {"ios": "https://dc.lft.to/lastmile_qr_scan", "android": "https://dc.lft.to/lastmile_qr_scan"}, "is_reserved": 0}, {"lon": -76.91598783333333, "bike_id": "e48fc88f668a91069b7419ebc2bc9c34", "lat": 38.87983033333333, "fusion_lon": 0.0, "fusion_lat": 0.0, "type": "electric_bike", "name": "e48fc88f668a91069b7419ebc2bc9c34", "is_disabled": 0, "rental_uris": {"ios": "https://dc.lft.to/lastmile_qr_scan", "android": "https://dc.lft.to/lastmile_qr_scan"}, "is_reserved": 0}, {"lon": -76.990482, "bike_id": "d40303dd4eb6ffe0713e69d1f1357c84", "lat": 38.88419433333333, "fusion_lon": 0.0, "fusion_lat": 0.0, "type": "electric_scooter", "name": "d40303dd4eb6ffe0713e69d1f1357c84", "is_disabled": 0, "rental_uris": {"ios": "https://dc.lft.to/lastmile_qr_scan", "android": "https://dc.lft.to/lastmile_qr_scan"}, "is_reserved": 0}, {"lon": -77.0218505, "bike_id": "4dcc7cfc5e2428813214b93df57e3ae0", "lat": 38.901999833333335, "fusion_lon": 0.0, "fusion_lat": 0.0, "type": "electric_scooter", "name": "4dcc7cfc5e2428813214b93df57e3ae0", "is_disabled": 0, "rental_uris": {"ios": "https://dc.lft.to/lastmile_qr_scan", "android": "https://dc.lft.to/lastmile_qr_scan"}, "is_reserved": 0}, {"lon": -76.98228866666666, "bike_id": "9c2d901365c2a6cd5f88d4022fd6c4d8", "lat": 38.866315666666665, "fusion_lon": 0.0, "fusion_lat": 0.0, "type": "electric_scooter", "name": "9c2d901365c2a6cd5f88d4022fd6c4d8", "is_disabled": 0, "rental_uris": {"ios": "https://dc.lft.to/lastmile_qr_scan", "android": "https://dc.lft.to/lastmile_qr_scan"}, "is_reserved": 0}, {"lon": -77.0294585, "bike_id": "341e506e1def1d08e506a5d20569bd8b", "lat": 38.9072395, "fusion_lon": 0.0, "fusion_lat": 0.0, "type": "electric_scooter", "name": "341e506e1def1d08e506a5d20569bd8b", "is_disabled": 0, "rental_uris": {"ios": "https://dc.lft.to/lastmile_qr_scan", "android": "https://dc.lft.to/lastmile_qr_scan"}, "is_reserved": 0}, {"lon": -77.03642883333333, "bike_id": "53b443f61aadf5a6e2d95246d5fc8972", "lat": 38.90278, "fusion_lon": 0.0, "fusion_lat": 0.0, "type": "electric_scooter", "name": "53b443f61aadf5a6e2d95246d5fc8972", "is_disabled": 0, "rental_uris": {"ios": "https://dc.lft.to/lastmile_qr_scan", "android": "https://dc.lft.to/lastmile_qr_scan"}, "is_reserved": 0}, {"lon": -77.03866, "bike_id": "ed227be51689dcd3ef12700b9212942d", "lat": 38.915589833333335, "fusion_lon": 0.0, "fusion_lat": 0.0, "type": "electric_scooter", "name": "ed227be51689dcd3ef12700b9212942d", "is_disabled": 0, "rental_uris": {"ios": "https://dc.lft.to/lastmile_qr_scan", "android": "https://dc.lft.to/lastmile_qr_scan"}, "is_reserved": 0}, {"lon": -77.06046933333333, "bike_id": "3cb37927351f86ad8ec590f5b015768f", "lat": 38.93824933333333, "fusion_lon": 0.0, "fusion_lat": 0.0, "type": "electric_scooter", "name": "3cb37927351f86ad8ec590f5b015768f", "is_disabled": 0, "rental_uris": {"ios": "https://dc.lft.to/lastmile_qr_scan", "android": "https://dc.lft.to/lastmile_qr_scan"}, "is_reserved": 0}, {"lon": -77.122225, "bike_id": "8ca8f539d5e1ef723943cb1bf85d0265", "lat": 38.85305, "fusion_lon": 0.0, "fusion_lat": 0.0, "type": "electric_bike", "name": "8ca8f539d5e1ef723943cb1bf85d0265", "is_disabled": 0, "rental_uris": {"ios": "https://dc.lft.to/lastmile_qr_scan", "android": "https://dc.lft.to/lastmile_qr_scan"}, "is_reserved": 0}, {"lon": -77.02627316666667, "bike_id": "42afca196581b9b4628db4f1be09de06", "lat": 38.905324666666665, "fusion_lon": 0.0, "fusion_lat": 0.0, "type": "electric_scooter", "name": "42afca196581b9b4628db4f1be09de06", "is_disabled": 0, "rental_uris": {"ios": "https://dc.lft.to/lastmile_qr_scan", "android": "https://dc.lft.to/lastmile_qr_scan"}, "is_reserved": 0}, {"lon": -76.99843866666667, "bike_id": "93ced23a6cce3974b17910a9d61bd4f2", "lat": 38.90731866666667, "fusion_lon": 0.0, "fusion_lat": 0.0, "type": "electric_scooter", "name": "93ced23a6cce3974b17910a9d61bd4f2", "is_disabled": 0, "rental_uris": {"ios": "https://dc.lft.to/lastmile_qr_scan", "android": "https://dc.lft.to/lastmile_qr_scan"}, "is_reserved": 0}, {"lon": -77.0118905, "bike_id": "2c79db64db294ed851f5971d4d68f334", "lat": 38.91549083333334, "fusion_lon": 0.0, "fusion_lat": 0.0, "type": "electric_scooter", "name": "2c79db64db294ed851f5971d4d68f334", "is_disabled": 0, "rental_uris": {"ios": "https://dc.lft.to/lastmile_qr_scan", "android": "https://dc.lft.to/lastmile_qr_scan"}, "is_reserved": 0}, {"lon": -77.04561233333334, "bike_id": "a1790c8c5de9c00402d5234d131332fc", "lat": 38.91825883333333, "fusion_lon": 0.0, "fusion_lat": 0.0, "type": "electric_scooter", "name": "a1790c8c5de9c00402d5234d131332fc", "is_disabled": 0, "rental_uris": {"ios": "https://dc.lft.to/lastmile_qr_scan", "android": "https://dc.lft.to/lastmile_qr_scan"}, "is_reserved": 0}, {"lon": -77.000088, "bike_id": "fc867258db7ff88641ec3f8805ae7bb8", "lat": 38.87487683333333, "fusion_lon": 0.0, "fusion_lat": 0.0, "type": "electric_scooter", "name": "fc867258db7ff88641ec3f8805ae7bb8", "is_disabled": 0, "rental_uris": {"ios": "https://dc.lft.to/lastmile_qr_scan", "android": "https://dc.lft.to/lastmile_qr_scan"}, "is_reserved": 0}, {"lon": -77.07347166666666, "bike_id": "b43bea758ec607f89ceef6a1faf9138d", "lat": 38.910988333333336, "fusion_lon": 0.0, "fusion_lat": 0.0, "type": "electric_scooter", "name": "b43bea758ec607f89ceef6a1faf9138d", "is_disabled": 0, "rental_uris": {"ios": "https://dc.lft.to/lastmile_qr_scan", "android": "https://dc.lft.to/lastmile_qr_scan"}, "is_reserved": 0}, {"lon": -76.96392916666667, "bike_id": "c58439f30873a49dfe1fe582985c2f7f", "lat": 38.951771666666666, "fusion_lon": 0.0, "fusion_lat": 0.0, "type": "electric_bike", "name": "c58439f30873a49dfe1fe582985c2f7f", "is_disabled": 0, "rental_uris": {"ios": "https://dc.lft.to/lastmile_qr_scan", "android": "https://dc.lft.to/lastmile_qr_scan"}, "is_reserved": 0}, {"lon": -77.025695, "bike_id": "192e24891e30cebed7f80196be203460", "lat": 38.89935783333333, "fusion_lon": 0.0, "fusion_lat": 0.0, "type": "electric_scooter", "name": "192e24891e30cebed7f80196be203460", "is_disabled": 0, "rental_uris": {"ios": "https://dc.lft.to/lastmile_qr_scan", "android": "https://dc.lft.to/lastmile_qr_scan"}, "is_reserved": 0}, {"lon": -77.02533366666667, "bike_id": "015cc13798562b3292115f32e1f5930b", "lat": 38.927360666666665, "fusion_lon": 0.0, "fusion_lat": 0.0, "type": "electric_scooter", "name": "015cc13798562b3292115f32e1f5930b", "is_disabled": 0, "rental_uris": {"ios": "https://dc.lft.to/lastmile_qr_scan", "android": "https://dc.lft.to/lastmile_qr_scan"}, "is_reserved": 0}, {"lon": -76.9940785, "bike_id": "afbc023c4acbe5801c62bd3aca236b9d", "lat": 38.83134666666667, "fusion_lon": 0.0, "fusion_lat": 0.0, "type": "electric_bike", "name": "afbc023c4acbe5801c62bd3aca236b9d", "is_disabled": 0, "rental_uris": {"ios": "https://dc.lft.to/lastmile_qr_scan", "android": "https://dc.lft.to/lastmile_qr_scan"}, "is_reserved": 0}, {"lon": -77.01169333333333, "bike_id": "aec2f94404a41d4ef1807b15df6b7535", "lat": 38.872346, "fusion_lon": 0.0, "fusion_lat": 0.0, "type": "electric_bike", "name": "aec2f94404a41d4ef1807b15df6b7535", "is_disabled": 0, "rental_uris": {"ios": "https://dc.lft.to/lastmile_qr_scan", "android": "https://dc.lft.to/lastmile_qr_scan"}, "is_reserved": 0}, {"lon": -77.00791066666666, "bike_id": "25320d93f9d3e14c830eb259fc022331", "lat": 38.8967065, "fusion_lon": 0.0, "fusion_lat": 0.0, "type": "electric_scooter", "name": "25320d93f9d3e14c830eb259fc022331", "is_disabled": 0, "rental_uris": {"ios": "https://dc.lft.to/lastmile_qr_scan", "android": "https://dc.lft.to/lastmile_qr_scan"}, "is_reserved": 0}, {"lon": -77.03616816666667, "bike_id": "4a6e89ac20ceb6cf0ba58abd47ec4826", "lat": 38.937407666666665, "fusion_lon": 0.0, "fusion_lat": 0.0, "type": "electric_scooter", "name": "4a6e89ac20ceb6cf0ba58abd47ec4826", "is_disabled": 0, "rental_uris": {"ios": "https://dc.lft.to/lastmile_qr_scan", "android": "https://dc.lft.to/lastmile_qr_scan"}, "is_reserved": 0}, {"lon": -76.98592516666666, "bike_id": "010cfb5eaecf96acfc482bbcea1909aa", "lat": 38.90813816666667, "fusion_lon": 0.0, "fusion_lat": 0.0, "type": "electric_scooter", "name": "010cfb5eaecf96acfc482bbcea1909aa", "is_disabled": 0, "rental_uris": {"ios": "https://dc.lft.to/lastmile_qr_scan", "android": "https://dc.lft.to/lastmile_qr_scan"}, "is_reserved": 0}, {"lon": -77.03284433333333, "bike_id": "80a4d0f3d81ed9d65b0b2c279275e0d7", "lat": 38.90463533333333, "fusion_lon": 0.0, "fusion_lat": 0.0, "type": "electric_scooter", "name": "80a4d0f3d81ed9d65b0b2c279275e0d7", "is_disabled": 0, "rental_uris": {"ios": "https://dc.lft.to/lastmile_qr_scan", "android": "https://dc.lft.to/lastmile_qr_scan"}, "is_reserved": 0}, {"lon": -76.94437966666666, "bike_id": "ef9ed16c4dba28cc2ff4c612c94540d8", "lat": 38.90038283333333, "fusion_lon": 0.0, "fusion_lat": 0.0, "type": "electric_scooter", "name": "ef9ed16c4dba28cc2ff4c612c94540d8", "is_disabled": 0, "rental_uris": {"ios": "https://dc.lft.to/lastmile_qr_scan", "android": "https://dc.lft.to/lastmile_qr_scan"}, "is_reserved": 0}, {"lon": -76.93369383333334, "bike_id": "a5d321efc25c218c5785f1163627df03", "lat": 38.899118, "fusion_lon": 0.0, "fusion_lat": 0.0, "type": "electric_scooter", "name": "a5d321efc25c218c5785f1163627df03", "is_disabled": 0, "rental_uris": {"ios": "https://dc.lft.to/lastmile_qr_scan", "android": "https://dc.lft.to/lastmile_qr_scan"}, "is_reserved": 0}, {"lon": -76.983661, "bike_id": "3c44a1e36f938e40cd40d143716a4a25", "lat": 38.91474866666667, "fusion_lon": 0.0, "fusion_lat": 0.0, "type": "electric_scooter", "name": "3c44a1e36f938e40cd40d143716a4a25", "is_disabled": 0, "rental_uris": {"ios": "https://dc.lft.to/lastmile_qr_scan", "android": "https://dc.lft.to/lastmile_qr_scan"}, "is_reserved": 0}, {"lon": -77.01773266666666, "bike_id": "9b11ec32dd65ec77d784f0fcde1338fe", "lat": 38.920988666666666, "fusion_lon": 0.0, "fusion_lat": 0.0, "type": "electric_scooter", "name": "9b11ec32dd65ec77d784f0fcde1338fe", "is_disabled": 0, "rental_uris": {"ios": "https://dc.lft.to/lastmile_qr_scan", "android": "https://dc.lft.to/lastmile_qr_scan"}, "is_reserved": 0}, {"lon": -77.0375935, "bike_id": "fa7dba0d1cec86c2094c8e2ba0ae1822", "lat": 38.91696266666667, "fusion_lon": 0.0, "fusion_lat": 0.0, "type": "electric_bike", "name": "fa7dba0d1cec86c2094c8e2ba0ae1822", "is_disabled": 0, "rental_uris": {"ios": "https://dc.lft.to/lastmile_qr_scan", "android": "https://dc.lft.to/lastmile_qr_scan"}, "is_reserved": 0}, {"lon": -76.99483966666666, "bike_id": "03466f0b3fc08bdb237a5c00727a45dd", "lat": 38.915704, "fusion_lon": 0.0, "fusion_lat": 0.0, "type": "electric_scooter", "name": "03466f0b3fc08bdb237a5c00727a45dd", "is_disabled": 0, "rental_uris": {"ios": "https://dc.lft.to/lastmile_qr_scan", "android": "https://dc.lft.to/lastmile_qr_scan"}, "is_reserved": 0}, {"lon": -76.98501466666667, "bike_id": "607fc165993f12999157c365016f4d97", "lat": 38.920054666666665, "fusion_lon": 0.0, "fusion_lat": 0.0, "type": "electric_scooter", "name": "607fc165993f12999157c365016f4d97", "is_disabled": 0, "rental_uris": {"ios": "https://dc.lft.to/lastmile_qr_scan", "android": "https://dc.lft.to/lastmile_qr_scan"}, "is_reserved": 0}, {"lon": -77.02962683333334, "bike_id": "94a6742ade7dff9dc8d84d6420a2b659", "lat": 38.907991, "fusion_lon": 0.0, "fusion_lat": 0.0, "type": "electric_scooter", "name": "94a6742ade7dff9dc8d84d6420a2b659", "is_disabled": 0, "rental_uris": {"ios": "https://dc.lft.to/lastmile_qr_scan", "android": "https://dc.lft.to/lastmile_qr_scan"}, "is_reserved": 0}, {"lon": -76.982605, "bike_id": "f5faf479497d3fe3206afa1755fc7f6b", "lat": 38.9085485, "fusion_lon": 0.0, "fusion_lat": 0.0, "type": "electric_scooter", "name": "f5faf479497d3fe3206afa1755fc7f6b", "is_disabled": 0, "rental_uris": {"ios": "https://dc.lft.to/lastmile_qr_scan", "android": "https://dc.lft.to/lastmile_qr_scan"}, "is_reserved": 0}, {"lon": -77.0115615, "bike_id": "a8039cecee9027f5e84184fdb69b1521", "lat": 38.91419833333333, "fusion_lon": 0.0, "fusion_lat": 0.0, "type": "electric_scooter", "name": "a8039cecee9027f5e84184fdb69b1521", "is_disabled": 0, "rental_uris": {"ios": "https://dc.lft.to/lastmile_qr_scan", "android": "https://dc.lft.to/lastmile_qr_scan"}, "is_reserved": 0}, {"lon": -77.030555, "bike_id": "9ab75404e76c829b10b37eb42338e182", "lat": 38.90803566666666, "fusion_lon": 0.0, "fusion_lat": 0.0, "type": "electric_scooter", "name": "9ab75404e76c829b10b37eb42338e182", "is_disabled": 0, "rental_uris": {"ios": "https://dc.lft.to/lastmile_qr_scan", "android": "https://dc.lft.to/lastmile_qr_scan"}, "is_reserved": 0}, {"lon": -77.03653233333333, "bike_id": "0141d8184fcdbe16ed17b1c3440b8c1f", "lat": 38.91743866666667, "fusion_lon": 0.0, "fusion_lat": 0.0, "type": "electric_scooter", "name": "0141d8184fcdbe16ed17b1c3440b8c1f", "is_disabled": 0, "rental_uris": {"ios": "https://dc.lft.to/lastmile_qr_scan", "android": "https://dc.lft.to/lastmile_qr_scan"}, "is_reserved": 0}, {"lon": -77.1008655, "bike_id": "45712c52cc23be0ef9c7ad6fe8d6f6ed", "lat": 38.95955933333333, "fusion_lon": 0.0, "fusion_lat": 0.0, "type": "electric_bike", "name": "45712c52cc23be0ef9c7ad6fe8d6f6ed", "is_disabled": 0, "rental_uris": {"ios": "https://dc.lft.to/lastmile_qr_scan", "android": "https://dc.lft.to/lastmile_qr_scan"}, "is_reserved": 0}, {"lon": -77.08052616666667, "bike_id": "a3e758777d45aabd56124e426b21a714", "lat": 38.92058633333333, "fusion_lon": 0.0, "fusion_lat": 0.0, "type": "electric_bike", "name": "a3e758777d45aabd56124e426b21a714", "is_disabled": 0, "rental_uris": {"ios": "https://dc.lft.to/lastmile_qr_scan", "android": "https://dc.lft.to/lastmile_qr_scan"}, "is_reserved": 0}, {"lon": -76.9958125, "bike_id": "f67f73ba94c4d5a2779701c85ef172c2", "lat": 38.852934, "fusion_lon": 0.0, "fusion_lat": 0.0, "type": "electric_scooter", "name": "f67f73ba94c4d5a2779701c85ef172c2", "is_disabled": 0, "rental_uris": {"ios": "https://dc.lft.to/lastmile_qr_scan", "android": "https://dc.lft.to/lastmile_qr_scan"}, "is_reserved": 0}, {"lon": -77.025113, "bike_id": "bbaa873881a33c5cf1f1d61cac8542c2", "lat": 38.934150333333335, "fusion_lon": 0.0, "fusion_lat": 0.0, "type": "electric_bike", "name": "bbaa873881a33c5cf1f1d61cac8542c2", "is_disabled": 0, "rental_uris": {"ios": "https://dc.lft.to/lastmile_qr_scan", "android": "https://dc.lft.to/lastmile_qr_scan"}, "is_reserved": 0}, {"lon": -76.985586, "bike_id": "a27b0781e6ce82c21848602bd4702824", "lat": 38.9103585, "fusion_lon": 0.0, "fusion_lat": 0.0, "type": "electric_scooter", "name": "a27b0781e6ce82c21848602bd4702824", "is_disabled": 0, "rental_uris": {"ios": "https://dc.lft.to/lastmile_qr_scan", "android": "https://dc.lft.to/lastmile_qr_scan"}, "is_reserved": 0}, {"lon": -77.03815866666666, "bike_id": "54cddf90fe95225652ca041641c8072c", "lat": 38.92080966666666, "fusion_lon": 0.0, "fusion_lat": 0.0, "type": "electric_scooter", "name": "54cddf90fe95225652ca041641c8072c", "is_disabled": 0, "rental_uris": {"ios": "https://dc.lft.to/lastmile_qr_scan", "android": "https://dc.lft.to/lastmile_qr_scan"}, "is_reserved": 0}, {"lon": -77.0504435, "bike_id": "4db9e8558038d6ffc1c959ff369a807b", "lat": 38.92387433333333, "fusion_lon": 0.0, "fusion_lat": 0.0, "type": "electric_scooter", "name": "4db9e8558038d6ffc1c959ff369a807b", "is_disabled": 0, "rental_uris": {"ios": "https://dc.lft.to/lastmile_qr_scan", "android": "https://dc.lft.to/lastmile_qr_scan"}, "is_reserved": 0}, {"lon": -77.04451166666666, "bike_id": "d766c2684caa1d8df4612ea75f6cfa7c", "lat": 38.9145975, "fusion_lon": 0.0, "fusion_lat": 0.0, "type": "electric_scooter", "name": "d766c2684caa1d8df4612ea75f6cfa7c", "is_disabled": 0, "rental_uris": {"ios": "https://dc.lft.to/lastmile_qr_scan", "android": "https://dc.lft.to/lastmile_qr_scan"}, "is_reserved": 0}, {"lon": -76.93537083333334, "bike_id": "81c15ef315549ddc4a8850c92c868fba", "lat": 38.955512, "fusion_lon": 0.0, "fusion_lat": 0.0, "type": "electric_bike", "name": "81c15ef315549ddc4a8850c92c868fba", "is_disabled": 0, "rental_uris": {"ios": "https://dc.lft.to/lastmile_qr_scan", "android": "https://dc.lft.to/lastmile_qr_scan"}, "is_reserved": 0}, {"lon": -77.02784866666667, "bike_id": "5c5d99a58076b4b3c58936c5901b8f73", "lat": 38.927701666666664, "fusion_lon": 0.0, "fusion_lat": 0.0, "type": "electric_scooter", "name": "5c5d99a58076b4b3c58936c5901b8f73", "is_disabled": 0, "rental_uris": {"ios": "https://dc.lft.to/lastmile_qr_scan", "android": "https://dc.lft.to/lastmile_qr_scan"}, "is_reserved": 0}, {"lon": -77.05213533333334, "bike_id": "85f1ec87bce68d9f12f8f06e6a8b13a9", "lat": 38.924800166666664, "fusion_lon": 0.0, "fusion_lat": 0.0, "type": "electric_scooter", "name": "85f1ec87bce68d9f12f8f06e6a8b13a9", "is_disabled": 0, "rental_uris": {"ios": "https://dc.lft.to/lastmile_qr_scan", "android": "https://dc.lft.to/lastmile_qr_scan"}, "is_reserved": 0}, {"lon": -77.041183, "bike_id": "0782f34e2e886dd9400d858c00c1c62a", "lat": 38.944028, "fusion_lon": 0.0, "fusion_lat": 0.0, "type": "electric_bike", "name": "0782f34e2e886dd9400d858c00c1c62a", "is_disabled": 0, "rental_uris": {"ios": "https://dc.lft.to/lastmile_qr_scan", "android": "https://dc.lft.to/lastmile_qr_scan"}, "is_reserved": 0}, {"lon": -76.9252925, "bike_id": "08ba9f9c53be499e124b3e71988c6b66", "lat": 38.88343583333333, "fusion_lon": 0.0, "fusion_lat": 0.0, "type": "electric_bike", "name": "08ba9f9c53be499e124b3e71988c6b66", "is_disabled": 0, "rental_uris": {"ios": "https://dc.lft.to/lastmile_qr_scan", "android": "https://dc.lft.to/lastmile_qr_scan"}, "is_reserved": 0}, {"lon": -77.03141466666666, "bike_id": "67a376814ef3ac1a297b05f7034be62e", "lat": 38.90475816666667, "fusion_lon": 0.0, "fusion_lat": 0.0, "type": "electric_scooter", "name": "67a376814ef3ac1a297b05f7034be62e", "is_disabled": 0, "rental_uris": {"ios": "https://dc.lft.to/lastmile_qr_scan", "android": "https://dc.lft.to/lastmile_qr_scan"}, "is_reserved": 0}, {"lon": -77.05921283333333, "bike_id": "fa113d020d8c212f0c840aea18e5611f", "lat": 38.903841666666665, "fusion_lon": 0.0, "fusion_lat": 0.0, "type": "electric_scooter", "name": "fa113d020d8c212f0c840aea18e5611f", "is_disabled": 0, "rental_uris": {"ios": "https://dc.lft.to/lastmile_qr_scan", "android": "https://dc.lft.to/lastmile_qr_scan"}, "is_reserved": 0}, {"lon": -77.1389495, "bike_id": "38bf1afce3c166b68913ac0a5b97a821", "lat": 38.89674566666667, "fusion_lon": 0.0, "fusion_lat": 0.0, "type": "electric_bike", "name": "38bf1afce3c166b68913ac0a5b97a821", "is_disabled": 0, "rental_uris": {"ios": "https://dc.lft.to/lastmile_qr_scan", "android": "https://dc.lft.to/lastmile_qr_scan"}, "is_reserved": 0}, {"lon": -77.01479916666666, "bike_id": "98a03a9fe55e690325e862b5fe37a206", "lat": 38.95866183333333, "fusion_lon": 0.0, "fusion_lat": 0.0, "type": "electric_scooter", "name": "98a03a9fe55e690325e862b5fe37a206", "is_disabled": 0, "rental_uris": {"ios": "https://dc.lft.to/lastmile_qr_scan", "android": "https://dc.lft.to/lastmile_qr_scan"}, "is_reserved": 0}, {"lon": -77.0185005, "bike_id": "fba652975e3ab69ff0a224c4fed60b0d", "lat": 38.9127095, "fusion_lon": 0.0, "fusion_lat": 0.0, "type": "electric_scooter", "name": "fba652975e3ab69ff0a224c4fed60b0d", "is_disabled": 0, "rental_uris": {"ios": "https://dc.lft.to/lastmile_qr_scan", "android": "https://dc.lft.to/lastmile_qr_scan"}, "is_reserved": 0}, {"lon": -77.026128, "bike_id": "1343e5bc3460228b41ce611b97398bbc", "lat": 38.9299135, "fusion_lon": 0.0, "fusion_lat": 0.0, "type": "electric_scooter", "name": "1343e5bc3460228b41ce611b97398bbc", "is_disabled": 0, "rental_uris": {"ios": "https://dc.lft.to/lastmile_qr_scan", "android": "https://dc.lft.to/lastmile_qr_scan"}, "is_reserved": 0}, {"lon": -77.115765, "bike_id": "d75c129e211818da093edc021246cd81", "lat": 38.993451, "fusion_lon": 0.0, "fusion_lat": 0.0, "type": "electric_bike", "name": "d75c129e211818da093edc021246cd81", "is_disabled": 0, "rental_uris": {"ios": "https://dc.lft.to/lastmile_qr_scan", "android": "https://dc.lft.to/lastmile_qr_scan"}, "is_reserved": 0}, {"lon": -77.00971166666666, "bike_id": "170f9516d32e79dc92a138ba8570185a", "lat": 38.91708416666667, "fusion_lon": 0.0, "fusion_lat": 0.0, "type": "electric_scooter", "name": "170f9516d32e79dc92a138ba8570185a", "is_disabled": 0, "rental_uris": {"ios": "https://dc.lft.to/lastmile_qr_scan", "android": "https://dc.lft.to/lastmile_qr_scan"}, "is_reserved": 0}, {"lon": -77.01768883333334, "bike_id": "020bfbecfe2aae67f197cb91072ca5fc", "lat": 38.90110766666667, "fusion_lon": 0.0, "fusion_lat": 0.0, "type": "electric_scooter", "name": "020bfbecfe2aae67f197cb91072ca5fc", "is_disabled": 0, "rental_uris": {"ios": "https://dc.lft.to/lastmile_qr_scan", "android": "https://dc.lft.to/lastmile_qr_scan"}, "is_reserved": 0}, {"lon": -76.88401366666666, "bike_id": "eec01fd6255f0782eed1a39016f822b1", "lat": 38.931693333333335, "fusion_lon": 0.0, "fusion_lat": 0.0, "type": "electric_bike", "name": "eec01fd6255f0782eed1a39016f822b1", "is_disabled": 0, "rental_uris": {"ios": "https://dc.lft.to/lastmile_qr_scan", "android": "https://dc.lft.to/lastmile_qr_scan"}, "is_reserved": 0}, {"lon": -77.01806833333333, "bike_id": "d6d10a49e8ccf97e2f3edff0ddd78dab", "lat": 38.9648575, "fusion_lon": 0.0, "fusion_lat": 0.0, "type": "electric_scooter", "name": "d6d10a49e8ccf97e2f3edff0ddd78dab", "is_disabled": 0, "rental_uris": {"ios": "https://dc.lft.to/lastmile_qr_scan", "android": "https://dc.lft.to/lastmile_qr_scan"}, "is_reserved": 0}, {"lon": -77.04652533333334, "bike_id": "18736a22914ffda19dc038d05981c068", "lat": 39.0550645, "fusion_lon": 0.0, "fusion_lat": 0.0, "type": "electric_bike", "name": "18736a22914ffda19dc038d05981c068", "is_disabled": 0, "rental_uris": {"ios": "https://dc.lft.to/lastmile_qr_scan", "android": "https://dc.lft.to/lastmile_qr_scan"}, "is_reserved": 0}, {"lon": -77.03878116666667, "bike_id": "f3aac4ed9b614b5ab9b3501742186d79", "lat": 38.948691833333335, "fusion_lon": 0.0, "fusion_lat": 0.0, "type": "electric_scooter", "name": "f3aac4ed9b614b5ab9b3501742186d79", "is_disabled": 0, "rental_uris": {"ios": "https://dc.lft.to/lastmile_qr_scan", "android": "https://dc.lft.to/lastmile_qr_scan"}, "is_reserved": 0}, {"lon": -77.05738633333333, "bike_id": "b5d9480db610916af34a0203b22d7c51", "lat": 38.933960166666665, "fusion_lon": 0.0, "fusion_lat": 0.0, "type": "electric_scooter", "name": "b5d9480db610916af34a0203b22d7c51", "is_disabled": 0, "rental_uris": {"ios": "https://dc.lft.to/lastmile_qr_scan", "android": "https://dc.lft.to/lastmile_qr_scan"}, "is_reserved": 0}, {"lon": -77.02753416666667, "bike_id": "ae3cb955e3d12fa403d356a6b6b1bff7", "lat": 38.96574866666667, "fusion_lon": 0.0, "fusion_lat": 0.0, "type": "electric_bike", "name": "ae3cb955e3d12fa403d356a6b6b1bff7", "is_disabled": 0, "rental_uris": {"ios": "https://dc.lft.to/lastmile_qr_scan", "android": "https://dc.lft.to/lastmile_qr_scan"}, "is_reserved": 0}, {"lon": -76.96128366666667, "bike_id": "bb55c2537b5cbddcd7e32ea28b9bee1c", "lat": 38.942123, "fusion_lon": 0.0, "fusion_lat": 0.0, "type": "electric_bike", "name": "bb55c2537b5cbddcd7e32ea28b9bee1c", "is_disabled": 0, "rental_uris": {"ios": "https://dc.lft.to/lastmile_qr_scan", "android": "https://dc.lft.to/lastmile_qr_scan"}, "is_reserved": 0}, {"lon": -77.0559605, "bike_id": "8cad7f7a8450ffcb59646619b151f190", "lat": 38.931428833333335, "fusion_lon": 0.0, "fusion_lat": 0.0, "type": "electric_scooter", "name": "8cad7f7a8450ffcb59646619b151f190", "is_disabled": 0, "rental_uris": {"ios": "https://dc.lft.to/lastmile_qr_scan", "android": "https://dc.lft.to/lastmile_qr_scan"}, "is_reserved": 0}, {"lon": -76.988273, "bike_id": "af9f5c2cfd88bbc61d86c0ebf6e20313", "lat": 38.890723333333334, "fusion_lon": 0.0, "fusion_lat": 0.0, "type": "electric_scooter", "name": "af9f5c2cfd88bbc61d86c0ebf6e20313", "is_disabled": 0, "rental_uris": {"ios": "https://dc.lft.to/lastmile_qr_scan", "android": "https://dc.lft.to/lastmile_qr_scan"}, "is_reserved": 0}, {"lon": -76.95650833333333, "bike_id": "d74e5dcbe98cb7fac452afa141ef61f6", "lat": 38.896212166666665, "fusion_lon": 0.0, "fusion_lat": 0.0, "type": "electric_scooter", "name": "d74e5dcbe98cb7fac452afa141ef61f6", "is_disabled": 0, "rental_uris": {"ios": "https://dc.lft.to/lastmile_qr_scan", "android": "https://dc.lft.to/lastmile_qr_scan"}, "is_reserved": 0}, {"lon": -77.12739966666666, "bike_id": "c294250d50d038f2a6faccf479df9396", "lat": 38.895648, "fusion_lon": 0.0, "fusion_lat": 0.0, "type": "electric_bike", "name": "c294250d50d038f2a6faccf479df9396", "is_disabled": 0, "rental_uris": {"ios": "https://dc.lft.to/lastmile_qr_scan", "android": "https://dc.lft.to/lastmile_qr_scan"}, "is_reserved": 0}, {"lon": -77.04028816666667, "bike_id": "9e72f35dc327b4ebbe0da543dfb02c77", "lat": 38.90369233333333, "fusion_lon": 0.0, "fusion_lat": 0.0, "type": "electric_scooter", "name": "9e72f35dc327b4ebbe0da543dfb02c77", "is_disabled": 0, "rental_uris": {"ios": "https://dc.lft.to/lastmile_qr_scan", "android": "https://dc.lft.to/lastmile_qr_scan"}, "is_reserved": 0}, {"lon": -77.00474933333334, "bike_id": "8df9a28bb9d9a4c53b4396d8fa341b04", "lat": 38.8958335, "fusion_lon": 0.0, "fusion_lat": 0.0, "type": "electric_scooter", "name": "8df9a28bb9d9a4c53b4396d8fa341b04", "is_disabled": 0, "rental_uris": {"ios": "https://dc.lft.to/lastmile_qr_scan", "android": "https://dc.lft.to/lastmile_qr_scan"}, "is_reserved": 0}, {"lon": -76.96781083333333, "bike_id": "469dd0c867e720f8924f2f842d7efd02", "lat": 38.8685005, "fusion_lon": 0.0, "fusion_lat": 0.0, "type": "electric_scooter", "name": "469dd0c867e720f8924f2f842d7efd02", "is_disabled": 0, "rental_uris": {"ios": "https://dc.lft.to/lastmile_qr_scan", "android": "https://dc.lft.to/lastmile_qr_scan"}, "is_reserved": 0}, {"lon": -77.00271983333333, "bike_id": "21979179efa047a6522b2d86c32b51ed", "lat": 38.90867633333333, "fusion_lon": 0.0, "fusion_lat": 0.0, "type": "electric_scooter", "name": "21979179efa047a6522b2d86c32b51ed", "is_disabled": 0, "rental_uris": {"ios": "https://dc.lft.to/lastmile_qr_scan", "android": "https://dc.lft.to/lastmile_qr_scan"}, "is_reserved": 0}, {"lon": -76.96151633333334, "bike_id": "ffef9da48c1836e7bc73eecf907ccae3", "lat": 38.8835925, "fusion_lon": 0.0, "fusion_lat": 0.0, "type": "electric_scooter", "name": "ffef9da48c1836e7bc73eecf907ccae3", "is_disabled": 0, "rental_uris": {"ios": "https://dc.lft.to/lastmile_qr_scan", "android": "https://dc.lft.to/lastmile_qr_scan"}, "is_reserved": 0}, {"lon": -77.03864716666666, "bike_id": "4c1d691e5169314d0894d1393b5514a7", "lat": 38.94501116666667, "fusion_lon": 0.0, "fusion_lat": 0.0, "type": "electric_scooter", "name": "4c1d691e5169314d0894d1393b5514a7", "is_disabled": 0, "rental_uris": {"ios": "https://dc.lft.to/lastmile_qr_scan", "android": "https://dc.lft.to/lastmile_qr_scan"}, "is_reserved": 0}, {"lon": -76.95369133333334, "bike_id": "2e1b606332573957514e868158071d95", "lat": 38.89205883333333, "fusion_lon": 0.0, "fusion_lat": 0.0, "type": "electric_scooter", "name": "2e1b606332573957514e868158071d95", "is_disabled": 0, "rental_uris": {"ios": "https://dc.lft.to/lastmile_qr_scan", "android": "https://dc.lft.to/lastmile_qr_scan"}, "is_reserved": 0}, {"lon": -77.03264783333333, "bike_id": "6e9347227a2db1a12ea6f745687a9044", "lat": 38.93728316666667, "fusion_lon": 0.0, "fusion_lat": 0.0, "type": "electric_scooter", "name": "6e9347227a2db1a12ea6f745687a9044", "is_disabled": 0, "rental_uris": {"ios": "https://dc.lft.to/lastmile_qr_scan", "android": "https://dc.lft.to/lastmile_qr_scan"}, "is_reserved": 0}, {"lon": -77.0388655, "bike_id": "a4f26164d5c7bf80efad920e7a581738", "lat": 38.9100365, "fusion_lon": 0.0, "fusion_lat": 0.0, "type": "electric_scooter", "name": "a4f26164d5c7bf80efad920e7a581738", "is_disabled": 0, "rental_uris": {"ios": "https://dc.lft.to/lastmile_qr_scan", "android": "https://dc.lft.to/lastmile_qr_scan"}, "is_reserved": 0}, {"lon": -76.99846066666667, "bike_id": "01796a26cd5eb4a7571a31de1a85a3e6", "lat": 38.90216933333333, "fusion_lon": 0.0, "fusion_lat": 0.0, "type": "electric_scooter", "name": "01796a26cd5eb4a7571a31de1a85a3e6", "is_disabled": 0, "rental_uris": {"ios": "https://dc.lft.to/lastmile_qr_scan", "android": "https://dc.lft.to/lastmile_qr_scan"}, "is_reserved": 0}, {"lon": -77.03476466666666, "bike_id": "523ceaffd586dc8f4b0a22b1f97aea7e", "lat": 38.928656833333335, "fusion_lon": 0.0, "fusion_lat": 0.0, "type": "electric_scooter", "name": "523ceaffd586dc8f4b0a22b1f97aea7e", "is_disabled": 0, "rental_uris": {"ios": "https://dc.lft.to/lastmile_qr_scan", "android": "https://dc.lft.to/lastmile_qr_scan"}, "is_reserved": 0}, {"lon": -77.005816, "bike_id": "4854de9efebaaad25e8f86d2abc4ccd1", "lat": 38.884445, "fusion_lon": 0.0, "fusion_lat": 0.0, "type": "electric_scooter", "name": "4854de9efebaaad25e8f86d2abc4ccd1", "is_disabled": 0, "rental_uris": {"ios": "https://dc.lft.to/lastmile_qr_scan", "android": "https://dc.lft.to/lastmile_qr_scan"}, "is_reserved": 0}, {"lon": -77.03713166666667, "bike_id": "554448cf96810426659a9546f7e74319", "lat": 38.92638783333334, "fusion_lon": 0.0, "fusion_lat": 0.0, "type": "electric_scooter", "name": "554448cf96810426659a9546f7e74319", "is_disabled": 0, "rental_uris": {"ios": "https://dc.lft.to/lastmile_qr_scan", "android": "https://dc.lft.to/lastmile_qr_scan"}, "is_reserved": 0}, {"lon": -77.02434816666667, "bike_id": "3e5fd861401530ec18e9310a055a3652", "lat": 38.9359955, "fusion_lon": 0.0, "fusion_lat": 0.0, "type": "electric_scooter", "name": "3e5fd861401530ec18e9310a055a3652", "is_disabled": 0, "rental_uris": {"ios": "https://dc.lft.to/lastmile_qr_scan", "android": "https://dc.lft.to/lastmile_qr_scan"}, "is_reserved": 0}, {"lon": -76.9901515, "bike_id": "d5274eca973ef04423ae186981d9eef8", "lat": 38.894134, "fusion_lon": 0.0, "fusion_lat": 0.0, "type": "electric_scooter", "name": "d5274eca973ef04423ae186981d9eef8", "is_disabled": 0, "rental_uris": {"ios": "https://dc.lft.to/lastmile_qr_scan", "android": "https://dc.lft.to/lastmile_qr_scan"}, "is_reserved": 0}, {"lon": -77.02932016666666, "bike_id": "e9500c2b77e98fcb97812662db488078", "lat": 38.934624666666664, "fusion_lon": 0.0, "fusion_lat": 0.0, "type": "electric_scooter", "name": "e9500c2b77e98fcb97812662db488078", "is_disabled": 0, "rental_uris": {"ios": "https://dc.lft.to/lastmile_qr_scan", "android": "https://dc.lft.to/lastmile_qr_scan"}, "is_reserved": 0}, {"lon": -77.02616083333334, "bike_id": "d0d38af57358e75cb03d5c7b89bda98a", "lat": 38.905693, "fusion_lon": 0.0, "fusion_lat": 0.0, "type": "electric_scooter", "name": "d0d38af57358e75cb03d5c7b89bda98a", "is_disabled": 0, "rental_uris": {"ios": "https://dc.lft.to/lastmile_qr_scan", "android": "https://dc.lft.to/lastmile_qr_scan"}, "is_reserved": 0}, {"lon": -77.046312, "bike_id": "7ab34247d8e9716046f1702ba8551b90", "lat": 38.919163833333336, "fusion_lon": 0.0, "fusion_lat": 0.0, "type": "electric_scooter", "name": "7ab34247d8e9716046f1702ba8551b90", "is_disabled": 0, "rental_uris": {"ios": "https://dc.lft.to/lastmile_qr_scan", "android": "https://dc.lft.to/lastmile_qr_scan"}, "is_reserved": 0}, {"lon": -77.036135, "bike_id": "616c60656e7909af4e3dc21bd2c06475", "lat": 38.917344, "fusion_lon": 0.0, "fusion_lat": 0.0, "type": "electric_scooter", "name": "616c60656e7909af4e3dc21bd2c06475", "is_disabled": 0, "rental_uris": {"ios": "https://dc.lft.to/lastmile_qr_scan", "android": "https://dc.lft.to/lastmile_qr_scan"}, "is_reserved": 0}, {"lon": -76.97420266666667, "bike_id": "5a1b64673522d615251af2b9b853eb02", "lat": 38.932357833333334, "fusion_lon": 0.0, "fusion_lat": 0.0, "type": "electric_bike", "name": "5a1b64673522d615251af2b9b853eb02", "is_disabled": 0, "rental_uris": {"ios": "https://dc.lft.to/lastmile_qr_scan", "android": "https://dc.lft.to/lastmile_qr_scan"}, "is_reserved": 0}, {"lon": -77.02483933333333, "bike_id": "7e7c24e42f38d0b127e53184d29be8c3", "lat": 38.8972065, "fusion_lon": 0.0, "fusion_lat": 0.0, "type": "electric_scooter", "name": "7e7c24e42f38d0b127e53184d29be8c3", "is_disabled": 0, "rental_uris": {"ios": "https://dc.lft.to/lastmile_qr_scan", "android": "https://dc.lft.to/lastmile_qr_scan"}, "is_reserved": 0}, {"lon": -77.05342433333334, "bike_id": "9c65b65be201143095c317e76d2f7275", "lat": 38.927118, "fusion_lon": 0.0, "fusion_lat": 0.0, "type": "electric_scooter", "name": "9c65b65be201143095c317e76d2f7275", "is_disabled": 0, "rental_uris": {"ios": "https://dc.lft.to/lastmile_qr_scan", "android": "https://dc.lft.to/lastmile_qr_scan"}, "is_reserved": 0}, {"lon": -77.02818666666667, "bike_id": "243c6aecaa95f5bf840416e6e44d2517", "lat": 38.924851333333336, "fusion_lon": 0.0, "fusion_lat": 0.0, "type": "electric_scooter", "name": "243c6aecaa95f5bf840416e6e44d2517", "is_disabled": 0, "rental_uris": {"ios": "https://dc.lft.to/lastmile_qr_scan", "android": "https://dc.lft.to/lastmile_qr_scan"}, "is_reserved": 0}, {"lon": -77.019159, "bike_id": "a5eaebfb88efa172b4dd1803f05d8eaf", "lat": 38.88631916666667, "fusion_lon": 0.0, "fusion_lat": 0.0, "type": "electric_scooter", "name": "a5eaebfb88efa172b4dd1803f05d8eaf", "is_disabled": 0, "rental_uris": {"ios": "https://dc.lft.to/lastmile_qr_scan", "android": "https://dc.lft.to/lastmile_qr_scan"}, "is_reserved": 0}, {"lon": -77.0397385, "bike_id": "2785b3f4805d2378469e9c5ad77dd92d", "lat": 38.92316666666667, "fusion_lon": 0.0, "fusion_lat": 0.0, "type": "electric_scooter", "name": "2785b3f4805d2378469e9c5ad77dd92d", "is_disabled": 0, "rental_uris": {"ios": "https://dc.lft.to/lastmile_qr_scan", "android": "https://dc.lft.to/lastmile_qr_scan"}, "is_reserved": 0}, {"lon": -77.0257925, "bike_id": "7d6d343ce6583363ff7c2b11ea4c2779", "lat": 38.91415816666667, "fusion_lon": 0.0, "fusion_lat": 0.0, "type": "electric_scooter", "name": "7d6d343ce6583363ff7c2b11ea4c2779", "is_disabled": 0, "rental_uris": {"ios": "https://dc.lft.to/lastmile_qr_scan", "android": "https://dc.lft.to/lastmile_qr_scan"}, "is_reserved": 0}, {"lon": -77.026395, "bike_id": "1eba68ffab7978599f019654c314d40f", "lat": 38.904236833333336, "fusion_lon": 0.0, "fusion_lat": 0.0, "type": "electric_scooter", "name": "1eba68ffab7978599f019654c314d40f", "is_disabled": 0, "rental_uris": {"ios": "https://dc.lft.to/lastmile_qr_scan", "android": "https://dc.lft.to/lastmile_qr_scan"}, "is_reserved": 0}, {"lon": -77.00308316666667, "bike_id": "84f57d7a42feb36b2027736464d9cd02", "lat": 38.894998, "fusion_lon": 0.0, "fusion_lat": 0.0, "type": "electric_scooter", "name": "84f57d7a42feb36b2027736464d9cd02", "is_disabled": 0, "rental_uris": {"ios": "https://dc.lft.to/lastmile_qr_scan", "android": "https://dc.lft.to/lastmile_qr_scan"}, "is_reserved": 0}, {"lon": -77.0201665, "bike_id": "aff9651651726a64b1bab73ba5ff8fd5", "lat": 38.92417716666667, "fusion_lon": 0.0, "fusion_lat": 0.0, "type": "electric_scooter", "name": "aff9651651726a64b1bab73ba5ff8fd5", "is_disabled": 0, "rental_uris": {"ios": "https://dc.lft.to/lastmile_qr_scan", "android": "https://dc.lft.to/lastmile_qr_scan"}, "is_reserved": 0}, {"lon": -77.03887083333333, "bike_id": "2a634a86d22066526efb77209b6ea428", "lat": 38.9252835, "fusion_lon": 0.0, "fusion_lat": 0.0, "type": "electric_scooter", "name": "2a634a86d22066526efb77209b6ea428", "is_disabled": 0, "rental_uris": {"ios": "https://dc.lft.to/lastmile_qr_scan", "android": "https://dc.lft.to/lastmile_qr_scan"}, "is_reserved": 0}, {"lon": -77.011064, "bike_id": "8c10b2f79e815d28317c7b0373ac8e0b", "lat": 38.90349916666667, "fusion_lon": 0.0, "fusion_lat": 0.0, "type": "electric_scooter", "name": "8c10b2f79e815d28317c7b0373ac8e0b", "is_disabled": 0, "rental_uris": {"ios": "https://dc.lft.to/lastmile_qr_scan", "android": "https://dc.lft.to/lastmile_qr_scan"}, "is_reserved": 0}, {"lon": -77.03977666666667, "bike_id": "05b06370d2dacf43eb3c63804e90edf0", "lat": 38.92079966666667, "fusion_lon": 0.0, "fusion_lat": 0.0, "type": "electric_scooter", "name": "05b06370d2dacf43eb3c63804e90edf0", "is_disabled": 0, "rental_uris": {"ios": "https://dc.lft.to/lastmile_qr_scan", "android": "https://dc.lft.to/lastmile_qr_scan"}, "is_reserved": 0}, {"lon": -77.02495766666667, "bike_id": "068cdb4384fdbe2cc4b11f827cc74fab", "lat": 38.90735166666666, "fusion_lon": 0.0, "fusion_lat": 0.0, "type": "electric_scooter", "name": "068cdb4384fdbe2cc4b11f827cc74fab", "is_disabled": 0, "rental_uris": {"ios": "https://dc.lft.to/lastmile_qr_scan", "android": "https://dc.lft.to/lastmile_qr_scan"}, "is_reserved": 0}, {"lon": -77.0412905, "bike_id": "304c897d8aa1dbe019c02710e4e57e14", "lat": 38.90632766666667, "fusion_lon": 0.0, "fusion_lat": 0.0, "type": "electric_scooter", "name": "304c897d8aa1dbe019c02710e4e57e14", "is_disabled": 0, "rental_uris": {"ios": "https://dc.lft.to/lastmile_qr_scan", "android": "https://dc.lft.to/lastmile_qr_scan"}, "is_reserved": 0}, {"lon": -77.01817683333333, "bike_id": "09d79f2e273d65f52bc18a7539427c48", "lat": 38.923703333333336, "fusion_lon": 0.0, "fusion_lat": 0.0, "type": "electric_scooter", "name": "09d79f2e273d65f52bc18a7539427c48", "is_disabled": 0, "rental_uris": {"ios": "https://dc.lft.to/lastmile_qr_scan", "android": "https://dc.lft.to/lastmile_qr_scan"}, "is_reserved": 0}, {"lon": -77.03043983333333, "bike_id": "05a48a7dc27309a287d489c4ec5ceb0e", "lat": 38.87839066666667, "fusion_lon": 0.0, "fusion_lat": 0.0, "type": "electric_scooter", "name": "05a48a7dc27309a287d489c4ec5ceb0e", "is_disabled": 0, "rental_uris": {"ios": "https://dc.lft.to/lastmile_qr_scan", "android": "https://dc.lft.to/lastmile_qr_scan"}, "is_reserved": 0}, {"lon": -77.00552466666667, "bike_id": "91e593e72475cbc8a89bfb3c8642339d", "lat": 38.887541666666664, "fusion_lon": 0.0, "fusion_lat": 0.0, "type": "electric_scooter", "name": "91e593e72475cbc8a89bfb3c8642339d", "is_disabled": 0, "rental_uris": {"ios": "https://dc.lft.to/lastmile_qr_scan", "android": "https://dc.lft.to/lastmile_qr_scan"}, "is_reserved": 0}, {"lon": -77.0510035, "bike_id": "40ac4ba5127572abd702dd9e0b20d2f4", "lat": 38.92302933333333, "fusion_lon": 0.0, "fusion_lat": 0.0, "type": "electric_scooter", "name": "40ac4ba5127572abd702dd9e0b20d2f4", "is_disabled": 0, "rental_uris": {"ios": "https://dc.lft.to/lastmile_qr_scan", "android": "https://dc.lft.to/lastmile_qr_scan"}, "is_reserved": 0}, {"lon": -77.01317883333333, "bike_id": "ef6a8fa2baf32428d43fbab953081bf9", "lat": 38.90750583333333, "fusion_lon": 0.0, "fusion_lat": 0.0, "type": "electric_scooter", "name": "ef6a8fa2baf32428d43fbab953081bf9", "is_disabled": 0, "rental_uris": {"ios": "https://dc.lft.to/lastmile_qr_scan", "android": "https://dc.lft.to/lastmile_qr_scan"}, "is_reserved": 0}, {"lon": -77.01049066666667, "bike_id": "5fc007ca6cec2052c3b9b89095c73a11", "lat": 38.86674383333333, "fusion_lon": 0.0, "fusion_lat": 0.0, "type": "electric_scooter", "name": "5fc007ca6cec2052c3b9b89095c73a11", "is_disabled": 0, "rental_uris": {"ios": "https://dc.lft.to/lastmile_qr_scan", "android": "https://dc.lft.to/lastmile_qr_scan"}, "is_reserved": 0}, {"lon": -77.041945, "bike_id": "5ed09edbe9ffe38d5f52c09f0a8bf3a6", "lat": 38.92623583333334, "fusion_lon": 0.0, "fusion_lat": 0.0, "type": "electric_scooter", "name": "5ed09edbe9ffe38d5f52c09f0a8bf3a6", "is_disabled": 0, "rental_uris": {"ios": "https://dc.lft.to/lastmile_qr_scan", "android": "https://dc.lft.to/lastmile_qr_scan"}, "is_reserved": 0}, {"lon": -77.01730583333334, "bike_id": "ae66855d7ba472d63953a60fb3d94954", "lat": 38.94316833333333, "fusion_lon": 0.0, "fusion_lat": 0.0, "type": "electric_scooter", "name": "ae66855d7ba472d63953a60fb3d94954", "is_disabled": 0, "rental_uris": {"ios": "https://dc.lft.to/lastmile_qr_scan", "android": "https://dc.lft.to/lastmile_qr_scan"}, "is_reserved": 0}, {"lon": -77.03658216666666, "bike_id": "884b9a1ba5f1c99aebce68fc3c9f7c5a", "lat": 38.92145133333333, "fusion_lon": 0.0, "fusion_lat": 0.0, "type": "electric_bike", "name": "884b9a1ba5f1c99aebce68fc3c9f7c5a", "is_disabled": 0, "rental_uris": {"ios": "https://dc.lft.to/lastmile_qr_scan", "android": "https://dc.lft.to/lastmile_qr_scan"}, "is_reserved": 0}, {"lon": -77.03812616666667, "bike_id": "cdba7e27b241fb2e5c5b6b0c9136a2c4", "lat": 38.92073333333333, "fusion_lon": 0.0, "fusion_lat": 0.0, "type": "electric_scooter", "name": "cdba7e27b241fb2e5c5b6b0c9136a2c4", "is_disabled": 0, "rental_uris": {"ios": "https://dc.lft.to/lastmile_qr_scan", "android": "https://dc.lft.to/lastmile_qr_scan"}, "is_reserved": 0}, {"lon": -76.93176366666667, "bike_id": "669806f6411cd53613096de7cfcb6a76", "lat": 38.8988185, "fusion_lon": 0.0, "fusion_lat": 0.0, "type": "electric_scooter", "name": "669806f6411cd53613096de7cfcb6a76", "is_disabled": 0, "rental_uris": {"ios": "https://dc.lft.to/lastmile_qr_scan", "android": "https://dc.lft.to/lastmile_qr_scan"}, "is_reserved": 0}, {"lon": -77.03289683333334, "bike_id": "077d275210080adc86d7abb583f51e7d", "lat": 38.956511666666664, "fusion_lon": 0.0, "fusion_lat": 0.0, "type": "electric_scooter", "name": "077d275210080adc86d7abb583f51e7d", "is_disabled": 0, "rental_uris": {"ios": "https://dc.lft.to/lastmile_qr_scan", "android": "https://dc.lft.to/lastmile_qr_scan"}, "is_reserved": 0}, {"lon": -77.02650466666667, "bike_id": "e400aaa68cb4ffdbe6b62210a1517631", "lat": 38.97563383333333, "fusion_lon": 0.0, "fusion_lat": 0.0, "type": "electric_scooter", "name": "e400aaa68cb4ffdbe6b62210a1517631", "is_disabled": 0, "rental_uris": {"ios": "https://dc.lft.to/lastmile_qr_scan", "android": "https://dc.lft.to/lastmile_qr_scan"}, "is_reserved": 0}, {"lon": -76.93644816666666, "bike_id": "f92ebd57ebef0f06afe7e005fc3e5ab2", "lat": 38.900637333333336, "fusion_lon": 0.0, "fusion_lat": 0.0, "type": "electric_scooter", "name": "f92ebd57ebef0f06afe7e005fc3e5ab2", "is_disabled": 0, "rental_uris": {"ios": "https://dc.lft.to/lastmile_qr_scan", "android": "https://dc.lft.to/lastmile_qr_scan"}, "is_reserved": 0}, {"lon": -76.93018283333333, "bike_id": "0bb9e8a0da0a5c1c306c28fd48dffb85", "lat": 38.8965125, "fusion_lon": 0.0, "fusion_lat": 0.0, "type": "electric_bike", "name": "0bb9e8a0da0a5c1c306c28fd48dffb85", "is_disabled": 0, "rental_uris": {"ios": "https://dc.lft.to/lastmile_qr_scan", "android": "https://dc.lft.to/lastmile_qr_scan"}, "is_reserved": 0}, {"lon": -77.0131225, "bike_id": "34202d1cbe6310c6612f1ba36c11bb10", "lat": 38.90072166666667, "fusion_lon": 0.0, "fusion_lat": 0.0, "type": "electric_scooter", "name": "34202d1cbe6310c6612f1ba36c11bb10", "is_disabled": 0, "rental_uris": {"ios": "https://dc.lft.to/lastmile_qr_scan", "android": "https://dc.lft.to/lastmile_qr_scan"}, "is_reserved": 0}, {"lon": -76.9849785, "bike_id": "0793233ef55c09bdc3083aff572388d7", "lat": 38.893613333333334, "fusion_lon": 0.0, "fusion_lat": 0.0, "type": "electric_scooter", "name": "0793233ef55c09bdc3083aff572388d7", "is_disabled": 0, "rental_uris": {"ios": "https://dc.lft.to/lastmile_qr_scan", "android": "https://dc.lft.to/lastmile_qr_scan"}, "is_reserved": 0}, {"lon": -77.007804, "bike_id": "178a00bc22b425fc47452cbebb4b09fb", "lat": 38.9056875, "fusion_lon": 0.0, "fusion_lat": 0.0, "type": "electric_scooter", "name": "178a00bc22b425fc47452cbebb4b09fb", "is_disabled": 0, "rental_uris": {"ios": "https://dc.lft.to/lastmile_qr_scan", "android": "https://dc.lft.to/lastmile_qr_scan"}, "is_reserved": 0}, {"lon": -76.9732545, "bike_id": "5d4dc31aad5fe2c88dff6b09fcf277f4", "lat": 38.904829, "fusion_lon": 0.0, "fusion_lat": 0.0, "type": "electric_bike", "name": "5d4dc31aad5fe2c88dff6b09fcf277f4", "is_disabled": 0, "rental_uris": {"ios": "https://dc.lft.to/lastmile_qr_scan", "android": "https://dc.lft.to/lastmile_qr_scan"}, "is_reserved": 0}, {"lon": -77.034619, "bike_id": "3a13f33c0dd26b17448108e34821cbe0", "lat": 38.918647, "fusion_lon": 0.0, "fusion_lat": 0.0, "type": "electric_scooter", "name": "3a13f33c0dd26b17448108e34821cbe0", "is_disabled": 0, "rental_uris": {"ios": "https://dc.lft.to/lastmile_qr_scan", "android": "https://dc.lft.to/lastmile_qr_scan"}, "is_reserved": 0}, {"lon": -77.043259, "bike_id": "72b7634c783d68f1671365aac2786b67", "lat": 38.89225166666667, "fusion_lon": 0.0, "fusion_lat": 0.0, "type": "electric_scooter", "name": "72b7634c783d68f1671365aac2786b67", "is_disabled": 0, "rental_uris": {"ios": "https://dc.lft.to/lastmile_qr_scan", "android": "https://dc.lft.to/lastmile_qr_scan"}, "is_reserved": 0}, {"lon": -77.04569533333333, "bike_id": "13702dc0b99de853577ce2a9e755a12a", "lat": 38.91471083333333, "fusion_lon": 0.0, "fusion_lat": 0.0, "type": "electric_scooter", "name": "13702dc0b99de853577ce2a9e755a12a", "is_disabled": 0, "rental_uris": {"ios": "https://dc.lft.to/lastmile_qr_scan", "android": "https://dc.lft.to/lastmile_qr_scan"}, "is_reserved": 0}, {"lon": -77.05733783333334, "bike_id": "8aec24ee9b0b65200fedc659f68d39e5", "lat": 38.93362483333333, "fusion_lon": 0.0, "fusion_lat": 0.0, "type": "electric_scooter", "name": "8aec24ee9b0b65200fedc659f68d39e5", "is_disabled": 0, "rental_uris": {"ios": "https://dc.lft.to/lastmile_qr_scan", "android": "https://dc.lft.to/lastmile_qr_scan"}, "is_reserved": 0}, {"lon": -77.00492466666667, "bike_id": "4f6e1952443cb094ee0442756b3f3ef1", "lat": 38.874805333333335, "fusion_lon": 0.0, "fusion_lat": 0.0, "type": "electric_scooter", "name": "4f6e1952443cb094ee0442756b3f3ef1", "is_disabled": 0, "rental_uris": {"ios": "https://dc.lft.to/lastmile_qr_scan", "android": "https://dc.lft.to/lastmile_qr_scan"}, "is_reserved": 0}, {"lon": -77.005776, "bike_id": "b2d5c894659b093725acedf18d3f8d57", "lat": 38.90932983333333, "fusion_lon": 0.0, "fusion_lat": 0.0, "type": "electric_scooter", "name": "b2d5c894659b093725acedf18d3f8d57", "is_disabled": 0, "rental_uris": {"ios": "https://dc.lft.to/lastmile_qr_scan", "android": "https://dc.lft.to/lastmile_qr_scan"}, "is_reserved": 0}, {"lon": -77.03842366666667, "bike_id": "6e3c374cad982fb2a4a53f10d2443752", "lat": 38.906604, "fusion_lon": 0.0, "fusion_lat": 0.0, "type": "electric_scooter", "name": "6e3c374cad982fb2a4a53f10d2443752", "is_disabled": 0, "rental_uris": {"ios": "https://dc.lft.to/lastmile_qr_scan", "android": "https://dc.lft.to/lastmile_qr_scan"}, "is_reserved": 0}, {"lon": -76.99796366666666, "bike_id": "8093314b52ef6f4c7ba0799e9e7106af", "lat": 38.9564825, "fusion_lon": 0.0, "fusion_lat": 0.0, "type": "electric_bike", "name": "8093314b52ef6f4c7ba0799e9e7106af", "is_disabled": 0, "rental_uris": {"ios": "https://dc.lft.to/lastmile_qr_scan", "android": "https://dc.lft.to/lastmile_qr_scan"}, "is_reserved": 0}, {"lon": -76.97907583333334, "bike_id": "4cabdd327a4cb412c4a4c310ef0fbfdf", "lat": 38.924570333333335, "fusion_lon": 0.0, "fusion_lat": 0.0, "type": "electric_bike", "name": "4cabdd327a4cb412c4a4c310ef0fbfdf", "is_disabled": 0, "rental_uris": {"ios": "https://dc.lft.to/lastmile_qr_scan", "android": "https://dc.lft.to/lastmile_qr_scan"}, "is_reserved": 0}, {"lon": -77.02969566666667, "bike_id": "0f513dab7eb282edcc36e41296f6dbc5", "lat": 38.91688666666667, "fusion_lon": 0.0, "fusion_lat": 0.0, "type": "electric_scooter", "name": "0f513dab7eb282edcc36e41296f6dbc5", "is_disabled": 0, "rental_uris": {"ios": "https://dc.lft.to/lastmile_qr_scan", "android": "https://dc.lft.to/lastmile_qr_scan"}, "is_reserved": 0}, {"lon": -76.99527466666666, "bike_id": "3499ed66b118f59fc2c7cdcbdf2ff8a5", "lat": 38.894814333333336, "fusion_lon": 0.0, "fusion_lat": 0.0, "type": "electric_scooter", "name": "3499ed66b118f59fc2c7cdcbdf2ff8a5", "is_disabled": 0, "rental_uris": {"ios": "https://dc.lft.to/lastmile_qr_scan", "android": "https://dc.lft.to/lastmile_qr_scan"}, "is_reserved": 0}, {"lon": -76.95528033333333, "bike_id": "e757f101ebb2845c9ead3726a5bb31e9", "lat": 38.8877285, "fusion_lon": 0.0, "fusion_lat": 0.0, "type": "electric_scooter", "name": "e757f101ebb2845c9ead3726a5bb31e9", "is_disabled": 0, "rental_uris": {"ios": "https://dc.lft.to/lastmile_qr_scan", "android": "https://dc.lft.to/lastmile_qr_scan"}, "is_reserved": 0}, {"lon": -77.04104016666666, "bike_id": "27271cb08be77a61925b831e212de9c3", "lat": 38.92532766666667, "fusion_lon": 0.0, "fusion_lat": 0.0, "type": "electric_scooter", "name": "27271cb08be77a61925b831e212de9c3", "is_disabled": 0, "rental_uris": {"ios": "https://dc.lft.to/lastmile_qr_scan", "android": "https://dc.lft.to/lastmile_qr_scan"}, "is_reserved": 0}, {"lon": -77.00469533333333, "bike_id": "b86e8ab3ebac282f60cf8b378e2d352f", "lat": 38.8777235, "fusion_lon": 0.0, "fusion_lat": 0.0, "type": "electric_scooter", "name": "b86e8ab3ebac282f60cf8b378e2d352f", "is_disabled": 0, "rental_uris": {"ios": "https://dc.lft.to/lastmile_qr_scan", "android": "https://dc.lft.to/lastmile_qr_scan"}, "is_reserved": 0}, {"lon": -77.0317185, "bike_id": "c62c61588c5ebad86c3bde2cba167462", "lat": 38.92098266666667, "fusion_lon": 0.0, "fusion_lat": 0.0, "type": "electric_bike", "name": "c62c61588c5ebad86c3bde2cba167462", "is_disabled": 0, "rental_uris": {"ios": "https://dc.lft.to/lastmile_qr_scan", "android": "https://dc.lft.to/lastmile_qr_scan"}, "is_reserved": 0}, {"lon": -77.07594433333334, "bike_id": "5b799dc6a96b24ea0e15c40e9ba1366c", "lat": 38.9121525, "fusion_lon": 0.0, "fusion_lat": 0.0, "type": "electric_scooter", "name": "5b799dc6a96b24ea0e15c40e9ba1366c", "is_disabled": 0, "rental_uris": {"ios": "https://dc.lft.to/lastmile_qr_scan", "android": "https://dc.lft.to/lastmile_qr_scan"}, "is_reserved": 0}, {"lon": -77.02197183333334, "bike_id": "33b6088f86a6aaec4e87b4f75d83e199", "lat": 38.89519283333333, "fusion_lon": 0.0, "fusion_lat": 0.0, "type": "electric_scooter", "name": "33b6088f86a6aaec4e87b4f75d83e199", "is_disabled": 0, "rental_uris": {"ios": "https://dc.lft.to/lastmile_qr_scan", "android": "https://dc.lft.to/lastmile_qr_scan"}, "is_reserved": 0}, {"lon": -77.01497116666667, "bike_id": "1229bd757e3c7582e641bb31d24a2509", "lat": 38.91761416666667, "fusion_lon": 0.0, "fusion_lat": 0.0, "type": "electric_scooter", "name": "1229bd757e3c7582e641bb31d24a2509", "is_disabled": 0, "rental_uris": {"ios": "https://dc.lft.to/lastmile_qr_scan", "android": "https://dc.lft.to/lastmile_qr_scan"}, "is_reserved": 0}, {"lon": -77.005834, "bike_id": "af438b4460f9452d4374c3b35b2f638b", "lat": 38.9055755, "fusion_lon": 0.0, "fusion_lat": 0.0, "type": "electric_scooter", "name": "af438b4460f9452d4374c3b35b2f638b", "is_disabled": 0, "rental_uris": {"ios": "https://dc.lft.to/lastmile_qr_scan", "android": "https://dc.lft.to/lastmile_qr_scan"}, "is_reserved": 0},