{"data": {"bikes": [{"lat": 38.916836333333336, "is_disabled": 0, "type": "electric_scooter", "lon": -77.02696616666667, "bike_id": "830e5b78ea108e085148547a407a1e9d", "fusion_lat": 0.0, "name": "830e5b78ea108e085148547a407a1e9d", "is_reserved": 0, "rental_uris": {"android": "https://dc.lft.to/lastmile_qr_scan", "ios": "https://dc.lft.to/lastmile_qr_scan"}, "fusion_lon": 0.0}, {"lat": 38.998208166666664, "is_disabled": 0, "type": "electric_bike", "lon": -76.88378133333333, "bike_id": "106478395190e9b48bd63f44085a3685", "fusion_lat": 0.0, "name": "106478395190e9b48bd63f44085a3685", "is_reserved": 0, "rental_uris": {"android": "https://dc.lft.to/lastmile_qr_scan", "ios": "https://dc.lft.to/lastmile_qr_scan"}, "fusion_lon": 0.0}, {"lat": 38.90120183333333, "is_disabled": 0, "type": "electric_scooter", "lon": -77.0287845, "bike_id": "595cc4a3d29a11c776496be568c11ea7", "fusion_lat": 0.0, "name": "595cc4a3d29a11c776496be568c11ea7", "is_reserved": 0, "rental_uris": {"android": "https://dc.lft.to/lastmile_qr_scan", "ios": "https://dc.lft.to/lastmile_qr_scan"}, "fusion_lon": 0.0}, {"lat": 38.90975, "is_disabled": 0, "type": "electric_scooter", "lon": -77.01701066666666, "bike_id": "996ff4534afdd7c63d58ca6e8dc253a1", "fusion_lat": 0.0, "name": "996ff4534afdd7c63d58ca6e8dc253a1", "is_reserved": 0, "rental_uris": {"android": "https://dc.lft.to/lastmile_qr_scan", "ios": "https://dc.lft.to/lastmile_qr_scan"}, "fusion_lon": 0.0}, {"lat": 38.9215985, "is_disabled": 0, "type": "electric_scooter", "lon": -77.042251, "bike_id": "48fe235b66a049e7ce5db12787b68a22", "fusion_lat": 0.0, "name": "48fe235b66a049e7ce5db12787b68a22", "is_reserved": 0, "rental_uris": {"android": "https://dc.lft.to/lastmile_qr_scan", "ios": "https://dc.lft.to/lastmile_qr_scan"}, "fusion_lon": 0.0}, {"lat": 38.94984083333333, "is_disabled": 0, "type": "electric_scooter", "lon": -77.06758116666667, "bike_id": "29c5a960f83229a42ef0923cb6b56a91", "fusion_lat": 0.0, "name": "29c5a960f83229a42ef0923cb6b56a91", "is_reserved": 0, "rental_uris": {"android": "https://dc.lft.to/lastmile_qr_scan", "ios": "https://dc.lft.to/lastmile_qr_scan"}, "fusion_lon": 0.0}, {"lat": 39.0304615, "is_disabled": 0, "type": "electric_bike", "lon": -77.09483116666667, "bike_id": "54f38a0528590f0e3dfb9552cd72b3b3", "fusion_lat": 0.0, "name": "54f38a0528590f0e3dfb9552cd72b3b3", "is_reserved": 0, "rental_uris": {"android": "https://dc.lft.to/lastmile_qr_scan", "ios": "https://dc.lft.to/lastmile_qr_scan"}, "fusion_lon": 0.0}, {"lat": 39.02432066666667, "is_disabled": 0, "type": "electric_bike", "lon": -77.13095916666667, "bike_id": "3e308f84c1e1ca93c1ab63a3b864d855", "fusion_lat": 0.0, "name": "3e308f84c1e1ca93c1ab63a3b864d855", "is_reserved": 0, "rental_uris": {"android": "https://dc.lft.to/lastmile_qr_scan", "ios": "https://dc.lft.to/lastmile_qr_scan"}, "fusion_lon": 0.0}, {"lat": 38.95159233333333, "is_disabled": 0, "type": "electric_scooter", "lon": -77.06776033333334, "bike_id": "7ce6187d32f6cd175a7e5ad9409de4bc", "fusion_lat": 0.0, "name": "7ce6187d32f6cd175a7e5ad9409de4bc", "is_reserved": 0, "rental_uris": {"android": "https://dc.lft.to/lastmile_qr_scan", "ios": "https://dc.lft.to/lastmile_qr_scan"}, "fusion_lon": 0.0}, {"lat": 38.87731983333333, "is_disabled": 0, "type": "electric_bike", "lon": -77.11850116666666, "bike_id": "2fb75b587fe24fd7be0b41170f73de07", "fusion_lat": 0.0, "name": "2fb75b587fe24fd7be0b41170f73de07", "is_reserved": 0, "rental_uris": {"android": "https://dc.lft.to/lastmile_qr_scan", "ios": "https://dc.lft.to/lastmile_qr_scan"}, "fusion_lon": 0.0}, {"lat": 38.8626315, "is_disabled": 0, "type": "electric_scooter", "lon": -76.98694266666666, "bike_id": "b8d58b59b7f9fbead8b207a27047a8df", "fusion_lat": 0.0, "name": "b8d58b59b7f9fbead8b207a27047a8df", "is_reserved": 0, "rental_uris": {"android": "https://dc.lft.to/lastmile_qr_scan", "ios": "https://dc.lft.to/lastmile_qr_scan"}, "fusion_lon": 0.0}, {"lat": 38.920657, "is_disabled": 0, "type": "electric_scooter", "lon": -77.04375483333334, "bike_id": "222b6358cc3df255d89af6d70f576bd4", "fusion_lat": 0.0, "name": "222b6358cc3df255d89af6d70f576bd4", "is_reserved": 0, "rental_uris": {"android": "https://dc.lft.to/lastmile_qr_scan", "ios": "https://dc.lft.to/lastmile_qr_scan"}, "fusion_lon": 0.0}, {"lat": 38.910513, "is_disabled": 0, "type": "electric_scooter", "lon": -77.01523983333334, "bike_id": "51577b3a0b1c6bebe0bfb29bd56258f4", "fusion_lat": 0.0, "name": "51577b3a0b1c6bebe0bfb29bd56258f4", "is_reserved": 0, "rental_uris": {"android": "https://dc.lft.to/lastmile_qr_scan", "ios": "https://dc.lft.to/lastmile_qr_scan"}, "fusion_lon": 0.0}, {"lat": 38.95186, "is_disabled": 0, "type": "electric_bike", "lon": -76.93542433333333, "bike_id": "4f475388e5e4b1ce195aff708e9238e4", "fusion_lat": 0.0, "name": "4f475388e5e4b1ce195aff708e9238e4", "is_reserved": 0, "rental_uris": {"android": "https://dc.lft.to/lastmile_qr_scan", "ios": "https://dc.lft.to/lastmile_qr_scan"}, "fusion_lon": 0.0}, {"lat": 38.9391055, "is_disabled": 0, "type": "electric_scooter", "lon": -77.0248675, "bike_id": "966f3014cf1c14258657b6a0ce623e66", "fusion_lat": 0.0, "name": "966f3014cf1c14258657b6a0ce623e66", "is_reserved": 0, "rental_uris": {"android": "https://dc.lft.to/lastmile_qr_scan", "ios": "https://dc.lft.to/lastmile_qr_scan"}, "fusion_lon": 0.0}, {"lat": 38.90731266666667, "is_disabled": 0, "type": "electric_scooter", "lon": -77.0419835, "bike_id": "c49104524c6943184bee342c927841aa", "fusion_lat": 0.0, "name": "c49104524c6943184bee342c927841aa", "is_reserved": 0, "rental_uris": {"android": "https://dc.lft.to/lastmile_qr_scan", "ios": "https://dc.lft.to/lastmile_qr_scan"}, "fusion_lon": 0.0}, {"lat": 38.9039405, "is_disabled": 0, "type": "electric_scooter", "lon": -77.016506, "bike_id": "8d47213ecfce2c8121e54427d1ea4d83", "fusion_lat": 0.0, "name": "8d47213ecfce2c8121e54427d1ea4d83", "is_reserved": 0, "rental_uris": {"android": "https://dc.lft.to/lastmile_qr_scan", "ios": "https://dc.lft.to/lastmile_qr_scan"}, "fusion_lon": 0.0}, {"lat": 38.931092666666665, "is_disabled": 0, "type": "electric_scooter", "lon": -77.020778, "bike_id": "a95cdfdd8798cd9c0ed6758a182422a8", "fusion_lat": 0.0, "name": "a95cdfdd8798cd9c0ed6758a182422a8", "is_reserved": 0, "rental_uris": {"android": "https://dc.lft.to/lastmile_qr_scan", "ios": "https://dc.lft.to/lastmile_qr_scan"}, "fusion_lon": 0.0}, {"lat": 38.9056035, "is_disabled": 0, "type": "electric_scooter", "lon": -77.0345965, "bike_id": "b0f54fb3bc3ef4c1591e6203734bd6ef", "fusion_lat": 0.0, "name": "b0f54fb3bc3ef4c1591e6203734bd6ef", "is_reserved": 0, "rental_uris": {"android": "https://dc.lft.to/lastmile_qr_scan", "ios": "https://dc.lft.to/lastmile_qr_scan"}, "fusion_lon": 0.0}, {"lat": 38.911305166666665, "is_disabled": 0, "type": "electric_scooter", "lon": -77.04353366666666, "bike_id": "6a4691358f267597adb2ff9929c4197f", "fusion_lat": 0.0, "name": "6a4691358f267597adb2ff9929c4197f", "is_reserved": 0, "rental_uris": {"android": "https://dc.lft.to/lastmile_qr_scan", "ios": "https://dc.lft.to/lastmile_qr_scan"}, "fusion_lon": 0.0}, {"lat": 38.9266465, "is_disabled": 0, "type": "electric_scooter", "lon": -77.0559695, "bike_id": "e7d904f8525e2ac9e83a13d03fef8ad3", "fusion_lat": 0.0, "name": "e7d904f8525e2ac9e83a13d03fef8ad3", "is_reserved": 0, "rental_uris": {"android": "https://dc.lft.to/lastmile_qr_scan", "ios": "https://dc.lft.to/lastmile_qr_scan"}, "fusion_lon": 0.0}, {"lat": 38.87682266666667, "is_disabled": 0, "type": "electric_bike", "lon": -77.01608466666667, "bike_id": "298ce0a24b90b8317edf8f2a92a75093", "fusion_lat": 0.0, "name": "298ce0a24b90b8317edf8f2a92a75093", "is_reserved": 0, "rental_uris": {"android": "https://dc.lft.to/lastmile_qr_scan", "ios": "https://dc.lft.to/lastmile_qr_scan"}, "fusion_lon": 0.0}, {"lat": 38.89230516666667, "is_disabled": 0, "type": "electric_scooter", "lon": -77.05003283333333, "bike_id": "7cccc64ef9e9586ca6c56ced01c16097", "fusion_lat": 0.0, "name": "7cccc64ef9e9586ca6c56ced01c16097", "is_reserved": 0, "rental_uris": {"android": "https://dc.lft.to/lastmile_qr_scan", "ios": "https://dc.lft.to/lastmile_qr_scan"}, "fusion_lon": 0.0}, {"lat": 38.89552333333334, "is_disabled": 0, "type": "electric_scooter", "lon": -76.933817, "bike_id": "c1da3179fb5070ff1d54f91ac51e15a9", "fusion_lat": 0.0, "name": "c1da3179fb5070ff1d54f91ac51e15a9", "is_reserved": 0, "rental_uris": {"android": "https://dc.lft.to/lastmile_qr_scan", "ios": "https://dc.lft.to/lastmile_qr_scan"}, "fusion_lon": 0.0}, {"lat": 38.92855516666667, "is_disabled": 0, "type": "electric_scooter", "lon": -77.02997616666667, "bike_id": "81f3aa9289bf6fc29055ce97edded80c", "fusion_lat": 0.0, "name": "81f3aa9289bf6fc29055ce97edded80c", "is_reserved": 0, "rental_uris": {"android": "https://dc.lft.to/lastmile_qr_scan", "ios": "https://dc.lft.to/lastmile_qr_scan"}, "fusion_lon": 0.0}, {"lat": 38.875354, "is_disabled": 0, "type": "electric_scooter", "lon": -77.00506066666667, "bike_id": "153a6f02ba8ff36d6a76edaa58b9afa4", "fusion_lat": 0.0, "name": "153a6f02ba8ff36d6a76edaa58b9afa4", "is_reserved": 0, "rental_uris": {"android": "https://dc.lft.to/lastmile_qr_scan", "ios": "https://dc.lft.to/lastmile_qr_scan"}, "fusion_lon": 0.0}, {"lat": 38.918833166666666, "is_disabled": 0, "type": "electric_scooter", "lon": -77.035057, "bike_id": "5cbe15cec3623c65ad05a625a526d76e", "fusion_lat": 0.0, "name": "5cbe15cec3623c65ad05a625a526d76e", "is_reserved": 0, "rental_uris": {"android": "https://dc.lft.to/lastmile_qr_scan", "ios": "https://dc.lft.to/lastmile_qr_scan"}, "fusion_lon": 0.0}, {"lat": 38.92596783333333, "is_disabled": 0, "type": "electric_scooter", "lon": -77.0249655, "bike_id": "8b84b7ec92a66ca245f7746b84283a65", "fusion_lat": 0.0, "name": "8b84b7ec92a66ca245f7746b84283a65", "is_reserved": 0, "rental_uris": {"android": "https://dc.lft.to/lastmile_qr_scan", "ios": "https://dc.lft.to/lastmile_qr_scan"}, "fusion_lon": 0.0}, {"lat": 38.902143833333334, "is_disabled": 0, "type": "electric_scooter", "lon": -76.988442, "bike_id": "15b8af19e3ac6a52d3d74fcdfb9bc7dd", "fusion_lat": 0.0, "name": "15b8af19e3ac6a52d3d74fcdfb9bc7dd", "is_reserved": 0, "rental_uris": {"android": "https://dc.lft.to/lastmile_qr_scan", "ios": "https://dc.lft.to/lastmile_qr_scan"}, "fusion_lon": 0.0}, {"lat": 38.9036355, "is_disabled": 0, "type": "electric_scooter", "lon": -76.976516, "bike_id": "5da1f4a6a624aec14a23bcd131e0c8c9", "fusion_lat": 0.0, "name": "5da1f4a6a624aec14a23bcd131e0c8c9", "is_reserved": 0, "rental_uris": {"android": "https://dc.lft.to/lastmile_qr_scan", "ios": "https://dc.lft.to/lastmile_qr_scan"}, "fusion_lon": 0.0}, {"lat": 38.8963055, "is_disabled": 0, "type": "electric_scooter", "lon": -77.04498366666667, "bike_id": "c524bd20351420133e32bed3bbd837ca", "fusion_lat": 0.0, "name": "c524bd20351420133e32bed3bbd837ca", "is_reserved": 0, "rental_uris": {"android": "https://dc.lft.to/lastmile_qr_scan", "ios": "https://dc.lft.to/lastmile_qr_scan"}, "fusion_lon": 0.0}, {"lat": 38.96071216666667, "is_disabled": 0, "type": "electric_scooter", "lon": -77.07304766666667, "bike_id": "8a8b450e52639a6c6148e744afa4a68b", "fusion_lat": 0.0, "name": "8a8b450e52639a6c6148e744afa4a68b", "is_reserved": 0, "rental_uris": {"android": "https://dc.lft.to/lastmile_qr_scan", "ios": "https://dc.lft.to/lastmile_qr_scan"}, "fusion_lon": 0.0}, {"lat": 38.91507283333333, "is_disabled": 0, "type": "electric_scooter", "lon": -77.03232, "bike_id": "bb9e241b15cffa054d66f7f0145aa84d", "fusion_lat": 0.0, "name": "bb9e241b15cffa054d66f7f0145aa84d", "is_reserved": 0, "rental_uris": {"android": "https://dc.lft.to/lastmile_qr_scan", "ios": "https://dc.lft.to/lastmile_qr_scan"}, "fusion_lon": 0.0}, {"lat": 38.9242285, "is_disabled": 0, "type": "electric_scooter", "lon": -77.029764, "bike_id": "860018fd37391e0167ef1b8ec4215c72", "fusion_lat": 0.0, "name": "860018fd37391e0167ef1b8ec4215c72", "is_reserved": 0, "rental_uris": {"android": "https://dc.lft.to/lastmile_qr_scan", "ios": "https://dc.lft.to/lastmile_qr_scan"}, "fusion_lon": 0.0}, {"lat": 38.90155133333333, "is_disabled": 0, "type": "electric_scooter", "lon": -77.01581733333333, "bike_id": "009f0dfc34f8550949bde7871b906722", "fusion_lat": 0.0, "name": "009f0dfc34f8550949bde7871b906722", "is_reserved": 0, "rental_uris": {"android": "https://dc.lft.to/lastmile_qr_scan", "ios": "https://dc.lft.to/lastmile_qr_scan"}, "fusion_lon": 0.0}, {"lat": 38.935375666666665, "is_disabled": 0, "type": "electric_scooter", "lon": -77.03402183333333, "bike_id": "22e74a5a3e964c2812c45f318e446505", "fusion_lat": 0.0, "name": "22e74a5a3e964c2812c45f318e446505", "is_reserved": 0, "rental_uris": {"android": "https://dc.lft.to/lastmile_qr_scan", "ios": "https://dc.lft.to/lastmile_qr_scan"}, "fusion_lon": 0.0}, {"lat": 38.95257483333334, "is_disabled": 0, "type": "electric_bike", "lon": -77.0239665, "bike_id": "31024daf7b2aa411a2f19126216536e4", "fusion_lat": 0.0, "name": "31024daf7b2aa411a2f19126216536e4", "is_reserved": 0, "rental_uris": {"android": "https://dc.lft.to/lastmile_qr_scan", "ios": "https://dc.lft.to/lastmile_qr_scan"}, "fusion_lon": 0.0}, {"lat": 38.89963933333333, "is_disabled": 0, "type": "electric_scooter", "lon": -77.03372066666667, "bike_id": "02b0d5dae2d5571ce5a100803a42c51a", "fusion_lat": 0.0, "name": "02b0d5dae2d5571ce5a100803a42c51a", "is_reserved": 0, "rental_uris": {"android": "https://dc.lft.to/lastmile_qr_scan", "ios": "https://dc.lft.to/lastmile_qr_scan"}, "fusion_lon": 0.0}, {"lat": 38.86700533333333, "is_disabled": 0, "type": "electric_scooter", "lon": -76.987134, "bike_id": "c133472313286edffec2b8c0050614fa", "fusion_lat": 0.0, "name": "c133472313286edffec2b8c0050614fa", "is_reserved": 0, "rental_uris": {"android": "https://dc.lft.to/lastmile_qr_scan", "ios": "https://dc.lft.to/lastmile_qr_scan"}, "fusion_lon": 0.0}, {"lat": 38.9308915, "is_disabled": 0, "type": "electric_scooter", "lon": -77.077493, "bike_id": "488dda2af37bf3ff126527dbd2c4b0a4", "fusion_lat": 0.0, "name": "488dda2af37bf3ff126527dbd2c4b0a4", "is_reserved": 0, "rental_uris": {"android": "https://dc.lft.to/lastmile_qr_scan", "ios": "https://dc.lft.to/lastmile_qr_scan"}, "fusion_lon": 0.0}, {"lat": 38.8922895, "is_disabled": 0, "type": "electric_scooter", "lon": -77.04997916666666, "bike_id": "9f9356516c92360ed8b78b1250759487", "fusion_lat": 0.0, "name": "9f9356516c92360ed8b78b1250759487", "is_reserved": 0, "rental_uris": {"android": "https://dc.lft.to/lastmile_qr_scan", "ios": "https://dc.lft.to/lastmile_qr_scan"}, "fusion_lon": 0.0}, {"lat": 38.91006616666667, "is_disabled": 0, "type": "electric_scooter", "lon": -76.98616333333334, "bike_id": "3bca41b6348ba598afb87d51e08b179b", "fusion_lat": 0.0, "name": "3bca41b6348ba598afb87d51e08b179b", "is_reserved": 0, "rental_uris": {"android": "https://dc.lft.to/lastmile_qr_scan", "ios": "https://dc.lft.to/lastmile_qr_scan"}, "fusion_lon": 0.0}, {"lat": 38.91682333333333, "is_disabled": 0, "type": "electric_scooter", "lon": -77.02972333333334, "bike_id": "fbaa4498783c09237c055d91876d5503", "fusion_lat": 0.0, "name": "fbaa4498783c09237c055d91876d5503", "is_reserved": 0, "rental_uris": {"android": "https://dc.lft.to/lastmile_qr_scan", "ios": "https://dc.lft.to/lastmile_qr_scan"}, "fusion_lon": 0.0}, {"lat": 38.898084, "is_disabled": 0, "type": "electric_scooter", "lon": -77.0501075, "bike_id": "5c4e42c39919c401910d2f7d88851cac", "fusion_lat": 0.0, "name": "5c4e42c39919c401910d2f7d88851cac", "is_reserved": 0, "rental_uris": {"android": "https://dc.lft.to/lastmile_qr_scan", "ios": "https://dc.lft.to/lastmile_qr_scan"}, "fusion_lon": 0.0}, {"lat": 38.91536516666667, "is_disabled": 0, "type": "electric_scooter", "lon": -77.00348066666666, "bike_id": "a14c7a70ed771945fb358632a2098949", "fusion_lat": 0.0, "name": "a14c7a70ed771945fb358632a2098949", "is_reserved": 0, "rental_uris": {"android": "https://dc.lft.to/lastmile_qr_scan", "ios": "https://dc.lft.to/lastmile_qr_scan"}, "fusion_lon": 0.0}, {"lat": 38.940887833333335, "is_disabled": 0, "type": "electric_scooter", "lon": -77.06127, "bike_id": "9a64cd67a66f3e7833456bf58ec5a3a8", "fusion_lat": 0.0, "name": "9a64cd67a66f3e7833456bf58ec5a3a8", "is_reserved": 0, "rental_uris": {"android": "https://dc.lft.to/lastmile_qr_scan", "ios": "https://dc.lft.to/lastmile_qr_scan"}, "fusion_lon": 0.0}, {"lat": 38.909733833333334, "is_disabled": 0, "type": "electric_scooter", "lon": -77.03215316666666, "bike_id": "cb5dfda56c7a41945d266d75cba1a44a", "fusion_lat": 0.0, "name": "cb5dfda56c7a41945d266d75cba1a44a", "is_reserved": 0, "rental_uris": {"android": "https://dc.lft.to/lastmile_qr_scan", "ios": "https://dc.lft.to/lastmile_qr_scan"}, "fusion_lon": 0.0}, {"lat": 38.94905583333333, "is_disabled": 0, "type": "electric_bike", "lon": -76.97238533333334, "bike_id": "29dca887a16feb19b4c1692a6f1bc359", "fusion_lat": 0.0, "name": "29dca887a16feb19b4c1692a6f1bc359", "is_reserved": 0, "rental_uris": {"android": "https://dc.lft.to/lastmile_qr_scan", "ios": "https://dc.lft.to/lastmile_qr_scan"}, "fusion_lon": 0.0}, {"lat": 38.91106516666667, "is_disabled": 0, "type": "electric_scooter", "lon": -77.02714816666666, "bike_id": "b69c79c5cb1b6ef512c93040c0a4cbd1", "fusion_lat": 0.0, "name": "b69c79c5cb1b6ef512c93040c0a4cbd1", "is_reserved": 0, "rental_uris": {"android": "https://dc.lft.to/lastmile_qr_scan", "ios": "https://dc.lft.to/lastmile_qr_scan"}, "fusion_lon": 0.0}, {"lat": 38.921862, "is_disabled": 0, "type": "electric_scooter", "lon": -77.04346533333333, "bike_id": "2ff562ecefcc2dc429cf82aafebe3899", "fusion_lat": 0.0, "name": "2ff562ecefcc2dc429cf82aafebe3899", "is_reserved": 0, "rental_uris": {"android": "https://dc.lft.to/lastmile_qr_scan", "ios": "https://dc.lft.to/lastmile_qr_scan"}, "fusion_lon": 0.0}, {"lat": 38.90737516666667, "is_disabled": 0, "type": "electric_scooter", "lon": -77.03452466666667, "bike_id": "2eae644b7f68233e9dc353cddd5f230c", "fusion_lat": 0.0, "name": "2eae644b7f68233e9dc353cddd5f230c", "is_reserved": 0, "rental_uris": {"android": "https://dc.lft.to/lastmile_qr_scan", "ios": "https://dc.lft.to/lastmile_qr_scan"}, "fusion_lon": 0.0}, {"lat": 38.9398945, "is_disabled": 0, "type": "electric_scooter", "lon": -77.02890966666666, "bike_id": "6daaa90f2cd4e89edb19128af8faeec8", "fusion_lat": 0.0, "name": "6daaa90f2cd4e89edb19128af8faeec8", "is_reserved": 0, "rental_uris": {"android": "https://dc.lft.to/lastmile_qr_scan", "ios": "https://dc.lft.to/lastmile_qr_scan"}, "fusion_lon": 0.0}, {"lat": 38.92964633333333, "is_disabled": 0, "type": "electric_scooter", "lon": -77.030811, "bike_id": "5131a76f063f00646c9e1faab94ab264", "fusion_lat": 0.0, "name": "5131a76f063f00646c9e1faab94ab264", "is_reserved": 0, "rental_uris": {"android": "https://dc.lft.to/lastmile_qr_scan", "ios": "https://dc.lft.to/lastmile_qr_scan"}, "fusion_lon": 0.0}, {"lat": 38.9006235, "is_disabled": 0, "type": "electric_scooter", "lon": -77.0259, "bike_id": "77da3cb1d7c7bc4095946c3745f647c1", "fusion_lat": 0.0, "name": "77da3cb1d7c7bc4095946c3745f647c1", "is_reserved": 0, "rental_uris": {"android": "https://dc.lft.to/lastmile_qr_scan", "ios": "https://dc.lft.to/lastmile_qr_scan"}, "fusion_lon": 0.0}, {"lat": 38.9097125, "is_disabled": 0, "type": "electric_scooter", "lon": -77.03440033333334, "bike_id": "fdc2fd406cf21269663b11afd0f0e763", "fusion_lat": 0.0, "name": "fdc2fd406cf21269663b11afd0f0e763", "is_reserved": 0, "rental_uris": {"android": "https://dc.lft.to/lastmile_qr_scan", "ios": "https://dc.lft.to/lastmile_qr_scan"}, "fusion_lon": 0.0}, {"lat": 38.89969966666666, "is_disabled": 0, "type": "electric_scooter", "lon": -76.92660366666667, "bike_id": "51705cab79e01363ff83425f16dc3c0b", "fusion_lat": 0.0, "name": "51705cab79e01363ff83425f16dc3c0b", "is_reserved": 0, "rental_uris": {"android": "https://dc.lft.to/lastmile_qr_scan", "ios": "https://dc.lft.to/lastmile_qr_scan"}, "fusion_lon": 0.0}, {"lat": 39.05207933333333, "is_disabled": 0, "type": "electric_bike", "lon": -77.10915416666667, "bike_id": "65517a0ddcb118f1c47a951a97e27476", "fusion_lat": 0.0, "name": "65517a0ddcb118f1c47a951a97e27476", "is_reserved": 0, "rental_uris": {"android": "https://dc.lft.to/lastmile_qr_scan", "ios": "https://dc.lft.to/lastmile_qr_scan"}, "fusion_lon": 0.0}, {"lat": 38.892297666666664, "is_disabled": 0, "type": "electric_scooter", "lon": -77.05002916666666, "bike_id": "bd2a04590bf7b68efce87822abb995dd", "fusion_lat": 0.0, "name": "bd2a04590bf7b68efce87822abb995dd", "is_reserved": 0, "rental_uris": {"android": "https://dc.lft.to/lastmile_qr_scan", "ios": "https://dc.lft.to/lastmile_qr_scan"}, "fusion_lon": 0.0}, {"lat": 38.905003, "is_disabled": 0, "type": "electric_scooter", "lon": -77.0296385, "bike_id": "cebb1793f5baa07e6b5a6c1963fff5a5", "fusion_lat": 0.0, "name": "cebb1793f5baa07e6b5a6c1963fff5a5", "is_reserved": 0, "rental_uris": {"android": "https://dc.lft.to/lastmile_qr_scan", "ios": "https://dc.lft.to/lastmile_qr_scan"}, "fusion_lon": 0.0}, {"lat": 38.9068905, "is_disabled": 0, "type": "electric_scooter", "lon": -77.04198616666666, "bike_id": "7cbf873f229e235cb1cd7f17de4fe50a", "fusion_lat": 0.0, "name": "7cbf873f229e235cb1cd7f17de4fe50a", "is_reserved": 0, "rental_uris": {"android": "https://dc.lft.to/lastmile_qr_scan", "ios": "https://dc.lft.to/lastmile_qr_scan"}, "fusion_lon": 0.0}, {"lat": 38.923250333333336, "is_disabled": 0, "type": "electric_scooter", "lon": -77.02691366666667, "bike_id": "e15bffb8ae9312c2cdf23e075ce54158", "fusion_lat": 0.0, "name": "e15bffb8ae9312c2cdf23e075ce54158", "is_reserved": 0, "rental_uris": {"android": "https://dc.lft.to/lastmile_qr_scan", "ios": "https://dc.lft.to/lastmile_qr_scan"}, "fusion_lon": 0.0}, {"lat": 38.920751833333334, "is_disabled": 0, "type": "electric_scooter", "lon": -77.04199166666666, "bike_id": "40bf9b5a5185ec9f0b63487b5a9d29d1", "fusion_lat": 0.0, "name": "40bf9b5a5185ec9f0b63487b5a9d29d1", "is_reserved": 0, "rental_uris": {"android": "https://dc.lft.to/lastmile_qr_scan", "ios": "https://dc.lft.to/lastmile_qr_scan"}, "fusion_lon": 0.0}, {"lat": 38.9267655, "is_disabled": 0, "type": "electric_scooter", "lon": -77.028609, "bike_id": "9fffbcaf836fff675a8045c567af629e", "fusion_lat": 0.0, "name": "9fffbcaf836fff675a8045c567af629e", "is_reserved": 0, "rental_uris": {"android": "https://dc.lft.to/lastmile_qr_scan", "ios": "https://dc.lft.to/lastmile_qr_scan"}, "fusion_lon": 0.0}, {"lat": 38.92329466666666, "is_disabled": 0, "type": "electric_scooter", "lon": -77.03575033333334, "bike_id": "6a4325ae7eaf4c709ed7419302126c3f", "fusion_lat": 0.0, "name": "6a4325ae7eaf4c709ed7419302126c3f", "is_reserved": 0, "rental_uris": {"android": "https://dc.lft.to/lastmile_qr_scan", "ios": "https://dc.lft.to/lastmile_qr_scan"}, "fusion_lon": 0.0}, {"lat": 38.91690083333334, "is_disabled": 0, "type": "electric_scooter", "lon": -77.0280285, "bike_id": "05a7ab8be8fd69ab1a9ce4f581d7f705", "fusion_lat": 0.0, "name": "05a7ab8be8fd69ab1a9ce4f581d7f705", "is_reserved": 0, "rental_uris": {"android": "https://dc.lft.to/lastmile_qr_scan", "ios": "https://dc.lft.to/lastmile_qr_scan"}, "fusion_lon": 0.0}, {"lat": 38.895153666666666, "is_disabled": 0, "type": "electric_scooter", "lon": -76.949021, "bike_id": "003d2ae9739698d5d16a9e4881c97b2e", "fusion_lat": 0.0, "name": "003d2ae9739698d5d16a9e4881c97b2e", "is_reserved": 0, "rental_uris": {"android": "https://dc.lft.to/lastmile_qr_scan", "ios": "https://dc.lft.to/lastmile_qr_scan"}, "fusion_lon": 0.0}, {"lat": 38.970927, "is_disabled": 0, "type": "electric_bike", "lon": -77.0697055, "bike_id": "61639d7682c04d6b5b332e4a7da65df8", "fusion_lat": 0.0, "name": "61639d7682c04d6b5b332e4a7da65df8", "is_reserved": 0, "rental_uris": {"android": "https://dc.lft.to/lastmile_qr_scan", "ios": "https://dc.lft.to/lastmile_qr_scan"}, "fusion_lon": 0.0}, {"lat": 38.91341233333333, "is_disabled": 0, "type": "electric_scooter", "lon": -76.9736885, "bike_id": "b409008dcc5f4beaa192a94196c318f2", "fusion_lat": 0.0, "name": "b409008dcc5f4beaa192a94196c318f2", "is_reserved": 0, "rental_uris": {"android": "https://dc.lft.to/lastmile_qr_scan", "ios": "https://dc.lft.to/lastmile_qr_scan"}, "fusion_lon": 0.0}, {"lat": 38.85209483333333, "is_disabled": 0, "type": "electric_bike", "lon": -77.1013145, "bike_id": "9332aa5bea49d7410274202215d4a5d6", "fusion_lat": 0.0, "name": "9332aa5bea49d7410274202215d4a5d6", "is_reserved": 0, "rental_uris": {"android": "https://dc.lft.to/lastmile_qr_scan", "ios": "https://dc.lft.to/lastmile_qr_scan"}, "fusion_lon": 0.0}, {"lat": 38.91707016666667, "is_disabled": 0, "type": "electric_scooter", "lon": -77.03472383333333, "bike_id": "c53eb817bc5d0bb9c09017c9769d6b65", "fusion_lat": 0.0, "name": "c53eb817bc5d0bb9c09017c9769d6b65", "is_reserved": 0, "rental_uris": {"android": "https://dc.lft.to/lastmile_qr_scan", "ios": "https://dc.lft.to/lastmile_qr_scan"}, "fusion_lon": 0.0}, {"lat": 38.907890333333334, "is_disabled": 0, "type": "electric_scooter", "lon": -77.0434215, "bike_id": "fd1f744a9cb68f0299ad5882012a69f0", "fusion_lat": 0.0, "name": "fd1f744a9cb68f0299ad5882012a69f0", "is_reserved": 0, "rental_uris": {"android": "https://dc.lft.to/lastmile_qr_scan", "ios": "https://dc.lft.to/lastmile_qr_scan"}, "fusion_lon": 0.0}, {"lat": 38.97194183333333, "is_disabled": 0, "type": "electric_bike", "lon": -77.02717516666667, "bike_id": "74b62b98107e9f398a7647c866a28500", "fusion_lat": 0.0, "name": "74b62b98107e9f398a7647c866a28500", "is_reserved": 0, "rental_uris": {"android": "https://dc.lft.to/lastmile_qr_scan", "ios": "https://dc.lft.to/lastmile_qr_scan"}, "fusion_lon": 0.0}, {"lat": 38.90978233333333, "is_disabled": 0, "type": "electric_bike", "lon": -76.98517483333333, "bike_id": "1b7b3d9d02a9eb12fc8b61a265829afb", "fusion_lat": 0.0, "name": "1b7b3d9d02a9eb12fc8b61a265829afb", "is_reserved": 0, "rental_uris": {"android": "https://dc.lft.to/lastmile_qr_scan", "ios": "https://dc.lft.to/lastmile_qr_scan"}, "fusion_lon": 0.0}, {"lat": 38.925669, "is_disabled": 0, "type": "electric_scooter", "lon": -77.03539733333334, "bike_id": "ad5fcfffe5436bf51151c174a7e82dec", "fusion_lat": 0.0, "name": "ad5fcfffe5436bf51151c174a7e82dec", "is_reserved": 0, "rental_uris": {"android": "https://dc.lft.to/lastmile_qr_scan", "ios": "https://dc.lft.to/lastmile_qr_scan"}, "fusion_lon": 0.0}, {"lat": 38.9035635, "is_disabled": 0, "type": "electric_scooter", "lon": -77.05342533333334, "bike_id": "cbb4233af25f2f8be3f06fe691dc3cf9", "fusion_lat": 0.0, "name": "cbb4233af25f2f8be3f06fe691dc3cf9", "is_reserved": 0, "rental_uris": {"android": "https://dc.lft.to/lastmile_qr_scan", "ios": "https://dc.lft.to/lastmile_qr_scan"}, "fusion_lon": 0.0}, {"lat": 38.908107666666666, "is_disabled": 0, "type": "electric_scooter", "lon": -76.98275466666666, "bike_id": "379f6bb9584faa73131e7ec0587331b9", "fusion_lat": 0.0, "name": "379f6bb9584faa73131e7ec0587331b9", "is_reserved": 0, "rental_uris": {"android": "https://dc.lft.to/lastmile_qr_scan", "ios": "https://dc.lft.to/lastmile_qr_scan"}, "fusion_lon": 0.0}, {"lat": 38.880762833333335, "is_disabled": 0, "type": "electric_bike", "lon": -77.10945683333334, "bike_id": "fc119f95a3fe600196f5e9df935a9650", "fusion_lat": 0.0, "name": "fc119f95a3fe600196f5e9df935a9650", "is_reserved": 0, "rental_uris": {"android": "https://dc.lft.to/lastmile_qr_scan", "ios": "https://dc.lft.to/lastmile_qr_scan"}, "fusion_lon": 0.0}, {"lat": 38.905549, "is_disabled": 0, "type": "electric_scooter", "lon": -77.034131, "bike_id": "e8000fee6303a0303dbb07bcb41a2019", "fusion_lat": 0.0, "name": "e8000fee6303a0303dbb07bcb41a2019", "is_reserved": 0, "rental_uris": {"android": "https://dc.lft.to/lastmile_qr_scan", "ios": "https://dc.lft.to/lastmile_qr_scan"}, "fusion_lon": 0.0}, {"lat": 38.89477816666667, "is_disabled": 0, "type": "electric_scooter", "lon": -77.02122816666666, "bike_id": "60777b363607fda16472fa1b1f93b2ee", "fusion_lat": 0.0, "name": "60777b363607fda16472fa1b1f93b2ee", "is_reserved": 0, "rental_uris": {"android": "https://dc.lft.to/lastmile_qr_scan", "ios": "https://dc.lft.to/lastmile_qr_scan"}, "fusion_lon": 0.0}, {"lat": 38.90652216666667, "is_disabled": 0, "type": "electric_scooter", "lon": -77.0417115, "bike_id": "d1b6b01249505d96b32b944053441d17", "fusion_lat": 0.0, "name": "d1b6b01249505d96b32b944053441d17", "is_reserved": 0, "rental_uris": {"android": "https://dc.lft.to/lastmile_qr_scan", "ios": "https://dc.lft.to/lastmile_qr_scan"}, "fusion_lon": 0.0}, {"lat": 38.89347166666667, "is_disabled": 0, "type": "electric_scooter", "lon": -76.94930633333334, "bike_id": "5381ad0fcada2307cdade1b8501869af", "fusion_lat": 0.0, "name": "5381ad0fcada2307cdade1b8501869af", "is_reserved": 0, "rental_uris": {"android": "https://dc.lft.to/lastmile_qr_scan", "ios": "https://dc.lft.to/lastmile_qr_scan"}, "fusion_lon": 0.0}, {"lat": 38.90356883333333, "is_disabled": 0, "type": "electric_scooter", "lon": -77.04265666666667, "bike_id": "0e128db5df9b41700db886b94280f47a", "fusion_lat": 0.0, "name": "0e128db5df9b41700db886b94280f47a", "is_reserved": 0, "rental_uris": {"android": "https://dc.lft.to/lastmile_qr_scan", "ios": "https://dc.lft.to/lastmile_qr_scan"}, "fusion_lon": 0.0}, {"lat": 38.923392, "is_disabled": 0, "type": "electric_scooter", "lon": -77.04188066666667, "bike_id": "f1b6989bdb77b5a3d25352d9dd3a2e5d", "fusion_lat": 0.0, "name": "f1b6989bdb77b5a3d25352d9dd3a2e5d", "is_reserved": 0, "rental_uris": {"android": "https://dc.lft.to/lastmile_qr_scan", "ios": "https://dc.lft.to/lastmile_qr_scan"}, "fusion_lon": 0.0}, {"lat": 38.9027645, "is_disabled": 0, "type": "electric_scooter", "lon": -77.03946116666667, "bike_id": "e2befafae4f001f013358c621b3bceaf", "fusion_lat": 0.0, "name": "e2befafae4f001f013358c621b3bceaf", "is_reserved": 0, "rental_uris": {"android": "https://dc.lft.to/lastmile_qr_scan", "ios": "https://dc.lft.to/lastmile_qr_scan"}, "fusion_lon": 0.0}, {"lat": 38.90980666666667, "is_disabled": 0, "type": "electric_scooter", "lon": -77.02177033333334, "bike_id": "68ccc3193ffd43e1b8f377364b8738f7", "fusion_lat": 0.0, "name": "68ccc3193ffd43e1b8f377364b8738f7", "is_reserved": 0, "rental_uris": {"android": "https://dc.lft.to/lastmile_qr_scan", "ios": "https://dc.lft.to/lastmile_qr_scan"}, "fusion_lon": 0.0}, {"lat": 38.901884, "is_disabled": 0, "type": "electric_scooter", "lon": -77.02495483333334, "bike_id": "398ea3febe18da2dbfd47c0eedf5088c", "fusion_lat": 0.0, "name": "398ea3febe18da2dbfd47c0eedf5088c", "is_reserved": 0, "rental_uris": {"android": "https://dc.lft.to/lastmile_qr_scan", "ios": "https://dc.lft.to/lastmile_qr_scan"}, "fusion_lon": 0.0}, {"lat": 38.908835833333335, "is_disabled": 0, "type": "electric_bike", "lon": -77.00237133333333, "bike_id": "430c5902f63bcd871c3b4ad77d6e86ac", "fusion_lat": 0.0, "name": "430c5902f63bcd871c3b4ad77d6e86ac", "is_reserved": 0, "rental_uris": {"android": "https://dc.lft.to/lastmile_qr_scan", "ios": "https://dc.lft.to/lastmile_qr_scan"}, "fusion_lon": 0.0}, {"lat": 38.90136616666667, "is_disabled": 0, "type": "electric_scooter", "lon": -77.041599, "bike_id": "6e00afe2368c4ae6e27c9c87e9884e36", "fusion_lat": 0.0, "name": "6e00afe2368c4ae6e27c9c87e9884e36", "is_reserved": 0, "rental_uris": {"android": "https://dc.lft.to/lastmile_qr_scan", "ios": "https://dc.lft.to/lastmile_qr_scan"}, "fusion_lon": 0.0}, {"lat": 38.857370333333336, "is_disabled": 0, "type": "electric_scooter", "lon": -76.99432, "bike_id": "2aceef8f1e5111ae910dac5dcda4c044", "fusion_lat": 0.0, "name": "2aceef8f1e5111ae910dac5dcda4c044", "is_reserved": 0, "rental_uris": {"android": "https://dc.lft.to/lastmile_qr_scan", "ios": "https://dc.lft.to/lastmile_qr_scan"}, "fusion_lon": 0.0}, {"lat": 38.92438383333333, "is_disabled": 0, "type": "electric_scooter", "lon": -77.0297115, "bike_id": "dc7b5604e50be8e9bc18c05ff3b7d810", "fusion_lat": 0.0, "name": "dc7b5604e50be8e9bc18c05ff3b7d810", "is_reserved": 0, "rental_uris": {"android": "https://dc.lft.to/lastmile_qr_scan", "ios": "https://dc.lft.to/lastmile_qr_scan"}, "fusion_lon": 0.0}, {"lat": 38.9444135, "is_disabled": 0, "type": "electric_scooter", "lon": -77.023395, "bike_id": "fc737b8f226987cad8f67e10c441705c", "fusion_lat": 0.0, "name": "fc737b8f226987cad8f67e10c441705c", "is_reserved": 0, "rental_uris": {"android": "https://dc.lft.to/lastmile_qr_scan", "ios": "https://dc.lft.to/lastmile_qr_scan"}, "fusion_lon": 0.0}, {"lat": 38.92068283333333, "is_disabled": 0, "type": "electric_scooter", "lon": -77.042402, "bike_id": "258383ef165710d591921c48bc460c7b", "fusion_lat": 0.0, "name": "258383ef165710d591921c48bc460c7b", "is_reserved": 0, "rental_uris": {"android": "https://dc.lft.to/lastmile_qr_scan", "ios": "https://dc.lft.to/lastmile_qr_scan"}, "fusion_lon": 0.0}, {"lat": 38.900487166666665, "is_disabled": 0, "type": "electric_scooter", "lon": -76.9950105, "bike_id": "cda1cf03b8b9d2b74ce1e850e18e045a", "fusion_lat": 0.0, "name": "cda1cf03b8b9d2b74ce1e850e18e045a", "is_reserved": 0, "rental_uris": {"android": "https://dc.lft.to/lastmile_qr_scan", "ios": "https://dc.lft.to/lastmile_qr_scan"}, "fusion_lon": 0.0}, {"lat": 38.9098855, "is_disabled": 0, "type": "electric_scooter", "lon": -76.9847035, "bike_id": "7d549ddf0e18e1465b6819b18ec9cd58", "fusion_lat": 0.0, "name": "7d549ddf0e18e1465b6819b18ec9cd58", "is_reserved": 0, "rental_uris": {"android": "https://dc.lft.to/lastmile_qr_scan", "ios": "https://dc.lft.to/lastmile_qr_scan"}, "fusion_lon": 0.0}, {"lat": 38.88408583333333, "is_disabled": 0, "type": "electric_bike", "lon": -76.96055516666667, "bike_id": "4f2ef0af09c64e5ded01cab18aa12b8b", "fusion_lat": 0.0, "name": "4f2ef0af09c64e5ded01cab18aa12b8b", "is_reserved": 0, "rental_uris": {"android": "https://dc.lft.to/lastmile_qr_scan", "ios": "https://dc.lft.to/lastmile_qr_scan"}, "fusion_lon": 0.0}, {"lat": 38.928541333333335, "is_disabled": 0, "type": "electric_scooter", "lon": -77.03603216666667, "bike_id": "bd36022ca7dcfa1e4e67e1e308528c4c", "fusion_lat": 0.0, "name": "bd36022ca7dcfa1e4e67e1e308528c4c", "is_reserved": 0, "rental_uris": {"android": "https://dc.lft.to/lastmile_qr_scan", "ios": "https://dc.lft.to/lastmile_qr_scan"}, "fusion_lon": 0.0}, {"lat": 38.936352666666664, "is_disabled": 0, "type": "electric_scooter", "lon": -77.03665216666667, "bike_id": "c203e2db80e28996eb4766e9b3026124", "fusion_lat": 0.0, "name": "c203e2db80e28996eb4766e9b3026124", "is_reserved": 0, "rental_uris": {"android": "https://dc.lft.to/lastmile_qr_scan", "ios": "https://dc.lft.to/lastmile_qr_scan"}, "fusion_lon": 0.0}, {"lat": 38.908290666666666, "is_disabled": 0, "type": "electric_scooter", "lon": -76.94146783333333, "bike_id": "2c89fc70627019c0d764acc80583c6d8", "fusion_lat": 0.0, "name": "2c89fc70627019c0d764acc80583c6d8", "is_reserved": 0, "rental_uris": {"android": "https://dc.lft.to/lastmile_qr_scan", "ios": "https://dc.lft.to/lastmile_qr_scan"}, "fusion_lon": 0.0}, {"lat": 38.929458333333336, "is_disabled": 0, "type": "electric_scooter", "lon": -77.0198495, "bike_id": "abc81baf67961961010f4c2d3d8eaa74", "fusion_lat": 0.0, "name": "abc81baf67961961010f4c2d3d8eaa74", "is_reserved": 0, "rental_uris": {"android": "https://dc.lft.to/lastmile_qr_scan", "ios": "https://dc.lft.to/lastmile_qr_scan"}, "fusion_lon": 0.0}, {"lat": 38.92402466666667, "is_disabled": 0, "type": "electric_scooter", "lon": -77.0526035, "bike_id": "ed06d7abb70abf7bee92ed7d30b8c7cc", "fusion_lat": 0.0, "name": "ed06d7abb70abf7bee92ed7d30b8c7cc", "is_reserved": 0, "rental_uris": {"android": "https://dc.lft.to/lastmile_qr_scan", "ios": "https://dc.lft.to/lastmile_qr_scan"}, "fusion_lon": 0.0}, {"lat": 38.90415816666667, "is_disabled": 0, "type": "electric_scooter", "lon": -77.02512933333334, "bike_id": "41aaae17e34736f3497fe43601ec4eba", "fusion_lat": 0.0, "name": "41aaae17e34736f3497fe43601ec4eba", "is_reserved": 0, "rental_uris": {"android": "https://dc.lft.to/lastmile_qr_scan", "ios": "https://dc.lft.to/lastmile_qr_scan"}, "fusion_lon": 0.0}, {"lat": 38.9240555, "is_disabled": 0, "type": "electric_scooter", "lon": -77.02559833333333, "bike_id": "a7ce0f9929035293a9f24dfa54f85337", "fusion_lat": 0.0, "name": "a7ce0f9929035293a9f24dfa54f85337", "is_reserved": 0, "rental_uris": {"android": "https://dc.lft.to/lastmile_qr_scan", "ios": "https://dc.lft.to/lastmile_qr_scan"}, "fusion_lon": 0.0}, {"lat": 38.881246, "is_disabled": 0, "type": "electric_scooter", "lon": -77.0164585, "bike_id": "025b25fb60f4a642e68a4df98dfcf203", "fusion_lat": 0.0, "name": "025b25fb60f4a642e68a4df98dfcf203", "is_reserved": 0, "rental_uris": {"android": "https://dc.lft.to/lastmile_qr_scan", "ios": "https://dc.lft.to/lastmile_qr_scan"}, "fusion_lon": 0.0}, {"lat": 38.839881, "is_disabled": 0, "type": "electric_bike", "lon": -77.00571483333333, "bike_id": "bb58eca6bcaaf338e397861d58269649", "fusion_lat": 0.0, "name": "bb58eca6bcaaf338e397861d58269649", "is_reserved": 0, "rental_uris": {"android": "https://dc.lft.to/lastmile_qr_scan", "ios": "https://dc.lft.to/lastmile_qr_scan"}, "fusion_lon": 0.0}, {"lat": 38.929246, "is_disabled": 0, "type": "electric_scooter", "lon": -77.03187166666666, "bike_id": "b1280bf5cadc83d1d46d87a0c734c9ce", "fusion_lat": 0.0, "name": "b1280bf5cadc83d1d46d87a0c734c9ce", "is_reserved": 0, "rental_uris": {"android": "https://dc.lft.to/lastmile_qr_scan", "ios": "https://dc.lft.to/lastmile_qr_scan"}, "fusion_lon": 0.0}, {"lat": 38.890449333333336, "is_disabled": 0, "type": "electric_scooter", "lon": -76.94076483333333, "bike_id": "e1856fac3ad27a53cc75b94d43bc1585", "fusion_lat": 0.0, "name": "e1856fac3ad27a53cc75b94d43bc1585", "is_reserved": 0, "rental_uris": {"android": "https://dc.lft.to/lastmile_qr_scan", "ios": "https://dc.lft.to/lastmile_qr_scan"}, "fusion_lon": 0.0}, {"lat": 38.913245, "is_disabled": 0, "type": "electric_scooter", "lon": -77.031856, "bike_id": "c4ecff0bab516368714f06c8c9620f37", "fusion_lat": 0.0, "name": "c4ecff0bab516368714f06c8c9620f37", "is_reserved": 0, "rental_uris": {"android": "https://dc.lft.to/lastmile_qr_scan", "ios": "https://dc.lft.to/lastmile_qr_scan"}, "fusion_lon": 0.0}, {"lat": 38.902810833333334, "is_disabled": 0, "type": "electric_scooter", "lon": -77.03212266666667, "bike_id": "9c6040874972befa1eeeb87992f1a80b", "fusion_lat": 0.0, "name": "9c6040874972befa1eeeb87992f1a80b", "is_reserved": 0, "rental_uris": {"android": "https://dc.lft.to/lastmile_qr_scan", "ios": "https://dc.lft.to/lastmile_qr_scan"}, "fusion_lon": 0.0}, {"lat": 38.91797583333334, "is_disabled": 0, "type": "electric_scooter", "lon": -77.04444916666667, "bike_id": "8b87a7babc6b3f949dc6508f621d1040", "fusion_lat": 0.0, "name": "8b87a7babc6b3f949dc6508f621d1040", "is_reserved": 0, "rental_uris": {"android": "https://dc.lft.to/lastmile_qr_scan", "ios": "https://dc.lft.to/lastmile_qr_scan"}, "fusion_lon": 0.0}, {"lat": 38.9404225, "is_disabled": 0, "type": "electric_bike", "lon": -77.05162616666667, "bike_id": "81e533e1297dbb945e86de296b0c408c", "fusion_lat": 0.0, "name": "81e533e1297dbb945e86de296b0c408c", "is_reserved": 0, "rental_uris": {"android": "https://dc.lft.to/lastmile_qr_scan", "ios": "https://dc.lft.to/lastmile_qr_scan"}, "fusion_lon": 0.0}, {"lat": 38.930982, "is_disabled": 0, "type": "electric_scooter", "lon": -77.02497066666666, "bike_id": "becacd917d4de6c5cb788f2c9384f368", "fusion_lat": 0.0, "name": "becacd917d4de6c5cb788f2c9384f368", "is_reserved": 0, "rental_uris": {"android": "https://dc.lft.to/lastmile_qr_scan", "ios": "https://dc.lft.to/lastmile_qr_scan"}, "fusion_lon": 0.0}, {"lat": 38.91382933333333, "is_disabled": 0, "type": "electric_scooter", "lon": -77.01899666666667, "bike_id": "4e54af61cf029fb33d7bc5ffa2bb9141", "fusion_lat": 0.0, "name": "4e54af61cf029fb33d7bc5ffa2bb9141", "is_reserved": 0, "rental_uris": {"android": "https://dc.lft.to/lastmile_qr_scan", "ios": "https://dc.lft.to/lastmile_qr_scan"}, "fusion_lon": 0.0}, {"lat": 38.950961666666664, "is_disabled": 0, "type": "electric_scooter", "lon": -77.02801716666667, "bike_id": "0e0f1f171337805bd1caef5a9f1356c0", "fusion_lat": 0.0, "name": "0e0f1f171337805bd1caef5a9f1356c0", "is_reserved": 0, "rental_uris": {"android": "https://dc.lft.to/lastmile_qr_scan", "ios": "https://dc.lft.to/lastmile_qr_scan"}, "fusion_lon": 0.0}, {"lat": 38.902841333333335, "is_disabled": 0, "type": "electric_scooter", "lon": -77.06356283333334, "bike_id": "cd72252dbe42c3efc52a9ea89183ebdf", "fusion_lat": 0.0, "name": "cd72252dbe42c3efc52a9ea89183ebdf", "is_reserved": 0, "rental_uris": {"android": "https://dc.lft.to/lastmile_qr_scan", "ios": "https://dc.lft.to/lastmile_qr_scan"}, "fusion_lon": 0.0}, {"lat": 38.85852216666667, "is_disabled": 0, "type": "electric_bike", "lon": -77.09754, "bike_id": "240aea713c3c4707f9e05e6f3523ff7c", "fusion_lat": 0.0, "name": "240aea713c3c4707f9e05e6f3523ff7c", "is_reserved": 0, "rental_uris": {"android": "https://dc.lft.to/lastmile_qr_scan", "ios": "https://dc.lft.to/lastmile_qr_scan"}, "fusion_lon": 0.0}, {"lat": 38.90574183333333, "is_disabled": 0, "type": "electric_scooter", "lon": -77.02220633333333, "bike_id": "3bdbb23c17d561beebf2ca4a5424bbe2", "fusion_lat": 0.0, "name": "3bdbb23c17d561beebf2ca4a5424bbe2", "is_reserved": 0, "rental_uris": {"android": "https://dc.lft.to/lastmile_qr_scan", "ios": "https://dc.lft.to/lastmile_qr_scan"}, "fusion_lon": 0.0}, {"lat": 38.92117866666667, "is_disabled": 0, "type": "electric_bike", "lon": -76.98577866666666, "bike_id": "d941dc90de479e3f5f5db782467cb58b", "fusion_lat": 0.0, "name": "d941dc90de479e3f5f5db782467cb58b", "is_reserved": 0, "rental_uris": {"android": "https://dc.lft.to/lastmile_qr_scan", "ios": "https://dc.lft.to/lastmile_qr_scan"}, "fusion_lon": 0.0}, {"lat": 38.958929833333336, "is_disabled": 0, "type": "electric_bike", "lon": -76.92474233333333, "bike_id": "068b0d5260e7c746470fe8549170e909", "fusion_lat": 0.0, "name": "068b0d5260e7c746470fe8549170e909", "is_reserved": 0, "rental_uris": {"android": "https://dc.lft.to/lastmile_qr_scan", "ios": "https://dc.lft.to/lastmile_qr_scan"}, "fusion_lon": 0.0}, {"lat": 38.91170533333333, "is_disabled": 0, "type": "electric_scooter", "lon": -77.03855716666666, "bike_id": "6ebbe7d7bbd2ed33f12553291335018d", "fusion_lat": 0.0, "name": "6ebbe7d7bbd2ed33f12553291335018d", "is_reserved": 0, "rental_uris": {"android": "https://dc.lft.to/lastmile_qr_scan", "ios": "https://dc.lft.to/lastmile_qr_scan"}, "fusion_lon": 0.0}, {"lat": 38.91865583333333, "is_disabled": 0, "type": "electric_scooter", "lon": -77.046045, "bike_id": "3f08433e67d3e05ca3d26e61b88d2c68", "fusion_lat": 0.0, "name": "3f08433e67d3e05ca3d26e61b88d2c68", "is_reserved": 0, "rental_uris": {"android": "https://dc.lft.to/lastmile_qr_scan", "ios": "https://dc.lft.to/lastmile_qr_scan"}, "fusion_lon": 0.0}, {"lat": 38.961540166666666, "is_disabled": 0, "type": "electric_scooter", "lon": -77.02775283333334, "bike_id": "697b85a639baee654be83474a3f8a426", "fusion_lat": 0.0, "name": "697b85a639baee654be83474a3f8a426", "is_reserved": 0, "rental_uris": {"android": "https://dc.lft.to/lastmile_qr_scan", "ios": "https://dc.lft.to/lastmile_qr_scan"}, "fusion_lon": 0.0}, {"lat": 38.913232, "is_disabled": 0, "type": "electric_scooter", "lon": -77.032615, "bike_id": "5c7d9775a2aa72815df7cfd91226ec68", "fusion_lat": 0.0, "name": "5c7d9775a2aa72815df7cfd91226ec68", "is_reserved": 0, "rental_uris": {"android": "https://dc.lft.to/lastmile_qr_scan", "ios": "https://dc.lft.to/lastmile_qr_scan"}, "fusion_lon": 0.0}, {"lat": 38.90900716666667, "is_disabled": 0, "type": "electric_scooter", "lon": -77.04421533333333, "bike_id": "38740d80329bc2e97929129301e6b06b", "fusion_lat": 0.0, "name": "38740d80329bc2e97929129301e6b06b", "is_reserved": 0, "rental_uris": {"android": "https://dc.lft.to/lastmile_qr_scan", "ios": "https://dc.lft.to/lastmile_qr_scan"}, "fusion_lon": 0.0}, {"lat": 38.920713166666665, "is_disabled": 0, "type": "electric_scooter", "lon": -77.0433135, "bike_id": "5786753468ce35c4b4674bd7b746131b", "fusion_lat": 0.0, "name": "5786753468ce35c4b4674bd7b746131b", "is_reserved": 0, "rental_uris": {"android": "https://dc.lft.to/lastmile_qr_scan", "ios": "https://dc.lft.to/lastmile_qr_scan"}, "fusion_lon": 0.0}, {"lat": 38.914875, "is_disabled": 0, "type": "electric_scooter", "lon": -77.032572, "bike_id": "18b186af006ad465d57181d0729ec7f4", "fusion_lat": 0.0, "name": "18b186af006ad465d57181d0729ec7f4", "is_reserved": 0, "rental_uris": {"android": "https://dc.lft.to/lastmile_qr_scan", "ios": "https://dc.lft.to/lastmile_qr_scan"}, "fusion_lon": 0.0}, {"lat": 38.95957166666667, "is_disabled": 0, "type": "electric_bike", "lon": -77.10088516666667, "bike_id": "41d1e44751c00110a644a67a49f99a22", "fusion_lat": 0.0, "name": "41d1e44751c00110a644a67a49f99a22", "is_reserved": 0, "rental_uris": {"android": "https://dc.lft.to/lastmile_qr_scan", "ios": "https://dc.lft.to/lastmile_qr_scan"}, "fusion_lon": 0.0}, {"lat": 38.8662105, "is_disabled": 0, "type": "electric_bike", "lon": -76.94570083333333, "bike_id": "b5c757322f11590f51da590d68a8ac65", "fusion_lat": 0.0, "name": "b5c757322f11590f51da590d68a8ac65", "is_reserved": 0, "rental_uris": {"android": "https://dc.lft.to/lastmile_qr_scan", "ios": "https://dc.lft.to/lastmile_qr_scan"}, "fusion_lon": 0.0}, {"lat": 38.931012833333334, "is_disabled": 0, "type": "electric_scooter", "lon": -77.03264733333333, "bike_id": "452afa6a81ca34e90cb94505d5407950", "fusion_lat": 0.0, "name": "452afa6a81ca34e90cb94505d5407950", "is_reserved": 0, "rental_uris": {"android": "https://dc.lft.to/lastmile_qr_scan", "ios": "https://dc.lft.to/lastmile_qr_scan"}, "fusion_lon": 0.0}, {"lat": 38.91776733333333, "is_disabled": 0, "type": "electric_scooter", "lon": -77.04306266666667, "bike_id": "c29e07db4255a95e9ab980037d0ee3c9", "fusion_lat": 0.0, "name": "c29e07db4255a95e9ab980037d0ee3c9", "is_reserved": 0, "rental_uris": {"android": "https://dc.lft.to/lastmile_qr_scan", "ios": "https://dc.lft.to/lastmile_qr_scan"}, "fusion_lon": 0.0}, {"lat": 38.91921383333333, "is_disabled": 0, "type": "electric_scooter", "lon": -77.04808233333333, "bike_id": "baa87c9ae25352c0f824c83c48b8450d", "fusion_lat": 0.0, "name": "baa87c9ae25352c0f824c83c48b8450d", "is_reserved": 0, "rental_uris": {"android": "https://dc.lft.to/lastmile_qr_scan", "ios": "https://dc.lft.to/lastmile_qr_scan"}, "fusion_lon": 0.0}, {"lat": 38.89236916666667, "is_disabled": 0, "type": "electric_scooter", "lon": -77.05002833333333, "bike_id": "1dcb05971bde587a365a66781f9c2acb", "fusion_lat": 0.0, "name": "1dcb05971bde587a365a66781f9c2acb", "is_reserved": 0, "rental_uris": {"android": "https://dc.lft.to/lastmile_qr_scan", "ios": "https://dc.lft.to/lastmile_qr_scan"}, "fusion_lon": 0.0}, {"lat": 38.898988, "is_disabled": 0, "type": "electric_scooter", "lon": -77.0322255, "bike_id": "eef5da70b1f411e440d7d663773e0657", "fusion_lat": 0.0, "name": "eef5da70b1f411e440d7d663773e0657", "is_reserved": 0, "rental_uris": {"android": "https://dc.lft.to/lastmile_qr_scan", "ios": "https://dc.lft.to/lastmile_qr_scan"}, "fusion_lon": 0.0}, {"lat": 38.896845, "is_disabled": 0, "type": "electric_scooter", "lon": -76.93535583333333, "bike_id": "3aba944f45304e4c2204d205f5213de3", "fusion_lat": 0.0, "name": "3aba944f45304e4c2204d205f5213de3", "is_reserved": 0, "rental_uris": {"android": "https://dc.lft.to/lastmile_qr_scan", "ios": "https://dc.lft.to/lastmile_qr_scan"}, "fusion_lon": 0.0}, {"lat": 38.892269166666665, "is_disabled": 0, "type": "electric_scooter", "lon": -77.04874383333333, "bike_id": "cc7ef8ec5c3f7c0edc85d2836318df43", "fusion_lat": 0.0, "name": "cc7ef8ec5c3f7c0edc85d2836318df43", "is_reserved": 0, "rental_uris": {"android": "https://dc.lft.to/lastmile_qr_scan", "ios": "https://dc.lft.to/lastmile_qr_scan"}, "fusion_lon": 0.0}, {"lat": 38.884939, "is_disabled": 0, "type": "electric_scooter", "lon": -77.00722883333333, "bike_id": "5472ffe6dea132ffad6d2d24d466922e", "fusion_lat": 0.0, "name": "5472ffe6dea132ffad6d2d24d466922e", "is_reserved": 0, "rental_uris": {"android": "https://dc.lft.to/lastmile_qr_scan", "ios": "https://dc.lft.to/lastmile_qr_scan"}, "fusion_lon": 0.0}, {"lat": 38.91707016666667, "is_disabled": 0, "type": "electric_scooter", "lon": -77.0011495, "bike_id": "2137652a23e7512904a9ef11bdf4b2fa", "fusion_lat": 0.0, "name": "2137652a23e7512904a9ef11bdf4b2fa", "is_reserved": 0, "rental_uris": {"android": "https://dc.lft.to/lastmile_qr_scan", "ios": "https://dc.lft.to/lastmile_qr_scan"}, "fusion_lon": 0.0}, {"lat": 38.89558916666667, "is_disabled": 0, "type": "electric_scooter", "lon": -76.9307665, "bike_id": "259385654786136325801aecb4916bea", "fusion_lat": 0.0, "name": "259385654786136325801aecb4916bea", "is_reserved": 0, "rental_uris": {"android": "https://dc.lft.to/lastmile_qr_scan", "ios": "https://dc.lft.to/lastmile_qr_scan"}, "fusion_lon": 0.0}, {"lat": 38.90282216666667, "is_disabled": 0, "type": "electric_scooter", "lon": -77.03854033333333, "bike_id": "cedb24f616e38873136786acda5780a8", "fusion_lat": 0.0, "name": "cedb24f616e38873136786acda5780a8", "is_reserved": 0, "rental_uris": {"android": "https://dc.lft.to/lastmile_qr_scan", "ios": "https://dc.lft.to/lastmile_qr_scan"}, "fusion_lon": 0.0}, {"lat": 38.93955616666667, "is_disabled": 0, "type": "electric_bike", "lon": -77.36089533333333, "bike_id": "9a39c8a5ffb7146d351b2bff81397c04", "fusion_lat": 0.0, "name": "9a39c8a5ffb7146d351b2bff81397c04", "is_reserved": 0, "rental_uris": {"android": "https://dc.lft.to/lastmile_qr_scan", "ios": "https://dc.lft.to/lastmile_qr_scan"}, "fusion_lon": 0.0}, {"lat": 38.93538383333333, "is_disabled": 0, "type": "electric_scooter", "lon": -77.02347066666667, "bike_id": "e323f7944ddd02c4410e54675558fddd", "fusion_lat": 0.0, "name": "e323f7944ddd02c4410e54675558fddd", "is_reserved": 0, "rental_uris": {"android": "https://dc.lft.to/lastmile_qr_scan", "ios": "https://dc.lft.to/lastmile_qr_scan"}, "fusion_lon": 0.0}, {"lat": 38.9564715, "is_disabled": 0, "type": "electric_bike", "lon": -77.02259466666666, "bike_id": "858eb6a399ac5a51d301f34598616a78", "fusion_lat": 0.0, "name": "858eb6a399ac5a51d301f34598616a78", "is_reserved": 0, "rental_uris": {"android": "https://dc.lft.to/lastmile_qr_scan", "ios": "https://dc.lft.to/lastmile_qr_scan"}, "fusion_lon": 0.0}, {"lat": 38.91021666666666, "is_disabled": 0, "type": "electric_scooter", "lon": -77.02206483333333, "bike_id": "4f8482cb438698036733fc1ba4be15cf", "fusion_lat": 0.0, "name": "4f8482cb438698036733fc1ba4be15cf", "is_reserved": 0, "rental_uris": {"android": "https://dc.lft.to/lastmile_qr_scan", "ios": "https://dc.lft.to/lastmile_qr_scan"}, "fusion_lon": 0.0}, {"lat": 38.91717916666666, "is_disabled": 0, "type": "electric_scooter", "lon": -77.02558933333333, "bike_id": "781132b05f71a6d68fe38c3280c6808b", "fusion_lat": 0.0, "name": "781132b05f71a6d68fe38c3280c6808b", "is_reserved": 0, "rental_uris": {"android": "https://dc.lft.to/lastmile_qr_scan", "ios": "https://dc.lft.to/lastmile_qr_scan"}, "fusion_lon": 0.0}, {"lat": 38.95293133333333, "is_disabled": 0, "type": "electric_bike", "lon": -76.94602133333333, "bike_id": "dc0c3a598d28f0b08ff96d3be32b3973", "fusion_lat": 0.0, "name": "dc0c3a598d28f0b08ff96d3be32b3973", "is_reserved": 0, "rental_uris": {"android": "https://dc.lft.to/lastmile_qr_scan", "ios": "https://dc.lft.to/lastmile_qr_scan"}, "fusion_lon": 0.0}, {"lat": 38.92359533333333, "is_disabled": 0, "type": "electric_scooter", "lon": -77.04379316666666, "bike_id": "f1d0e287bcebc34c5de34f7030b23087", "fusion_lat": 0.0, "name": "f1d0e287bcebc34c5de34f7030b23087", "is_reserved": 0, "rental_uris": {"android": "https://dc.lft.to/lastmile_qr_scan", "ios": "https://dc.lft.to/lastmile_qr_scan"}, "fusion_lon": 0.0}, {"lat": 38.86567516666667, "is_disabled": 0, "type": "electric_bike", "lon": -76.9730995, "bike_id": "3ecf1e2c9be9fb4bab0608497437b390", "fusion_lat": 0.0, "name": "3ecf1e2c9be9fb4bab0608497437b390", "is_reserved": 0, "rental_uris": {"android": "https://dc.lft.to/lastmile_qr_scan", "ios": "https://dc.lft.to/lastmile_qr_scan"}, "fusion_lon": 0.0}, {"lat": 38.9014685, "is_disabled": 0, "type": "electric_scooter", "lon": -77.032994, "bike_id": "b2fdb005d366517d8dc10c147791567c", "fusion_lat": 0.0, "name": "b2fdb005d366517d8dc10c147791567c", "is_reserved": 0, "rental_uris": {"android": "https://dc.lft.to/lastmile_qr_scan", "ios": "https://dc.lft.to/lastmile_qr_scan"}, "fusion_lon": 0.0}, {"lat": 38.943038666666666, "is_disabled": 0, "type": "electric_scooter", "lon": -77.05924733333333, "bike_id": "31054f267b76275ebbaea5b39a868522", "fusion_lat": 0.0, "name": "31054f267b76275ebbaea5b39a868522", "is_reserved": 0, "rental_uris": {"android": "https://dc.lft.to/lastmile_qr_scan", "ios": "https://dc.lft.to/lastmile_qr_scan"}, "fusion_lon": 0.0}, {"lat": 38.92446016666667, "is_disabled": 0, "type": "electric_scooter", "lon": -77.0203335, "bike_id": "12c053c93f78fc7a7904f3e6457bf9b4", "fusion_lat": 0.0, "name": "12c053c93f78fc7a7904f3e6457bf9b4", "is_reserved": 0, "rental_uris": {"android": "https://dc.lft.to/lastmile_qr_scan", "ios": "https://dc.lft.to/lastmile_qr_scan"}, "fusion_lon": 0.0}, {"lat": 38.8546175, "is_disabled": 0, "type": "electric_scooter", "lon": -76.97234433333334, "bike_id": "0ec3361207dec42f27cde1193b676a86", "fusion_lat": 0.0, "name": "0ec3361207dec42f27cde1193b676a86", "is_reserved": 0, "rental_uris": {"android": "https://dc.lft.to/lastmile_qr_scan", "ios": "https://dc.lft.to/lastmile_qr_scan"}, "fusion_lon": 0.0}, {"lat": 38.978408, "is_disabled": 0, "type": "electric_bike", "lon": -77.0265365, "bike_id": "70d88d99fbfffe6754366877d2a01614", "fusion_lat": 0.0, "name": "70d88d99fbfffe6754366877d2a01614", "is_reserved": 0, "rental_uris": {"android": "https://dc.lft.to/lastmile_qr_scan", "ios": "https://dc.lft.to/lastmile_qr_scan"}, "fusion_lon": 0.0}, {"lat": 38.9278995, "is_disabled": 0, "type": "electric_bike", "lon": -76.972215, "bike_id": "7236341fc09830272e9ee22544b43b72", "fusion_lat": 0.0, "name": "7236341fc09830272e9ee22544b43b72", "is_reserved": 0, "rental_uris": {"android": "https://dc.lft.to/lastmile_qr_scan", "ios": "https://dc.lft.to/lastmile_qr_scan"}, "fusion_lon": 0.0}, {"lat": 38.855161333333335, "is_disabled": 0, "type": "electric_bike", "lon": -77.12050866666667, "bike_id": "7ad358b6ec801cd55e6e059b9d22ca12", "fusion_lat": 0.0, "name": "7ad358b6ec801cd55e6e059b9d22ca12", "is_reserved": 0, "rental_uris": {"android": "https://dc.lft.to/lastmile_qr_scan", "ios": "https://dc.lft.to/lastmile_qr_scan"}, "fusion_lon": 0.0}, {"lat": 38.885088333333336, "is_disabled": 0, "type": "electric_scooter", "lon": -77.0056785, "bike_id": "a442452fb6c612969bab148cfc58222d", "fusion_lat": 0.0, "name": "a442452fb6c612969bab148cfc58222d", "is_reserved": 0, "rental_uris": {"android": "https://dc.lft.to/lastmile_qr_scan", "ios": "https://dc.lft.to/lastmile_qr_scan"}, "fusion_lon": 0.0}, {"lat": 38.91780033333333, "is_disabled": 0, "type": "electric_scooter", "lon": -77.04414016666666, "bike_id": "6bc34065b7ccca98e31766cc68b63582", "fusion_lat": 0.0, "name": "6bc34065b7ccca98e31766cc68b63582", "is_reserved": 0, "rental_uris": {"android": "https://dc.lft.to/lastmile_qr_scan", "ios": "https://dc.lft.to/lastmile_qr_scan"}, "fusion_lon": 0.0}, {"lat": 38.863839166666665, "is_disabled": 0, "type": "electric_scooter", "lon": -76.992521, "bike_id": "9aef50af0b1d576b61bdfcb32bdd72ab", "fusion_lat": 0.0, "name": "9aef50af0b1d576b61bdfcb32bdd72ab", "is_reserved": 0, "rental_uris": {"android": "https://dc.lft.to/lastmile_qr_scan", "ios": "https://dc.lft.to/lastmile_qr_scan"}, "fusion_lon": 0.0}, {"lat": 38.90402916666667, "is_disabled": 0, "type": "electric_scooter", "lon": -77.02475033333333, "bike_id": "43cccc1b4d29200090ebe3650a44eedc", "fusion_lat": 0.0, "name": "43cccc1b4d29200090ebe3650a44eedc", "is_reserved": 0, "rental_uris": {"android": "https://dc.lft.to/lastmile_qr_scan", "ios": "https://dc.lft.to/lastmile_qr_scan"}, "fusion_lon": 0.0}, {"lat": 38.92171316666666, "is_disabled": 0, "type": "electric_scooter", "lon": -77.04010933333333, "bike_id": "330fabfbc48d312e1743b29236925bc4", "fusion_lat": 0.0, "name": "330fabfbc48d312e1743b29236925bc4", "is_reserved": 0, "rental_uris": {"android": "https://dc.lft.to/lastmile_qr_scan", "ios": "https://dc.lft.to/lastmile_qr_scan"}, "fusion_lon": 0.0}, {"lat": 38.917850333333334, "is_disabled": 0, "type": "electric_scooter", "lon": -77.040946, "bike_id": "c3b7dcbb71545f54032963b75874866b", "fusion_lat": 0.0, "name": "c3b7dcbb71545f54032963b75874866b", "is_reserved": 0, "rental_uris": {"android": "https://dc.lft.to/lastmile_qr_scan", "ios": "https://dc.lft.to/lastmile_qr_scan"}, "fusion_lon": 0.0}, {"lat": 38.89693333333334, "is_disabled": 0, "type": "electric_scooter", "lon": -77.00492316666667, "bike_id": "2792a4f68fda37d3a0239daa184449f6", "fusion_lat": 0.0, "name": "2792a4f68fda37d3a0239daa184449f6", "is_reserved": 0, "rental_uris": {"android": "https://dc.lft.to/lastmile_qr_scan", "ios": "https://dc.lft.to/lastmile_qr_scan"}, "fusion_lon": 0.0}, {"lat": 38.943134, "is_disabled": 0, "type": "electric_scooter", "lon": -77.06135, "bike_id": "1d2f4b491b16d60a7eca2a7444ca5552", "fusion_lat": 0.0, "name": "1d2f4b491b16d60a7eca2a7444ca5552", "is_reserved": 0, "rental_uris": {"android": "https://dc.lft.to/lastmile_qr_scan", "ios": "https://dc.lft.to/lastmile_qr_scan"}, "fusion_lon": 0.0}, {"lat": 38.92482283333333, "is_disabled": 0, "type": "electric_scooter", "lon": -77.03486666666667, "bike_id": "a00f0b849223b3228f468799d883f578", "fusion_lat": 0.0, "name": "a00f0b849223b3228f468799d883f578", "is_reserved": 0, "rental_uris": {"android": "https://dc.lft.to/lastmile_qr_scan", "ios": "https://dc.lft.to/lastmile_qr_scan"}, "fusion_lon": 0.0}, {"lat": 38.88641166666667, "is_disabled": 0, "type": "electric_scooter", "lon": -76.95491433333333, "bike_id": "1c5462f4b16682ad4d0289da27837f21", "fusion_lat": 0.0, "name": "1c5462f4b16682ad4d0289da27837f21", "is_reserved": 0, "rental_uris": {"android": "https://dc.lft.to/lastmile_qr_scan", "ios": "https://dc.lft.to/lastmile_qr_scan"}, "fusion_lon": 0.0}, {"lat": 38.894928166666666, "is_disabled": 0, "type": "electric_scooter", "lon": -77.00256916666666, "bike_id": "9f99f49a7ff4d991314db7df1432b8bb", "fusion_lat": 0.0, "name": "9f99f49a7ff4d991314db7df1432b8bb", "is_reserved": 0, "rental_uris": {"android": "https://dc.lft.to/lastmile_qr_scan", "ios": "https://dc.lft.to/lastmile_qr_scan"}, "fusion_lon": 0.0}, {"lat": 38.89654316666667, "is_disabled": 0, "type": "electric_scooter", "lon": -77.0466015, "bike_id": "c64f3b90a22b5b6da8448638a00747cd", "fusion_lat": 0.0, "name": "c64f3b90a22b5b6da8448638a00747cd", "is_reserved": 0, "rental_uris": {"android": "https://dc.lft.to/lastmile_qr_scan", "ios": "https://dc.lft.to/lastmile_qr_scan"}, "fusion_lon": 0.0}, {"lat": 38.915827166666666, "is_disabled": 0, "type": "electric_scooter", "lon": -77.050194, "bike_id": "0dfdfeafdd22ef6ecf7b487da3e08343", "fusion_lat": 0.0, "name": "0dfdfeafdd22ef6ecf7b487da3e08343", "is_reserved": 0, "rental_uris": {"android": "https://dc.lft.to/lastmile_qr_scan", "ios": "https://dc.lft.to/lastmile_qr_scan"}, "fusion_lon": 0.0}, {"lat": 38.926795166666665, "is_disabled": 0, "type": "electric_scooter", "lon": -77.01493033333334, "bike_id": "cb57d23c04285c716e5c21c542f1424b", "fusion_lat": 0.0, "name": "cb57d23c04285c716e5c21c542f1424b", "is_reserved": 0, "rental_uris": {"android": "https://dc.lft.to/lastmile_qr_scan", "ios": "https://dc.lft.to/lastmile_qr_scan"}, "fusion_lon": 0.0}, {"lat": 38.895111166666666, "is_disabled": 0, "type": "electric_scooter", "lon": -77.01611233333334, "bike_id": "de69e6c886138f011424efb58e2b3721", "fusion_lat": 0.0, "name": "de69e6c886138f011424efb58e2b3721", "is_reserved": 0, "rental_uris": {"android": "https://dc.lft.to/lastmile_qr_scan", "ios": "https://dc.lft.to/lastmile_qr_scan"}, "fusion_lon": 0.0}, {"lat": 38.921204333333336, "is_disabled": 0, "type": "electric_scooter", "lon": -77.041875, "bike_id": "f1495580809b1cce51fd495d19cff2a0", "fusion_lat": 0.0, "name": "f1495580809b1cce51fd495d19cff2a0", "is_reserved": 0, "rental_uris": {"android": "https://dc.lft.to/lastmile_qr_scan", "ios": "https://dc.lft.to/lastmile_qr_scan"}, "fusion_lon": 0.0}, {"lat": 38.907771833333335, "is_disabled": 0, "type": "electric_scooter", "lon": -77.038616, "bike_id": "ad1d70c3ab60f0201016118e870c7205", "fusion_lat": 0.0, "name": "ad1d70c3ab60f0201016118e870c7205", "is_reserved": 0, "rental_uris": {"android": "https://dc.lft.to/lastmile_qr_scan", "ios": "https://dc.lft.to/lastmile_qr_scan"}, "fusion_lon": 0.0}, {"lat": 38.93975783333333, "is_disabled": 0, "type": "electric_scooter", "lon": -77.0358705, "bike_id": "b292183bad18a129c89766e618527dfa", "fusion_lat": 0.0, "name": "b292183bad18a129c89766e618527dfa", "is_reserved": 0, "rental_uris": {"android": "https://dc.lft.to/lastmile_qr_scan", "ios": "https://dc.lft.to/lastmile_qr_scan"}, "fusion_lon": 0.0}, {"lat": 38.9328705, "is_disabled": 0, "type": "electric_scooter", "lon": -77.03557066666667, "bike_id": "a7b9334cdd28665b59933bfab3276939", "fusion_lat": 0.0, "name": "a7b9334cdd28665b59933bfab3276939", "is_reserved": 0, "rental_uris": {"android": "https://dc.lft.to/lastmile_qr_scan", "ios": "https://dc.lft.to/lastmile_qr_scan"}, "fusion_lon": 0.0}, {"lat": 38.957794166666666, "is_disabled": 0, "type": "electric_scooter", "lon": -77.0276475, "bike_id": "c27bd34fda241ce8ec6a0defafe3994a", "fusion_lat": 0.0, "name": "c27bd34fda241ce8ec6a0defafe3994a", "is_reserved": 0, "rental_uris": {"android": "https://dc.lft.to/lastmile_qr_scan", "ios": "https://dc.lft.to/lastmile_qr_scan"}, "fusion_lon": 0.0}, {"lat": 38.90880133333334, "is_disabled": 0, "type": "electric_scooter", "lon": -77.0367625, "bike_id": "5c0e76cdd72a471a6db2c83e13816df3", "fusion_lat": 0.0, "name": "5c0e76cdd72a471a6db2c83e13816df3", "is_reserved": 0, "rental_uris": {"android": "https://dc.lft.to/lastmile_qr_scan", "ios": "https://dc.lft.to/lastmile_qr_scan"}, "fusion_lon": 0.0}, {"lat": 38.916438166666666, "is_disabled": 0, "type": "electric_scooter", "lon": -77.024029, "bike_id": "47201348bd045320f0c86801a7df349f", "fusion_lat": 0.0, "name": "47201348bd045320f0c86801a7df349f", "is_reserved": 0, "rental_uris": {"android": "https://dc.lft.to/lastmile_qr_scan", "ios": "https://dc.lft.to/lastmile_qr_scan"}, "fusion_lon": 0.0}, {"lat": 38.920302666666664, "is_disabled": 0, "type": "electric_scooter", "lon": -77.0373505, "bike_id": "994c8447d787d340aa2ceebad99b1be1", "fusion_lat": 0.0, "name": "994c8447d787d340aa2ceebad99b1be1", "is_reserved": 0, "rental_uris": {"android": "https://dc.lft.to/lastmile_qr_scan", "ios": "https://dc.lft.to/lastmile_qr_scan"}, "fusion_lon": 0.0}, {"lat": 38.925910333333334, "is_disabled": 0, "type": "electric_scooter", "lon": -77.0227645, "bike_id": "03c0f54f66a5618ae23d2e45789ed04c", "fusion_lat": 0.0, "name": "03c0f54f66a5618ae23d2e45789ed04c", "is_reserved": 0, "rental_uris": {"android": "https://dc.lft.to/lastmile_qr_scan", "ios": "https://dc.lft.to/lastmile_qr_scan"}, "fusion_lon": 0.0}, {"lat": 38.90093483333333, "is_disabled": 0, "type": "electric_scooter", "lon": -77.049257, "bike_id": "ac5889a30ba78ec026c0d5444f42bf95", "fusion_lat": 0.0, "name": "ac5889a30ba78ec026c0d5444f42bf95", "is_reserved": 0, "rental_uris": {"android": "https://dc.lft.to/lastmile_qr_scan", "ios": "https://dc.lft.to/lastmile_qr_scan"}, "fusion_lon": 0.0}, {"lat": 38.90524216666667, "is_disabled": 0, "type": "electric_scooter", "lon": -77.064684, "bike_id": "6b784e26f9dd7efd1c1ffdc03ae76c4c", "fusion_lat": 0.0, "name": "6b784e26f9dd7efd1c1ffdc03ae76c4c", "is_reserved": 0, "rental_uris": {"android": "https://dc.lft.to/lastmile_qr_scan", "ios": "https://dc.lft.to/lastmile_qr_scan"}, "fusion_lon": 0.0}, {"lat": 38.921411166666665, "is_disabled": 0, "type": "electric_scooter", "lon": -77.04126783333334, "bike_id": "66907f4e8880ee6d112fe2a92d632075", "fusion_lat": 0.0, "name": "66907f4e8880ee6d112fe2a92d632075", "is_reserved": 0, "rental_uris": {"android": "https://dc.lft.to/lastmile_qr_scan", "ios": "https://dc.lft.to/lastmile_qr_scan"}, "fusion_lon": 0.0}, {"lat": 38.904603, "is_disabled": 0, "type": "electric_scooter", "lon": -76.9945865, "bike_id": "3f2b96207ddab6d01a70bdb4584607f2", "fusion_lat": 0.0, "name": "3f2b96207ddab6d01a70bdb4584607f2", "is_reserved": 0, "rental_uris": {"android": "https://dc.lft.to/lastmile_qr_scan", "ios": "https://dc.lft.to/lastmile_qr_scan"}, "fusion_lon": 0.0}, {"lat": 38.918910333333336, "is_disabled": 0, "type": "electric_scooter", "lon": -77.0390855, "bike_id": "5c8b9901ebd235803150cd8f24fdba45", "fusion_lat": 0.0, "name": "5c8b9901ebd235803150cd8f24fdba45", "is_reserved": 0, "rental_uris": {"android": "https://dc.lft.to/lastmile_qr_scan", "ios": "https://dc.lft.to/lastmile_qr_scan"}, "fusion_lon": 0.0}, {"lat": 38.89563116666667, "is_disabled": 0, "type": "electric_bike", "lon": -77.12731483333333, "bike_id": "4065d97ba84427a4f7d9b4d77a2d01f8", "fusion_lat": 0.0, "name": "4065d97ba84427a4f7d9b4d77a2d01f8", "is_reserved": 0, "rental_uris": {"android": "https://dc.lft.to/lastmile_qr_scan", "ios": "https://dc.lft.to/lastmile_qr_scan"}, "fusion_lon": 0.0}, {"lat": 38.930018833333335, "is_disabled": 0, "type": "electric_scooter", "lon": -77.0211125, "bike_id": "e6dfbb3f88458e1f46c984601ae95324", "fusion_lat": 0.0, "name": "e6dfbb3f88458e1f46c984601ae95324", "is_reserved": 0, "rental_uris": {"android": "https://dc.lft.to/lastmile_qr_scan", "ios": "https://dc.lft.to/lastmile_qr_scan"}, "fusion_lon": 0.0}, {"lat": 38.91327733333333, "is_disabled": 0, "type": "electric_scooter", "lon": -77.04536033333333, "bike_id": "df1930375f0d6d1f54acc7dcb70170b7", "fusion_lat": 0.0, "name": "df1930375f0d6d1f54acc7dcb70170b7", "is_reserved": 0, "rental_uris": {"android": "https://dc.lft.to/lastmile_qr_scan", "ios": "https://dc.lft.to/lastmile_qr_scan"}, "fusion_lon": 0.0}, {"lat": 38.896641333333335, "is_disabled": 0, "type": "electric_scooter", "lon": -77.03976216666666, "bike_id": "defe6a971980a1d54c9736a36176823c", "fusion_lat": 0.0, "name": "defe6a971980a1d54c9736a36176823c", "is_reserved": 0, "rental_uris": {"android": "https://dc.lft.to/lastmile_qr_scan", "ios": "https://dc.lft.to/lastmile_qr_scan"}, "fusion_lon": 0.0}, {"lat": 38.90051716666667, "is_disabled": 0, "type": "electric_scooter", "lon": -77.00199633333334, "bike_id": "68dc4f10e259e41cc40c87c2cbb42e87", "fusion_lat": 0.0, "name": "68dc4f10e259e41cc40c87c2cbb42e87", "is_reserved": 0, "rental_uris": {"android": "https://dc.lft.to/lastmile_qr_scan", "ios": "https://dc.lft.to/lastmile_qr_scan"}, "fusion_lon": 0.0}, {"lat": 38.9057925, "is_disabled": 0, "type": "electric_scooter", "lon": -77.00881433333333, "bike_id": "78645a6b4ae2d1c144f2256d35645369", "fusion_lat": 0.0, "name": "78645a6b4ae2d1c144f2256d35645369", "is_reserved": 0, "rental_uris": {"android": "https://dc.lft.to/lastmile_qr_scan", "ios": "https://dc.lft.to/lastmile_qr_scan"}, "fusion_lon": 0.0}, {"lat": 38.91568016666667, "is_disabled": 0, "type": "electric_scooter", "lon": -77.02248183333333, "bike_id": "de7e095f80ef6f6ef68779eeb3569a43", "fusion_lat": 0.0, "name": "de7e095f80ef6f6ef68779eeb3569a43", "is_reserved": 0, "rental_uris": {"android": "https://dc.lft.to/lastmile_qr_scan", "ios": "https://dc.lft.to/lastmile_qr_scan"}, "fusion_lon": 0.0}, {"lat": 38.92627483333333, "is_disabled": 0, "type": "electric_scooter", "lon": -77.03783933333334, "bike_id": "6d85975834d27a3626b276ea87a075f7", "fusion_lat": 0.0, "name": "6d85975834d27a3626b276ea87a075f7", "is_reserved": 0, "rental_uris": {"android": "https://dc.lft.to/lastmile_qr_scan", "ios": "https://dc.lft.to/lastmile_qr_scan"}, "fusion_lon": 0.0}, {"lat": 38.8773095, "is_disabled": 0, "type": "electric_bike", "lon": -76.9810635, "bike_id": "f69c0b30ea55ba84554c1ffa6d8f2184", "fusion_lat": 0.0, "name": "f69c0b30ea55ba84554c1ffa6d8f2184", "is_reserved": 0, "rental_uris": {"android": "https://dc.lft.to/lastmile_qr_scan", "ios": "https://dc.lft.to/lastmile_qr_scan"}, "fusion_lon": 0.0}, {"lat": 38.898749, "is_disabled": 0, "type": "electric_scooter", "lon": -77.02047966666666, "bike_id": "f4acc087f079d67cb38f6c8c3cb2a880", "fusion_lat": 0.0, "name": "f4acc087f079d67cb38f6c8c3cb2a880", "is_reserved": 0, "rental_uris": {"android": "https://dc.lft.to/lastmile_qr_scan", "ios": "https://dc.lft.to/lastmile_qr_scan"}, "fusion_lon": 0.0}, {"lat": 38.832287666666666, "is_disabled": 0, "type": "electric_bike", "lon": -77.04974583333333, "bike_id": "e28ffbb3e08e168feafd17400c014c08", "fusion_lat": 0.0, "name": "e28ffbb3e08e168feafd17400c014c08", "is_reserved": 0, "rental_uris": {"android": "https://dc.lft.to/lastmile_qr_scan", "ios": "https://dc.lft.to/lastmile_qr_scan"}, "fusion_lon": 0.0}, {"lat": 38.86676416666667, "is_disabled": 0, "type": "electric_scooter", "lon": -76.98540616666666, "bike_id": "31e111c123b326277e5bca57d955d43b", "fusion_lat": 0.0, "name": "31e111c123b326277e5bca57d955d43b", "is_reserved": 0, "rental_uris": {"android": "https://dc.lft.to/lastmile_qr_scan", "ios": "https://dc.lft.to/lastmile_qr_scan"}, "fusion_lon": 0.0}, {"lat": 38.92068, "is_disabled": 0, "type": "electric_scooter", "lon": -77.04804066666667, "bike_id": "3e25e53093a4c2ea0ac1cc405225e697", "fusion_lat": 0.0, "name": "3e25e53093a4c2ea0ac1cc405225e697", "is_reserved": 0, "rental_uris": {"android": "https://dc.lft.to/lastmile_qr_scan", "ios": "https://dc.lft.to/lastmile_qr_scan"}, "fusion_lon": 0.0}, {"lat": 38.881630666666666, "is_disabled": 0, "type": "electric_scooter", "lon": -76.9948815, "bike_id": "2d0e9fcd89712cdcfde63f5cc1f6bd87", "fusion_lat": 0.0, "name": "2d0e9fcd89712cdcfde63f5cc1f6bd87", "is_reserved": 0, "rental_uris": {"android": "https://dc.lft.to/lastmile_qr_scan", "ios": "https://dc.lft.to/lastmile_qr_scan"}, "fusion_lon": 0.0}, {"lat": 38.90014216666667, "is_disabled": 0, "type": "electric_scooter", "lon": -77.01198783333334, "bike_id": "51a15220b726a017e5942988e1104d9f", "fusion_lat": 0.0, "name": "51a15220b726a017e5942988e1104d9f", "is_reserved": 0, "rental_uris": {"android": "https://dc.lft.to/lastmile_qr_scan", "ios": "https://dc.lft.to/lastmile_qr_scan"}, "fusion_lon": 0.0}, {"lat": 38.933144666666664, "is_disabled": 0, "type": "electric_scooter", "lon": -77.04523683333333, "bike_id": "10d565cb8fd6b4990aad7857675e8773", "fusion_lat": 0.0, "name": "10d565cb8fd6b4990aad7857675e8773", "is_reserved": 0, "rental_uris": {"android": "https://dc.lft.to/lastmile_qr_scan", "ios": "https://dc.lft.to/lastmile_qr_scan"}, "fusion_lon": 0.0}, {"lat": 38.91781016666667, "is_disabled": 0, "type": "electric_scooter", "lon": -77.04105316666667, "bike_id": "e7020fdda61f4eb0f9e3779149d8af97", "fusion_lat": 0.0, "name": "e7020fdda61f4eb0f9e3779149d8af97", "is_reserved": 0, "rental_uris": {"android": "https://dc.lft.to/lastmile_qr_scan", "ios": "https://dc.lft.to/lastmile_qr_scan"}, "fusion_lon": 0.0}, {"lat": 38.909689166666666, "is_disabled": 0, "type": "electric_scooter", "lon": -77.03950166666667, "bike_id": "9bdbe71bbf47e1cdc1c014334072efa2", "fusion_lat": 0.0, "name": "9bdbe71bbf47e1cdc1c014334072efa2", "is_reserved": 0, "rental_uris": {"android": "https://dc.lft.to/lastmile_qr_scan", "ios": "https://dc.lft.to/lastmile_qr_scan"}, "fusion_lon": 0.0}, {"lat": 38.878668833333336, "is_disabled": 0, "type": "electric_scooter", "lon": -77.0073755, "bike_id": "5f894579f5826ecce8a8e9911ed91569", "fusion_lat": 0.0, "name": "5f894579f5826ecce8a8e9911ed91569", "is_reserved": 0, "rental_uris": {"android": "https://dc.lft.to/lastmile_qr_scan", "ios": "https://dc.lft.to/lastmile_qr_scan"}, "fusion_lon": 0.0}, {"lat": 38.87289366666667, "is_disabled": 0, "type": "electric_scooter", "lon": -77.00986216666666, "bike_id": "db89437461ae9847fac2a8920d23da2e", "fusion_lat": 0.0, "name": "db89437461ae9847fac2a8920d23da2e", "is_reserved": 0, "rental_uris": {"android": "https://dc.lft.to/lastmile_qr_scan", "ios": "https://dc.lft.to/lastmile_qr_scan"}, "fusion_lon": 0.0}, {"lat": 38.916768833333336, "is_disabled": 0, "type": "electric_scooter", "lon": -77.02401166666667, "bike_id": "8699d4d15f9c3058f0a64431f18264bd", "fusion_lat": 0.0, "name": "8699d4d15f9c3058f0a64431f18264bd", "is_reserved": 0, "rental_uris": {"android": "https://dc.lft.to/lastmile_qr_scan", "ios": "https://dc.lft.to/lastmile_qr_scan"}, "fusion_lon": 0.0}, {"lat": 38.96227283333333, "is_disabled": 0, "type": "electric_bike", "lon": -77.0262685, "bike_id": "639a228c68678ea0c5ad6a127a3f02fa", "fusion_lat": 0.0, "name": "639a228c68678ea0c5ad6a127a3f02fa", "is_reserved": 0, "rental_uris": {"android": "https://dc.lft.to/lastmile_qr_scan", "ios": "https://dc.lft.to/lastmile_qr_scan"}, "fusion_lon": 0.0}, {"lat": 38.865097166666665, "is_disabled": 0, "type": "electric_scooter", "lon": -76.99005933333333, "bike_id": "2d8380239f8486834f2ddbbb99182abe", "fusion_lat": 0.0, "name": "2d8380239f8486834f2ddbbb99182abe", "is_reserved": 0, "rental_uris": {"android": "https://dc.lft.to/lastmile_qr_scan", "ios": "https://dc.lft.to/lastmile_qr_scan"}, "fusion_lon": 0.0}, {"lat": 38.91328583333333, "is_disabled": 0, "type": "electric_scooter", "lon": -77.03184883333333, "bike_id": "ca8479ce0b597c983693bdd91b0fad3b", "fusion_lat": 0.0, "name": "ca8479ce0b597c983693bdd91b0fad3b", "is_reserved": 0, "rental_uris": {"android": "https://dc.lft.to/lastmile_qr_scan", "ios": "https://dc.lft.to/lastmile_qr_scan"}, "fusion_lon": 0.0}, {"lat": 38.9296285, "is_disabled": 0, "type": "electric_scooter", "lon": -77.02791033333334, "bike_id": "c82d9a9d2ee09084a79e3c5acea17a68", "fusion_lat": 0.0, "name": "c82d9a9d2ee09084a79e3c5acea17a68", "is_reserved": 0, "rental_uris": {"android": "https://dc.lft.to/lastmile_qr_scan", "ios": "https://dc.lft.to/lastmile_qr_scan"}, "fusion_lon": 0.0}, {"lat": 38.9162485, "is_disabled": 0, "type": "electric_scooter", "lon": -77.03735183333333, "bike_id": "7e96d931641c6a4de5fe705eefcd515b", "fusion_lat": 0.0, "name": "7e96d931641c6a4de5fe705eefcd515b", "is_reserved": 0, "rental_uris": {"android": "https://dc.lft.to/lastmile_qr_scan", "ios": "https://dc.lft.to/lastmile_qr_scan"}, "fusion_lon": 0.0}, {"lat": 38.89676683333333, "is_disabled": 0, "type": "electric_scooter", "lon": -77.00516366666666, "bike_id": "50c7d3f08e03b1450fc9b841d3487b5d", "fusion_lat": 0.0, "name": "50c7d3f08e03b1450fc9b841d3487b5d", "is_reserved": 0, "rental_uris": {"android": "https://dc.lft.to/lastmile_qr_scan", "ios": "https://dc.lft.to/lastmile_qr_scan"}, "fusion_lon": 0.0}, {"lat": 38.876402666666664, "is_disabled": 0, "type": "electric_scooter", "lon": -77.00561166666667, "bike_id": "2c68fb85a7304c83be133f81adeb268b", "fusion_lat": 0.0, "name": "2c68fb85a7304c83be133f81adeb268b", "is_reserved": 0, "rental_uris": {"android": "https://dc.lft.to/lastmile_qr_scan", "ios": "https://dc.lft.to/lastmile_qr_scan"}, "fusion_lon": 0.0}, {"lat": 38.94820266666667, "is_disabled": 0, "type": "electric_scooter", "lon": -76.99906916666667, "bike_id": "9685fddfe81899bdc5e0e61d2c9753bc", "fusion_lat": 0.0, "name": "9685fddfe81899bdc5e0e61d2c9753bc", "is_reserved": 0, "rental_uris": {"android": "https://dc.lft.to/lastmile_qr_scan", "ios": "https://dc.lft.to/lastmile_qr_scan"}, "fusion_lon": 0.0}, {"lat": 38.916811, "is_disabled": 0, "type": "electric_scooter", "lon": -77.02693433333333, "bike_id": "a815225ebcd36c375c42c34689b8a455", "fusion_lat": 0.0, "name": "a815225ebcd36c375c42c34689b8a455", "is_reserved": 0, "rental_uris": {"android": "https://dc.lft.to/lastmile_qr_scan", "ios": "https://dc.lft.to/lastmile_qr_scan"}, "fusion_lon": 0.0}, {"lat": 38.91324183333333, "is_disabled": 0, "type": "electric_bike", "lon": -77.02211316666667, "bike_id": "42b5be87efc1bd3ffa97dda5a9f21cc4", "fusion_lat": 0.0, "name": "42b5be87efc1bd3ffa97dda5a9f21cc4", "is_reserved": 0, "rental_uris": {"android": "https://dc.lft.to/lastmile_qr_scan", "ios": "https://dc.lft.to/lastmile_qr_scan"}, "fusion_lon": 0.0}, {"lat": 38.91196383333333, "is_disabled": 0, "type": "electric_scooter", "lon": -77.00441866666667, "bike_id": "10e8c7eda172f39ea6ff5a70712a7697", "fusion_lat": 0.0, "name": "10e8c7eda172f39ea6ff5a70712a7697", "is_reserved": 0, "rental_uris": {"android": "https://dc.lft.to/lastmile_qr_scan", "ios": "https://dc.lft.to/lastmile_qr_scan"}, "fusion_lon": 0.0}, {"lat": 38.89742733333333, "is_disabled": 0, "type": "electric_scooter", "lon": -76.9472475, "bike_id": "20e3a0e7879ac5757893818f8a2c5dde", "fusion_lat": 0.0, "name": "20e3a0e7879ac5757893818f8a2c5dde", "is_reserved": 0, "rental_uris": {"android": "https://dc.lft.to/lastmile_qr_scan", "ios": "https://dc.lft.to/lastmile_qr_scan"}, "fusion_lon": 0.0}, {"lat": 38.922417833333334, "is_disabled": 0, "type": "electric_scooter", "lon": -77.04574333333333, "bike_id": "e10d1fdf7e4a49e6c662808fe5227c54", "fusion_lat": 0.0, "name": "e10d1fdf7e4a49e6c662808fe5227c54", "is_reserved": 0, "rental_uris": {"android": "https://dc.lft.to/lastmile_qr_scan", "ios": "https://dc.lft.to/lastmile_qr_scan"}, "fusion_lon": 0.0}, {"lat": 38.8504945, "is_disabled": 0, "type": "electric_bike", "lon": -76.97322633333333, "bike_id": "31af479f7aaf69f89a9da4de57902c9f", "fusion_lat": 0.0, "name": "31af479f7aaf69f89a9da4de57902c9f", "is_reserved": 0, "rental_uris": {"android": "https://dc.lft.to/lastmile_qr_scan", "ios": "https://dc.lft.to/lastmile_qr_scan"}, "fusion_lon": 0.0}, {"lat": 38.9333645, "is_disabled": 0, "type": "electric_bike", "lon": -77.04201016666667, "bike_id": "a7a445c0f4e64e7e40aeb661c2cd6bdd", "fusion_lat": 0.0, "name": "a7a445c0f4e64e7e40aeb661c2cd6bdd", "is_reserved": 0, "rental_uris": {"android": "https://dc.lft.to/lastmile_qr_scan", "ios": "https://dc.lft.to/lastmile_qr_scan"}, "fusion_lon": 0.0}, {"lat": 38.906776666666666, "is_disabled": 0, "type": "electric_scooter", "lon": -77.037532, "bike_id": "8aa9a03110d40196231674260550ffa5", "fusion_lat": 0.0, "name": "8aa9a03110d40196231674260550ffa5", "is_reserved": 0, "rental_uris": {"android": "https://dc.lft.to/lastmile_qr_scan", "ios": "https://dc.lft.to/lastmile_qr_scan"}, "fusion_lon": 0.0}, {"lat": 38.900279833333336, "is_disabled": 0, "type": "electric_scooter", "lon": -77.02604833333334, "bike_id": "6c2b83ed1f83aa21e2774d224d2b3265", "fusion_lat": 0.0, "name": "6c2b83ed1f83aa21e2774d224d2b3265", "is_reserved": 0, "rental_uris": {"android": "https://dc.lft.to/lastmile_qr_scan", "ios": "https://dc.lft.to/lastmile_qr_scan"}, "fusion_lon": 0.0}, {"lat": 38.901840666666665, "is_disabled": 0, "type": "electric_scooter", "lon": -77.0250975, "bike_id": "18897738b66fefd6a8b46d16a556ae6a", "fusion_lat": 0.0, "name": "18897738b66fefd6a8b46d16a556ae6a", "is_reserved": 0, "rental_uris": {"android": "https://dc.lft.to/lastmile_qr_scan", "ios": "https://dc.lft.to/lastmile_qr_scan"}, "fusion_lon": 0.0}, {"lat": 38.913837666666666, "is_disabled": 0, "type": "electric_scooter", "lon": -77.04167966666667, "bike_id": "1336f666643778ae8a650011009e0c60", "fusion_lat": 0.0, "name": "1336f666643778ae8a650011009e0c60", "is_reserved": 0, "rental_uris": {"android": "https://dc.lft.to/lastmile_qr_scan", "ios": "https://dc.lft.to/lastmile_qr_scan"}, "fusion_lon": 0.0}, {"lat": 38.932353, "is_disabled": 0, "type": "electric_scooter", "lon": -76.99600266666667, "bike_id": "dc8341412d2fc0ee74a2bfcfa18a2b1a", "fusion_lat": 0.0, "name": "dc8341412d2fc0ee74a2bfcfa18a2b1a", "is_reserved": 0, "rental_uris": {"android": "https://dc.lft.to/lastmile_qr_scan", "ios": "https://dc.lft.to/lastmile_qr_scan"}, "fusion_lon": 0.0}, {"lat": 38.897294, "is_disabled": 0, "type": "electric_scooter", "lon": -77.04756816666666, "bike_id": "1743eb3094b8ad11a592fe674fdc407a", "fusion_lat": 0.0, "name": "1743eb3094b8ad11a592fe674fdc407a", "is_reserved": 0, "rental_uris": {"android": "https://dc.lft.to/lastmile_qr_scan", "ios": "https://dc.lft.to/lastmile_qr_scan"}, "fusion_lon": 0.0}, {"lat": 38.906749166666664, "is_disabled": 0, "type": "electric_scooter", "lon": -77.02709216666666, "bike_id": "b469d7c30cee85d6c1971d7b80e40935", "fusion_lat": 0.0, "name": "b469d7c30cee85d6c1971d7b80e40935", "is_reserved": 0, "rental_uris": {"android": "https://dc.lft.to/lastmile_qr_scan", "ios": "https://dc.lft.to/lastmile_qr_scan"}, "fusion_lon": 0.0}, {"lat": 38.908269833333335, "is_disabled": 0, "type": "electric_scooter", "lon": -77.06386416666666, "bike_id": "97d17a69aa244cde8b03df267cddd008", "fusion_lat": 0.0, "name": "97d17a69aa244cde8b03df267cddd008", "is_reserved": 0, "rental_uris": {"android": "https://dc.lft.to/lastmile_qr_scan", "ios": "https://dc.lft.to/lastmile_qr_scan"}, "fusion_lon": 0.0}, {"lat": 38.91822666666667, "is_disabled": 0, "type": "electric_scooter", "lon": -77.04181766666666, "bike_id": "2407c4eb43c0e5c6cfe04322f0583be4", "fusion_lat": 0.0, "name": "2407c4eb43c0e5c6cfe04322f0583be4", "is_reserved": 0, "rental_uris": {"android": "https://dc.lft.to/lastmile_qr_scan", "ios": "https://dc.lft.to/lastmile_qr_scan"}, "fusion_lon": 0.0}, {"lat": 38.8988625, "is_disabled": 0, "type": "electric_scooter", "lon": -76.931772, "bike_id": "ceff035a307f2357ea589541cc3a7ce2", "fusion_lat": 0.0, "name": "ceff035a307f2357ea589541cc3a7ce2", "is_reserved": 0, "rental_uris": {"android": "https://dc.lft.to/lastmile_qr_scan", "ios": "https://dc.lft.to/lastmile_qr_scan"}, "fusion_lon": 0.0}, {"lat": 38.9274195, "is_disabled": 0, "type": "electric_scooter", "lon": -77.02587683333333, "bike_id": "5a147af3a8a155a54abe3ec6ba0c8548", "fusion_lat": 0.0, "name": "5a147af3a8a155a54abe3ec6ba0c8548", "is_reserved": 0, "rental_uris": {"android": "https://dc.lft.to/lastmile_qr_scan", "ios": "https://dc.lft.to/lastmile_qr_scan"}, "fusion_lon": 0.0}, {"lat": 38.92087083333333, "is_disabled": 0, "type": "electric_scooter", "lon": -77.04204666666666, "bike_id": "6f679e077c8fcece2da501da5a53fcc9", "fusion_lat": 0.0, "name": "6f679e077c8fcece2da501da5a53fcc9", "is_reserved": 0, "rental_uris": {"android": "https://dc.lft.to/lastmile_qr_scan", "ios": "https://dc.lft.to/lastmile_qr_scan"}, "fusion_lon": 0.0}, {"lat": 38.898490333333335, "is_disabled": 0, "type": "electric_scooter", "lon": -76.981797, "bike_id": "5f8111306ac7197eb77e208c3603d4f4", "fusion_lat": 0.0, "name": "5f8111306ac7197eb77e208c3603d4f4", "is_reserved": 0, "rental_uris": {"android": "https://dc.lft.to/lastmile_qr_scan", "ios": "https://dc.lft.to/lastmile_qr_scan"}, "fusion_lon": 0.0}, {"lat": 38.912608166666665, "is_disabled": 0, "type": "electric_scooter", "lon": -77.0303215, "bike_id": "f47ff71936e49893c7aa38d8e42918eb", "fusion_lat": 0.0, "name": "f47ff71936e49893c7aa38d8e42918eb", "is_reserved": 0, "rental_uris": {"android": "https://dc.lft.to/lastmile_qr_scan", "ios": "https://dc.lft.to/lastmile_qr_scan"}, "fusion_lon": 0.0}, {"lat": 38.92189333333334, "is_disabled": 0, "type": "electric_scooter", "lon": -77.04713933333333, "bike_id": "02710335ee067291de78533e8883b079", "fusion_lat": 0.0, "name": "02710335ee067291de78533e8883b079", "is_reserved": 0, "rental_uris": {"android": "https://dc.lft.to/lastmile_qr_scan", "ios": "https://dc.lft.to/lastmile_qr_scan"}, "fusion_lon": 0.0}, {"lat": 38.907715833333334, "is_disabled": 0, "type": "electric_scooter", "lon": -77.03862366666667, "bike_id": "88b50aac2ca020bf5ae63d0887621495", "fusion_lat": 0.0, "name": "88b50aac2ca020bf5ae63d0887621495", "is_reserved": 0, "rental_uris": {"android": "https://dc.lft.to/lastmile_qr_scan", "ios": "https://dc.lft.to/lastmile_qr_scan"}, "fusion_lon": 0.0}, {"lat": 38.92605016666667, "is_disabled": 0, "type": "electric_scooter", "lon": -77.0569525, "bike_id": "898388a1b6428282a4973365cd06ce3c", "fusion_lat": 0.0, "name": "898388a1b6428282a4973365cd06ce3c", "is_reserved": 0, "rental_uris": {"android": "https://dc.lft.to/lastmile_qr_scan", "ios": "https://dc.lft.to/lastmile_qr_scan"}, "fusion_lon": 0.0}, {"lat": 38.9003065, "is_disabled": 0, "type": "electric_scooter", "lon": -77.0320095, "bike_id": "e8a221226dfc5d3dbb65528cc599112f", "fusion_lat": 0.0, "name": "e8a221226dfc5d3dbb65528cc599112f", "is_reserved": 0, "rental_uris": {"android": "https://dc.lft.to/lastmile_qr_scan", "ios": "https://dc.lft.to/lastmile_qr_scan"}, "fusion_lon": 0.0}, {"lat": 38.954065166666666, "is_disabled": 0, "type": "electric_scooter", "lon": -77.0274755, "bike_id": "48c313de6e134d52eaa168d9ba7ceea9", "fusion_lat": 0.0, "name": "48c313de6e134d52eaa168d9ba7ceea9", "is_reserved": 0, "rental_uris": {"android": "https://dc.lft.to/lastmile_qr_scan", "ios": "https://dc.lft.to/lastmile_qr_scan"}, "fusion_lon": 0.0}, {"lat": 38.937396, "is_disabled": 0, "type": "electric_scooter", "lon": -77.03473033333333, "bike_id": "e19db3ac19f29ccfa29dfc52ccf34969", "fusion_lat": 0.0, "name": "e19db3ac19f29ccfa29dfc52ccf34969", "is_reserved": 0, "rental_uris": {"android": "https://dc.lft.to/lastmile_qr_scan", "ios": "https://dc.lft.to/lastmile_qr_scan"}, "fusion_lon": 0.0}, {"lat": 38.90374516666667, "is_disabled": 0, "type": "electric_scooter", "lon": -77.04235666666666, "bike_id": "1726bc44336ee510585a8e13b562564c", "fusion_lat": 0.0, "name": "1726bc44336ee510585a8e13b562564c", "is_reserved": 0, "rental_uris": {"android": "https://dc.lft.to/lastmile_qr_scan", "ios": "https://dc.lft.to/lastmile_qr_scan"}, "fusion_lon": 0.0}, {"lat": 38.90611783333333, "is_disabled": 0, "type": "electric_scooter", "lon": -76.98983216666667, "bike_id": "28cd40e467baf75173fc340ea441b2ba", "fusion_lat": 0.0, "name": "28cd40e467baf75173fc340ea441b2ba", "is_reserved": 0, "rental_uris": {"android": "https://dc.lft.to/lastmile_qr_scan", "ios": "https://dc.lft.to/lastmile_qr_scan"}, "fusion_lon": 0.0}, {"lat": 38.8446765, "is_disabled": 0, "type": "electric_bike", "lon": -76.9875605, "bike_id": "834b19ca4d2daf8ba7daca9730565a99", "fusion_lat": 0.0, "name": "834b19ca4d2daf8ba7daca9730565a99", "is_reserved": 0, "rental_uris": {"android": "https://dc.lft.to/lastmile_qr_scan", "ios": "https://dc.lft.to/lastmile_qr_scan"}, "fusion_lon": 0.0}, {"lat": 38.934488, "is_disabled": 0, "type": "electric_scooter", "lon": -77.03086233333333, "bike_id": "9c40893168aa21afe8f24a25009b46ac", "fusion_lat": 0.0, "name": "9c40893168aa21afe8f24a25009b46ac", "is_reserved": 0, "rental_uris": {"android": "https://dc.lft.to/lastmile_qr_scan", "ios": "https://dc.lft.to/lastmile_qr_scan"}, "fusion_lon": 0.0}, {"lat": 38.900359, "is_disabled": 0, "type": "electric_scooter", "lon": -76.9837045, "bike_id": "3dcdbc9f24f80bfc49ee42f043273b38", "fusion_lat": 0.0, "name": "3dcdbc9f24f80bfc49ee42f043273b38", "is_reserved": 0, "rental_uris": {"android": "https://dc.lft.to/lastmile_qr_scan", "ios": "https://dc.lft.to/lastmile_qr_scan"}, "fusion_lon": 0.0}, {"lat": 38.85930783333333, "is_disabled": 0, "type": "electric_scooter", "lon": -76.99719283333333, "bike_id": "174c9fccdc88add1a5383b25c33710d2", "fusion_lat": 0.0, "name": "174c9fccdc88add1a5383b25c33710d2", "is_reserved": 0, "rental_uris": {"android": "https://dc.lft.to/lastmile_qr_scan", "ios": "https://dc.lft.to/lastmile_qr_scan"}, "fusion_lon": 0.0}, {"lat": 38.865239333333335, "is_disabled": 0, "type": "electric_scooter", "lon": -76.99025966666666, "bike_id": "ffca594690f6b3ecf1c4e2935a7b73f3", "fusion_lat": 0.0, "name": "ffca594690f6b3ecf1c4e2935a7b73f3", "is_reserved": 0, "rental_uris": {"android": "https://dc.lft.to/lastmile_qr_scan", "ios": "https://dc.lft.to/lastmile_qr_scan"}, "fusion_lon": 0.0}, {"lat": 38.90504816666667, "is_disabled": 0, "type": "electric_scooter", "lon": -77.02944533333333, "bike_id": "75e51cadc6b87efa67a6c9719f0d9939", "fusion_lat": 0.0, "name": "75e51cadc6b87efa67a6c9719f0d9939", "is_reserved": 0, "rental_uris": {"android": "https://dc.lft.to/lastmile_qr_scan", "ios": "https://dc.lft.to/lastmile_qr_scan"}, "fusion_lon": 0.0}, {"lat": 38.8699815, "is_disabled": 0, "type": "electric_bike", "lon": -77.06569033333334, "bike_id": "76ff02030ef273c38bd0f36a91ab05aa", "fusion_lat": 0.0, "name": "76ff02030ef273c38bd0f36a91ab05aa", "is_reserved": 0, "rental_uris": {"android": "https://dc.lft.to/lastmile_qr_scan", "ios": "https://dc.lft.to/lastmile_qr_scan"}, "fusion_lon": 0.0}, {"lat": 38.874845, "is_disabled": 0, "type": "electric_scooter", "lon": -77.002762, "bike_id": "651b9c31522c3d7298e9482f2e4f1432", "fusion_lat": 0.0, "name": "651b9c31522c3d7298e9482f2e4f1432", "is_reserved": 0, "rental_uris": {"android": "https://dc.lft.to/lastmile_qr_scan", "ios": "https://dc.lft.to/lastmile_qr_scan"}, "fusion_lon": 0.0}, {"lat": 38.92405983333333, "is_disabled": 0, "type": "electric_scooter", "lon": -77.02744, "bike_id": "5d8c54383140ca5e865cd56996b2a481", "fusion_lat": 0.0, "name": "5d8c54383140ca5e865cd56996b2a481", "is_reserved": 0, "rental_uris": {"android": "https://dc.lft.to/lastmile_qr_scan", "ios": "https://dc.lft.to/lastmile_qr_scan"}, "fusion_lon": 0.0}, {"lat": 38.876296833333335, "is_disabled": 0, "type": "electric_scooter", "lon": -76.9652765, "bike_id": "d0270f9d1b277108e393ca20bf738174", "fusion_lat": 0.0, "name": "d0270f9d1b277108e393ca20bf738174", "is_reserved": 0, "rental_uris": {"android": "https://dc.lft.to/lastmile_qr_scan", "ios": "https://dc.lft.to/lastmile_qr_scan"}, "fusion_lon": 0.0}, {"lat": 38.834213, "is_disabled": 0, "type": "electric_bike", "lon": -77.10374133333333, "bike_id": "813eff2203ab4a2d4b0b1196f5f8d6b5", "fusion_lat": 0.0, "name": "813eff2203ab4a2d4b0b1196f5f8d6b5", "is_reserved": 0, "rental_uris": {"android": "https://dc.lft.to/lastmile_qr_scan", "ios": "https://dc.lft.to/lastmile_qr_scan"}, "fusion_lon": 0.0}, {"lat": 38.9051735, "is_disabled": 0, "type": "electric_scooter", "lon": -77.02691833333333, "bike_id": "5370295934c19ac6823f39455d556819", "fusion_lat": 0.0, "name": "5370295934c19ac6823f39455d556819", "is_reserved": 0, "rental_uris": {"android": "https://dc.lft.to/lastmile_qr_scan", "ios": "https://dc.lft.to/lastmile_qr_scan"}, "fusion_lon": 0.0}, {"lat": 38.960957, "is_disabled": 0, "type": "electric_scooter", "lon": -77.0828615, "bike_id": "3423646bdae6e224791e434dd461dcad", "fusion_lat": 0.0, "name": "3423646bdae6e224791e434dd461dcad", "is_reserved": 0, "rental_uris": {"android": "https://dc.lft.to/lastmile_qr_scan", "ios": "https://dc.lft.to/lastmile_qr_scan"}, "fusion_lon": 0.0}, {"lat": 39.01595283333333, "is_disabled": 0, "type": "electric_bike", "lon": -77.0442585, "bike_id": "a8aa8e8fa7e84220483b4441408f9092", "fusion_lat": 0.0, "name": "a8aa8e8fa7e84220483b4441408f9092", "is_reserved": 0, "rental_uris": {"android": "https://dc.lft.to/lastmile_qr_scan", "ios": "https://dc.lft.to/lastmile_qr_scan"}, "fusion_lon": 0.0}, {"lat": 38.911903833333334, "is_disabled": 0, "type": "electric_scooter", "lon": -77.03218516666666, "bike_id": "6400c0b7a6d18e4b3fe7165eef6f6f09", "fusion_lat": 0.0, "name": "6400c0b7a6d18e4b3fe7165eef6f6f09", "is_reserved": 0, "rental_uris": {"android": "https://dc.lft.to/lastmile_qr_scan", "ios": "https://dc.lft.to/lastmile_qr_scan"}, "fusion_lon": 0.0}, {"lat": 38.900083, "is_disabled": 0, "type": "electric_scooter", "lon": -76.99856316666667, "bike_id": "499cb32f1dd90c72dacda13dca968eba", "fusion_lat": 0.0, "name": "499cb32f1dd90c72dacda13dca968eba", "is_reserved": 0, "rental_uris": {"android": "https://dc.lft.to/lastmile_qr_scan", "ios": "https://dc.lft.to/lastmile_qr_scan"}, "fusion_lon": 0.0}, {"lat": 38.92220533333333, "is_disabled": 0, "type": "electric_scooter", "lon": -77.0329255, "bike_id": "fd81fb53992c3123d9258662d9031c89", "fusion_lat": 0.0, "name": "fd81fb53992c3123d9258662d9031c89", "is_reserved": 0, "rental_uris": {"android": "https://dc.lft.to/lastmile_qr_scan", "ios": "https://dc.lft.to/lastmile_qr_scan"}, "fusion_lon": 0.0}, {"lat": 38.891245166666664, "is_disabled": 0, "type": "electric_scooter", "lon": -76.94093466666666, "bike_id": "74196d9b88464b2054b0d96026233f1a", "fusion_lat": 0.0, "name": "74196d9b88464b2054b0d96026233f1a", "is_reserved": 0, "rental_uris": {"android": "https://dc.lft.to/lastmile_qr_scan", "ios": "https://dc.lft.to/lastmile_qr_scan"}, "fusion_lon": 0.0}, {"lat": 38.90266416666667, "is_disabled": 0, "type": "electric_scooter", "lon": -77.0192595, "bike_id": "ed8ea5892485a37844ba9590c8771e44", "fusion_lat": 0.0, "name": "ed8ea5892485a37844ba9590c8771e44", "is_reserved": 0, "rental_uris": {"android": "https://dc.lft.to/lastmile_qr_scan", "ios": "https://dc.lft.to/lastmile_qr_scan"}, "fusion_lon": 0.0}, {"lat": 38.93554133333333, "is_disabled": 0, "type": "electric_scooter", "lon": -77.0586785, "bike_id": "8e308c70785b9644b8758a69b4b112af", "fusion_lat": 0.0, "name": "8e308c70785b9644b8758a69b4b112af", "is_reserved": 0, "rental_uris": {"android": "https://dc.lft.to/lastmile_qr_scan", "ios": "https://dc.lft.to/lastmile_qr_scan"}, "fusion_lon": 0.0}, {"lat": 38.90234266666667, "is_disabled": 0, "type": "electric_scooter", "lon": -77.0433415, "bike_id": "e3b644c5c820097d9845a1a03f5cf5db", "fusion_lat": 0.0, "name": "e3b644c5c820097d9845a1a03f5cf5db", "is_reserved": 0, "rental_uris": {"android": "https://dc.lft.to/lastmile_qr_scan", "ios": "https://dc.lft.to/lastmile_qr_scan"}, "fusion_lon": 0.0}, {"lat": 38.92263116666667, "is_disabled": 0, "type": "electric_scooter", "lon": -77.04289633333333, "bike_id": "cd2f5e7efebd09cd25f78bab0145b770", "fusion_lat": 0.0, "name": "cd2f5e7efebd09cd25f78bab0145b770", "is_reserved": 0, "rental_uris": {"android": "https://dc.lft.to/lastmile_qr_scan", "ios": "https://dc.lft.to/lastmile_qr_scan"}, "fusion_lon": 0.0}, {"lat": 38.89973666666667, "is_disabled": 0, "type": "electric_scooter", "lon": -77.02307316666666, "bike_id": "5757149715f8507ef77674bba3afc3af", "fusion_lat": 0.0, "name": "5757149715f8507ef77674bba3afc3af", "is_reserved": 0, "rental_uris": {"android": "https://dc.lft.to/lastmile_qr_scan", "ios": "https://dc.lft.to/lastmile_qr_scan"}, "fusion_lon": 0.0}, {"lat": 38.91687366666667, "is_disabled": 0, "type": "electric_scooter", "lon": -77.02697266666667, "bike_id": "cff32ca704144c29bec0c8aa573da0a9", "fusion_lat": 0.0, "name": "cff32ca704144c29bec0c8aa573da0a9", "is_reserved": 0, "rental_uris": {"android": "https://dc.lft.to/lastmile_qr_scan", "ios": "https://dc.lft.to/lastmile_qr_scan"}, "fusion_lon": 0.0}, {"lat": 38.876404, "is_disabled": 0, "type": "electric_scooter", "lon": -76.99321133333333, "bike_id": "787eedba3f0431d2358b19493217d291", "fusion_lat": 0.0, "name": "787eedba3f0431d2358b19493217d291", "is_reserved": 0, "rental_uris": {"android": "https://dc.lft.to/lastmile_qr_scan", "ios": "https://dc.lft.to/lastmile_qr_scan"}, "fusion_lon": 0.0}, {"lat": 38.90866483333333, "is_disabled": 0, "type": "electric_scooter", "lon": -77.03223533333333, "bike_id": "9171f5e74c4bb6bfdada2ab23f1d20a1", "fusion_lat": 0.0, "name": "9171f5e74c4bb6bfdada2ab23f1d20a1", "is_reserved": 0, "rental_uris": {"android": "https://dc.lft.to/lastmile_qr_scan", "ios": "https://dc.lft.to/lastmile_qr_scan"}, "fusion_lon": 0.0}, {"lat": 38.928610166666665, "is_disabled": 0, "type": "electric_bike", "lon": -77.22205083333333, "bike_id": "34258ca266a2d45fa61ac25ab7c7babc", "fusion_lat": 0.0, "name": "34258ca266a2d45fa61ac25ab7c7babc", "is_reserved": 0, "rental_uris": {"android": "https://dc.lft.to/lastmile_qr_scan", "ios": "https://dc.lft.to/lastmile_qr_scan"}, "fusion_lon": 0.0}, {"lat": 38.872175166666665, "is_disabled": 0, "type": "electric_bike", "lon": -77.01525066666666, "bike_id": "0ec19d528a698a386e1e91698ee4b89e", "fusion_lat": 0.0, "name": "0ec19d528a698a386e1e91698ee4b89e", "is_reserved": 0, "rental_uris": {"android": "https://dc.lft.to/lastmile_qr_scan", "ios": "https://dc.lft.to/lastmile_qr_scan"}, "fusion_lon": 0.0}, {"lat": 38.91773333333333, "is_disabled": 0, "type": "electric_scooter", "lon": -77.0287935, "bike_id": "2f717ca4880641ee9367f4b792143b20", "fusion_lat": 0.0, "name": "2f717ca4880641ee9367f4b792143b20", "is_reserved": 0, "rental_uris": {"android": "https://dc.lft.to/lastmile_qr_scan", "ios": "https://dc.lft.to/lastmile_qr_scan"}, "fusion_lon": 0.0}, {"lat": 38.915018333333336, "is_disabled": 0, "type": "electric_bike", "lon": -77.0204255, "bike_id": "d581d66b0c377888c164a752382c297b", "fusion_lat": 0.0, "name": "d581d66b0c377888c164a752382c297b", "is_reserved": 0, "rental_uris": {"android": "https://dc.lft.to/lastmile_qr_scan", "ios": "https://dc.lft.to/lastmile_qr_scan"}, "fusion_lon": 0.0}, {"lat": 38.9032415, "is_disabled": 0, "type": "electric_scooter", "lon": -77.02890183333334, "bike_id": "d00b84f8edface9990ce55bfba07e3f3", "fusion_lat": 0.0, "name": "d00b84f8edface9990ce55bfba07e3f3", "is_reserved": 0, "rental_uris": {"android": "https://dc.lft.to/lastmile_qr_scan", "ios": "https://dc.lft.to/lastmile_qr_scan"}, "fusion_lon": 0.0}, {"lat": 38.9313405, "is_disabled": 0, "type": "electric_scooter", "lon": -77.03257116666667, "bike_id": "cc8ad0b34bc44eb64073c0ef87335f41", "fusion_lat": 0.0, "name": "cc8ad0b34bc44eb64073c0ef87335f41", "is_reserved": 0, "rental_uris": {"android": "https://dc.lft.to/lastmile_qr_scan", "ios": "https://dc.lft.to/lastmile_qr_scan"}, "fusion_lon": 0.0}, {"lat": 39.08861266666667, "is_disabled": 0, "type": "electric_bike", "lon": -77.17841216666666, "bike_id": "215b86235734f001ccc2bb98e1fb4f04", "fusion_lat": 0.0, "name": "215b86235734f001ccc2bb98e1fb4f04", "is_reserved": 0, "rental_uris": {"android": "https://dc.lft.to/lastmile_qr_scan", "ios": "https://dc.lft.to/lastmile_qr_scan"}, "fusion_lon": 0.0}, {"lat": 38.909887, "is_disabled": 0, "type": "electric_scooter", "lon": -77.02713233333333, "bike_id": "09908d71487118abdc71aa7573fa386b", "fusion_lat": 0.0, "name": "09908d71487118abdc71aa7573fa386b", "is_reserved": 0, "rental_uris": {"android": "https://dc.lft.to/lastmile_qr_scan", "ios": "https://dc.lft.to/lastmile_qr_scan"}, "fusion_lon": 0.0}, {"lat": 38.90378416666667, "is_disabled": 0, "type": "electric_scooter", "lon": -77.04481266666667, "bike_id": "11f4a98a8ffc83d9a15163a6980a6efe", "fusion_lat": 0.0, "name": "11f4a98a8ffc83d9a15163a6980a6efe", "is_reserved": 0, "rental_uris": {"android": "https://dc.lft.to/lastmile_qr_scan", "ios": "https://dc.lft.to/lastmile_qr_scan"}, "fusion_lon": 0.0}, {"lat": 38.914448166666666, "is_disabled": 0, "type": "electric_scooter", "lon": -77.0228995, "bike_id": "31ac33c8c9d431c11f04e687b568b6a7", "fusion_lat": 0.0, "name": "31ac33c8c9d431c11f04e687b568b6a7", "is_reserved": 0, "rental_uris": {"android": "https://dc.lft.to/lastmile_qr_scan", "ios": "https://dc.lft.to/lastmile_qr_scan"}, "fusion_lon": 0.0}, {"lat": 38.832186666666665, "is_disabled": 0, "type": "electric_bike", "lon": -76.94624983333334, "bike_id": "3bb6f42535c1de451f21eb705a6e5b3d", "fusion_lat": 0.0, "name": "3bb6f42535c1de451f21eb705a6e5b3d", "is_reserved": 0, "rental_uris": {"android": "https://dc.lft.to/lastmile_qr_scan", "ios": "https://dc.lft.to/lastmile_qr_scan"}, "fusion_lon": 0.0}, {"lat": 38.9041385, "is_disabled": 0, "type": "electric_scooter", "lon": -76.99282116666667, "bike_id": "0761bb35018eda022e2bf5a40c69195e", "fusion_lat": 0.0, "name": "0761bb35018eda022e2bf5a40c69195e", "is_reserved": 0, "rental_uris": {"android": "https://dc.lft.to/lastmile_qr_scan", "ios": "https://dc.lft.to/lastmile_qr_scan"}, "fusion_lon": 0.0}, {"lat": 38.87341816666667, "is_disabled": 0, "type": "electric_bike", "lon": -77.01855416666666, "bike_id": "c88715ff9c58f07bfab5a53de13d3108", "fusion_lat": 0.0, "name": "c88715ff9c58f07bfab5a53de13d3108", "is_reserved": 0, "rental_uris": {"android": "https://dc.lft.to/lastmile_qr_scan", "ios": "https://dc.lft.to/lastmile_qr_scan"}, "fusion_lon": 0.0}, {"lat": 38.9933375, "is_disabled": 0, "type": "electric_bike", "lon": -77.0328865, "bike_id": "b9e8d2e5fbf9d6122359be4707b02d6f", "fusion_lat": 0.0, "name": "b9e8d2e5fbf9d6122359be4707b02d6f", "is_reserved": 0, "rental_uris": {"android": "https://dc.lft.to/lastmile_qr_scan", "ios": "https://dc.lft.to/lastmile_qr_scan"}, "fusion_lon": 0.0}, {"lat": 38.888128, "is_disabled": 0, "type": "electric_scooter", "lon": -77.0442235, "bike_id": "72193de248f39062cb58a34582404ffc", "fusion_lat": 0.0, "name": "72193de248f39062cb58a34582404ffc", "is_reserved": 0, "rental_uris": {"android": "https://dc.lft.to/lastmile_qr_scan", "ios": "https://dc.lft.to/lastmile_qr_scan"}, "fusion_lon": 0.0}, {"lat": 38.89987383333333, "is_disabled": 0, "type": "electric_scooter", "lon": -77.05250266666667, "bike_id": "2cf05f052a4a003a3b881f1a21e349fd", "fusion_lat": 0.0, "name": "2cf05f052a4a003a3b881f1a21e349fd", "is_reserved": 0, "rental_uris": {"android": "https://dc.lft.to/lastmile_qr_scan", "ios": "https://dc.lft.to/lastmile_qr_scan"}, "fusion_lon": 0.0},