{"data": {"bikes": [{"lat": 38.90560883333333, "type": "electric_scooter", "is_disabled": 0, "rental_uris": {"android": "https://dc.lft.to/lastmile_qr_scan", "ios": "https://dc.lft.to/lastmile_qr_scan"}, "is_reserved": 0, "bike_id": "55fae7500826fd1901e78183567a8d19", "name": "55fae7500826fd1901e78183567a8d19", "fusion_lon": 0.0, "lon": -77.00701466666666, "fusion_lat": 0.0}, {"lat": 38.9073835, "type": "electric_scooter", "is_disabled": 0, "rental_uris": {"android": "https://dc.lft.to/lastmile_qr_scan", "ios": "https://dc.lft.to/lastmile_qr_scan"}, "is_reserved": 0, "bike_id": "26f660e8abe66c2033c5a24a04921868", "name": "26f660e8abe66c2033c5a24a04921868", "fusion_lon": 0.0, "lon": -77.03960766666667, "fusion_lat": 0.0}, {"lat": 38.956350666666665, "type": "electric_scooter", "is_disabled": 0, "rental_uris": {"android": "https://dc.lft.to/lastmile_qr_scan", "ios": "https://dc.lft.to/lastmile_qr_scan"}, "is_reserved": 0, "bike_id": "0756d5fbdd14c8f4c803cbefbeaa19cf", "name": "0756d5fbdd14c8f4c803cbefbeaa19cf", "fusion_lon": 0.0, "lon": -77.029801, "fusion_lat": 0.0}, {"lat": 38.922095666666664, "type": "electric_scooter", "is_disabled": 0, "rental_uris": {"android": "https://dc.lft.to/lastmile_qr_scan", "ios": "https://dc.lft.to/lastmile_qr_scan"}, "is_reserved": 0, "bike_id": "81caf32773d206e450ba15a6f94d4ca3", "name": "81caf32773d206e450ba15a6f94d4ca3", "fusion_lon": 0.0, "lon": -77.04020066666666, "fusion_lat": 0.0}, {"lat": 38.88121533333333, "type": "electric_scooter", "is_disabled": 0, "rental_uris": {"android": "https://dc.lft.to/lastmile_qr_scan", "ios": "https://dc.lft.to/lastmile_qr_scan"}, "is_reserved": 0, "bike_id": "a131cf80850de1a93a76825d8ae9c5cd", "name": "a131cf80850de1a93a76825d8ae9c5cd", "fusion_lon": 0.0, "lon": -76.99599316666666, "fusion_lat": 0.0}, {"lat": 38.91091633333333, "type": "electric_bike", "is_disabled": 0, "rental_uris": {"android": "https://dc.lft.to/lastmile_qr_scan", "ios": "https://dc.lft.to/lastmile_qr_scan"}, "is_reserved": 0, "bike_id": "0fe24fb9aabdcdf7a0b7cb4b5cb7424e", "name": "0fe24fb9aabdcdf7a0b7cb4b5cb7424e", "fusion_lon": 0.0, "lon": -76.98479016666667, "fusion_lat": 0.0}, {"lat": 38.85070916666667, "type": "electric_bike", "is_disabled": 0, "rental_uris": {"android": "https://dc.lft.to/lastmile_qr_scan", "ios": "https://dc.lft.to/lastmile_qr_scan"}, "is_reserved": 0, "bike_id": "97cca883348df347e97d6f0d1118c27d", "name": "97cca883348df347e97d6f0d1118c27d", "fusion_lon": 0.0, "lon": -76.9732895, "fusion_lat": 0.0}, {"lat": 38.892266166666666, "type": "electric_scooter", "is_disabled": 0, "rental_uris": {"android": "https://dc.lft.to/lastmile_qr_scan", "ios": "https://dc.lft.to/lastmile_qr_scan"}, "is_reserved": 0, "bike_id": "25e1bcb9c984b442da27a76c3c159316", "name": "25e1bcb9c984b442da27a76c3c159316", "fusion_lon": 0.0, "lon": -77.02790333333333, "fusion_lat": 0.0}, {"lat": 38.930703333333334, "type": "electric_scooter", "is_disabled": 0, "rental_uris": {"android": "https://dc.lft.to/lastmile_qr_scan", "ios": "https://dc.lft.to/lastmile_qr_scan"}, "is_reserved": 0, "bike_id": "0cb477d7915b3096407af5f6820375b2", "name": "0cb477d7915b3096407af5f6820375b2", "fusion_lon": 0.0, "lon": -77.03810283333334, "fusion_lat": 0.0}, {"lat": 38.93689366666667, "type": "electric_scooter", "is_disabled": 0, "rental_uris": {"android": "https://dc.lft.to/lastmile_qr_scan", "ios": "https://dc.lft.to/lastmile_qr_scan"}, "is_reserved": 0, "bike_id": "ce65c528d27b002d51f3c1c26a3e5aaf", "name": "ce65c528d27b002d51f3c1c26a3e5aaf", "fusion_lon": 0.0, "lon": -77.03282183333333, "fusion_lat": 0.0}, {"lat": 38.916188166666664, "type": "electric_scooter", "is_disabled": 0, "rental_uris": {"android": "https://dc.lft.to/lastmile_qr_scan", "ios": "https://dc.lft.to/lastmile_qr_scan"}, "is_reserved": 0, "bike_id": "4a5f3fc5c9211b28ecccc80ed6943270", "name": "4a5f3fc5c9211b28ecccc80ed6943270", "fusion_lon": 0.0, "lon": -77.024833, "fusion_lat": 0.0}, {"lat": 38.89609766666667, "type": "electric_scooter", "is_disabled": 0, "rental_uris": {"android": "https://dc.lft.to/lastmile_qr_scan", "ios": "https://dc.lft.to/lastmile_qr_scan"}, "is_reserved": 0, "bike_id": "62c6b5a3360edcaea500c80d5df0d5d4", "name": "62c6b5a3360edcaea500c80d5df0d5d4", "fusion_lon": 0.0, "lon": -77.01113416666666, "fusion_lat": 0.0}, {"lat": 38.90041883333333, "type": "electric_scooter", "is_disabled": 0, "rental_uris": {"android": "https://dc.lft.to/lastmile_qr_scan", "ios": "https://dc.lft.to/lastmile_qr_scan"}, "is_reserved": 0, "bike_id": "9797e7eaa64e308aa834cbfe96aa05ac", "name": "9797e7eaa64e308aa834cbfe96aa05ac", "fusion_lon": 0.0, "lon": -77.00193666666667, "fusion_lat": 0.0}, {"lat": 38.90282416666667, "type": "electric_scooter", "is_disabled": 0, "rental_uris": {"android": "https://dc.lft.to/lastmile_qr_scan", "ios": "https://dc.lft.to/lastmile_qr_scan"}, "is_reserved": 0, "bike_id": "c9f20e98a6c39fe0de48e16064ac9f8e", "name": "c9f20e98a6c39fe0de48e16064ac9f8e", "fusion_lon": 0.0, "lon": -77.03834516666667, "fusion_lat": 0.0}, {"lat": 38.90217633333334, "type": "electric_scooter", "is_disabled": 0, "rental_uris": {"android": "https://dc.lft.to/lastmile_qr_scan", "ios": "https://dc.lft.to/lastmile_qr_scan"}, "is_reserved": 0, "bike_id": "37139cb7471ba8421822ed5b4073b00f", "name": "37139cb7471ba8421822ed5b4073b00f", "fusion_lon": 0.0, "lon": -77.04622916666666, "fusion_lat": 0.0}, {"lat": 38.89909733333333, "type": "electric_scooter", "is_disabled": 0, "rental_uris": {"android": "https://dc.lft.to/lastmile_qr_scan", "ios": "https://dc.lft.to/lastmile_qr_scan"}, "is_reserved": 0, "bike_id": "2ebca179f68831a231d0c4b86ee1256a", "name": "2ebca179f68831a231d0c4b86ee1256a", "fusion_lon": 0.0, "lon": -77.03298383333333, "fusion_lat": 0.0}, {"lat": 38.9018005, "type": "electric_scooter", "is_disabled": 0, "rental_uris": {"android": "https://dc.lft.to/lastmile_qr_scan", "ios": "https://dc.lft.to/lastmile_qr_scan"}, "is_reserved": 0, "bike_id": "5741b825d8c56fb7dc6478f986ec2e34", "name": "5741b825d8c56fb7dc6478f986ec2e34", "fusion_lon": 0.0, "lon": -77.04719783333333, "fusion_lat": 0.0}, {"lat": 38.9181995, "type": "electric_scooter", "is_disabled": 0, "rental_uris": {"android": "https://dc.lft.to/lastmile_qr_scan", "ios": "https://dc.lft.to/lastmile_qr_scan"}, "is_reserved": 0, "bike_id": "c460ae66ed87c7a122d543a20aa723ea", "name": "c460ae66ed87c7a122d543a20aa723ea", "fusion_lon": 0.0, "lon": -77.02684466666666, "fusion_lat": 0.0}, {"lat": 38.941823666666664, "type": "electric_scooter", "is_disabled": 0, "rental_uris": {"android": "https://dc.lft.to/lastmile_qr_scan", "ios": "https://dc.lft.to/lastmile_qr_scan"}, "is_reserved": 0, "bike_id": "155f3b2a1155090b6a810c862cbbf65c", "name": "155f3b2a1155090b6a810c862cbbf65c", "fusion_lon": 0.0, "lon": -77.03652116666666, "fusion_lat": 0.0}, {"lat": 38.898402833333336, "type": "electric_scooter", "is_disabled": 0, "rental_uris": {"android": "https://dc.lft.to/lastmile_qr_scan", "ios": "https://dc.lft.to/lastmile_qr_scan"}, "is_reserved": 0, "bike_id": "ed92d519e0dc18fd039d603ed97ca7ef", "name": "ed92d519e0dc18fd039d603ed97ca7ef", "fusion_lon": 0.0, "lon": -77.00748766666666, "fusion_lat": 0.0}, {"lat": 38.923484333333334, "type": "electric_scooter", "is_disabled": 0, "rental_uris": {"android": "https://dc.lft.to/lastmile_qr_scan", "ios": "https://dc.lft.to/lastmile_qr_scan"}, "is_reserved": 0, "bike_id": "e97121b4ecf13200b19fcc2d998fef45", "name": "e97121b4ecf13200b19fcc2d998fef45", "fusion_lon": 0.0, "lon": -77.03517516666666, "fusion_lat": 0.0}, {"lat": 38.92342816666667, "type": "electric_scooter", "is_disabled": 0, "rental_uris": {"android": "https://dc.lft.to/lastmile_qr_scan", "ios": "https://dc.lft.to/lastmile_qr_scan"}, "is_reserved": 0, "bike_id": "43d09cfff3ddf6527a8fbb2974628864", "name": "43d09cfff3ddf6527a8fbb2974628864", "fusion_lon": 0.0, "lon": -77.0351375, "fusion_lat": 0.0}, {"lat": 38.91821866666667, "type": "electric_scooter", "is_disabled": 0, "rental_uris": {"android": "https://dc.lft.to/lastmile_qr_scan", "ios": "https://dc.lft.to/lastmile_qr_scan"}, "is_reserved": 0, "bike_id": "ed3df2607a903536c89dcc087fd7cff6", "name": "ed3df2607a903536c89dcc087fd7cff6", "fusion_lon": 0.0, "lon": -77.04000966666666, "fusion_lat": 0.0}, {"lat": 38.922454333333334, "type": "electric_scooter", "is_disabled": 0, "rental_uris": {"android": "https://dc.lft.to/lastmile_qr_scan", "ios": "https://dc.lft.to/lastmile_qr_scan"}, "is_reserved": 0, "bike_id": "5e94efd87443c603e6a4fcbabfef610b", "name": "5e94efd87443c603e6a4fcbabfef610b", "fusion_lon": 0.0, "lon": -77.02875216666666, "fusion_lat": 0.0}, {"lat": 38.9014775, "type": "electric_scooter", "is_disabled": 0, "rental_uris": {"android": "https://dc.lft.to/lastmile_qr_scan", "ios": "https://dc.lft.to/lastmile_qr_scan"}, "is_reserved": 0, "bike_id": "03f2f6b6f0587f837589cf9e5d1ffc81", "name": "03f2f6b6f0587f837589cf9e5d1ffc81", "fusion_lon": 0.0, "lon": -77.0322225, "fusion_lat": 0.0}, {"lat": 38.89781833333333, "type": "electric_scooter", "is_disabled": 0, "rental_uris": {"android": "https://dc.lft.to/lastmile_qr_scan", "ios": "https://dc.lft.to/lastmile_qr_scan"}, "is_reserved": 0, "bike_id": "472a4474412796ab997c2a5db1d90d45", "name": "472a4474412796ab997c2a5db1d90d45", "fusion_lon": 0.0, "lon": -77.02472383333334, "fusion_lat": 0.0}, {"lat": 38.956457666666665, "type": "electric_scooter", "is_disabled": 0, "rental_uris": {"android": "https://dc.lft.to/lastmile_qr_scan", "ios": "https://dc.lft.to/lastmile_qr_scan"}, "is_reserved": 0, "bike_id": "90bc48e09aaddeaff4b18f50e3cd2cbe", "name": "90bc48e09aaddeaff4b18f50e3cd2cbe", "fusion_lon": 0.0, "lon": -77.01499833333334, "fusion_lat": 0.0}, {"lat": 38.92579166666667, "type": "electric_scooter", "is_disabled": 0, "rental_uris": {"android": "https://dc.lft.to/lastmile_qr_scan", "ios": "https://dc.lft.to/lastmile_qr_scan"}, "is_reserved": 0, "bike_id": "d012a2f14ff36d65f817fbcd5f49ed05", "name": "d012a2f14ff36d65f817fbcd5f49ed05", "fusion_lon": 0.0, "lon": -77.03100166666667, "fusion_lat": 0.0}, {"lat": 38.894900166666666, "type": "electric_scooter", "is_disabled": 0, "rental_uris": {"android": "https://dc.lft.to/lastmile_qr_scan", "ios": "https://dc.lft.to/lastmile_qr_scan"}, "is_reserved": 0, "bike_id": "8888acd2957f5892175678385951fb78", "name": "8888acd2957f5892175678385951fb78", "fusion_lon": 0.0, "lon": -77.00213183333334, "fusion_lat": 0.0}, {"lat": 38.924152666666664, "type": "electric_scooter", "is_disabled": 0, "rental_uris": {"android": "https://dc.lft.to/lastmile_qr_scan", "ios": "https://dc.lft.to/lastmile_qr_scan"}, "is_reserved": 0, "bike_id": "0103ca819a3b76d2017b67c061b34c72", "name": "0103ca819a3b76d2017b67c061b34c72", "fusion_lon": 0.0, "lon": -77.0564025, "fusion_lat": 0.0}, {"lat": 38.94443033333334, "type": "electric_scooter", "is_disabled": 0, "rental_uris": {"android": "https://dc.lft.to/lastmile_qr_scan", "ios": "https://dc.lft.to/lastmile_qr_scan"}, "is_reserved": 0, "bike_id": "8471e2c7f45a37e891845e39e135b96b", "name": "8471e2c7f45a37e891845e39e135b96b", "fusion_lon": 0.0, "lon": -77.029116, "fusion_lat": 0.0}, {"lat": 38.900551, "type": "electric_scooter", "is_disabled": 0, "rental_uris": {"android": "https://dc.lft.to/lastmile_qr_scan", "ios": "https://dc.lft.to/lastmile_qr_scan"}, "is_reserved": 0, "bike_id": "8b5a8c18a585c4c01ee992870b0d96e3", "name": "8b5a8c18a585c4c01ee992870b0d96e3", "fusion_lon": 0.0, "lon": -77.00066716666667, "fusion_lat": 0.0}, {"lat": 38.887451666666664, "type": "electric_scooter", "is_disabled": 0, "rental_uris": {"android": "https://dc.lft.to/lastmile_qr_scan", "ios": "https://dc.lft.to/lastmile_qr_scan"}, "is_reserved": 0, "bike_id": "72db8bf9882d9c804d89748104825f2c", "name": "72db8bf9882d9c804d89748104825f2c", "fusion_lon": 0.0, "lon": -77.01534983333333, "fusion_lat": 0.0}, {"lat": 38.986639, "type": "electric_scooter", "is_disabled": 0, "rental_uris": {"android": "https://dc.lft.to/lastmile_qr_scan", "ios": "https://dc.lft.to/lastmile_qr_scan"}, "is_reserved": 0, "bike_id": "4510b5d43315216dcee4f89f00f755b7", "name": "4510b5d43315216dcee4f89f00f755b7", "fusion_lon": 0.0, "lon": -77.026452, "fusion_lat": 0.0}, {"lat": 38.90073983333333, "type": "electric_scooter", "is_disabled": 0, "rental_uris": {"android": "https://dc.lft.to/lastmile_qr_scan", "ios": "https://dc.lft.to/lastmile_qr_scan"}, "is_reserved": 0, "bike_id": "5b2f947f7c6959181c3d8ede22aa4e6c", "name": "5b2f947f7c6959181c3d8ede22aa4e6c", "fusion_lon": 0.0, "lon": -77.01642566666666, "fusion_lat": 0.0}, {"lat": 38.88661366666667, "type": "electric_scooter", "is_disabled": 0, "rental_uris": {"android": "https://dc.lft.to/lastmile_qr_scan", "ios": "https://dc.lft.to/lastmile_qr_scan"}, "is_reserved": 0, "bike_id": "f6eba054641f242158a5ca54ee0ce419", "name": "f6eba054641f242158a5ca54ee0ce419", "fusion_lon": 0.0, "lon": -77.0339255, "fusion_lat": 0.0}, {"lat": 38.918714666666666, "type": "electric_bike", "is_disabled": 0, "rental_uris": {"android": "https://dc.lft.to/lastmile_qr_scan", "ios": "https://dc.lft.to/lastmile_qr_scan"}, "is_reserved": 0, "bike_id": "c266f40fc5676555cd2b0dcbbc06742d", "name": "c266f40fc5676555cd2b0dcbbc06742d", "fusion_lon": 0.0, "lon": -76.96173483333334, "fusion_lat": 0.0}, {"lat": 38.836999, "type": "electric_bike", "is_disabled": 0, "rental_uris": {"android": "https://dc.lft.to/lastmile_qr_scan", "ios": "https://dc.lft.to/lastmile_qr_scan"}, "is_reserved": 0, "bike_id": "d8851dbb143f39d605781aa5f260cbec", "name": "d8851dbb143f39d605781aa5f260cbec", "fusion_lon": 0.0, "lon": -77.005971, "fusion_lat": 0.0}, {"lat": 38.969299666666664, "type": "electric_bike", "is_disabled": 0, "rental_uris": {"android": "https://dc.lft.to/lastmile_qr_scan", "ios": "https://dc.lft.to/lastmile_qr_scan"}, "is_reserved": 0, "bike_id": "8a5ce1a2444e21793d5749568dfbcf7d", "name": "8a5ce1a2444e21793d5749568dfbcf7d", "fusion_lon": 0.0, "lon": -77.02623016666666, "fusion_lat": 0.0}, {"lat": 38.907454666666666, "type": "electric_scooter", "is_disabled": 0, "rental_uris": {"android": "https://dc.lft.to/lastmile_qr_scan", "ios": "https://dc.lft.to/lastmile_qr_scan"}, "is_reserved": 0, "bike_id": "f758c13d6e3faa58c5ebb483e0958f53", "name": "f758c13d6e3faa58c5ebb483e0958f53", "fusion_lon": 0.0, "lon": -77.03438166666666, "fusion_lat": 0.0}, {"lat": 38.899177, "type": "electric_scooter", "is_disabled": 0, "rental_uris": {"android": "https://dc.lft.to/lastmile_qr_scan", "ios": "https://dc.lft.to/lastmile_qr_scan"}, "is_reserved": 0, "bike_id": "55a6b4311ce09f614ba6144badf2e9d5", "name": "55a6b4311ce09f614ba6144badf2e9d5", "fusion_lon": 0.0, "lon": -76.9338635, "fusion_lat": 0.0}, {"lat": 38.906652333333334, "type": "electric_scooter", "is_disabled": 0, "rental_uris": {"android": "https://dc.lft.to/lastmile_qr_scan", "ios": "https://dc.lft.to/lastmile_qr_scan"}, "is_reserved": 0, "bike_id": "b4f9ab1cd606ba5a9129d35512902c60", "name": "b4f9ab1cd606ba5a9129d35512902c60", "fusion_lon": 0.0, "lon": -77.03866983333333, "fusion_lat": 0.0}, {"lat": 38.9097745, "type": "electric_scooter", "is_disabled": 0, "rental_uris": {"android": "https://dc.lft.to/lastmile_qr_scan", "ios": "https://dc.lft.to/lastmile_qr_scan"}, "is_reserved": 0, "bike_id": "070bb49e054d3d4f34749328713a4b15", "name": "070bb49e054d3d4f34749328713a4b15", "fusion_lon": 0.0, "lon": -77.03147666666666, "fusion_lat": 0.0}, {"lat": 38.911145833333336, "type": "electric_bike", "is_disabled": 0, "rental_uris": {"android": "https://dc.lft.to/lastmile_qr_scan", "ios": "https://dc.lft.to/lastmile_qr_scan"}, "is_reserved": 0, "bike_id": "844db9c9b27f099c9c63221bd95a5335", "name": "844db9c9b27f099c9c63221bd95a5335", "fusion_lon": 0.0, "lon": -77.07345, "fusion_lat": 0.0}, {"lat": 38.871513666666665, "type": "electric_scooter", "is_disabled": 0, "rental_uris": {"android": "https://dc.lft.to/lastmile_qr_scan", "ios": "https://dc.lft.to/lastmile_qr_scan"}, "is_reserved": 0, "bike_id": "d639e0797f272c2a201c9e1f8d3794e7", "name": "d639e0797f272c2a201c9e1f8d3794e7", "fusion_lon": 0.0, "lon": -76.97898083333334, "fusion_lat": 0.0}, {"lat": 38.91021333333333, "type": "electric_scooter", "is_disabled": 0, "rental_uris": {"android": "https://dc.lft.to/lastmile_qr_scan", "ios": "https://dc.lft.to/lastmile_qr_scan"}, "is_reserved": 0, "bike_id": "585ad75ce6cedf57cd97f6ed727e85cc", "name": "585ad75ce6cedf57cd97f6ed727e85cc", "fusion_lon": 0.0, "lon": -77.03644866666667, "fusion_lat": 0.0}, {"lat": 38.892242833333334, "type": "electric_scooter", "is_disabled": 0, "rental_uris": {"android": "https://dc.lft.to/lastmile_qr_scan", "ios": "https://dc.lft.to/lastmile_qr_scan"}, "is_reserved": 0, "bike_id": "8b5fce08258484fbe0772da39e2f9d46", "name": "8b5fce08258484fbe0772da39e2f9d46", "fusion_lon": 0.0, "lon": -77.02221066666667, "fusion_lat": 0.0}, {"lat": 38.9120985, "type": "electric_scooter", "is_disabled": 0, "rental_uris": {"android": "https://dc.lft.to/lastmile_qr_scan", "ios": "https://dc.lft.to/lastmile_qr_scan"}, "is_reserved": 0, "bike_id": "c78a46b2f0ff60506edd023bede7ecf0", "name": "c78a46b2f0ff60506edd023bede7ecf0", "fusion_lon": 0.0, "lon": -76.98488566666667, "fusion_lat": 0.0}, {"lat": 38.90678283333333, "type": "electric_scooter", "is_disabled": 0, "rental_uris": {"android": "https://dc.lft.to/lastmile_qr_scan", "ios": "https://dc.lft.to/lastmile_qr_scan"}, "is_reserved": 0, "bike_id": "5f20f14bb3ff1b1a34b1b303df07bca7", "name": "5f20f14bb3ff1b1a34b1b303df07bca7", "fusion_lon": 0.0, "lon": -77.0345015, "fusion_lat": 0.0}, {"lat": 38.9073385, "type": "electric_scooter", "is_disabled": 0, "rental_uris": {"android": "https://dc.lft.to/lastmile_qr_scan", "ios": "https://dc.lft.to/lastmile_qr_scan"}, "is_reserved": 0, "bike_id": "29ea716b1d52d62328e885748ea9c06f", "name": "29ea716b1d52d62328e885748ea9c06f", "fusion_lon": 0.0, "lon": -77.02369116666667, "fusion_lat": 0.0}, {"lat": 38.917346, "type": "electric_scooter", "is_disabled": 0, "rental_uris": {"android": "https://dc.lft.to/lastmile_qr_scan", "ios": "https://dc.lft.to/lastmile_qr_scan"}, "is_reserved": 0, "bike_id": "e4dbc633c0599e07ecbd83f7f68c2f58", "name": "e4dbc633c0599e07ecbd83f7f68c2f58", "fusion_lon": 0.0, "lon": -76.991759, "fusion_lat": 0.0}, {"lat": 38.970587, "type": "electric_bike", "is_disabled": 0, "rental_uris": {"android": "https://dc.lft.to/lastmile_qr_scan", "ios": "https://dc.lft.to/lastmile_qr_scan"}, "is_reserved": 0, "bike_id": "12f2115779e677ac58d6cba684bf56a6", "name": "12f2115779e677ac58d6cba684bf56a6", "fusion_lon": 0.0, "lon": -76.960708, "fusion_lat": 0.0}, {"lat": 38.91801866666667, "type": "electric_scooter", "is_disabled": 0, "rental_uris": {"android": "https://dc.lft.to/lastmile_qr_scan", "ios": "https://dc.lft.to/lastmile_qr_scan"}, "is_reserved": 0, "bike_id": "7e1a6fbb6a2e086e43a8f59f66c27051", "name": "7e1a6fbb6a2e086e43a8f59f66c27051", "fusion_lon": 0.0, "lon": -77.034651, "fusion_lat": 0.0}, {"lat": 38.902690666666665, "type": "electric_scooter", "is_disabled": 0, "rental_uris": {"android": "https://dc.lft.to/lastmile_qr_scan", "ios": "https://dc.lft.to/lastmile_qr_scan"}, "is_reserved": 0, "bike_id": "68590d11eafc55c641f0e3e7f818e7a9", "name": "68590d11eafc55c641f0e3e7f818e7a9", "fusion_lon": 0.0, "lon": -77.03686666666667, "fusion_lat": 0.0}, {"lat": 38.9001895, "type": "electric_scooter", "is_disabled": 0, "rental_uris": {"android": "https://dc.lft.to/lastmile_qr_scan", "ios": "https://dc.lft.to/lastmile_qr_scan"}, "is_reserved": 0, "bike_id": "37f78e2ea526a9364de1cc7b46dde234", "name": "37f78e2ea526a9364de1cc7b46dde234", "fusion_lon": 0.0, "lon": -76.99591266666667, "fusion_lat": 0.0}, {"lat": 38.92177866666667, "type": "electric_scooter", "is_disabled": 0, "rental_uris": {"android": "https://dc.lft.to/lastmile_qr_scan", "ios": "https://dc.lft.to/lastmile_qr_scan"}, "is_reserved": 0, "bike_id": "c0ef76ac768cc0f5d4b883197da61179", "name": "c0ef76ac768cc0f5d4b883197da61179", "fusion_lon": 0.0, "lon": -77.04342266666667, "fusion_lat": 0.0}, {"lat": 38.88652316666666, "type": "electric_scooter", "is_disabled": 0, "rental_uris": {"android": "https://dc.lft.to/lastmile_qr_scan", "ios": "https://dc.lft.to/lastmile_qr_scan"}, "is_reserved": 0, "bike_id": "ec4bcb4b15cf53df4d1e357cbe280cb9", "name": "ec4bcb4b15cf53df4d1e357cbe280cb9", "fusion_lon": 0.0, "lon": -77.000937, "fusion_lat": 0.0}, {"lat": 38.92083133333333, "type": "electric_scooter", "is_disabled": 0, "rental_uris": {"android": "https://dc.lft.to/lastmile_qr_scan", "ios": "https://dc.lft.to/lastmile_qr_scan"}, "is_reserved": 0, "bike_id": "0cacf09a3475ca286905f63c6349cbb7", "name": "0cacf09a3475ca286905f63c6349cbb7", "fusion_lon": 0.0, "lon": -77.02387, "fusion_lat": 0.0}, {"lat": 38.8919455, "type": "electric_scooter", "is_disabled": 0, "rental_uris": {"android": "https://dc.lft.to/lastmile_qr_scan", "ios": "https://dc.lft.to/lastmile_qr_scan"}, "is_reserved": 0, "bike_id": "8f044eda5a33bd4a82184bfda8b0d03b", "name": "8f044eda5a33bd4a82184bfda8b0d03b", "fusion_lon": 0.0, "lon": -77.03162516666667, "fusion_lat": 0.0}, {"lat": 38.8994805, "type": "electric_scooter", "is_disabled": 0, "rental_uris": {"android": "https://dc.lft.to/lastmile_qr_scan", "ios": "https://dc.lft.to/lastmile_qr_scan"}, "is_reserved": 0, "bike_id": "ab79d95a73134020fe860215daf47852", "name": "ab79d95a73134020fe860215daf47852", "fusion_lon": 0.0, "lon": -77.0434985, "fusion_lat": 0.0}, {"lat": 38.9187315, "type": "electric_bike", "is_disabled": 0, "rental_uris": {"android": "https://dc.lft.to/lastmile_qr_scan", "ios": "https://dc.lft.to/lastmile_qr_scan"}, "is_reserved": 0, "bike_id": "18459c714c46d2e67f3a19468de241c9", "name": "18459c714c46d2e67f3a19468de241c9", "fusion_lon": 0.0, "lon": -76.96123283333333, "fusion_lat": 0.0}, {"lat": 38.9023885, "type": "electric_scooter", "is_disabled": 0, "rental_uris": {"android": "https://dc.lft.to/lastmile_qr_scan", "ios": "https://dc.lft.to/lastmile_qr_scan"}, "is_reserved": 0, "bike_id": "b160d40e5864a9fbac11791df3a7093e", "name": "b160d40e5864a9fbac11791df3a7093e", "fusion_lon": 0.0, "lon": -77.00197766666666, "fusion_lat": 0.0}, {"lat": 38.885119333333336, "type": "electric_scooter", "is_disabled": 0, "rental_uris": {"android": "https://dc.lft.to/lastmile_qr_scan", "ios": "https://dc.lft.to/lastmile_qr_scan"}, "is_reserved": 0, "bike_id": "5587d8b787b89f27bc3d9ac9576fd20d", "name": "5587d8b787b89f27bc3d9ac9576fd20d", "fusion_lon": 0.0, "lon": -77.00563466666667, "fusion_lat": 0.0}, {"lat": 38.90546066666667, "type": "electric_scooter", "is_disabled": 0, "rental_uris": {"android": "https://dc.lft.to/lastmile_qr_scan", "ios": "https://dc.lft.to/lastmile_qr_scan"}, "is_reserved": 0, "bike_id": "5820ae4d61e6dc6e1fe6540a97fee1e0", "name": "5820ae4d61e6dc6e1fe6540a97fee1e0", "fusion_lon": 0.0, "lon": -77.02968516666667, "fusion_lat": 0.0}, {"lat": 38.9157035, "type": "electric_scooter", "is_disabled": 0, "rental_uris": {"android": "https://dc.lft.to/lastmile_qr_scan", "ios": "https://dc.lft.to/lastmile_qr_scan"}, "is_reserved": 0, "bike_id": "317218572eb60121dc7b309c952bb979", "name": "317218572eb60121dc7b309c952bb979", "fusion_lon": 0.0, "lon": -77.03274183333333, "fusion_lat": 0.0}, {"lat": 38.932579, "type": "electric_scooter", "is_disabled": 0, "rental_uris": {"android": "https://dc.lft.to/lastmile_qr_scan", "ios": "https://dc.lft.to/lastmile_qr_scan"}, "is_reserved": 0, "bike_id": "a31b05218d7638e9a10647f1eed68167", "name": "a31b05218d7638e9a10647f1eed68167", "fusion_lon": 0.0, "lon": -77.03285033333333, "fusion_lat": 0.0}, {"lat": 38.91258883333333, "type": "electric_scooter", "is_disabled": 0, "rental_uris": {"android": "https://dc.lft.to/lastmile_qr_scan", "ios": "https://dc.lft.to/lastmile_qr_scan"}, "is_reserved": 0, "bike_id": "03be46d98b65d7d3c84d02494e9103a8", "name": "03be46d98b65d7d3c84d02494e9103a8", "fusion_lon": 0.0, "lon": -77.03270316666666, "fusion_lat": 0.0}, {"lat": 38.899808666666665, "type": "electric_scooter", "is_disabled": 0, "rental_uris": {"android": "https://dc.lft.to/lastmile_qr_scan", "ios": "https://dc.lft.to/lastmile_qr_scan"}, "is_reserved": 0, "bike_id": "d19298b6f0d0db176ad281a52036eedc", "name": "d19298b6f0d0db176ad281a52036eedc", "fusion_lon": 0.0, "lon": -77.04620216666666, "fusion_lat": 0.0}, {"lat": 38.89720633333334, "type": "electric_scooter", "is_disabled": 0, "rental_uris": {"android": "https://dc.lft.to/lastmile_qr_scan", "ios": "https://dc.lft.to/lastmile_qr_scan"}, "is_reserved": 0, "bike_id": "d61115bbe2b075538d6ea2a0cbde51a0", "name": "d61115bbe2b075538d6ea2a0cbde51a0", "fusion_lon": 0.0, "lon": -77.0079715, "fusion_lat": 0.0}, {"lat": 38.89625316666667, "type": "electric_scooter", "is_disabled": 0, "rental_uris": {"android": "https://dc.lft.to/lastmile_qr_scan", "ios": "https://dc.lft.to/lastmile_qr_scan"}, "is_reserved": 0, "bike_id": "da137d6ced7789dc2fd76a845726ed60", "name": "da137d6ced7789dc2fd76a845726ed60", "fusion_lon": 0.0, "lon": -76.99638616666667, "fusion_lat": 0.0}, {"lat": 38.9207935, "type": "electric_scooter", "is_disabled": 0, "rental_uris": {"android": "https://dc.lft.to/lastmile_qr_scan", "ios": "https://dc.lft.to/lastmile_qr_scan"}, "is_reserved": 0, "bike_id": "6cff410167c631bae3ab8f9b13e2e128", "name": "6cff410167c631bae3ab8f9b13e2e128", "fusion_lon": 0.0, "lon": -77.0250685, "fusion_lat": 0.0}, {"lat": 38.90188416666667, "type": "electric_scooter", "is_disabled": 0, "rental_uris": {"android": "https://dc.lft.to/lastmile_qr_scan", "ios": "https://dc.lft.to/lastmile_qr_scan"}, "is_reserved": 0, "bike_id": "e1e82c689ff076f1e2a94ae529ecbb35", "name": "e1e82c689ff076f1e2a94ae529ecbb35", "fusion_lon": 0.0, "lon": -76.92828016666667, "fusion_lat": 0.0}, {"lat": 38.922477666666666, "type": "electric_scooter", "is_disabled": 0, "rental_uris": {"android": "https://dc.lft.to/lastmile_qr_scan", "ios": "https://dc.lft.to/lastmile_qr_scan"}, "is_reserved": 0, "bike_id": "b7db7a5bf29746cb347b418b003baa25", "name": "b7db7a5bf29746cb347b418b003baa25", "fusion_lon": 0.0, "lon": -77.03083333333333, "fusion_lat": 0.0}, {"lat": 38.904574833333335, "type": "electric_scooter", "is_disabled": 0, "rental_uris": {"android": "https://dc.lft.to/lastmile_qr_scan", "ios": "https://dc.lft.to/lastmile_qr_scan"}, "is_reserved": 0, "bike_id": "06e2cfdd55739c44de3cb0ffb9583ac5", "name": "06e2cfdd55739c44de3cb0ffb9583ac5", "fusion_lon": 0.0, "lon": -77.02955433333334, "fusion_lat": 0.0}, {"lat": 38.88772566666667, "type": "electric_scooter", "is_disabled": 0, "rental_uris": {"android": "https://dc.lft.to/lastmile_qr_scan", "ios": "https://dc.lft.to/lastmile_qr_scan"}, "is_reserved": 0, "bike_id": "3fc249e22b5fd33e48fbc2f291d4c99b", "name": "3fc249e22b5fd33e48fbc2f291d4c99b", "fusion_lon": 0.0, "lon": -77.015511, "fusion_lat": 0.0}, {"lat": 38.898721, "type": "electric_scooter", "is_disabled": 0, "rental_uris": {"android": "https://dc.lft.to/lastmile_qr_scan", "ios": "https://dc.lft.to/lastmile_qr_scan"}, "is_reserved": 0, "bike_id": "ecc4e52e17a75eec6e3c4652d9992209", "name": "ecc4e52e17a75eec6e3c4652d9992209", "fusion_lon": 0.0, "lon": -77.03347616666667, "fusion_lat": 0.0}, {"lat": 38.8796345, "type": "electric_scooter", "is_disabled": 0, "rental_uris": {"android": "https://dc.lft.to/lastmile_qr_scan", "ios": "https://dc.lft.to/lastmile_qr_scan"}, "is_reserved": 0, "bike_id": "937647d20ff1d38e81832d0aed04dc57", "name": "937647d20ff1d38e81832d0aed04dc57", "fusion_lon": 0.0, "lon": -76.98745166666667, "fusion_lat": 0.0}, {"lat": 38.90980533333333, "type": "electric_scooter", "is_disabled": 0, "rental_uris": {"android": "https://dc.lft.to/lastmile_qr_scan", "ios": "https://dc.lft.to/lastmile_qr_scan"}, "is_reserved": 0, "bike_id": "44e168810bff230069e4db067a05930e", "name": "44e168810bff230069e4db067a05930e", "fusion_lon": 0.0, "lon": -77.03214016666666, "fusion_lat": 0.0}, {"lat": 38.8937045, "type": "electric_scooter", "is_disabled": 0, "rental_uris": {"android": "https://dc.lft.to/lastmile_qr_scan", "ios": "https://dc.lft.to/lastmile_qr_scan"}, "is_reserved": 0, "bike_id": "e06e0c0bd0aa3579af9834e46f1a6705", "name": "e06e0c0bd0aa3579af9834e46f1a6705", "fusion_lon": 0.0, "lon": -77.04786666666666, "fusion_lat": 0.0}, {"lat": 38.881507, "type": "electric_scooter", "is_disabled": 0, "rental_uris": {"android": "https://dc.lft.to/lastmile_qr_scan", "ios": "https://dc.lft.to/lastmile_qr_scan"}, "is_reserved": 0, "bike_id": "450fb0175dd0dcb9285d4dc077a3bcf0", "name": "450fb0175dd0dcb9285d4dc077a3bcf0", "fusion_lon": 0.0, "lon": -76.99167833333334, "fusion_lat": 0.0}, {"lat": 38.86339866666667, "type": "electric_bike", "is_disabled": 0, "rental_uris": {"android": "https://dc.lft.to/lastmile_qr_scan", "ios": "https://dc.lft.to/lastmile_qr_scan"}, "is_reserved": 0, "bike_id": "3d077a94d4ce5c3c6f553b50944b5ec2", "name": "3d077a94d4ce5c3c6f553b50944b5ec2", "fusion_lon": 0.0, "lon": -76.98725733333333, "fusion_lat": 0.0}, {"lat": 38.96767416666667, "type": "electric_bike", "is_disabled": 0, "rental_uris": {"android": "https://dc.lft.to/lastmile_qr_scan", "ios": "https://dc.lft.to/lastmile_qr_scan"}, "is_reserved": 0, "bike_id": "35f63e555172a71a8e63a191afa73caa", "name": "35f63e555172a71a8e63a191afa73caa", "fusion_lon": 0.0, "lon": -77.09165566666667, "fusion_lat": 0.0}, {"lat": 38.89230633333333, "type": "electric_scooter", "is_disabled": 0, "rental_uris": {"android": "https://dc.lft.to/lastmile_qr_scan", "ios": "https://dc.lft.to/lastmile_qr_scan"}, "is_reserved": 0, "bike_id": "6a78b2180c2f679ff67d98ce268edc60", "name": "6a78b2180c2f679ff67d98ce268edc60", "fusion_lon": 0.0, "lon": -77.04661383333334, "fusion_lat": 0.0}, {"lat": 38.92213683333333, "type": "electric_scooter", "is_disabled": 0, "rental_uris": {"android": "https://dc.lft.to/lastmile_qr_scan", "ios": "https://dc.lft.to/lastmile_qr_scan"}, "is_reserved": 0, "bike_id": "124fe88117333d40521de6a124a4e9dd", "name": "124fe88117333d40521de6a124a4e9dd", "fusion_lon": 0.0, "lon": -77.04265633333333, "fusion_lat": 0.0}, {"lat": 38.901302333333334, "type": "electric_scooter", "is_disabled": 0, "rental_uris": {"android": "https://dc.lft.to/lastmile_qr_scan", "ios": "https://dc.lft.to/lastmile_qr_scan"}, "is_reserved": 0, "bike_id": "3d92fcef564595e21be0734a7b063400", "name": "3d92fcef564595e21be0734a7b063400", "fusion_lon": 0.0, "lon": -77.01200333333334, "fusion_lat": 0.0}, {"lat": 38.8948595, "type": "electric_scooter", "is_disabled": 0, "rental_uris": {"android": "https://dc.lft.to/lastmile_qr_scan", "ios": "https://dc.lft.to/lastmile_qr_scan"}, "is_reserved": 0, "bike_id": "ea28ab5ee87f388ab3713c3f3304c297", "name": "ea28ab5ee87f388ab3713c3f3304c297", "fusion_lon": 0.0, "lon": -76.99513933333333, "fusion_lat": 0.0}, {"lat": 38.91477166666667, "type": "electric_scooter", "is_disabled": 0, "rental_uris": {"android": "https://dc.lft.to/lastmile_qr_scan", "ios": "https://dc.lft.to/lastmile_qr_scan"}, "is_reserved": 0, "bike_id": "603265e5dc80a8ff8258cd9d2cc74884", "name": "603265e5dc80a8ff8258cd9d2cc74884", "fusion_lon": 0.0, "lon": -77.03235133333334, "fusion_lat": 0.0}, {"lat": 38.9015625, "type": "electric_scooter", "is_disabled": 0, "rental_uris": {"android": "https://dc.lft.to/lastmile_qr_scan", "ios": "https://dc.lft.to/lastmile_qr_scan"}, "is_reserved": 0, "bike_id": "a7288978228c027f3d04f02c565f3b5b", "name": "a7288978228c027f3d04f02c565f3b5b", "fusion_lon": 0.0, "lon": -77.04162466666666, "fusion_lat": 0.0}, {"lat": 38.8581155, "type": "electric_scooter", "is_disabled": 0, "rental_uris": {"android": "https://dc.lft.to/lastmile_qr_scan", "ios": "https://dc.lft.to/lastmile_qr_scan"}, "is_reserved": 0, "bike_id": "f5946b7f8133c925646ff1d0a4257a01", "name": "f5946b7f8133c925646ff1d0a4257a01", "fusion_lon": 0.0, "lon": -76.9865385, "fusion_lat": 0.0}, {"lat": 38.99879466666667, "type": "electric_bike", "is_disabled": 0, "rental_uris": {"android": "https://dc.lft.to/lastmile_qr_scan", "ios": "https://dc.lft.to/lastmile_qr_scan"}, "is_reserved": 0, "bike_id": "0efdb02e8332e8563d9b14ab08b69e5f", "name": "0efdb02e8332e8563d9b14ab08b69e5f", "fusion_lon": 0.0, "lon": -77.02867066666667, "fusion_lat": 0.0}, {"lat": 38.917837, "type": "electric_scooter", "is_disabled": 0, "rental_uris": {"android": "https://dc.lft.to/lastmile_qr_scan", "ios": "https://dc.lft.to/lastmile_qr_scan"}, "is_reserved": 0, "bike_id": "5ffe6eb43c03fea31c7951da2f1c4833", "name": "5ffe6eb43c03fea31c7951da2f1c4833", "fusion_lon": 0.0, "lon": -77.02307716666667, "fusion_lat": 0.0}, {"lat": 38.89531233333334, "type": "electric_scooter", "is_disabled": 0, "rental_uris": {"android": "https://dc.lft.to/lastmile_qr_scan", "ios": "https://dc.lft.to/lastmile_qr_scan"}, "is_reserved": 0, "bike_id": "3d568f3e43da752a42a5568e1f5c9193", "name": "3d568f3e43da752a42a5568e1f5c9193", "fusion_lon": 0.0, "lon": -77.02935133333334, "fusion_lat": 0.0}, {"lat": 38.940895833333336, "type": "electric_scooter", "is_disabled": 0, "rental_uris": {"android": "https://dc.lft.to/lastmile_qr_scan", "ios": "https://dc.lft.to/lastmile_qr_scan"}, "is_reserved": 0, "bike_id": "357e87760ef4679b508eace735330a09", "name": "357e87760ef4679b508eace735330a09", "fusion_lon": 0.0, "lon": -77.02731666666666, "fusion_lat": 0.0}, {"lat": 38.91266266666667, "type": "electric_scooter", "is_disabled": 0, "rental_uris": {"android": "https://dc.lft.to/lastmile_qr_scan", "ios": "https://dc.lft.to/lastmile_qr_scan"}, "is_reserved": 0, "bike_id": "af7b3223126fa4e4f72db2053f1af143", "name": "af7b3223126fa4e4f72db2053f1af143", "fusion_lon": 0.0, "lon": -77.01692766666666, "fusion_lat": 0.0}, {"lat": 38.886162, "type": "electric_scooter", "is_disabled": 0, "rental_uris": {"android": "https://dc.lft.to/lastmile_qr_scan", "ios": "https://dc.lft.to/lastmile_qr_scan"}, "is_reserved": 0, "bike_id": "9011d95987d4a85bed5e996b84d2bc88", "name": "9011d95987d4a85bed5e996b84d2bc88", "fusion_lon": 0.0, "lon": -77.00567733333334, "fusion_lat": 0.0}, {"lat": 38.896789, "type": "electric_scooter", "is_disabled": 0, "rental_uris": {"android": "https://dc.lft.to/lastmile_qr_scan", "ios": "https://dc.lft.to/lastmile_qr_scan"}, "is_reserved": 0, "bike_id": "d411fe1b6fbcb38e0ebbed88b24f28ff", "name": "d411fe1b6fbcb38e0ebbed88b24f28ff", "fusion_lon": 0.0, "lon": -77.05155233333333, "fusion_lat": 0.0}, {"lat": 38.95642516666667, "type": "electric_scooter", "is_disabled": 0, "rental_uris": {"android": "https://dc.lft.to/lastmile_qr_scan", "ios": "https://dc.lft.to/lastmile_qr_scan"}, "is_reserved": 0, "bike_id": "d2bd313f672978488c68e720e44126ff", "name": "d2bd313f672978488c68e720e44126ff", "fusion_lon": 0.0, "lon": -77.09102133333333, "fusion_lat": 0.0}, {"lat": 38.886615, "type": "electric_scooter", "is_disabled": 0, "rental_uris": {"android": "https://dc.lft.to/lastmile_qr_scan", "ios": "https://dc.lft.to/lastmile_qr_scan"}, "is_reserved": 0, "bike_id": "95d33898140e6e304f2107615e68bead", "name": "95d33898140e6e304f2107615e68bead", "fusion_lon": 0.0, "lon": -77.033829, "fusion_lat": 0.0}, {"lat": 38.894659, "type": "electric_scooter", "is_disabled": 0, "rental_uris": {"android": "https://dc.lft.to/lastmile_qr_scan", "ios": "https://dc.lft.to/lastmile_qr_scan"}, "is_reserved": 0, "bike_id": "797a4a9da7be029984812a1c030c7c3a", "name": "797a4a9da7be029984812a1c030c7c3a", "fusion_lon": 0.0, "lon": -76.94819616666666, "fusion_lat": 0.0}, {"lat": 38.844387166666664, "type": "electric_scooter", "is_disabled": 0, "rental_uris": {"android": "https://dc.lft.to/lastmile_qr_scan", "ios": "https://dc.lft.to/lastmile_qr_scan"}, "is_reserved": 0, "bike_id": "cf075675d7a7a361387d5e100c17eb0f", "name": "cf075675d7a7a361387d5e100c17eb0f", "fusion_lon": 0.0, "lon": -76.9978025, "fusion_lat": 0.0}, {"lat": 38.8990295, "type": "electric_scooter", "is_disabled": 0, "rental_uris": {"android": "https://dc.lft.to/lastmile_qr_scan", "ios": "https://dc.lft.to/lastmile_qr_scan"}, "is_reserved": 0, "bike_id": "33c8c69119d0d7f7d53c9ed2a924280d", "name": "33c8c69119d0d7f7d53c9ed2a924280d", "fusion_lon": 0.0, "lon": -77.039876, "fusion_lat": 0.0}, {"lat": 38.92583416666667, "type": "electric_scooter", "is_disabled": 0, "rental_uris": {"android": "https://dc.lft.to/lastmile_qr_scan", "ios": "https://dc.lft.to/lastmile_qr_scan"}, "is_reserved": 0, "bike_id": "015c0aa8de420278313a3e41c1de6b5e", "name": "015c0aa8de420278313a3e41c1de6b5e", "fusion_lon": 0.0, "lon": -77.0321225, "fusion_lat": 0.0}, {"lat": 38.862482166666666, "type": "electric_scooter", "is_disabled": 0, "rental_uris": {"android": "https://dc.lft.to/lastmile_qr_scan", "ios": "https://dc.lft.to/lastmile_qr_scan"}, "is_reserved": 0, "bike_id": "e4b906ebc82cd23f46bd7268b8105ae1", "name": "e4b906ebc82cd23f46bd7268b8105ae1", "fusion_lon": 0.0, "lon": -76.995306, "fusion_lat": 0.0}, {"lat": 38.869964333333336, "type": "electric_scooter", "is_disabled": 0, "rental_uris": {"android": "https://dc.lft.to/lastmile_qr_scan", "ios": "https://dc.lft.to/lastmile_qr_scan"}, "is_reserved": 0, "bike_id": "14c96892c9800f77c83395989b8ac217", "name": "14c96892c9800f77c83395989b8ac217", "fusion_lon": 0.0, "lon": -77.0105505, "fusion_lat": 0.0}, {"lat": 38.856541166666666, "type": "electric_bike", "is_disabled": 0, "rental_uris": {"android": "https://dc.lft.to/lastmile_qr_scan", "ios": "https://dc.lft.to/lastmile_qr_scan"}, "is_reserved": 0, "bike_id": "1dcae9ee4d9f0626fd12927bdaf4321a", "name": "1dcae9ee4d9f0626fd12927bdaf4321a", "fusion_lon": 0.0, "lon": -77.085297, "fusion_lat": 0.0}, {"lat": 38.90028216666666, "type": "electric_scooter", "is_disabled": 0, "rental_uris": {"android": "https://dc.lft.to/lastmile_qr_scan", "ios": "https://dc.lft.to/lastmile_qr_scan"}, "is_reserved": 0, "bike_id": "afbfd02979e3ad1c765dad115039ef9e", "name": "afbfd02979e3ad1c765dad115039ef9e", "fusion_lon": 0.0, "lon": -77.01158816666667, "fusion_lat": 0.0}, {"lat": 38.912015333333336, "type": "electric_scooter", "is_disabled": 0, "rental_uris": {"android": "https://dc.lft.to/lastmile_qr_scan", "ios": "https://dc.lft.to/lastmile_qr_scan"}, "is_reserved": 0, "bike_id": "636010e802c0c524e0c00a2a7c113cb6", "name": "636010e802c0c524e0c00a2a7c113cb6", "fusion_lon": 0.0, "lon": -77.04169516666667, "fusion_lat": 0.0}, {"lat": 38.935284833333334, "type": "electric_scooter", "is_disabled": 0, "rental_uris": {"android": "https://dc.lft.to/lastmile_qr_scan", "ios": "https://dc.lft.to/lastmile_qr_scan"}, "is_reserved": 0, "bike_id": "b3f45d90e058c06ee1c26471ca9eb6d7", "name": "b3f45d90e058c06ee1c26471ca9eb6d7", "fusion_lon": 0.0, "lon": -77.03261066666667, "fusion_lat": 0.0}, {"lat": 38.91544533333333, "type": "electric_scooter", "is_disabled": 0, "rental_uris": {"android": "https://dc.lft.to/lastmile_qr_scan", "ios": "https://dc.lft.to/lastmile_qr_scan"}, "is_reserved": 0, "bike_id": "dbd5de723a29e81726fd27f83e8c25ea", "name": "dbd5de723a29e81726fd27f83e8c25ea", "fusion_lon": 0.0, "lon": -77.03210716666666, "fusion_lat": 0.0}, {"lat": 38.903434, "type": "electric_scooter", "is_disabled": 0, "rental_uris": {"android": "https://dc.lft.to/lastmile_qr_scan", "ios": "https://dc.lft.to/lastmile_qr_scan"}, "is_reserved": 0, "bike_id": "5f8cf1c33207fdf7981574c76f07f0e1", "name": "5f8cf1c33207fdf7981574c76f07f0e1", "fusion_lon": 0.0, "lon": -77.02555866666667, "fusion_lat": 0.0}, {"lat": 38.922331166666666, "type": "electric_scooter", "is_disabled": 0, "rental_uris": {"android": "https://dc.lft.to/lastmile_qr_scan", "ios": "https://dc.lft.to/lastmile_qr_scan"}, "is_reserved": 0, "bike_id": "2d56002b699ce48cf3d313424ca7a14f", "name": "2d56002b699ce48cf3d313424ca7a14f", "fusion_lon": 0.0, "lon": -77.03321716666666, "fusion_lat": 0.0}, {"lat": 38.924401333333336, "type": "electric_bike", "is_disabled": 0, "rental_uris": {"android": "https://dc.lft.to/lastmile_qr_scan", "ios": "https://dc.lft.to/lastmile_qr_scan"}, "is_reserved": 0, "bike_id": "a2f1070c08eb2dc52afb8d3c2beccdf6", "name": "a2f1070c08eb2dc52afb8d3c2beccdf6", "fusion_lon": 0.0, "lon": -76.9075915, "fusion_lat": 0.0}, {"lat": 38.89541, "type": "electric_scooter", "is_disabled": 0, "rental_uris": {"android": "https://dc.lft.to/lastmile_qr_scan", "ios": "https://dc.lft.to/lastmile_qr_scan"}, "is_reserved": 0, "bike_id": "699e489e291c719d40b8b166029c1e57", "name": "699e489e291c719d40b8b166029c1e57", "fusion_lon": 0.0, "lon": -77.024487, "fusion_lat": 0.0}, {"lat": 38.89983333333333, "type": "electric_scooter", "is_disabled": 0, "rental_uris": {"android": "https://dc.lft.to/lastmile_qr_scan", "ios": "https://dc.lft.to/lastmile_qr_scan"}, "is_reserved": 0, "bike_id": "2950e826da3ec5002c061feb17eaf9a0", "name": "2950e826da3ec5002c061feb17eaf9a0", "fusion_lon": 0.0, "lon": -77.04190516666667, "fusion_lat": 0.0}, {"lat": 38.907073833333335, "type": "electric_scooter", "is_disabled": 0, "rental_uris": {"android": "https://dc.lft.to/lastmile_qr_scan", "ios": "https://dc.lft.to/lastmile_qr_scan"}, "is_reserved": 0, "bike_id": "5f747feb3d9a3abd9f18a3b0be2b39f8", "name": "5f747feb3d9a3abd9f18a3b0be2b39f8", "fusion_lon": 0.0, "lon": -77.06325216666667, "fusion_lat": 0.0}, {"lat": 38.91443833333334, "type": "electric_scooter", "is_disabled": 0, "rental_uris": {"android": "https://dc.lft.to/lastmile_qr_scan", "ios": "https://dc.lft.to/lastmile_qr_scan"}, "is_reserved": 0, "bike_id": "11155a8d089a7720423600d6f4111f6a", "name": "11155a8d089a7720423600d6f4111f6a", "fusion_lon": 0.0, "lon": -77.00881666666666, "fusion_lat": 0.0}, {"lat": 38.9038425, "type": "electric_scooter", "is_disabled": 0, "rental_uris": {"android": "https://dc.lft.to/lastmile_qr_scan", "ios": "https://dc.lft.to/lastmile_qr_scan"}, "is_reserved": 0, "bike_id": "9f88fe3e73eb70787c64bb7fa781f2d3", "name": "9f88fe3e73eb70787c64bb7fa781f2d3", "fusion_lon": 0.0, "lon": -77.04200616666667, "fusion_lat": 0.0}, {"lat": 38.91967916666667, "type": "electric_scooter", "is_disabled": 0, "rental_uris": {"android": "https://dc.lft.to/lastmile_qr_scan", "ios": "https://dc.lft.to/lastmile_qr_scan"}, "is_reserved": 0, "bike_id": "beec22df829564ec1b04dcec24ed857d", "name": "beec22df829564ec1b04dcec24ed857d", "fusion_lon": 0.0, "lon": -77.04165066666667, "fusion_lat": 0.0}, {"lat": 38.91584233333333, "type": "electric_scooter", "is_disabled": 0, "rental_uris": {"android": "https://dc.lft.to/lastmile_qr_scan", "ios": "https://dc.lft.to/lastmile_qr_scan"}, "is_reserved": 0, "bike_id": "4674dd82533da6887abdb19aafd6d041", "name": "4674dd82533da6887abdb19aafd6d041", "fusion_lon": 0.0, "lon": -77.0468175, "fusion_lat": 0.0}, {"lat": 38.926307666666666, "type": "electric_scooter", "is_disabled": 0, "rental_uris": {"android": "https://dc.lft.to/lastmile_qr_scan", "ios": "https://dc.lft.to/lastmile_qr_scan"}, "is_reserved": 0, "bike_id": "c4e8e37b41740332a46b3140beb48e09", "name": "c4e8e37b41740332a46b3140beb48e09", "fusion_lon": 0.0, "lon": -77.03788016666667, "fusion_lat": 0.0}, {"lat": 38.93968116666667, "type": "electric_bike", "is_disabled": 0, "rental_uris": {"android": "https://dc.lft.to/lastmile_qr_scan", "ios": "https://dc.lft.to/lastmile_qr_scan"}, "is_reserved": 0, "bike_id": "43dc20535e92651b8b9af52f598313d0", "name": "43dc20535e92651b8b9af52f598313d0", "fusion_lon": 0.0, "lon": -77.36085566666667, "fusion_lat": 0.0}, {"lat": 38.92073516666667, "type": "electric_scooter", "is_disabled": 0, "rental_uris": {"android": "https://dc.lft.to/lastmile_qr_scan", "ios": "https://dc.lft.to/lastmile_qr_scan"}, "is_reserved": 0, "bike_id": "48aa1c1f0960b9f90a0a9ddfbbb6cf82", "name": "48aa1c1f0960b9f90a0a9ddfbbb6cf82", "fusion_lon": 0.0, "lon": -77.02514683333334, "fusion_lat": 0.0}, {"lat": 38.92580916666667, "type": "electric_scooter", "is_disabled": 0, "rental_uris": {"android": "https://dc.lft.to/lastmile_qr_scan", "ios": "https://dc.lft.to/lastmile_qr_scan"}, "is_reserved": 0, "bike_id": "5211500736892edfbc1135d0e290354b", "name": "5211500736892edfbc1135d0e290354b", "fusion_lon": 0.0, "lon": -77.08054583333333, "fusion_lat": 0.0}, {"lat": 38.93030783333333, "type": "electric_scooter", "is_disabled": 0, "rental_uris": {"android": "https://dc.lft.to/lastmile_qr_scan", "ios": "https://dc.lft.to/lastmile_qr_scan"}, "is_reserved": 0, "bike_id": "fc3b62c885197f8fc63cbdeaeed4373c", "name": "fc3b62c885197f8fc63cbdeaeed4373c", "fusion_lon": 0.0, "lon": -77.0136155, "fusion_lat": 0.0}, {"lat": 38.909731666666666, "type": "electric_scooter", "is_disabled": 0, "rental_uris": {"android": "https://dc.lft.to/lastmile_qr_scan", "ios": "https://dc.lft.to/lastmile_qr_scan"}, "is_reserved": 0, "bike_id": "fbb537d2bdb356b672c50ed9d5d5b62a", "name": "fbb537d2bdb356b672c50ed9d5d5b62a", "fusion_lon": 0.0, "lon": -77.03293133333334, "fusion_lat": 0.0}, {"lat": 38.914676, "type": "electric_scooter", "is_disabled": 0, "rental_uris": {"android": "https://dc.lft.to/lastmile_qr_scan", "ios": "https://dc.lft.to/lastmile_qr_scan"}, "is_reserved": 0, "bike_id": "c454ff603c60f423358c450e01d5e6b4", "name": "c454ff603c60f423358c450e01d5e6b4", "fusion_lon": 0.0, "lon": -76.98447316666666, "fusion_lat": 0.0}, {"lat": 38.897530333333336, "type": "electric_scooter", "is_disabled": 0, "rental_uris": {"android": "https://dc.lft.to/lastmile_qr_scan", "ios": "https://dc.lft.to/lastmile_qr_scan"}, "is_reserved": 0, "bike_id": "38e9ea43902d930a77023d1e35d57422", "name": "38e9ea43902d930a77023d1e35d57422", "fusion_lon": 0.0, "lon": -77.0298305, "fusion_lat": 0.0}, {"lat": 38.924735, "type": "electric_scooter", "is_disabled": 0, "rental_uris": {"android": "https://dc.lft.to/lastmile_qr_scan", "ios": "https://dc.lft.to/lastmile_qr_scan"}, "is_reserved": 0, "bike_id": "72085b79d863889779688a2f8a0a1c35", "name": "72085b79d863889779688a2f8a0a1c35", "fusion_lon": 0.0, "lon": -77.0786405, "fusion_lat": 0.0}, {"lat": 38.88595516666667, "type": "electric_scooter", "is_disabled": 0, "rental_uris": {"android": "https://dc.lft.to/lastmile_qr_scan", "ios": "https://dc.lft.to/lastmile_qr_scan"}, "is_reserved": 0, "bike_id": "8cafb7dd62714441a8ce567202cf2bb1", "name": "8cafb7dd62714441a8ce567202cf2bb1", "fusion_lon": 0.0, "lon": -77.01766966666666, "fusion_lat": 0.0}, {"lat": 38.967356, "type": "electric_scooter", "is_disabled": 0, "rental_uris": {"android": "https://dc.lft.to/lastmile_qr_scan", "ios": "https://dc.lft.to/lastmile_qr_scan"}, "is_reserved": 0, "bike_id": "fdb16560c7e7a288870331861b01bcf6", "name": "fdb16560c7e7a288870331861b01bcf6", "fusion_lon": 0.0, "lon": -77.0275845, "fusion_lat": 0.0}, {"lat": 38.916946333333335, "type": "electric_scooter", "is_disabled": 0, "rental_uris": {"android": "https://dc.lft.to/lastmile_qr_scan", "ios": "https://dc.lft.to/lastmile_qr_scan"}, "is_reserved": 0, "bike_id": "3e2337d6b98d3c45abe92ef6c392c472", "name": "3e2337d6b98d3c45abe92ef6c392c472", "fusion_lon": 0.0, "lon": -77.03210783333333, "fusion_lat": 0.0}, {"lat": 38.9045495, "type": "electric_scooter", "is_disabled": 0, "rental_uris": {"android": "https://dc.lft.to/lastmile_qr_scan", "ios": "https://dc.lft.to/lastmile_qr_scan"}, "is_reserved": 0, "bike_id": "e0deb06c75d555fb31fb94825f551514", "name": "e0deb06c75d555fb31fb94825f551514", "fusion_lon": 0.0, "lon": -77.026139, "fusion_lat": 0.0}, {"lat": 38.92114, "type": "electric_scooter", "is_disabled": 0, "rental_uris": {"android": "https://dc.lft.to/lastmile_qr_scan", "ios": "https://dc.lft.to/lastmile_qr_scan"}, "is_reserved": 0, "bike_id": "9e81b9dfd309137801d1a096594c3f61", "name": "9e81b9dfd309137801d1a096594c3f61", "fusion_lon": 0.0, "lon": -77.04388116666667, "fusion_lat": 0.0}, {"lat": 38.90750333333333, "type": "electric_scooter", "is_disabled": 0, "rental_uris": {"android": "https://dc.lft.to/lastmile_qr_scan", "ios": "https://dc.lft.to/lastmile_qr_scan"}, "is_reserved": 0, "bike_id": "40cfa0d181083287ae28da3bcf5a1c0d", "name": "40cfa0d181083287ae28da3bcf5a1c0d", "fusion_lon": 0.0, "lon": -77.00773883333333, "fusion_lat": 0.0}, {"lat": 38.92448016666667, "type": "electric_scooter", "is_disabled": 0, "rental_uris": {"android": "https://dc.lft.to/lastmile_qr_scan", "ios": "https://dc.lft.to/lastmile_qr_scan"}, "is_reserved": 0, "bike_id": "7d2ab46ce69a9a4e65c44731cd51162a", "name": "7d2ab46ce69a9a4e65c44731cd51162a", "fusion_lon": 0.0, "lon": -77.02608933333333, "fusion_lat": 0.0}, {"lat": 38.896552166666666, "type": "electric_scooter", "is_disabled": 0, "rental_uris": {"android": "https://dc.lft.to/lastmile_qr_scan", "ios": "https://dc.lft.to/lastmile_qr_scan"}, "is_reserved": 0, "bike_id": "6483be5fa129afa45a78fb88bea1bfe6", "name": "6483be5fa129afa45a78fb88bea1bfe6", "fusion_lon": 0.0, "lon": -77.04999233333334, "fusion_lat": 0.0}, {"lat": 38.901962833333336, "type": "electric_scooter", "is_disabled": 0, "rental_uris": {"android": "https://dc.lft.to/lastmile_qr_scan", "ios": "https://dc.lft.to/lastmile_qr_scan"}, "is_reserved": 0, "bike_id": "7e1dc3bae90506a620ca22855c1f7ccf", "name": "7e1dc3bae90506a620ca22855c1f7ccf", "fusion_lon": 0.0, "lon": -77.0504825, "fusion_lat": 0.0}, {"lat": 38.90650733333333, "type": "electric_scooter", "is_disabled": 0, "rental_uris": {"android": "https://dc.lft.to/lastmile_qr_scan", "ios": "https://dc.lft.to/lastmile_qr_scan"}, "is_reserved": 0, "bike_id": "662d512e8681faef4fe0485c8340cd9a", "name": "662d512e8681faef4fe0485c8340cd9a", "fusion_lon": 0.0, "lon": -77.03893583333333, "fusion_lat": 0.0}, {"lat": 38.988308333333336, "type": "electric_bike", "is_disabled": 0, "rental_uris": {"android": "https://dc.lft.to/lastmile_qr_scan", "ios": "https://dc.lft.to/lastmile_qr_scan"}, "is_reserved": 0, "bike_id": "3e8cb9a7807123abf8fc6959a8795c82", "name": "3e8cb9a7807123abf8fc6959a8795c82", "fusion_lon": 0.0, "lon": -76.98746416666667, "fusion_lat": 0.0}, {"lat": 38.91145933333333, "type": "electric_scooter", "is_disabled": 0, "rental_uris": {"android": "https://dc.lft.to/lastmile_qr_scan", "ios": "https://dc.lft.to/lastmile_qr_scan"}, "is_reserved": 0, "bike_id": "ec96d9573f4216d7abf00a85e5e30c10", "name": "ec96d9573f4216d7abf00a85e5e30c10", "fusion_lon": 0.0, "lon": -77.0190075, "fusion_lat": 0.0}, {"lat": 38.853361, "type": "electric_scooter", "is_disabled": 0, "rental_uris": {"android": "https://dc.lft.to/lastmile_qr_scan", "ios": "https://dc.lft.to/lastmile_qr_scan"}, "is_reserved": 0, "bike_id": "24d4e7af048df2e62e60f05a72d88d89", "name": "24d4e7af048df2e62e60f05a72d88d89", "fusion_lon": 0.0, "lon": -76.96594983333334, "fusion_lat": 0.0}, {"lat": 38.90365116666667, "type": "electric_scooter", "is_disabled": 0, "rental_uris": {"android": "https://dc.lft.to/lastmile_qr_scan", "ios": "https://dc.lft.to/lastmile_qr_scan"}, "is_reserved": 0, "bike_id": "f1c7002f6ff23d64a0210be92ffdfd39", "name": "f1c7002f6ff23d64a0210be92ffdfd39", "fusion_lon": 0.0, "lon": -77.0193375, "fusion_lat": 0.0}, {"lat": 38.906564833333334, "type": "electric_scooter", "is_disabled": 0, "rental_uris": {"android": "https://dc.lft.to/lastmile_qr_scan", "ios": "https://dc.lft.to/lastmile_qr_scan"}, "is_reserved": 0, "bike_id": "a98e65f83e5ba0468a48187e4cecee33", "name": "a98e65f83e5ba0468a48187e4cecee33", "fusion_lon": 0.0, "lon": -77.02945116666666, "fusion_lat": 0.0}, {"lat": 38.8624725, "type": "electric_scooter", "is_disabled": 0, "rental_uris": {"android": "https://dc.lft.to/lastmile_qr_scan", "ios": "https://dc.lft.to/lastmile_qr_scan"}, "is_reserved": 0, "bike_id": "7a11e462f1857e49969427831426353e", "name": "7a11e462f1857e49969427831426353e", "fusion_lon": 0.0, "lon": -76.99533466666666, "fusion_lat": 0.0}, {"lat": 38.900215333333335, "type": "electric_scooter", "is_disabled": 0, "rental_uris": {"android": "https://dc.lft.to/lastmile_qr_scan", "ios": "https://dc.lft.to/lastmile_qr_scan"}, "is_reserved": 0, "bike_id": "df5ea9430facc8dad2431a4059c403cd", "name": "df5ea9430facc8dad2431a4059c403cd", "fusion_lon": 0.0, "lon": -77.01184533333333, "fusion_lat": 0.0}, {"lat": 38.88026266666667, "type": "electric_scooter", "is_disabled": 0, "rental_uris": {"android": "https://dc.lft.to/lastmile_qr_scan", "ios": "https://dc.lft.to/lastmile_qr_scan"}, "is_reserved": 0, "bike_id": "abab030e97c58eea41cb4566fc290f5e", "name": "abab030e97c58eea41cb4566fc290f5e", "fusion_lon": 0.0, "lon": -76.93113083333333, "fusion_lat": 0.0}, {"lat": 38.905118, "type": "electric_scooter", "is_disabled": 0, "rental_uris": {"android": "https://dc.lft.to/lastmile_qr_scan", "ios": "https://dc.lft.to/lastmile_qr_scan"}, "is_reserved": 0, "bike_id": "d0b31a3f2906e4755d3a380fa70c5c9e", "name": "d0b31a3f2906e4755d3a380fa70c5c9e", "fusion_lon": 0.0, "lon": -77.05150983333333, "fusion_lat": 0.0}, {"lat": 38.9218065, "type": "electric_scooter", "is_disabled": 0, "rental_uris": {"android": "https://dc.lft.to/lastmile_qr_scan", "ios": "https://dc.lft.to/lastmile_qr_scan"}, "is_reserved": 0, "bike_id": "6d5bc78983e1ec3f0a4311987d47a1d4", "name": "6d5bc78983e1ec3f0a4311987d47a1d4", "fusion_lon": 0.0, "lon": -77.04225, "fusion_lat": 0.0}, {"lat": 38.89530716666667, "type": "electric_scooter", "is_disabled": 0, "rental_uris": {"android": "https://dc.lft.to/lastmile_qr_scan", "ios": "https://dc.lft.to/lastmile_qr_scan"}, "is_reserved": 0, "bike_id": "26f8c125dc19fc48dc19437d0a82afdc", "name": "26f8c125dc19fc48dc19437d0a82afdc", "fusion_lon": 0.0, "lon": -77.028386, "fusion_lat": 0.0}, {"lat": 38.949813, "type": "electric_scooter", "is_disabled": 0, "rental_uris": {"android": "https://dc.lft.to/lastmile_qr_scan", "ios": "https://dc.lft.to/lastmile_qr_scan"}, "is_reserved": 0, "bike_id": "12a263861a4e3da52717b9273442c74c", "name": "12a263861a4e3da52717b9273442c74c", "fusion_lon": 0.0, "lon": -77.0270275, "fusion_lat": 0.0}, {"lat": 38.891692, "type": "electric_scooter", "is_disabled": 0, "rental_uris": {"android": "https://dc.lft.to/lastmile_qr_scan", "ios": "https://dc.lft.to/lastmile_qr_scan"}, "is_reserved": 0, "bike_id": "50dbf2601ba4a5f08c7d3a0863cc6177", "name": "50dbf2601ba4a5f08c7d3a0863cc6177", "fusion_lon": 0.0, "lon": -77.01540416666667, "fusion_lat": 0.0}, {"lat": 38.9311325, "type": "electric_scooter", "is_disabled": 0, "rental_uris": {"android": "https://dc.lft.to/lastmile_qr_scan", "ios": "https://dc.lft.to/lastmile_qr_scan"}, "is_reserved": 0, "bike_id": "8c80202b992362cd6fefb79e55a05d78", "name": "8c80202b992362cd6fefb79e55a05d78", "fusion_lon": 0.0, "lon": -77.04121216666667, "fusion_lat": 0.0}, {"lat": 38.90917116666667, "type": "electric_scooter", "is_disabled": 0, "rental_uris": {"android": "https://dc.lft.to/lastmile_qr_scan", "ios": "https://dc.lft.to/lastmile_qr_scan"}, "is_reserved": 0, "bike_id": "519b74363f3aa947d7d8c6dd7f4828e1", "name": "519b74363f3aa947d7d8c6dd7f4828e1", "fusion_lon": 0.0, "lon": -77.0318275, "fusion_lat": 0.0}, {"lat": 38.892185833333336, "type": "electric_scooter", "is_disabled": 0, "rental_uris": {"android": "https://dc.lft.to/lastmile_qr_scan", "ios": "https://dc.lft.to/lastmile_qr_scan"}, "is_reserved": 0, "bike_id": "9cd50271ebfefd330c67df156845c7e5", "name": "9cd50271ebfefd330c67df156845c7e5", "fusion_lon": 0.0, "lon": -77.02260683333333, "fusion_lat": 0.0}, {"lat": 38.86509516666667, "type": "electric_scooter", "is_disabled": 0, "rental_uris": {"android": "https://dc.lft.to/lastmile_qr_scan", "ios": "https://dc.lft.to/lastmile_qr_scan"}, "is_reserved": 0, "bike_id": "c5ab35356cbc52673cad596918d689f5", "name": "c5ab35356cbc52673cad596918d689f5", "fusion_lon": 0.0, "lon": -76.990055, "fusion_lat": 0.0}, {"lat": 38.91038916666667, "type": "electric_scooter", "is_disabled": 0, "rental_uris": {"android": "https://dc.lft.to/lastmile_qr_scan", "ios": "https://dc.lft.to/lastmile_qr_scan"}, "is_reserved": 0, "bike_id": "22ea0ea6af7acfc8161879ce3c9876be", "name": "22ea0ea6af7acfc8161879ce3c9876be", "fusion_lon": 0.0, "lon": -77.01374766666666, "fusion_lat": 0.0}, {"lat": 38.907862333333334, "type": "electric_scooter", "is_disabled": 0, "rental_uris": {"android": "https://dc.lft.to/lastmile_qr_scan", "ios": "https://dc.lft.to/lastmile_qr_scan"}, "is_reserved": 0, "bike_id": "a3b310b4486d6dbe4a37e7a3c11ff0ba", "name": "a3b310b4486d6dbe4a37e7a3c11ff0ba", "fusion_lon": 0.0, "lon": -77.04515616666667, "fusion_lat": 0.0}, {"lat": 38.91707066666667, "type": "electric_bike", "is_disabled": 0, "rental_uris": {"android": "https://dc.lft.to/lastmile_qr_scan", "ios": "https://dc.lft.to/lastmile_qr_scan"}, "is_reserved": 0, "bike_id": "bf9066b3de47957fa1f67c7e67acc96c", "name": "bf9066b3de47957fa1f67c7e67acc96c", "fusion_lon": 0.0, "lon": -77.09563616666667, "fusion_lat": 0.0}, {"lat": 38.8659945, "type": "electric_bike", "is_disabled": 0, "rental_uris": {"android": "https://dc.lft.to/lastmile_qr_scan", "ios": "https://dc.lft.to/lastmile_qr_scan"}, "is_reserved": 0, "bike_id": "7627ff36e5f1ad0bf09f1dc94e928348", "name": "7627ff36e5f1ad0bf09f1dc94e928348", "fusion_lon": 0.0, "lon": -76.932279, "fusion_lat": 0.0}, {"lat": 38.9177925, "type": "electric_scooter", "is_disabled": 0, "rental_uris": {"android": "https://dc.lft.to/lastmile_qr_scan", "ios": "https://dc.lft.to/lastmile_qr_scan"}, "is_reserved": 0, "bike_id": "be4185ab45edcd579ae02f688ccc6e2d", "name": "be4185ab45edcd579ae02f688ccc6e2d", "fusion_lon": 0.0, "lon": -77.03184733333333, "fusion_lat": 0.0}, {"lat": 38.9010725, "type": "electric_scooter", "is_disabled": 0, "rental_uris": {"android": "https://dc.lft.to/lastmile_qr_scan", "ios": "https://dc.lft.to/lastmile_qr_scan"}, "is_reserved": 0, "bike_id": "b7779f38c1658de027c1c196ce1de0ff", "name": "b7779f38c1658de027c1c196ce1de0ff", "fusion_lon": 0.0, "lon": -77.0337485, "fusion_lat": 0.0}, {"lat": 38.90750083333333, "type": "electric_scooter", "is_disabled": 0, "rental_uris": {"android": "https://dc.lft.to/lastmile_qr_scan", "ios": "https://dc.lft.to/lastmile_qr_scan"}, "is_reserved": 0, "bike_id": "76b55acba139a41c773a34552e3bba73", "name": "76b55acba139a41c773a34552e3bba73", "fusion_lon": 0.0, "lon": -77.0346315, "fusion_lat": 0.0}, {"lat": 38.89019283333333, "type": "electric_scooter", "is_disabled": 0, "rental_uris": {"android": "https://dc.lft.to/lastmile_qr_scan", "ios": "https://dc.lft.to/lastmile_qr_scan"}, "is_reserved": 0, "bike_id": "259341bf9aaaf53e31591203751731e3", "name": "259341bf9aaaf53e31591203751731e3", "fusion_lon": 0.0, "lon": -76.9373205, "fusion_lat": 0.0}, {"lat": 38.9200185, "type": "electric_scooter", "is_disabled": 0, "rental_uris": {"android": "https://dc.lft.to/lastmile_qr_scan", "ios": "https://dc.lft.to/lastmile_qr_scan"}, "is_reserved": 0, "bike_id": "f3f0432f5b1d195d537fb9fa59d2b14c", "name": "f3f0432f5b1d195d537fb9fa59d2b14c", "fusion_lon": 0.0, "lon": -76.98392583333333, "fusion_lat": 0.0}, {"lat": 38.852152, "type": "electric_bike", "is_disabled": 0, "rental_uris": {"android": "https://dc.lft.to/lastmile_qr_scan", "ios": "https://dc.lft.to/lastmile_qr_scan"}, "is_reserved": 0, "bike_id": "93667624ef4253143d523f3296094ffc", "name": "93667624ef4253143d523f3296094ffc", "fusion_lon": 0.0, "lon": -77.12756366666666, "fusion_lat": 0.0}, {"lat": 38.915645833333336, "type": "electric_scooter", "is_disabled": 0, "rental_uris": {"android": "https://dc.lft.to/lastmile_qr_scan", "ios": "https://dc.lft.to/lastmile_qr_scan"}, "is_reserved": 0, "bike_id": "8a099f2a3989141b5add490673e90231", "name": "8a099f2a3989141b5add490673e90231", "fusion_lon": 0.0, "lon": -77.03872266666667, "fusion_lat": 0.0}, {"lat": 38.90981716666667, "type": "electric_scooter", "is_disabled": 0, "rental_uris": {"android": "https://dc.lft.to/lastmile_qr_scan", "ios": "https://dc.lft.to/lastmile_qr_scan"}, "is_reserved": 0, "bike_id": "81265d90073f4a68588006940c89b547", "name": "81265d90073f4a68588006940c89b547", "fusion_lon": 0.0, "lon": -77.033979, "fusion_lat": 0.0}, {"lat": 38.897591166666665, "type": "electric_scooter", "is_disabled": 0, "rental_uris": {"android": "https://dc.lft.to/lastmile_qr_scan", "ios": "https://dc.lft.to/lastmile_qr_scan"}, "is_reserved": 0, "bike_id": "015b03849fca862fdca51ec043bdd27b", "name": "015b03849fca862fdca51ec043bdd27b", "fusion_lon": 0.0, "lon": -77.0516995, "fusion_lat": 0.0}, {"lat": 38.92218366666667, "type": "electric_scooter", "is_disabled": 0, "rental_uris": {"android": "https://dc.lft.to/lastmile_qr_scan", "ios": "https://dc.lft.to/lastmile_qr_scan"}, "is_reserved": 0, "bike_id": "bf24c121236e1f4f1e99657d5b96311f", "name": "bf24c121236e1f4f1e99657d5b96311f", "fusion_lon": 0.0, "lon": -77.01830816666667, "fusion_lat": 0.0}, {"lat": 38.918168333333334, "type": "electric_scooter", "is_disabled": 0, "rental_uris": {"android": "https://dc.lft.to/lastmile_qr_scan", "ios": "https://dc.lft.to/lastmile_qr_scan"}, "is_reserved": 0, "bike_id": "9081e40acc0c0285c6e670ecc768c2d1", "name": "9081e40acc0c0285c6e670ecc768c2d1", "fusion_lon": 0.0, "lon": -77.03566816666667, "fusion_lat": 0.0}, {"lat": 38.89743416666666, "type": "electric_scooter", "is_disabled": 0, "rental_uris": {"android": "https://dc.lft.to/lastmile_qr_scan", "ios": "https://dc.lft.to/lastmile_qr_scan"}, "is_reserved": 0, "bike_id": "7101092eb04c2e0be16137267b705c4c", "name": "7101092eb04c2e0be16137267b705c4c", "fusion_lon": 0.0, "lon": -77.0472225, "fusion_lat": 0.0}, {"lat": 38.93410983333333, "type": "electric_scooter", "is_disabled": 0, "rental_uris": {"android": "https://dc.lft.to/lastmile_qr_scan", "ios": "https://dc.lft.to/lastmile_qr_scan"}, "is_reserved": 0, "bike_id": "d11b6c0abcd0a54107d8e0d73f4b028a", "name": "d11b6c0abcd0a54107d8e0d73f4b028a", "fusion_lon": 0.0, "lon": -77.03258516666666, "fusion_lat": 0.0}, {"lat": 38.89255583333333, "type": "electric_scooter", "is_disabled": 0, "rental_uris": {"android": "https://dc.lft.to/lastmile_qr_scan", "ios": "https://dc.lft.to/lastmile_qr_scan"}, "is_reserved": 0, "bike_id": "f22960983dbac7757f8f105885bbc6d2", "name": "f22960983dbac7757f8f105885bbc6d2", "fusion_lon": 0.0, "lon": -76.99849016666667, "fusion_lat": 0.0}, {"lat": 38.882408, "type": "electric_scooter", "is_disabled": 0, "rental_uris": {"android": "https://dc.lft.to/lastmile_qr_scan", "ios": "https://dc.lft.to/lastmile_qr_scan"}, "is_reserved": 0, "bike_id": "fa6256a48d57ee2965e88e31a5d357ab", "name": "fa6256a48d57ee2965e88e31a5d357ab", "fusion_lon": 0.0, "lon": -76.990774, "fusion_lat": 0.0}, {"lat": 38.8864095, "type": "electric_scooter", "is_disabled": 0, "rental_uris": {"android": "https://dc.lft.to/lastmile_qr_scan", "ios": "https://dc.lft.to/lastmile_qr_scan"}, "is_reserved": 0, "bike_id": "c324c44b210dc740d6e0f23d55bfa0e2", "name": "c324c44b210dc740d6e0f23d55bfa0e2", "fusion_lon": 0.0, "lon": -77.022472, "fusion_lat": 0.0}, {"lat": 38.92251516666666, "type": "electric_scooter", "is_disabled": 0, "rental_uris": {"android": "https://dc.lft.to/lastmile_qr_scan", "ios": "https://dc.lft.to/lastmile_qr_scan"}, "is_reserved": 0, "bike_id": "496f1623d1e452b2c467b00d1e0a24f4", "name": "496f1623d1e452b2c467b00d1e0a24f4", "fusion_lon": 0.0, "lon": -77.02840583333334, "fusion_lat": 0.0}, {"lat": 38.9152905, "type": "electric_scooter", "is_disabled": 0, "rental_uris": {"android": "https://dc.lft.to/lastmile_qr_scan", "ios": "https://dc.lft.to/lastmile_qr_scan"}, "is_reserved": 0, "bike_id": "a3dcbbc5e8aa7694634eb7ca63fa57c4", "name": "a3dcbbc5e8aa7694634eb7ca63fa57c4", "fusion_lon": 0.0, "lon": -77.0383625, "fusion_lat": 0.0}, {"lat": 38.8926385, "type": "electric_scooter", "is_disabled": 0, "rental_uris": {"android": "https://dc.lft.to/lastmile_qr_scan", "ios": "https://dc.lft.to/lastmile_qr_scan"}, "is_reserved": 0, "bike_id": "eae5dc5baf90a9d71a55b90549160ca4", "name": "eae5dc5baf90a9d71a55b90549160ca4", "fusion_lon": 0.0, "lon": -76.94155083333334, "fusion_lat": 0.0}, {"lat": 38.917480166666664, "type": "electric_scooter", "is_disabled": 0, "rental_uris": {"android": "https://dc.lft.to/lastmile_qr_scan", "ios": "https://dc.lft.to/lastmile_qr_scan"}, "is_reserved": 0, "bike_id": "9ac4f307ab6589b7fad2719e3ce06208", "name": "9ac4f307ab6589b7fad2719e3ce06208", "fusion_lon": 0.0, "lon": -77.036594, "fusion_lat": 0.0}, {"lat": 38.89561166666667, "type": "electric_scooter", "is_disabled": 0, "rental_uris": {"android": "https://dc.lft.to/lastmile_qr_scan", "ios": "https://dc.lft.to/lastmile_qr_scan"}, "is_reserved": 0, "bike_id": "d647c59d0a14d239ac6569159d7caec7", "name": "d647c59d0a14d239ac6569159d7caec7", "fusion_lon": 0.0, "lon": -77.0091575, "fusion_lat": 0.0}, {"lat": 38.87631366666667, "type": "electric_scooter", "is_disabled": 0, "rental_uris": {"android": "https://dc.lft.to/lastmile_qr_scan", "ios": "https://dc.lft.to/lastmile_qr_scan"}, "is_reserved": 0, "bike_id": "4800e518b06b2561b4147bc6d984cd79", "name": "4800e518b06b2561b4147bc6d984cd79", "fusion_lon": 0.0, "lon": -76.96524333333333, "fusion_lat": 0.0}, {"lat": 38.86507366666667, "type": "electric_scooter", "is_disabled": 0, "rental_uris": {"android": "https://dc.lft.to/lastmile_qr_scan", "ios": "https://dc.lft.to/lastmile_qr_scan"}, "is_reserved": 0, "bike_id": "8c1e18739cc663ca62bd397ca35e2fb5", "name": "8c1e18739cc663ca62bd397ca35e2fb5", "fusion_lon": 0.0, "lon": -76.99003583333334, "fusion_lat": 0.0}, {"lat": 38.89919916666667, "type": "electric_scooter", "is_disabled": 0, "rental_uris": {"android": "https://dc.lft.to/lastmile_qr_scan", "ios": "https://dc.lft.to/lastmile_qr_scan"}, "is_reserved": 0, "bike_id": "f65c70dc39dbbe7d6d66ca475f265a40", "name": "f65c70dc39dbbe7d6d66ca475f265a40", "fusion_lon": 0.0, "lon": -76.93365816666666, "fusion_lat": 0.0}, {"lat": 38.902488166666664, "type": "electric_scooter", "is_disabled": 0, "rental_uris": {"android": "https://dc.lft.to/lastmile_qr_scan", "ios": "https://dc.lft.to/lastmile_qr_scan"}, "is_reserved": 0, "bike_id": "9f2a6296b9493bd8e14f47715a5eecf2", "name": "9f2a6296b9493bd8e14f47715a5eecf2", "fusion_lon": 0.0, "lon": -77.02937733333333, "fusion_lat": 0.0}, {"lat": 38.924849, "type": "electric_scooter", "is_disabled": 0, "rental_uris": {"android": "https://dc.lft.to/lastmile_qr_scan", "ios": "https://dc.lft.to/lastmile_qr_scan"}, "is_reserved": 0, "bike_id": "30f2aba766aafaf6792ee0c13241be8b", "name": "30f2aba766aafaf6792ee0c13241be8b", "fusion_lon": 0.0, "lon": -77.02722366666667, "fusion_lat": 0.0}, {"lat": 38.93021866666667, "type": "electric_scooter", "is_disabled": 0, "rental_uris": {"android": "https://dc.lft.to/lastmile_qr_scan", "ios": "https://dc.lft.to/lastmile_qr_scan"}, "is_reserved": 0, "bike_id": "08e042c803d1ca280714513edf2b9045", "name": "08e042c803d1ca280714513edf2b9045", "fusion_lon": 0.0, "lon": -77.05550316666667, "fusion_lat": 0.0}, {"lat": 38.90370566666667, "type": "electric_scooter", "is_disabled": 0, "rental_uris": {"android": "https://dc.lft.to/lastmile_qr_scan", "ios": "https://dc.lft.to/lastmile_qr_scan"}, "is_reserved": 0, "bike_id": "dd0045dda80444ff696cb218e3f6b66f", "name": "dd0045dda80444ff696cb218e3f6b66f", "fusion_lon": 0.0, "lon": -77.03329183333334, "fusion_lat": 0.0}, {"lat": 38.91051783333333, "type": "electric_scooter", "is_disabled": 0, "rental_uris": {"android": "https://dc.lft.to/lastmile_qr_scan", "ios": "https://dc.lft.to/lastmile_qr_scan"}, "is_reserved": 0, "bike_id": "a5e36f0dcc2a05fc2a64707fd0845bb7", "name": "a5e36f0dcc2a05fc2a64707fd0845bb7", "fusion_lon": 0.0, "lon": -77.04339433333334, "fusion_lat": 0.0}, {"lat": 38.90862933333333, "type": "electric_scooter", "is_disabled": 0, "rental_uris": {"android": "https://dc.lft.to/lastmile_qr_scan", "ios": "https://dc.lft.to/lastmile_qr_scan"}, "is_reserved": 0, "bike_id": "6ee74f6a4f879657162f641e9896cb57", "name": "6ee74f6a4f879657162f641e9896cb57", "fusion_lon": 0.0, "lon": -77.04543566666666, "fusion_lat": 0.0}, {"lat": 38.89982716666667, "type": "electric_scooter", "is_disabled": 0, "rental_uris": {"android": "https://dc.lft.to/lastmile_qr_scan", "ios": "https://dc.lft.to/lastmile_qr_scan"}, "is_reserved": 0, "bike_id": "418707cb942fc7fe6d4d6feb5b34c1ae", "name": "418707cb942fc7fe6d4d6feb5b34c1ae", "fusion_lon": 0.0, "lon": -77.041944, "fusion_lat": 0.0}, {"lat": 38.917985333333334, "type": "electric_scooter", "is_disabled": 0, "rental_uris": {"android": "https://dc.lft.to/lastmile_qr_scan", "ios": "https://dc.lft.to/lastmile_qr_scan"}, "is_reserved": 0, "bike_id": "afec1b64593e4af90715c5cfa4930d40", "name": "afec1b64593e4af90715c5cfa4930d40", "fusion_lon": 0.0, "lon": -77.03186166666667, "fusion_lat": 0.0}, {"lat": 38.898326833333336, "type": "electric_scooter", "is_disabled": 0, "rental_uris": {"android": "https://dc.lft.to/lastmile_qr_scan", "ios": "https://dc.lft.to/lastmile_qr_scan"}, "is_reserved": 0, "bike_id": "8fdc476c0e5ab117fe56b2a3edfca624", "name": "8fdc476c0e5ab117fe56b2a3edfca624", "fusion_lon": 0.0, "lon": -77.0434195, "fusion_lat": 0.0}, {"lat": 38.930869666666666, "type": "electric_scooter", "is_disabled": 0, "rental_uris": {"android": "https://dc.lft.to/lastmile_qr_scan", "ios": "https://dc.lft.to/lastmile_qr_scan"}, "is_reserved": 0, "bike_id": "d76f6f745c224d601a3661e9402f4fa4", "name": "d76f6f745c224d601a3661e9402f4fa4", "fusion_lon": 0.0, "lon": -77.02794416666667, "fusion_lat": 0.0}, {"lat": 38.905763666666665, "type": "electric_scooter", "is_disabled": 0, "rental_uris": {"android": "https://dc.lft.to/lastmile_qr_scan", "ios": "https://dc.lft.to/lastmile_qr_scan"}, "is_reserved": 0, "bike_id": "1cc2aad0433024386de3f42bcb2aad71", "name": "1cc2aad0433024386de3f42bcb2aad71", "fusion_lon": 0.0, "lon": -77.00708816666666, "fusion_lat": 0.0}, {"lat": 38.867173, "type": "electric_scooter", "is_disabled": 0, "rental_uris": {"android": "https://dc.lft.to/lastmile_qr_scan", "ios": "https://dc.lft.to/lastmile_qr_scan"}, "is_reserved": 0, "bike_id": "05f81b4115efc75f85081d33e29f5709", "name": "05f81b4115efc75f85081d33e29f5709", "fusion_lon": 0.0, "lon": -76.9872585, "fusion_lat": 0.0}, {"lat": 38.915170333333336, "type": "electric_scooter", "is_disabled": 0, "rental_uris": {"android": "https://dc.lft.to/lastmile_qr_scan", "ios": "https://dc.lft.to/lastmile_qr_scan"}, "is_reserved": 0, "bike_id": "b99d5f73c863dcc6ec8464cca2e67028", "name": "b99d5f73c863dcc6ec8464cca2e67028", "fusion_lon": 0.0, "lon": -77.01206933333333, "fusion_lat": 0.0}, {"lat": 38.867188, "type": "electric_scooter", "is_disabled": 0, "rental_uris": {"android": "https://dc.lft.to/lastmile_qr_scan", "ios": "https://dc.lft.to/lastmile_qr_scan"}, "is_reserved": 0, "bike_id": "2696b079fcef0c188ad5eb23da46a775", "name": "2696b079fcef0c188ad5eb23da46a775", "fusion_lon": 0.0, "lon": -76.98729066666667, "fusion_lat": 0.0}, {"lat": 38.89336216666667, "type": "electric_scooter", "is_disabled": 0, "rental_uris": {"android": "https://dc.lft.to/lastmile_qr_scan", "ios": "https://dc.lft.to/lastmile_qr_scan"}, "is_reserved": 0, "bike_id": "9d9326df2f6b9c1fa9773f7e2ec4676c", "name": "9d9326df2f6b9c1fa9773f7e2ec4676c", "fusion_lon": 0.0, "lon": -77.05024033333333, "fusion_lat": 0.0}, {"lat": 38.86170216666667, "type": "electric_bike", "is_disabled": 0, "rental_uris": {"android": "https://dc.lft.to/lastmile_qr_scan", "ios": "https://dc.lft.to/lastmile_qr_scan"}, "is_reserved": 0, "bike_id": "9fb894b1b0472ae58e8d2c5d49ef8c9e", "name": "9fb894b1b0472ae58e8d2c5d49ef8c9e", "fusion_lon": 0.0, "lon": -77.0906255, "fusion_lat": 0.0}, {"lat": 38.91650083333333, "type": "electric_scooter", "is_disabled": 0, "rental_uris": {"android": "https://dc.lft.to/lastmile_qr_scan", "ios": "https://dc.lft.to/lastmile_qr_scan"}, "is_reserved": 0, "bike_id": "690ac65da330d8f747689328a6adee25", "name": "690ac65da330d8f747689328a6adee25", "fusion_lon": 0.0, "lon": -77.0223465, "fusion_lat": 0.0}, {"lat": 38.922494666666665, "type": "electric_scooter", "is_disabled": 0, "rental_uris": {"android": "https://dc.lft.to/lastmile_qr_scan", "ios": "https://dc.lft.to/lastmile_qr_scan"}, "is_reserved": 0, "bike_id": "ecb9702e8be7c948eda28ba6647b1164", "name": "ecb9702e8be7c948eda28ba6647b1164", "fusion_lon": 0.0, "lon": -77.04136366666667, "fusion_lat": 0.0}, {"lat": 38.903676, "type": "electric_scooter", "is_disabled": 0, "rental_uris": {"android": "https://dc.lft.to/lastmile_qr_scan", "ios": "https://dc.lft.to/lastmile_qr_scan"}, "is_reserved": 0, "bike_id": "9d70128553fbde3345f7d40aab7a7e87", "name": "9d70128553fbde3345f7d40aab7a7e87", "fusion_lon": 0.0, "lon": -77.02958816666667, "fusion_lat": 0.0}, {"lat": 38.8670395, "type": "electric_scooter", "is_disabled": 0, "rental_uris": {"android": "https://dc.lft.to/lastmile_qr_scan", "ios": "https://dc.lft.to/lastmile_qr_scan"}, "is_reserved": 0, "bike_id": "cad957ad4a9edc83d063c7c4e58a5c74", "name": "cad957ad4a9edc83d063c7c4e58a5c74", "fusion_lon": 0.0, "lon": -76.9871485, "fusion_lat": 0.0}, {"lat": 38.89832333333333, "type": "electric_scooter", "is_disabled": 0, "rental_uris": {"android": "https://dc.lft.to/lastmile_qr_scan", "ios": "https://dc.lft.to/lastmile_qr_scan"}, "is_reserved": 0, "bike_id": "3f799b87f251361db30bda6fd88f2226", "name": "3f799b87f251361db30bda6fd88f2226", "fusion_lon": 0.0, "lon": -77.02913983333333, "fusion_lat": 0.0}, {"lat": 38.956656833333334, "type": "electric_scooter", "is_disabled": 0, "rental_uris": {"android": "https://dc.lft.to/lastmile_qr_scan", "ios": "https://dc.lft.to/lastmile_qr_scan"}, "is_reserved": 0, "bike_id": "1a6da81e7b221312eb3e9db5ebaf675d", "name": "1a6da81e7b221312eb3e9db5ebaf675d", "fusion_lon": 0.0, "lon": -77.08365283333333, "fusion_lat": 0.0}, {"lat": 38.91991216666667, "type": "electric_scooter", "is_disabled": 0, "rental_uris": {"android": "https://dc.lft.to/lastmile_qr_scan", "ios": "https://dc.lft.to/lastmile_qr_scan"}, "is_reserved": 0, "bike_id": "927d056571329e97db53c050bdb9f2ec", "name": "927d056571329e97db53c050bdb9f2ec", "fusion_lon": 0.0, "lon": -77.03313283333334, "fusion_lat": 0.0}, {"lat": 38.898354, "type": "electric_scooter", "is_disabled": 0, "rental_uris": {"android": "https://dc.lft.to/lastmile_qr_scan", "ios": "https://dc.lft.to/lastmile_qr_scan"}, "is_reserved": 0, "bike_id": "43bd75d5b4824a9e1dc931196089e2b5", "name": "43bd75d5b4824a9e1dc931196089e2b5", "fusion_lon": 0.0, "lon": -76.94632283333334, "fusion_lat": 0.0}, {"lat": 38.90684366666667, "type": "electric_scooter", "is_disabled": 0, "rental_uris": {"android": "https://dc.lft.to/lastmile_qr_scan", "ios": "https://dc.lft.to/lastmile_qr_scan"}, "is_reserved": 0, "bike_id": "0bd9466ff5bba1a0cccf5d123cf114a4", "name": "0bd9466ff5bba1a0cccf5d123cf114a4", "fusion_lon": 0.0, "lon": -77.0434815, "fusion_lat": 0.0}, {"lat": 38.926489, "type": "electric_bike", "is_disabled": 0, "rental_uris": {"android": "https://dc.lft.to/lastmile_qr_scan", "ios": "https://dc.lft.to/lastmile_qr_scan"}, "is_reserved": 0, "bike_id": "c253754a0dfdff7891dd6fdb19063d01", "name": "c253754a0dfdff7891dd6fdb19063d01", "fusion_lon": 0.0, "lon": -77.02835616666667, "fusion_lat": 0.0}, {"lat": 38.907371499999996, "type": "electric_scooter", "is_disabled": 0, "rental_uris": {"android": "https://dc.lft.to/lastmile_qr_scan", "ios": "https://dc.lft.to/lastmile_qr_scan"}, "is_reserved": 0, "bike_id": "cad3acf51967673342ece7005726ee09", "name": "cad3acf51967673342ece7005726ee09", "fusion_lon": 0.0, "lon": -77.03447183333333, "fusion_lat": 0.0}, {"lat": 38.936231, "type": "electric_scooter", "is_disabled": 0, "rental_uris": {"android": "https://dc.lft.to/lastmile_qr_scan", "ios": "https://dc.lft.to/lastmile_qr_scan"}, "is_reserved": 0, "bike_id": "bbb9de9eff3e39f39210c2c6de5fdaa8", "name": "bbb9de9eff3e39f39210c2c6de5fdaa8", "fusion_lon": 0.0, "lon": -77.03243933333333, "fusion_lat": 0.0}, {"lat": 38.926153666666664, "type": "electric_scooter", "is_disabled": 0, "rental_uris": {"android": "https://dc.lft.to/lastmile_qr_scan", "ios": "https://dc.lft.to/lastmile_qr_scan"}, "is_reserved": 0, "bike_id": "393bf86d442dfba530a59fa6e6ebc450", "name": "393bf86d442dfba530a59fa6e6ebc450", "fusion_lon": 0.0, "lon": -77.02164183333333, "fusion_lat": 0.0}, {"lat": 38.99869483333333, "type": "electric_bike", "is_disabled": 0, "rental_uris": {"android": "https://dc.lft.to/lastmile_qr_scan", "ios": "https://dc.lft.to/lastmile_qr_scan"}, "is_reserved": 0, "bike_id": "05040baf3c90240308ae2dd281e73837", "name": "05040baf3c90240308ae2dd281e73837", "fusion_lon": 0.0, "lon": -77.02885766666667, "fusion_lat": 0.0}, {"lat": 38.8452015, "type": "electric_bike", "is_disabled": 0, "rental_uris": {"android": "https://dc.lft.to/lastmile_qr_scan", "ios": "https://dc.lft.to/lastmile_qr_scan"}, "is_reserved": 0, "bike_id": "354f5dec6cc6e1296446805f6b5a8766", "name": "354f5dec6cc6e1296446805f6b5a8766", "fusion_lon": 0.0, "lon": -76.97206033333333, "fusion_lat": 0.0}, {"lat": 38.91925166666667, "type": "electric_scooter", "is_disabled": 0, "rental_uris": {"android": "https://dc.lft.to/lastmile_qr_scan", "ios": "https://dc.lft.to/lastmile_qr_scan"}, "is_reserved": 0, "bike_id": "174eae3c5d37d80d12ce064970de2bcf", "name": "174eae3c5d37d80d12ce064970de2bcf", "fusion_lon": 0.0, "lon": -77.0358975, "fusion_lat": 0.0}, {"lat": 38.937043833333334, "type": "electric_bike", "is_disabled": 0, "rental_uris": {"android": "https://dc.lft.to/lastmile_qr_scan", "ios": "https://dc.lft.to/lastmile_qr_scan"}, "is_reserved": 0, "bike_id": "d3248d00488714876bab16550f280f78", "name": "d3248d00488714876bab16550f280f78", "fusion_lon": 0.0, "lon": -77.02978983333334, "fusion_lat": 0.0}, {"lat": 38.89852966666667, "type": "electric_scooter", "is_disabled": 0, "rental_uris": {"android": "https://dc.lft.to/lastmile_qr_scan", "ios": "https://dc.lft.to/lastmile_qr_scan"}, "is_reserved": 0, "bike_id": "077a1266d76696cd1a8acf3fa6e10acf", "name": "077a1266d76696cd1a8acf3fa6e10acf", "fusion_lon": 0.0, "lon": -77.0471335, "fusion_lat": 0.0}, {"lat": 38.91315433333333, "type": "electric_scooter", "is_disabled": 0, "rental_uris": {"android": "https://dc.lft.to/lastmile_qr_scan", "ios": "https://dc.lft.to/lastmile_qr_scan"}, "is_reserved": 0, "bike_id": "82c4d86a53274c33edb375db651d2eb8", "name": "82c4d86a53274c33edb375db651d2eb8", "fusion_lon": 0.0, "lon": -77.04162616666666, "fusion_lat": 0.0}, {"lat": 38.92263716666667, "type": "electric_scooter", "is_disabled": 0, "rental_uris": {"android": "https://dc.lft.to/lastmile_qr_scan", "ios": "https://dc.lft.to/lastmile_qr_scan"}, "is_reserved": 0, "bike_id": "13eae1215545f75d96ebf667265bbce7", "name": "13eae1215545f75d96ebf667265bbce7", "fusion_lon": 0.0, "lon": -77.04128166666666, "fusion_lat": 0.0}, {"lat": 38.95135233333333, "type": "electric_scooter", "is_disabled": 0, "rental_uris": {"android": "https://dc.lft.to/lastmile_qr_scan", "ios": "https://dc.lft.to/lastmile_qr_scan"}, "is_reserved": 0, "bike_id": "90c4771209e407a1c4ac1c0e1698e52e", "name": "90c4771209e407a1c4ac1c0e1698e52e", "fusion_lon": 0.0, "lon": -77.0140635, "fusion_lat": 0.0}, {"lat": 38.908717, "type": "electric_scooter", "is_disabled": 0, "rental_uris": {"android": "https://dc.lft.to/lastmile_qr_scan", "ios": "https://dc.lft.to/lastmile_qr_scan"}, "is_reserved": 0, "bike_id": "47419c79c411cc4422cfbf31f2f73849", "name": "47419c79c411cc4422cfbf31f2f73849", "fusion_lon": 0.0, "lon": -77.02690966666667, "fusion_lat": 0.0}, {"lat": 38.8869785, "type": "electric_bike", "is_disabled": 0, "rental_uris": {"android": "https://dc.lft.to/lastmile_qr_scan", "ios": "https://dc.lft.to/lastmile_qr_scan"}, "is_reserved": 0, "bike_id": "197d6e3b2f8ba9c05b403c09dae26a88", "name": "197d6e3b2f8ba9c05b403c09dae26a88", "fusion_lon": 0.0, "lon": -76.99678733333333, "fusion_lat": 0.0}, {"lat": 38.90331466666667, "type": "electric_scooter", "is_disabled": 0, "rental_uris": {"android": "https://dc.lft.to/lastmile_qr_scan", "ios": "https://dc.lft.to/lastmile_qr_scan"}, "is_reserved": 0, "bike_id": "e8d978804264f7d228d00f8c8c344ca9", "name": "e8d978804264f7d228d00f8c8c344ca9", "fusion_lon": 0.0, "lon": -77.03830383333333, "fusion_lat": 0.0}, {"lat": 38.932565333333336, "type": "electric_scooter", "is_disabled": 0, "rental_uris": {"android": "https://dc.lft.to/lastmile_qr_scan", "ios": "https://dc.lft.to/lastmile_qr_scan"}, "is_reserved": 0, "bike_id": "f1d9a6d975646b156ff0c3ca31b0acef", "name": "f1d9a6d975646b156ff0c3ca31b0acef", "fusion_lon": 0.0, "lon": -77.029748, "fusion_lat": 0.0}, {"lat": 38.91585283333333, "type": "electric_scooter", "is_disabled": 0, "rental_uris": {"android": "https://dc.lft.to/lastmile_qr_scan", "ios": "https://dc.lft.to/lastmile_qr_scan"}, "is_reserved": 0, "bike_id": "e3cff2c18ee27336f12be275a121a61b", "name": "e3cff2c18ee27336f12be275a121a61b", "fusion_lon": 0.0, "lon": -77.01998, "fusion_lat": 0.0}, {"lat": 38.91620833333333, "type": "electric_scooter", "is_disabled": 0, "rental_uris": {"android": "https://dc.lft.to/lastmile_qr_scan", "ios": "https://dc.lft.to/lastmile_qr_scan"}, "is_reserved": 0, "bike_id": "dd862edd2a5de38f631feaef5b609eb2", "name": "dd862edd2a5de38f631feaef5b609eb2", "fusion_lon": 0.0, "lon": -77.031896, "fusion_lat": 0.0}, {"lat": 38.910447, "type": "electric_scooter", "is_disabled": 0, "rental_uris": {"android": "https://dc.lft.to/lastmile_qr_scan", "ios": "https://dc.lft.to/lastmile_qr_scan"}, "is_reserved": 0, "bike_id": "508be70232d42787a01273604d7ba294", "name": "508be70232d42787a01273604d7ba294", "fusion_lon": 0.0, "lon": -77.03617316666667, "fusion_lat": 0.0}, {"lat": 38.91780166666667, "type": "electric_scooter", "is_disabled": 0, "rental_uris": {"android": "https://dc.lft.to/lastmile_qr_scan", "ios": "https://dc.lft.to/lastmile_qr_scan"}, "is_reserved": 0, "bike_id": "b5fb7d107870a62340e824ed3fb5e170", "name": "b5fb7d107870a62340e824ed3fb5e170", "fusion_lon": 0.0, "lon": -77.02312033333334, "fusion_lat": 0.0}, {"lat": 38.88584983333333, "type": "electric_scooter", "is_disabled": 0, "rental_uris": {"android": "https://dc.lft.to/lastmile_qr_scan", "ios": "https://dc.lft.to/lastmile_qr_scan"}, "is_reserved": 0, "bike_id": "9aa8d41e99fe7ab9d99da71cf1e9fd09", "name": "9aa8d41e99fe7ab9d99da71cf1e9fd09", "fusion_lon": 0.0, "lon": -77.01224183333333, "fusion_lat": 0.0}, {"lat": 38.900642833333336, "type": "electric_scooter", "is_disabled": 0, "rental_uris": {"android": "https://dc.lft.to/lastmile_qr_scan", "ios": "https://dc.lft.to/lastmile_qr_scan"}, "is_reserved": 0, "bike_id": "0ade9bb0d4163fe2c23cc104782de7ce", "name": "0ade9bb0d4163fe2c23cc104782de7ce", "fusion_lon": 0.0, "lon": -77.04885883333333, "fusion_lat": 0.0}, {"lat": 38.903406333333336, "type": "electric_bike", "is_disabled": 0, "rental_uris": {"android": "https://dc.lft.to/lastmile_qr_scan", "ios": "https://dc.lft.to/lastmile_qr_scan"}, "is_reserved": 0, "bike_id": "5f117018d3eea2bc2e5ad14997028b36", "name": "5f117018d3eea2bc2e5ad14997028b36", "fusion_lon": 0.0, "lon": -76.975284, "fusion_lat": 0.0}, {"lat": 38.916016166666665, "type": "electric_scooter", "is_disabled": 0, "rental_uris": {"android": "https://dc.lft.to/lastmile_qr_scan", "ios": "https://dc.lft.to/lastmile_qr_scan"}, "is_reserved": 0, "bike_id": "2ddc68efe7a6f06d9747bf1edb34b500", "name": "2ddc68efe7a6f06d9747bf1edb34b500", "fusion_lon": 0.0, "lon": -77.0234255, "fusion_lat": 0.0}, {"lat": 38.92015166666667, "type": "electric_scooter", "is_disabled": 0, "rental_uris": {"android": "https://dc.lft.to/lastmile_qr_scan", "ios": "https://dc.lft.to/lastmile_qr_scan"}, "is_reserved": 0, "bike_id": "51f08b4c902ad74f320d6d6df5efcbcb", "name": "51f08b4c902ad74f320d6d6df5efcbcb", "fusion_lon": 0.0, "lon": -76.99573116666667, "fusion_lat": 0.0}, {"lat": 38.88521133333333, "type": "electric_scooter", "is_disabled": 0, "rental_uris": {"android": "https://dc.lft.to/lastmile_qr_scan", "ios": "https://dc.lft.to/lastmile_qr_scan"}, "is_reserved": 0, "bike_id": "13f7620d9414ec8778d2dd6c55bec5cf", "name": "13f7620d9414ec8778d2dd6c55bec5cf", "fusion_lon": 0.0, "lon": -76.94823666666667, "fusion_lat": 0.0}, {"lat": 38.8920785, "type": "electric_bike", "is_disabled": 0, "rental_uris": {"android": "https://dc.lft.to/lastmile_qr_scan", "ios": "https://dc.lft.to/lastmile_qr_scan"}, "is_reserved": 0, "bike_id": "2ef23421083c53493e556abcc248af76", "name": "2ef23421083c53493e556abcc248af76", "fusion_lon": 0.0, "lon": -76.98552533333333, "fusion_lat": 0.0}, {"lat": 38.93961866666667, "type": "electric_scooter", "is_disabled": 0, "rental_uris": {"android": "https://dc.lft.to/lastmile_qr_scan", "ios": "https://dc.lft.to/lastmile_qr_scan"}, "is_reserved": 0, "bike_id": "221c91ba86fb2dd8fac76edb640cd7a5", "name": "221c91ba86fb2dd8fac76edb640cd7a5", "fusion_lon": 0.0, "lon": -77.027747, "fusion_lat": 0.0}, {"lat": 38.876523666666664, "type": "electric_scooter", "is_disabled": 0, "rental_uris": {"android": "https://dc.lft.to/lastmile_qr_scan", "ios": "https://dc.lft.to/lastmile_qr_scan"}, "is_reserved": 0, "bike_id": "f158180a52963aac73dd78b3ebdbd272", "name": "f158180a52963aac73dd78b3ebdbd272", "fusion_lon": 0.0, "lon": -77.00802383333334, "fusion_lat": 0.0}, {"lat": 38.917117166666664, "type": "electric_bike", "is_disabled": 0, "rental_uris": {"android": "https://dc.lft.to/lastmile_qr_scan", "ios": "https://dc.lft.to/lastmile_qr_scan"}, "is_reserved": 0, "bike_id": "aa084dc5ad7bec8de7c70bd9ec7b72ec", "name": "aa084dc5ad7bec8de7c70bd9ec7b72ec", "fusion_lon": 0.0, "lon": -77.22108966666667, "fusion_lat": 0.0}, {"lat": 38.89738216666667, "type": "electric_scooter", "is_disabled": 0, "rental_uris": {"android": "https://dc.lft.to/lastmile_qr_scan", "ios": "https://dc.lft.to/lastmile_qr_scan"}, "is_reserved": 0, "bike_id": "b61b62f474111d0eb4a3711f4f5594d3", "name": "b61b62f474111d0eb4a3711f4f5594d3", "fusion_lon": 0.0, "lon": -77.0036835, "fusion_lat": 0.0}, {"lat": 38.956138833333334, "type": "electric_scooter", "is_disabled": 0, "rental_uris": {"android": "https://dc.lft.to/lastmile_qr_scan", "ios": "https://dc.lft.to/lastmile_qr_scan"}, "is_reserved": 0, "bike_id": "988e650160a4fbd83942323aa77f9f91", "name": "988e650160a4fbd83942323aa77f9f91", "fusion_lon": 0.0, "lon": -77.02789516666667, "fusion_lat": 0.0}, {"lat": 38.862161666666665, "type": "electric_scooter", "is_disabled": 0, "rental_uris": {"android": "https://dc.lft.to/lastmile_qr_scan", "ios": "https://dc.lft.to/lastmile_qr_scan"}, "is_reserved": 0, "bike_id": "6e47a695b16dd5384f3dfee33d6671dd", "name": "6e47a695b16dd5384f3dfee33d6671dd", "fusion_lon": 0.0, "lon": -76.99465466666666, "fusion_lat": 0.0}, {"lat": 38.936725333333335, "type": "electric_bike", "is_disabled": 0, "rental_uris": {"android": "https://dc.lft.to/lastmile_qr_scan", "ios": "https://dc.lft.to/lastmile_qr_scan"}, "is_reserved": 0, "bike_id": "27febf0988a6e9a047be46344adc1a5b", "name": "27febf0988a6e9a047be46344adc1a5b", "fusion_lon": 0.0, "lon": -76.95202583333334, "fusion_lat": 0.0}, {"lat": 38.866606, "type": "electric_scooter", "is_disabled": 0, "rental_uris": {"android": "https://dc.lft.to/lastmile_qr_scan", "ios": "https://dc.lft.to/lastmile_qr_scan"}, "is_reserved": 0, "bike_id": "7bb19cf184f3363a384623ab067487ea", "name": "7bb19cf184f3363a384623ab067487ea", "fusion_lon": 0.0, "lon": -76.988827, "fusion_lat": 0.0}, {"lat": 39.038863666666664, "type": "electric_bike", "is_disabled": 0, "rental_uris": {"android": "https://dc.lft.to/lastmile_qr_scan", "ios": "https://dc.lft.to/lastmile_qr_scan"}, "is_reserved": 0, "bike_id": "2a38e510272b68e0c30bec202e58d019", "name": "2a38e510272b68e0c30bec202e58d019", "fusion_lon": 0.0, "lon": -77.10908133333334, "fusion_lat": 0.0}, {"lat": 38.897371666666665, "type": "electric_scooter", "is_disabled": 0, "rental_uris": {"android": "https://dc.lft.to/lastmile_qr_scan", "ios": "https://dc.lft.to/lastmile_qr_scan"}, "is_reserved": 0, "bike_id": "d9b66be56c328e32f7733cf205fc6300", "name": "d9b66be56c328e32f7733cf205fc6300", "fusion_lon": 0.0, "lon": -77.04230916666667, "fusion_lat": 0.0}, {"lat": 38.91842116666667, "type": "electric_scooter", "is_disabled": 0, "rental_uris": {"android": "https://dc.lft.to/lastmile_qr_scan", "ios": "https://dc.lft.to/lastmile_qr_scan"}, "is_reserved": 0, "bike_id": "d8195fcf43bf324a94199be504165843", "name": "d8195fcf43bf324a94199be504165843", "fusion_lon": 0.0, "lon": -77.03227183333334, "fusion_lat": 0.0}, {"lat": 38.943196666666665, "type": "electric_scooter", "is_disabled": 0, "rental_uris": {"android": "https://dc.lft.to/lastmile_qr_scan", "ios": "https://dc.lft.to/lastmile_qr_scan"}, "is_reserved": 0, "bike_id": "1bec17d7100b745898d25263c62db46d", "name": "1bec17d7100b745898d25263c62db46d", "fusion_lon": 0.0, "lon": -77.06169016666666, "fusion_lat": 0.0}, {"lat": 39.024993, "type": "electric_bike", "is_disabled": 0, "rental_uris": {"android": "https://dc.lft.to/lastmile_qr_scan", "ios": "https://dc.lft.to/lastmile_qr_scan"}, "is_reserved": 0, "bike_id": "fd6686b94a69757ed0056ef262465dc4", "name": "fd6686b94a69757ed0056ef262465dc4", "fusion_lon": 0.0, "lon": -77.12565466666666, "fusion_lat": 0.0}, {"lat": 38.9264225, "type": "electric_scooter", "is_disabled": 0, "rental_uris": {"android": "https://dc.lft.to/lastmile_qr_scan", "ios": "https://dc.lft.to/lastmile_qr_scan"}, "is_reserved": 0, "bike_id": "4ab1a60af7eecbe5dc852683d9e24552", "name": "4ab1a60af7eecbe5dc852683d9e24552", "fusion_lon": 0.0, "lon": -77.0350175, "fusion_lat": 0.0}, {"lat": 38.916329166666664, "type": "electric_scooter", "is_disabled": 0, "rental_uris": {"android": "https://dc.lft.to/lastmile_qr_scan", "ios": "https://dc.lft.to/lastmile_qr_scan"}, "is_reserved": 0, "bike_id": "303768b09b981e4a327a800b772b8a79", "name": "303768b09b981e4a327a800b772b8a79", "fusion_lon": 0.0, "lon": -77.03159116666667, "fusion_lat": 0.0}, {"lat": 38.890213333333335, "type": "electric_scooter", "is_disabled": 0, "rental_uris": {"android": "https://dc.lft.to/lastmile_qr_scan", "ios": "https://dc.lft.to/lastmile_qr_scan"}, "is_reserved": 0, "bike_id": "a6062eb27a79856a5abefb5c5460d9a1", "name": "a6062eb27a79856a5abefb5c5460d9a1", "fusion_lon": 0.0, "lon": -76.938407, "fusion_lat": 0.0}, {"lat": 38.93093733333333, "type": "electric_scooter", "is_disabled": 0, "rental_uris": {"android": "https://dc.lft.to/lastmile_qr_scan", "ios": "https://dc.lft.to/lastmile_qr_scan"}, "is_reserved": 0, "bike_id": "b0ba8bb01c78c0432043189181661ba0", "name": "b0ba8bb01c78c0432043189181661ba0", "fusion_lon": 0.0, "lon": -77.03622483333334, "fusion_lat": 0.0}, {"lat": 38.89612283333334, "type": "electric_scooter", "is_disabled": 0, "rental_uris": {"android": "https://dc.lft.to/lastmile_qr_scan", "ios": "https://dc.lft.to/lastmile_qr_scan"}, "is_reserved": 0, "bike_id": "d4e33554eb01e38dbfa1f0b8a018f687", "name": "d4e33554eb01e38dbfa1f0b8a018f687", "fusion_lon": 0.0, "lon": -77.04641416666666, "fusion_lat": 0.0}, {"lat": 38.93063566666667, "type": "electric_scooter", "is_disabled": 0, "rental_uris": {"android": "https://dc.lft.to/lastmile_qr_scan", "ios": "https://dc.lft.to/lastmile_qr_scan"}, "is_reserved": 0, "bike_id": "c8ec32526f285b5f9b6b2bf485151b5f", "name": "c8ec32526f285b5f9b6b2bf485151b5f", "fusion_lon": 0.0, "lon": -77.02962416666666, "fusion_lat": 0.0}, {"lat": 38.917017333333334, "type": "electric_scooter", "is_disabled": 0, "rental_uris": {"android": "https://dc.lft.to/lastmile_qr_scan", "ios": "https://dc.lft.to/lastmile_qr_scan"}, "is_reserved": 0, "bike_id": "695f9149b4c224e2bb7fb9cd15b73e06", "name": "695f9149b4c224e2bb7fb9cd15b73e06", "fusion_lon": 0.0, "lon": -77.02730666666666, "fusion_lat": 0.0}, {"lat": 38.90620533333333, "type": "electric_scooter", "is_disabled": 0, "rental_uris": {"android": "https://dc.lft.to/lastmile_qr_scan", "ios": "https://dc.lft.to/lastmile_qr_scan"}, "is_reserved": 0, "bike_id": "6ffae51e6d31cb211099104c4107a721", "name": "6ffae51e6d31cb211099104c4107a721", "fusion_lon": 0.0, "lon": -77.04360166666666, "fusion_lat": 0.0}, {"lat": 38.9096015, "type": "electric_scooter", "is_disabled": 0, "rental_uris": {"android": "https://dc.lft.to/lastmile_qr_scan", "ios": "https://dc.lft.to/lastmile_qr_scan"}, "is_reserved": 0, "bike_id": "c4e12d6f6b64705912a23f381422cd47", "name": "c4e12d6f6b64705912a23f381422cd47", "fusion_lon": 0.0, "lon": -77.048635, "fusion_lat": 0.0}, {"lat": 38.86435766666666, "type": "electric_scooter", "is_disabled": 0, "rental_uris": {"android": "https://dc.lft.to/lastmile_qr_scan", "ios": "https://dc.lft.to/lastmile_qr_scan"}, "is_reserved": 0, "bike_id": "7fb1dd4486526b49e28f717981580052", "name": "7fb1dd4486526b49e28f717981580052", "fusion_lon": 0.0, "lon": -76.98996116666666, "fusion_lat": 0.0}, {"lat": 38.936397, "type": "electric_scooter", "is_disabled": 0, "rental_uris": {"android": "https://dc.lft.to/lastmile_qr_scan", "ios": "https://dc.lft.to/lastmile_qr_scan"}, "is_reserved": 0, "bike_id": "270d7edcbfc91b70706c855da80dbc06", "name": "270d7edcbfc91b70706c855da80dbc06", "fusion_lon": 0.0, "lon": -77.026925, "fusion_lat": 0.0}, {"lat": 38.898872833333336, "type": "electric_scooter", "is_disabled": 0, "rental_uris": {"android": "https://dc.lft.to/lastmile_qr_scan", "ios": "https://dc.lft.to/lastmile_qr_scan"}, "is_reserved": 0, "bike_id": "cf344372f8715714711ca7a065573ddb", "name": "cf344372f8715714711ca7a065573ddb", "fusion_lon": 0.0, "lon": -77.02176833333333, "fusion_lat": 0.0}, {"lat": 38.90856383333333, "type": "electric_scooter", "is_disabled": 0, "rental_uris": {"android": "https://dc.lft.to/lastmile_qr_scan", "ios": "https://dc.lft.to/lastmile_qr_scan"}, "is_reserved": 0, "bike_id": "4ce71ee00f827a8c8e0f2de56c1cdc31", "name": "4ce71ee00f827a8c8e0f2de56c1cdc31", "fusion_lon": 0.0, "lon": -77.0607815, "fusion_lat": 0.0}, {"lat": 38.85522433333333, "type": "electric_bike", "is_disabled": 0, "rental_uris": {"android": "https://dc.lft.to/lastmile_qr_scan", "ios": "https://dc.lft.to/lastmile_qr_scan"}, "is_reserved": 0, "bike_id": "30632d496563db29bb99b8f1b9616e0a", "name": "30632d496563db29bb99b8f1b9616e0a", "fusion_lon": 0.0, "lon": -76.98428416666667, "fusion_lat": 0.0}, {"lat": 38.99391633333333, "type": "electric_bike", "is_disabled": 0, "rental_uris": {"android": "https://dc.lft.to/lastmile_qr_scan", "ios": "https://dc.lft.to/lastmile_qr_scan"}, "is_reserved": 0, "bike_id": "9f2d86a1e2c57564c94fa82b0d7262fa", "name": "9f2d86a1e2c57564c94fa82b0d7262fa", "fusion_lon": 0.0, "lon": -77.02398233333334, "fusion_lat": 0.0}, {"lat": 38.92891183333333, "type": "electric_scooter", "is_disabled": 0, "rental_uris": {"android": "https://dc.lft.to/lastmile_qr_scan", "ios": "https://dc.lft.to/lastmile_qr_scan"}, "is_reserved": 0, "bike_id": "71ecba2d824f49970abbd891a5b88b66", "name": "71ecba2d824f49970abbd891a5b88b66", "fusion_lon": 0.0, "lon": -77.032883, "fusion_lat": 0.0}, {"lat": 38.9086125, "type": "electric_scooter", "is_disabled": 0, "rental_uris": {"android": "https://dc.lft.to/lastmile_qr_scan", "ios": "https://dc.lft.to/lastmile_qr_scan"}, "is_reserved": 0, "bike_id": "df8792a03a10e0623c1da6da945a63dc", "name": "df8792a03a10e0623c1da6da945a63dc", "fusion_lon": 0.0, "lon": -77.047577, "fusion_lat": 0.0}, {"lat": 38.89657583333333, "type": "electric_scooter", "is_disabled": 0, "rental_uris": {"android": "https://dc.lft.to/lastmile_qr_scan", "ios": "https://dc.lft.to/lastmile_qr_scan"}, "is_reserved": 0, "bike_id": "312deceaebfd3242545d07870c658e33", "name": "312deceaebfd3242545d07870c658e33", "fusion_lon": 0.0, "lon": -77.02740966666667, "fusion_lat": 0.0}, {"lat": 38.898482666666666, "type": "electric_scooter", "is_disabled": 0, "rental_uris": {"android": "https://dc.lft.to/lastmile_qr_scan", "ios": "https://dc.lft.to/lastmile_qr_scan"}, "is_reserved": 0, "bike_id": "b935e13e17a3650a3c2f9da1e8275f8b", "name": "b935e13e17a3650a3c2f9da1e8275f8b", "fusion_lon": 0.0, "lon": -76.94630033333334, "fusion_lat": 0.0}, {"lat": 38.904894166666665, "type": "electric_scooter", "is_disabled": 0, "rental_uris": {"android": "https://dc.lft.to/lastmile_qr_scan", "ios": "https://dc.lft.to/lastmile_qr_scan"}, "is_reserved": 0, "bike_id": "9f57a16d6e1ba46a15d6bea3b9b41acf", "name": "9f57a16d6e1ba46a15d6bea3b9b41acf", "fusion_lon": 0.0, "lon": -77.0621385, "fusion_lat": 0.0}, {"lat": 38.92244616666667, "type": "electric_scooter", "is_disabled": 0, "rental_uris": {"android": "https://dc.lft.to/lastmile_qr_scan", "ios": "https://dc.lft.to/lastmile_qr_scan"}, "is_reserved": 0, "bike_id": "82d877d0e6eba34e6d4d89088242a55a", "name": "82d877d0e6eba34e6d4d89088242a55a", "fusion_lon": 0.0, "lon": -77.03082116666667, "fusion_lat": 0.0}, {"lat": 38.9153755, "type": "electric_scooter", "is_disabled": 0, "rental_uris": {"android": "https://dc.lft.to/lastmile_qr_scan", "ios": "https://dc.lft.to/lastmile_qr_scan"}, "is_reserved": 0, "bike_id": "6df67be2d6d8fb48bf5bb6275446ec1f", "name": "6df67be2d6d8fb48bf5bb6275446ec1f", "fusion_lon": 0.0, "lon": -77.0460475, "fusion_lat": 0.0}, {"lat": 38.892366, "type": "electric_scooter", "is_disabled": 0, "rental_uris": {"android": "https://dc.lft.to/lastmile_qr_scan", "ios": "https://dc.lft.to/lastmile_qr_scan"}, "is_reserved": 0, "bike_id": "d22c9964c478657a772151370eda50ae", "name": "d22c9964c478657a772151370eda50ae", "fusion_lon": 0.0, "lon": -77.031785, "fusion_lat": 0.0}, {"lat": 38.9187175, "type": "electric_scooter", "is_disabled": 0, "rental_uris": {"android": "https://dc.lft.to/lastmile_qr_scan", "ios": "https://dc.lft.to/lastmile_qr_scan"}, "is_reserved": 0, "bike_id": "3eb475fd11ca9b63e3d61aea4c4af620", "name": "3eb475fd11ca9b63e3d61aea4c4af620", "fusion_lon": 0.0, "lon": -77.04029, "fusion_lat": 0.0}, {"lat": 38.88189283333333, "type": "electric_bike", "is_disabled": 0, "rental_uris": {"android": "https://dc.lft.to/lastmile_qr_scan", "ios": "https://dc.lft.to/lastmile_qr_scan"}, "is_reserved": 0, "bike_id": "025e876ba46dcb01945080fc4848c675", "name": "025e876ba46dcb01945080fc4848c675", "fusion_lon": 0.0, "lon": -77.02811033333333, "fusion_lat": 0.0}, {"lat": 38.89845066666667, "type": "electric_scooter", "is_disabled": 0, "rental_uris": {"android": "https://dc.lft.to/lastmile_qr_scan", "ios": "https://dc.lft.to/lastmile_qr_scan"}, "is_reserved": 0, "bike_id": "ca39d044e1b17bf7b1d4dc8526437158", "name": "ca39d044e1b17bf7b1d4dc8526437158", "fusion_lon": 0.0, "lon": -77.029327, "fusion_lat": 0.0}, {"lat": 38.902828, "type": "electric_scooter", "is_disabled": 0, "rental_uris": {"android": "https://dc.lft.to/lastmile_qr_scan", "ios": "https://dc.lft.to/lastmile_qr_scan"}, "is_reserved": 0, "bike_id": "ca37c8f58aa70654f516490149d2e580", "name": "ca37c8f58aa70654f516490149d2e580", "fusion_lon": 0.0, "lon": -77.038582, "fusion_lat": 0.0}, {"lat": 38.9191595, "type": "electric_scooter", "is_disabled": 0, "rental_uris": {"android": "https://dc.lft.to/lastmile_qr_scan", "ios": "https://dc.lft.to/lastmile_qr_scan"}, "is_reserved": 0, "bike_id": "fab57fe23826f157fa86876e6f953b67", "name": "fab57fe23826f157fa86876e6f953b67", "fusion_lon": 0.0, "lon": -77.0418155, "fusion_lat": 0.0}, {"lat": 38.88741916666667, "type": "electric_scooter", "is_disabled": 0, "rental_uris": {"android": "https://dc.lft.to/lastmile_qr_scan", "ios": "https://dc.lft.to/lastmile_qr_scan"}, "is_reserved": 0, "bike_id": "226944697dcc34e9d0ed78b4259b71e3", "name": "226944697dcc34e9d0ed78b4259b71e3", "fusion_lon": 0.0, "lon": -77.0153605, "fusion_lat": 0.0}, {"lat": 39.05213283333333, "type": "electric_bike", "is_disabled": 0, "rental_uris": {"android": "https://dc.lft.to/lastmile_qr_scan", "ios": "https://dc.lft.to/lastmile_qr_scan"}, "is_reserved": 0, "bike_id": "9dd8e87e02494f415802c0af5222f2ec", "name": "9dd8e87e02494f415802c0af5222f2ec", "fusion_lon": 0.0, "lon": -77.04407066666667, "fusion_lat": 0.0}, {"lat": 38.91306183333333, "type": "electric_scooter", "is_disabled": 0, "rental_uris": {"android": "https://dc.lft.to/lastmile_qr_scan", "ios": "https://dc.lft.to/lastmile_qr_scan"}, "is_reserved": 0, "bike_id": "455ef5ce0a252e67aa6dbeb53797fb71", "name": "455ef5ce0a252e67aa6dbeb53797fb71", "fusion_lon": 0.0, "lon": -77.02027566666666, "fusion_lat": 0.0}, {"lat": 38.88672966666667, "type": "electric_scooter", "is_disabled": 0, "rental_uris": {"android": "https://dc.lft.to/lastmile_qr_scan", "ios": "https://dc.lft.to/lastmile_qr_scan"}, "is_reserved": 0, "bike_id": "73ca8c6c11b40cf1ae0c3c04e3405770", "name": "73ca8c6c11b40cf1ae0c3c04e3405770", "fusion_lon": 0.0, "lon": -77.00352533333333, "fusion_lat": 0.0}, {"lat": 38.913630833333336, "type": "electric_scooter", "is_disabled": 0, "rental_uris": {"android": "https://dc.lft.to/lastmile_qr_scan", "ios": "https://dc.lft.to/lastmile_qr_scan"}, "is_reserved": 0, "bike_id": "13888dcb6ee9b5939767657456f85e16", "name": "13888dcb6ee9b5939767657456f85e16", "fusion_lon": 0.0, "lon": -77.041595, "fusion_lat": 0.0}, {"lat": 38.9353575, "type": "electric_scooter", "is_disabled": 0, "rental_uris": {"android": "https://dc.lft.to/lastmile_qr_scan", "ios": "https://dc.lft.to/lastmile_qr_scan"}, "is_reserved": 0, "bike_id": "9613f6714cabf843d24d9e423a89b590", "name": "9613f6714cabf843d24d9e423a89b590", "fusion_lon": 0.0, "lon": -77.03255466666667, "fusion_lat": 0.0},