{"data": {"bikes": [{"fusion_lat": 0.0, "fusion_lon": 0.0, "lat": 38.90541966666667, "type": "electric_scooter", "rental_uris": {"android": "https://dc.lft.to/lastmile_qr_scan", "ios": "https://dc.lft.to/lastmile_qr_scan"}, "is_reserved": 0, "lon": -77.03033883333333, "name": "1b7cc5ce94c18788d2013e83a32b71f7", "bike_id": "1b7cc5ce94c18788d2013e83a32b71f7", "is_disabled": 0}, {"fusion_lat": 0.0, "fusion_lon": 0.0, "lat": 38.914858833333334, "type": "electric_scooter", "rental_uris": {"android": "https://dc.lft.to/lastmile_qr_scan", "ios": "https://dc.lft.to/lastmile_qr_scan"}, "is_reserved": 0, "lon": -77.02162883333334, "name": "e655ea689c857bbec20c2b2b74aa3d83", "bike_id": "e655ea689c857bbec20c2b2b74aa3d83", "is_disabled": 0}, {"fusion_lat": 0.0, "fusion_lon": 0.0, "lat": 38.902711333333336, "type": "electric_scooter", "rental_uris": {"android": "https://dc.lft.to/lastmile_qr_scan", "ios": "https://dc.lft.to/lastmile_qr_scan"}, "is_reserved": 0, "lon": -77.0382015, "name": "b1f92ae5c64a88074411ef4d25c4f324", "bike_id": "b1f92ae5c64a88074411ef4d25c4f324", "is_disabled": 0}, {"fusion_lat": 0.0, "fusion_lon": 0.0, "lat": 38.92332016666667, "type": "electric_scooter", "rental_uris": {"android": "https://dc.lft.to/lastmile_qr_scan", "ios": "https://dc.lft.to/lastmile_qr_scan"}, "is_reserved": 0, "lon": -77.01943566666667, "name": "bafcda857fe925f90a6b1f11a00daa41", "bike_id": "bafcda857fe925f90a6b1f11a00daa41", "is_disabled": 0}, {"fusion_lat": 0.0, "fusion_lon": 0.0, "lat": 38.8984835, "type": "electric_scooter", "rental_uris": {"android": "https://dc.lft.to/lastmile_qr_scan", "ios": "https://dc.lft.to/lastmile_qr_scan"}, "is_reserved": 0, "lon": -77.0333, "name": "4e251467cd6860f0907852c26a2b11b8", "bike_id": "4e251467cd6860f0907852c26a2b11b8", "is_disabled": 0}, {"fusion_lat": 0.0, "fusion_lon": 0.0, "lat": 38.901572, "type": "electric_scooter", "rental_uris": {"android": "https://dc.lft.to/lastmile_qr_scan", "ios": "https://dc.lft.to/lastmile_qr_scan"}, "is_reserved": 0, "lon": -77.0501315, "name": "df4eaa0d0b12b6630eb709b65bb5fd34", "bike_id": "df4eaa0d0b12b6630eb709b65bb5fd34", "is_disabled": 0}, {"fusion_lat": 0.0, "fusion_lon": 0.0, "lat": 38.928569333333336, "type": "electric_scooter", "rental_uris": {"android": "https://dc.lft.to/lastmile_qr_scan", "ios": "https://dc.lft.to/lastmile_qr_scan"}, "is_reserved": 0, "lon": -77.03296766666666, "name": "3bd3279846572002cea07448021fede6", "bike_id": "3bd3279846572002cea07448021fede6", "is_disabled": 0}, {"fusion_lat": 0.0, "fusion_lon": 0.0, "lat": 38.937876, "type": "electric_scooter", "rental_uris": {"android": "https://dc.lft.to/lastmile_qr_scan", "ios": "https://dc.lft.to/lastmile_qr_scan"}, "is_reserved": 0, "lon": -77.03338, "name": "5825f854d0804972fc4583ca16646e93", "bike_id": "5825f854d0804972fc4583ca16646e93", "is_disabled": 0}, {"fusion_lat": 0.0, "fusion_lon": 0.0, "lat": 38.90423283333333, "type": "electric_scooter", "rental_uris": {"android": "https://dc.lft.to/lastmile_qr_scan", "ios": "https://dc.lft.to/lastmile_qr_scan"}, "is_reserved": 0, "lon": -76.97372783333333, "name": "9b38cf20b891aad83c8ad0d2afb7f6ff", "bike_id": "9b38cf20b891aad83c8ad0d2afb7f6ff", "is_disabled": 0}, {"fusion_lat": 0.0, "fusion_lon": 0.0, "lat": 38.8996005, "type": "electric_scooter", "rental_uris": {"android": "https://dc.lft.to/lastmile_qr_scan", "ios": "https://dc.lft.to/lastmile_qr_scan"}, "is_reserved": 0, "lon": -76.97532866666667, "name": "92df7c5beb06bf37f99abe90ca40fcb0", "bike_id": "92df7c5beb06bf37f99abe90ca40fcb0", "is_disabled": 0}, {"fusion_lat": 0.0, "fusion_lon": 0.0, "lat": 38.84612766666667, "type": "electric_bike", "rental_uris": {"android": "https://dc.lft.to/lastmile_qr_scan", "ios": "https://dc.lft.to/lastmile_qr_scan"}, "is_reserved": 0, "lon": -76.969136, "name": "d8d6bf0af449242fe3e2c8e447c515e7", "bike_id": "d8d6bf0af449242fe3e2c8e447c515e7", "is_disabled": 0}, {"fusion_lat": 0.0, "fusion_lon": 0.0, "lat": 38.90866183333333, "type": "electric_scooter", "rental_uris": {"android": "https://dc.lft.to/lastmile_qr_scan", "ios": "https://dc.lft.to/lastmile_qr_scan"}, "is_reserved": 0, "lon": -76.933389, "name": "5d7227c4d16d83a2c6bf794869f0ba71", "bike_id": "5d7227c4d16d83a2c6bf794869f0ba71", "is_disabled": 0}, {"fusion_lat": 0.0, "fusion_lon": 0.0, "lat": 38.9012865, "type": "electric_scooter", "rental_uris": {"android": "https://dc.lft.to/lastmile_qr_scan", "ios": "https://dc.lft.to/lastmile_qr_scan"}, "is_reserved": 0, "lon": -77.05403466666667, "name": "74013871bde74122e5b1334e5df3a8b9", "bike_id": "74013871bde74122e5b1334e5df3a8b9", "is_disabled": 0}, {"fusion_lat": 0.0, "fusion_lon": 0.0, "lat": 38.8756605, "type": "electric_scooter", "rental_uris": {"android": "https://dc.lft.to/lastmile_qr_scan", "ios": "https://dc.lft.to/lastmile_qr_scan"}, "is_reserved": 0, "lon": -77.00572616666666, "name": "d2b986c2de603c32402850e5817e6ba5", "bike_id": "d2b986c2de603c32402850e5817e6ba5", "is_disabled": 0}, {"fusion_lat": 0.0, "fusion_lon": 0.0, "lat": 38.9258425, "type": "electric_scooter", "rental_uris": {"android": "https://dc.lft.to/lastmile_qr_scan", "ios": "https://dc.lft.to/lastmile_qr_scan"}, "is_reserved": 0, "lon": -77.05416983333333, "name": "0d466d88f9ed586d108ea55b6e32e963", "bike_id": "0d466d88f9ed586d108ea55b6e32e963", "is_disabled": 0}, {"fusion_lat": 0.0, "fusion_lon": 0.0, "lat": 38.8595505, "type": "electric_scooter", "rental_uris": {"android": "https://dc.lft.to/lastmile_qr_scan", "ios": "https://dc.lft.to/lastmile_qr_scan"}, "is_reserved": 0, "lon": -76.9857505, "name": "3b4fb37d2a2cdefee6ae89a095be66f8", "bike_id": "3b4fb37d2a2cdefee6ae89a095be66f8", "is_disabled": 0}, {"fusion_lat": 0.0, "fusion_lon": 0.0, "lat": 38.990946, "type": "electric_bike", "rental_uris": {"android": "https://dc.lft.to/lastmile_qr_scan", "ios": "https://dc.lft.to/lastmile_qr_scan"}, "is_reserved": 0, "lon": -76.9936485, "name": "f1543047f25cc53a23bc1bddd50e6cf0", "bike_id": "f1543047f25cc53a23bc1bddd50e6cf0", "is_disabled": 0}, {"fusion_lat": 0.0, "fusion_lon": 0.0, "lat": 38.928604666666665, "type": "electric_scooter", "rental_uris": {"android": "https://dc.lft.to/lastmile_qr_scan", "ios": "https://dc.lft.to/lastmile_qr_scan"}, "is_reserved": 0, "lon": -77.032846, "name": "d399a5a07ed2285a4a8b2c9e8d3fb6c4", "bike_id": "d399a5a07ed2285a4a8b2c9e8d3fb6c4", "is_disabled": 0}, {"fusion_lat": 0.0, "fusion_lon": 0.0, "lat": 38.926255, "type": "electric_scooter", "rental_uris": {"android": "https://dc.lft.to/lastmile_qr_scan", "ios": "https://dc.lft.to/lastmile_qr_scan"}, "is_reserved": 0, "lon": -77.03771516666667, "name": "db690044dac604b1f67c58151384df73", "bike_id": "db690044dac604b1f67c58151384df73", "is_disabled": 0}, {"fusion_lat": 0.0, "fusion_lon": 0.0, "lat": 38.916686166666665, "type": "electric_scooter", "rental_uris": {"android": "https://dc.lft.to/lastmile_qr_scan", "ios": "https://dc.lft.to/lastmile_qr_scan"}, "is_reserved": 0, "lon": -76.98170783333333, "name": "4b0470052b2701abb2cfaa8cf04edd54", "bike_id": "4b0470052b2701abb2cfaa8cf04edd54", "is_disabled": 0}, {"fusion_lat": 0.0, "fusion_lon": 0.0, "lat": 38.898337, "type": "electric_scooter", "rental_uris": {"android": "https://dc.lft.to/lastmile_qr_scan", "ios": "https://dc.lft.to/lastmile_qr_scan"}, "is_reserved": 0, "lon": -77.033331, "name": "c854f22b2509ba9222dfac6394876343", "bike_id": "c854f22b2509ba9222dfac6394876343", "is_disabled": 0}, {"fusion_lat": 0.0, "fusion_lon": 0.0, "lat": 38.9194345, "type": "electric_scooter", "rental_uris": {"android": "https://dc.lft.to/lastmile_qr_scan", "ios": "https://dc.lft.to/lastmile_qr_scan"}, "is_reserved": 0, "lon": -77.025097, "name": "b759d18eb221ccbaef9e15d6420ce4ff", "bike_id": "b759d18eb221ccbaef9e15d6420ce4ff", "is_disabled": 0}, {"fusion_lat": 0.0, "fusion_lon": 0.0, "lat": 38.901226666666666, "type": "electric_scooter", "rental_uris": {"android": "https://dc.lft.to/lastmile_qr_scan", "ios": "https://dc.lft.to/lastmile_qr_scan"}, "is_reserved": 0, "lon": -77.03191166666667, "name": "1eeba8af60e3d1406086bdf7be1f5214", "bike_id": "1eeba8af60e3d1406086bdf7be1f5214", "is_disabled": 0}, {"fusion_lat": 0.0, "fusion_lon": 0.0, "lat": 38.885, "type": "electric_scooter", "rental_uris": {"android": "https://dc.lft.to/lastmile_qr_scan", "ios": "https://dc.lft.to/lastmile_qr_scan"}, "is_reserved": 0, "lon": -77.007288, "name": "4d4b1cd8196ac01bdfbb3182204ab776", "bike_id": "4d4b1cd8196ac01bdfbb3182204ab776", "is_disabled": 0}, {"fusion_lat": 0.0, "fusion_lon": 0.0, "lat": 38.90988933333333, "type": "electric_scooter", "rental_uris": {"android": "https://dc.lft.to/lastmile_qr_scan", "ios": "https://dc.lft.to/lastmile_qr_scan"}, "is_reserved": 0, "lon": -77.042559, "name": "1253f95d4d94fb847e300307e31a7f5e", "bike_id": "1253f95d4d94fb847e300307e31a7f5e", "is_disabled": 0}, {"fusion_lat": 0.0, "fusion_lon": 0.0, "lat": 38.8781945, "type": "electric_scooter", "rental_uris": {"android": "https://dc.lft.to/lastmile_qr_scan", "ios": "https://dc.lft.to/lastmile_qr_scan"}, "is_reserved": 0, "lon": -76.97166383333334, "name": "f5fc49af31718321cdb3ab3318773e1f", "bike_id": "f5fc49af31718321cdb3ab3318773e1f", "is_disabled": 0}, {"fusion_lat": 0.0, "fusion_lon": 0.0, "lat": 38.892993, "type": "electric_scooter", "rental_uris": {"android": "https://dc.lft.to/lastmile_qr_scan", "ios": "https://dc.lft.to/lastmile_qr_scan"}, "is_reserved": 0, "lon": -77.04502533333333, "name": "536d781e1a459ca84acb5568e5cb1d16", "bike_id": "536d781e1a459ca84acb5568e5cb1d16", "is_disabled": 0}, {"fusion_lat": 0.0, "fusion_lon": 0.0, "lat": 38.906432833333334, "type": "electric_scooter", "rental_uris": {"android": "https://dc.lft.to/lastmile_qr_scan", "ios": "https://dc.lft.to/lastmile_qr_scan"}, "is_reserved": 0, "lon": -77.07006916666667, "name": "93fe1da605d224a8b4f2de0542e21103", "bike_id": "93fe1da605d224a8b4f2de0542e21103", "is_disabled": 0}, {"fusion_lat": 0.0, "fusion_lon": 0.0, "lat": 38.9090935, "type": "electric_scooter", "rental_uris": {"android": "https://dc.lft.to/lastmile_qr_scan", "ios": "https://dc.lft.to/lastmile_qr_scan"}, "is_reserved": 0, "lon": -77.032055, "name": "4ced5a8f88d757b38f27494303d7bbd2", "bike_id": "4ced5a8f88d757b38f27494303d7bbd2", "is_disabled": 0}, {"fusion_lat": 0.0, "fusion_lon": 0.0, "lat": 38.883994333333334, "type": "electric_bike", "rental_uris": {"android": "https://dc.lft.to/lastmile_qr_scan", "ios": "https://dc.lft.to/lastmile_qr_scan"}, "is_reserved": 0, "lon": -76.960524, "name": "0fac4a34d521c4d1160e2620a1437ad2", "bike_id": "0fac4a34d521c4d1160e2620a1437ad2", "is_disabled": 0}, {"fusion_lat": 0.0, "fusion_lon": 0.0, "lat": 38.891062166666664, "type": "electric_scooter", "rental_uris": {"android": "https://dc.lft.to/lastmile_qr_scan", "ios": "https://dc.lft.to/lastmile_qr_scan"}, "is_reserved": 0, "lon": -77.00197966666667, "name": "853c26abd641eb81aab275a2b72b7dba", "bike_id": "853c26abd641eb81aab275a2b72b7dba", "is_disabled": 0}, {"fusion_lat": 0.0, "fusion_lon": 0.0, "lat": 38.902684666666666, "type": "electric_scooter", "rental_uris": {"android": "https://dc.lft.to/lastmile_qr_scan", "ios": "https://dc.lft.to/lastmile_qr_scan"}, "is_reserved": 0, "lon": -77.03856833333333, "name": "d6b5e06709150d2eab3f27ab0e82bbf4", "bike_id": "d6b5e06709150d2eab3f27ab0e82bbf4", "is_disabled": 0}, {"fusion_lat": 0.0, "fusion_lon": 0.0, "lat": 38.91815716666667, "type": "electric_scooter", "rental_uris": {"android": "https://dc.lft.to/lastmile_qr_scan", "ios": "https://dc.lft.to/lastmile_qr_scan"}, "is_reserved": 0, "lon": -77.03978983333333, "name": "2cd09e3066cdb331ea8500f6a095fa3c", "bike_id": "2cd09e3066cdb331ea8500f6a095fa3c", "is_disabled": 0}, {"fusion_lat": 0.0, "fusion_lon": 0.0, "lat": 38.901427166666664, "type": "electric_scooter", "rental_uris": {"android": "https://dc.lft.to/lastmile_qr_scan", "ios": "https://dc.lft.to/lastmile_qr_scan"}, "is_reserved": 0, "lon": -77.03254816666667, "name": "ca6745da1cfabaeebd0b486cc0835029", "bike_id": "ca6745da1cfabaeebd0b486cc0835029", "is_disabled": 0}, {"fusion_lat": 0.0, "fusion_lon": 0.0, "lat": 39.05102083333333, "type": "electric_bike", "rental_uris": {"android": "https://dc.lft.to/lastmile_qr_scan", "ios": "https://dc.lft.to/lastmile_qr_scan"}, "is_reserved": 0, "lon": -77.1171535, "name": "55ad10305656123d6cad8202eae92669", "bike_id": "55ad10305656123d6cad8202eae92669", "is_disabled": 0}, {"fusion_lat": 0.0, "fusion_lon": 0.0, "lat": 38.901986, "type": "electric_scooter", "rental_uris": {"android": "https://dc.lft.to/lastmile_qr_scan", "ios": "https://dc.lft.to/lastmile_qr_scan"}, "is_reserved": 0, "lon": -77.04174633333334, "name": "4a9f6e42db271baa0fbe2954399d15ea", "bike_id": "4a9f6e42db271baa0fbe2954399d15ea", "is_disabled": 0}, {"fusion_lat": 0.0, "fusion_lon": 0.0, "lat": 38.99226266666667, "type": "electric_scooter", "rental_uris": {"android": "https://dc.lft.to/lastmile_qr_scan", "ios": "https://dc.lft.to/lastmile_qr_scan"}, "is_reserved": 0, "lon": -77.03584733333334, "name": "28bbe6586692ee4b3c42e1e3413ce9cd", "bike_id": "28bbe6586692ee4b3c42e1e3413ce9cd", "is_disabled": 0}, {"fusion_lat": 0.0, "fusion_lon": 0.0, "lat": 38.88032883333333, "type": "electric_scooter", "rental_uris": {"android": "https://dc.lft.to/lastmile_qr_scan", "ios": "https://dc.lft.to/lastmile_qr_scan"}, "is_reserved": 0, "lon": -77.024992, "name": "bc8b4f130e16586f668861a21981a810", "bike_id": "bc8b4f130e16586f668861a21981a810", "is_disabled": 0}, {"fusion_lat": 0.0, "fusion_lon": 0.0, "lat": 38.91738433333333, "type": "electric_scooter", "rental_uris": {"android": "https://dc.lft.to/lastmile_qr_scan", "ios": "https://dc.lft.to/lastmile_qr_scan"}, "is_reserved": 0, "lon": -77.03180583333334, "name": "db58a41131e9cba112a4675f1e4de017", "bike_id": "db58a41131e9cba112a4675f1e4de017", "is_disabled": 0}, {"fusion_lat": 0.0, "fusion_lon": 0.0, "lat": 38.903708, "type": "electric_scooter", "rental_uris": {"android": "https://dc.lft.to/lastmile_qr_scan", "ios": "https://dc.lft.to/lastmile_qr_scan"}, "is_reserved": 0, "lon": -77.03545366666667, "name": "cd9b259dcc21fe7d902e2545be34fd39", "bike_id": "cd9b259dcc21fe7d902e2545be34fd39", "is_disabled": 0}, {"fusion_lat": 0.0, "fusion_lon": 0.0, "lat": 38.85891866666667, "type": "electric_bike", "rental_uris": {"android": "https://dc.lft.to/lastmile_qr_scan", "ios": "https://dc.lft.to/lastmile_qr_scan"}, "is_reserved": 0, "lon": -77.11860683333333, "name": "6bc21cd599863c8014e5525d7cffd73b", "bike_id": "6bc21cd599863c8014e5525d7cffd73b", "is_disabled": 0}, {"fusion_lat": 0.0, "fusion_lon": 0.0, "lat": 38.88514033333333, "type": "electric_scooter", "rental_uris": {"android": "https://dc.lft.to/lastmile_qr_scan", "ios": "https://dc.lft.to/lastmile_qr_scan"}, "is_reserved": 0, "lon": -77.00226633333334, "name": "2f193665a1b4b9e20101a3f7c56abc14", "bike_id": "2f193665a1b4b9e20101a3f7c56abc14", "is_disabled": 0}, {"fusion_lat": 0.0, "fusion_lon": 0.0, "lat": 38.901373666666665, "type": "electric_scooter", "rental_uris": {"android": "https://dc.lft.to/lastmile_qr_scan", "ios": "https://dc.lft.to/lastmile_qr_scan"}, "is_reserved": 0, "lon": -77.03239833333333, "name": "2e1af8377651c43d9abcfd4b669303e9", "bike_id": "2e1af8377651c43d9abcfd4b669303e9", "is_disabled": 0}, {"fusion_lat": 0.0, "fusion_lon": 0.0, "lat": 38.87467066666667, "type": "electric_scooter", "rental_uris": {"android": "https://dc.lft.to/lastmile_qr_scan", "ios": "https://dc.lft.to/lastmile_qr_scan"}, "is_reserved": 0, "lon": -77.00496916666667, "name": "eaa246f37bb11ff2298c44b36f191af0", "bike_id": "eaa246f37bb11ff2298c44b36f191af0", "is_disabled": 0}, {"fusion_lat": 0.0, "fusion_lon": 0.0, "lat": 38.919943833333335, "type": "electric_scooter", "rental_uris": {"android": "https://dc.lft.to/lastmile_qr_scan", "ios": "https://dc.lft.to/lastmile_qr_scan"}, "is_reserved": 0, "lon": -77.0327105, "name": "7c8723afa9ab1a1b207a56a3ac0c143e", "bike_id": "7c8723afa9ab1a1b207a56a3ac0c143e", "is_disabled": 0}, {"fusion_lat": 0.0, "fusion_lon": 0.0, "lat": 38.9034185, "type": "electric_scooter", "rental_uris": {"android": "https://dc.lft.to/lastmile_qr_scan", "ios": "https://dc.lft.to/lastmile_qr_scan"}, "is_reserved": 0, "lon": -77.0163065, "name": "c4c08eb8a2c3c042e541b2d5f9b73b8f", "bike_id": "c4c08eb8a2c3c042e541b2d5f9b73b8f", "is_disabled": 0}, {"fusion_lat": 0.0, "fusion_lon": 0.0, "lat": 38.86687883333333, "type": "electric_scooter", "rental_uris": {"android": "https://dc.lft.to/lastmile_qr_scan", "ios": "https://dc.lft.to/lastmile_qr_scan"}, "is_reserved": 0, "lon": -76.98543366666667, "name": "bbbc18af44727a0bdaa16a60595f742d", "bike_id": "bbbc18af44727a0bdaa16a60595f742d", "is_disabled": 0}, {"fusion_lat": 0.0, "fusion_lon": 0.0, "lat": 38.921228666666664, "type": "electric_scooter", "rental_uris": {"android": "https://dc.lft.to/lastmile_qr_scan", "ios": "https://dc.lft.to/lastmile_qr_scan"}, "is_reserved": 0, "lon": -77.02088833333333, "name": "b3220040f61a3a5001df283a65f7968b", "bike_id": "b3220040f61a3a5001df283a65f7968b", "is_disabled": 0}, {"fusion_lat": 0.0, "fusion_lon": 0.0, "lat": 38.935328166666665, "type": "electric_scooter", "rental_uris": {"android": "https://dc.lft.to/lastmile_qr_scan", "ios": "https://dc.lft.to/lastmile_qr_scan"}, "is_reserved": 0, "lon": -77.023549, "name": "a58c2e60a4db70b9fa3764a046fbd522", "bike_id": "a58c2e60a4db70b9fa3764a046fbd522", "is_disabled": 0}, {"fusion_lat": 0.0, "fusion_lon": 0.0, "lat": 38.9390725, "type": "electric_scooter", "rental_uris": {"android": "https://dc.lft.to/lastmile_qr_scan", "ios": "https://dc.lft.to/lastmile_qr_scan"}, "is_reserved": 0, "lon": -77.08484933333334, "name": "ec1bede48f55105110e367e0092baac5", "bike_id": "ec1bede48f55105110e367e0092baac5", "is_disabled": 0}, {"fusion_lat": 0.0, "fusion_lon": 0.0, "lat": 38.90120833333334, "type": "electric_scooter", "rental_uris": {"android": "https://dc.lft.to/lastmile_qr_scan", "ios": "https://dc.lft.to/lastmile_qr_scan"}, "is_reserved": 0, "lon": -77.028272, "name": "4401b7966109b657b64f41db4dfb2f35", "bike_id": "4401b7966109b657b64f41db4dfb2f35", "is_disabled": 0}, {"fusion_lat": 0.0, "fusion_lon": 0.0, "lat": 38.908070333333335, "type": "electric_scooter", "rental_uris": {"android": "https://dc.lft.to/lastmile_qr_scan", "ios": "https://dc.lft.to/lastmile_qr_scan"}, "is_reserved": 0, "lon": -77.03843516666667, "name": "110ecc3865d2061a5bfddf69aa9ad08a", "bike_id": "110ecc3865d2061a5bfddf69aa9ad08a", "is_disabled": 0}, {"fusion_lat": 0.0, "fusion_lon": 0.0, "lat": 38.95636433333333, "type": "electric_bike", "rental_uris": {"android": "https://dc.lft.to/lastmile_qr_scan", "ios": "https://dc.lft.to/lastmile_qr_scan"}, "is_reserved": 0, "lon": -76.93870316666667, "name": "ad6cc4846935f69154b15bb6e5ee3976", "bike_id": "ad6cc4846935f69154b15bb6e5ee3976", "is_disabled": 0}, {"fusion_lat": 0.0, "fusion_lon": 0.0, "lat": 38.9086475, "type": "electric_scooter", "rental_uris": {"android": "https://dc.lft.to/lastmile_qr_scan", "ios": "https://dc.lft.to/lastmile_qr_scan"}, "is_reserved": 0, "lon": -77.00356016666667, "name": "13c5ecab804137642c4657634273cbac", "bike_id": "13c5ecab804137642c4657634273cbac", "is_disabled": 0}, {"fusion_lat": 0.0, "fusion_lon": 0.0, "lat": 38.9018655, "type": "electric_scooter", "rental_uris": {"android": "https://dc.lft.to/lastmile_qr_scan", "ios": "https://dc.lft.to/lastmile_qr_scan"}, "is_reserved": 0, "lon": -76.93471316666667, "name": "627ee1a596ed571b251a0420912e6d1f", "bike_id": "627ee1a596ed571b251a0420912e6d1f", "is_disabled": 0}, {"fusion_lat": 0.0, "fusion_lon": 0.0, "lat": 38.92211566666667, "type": "electric_bike", "rental_uris": {"android": "https://dc.lft.to/lastmile_qr_scan", "ios": "https://dc.lft.to/lastmile_qr_scan"}, "is_reserved": 0, "lon": -77.04189183333334, "name": "1aafa471781e79c68f375be48dbe89b4", "bike_id": "1aafa471781e79c68f375be48dbe89b4", "is_disabled": 0}, {"fusion_lat": 0.0, "fusion_lon": 0.0, "lat": 38.914727, "type": "electric_scooter", "rental_uris": {"android": "https://dc.lft.to/lastmile_qr_scan", "ios": "https://dc.lft.to/lastmile_qr_scan"}, "is_reserved": 0, "lon": -77.045599, "name": "e97f9ae528d238c871e9f92a97aa16c5", "bike_id": "e97f9ae528d238c871e9f92a97aa16c5", "is_disabled": 0}, {"fusion_lat": 0.0, "fusion_lon": 0.0, "lat": 38.906954666666664, "type": "electric_scooter", "rental_uris": {"android": "https://dc.lft.to/lastmile_qr_scan", "ios": "https://dc.lft.to/lastmile_qr_scan"}, "is_reserved": 0, "lon": -77.02399783333334, "name": "defc3c25e6ea1343a2db8f938f4ad2b1", "bike_id": "defc3c25e6ea1343a2db8f938f4ad2b1", "is_disabled": 0}, {"fusion_lat": 0.0, "fusion_lon": 0.0, "lat": 38.90386133333333, "type": "electric_scooter", "rental_uris": {"android": "https://dc.lft.to/lastmile_qr_scan", "ios": "https://dc.lft.to/lastmile_qr_scan"}, "is_reserved": 0, "lon": -77.03211066666667, "name": "d1c18b25baa37fe3596e17fd3c44e49f", "bike_id": "d1c18b25baa37fe3596e17fd3c44e49f", "is_disabled": 0}, {"fusion_lat": 0.0, "fusion_lon": 0.0, "lat": 38.899634166666665, "type": "electric_bike", "rental_uris": {"android": "https://dc.lft.to/lastmile_qr_scan", "ios": "https://dc.lft.to/lastmile_qr_scan"}, "is_reserved": 0, "lon": -77.020801, "name": "2219c91ab2be76ce1debce96447d3d01", "bike_id": "2219c91ab2be76ce1debce96447d3d01", "is_disabled": 0}, {"fusion_lat": 0.0, "fusion_lon": 0.0, "lat": 38.90307683333333, "type": "electric_scooter", "rental_uris": {"android": "https://dc.lft.to/lastmile_qr_scan", "ios": "https://dc.lft.to/lastmile_qr_scan"}, "is_reserved": 0, "lon": -77.0344995, "name": "c6853a28e78d4feeeae6ee6c0b1520ca", "bike_id": "c6853a28e78d4feeeae6ee6c0b1520ca", "is_disabled": 0}, {"fusion_lat": 0.0, "fusion_lon": 0.0, "lat": 38.9114915, "type": "electric_scooter", "rental_uris": {"android": "https://dc.lft.to/lastmile_qr_scan", "ios": "https://dc.lft.to/lastmile_qr_scan"}, "is_reserved": 0, "lon": -77.00662233333334, "name": "ce3b328728f2efabe31d3a087d07c288", "bike_id": "ce3b328728f2efabe31d3a087d07c288", "is_disabled": 0}, {"fusion_lat": 0.0, "fusion_lon": 0.0, "lat": 38.9062385, "type": "electric_scooter", "rental_uris": {"android": "https://dc.lft.to/lastmile_qr_scan", "ios": "https://dc.lft.to/lastmile_qr_scan"}, "is_reserved": 0, "lon": -77.03898666666667, "name": "ee8d8f567a71cd6612d49dfdb8c24096", "bike_id": "ee8d8f567a71cd6612d49dfdb8c24096", "is_disabled": 0}, {"fusion_lat": 0.0, "fusion_lon": 0.0, "lat": 38.90088466666667, "type": "electric_scooter", "rental_uris": {"android": "https://dc.lft.to/lastmile_qr_scan", "ios": "https://dc.lft.to/lastmile_qr_scan"}, "is_reserved": 0, "lon": -76.98336383333333, "name": "dedfc0ae7f3c7fb87bc1e5533f6782ad", "bike_id": "dedfc0ae7f3c7fb87bc1e5533f6782ad", "is_disabled": 0}, {"fusion_lat": 0.0, "fusion_lon": 0.0, "lat": 38.88713833333333, "type": "electric_scooter", "rental_uris": {"android": "https://dc.lft.to/lastmile_qr_scan", "ios": "https://dc.lft.to/lastmile_qr_scan"}, "is_reserved": 0, "lon": -77.01773216666666, "name": "cc016fa205ac49f8d6200667380a6a89", "bike_id": "cc016fa205ac49f8d6200667380a6a89", "is_disabled": 0}, {"fusion_lat": 0.0, "fusion_lon": 0.0, "lat": 38.914984, "type": "electric_scooter", "rental_uris": {"android": "https://dc.lft.to/lastmile_qr_scan", "ios": "https://dc.lft.to/lastmile_qr_scan"}, "is_reserved": 0, "lon": -76.98364516666666, "name": "14831ce6081fb2e47898c9a4a6468e95", "bike_id": "14831ce6081fb2e47898c9a4a6468e95", "is_disabled": 0}, {"fusion_lat": 0.0, "fusion_lon": 0.0, "lat": 38.917676166666666, "type": "electric_scooter", "rental_uris": {"android": "https://dc.lft.to/lastmile_qr_scan", "ios": "https://dc.lft.to/lastmile_qr_scan"}, "is_reserved": 0, "lon": -77.03847233333333, "name": "c94aaf486e4b6b9ae63cbef4cf38a76d", "bike_id": "c94aaf486e4b6b9ae63cbef4cf38a76d", "is_disabled": 0}, {"fusion_lat": 0.0, "fusion_lon": 0.0, "lat": 38.928552833333335, "type": "electric_scooter", "rental_uris": {"android": "https://dc.lft.to/lastmile_qr_scan", "ios": "https://dc.lft.to/lastmile_qr_scan"}, "is_reserved": 0, "lon": -77.05433416666666, "name": "3f2d5f9106a43392ad34b967d8155706", "bike_id": "3f2d5f9106a43392ad34b967d8155706", "is_disabled": 0}, {"fusion_lat": 0.0, "fusion_lon": 0.0, "lat": 38.92064666666667, "type": "electric_bike", "rental_uris": {"android": "https://dc.lft.to/lastmile_qr_scan", "ios": "https://dc.lft.to/lastmile_qr_scan"}, "is_reserved": 0, "lon": -76.995843, "name": "13824b006b488904c7fcfa0b3cf92ab7", "bike_id": "13824b006b488904c7fcfa0b3cf92ab7", "is_disabled": 0}, {"fusion_lat": 0.0, "fusion_lon": 0.0, "lat": 38.90376633333333, "type": "electric_scooter", "rental_uris": {"android": "https://dc.lft.to/lastmile_qr_scan", "ios": "https://dc.lft.to/lastmile_qr_scan"}, "is_reserved": 0, "lon": -77.032153, "name": "8d5670d3c04b320a0338299e623c6cae", "bike_id": "8d5670d3c04b320a0338299e623c6cae", "is_disabled": 0}, {"fusion_lat": 0.0, "fusion_lon": 0.0, "lat": 38.89766433333333, "type": "electric_scooter", "rental_uris": {"android": "https://dc.lft.to/lastmile_qr_scan", "ios": "https://dc.lft.to/lastmile_qr_scan"}, "is_reserved": 0, "lon": -77.03012766666667, "name": "73a7b44fff5d88e7ea3105d50f17b710", "bike_id": "73a7b44fff5d88e7ea3105d50f17b710", "is_disabled": 0}, {"fusion_lat": 0.0, "fusion_lon": 0.0, "lat": 38.9461905, "type": "electric_bike", "rental_uris": {"android": "https://dc.lft.to/lastmile_qr_scan", "ios": "https://dc.lft.to/lastmile_qr_scan"}, "is_reserved": 0, "lon": -77.09672266666666, "name": "75177b9e7a6429a5fd37b4c95970e85d", "bike_id": "75177b9e7a6429a5fd37b4c95970e85d", "is_disabled": 0}, {"fusion_lat": 0.0, "fusion_lon": 0.0, "lat": 38.89720666666667, "type": "electric_scooter", "rental_uris": {"android": "https://dc.lft.to/lastmile_qr_scan", "ios": "https://dc.lft.to/lastmile_qr_scan"}, "is_reserved": 0, "lon": -77.02566516666667, "name": "c136438c6d0c84e065a41b596c641d9f", "bike_id": "c136438c6d0c84e065a41b596c641d9f", "is_disabled": 0}, {"fusion_lat": 0.0, "fusion_lon": 0.0, "lat": 38.911146333333335, "type": "electric_scooter", "rental_uris": {"android": "https://dc.lft.to/lastmile_qr_scan", "ios": "https://dc.lft.to/lastmile_qr_scan"}, "is_reserved": 0, "lon": -77.03917333333334, "name": "ee63e1ae10277521b2562e3523ff5f5e", "bike_id": "ee63e1ae10277521b2562e3523ff5f5e", "is_disabled": 0}, {"fusion_lat": 0.0, "fusion_lon": 0.0, "lat": 38.8964035, "type": "electric_scooter", "rental_uris": {"android": "https://dc.lft.to/lastmile_qr_scan", "ios": "https://dc.lft.to/lastmile_qr_scan"}, "is_reserved": 0, "lon": -77.02164216666667, "name": "48d884082d9ac1d3ef40f91a7a684377", "bike_id": "48d884082d9ac1d3ef40f91a7a684377", "is_disabled": 0}, {"fusion_lat": 0.0, "fusion_lon": 0.0, "lat": 38.88411933333333, "type": "electric_scooter", "rental_uris": {"android": "https://dc.lft.to/lastmile_qr_scan", "ios": "https://dc.lft.to/lastmile_qr_scan"}, "is_reserved": 0, "lon": -77.0197035, "name": "15a9b1120500a69d372971ac2db13fce", "bike_id": "15a9b1120500a69d372971ac2db13fce", "is_disabled": 0}, {"fusion_lat": 0.0, "fusion_lon": 0.0, "lat": 38.918787, "type": "electric_scooter", "rental_uris": {"android": "https://dc.lft.to/lastmile_qr_scan", "ios": "https://dc.lft.to/lastmile_qr_scan"}, "is_reserved": 0, "lon": -77.02473883333333, "name": "a5ad966033c1d89b0c0dcec97fa70236", "bike_id": "a5ad966033c1d89b0c0dcec97fa70236", "is_disabled": 0}, {"fusion_lat": 0.0, "fusion_lon": 0.0, "lat": 38.87867283333333, "type": "electric_scooter", "rental_uris": {"android": "https://dc.lft.to/lastmile_qr_scan", "ios": "https://dc.lft.to/lastmile_qr_scan"}, "is_reserved": 0, "lon": -76.96983216666666, "name": "01ed626440ac8c8ad842f05e9a285768", "bike_id": "01ed626440ac8c8ad842f05e9a285768", "is_disabled": 0}, {"fusion_lat": 0.0, "fusion_lon": 0.0, "lat": 38.89845066666667, "type": "electric_scooter", "rental_uris": {"android": "https://dc.lft.to/lastmile_qr_scan", "ios": "https://dc.lft.to/lastmile_qr_scan"}, "is_reserved": 0, "lon": -76.94246733333334, "name": "4b4855afe690578e1660784353b9ffeb", "bike_id": "4b4855afe690578e1660784353b9ffeb", "is_disabled": 0}, {"fusion_lat": 0.0, "fusion_lon": 0.0, "lat": 38.88848933333333, "type": "electric_scooter", "rental_uris": {"android": "https://dc.lft.to/lastmile_qr_scan", "ios": "https://dc.lft.to/lastmile_qr_scan"}, "is_reserved": 0, "lon": -76.92678216666667, "name": "fcd103e07d19fda251e4d9ca9fdd5987", "bike_id": "fcd103e07d19fda251e4d9ca9fdd5987", "is_disabled": 0}, {"fusion_lat": 0.0, "fusion_lon": 0.0, "lat": 38.903820333333336, "type": "electric_scooter", "rental_uris": {"android": "https://dc.lft.to/lastmile_qr_scan", "ios": "https://dc.lft.to/lastmile_qr_scan"}, "is_reserved": 0, "lon": -77.05350783333333, "name": "4c8c9e06b4521c67b4d1e6707011bc6e", "bike_id": "4c8c9e06b4521c67b4d1e6707011bc6e", "is_disabled": 0}, {"fusion_lat": 0.0, "fusion_lon": 0.0, "lat": 38.91940016666667, "type": "electric_scooter", "rental_uris": {"android": "https://dc.lft.to/lastmile_qr_scan", "ios": "https://dc.lft.to/lastmile_qr_scan"}, "is_reserved": 0, "lon": -77.00323233333333, "name": "20769ee5955700a4b1c14465022a1f9f", "bike_id": "20769ee5955700a4b1c14465022a1f9f", "is_disabled": 0}, {"fusion_lat": 0.0, "fusion_lon": 0.0, "lat": 38.87419233333333, "type": "electric_scooter", "rental_uris": {"android": "https://dc.lft.to/lastmile_qr_scan", "ios": "https://dc.lft.to/lastmile_qr_scan"}, "is_reserved": 0, "lon": -76.969062, "name": "c4d0de396cb864db40467971a12e8b0f", "bike_id": "c4d0de396cb864db40467971a12e8b0f", "is_disabled": 0}, {"fusion_lat": 0.0, "fusion_lon": 0.0, "lat": 38.912606833333335, "type": "electric_scooter", "rental_uris": {"android": "https://dc.lft.to/lastmile_qr_scan", "ios": "https://dc.lft.to/lastmile_qr_scan"}, "is_reserved": 0, "lon": -77.02230533333334, "name": "f2c0d9ce7f8f48923dcc3cba0ffea636", "bike_id": "f2c0d9ce7f8f48923dcc3cba0ffea636", "is_disabled": 0}, {"fusion_lat": 0.0, "fusion_lon": 0.0, "lat": 38.92606416666667, "type": "electric_scooter", "rental_uris": {"android": "https://dc.lft.to/lastmile_qr_scan", "ios": "https://dc.lft.to/lastmile_qr_scan"}, "is_reserved": 0, "lon": -77.0366005, "name": "3d3649f249060a168405bce96d56b473", "bike_id": "3d3649f249060a168405bce96d56b473", "is_disabled": 0}, {"fusion_lat": 0.0, "fusion_lon": 0.0, "lat": 38.886731, "type": "electric_scooter", "rental_uris": {"android": "https://dc.lft.to/lastmile_qr_scan", "ios": "https://dc.lft.to/lastmile_qr_scan"}, "is_reserved": 0, "lon": -77.0005725, "name": "d15fb7b0002a750811b36f01260fe2f1", "bike_id": "d15fb7b0002a750811b36f01260fe2f1", "is_disabled": 0}, {"fusion_lat": 0.0, "fusion_lon": 0.0, "lat": 38.906941, "type": "electric_scooter", "rental_uris": {"android": "https://dc.lft.to/lastmile_qr_scan", "ios": "https://dc.lft.to/lastmile_qr_scan"}, "is_reserved": 0, "lon": -77.0358705, "name": "dd0b672a904c888abbf23102d058f309", "bike_id": "dd0b672a904c888abbf23102d058f309", "is_disabled": 0}, {"fusion_lat": 0.0, "fusion_lon": 0.0, "lat": 38.93580883333333, "type": "electric_scooter", "rental_uris": {"android": "https://dc.lft.to/lastmile_qr_scan", "ios": "https://dc.lft.to/lastmile_qr_scan"}, "is_reserved": 0, "lon": -77.01969583333333, "name": "ac2ddffe5210d16238b22be37d28c939", "bike_id": "ac2ddffe5210d16238b22be37d28c939", "is_disabled": 0}, {"fusion_lat": 0.0, "fusion_lon": 0.0, "lat": 38.881195166666664, "type": "electric_scooter", "rental_uris": {"android": "https://dc.lft.to/lastmile_qr_scan", "ios": "https://dc.lft.to/lastmile_qr_scan"}, "is_reserved": 0, "lon": -77.02388016666667, "name": "2f31bb6e820f305119112e33745aa55b", "bike_id": "2f31bb6e820f305119112e33745aa55b", "is_disabled": 0}, {"fusion_lat": 0.0, "fusion_lon": 0.0, "lat": 38.91341466666667, "type": "electric_scooter", "rental_uris": {"android": "https://dc.lft.to/lastmile_qr_scan", "ios": "https://dc.lft.to/lastmile_qr_scan"}, "is_reserved": 0, "lon": -77.0422835, "name": "36af3183a696e05ef7fbb2d43d4c7c8b", "bike_id": "36af3183a696e05ef7fbb2d43d4c7c8b", "is_disabled": 0}, {"fusion_lat": 0.0, "fusion_lon": 0.0, "lat": 38.90069483333333, "type": "electric_scooter", "rental_uris": {"android": "https://dc.lft.to/lastmile_qr_scan", "ios": "https://dc.lft.to/lastmile_qr_scan"}, "is_reserved": 0, "lon": -77.04684583333334, "name": "624ff417b4b5e50bdbe4384df1b812d8", "bike_id": "624ff417b4b5e50bdbe4384df1b812d8", "is_disabled": 0}, {"fusion_lat": 0.0, "fusion_lon": 0.0, "lat": 38.892239000000004, "type": "electric_scooter", "rental_uris": {"android": "https://dc.lft.to/lastmile_qr_scan", "ios": "https://dc.lft.to/lastmile_qr_scan"}, "is_reserved": 0, "lon": -77.04649566666667, "name": "cacb30dda9adcd5b00ef5ad76b5189d5", "bike_id": "cacb30dda9adcd5b00ef5ad76b5189d5", "is_disabled": 0}, {"fusion_lat": 0.0, "fusion_lon": 0.0, "lat": 38.9089425, "type": "electric_scooter", "rental_uris": {"android": "https://dc.lft.to/lastmile_qr_scan", "ios": "https://dc.lft.to/lastmile_qr_scan"}, "is_reserved": 0, "lon": -77.02305466666667, "name": "fd61c62d7061fa2360a21deea63c9971", "bike_id": "fd61c62d7061fa2360a21deea63c9971", "is_disabled": 0}, {"fusion_lat": 0.0, "fusion_lon": 0.0, "lat": 38.89612916666667, "type": "electric_bike", "rental_uris": {"android": "https://dc.lft.to/lastmile_qr_scan", "ios": "https://dc.lft.to/lastmile_qr_scan"}, "is_reserved": 0, "lon": -76.90732183333333, "name": "d0c56790c933de9ed709368086b447cb", "bike_id": "d0c56790c933de9ed709368086b447cb", "is_disabled": 0}, {"fusion_lat": 0.0, "fusion_lon": 0.0, "lat": 38.8973505, "type": "electric_scooter", "rental_uris": {"android": "https://dc.lft.to/lastmile_qr_scan", "ios": "https://dc.lft.to/lastmile_qr_scan"}, "is_reserved": 0, "lon": -77.03187083333333, "name": "42180524bc3526629963184f916051b0", "bike_id": "42180524bc3526629963184f916051b0", "is_disabled": 0}, {"fusion_lat": 0.0, "fusion_lon": 0.0, "lat": 38.91415466666667, "type": "electric_scooter", "rental_uris": {"android": "https://dc.lft.to/lastmile_qr_scan", "ios": "https://dc.lft.to/lastmile_qr_scan"}, "is_reserved": 0, "lon": -77.025857, "name": "2893b28ff6342176b7f1fd6208012998", "bike_id": "2893b28ff6342176b7f1fd6208012998", "is_disabled": 0}, {"fusion_lat": 0.0, "fusion_lon": 0.0, "lat": 38.917458833333335, "type": "electric_scooter", "rental_uris": {"android": "https://dc.lft.to/lastmile_qr_scan", "ios": "https://dc.lft.to/lastmile_qr_scan"}, "is_reserved": 0, "lon": -77.03445716666667, "name": "7f13808e5e2f90a5e51e54881308aaf7", "bike_id": "7f13808e5e2f90a5e51e54881308aaf7", "is_disabled": 0}, {"fusion_lat": 0.0, "fusion_lon": 0.0, "lat": 38.89588916666666, "type": "electric_scooter", "rental_uris": {"android": "https://dc.lft.to/lastmile_qr_scan", "ios": "https://dc.lft.to/lastmile_qr_scan"}, "is_reserved": 0, "lon": -77.039642, "name": "bb058693366e2fff6319c6a9e333dd65", "bike_id": "bb058693366e2fff6319c6a9e333dd65", "is_disabled": 0}, {"fusion_lat": 0.0, "fusion_lon": 0.0, "lat": 38.9010515, "type": "electric_scooter", "rental_uris": {"android": "https://dc.lft.to/lastmile_qr_scan", "ios": "https://dc.lft.to/lastmile_qr_scan"}, "is_reserved": 0, "lon": -77.0270475, "name": "b208dd0275fd62ed5dc5c77b4d16e1d1", "bike_id": "b208dd0275fd62ed5dc5c77b4d16e1d1", "is_disabled": 0}, {"fusion_lat": 0.0, "fusion_lon": 0.0, "lat": 38.933827666666666, "type": "electric_bike", "rental_uris": {"android": "https://dc.lft.to/lastmile_qr_scan", "ios": "https://dc.lft.to/lastmile_qr_scan"}, "is_reserved": 0, "lon": -76.99508333333333, "name": "54a2223b4364fb70ac159f9c8f88f0a2", "bike_id": "54a2223b4364fb70ac159f9c8f88f0a2", "is_disabled": 0}, {"fusion_lat": 0.0, "fusion_lon": 0.0, "lat": 38.908762333333335, "type": "electric_scooter", "rental_uris": {"android": "https://dc.lft.to/lastmile_qr_scan", "ios": "https://dc.lft.to/lastmile_qr_scan"}, "is_reserved": 0, "lon": -76.99796616666667, "name": "861912b95ab292e6fe04f96bea8aecc7", "bike_id": "861912b95ab292e6fe04f96bea8aecc7", "is_disabled": 0}, {"fusion_lat": 0.0, "fusion_lon": 0.0, "lat": 38.89859033333333, "type": "electric_scooter", "rental_uris": {"android": "https://dc.lft.to/lastmile_qr_scan", "ios": "https://dc.lft.to/lastmile_qr_scan"}, "is_reserved": 0, "lon": -77.02651, "name": "46e66b758631b5aae3486aa35c782a3e", "bike_id": "46e66b758631b5aae3486aa35c782a3e", "is_disabled": 0}, {"fusion_lat": 0.0, "fusion_lon": 0.0, "lat": 38.90962866666667, "type": "electric_scooter", "rental_uris": {"android": "https://dc.lft.to/lastmile_qr_scan", "ios": "https://dc.lft.to/lastmile_qr_scan"}, "is_reserved": 0, "lon": -77.03258966666667, "name": "d4a13e7422cd7a16dcd44c325b4f30bb", "bike_id": "d4a13e7422cd7a16dcd44c325b4f30bb", "is_disabled": 0}, {"fusion_lat": 0.0, "fusion_lon": 0.0, "lat": 38.901183833333334, "type": "electric_bike", "rental_uris": {"android": "https://dc.lft.to/lastmile_qr_scan", "ios": "https://dc.lft.to/lastmile_qr_scan"}, "is_reserved": 0, "lon": -76.980588, "name": "6cf6ed055230a9734d08086d7b42bfa9", "bike_id": "6cf6ed055230a9734d08086d7b42bfa9", "is_disabled": 0}, {"fusion_lat": 0.0, "fusion_lon": 0.0, "lat": 38.90342016666666, "type": "electric_scooter", "rental_uris": {"android": "https://dc.lft.to/lastmile_qr_scan", "ios": "https://dc.lft.to/lastmile_qr_scan"}, "is_reserved": 0, "lon": -77.061827, "name": "42cfc3729236a5b8e8ea38bf65b01100", "bike_id": "42cfc3729236a5b8e8ea38bf65b01100", "is_disabled": 0}, {"fusion_lat": 0.0, "fusion_lon": 0.0, "lat": 38.909817, "type": "electric_scooter", "rental_uris": {"android": "https://dc.lft.to/lastmile_qr_scan", "ios": "https://dc.lft.to/lastmile_qr_scan"}, "is_reserved": 0, "lon": -77.03187516666667, "name": "57ed1d871eb944a96683887a5e1598cb", "bike_id": "57ed1d871eb944a96683887a5e1598cb", "is_disabled": 0}, {"fusion_lat": 0.0, "fusion_lon": 0.0, "lat": 38.8851535, "type": "electric_scooter", "rental_uris": {"android": "https://dc.lft.to/lastmile_qr_scan", "ios": "https://dc.lft.to/lastmile_qr_scan"}, "is_reserved": 0, "lon": -77.021046, "name": "2f936ade2e0da20997187b6b904fb907", "bike_id": "2f936ade2e0da20997187b6b904fb907", "is_disabled": 0}, {"fusion_lat": 0.0, "fusion_lon": 0.0, "lat": 38.876882333333334, "type": "electric_scooter", "rental_uris": {"android": "https://dc.lft.to/lastmile_qr_scan", "ios": "https://dc.lft.to/lastmile_qr_scan"}, "is_reserved": 0, "lon": -77.00066183333334, "name": "c49ded59a0f1dd7b1464c3aa39042a1b", "bike_id": "c49ded59a0f1dd7b1464c3aa39042a1b", "is_disabled": 0}, {"fusion_lat": 0.0, "fusion_lon": 0.0, "lat": 38.901501833333334, "type": "electric_scooter", "rental_uris": {"android": "https://dc.lft.to/lastmile_qr_scan", "ios": "https://dc.lft.to/lastmile_qr_scan"}, "is_reserved": 0, "lon": -77.029385, "name": "5db626cf561c2bd678f99c32e9eb06c1", "bike_id": "5db626cf561c2bd678f99c32e9eb06c1", "is_disabled": 0}, {"fusion_lat": 0.0, "fusion_lon": 0.0, "lat": 38.90834616666667, "type": "electric_bike", "rental_uris": {"android": "https://dc.lft.to/lastmile_qr_scan", "ios": "https://dc.lft.to/lastmile_qr_scan"}, "is_reserved": 0, "lon": -77.04360466666667, "name": "6694dda186fe506693e052f57efea4d6", "bike_id": "6694dda186fe506693e052f57efea4d6", "is_disabled": 0}, {"fusion_lat": 0.0, "fusion_lon": 0.0, "lat": 38.9190315, "type": "electric_scooter", "rental_uris": {"android": "https://dc.lft.to/lastmile_qr_scan", "ios": "https://dc.lft.to/lastmile_qr_scan"}, "is_reserved": 0, "lon": -77.0417535, "name": "fff75ed76104d7d840b267b856b6c2db", "bike_id": "fff75ed76104d7d840b267b856b6c2db", "is_disabled": 0}, {"fusion_lat": 0.0, "fusion_lon": 0.0, "lat": 38.9305335, "type": "electric_scooter", "rental_uris": {"android": "https://dc.lft.to/lastmile_qr_scan", "ios": "https://dc.lft.to/lastmile_qr_scan"}, "is_reserved": 0, "lon": -77.0585095, "name": "877f1555ea81106cd172a20b9347461a", "bike_id": "877f1555ea81106cd172a20b9347461a", "is_disabled": 0}, {"fusion_lat": 0.0, "fusion_lon": 0.0, "lat": 38.884200666666665, "type": "electric_bike", "rental_uris": {"android": "https://dc.lft.to/lastmile_qr_scan", "ios": "https://dc.lft.to/lastmile_qr_scan"}, "is_reserved": 0, "lon": -76.95405616666666, "name": "0402475d18d44c5210baf3b4a3d5be67", "bike_id": "0402475d18d44c5210baf3b4a3d5be67", "is_disabled": 0}, {"fusion_lat": 0.0, "fusion_lon": 0.0, "lat": 38.91664466666667, "type": "electric_scooter", "rental_uris": {"android": "https://dc.lft.to/lastmile_qr_scan", "ios": "https://dc.lft.to/lastmile_qr_scan"}, "is_reserved": 0, "lon": -77.04172366666667, "name": "eb33fc1a3ec264a51405f9676fb1f42a", "bike_id": "eb33fc1a3ec264a51405f9676fb1f42a", "is_disabled": 0}, {"fusion_lat": 0.0, "fusion_lon": 0.0, "lat": 38.887424333333335, "type": "electric_scooter", "rental_uris": {"android": "https://dc.lft.to/lastmile_qr_scan", "ios": "https://dc.lft.to/lastmile_qr_scan"}, "is_reserved": 0, "lon": -77.00333133333334, "name": "3c792bc99b892ac6438c6bb3fcbded2c", "bike_id": "3c792bc99b892ac6438c6bb3fcbded2c", "is_disabled": 0}, {"fusion_lat": 0.0, "fusion_lon": 0.0, "lat": 38.9033825, "type": "electric_scooter", "rental_uris": {"android": "https://dc.lft.to/lastmile_qr_scan", "ios": "https://dc.lft.to/lastmile_qr_scan"}, "is_reserved": 0, "lon": -77.0384215, "name": "44325a39588adf0421606de9dda2dc00", "bike_id": "44325a39588adf0421606de9dda2dc00", "is_disabled": 0}, {"fusion_lat": 0.0, "fusion_lon": 0.0, "lat": 38.897154, "type": "electric_scooter", "rental_uris": {"android": "https://dc.lft.to/lastmile_qr_scan", "ios": "https://dc.lft.to/lastmile_qr_scan"}, "is_reserved": 0, "lon": -77.03258666666666, "name": "e5b6f8e4d7693e18d129a142f4be0d7c", "bike_id": "e5b6f8e4d7693e18d129a142f4be0d7c", "is_disabled": 0}, {"fusion_lat": 0.0, "fusion_lon": 0.0, "lat": 38.94054766666667, "type": "electric_bike", "rental_uris": {"android": "https://dc.lft.to/lastmile_qr_scan", "ios": "https://dc.lft.to/lastmile_qr_scan"}, "is_reserved": 0, "lon": -76.9041435, "name": "6ce812d6931347657337766b8e5735c3", "bike_id": "6ce812d6931347657337766b8e5735c3", "is_disabled": 0}, {"fusion_lat": 0.0, "fusion_lon": 0.0, "lat": 38.923217333333334, "type": "electric_scooter", "rental_uris": {"android": "https://dc.lft.to/lastmile_qr_scan", "ios": "https://dc.lft.to/lastmile_qr_scan"}, "is_reserved": 0, "lon": -77.03408683333333, "name": "b38a8868f6e83bc8250a71ca24706cc0", "bike_id": "b38a8868f6e83bc8250a71ca24706cc0", "is_disabled": 0}, {"fusion_lat": 0.0, "fusion_lon": 0.0, "lat": 38.89227283333334, "type": "electric_scooter", "rental_uris": {"android": "https://dc.lft.to/lastmile_qr_scan", "ios": "https://dc.lft.to/lastmile_qr_scan"}, "is_reserved": 0, "lon": -77.03326933333334, "name": "803357671480b0f0622cd55a131306bd", "bike_id": "803357671480b0f0622cd55a131306bd", "is_disabled": 0}, {"fusion_lat": 0.0, "fusion_lon": 0.0, "lat": 38.91446466666667, "type": "electric_scooter", "rental_uris": {"android": "https://dc.lft.to/lastmile_qr_scan", "ios": "https://dc.lft.to/lastmile_qr_scan"}, "is_reserved": 0, "lon": -77.02296366666667, "name": "96bef4faaa99b8414258e6c16097366d", "bike_id": "96bef4faaa99b8414258e6c16097366d", "is_disabled": 0}, {"fusion_lat": 0.0, "fusion_lon": 0.0, "lat": 38.9236925, "type": "electric_scooter", "rental_uris": {"android": "https://dc.lft.to/lastmile_qr_scan", "ios": "https://dc.lft.to/lastmile_qr_scan"}, "is_reserved": 0, "lon": -77.05116783333334, "name": "8c8f166cd6db70e814a07fbd47ba9d25", "bike_id": "8c8f166cd6db70e814a07fbd47ba9d25", "is_disabled": 0}, {"fusion_lat": 0.0, "fusion_lon": 0.0, "lat": 38.86935666666667, "type": "electric_scooter", "rental_uris": {"android": "https://dc.lft.to/lastmile_qr_scan", "ios": "https://dc.lft.to/lastmile_qr_scan"}, "is_reserved": 0, "lon": -76.96015016666666, "name": "cb09917225751c9ccedf21f493a97400", "bike_id": "cb09917225751c9ccedf21f493a97400", "is_disabled": 0}, {"fusion_lat": 0.0, "fusion_lon": 0.0, "lat": 38.8316485, "type": "electric_scooter", "rental_uris": {"android": "https://dc.lft.to/lastmile_qr_scan", "ios": "https://dc.lft.to/lastmile_qr_scan"}, "is_reserved": 0, "lon": -77.00810966666667, "name": "557591aa1cec3b50b7500c94f553d38b", "bike_id": "557591aa1cec3b50b7500c94f553d38b", "is_disabled": 0}, {"fusion_lat": 0.0, "fusion_lon": 0.0, "lat": 38.91704633333333, "type": "electric_scooter", "rental_uris": {"android": "https://dc.lft.to/lastmile_qr_scan", "ios": "https://dc.lft.to/lastmile_qr_scan"}, "is_reserved": 0, "lon": -77.0387695, "name": "0aa596825c6ab9218d11a42fb3cd2c26", "bike_id": "0aa596825c6ab9218d11a42fb3cd2c26", "is_disabled": 0}, {"fusion_lat": 0.0, "fusion_lon": 0.0, "lat": 38.912670166666665, "type": "electric_scooter", "rental_uris": {"android": "https://dc.lft.to/lastmile_qr_scan", "ios": "https://dc.lft.to/lastmile_qr_scan"}, "is_reserved": 0, "lon": -77.031453, "name": "0962591a73b7fdc2b015a6c7d35398e2", "bike_id": "0962591a73b7fdc2b015a6c7d35398e2", "is_disabled": 0}, {"fusion_lat": 0.0, "fusion_lon": 0.0, "lat": 38.862634, "type": "electric_bike", "rental_uris": {"android": "https://dc.lft.to/lastmile_qr_scan", "ios": "https://dc.lft.to/lastmile_qr_scan"}, "is_reserved": 0, "lon": -76.98346599999999, "name": "0801cf3933d1f5b57bc44cebb3251701", "bike_id": "0801cf3933d1f5b57bc44cebb3251701", "is_disabled": 0}, {"fusion_lat": 0.0, "fusion_lon": 0.0, "lat": 38.9273495, "type": "electric_scooter", "rental_uris": {"android": "https://dc.lft.to/lastmile_qr_scan", "ios": "https://dc.lft.to/lastmile_qr_scan"}, "is_reserved": 0, "lon": -77.03421816666666, "name": "05f9fd7c8aa80bb9566168cc16c5590c", "bike_id": "05f9fd7c8aa80bb9566168cc16c5590c", "is_disabled": 0}, {"fusion_lat": 0.0, "fusion_lon": 0.0, "lat": 38.937033, "type": "electric_bike", "rental_uris": {"android": "https://dc.lft.to/lastmile_qr_scan", "ios": "https://dc.lft.to/lastmile_qr_scan"}, "is_reserved": 0, "lon": -77.055952, "name": "9ae880fceb5a638ebadafc4998d1dc37", "bike_id": "9ae880fceb5a638ebadafc4998d1dc37", "is_disabled": 0}, {"fusion_lat": 0.0, "fusion_lon": 0.0, "lat": 38.89472416666667, "type": "electric_scooter", "rental_uris": {"android": "https://dc.lft.to/lastmile_qr_scan", "ios": "https://dc.lft.to/lastmile_qr_scan"}, "is_reserved": 0, "lon": -77.04528366666666, "name": "f8e9c264c8c5034bbd7161705db797dd", "bike_id": "f8e9c264c8c5034bbd7161705db797dd", "is_disabled": 0}, {"fusion_lat": 0.0, "fusion_lon": 0.0, "lat": 38.8485435, "type": "electric_scooter", "rental_uris": {"android": "https://dc.lft.to/lastmile_qr_scan", "ios": "https://dc.lft.to/lastmile_qr_scan"}, "is_reserved": 0, "lon": -77.00381833333333, "name": "f8a203d95fc7391b2fd9e4a7c31f92f3", "bike_id": "f8a203d95fc7391b2fd9e4a7c31f92f3", "is_disabled": 0}, {"fusion_lat": 0.0, "fusion_lon": 0.0, "lat": 38.90656416666667, "type": "electric_scooter", "rental_uris": {"android": "https://dc.lft.to/lastmile_qr_scan", "ios": "https://dc.lft.to/lastmile_qr_scan"}, "is_reserved": 0, "lon": -77.02529483333333, "name": "d878135f016d8856e704c045495c9359", "bike_id": "d878135f016d8856e704c045495c9359", "is_disabled": 0}, {"fusion_lat": 0.0, "fusion_lon": 0.0, "lat": 38.89745966666667, "type": "electric_scooter", "rental_uris": {"android": "https://dc.lft.to/lastmile_qr_scan", "ios": "https://dc.lft.to/lastmile_qr_scan"}, "is_reserved": 0, "lon": -77.02204766666667, "name": "248ede28c08714d1f1aecf255ce99a2c", "bike_id": "248ede28c08714d1f1aecf255ce99a2c", "is_disabled": 0}, {"fusion_lat": 0.0, "fusion_lon": 0.0, "lat": 38.885143166666666, "type": "electric_scooter", "rental_uris": {"android": "https://dc.lft.to/lastmile_qr_scan", "ios": "https://dc.lft.to/lastmile_qr_scan"}, "is_reserved": 0, "lon": -77.0209475, "name": "8d9fec059093a7d98425d03d65fffcfb", "bike_id": "8d9fec059093a7d98425d03d65fffcfb", "is_disabled": 0}, {"fusion_lat": 0.0, "fusion_lon": 0.0, "lat": 38.874868166666666, "type": "electric_scooter", "rental_uris": {"android": "https://dc.lft.to/lastmile_qr_scan", "ios": "https://dc.lft.to/lastmile_qr_scan"}, "is_reserved": 0, "lon": -77.002364, "name": "4b2ca5a0a5d415a86eab0dccd46b3ac1", "bike_id": "4b2ca5a0a5d415a86eab0dccd46b3ac1", "is_disabled": 0}, {"fusion_lat": 0.0, "fusion_lon": 0.0, "lat": 38.916977833333334, "type": "electric_scooter", "rental_uris": {"android": "https://dc.lft.to/lastmile_qr_scan", "ios": "https://dc.lft.to/lastmile_qr_scan"}, "is_reserved": 0, "lon": -77.04109516666666, "name": "affa3b3629c506b3d3c33a1a29ffa28c", "bike_id": "affa3b3629c506b3d3c33a1a29ffa28c", "is_disabled": 0}, {"fusion_lat": 0.0, "fusion_lon": 0.0, "lat": 38.905166, "type": "electric_scooter", "rental_uris": {"android": "https://dc.lft.to/lastmile_qr_scan", "ios": "https://dc.lft.to/lastmile_qr_scan"}, "is_reserved": 0, "lon": -77.040835, "name": "ffc8a0862b19ebf0b41315759c35d889", "bike_id": "ffc8a0862b19ebf0b41315759c35d889", "is_disabled": 0}, {"fusion_lat": 0.0, "fusion_lon": 0.0, "lat": 38.924819166666666, "type": "electric_scooter", "rental_uris": {"android": "https://dc.lft.to/lastmile_qr_scan", "ios": "https://dc.lft.to/lastmile_qr_scan"}, "is_reserved": 0, "lon": -77.02214483333333, "name": "5b0a56a4554129b65e265718c75612c7", "bike_id": "5b0a56a4554129b65e265718c75612c7", "is_disabled": 0}, {"fusion_lat": 0.0, "fusion_lon": 0.0, "lat": 38.85176366666666, "type": "electric_scooter", "rental_uris": {"android": "https://dc.lft.to/lastmile_qr_scan", "ios": "https://dc.lft.to/lastmile_qr_scan"}, "is_reserved": 0, "lon": -76.9957695, "name": "2c8a3fdce10e1b28403c92b372e2d729", "bike_id": "2c8a3fdce10e1b28403c92b372e2d729", "is_disabled": 0}, {"fusion_lat": 0.0, "fusion_lon": 0.0, "lat": 38.915789833333335, "type": "electric_scooter", "rental_uris": {"android": "https://dc.lft.to/lastmile_qr_scan", "ios": "https://dc.lft.to/lastmile_qr_scan"}, "is_reserved": 0, "lon": -77.01998516666667, "name": "dd3037b6cc2b32db4f29b98e018e4ee1", "bike_id": "dd3037b6cc2b32db4f29b98e018e4ee1", "is_disabled": 0}, {"fusion_lat": 0.0, "fusion_lon": 0.0, "lat": 38.912569833333336, "type": "electric_scooter", "rental_uris": {"android": "https://dc.lft.to/lastmile_qr_scan", "ios": "https://dc.lft.to/lastmile_qr_scan"}, "is_reserved": 0, "lon": -77.032311, "name": "2706ee6e37284780baf0642f243c36de", "bike_id": "2706ee6e37284780baf0642f243c36de", "is_disabled": 0}, {"fusion_lat": 0.0, "fusion_lon": 0.0, "lat": 38.920319666666664, "type": "electric_scooter", "rental_uris": {"android": "https://dc.lft.to/lastmile_qr_scan", "ios": "https://dc.lft.to/lastmile_qr_scan"}, "is_reserved": 0, "lon": -77.003046, "name": "55e296419934bf54f142395f100e593c", "bike_id": "55e296419934bf54f142395f100e593c", "is_disabled": 0}, {"fusion_lat": 0.0, "fusion_lon": 0.0, "lat": 38.915919833333334, "type": "electric_scooter", "rental_uris": {"android": "https://dc.lft.to/lastmile_qr_scan", "ios": "https://dc.lft.to/lastmile_qr_scan"}, "is_reserved": 0, "lon": -77.02297533333333, "name": "54f04d826f174ec0c6736551395cff1a", "bike_id": "54f04d826f174ec0c6736551395cff1a", "is_disabled": 0}, {"fusion_lat": 0.0, "fusion_lon": 0.0, "lat": 38.903784, "type": "electric_scooter", "rental_uris": {"android": "https://dc.lft.to/lastmile_qr_scan", "ios": "https://dc.lft.to/lastmile_qr_scan"}, "is_reserved": 0, "lon": -77.04502216666667, "name": "ef89148e05a65f0b5ccf759d8fc9987f", "bike_id": "ef89148e05a65f0b5ccf759d8fc9987f", "is_disabled": 0}, {"fusion_lat": 0.0, "fusion_lon": 0.0, "lat": 38.924129, "type": "electric_scooter", "rental_uris": {"android": "https://dc.lft.to/lastmile_qr_scan", "ios": "https://dc.lft.to/lastmile_qr_scan"}, "is_reserved": 0, "lon": -77.02005316666667, "name": "a8bf801aed1997c42fc9273b400254e3", "bike_id": "a8bf801aed1997c42fc9273b400254e3", "is_disabled": 0}, {"fusion_lat": 0.0, "fusion_lon": 0.0, "lat": 38.98771983333334, "type": "electric_bike", "rental_uris": {"android": "https://dc.lft.to/lastmile_qr_scan", "ios": "https://dc.lft.to/lastmile_qr_scan"}, "is_reserved": 0, "lon": -77.1405405, "name": "2fb24e597788cfb5cfddff946a262e7e", "bike_id": "2fb24e597788cfb5cfddff946a262e7e", "is_disabled": 0}, {"fusion_lat": 0.0, "fusion_lon": 0.0, "lat": 38.86725783333333, "type": "electric_scooter", "rental_uris": {"android": "https://dc.lft.to/lastmile_qr_scan", "ios": "https://dc.lft.to/lastmile_qr_scan"}, "is_reserved": 0, "lon": -76.98694833333333, "name": "95cc775ffd49a627a5d3ea88f6f62ed2", "bike_id": "95cc775ffd49a627a5d3ea88f6f62ed2", "is_disabled": 0}, {"fusion_lat": 0.0, "fusion_lon": 0.0, "lat": 38.938598999999996, "type": "electric_scooter", "rental_uris": {"android": "https://dc.lft.to/lastmile_qr_scan", "ios": "https://dc.lft.to/lastmile_qr_scan"}, "is_reserved": 0, "lon": -77.03394733333333, "name": "f8a32daffca1b2307cb48be86ca27931", "bike_id": "f8a32daffca1b2307cb48be86ca27931", "is_disabled": 0}, {"fusion_lat": 0.0, "fusion_lon": 0.0, "lat": 38.8964095, "type": "electric_scooter", "rental_uris": {"android": "https://dc.lft.to/lastmile_qr_scan", "ios": "https://dc.lft.to/lastmile_qr_scan"}, "is_reserved": 0, "lon": -77.02249, "name": "6a7d5b4520ab2bb4bfbe03e18c209c1f", "bike_id": "6a7d5b4520ab2bb4bfbe03e18c209c1f", "is_disabled": 0}, {"fusion_lat": 0.0, "fusion_lon": 0.0, "lat": 38.8825855, "type": "electric_scooter", "rental_uris": {"android": "https://dc.lft.to/lastmile_qr_scan", "ios": "https://dc.lft.to/lastmile_qr_scan"}, "is_reserved": 0, "lon": -76.93555166666667, "name": "70084f3b8db6411d448b379737ada1d2", "bike_id": "70084f3b8db6411d448b379737ada1d2", "is_disabled": 0}, {"fusion_lat": 0.0, "fusion_lon": 0.0, "lat": 38.9072915, "type": "electric_scooter", "rental_uris": {"android": "https://dc.lft.to/lastmile_qr_scan", "ios": "https://dc.lft.to/lastmile_qr_scan"}, "is_reserved": 0, "lon": -77.023694, "name": "74c36e42f528875fe0c090f5584b4fa7", "bike_id": "74c36e42f528875fe0c090f5584b4fa7", "is_disabled": 0}, {"fusion_lat": 0.0, "fusion_lon": 0.0, "lat": 38.9085665, "type": "electric_scooter", "rental_uris": {"android": "https://dc.lft.to/lastmile_qr_scan", "ios": "https://dc.lft.to/lastmile_qr_scan"}, "is_reserved": 0, "lon": -76.99803233333333, "name": "121dc23b740d1ad42a5e9bd1cc188128", "bike_id": "121dc23b740d1ad42a5e9bd1cc188128", "is_disabled": 0}, {"fusion_lat": 0.0, "fusion_lon": 0.0, "lat": 38.9058365, "type": "electric_scooter", "rental_uris": {"android": "https://dc.lft.to/lastmile_qr_scan", "ios": "https://dc.lft.to/lastmile_qr_scan"}, "is_reserved": 0, "lon": -77.05702866666667, "name": "42fd807fa0f21b905ae60b98ab5ac341", "bike_id": "42fd807fa0f21b905ae60b98ab5ac341", "is_disabled": 0}, {"fusion_lat": 0.0, "fusion_lon": 0.0, "lat": 38.907512833333335, "type": "electric_scooter", "rental_uris": {"android": "https://dc.lft.to/lastmile_qr_scan", "ios": "https://dc.lft.to/lastmile_qr_scan"}, "is_reserved": 0, "lon": -77.0359935, "name": "694395c32c74203ec84b25aa50b5f059", "bike_id": "694395c32c74203ec84b25aa50b5f059", "is_disabled": 0}, {"fusion_lat": 0.0, "fusion_lon": 0.0, "lat": 38.87656066666667, "type": "electric_scooter", "rental_uris": {"android": "https://dc.lft.to/lastmile_qr_scan", "ios": "https://dc.lft.to/lastmile_qr_scan"}, "is_reserved": 0, "lon": -77.00460183333334, "name": "221db3f289e1cac26d86f3de2ba4bc13", "bike_id": "221db3f289e1cac26d86f3de2ba4bc13", "is_disabled": 0}, {"fusion_lat": 0.0, "fusion_lon": 0.0, "lat": 38.86006366666667, "type": "electric_scooter", "rental_uris": {"android": "https://dc.lft.to/lastmile_qr_scan", "ios": "https://dc.lft.to/lastmile_qr_scan"}, "is_reserved": 0, "lon": -76.996518, "name": "c0e1934715cfb156af5b39a5bcba9e02", "bike_id": "c0e1934715cfb156af5b39a5bcba9e02", "is_disabled": 0}, {"fusion_lat": 0.0, "fusion_lon": 0.0, "lat": 38.915719333333335, "type": "electric_scooter", "rental_uris": {"android": "https://dc.lft.to/lastmile_qr_scan", "ios": "https://dc.lft.to/lastmile_qr_scan"}, "is_reserved": 0, "lon": -77.03182733333334, "name": "909c410e90c9dcc41d9327481e730732", "bike_id": "909c410e90c9dcc41d9327481e730732", "is_disabled": 0}, {"fusion_lat": 0.0, "fusion_lon": 0.0, "lat": 38.8754835, "type": "electric_scooter", "rental_uris": {"android": "https://dc.lft.to/lastmile_qr_scan", "ios": "https://dc.lft.to/lastmile_qr_scan"}, "is_reserved": 0, "lon": -77.00062716666666, "name": "c40eab4e076263595e9c939dbe8a8b83", "bike_id": "c40eab4e076263595e9c939dbe8a8b83", "is_disabled": 0}, {"fusion_lat": 0.0, "fusion_lon": 0.0, "lat": 38.90868316666667, "type": "electric_scooter", "rental_uris": {"android": "https://dc.lft.to/lastmile_qr_scan", "ios": "https://dc.lft.to/lastmile_qr_scan"}, "is_reserved": 0, "lon": -76.93337883333334, "name": "ba602c8d2eecc0b73bdd86b8d8d9ac7d", "bike_id": "ba602c8d2eecc0b73bdd86b8d8d9ac7d", "is_disabled": 0}, {"fusion_lat": 0.0, "fusion_lon": 0.0, "lat": 38.90826933333334, "type": "electric_scooter", "rental_uris": {"android": "https://dc.lft.to/lastmile_qr_scan", "ios": "https://dc.lft.to/lastmile_qr_scan"}, "is_reserved": 0, "lon": -77.0367615, "name": "99064f74b5d22c0ec574d2f91f50e2a4", "bike_id": "99064f74b5d22c0ec574d2f91f50e2a4", "is_disabled": 0}, {"fusion_lat": 0.0, "fusion_lon": 0.0, "lat": 38.8842, "type": "electric_scooter", "rental_uris": {"android": "https://dc.lft.to/lastmile_qr_scan", "ios": "https://dc.lft.to/lastmile_qr_scan"}, "is_reserved": 0, "lon": -76.99698583333333, "name": "76129ac17e6d327d261cf02a0b6ab0f3", "bike_id": "76129ac17e6d327d261cf02a0b6ab0f3", "is_disabled": 0}, {"fusion_lat": 0.0, "fusion_lon": 0.0, "lat": 38.922713333333334, "type": "electric_scooter", "rental_uris": {"android": "https://dc.lft.to/lastmile_qr_scan", "ios": "https://dc.lft.to/lastmile_qr_scan"}, "is_reserved": 0, "lon": -77.0182415, "name": "17c99f8aa1caf7df0d742dcec4c2c43a", "bike_id": "17c99f8aa1caf7df0d742dcec4c2c43a", "is_disabled": 0}, {"fusion_lat": 0.0, "fusion_lon": 0.0, "lat": 38.900775, "type": "electric_scooter", "rental_uris": {"android": "https://dc.lft.to/lastmile_qr_scan", "ios": "https://dc.lft.to/lastmile_qr_scan"}, "is_reserved": 0, "lon": -77.04784316666667, "name": "cab5c0b24d4d01c1eb0eec0921874fa4", "bike_id": "cab5c0b24d4d01c1eb0eec0921874fa4", "is_disabled": 0}, {"fusion_lat": 0.0, "fusion_lon": 0.0, "lat": 38.9226955, "type": "electric_scooter", "rental_uris": {"android": "https://dc.lft.to/lastmile_qr_scan", "ios": "https://dc.lft.to/lastmile_qr_scan"}, "is_reserved": 0, "lon": -77.0328325, "name": "5bbd0a9483c8be85b4a894ce48f16f82", "bike_id": "5bbd0a9483c8be85b4a894ce48f16f82", "is_disabled": 0}, {"fusion_lat": 0.0, "fusion_lon": 0.0, "lat": 38.893304666666666, "type": "electric_scooter", "rental_uris": {"android": "https://dc.lft.to/lastmile_qr_scan", "ios": "https://dc.lft.to/lastmile_qr_scan"}, "is_reserved": 0, "lon": -77.04671233333333, "name": "451858d43f13fb79b8053ee5cd576d8b", "bike_id": "451858d43f13fb79b8053ee5cd576d8b", "is_disabled": 0}, {"fusion_lat": 0.0, "fusion_lon": 0.0, "lat": 38.914962333333335, "type": "electric_scooter", "rental_uris": {"android": "https://dc.lft.to/lastmile_qr_scan", "ios": "https://dc.lft.to/lastmile_qr_scan"}, "is_reserved": 0, "lon": -77.02198383333334, "name": "ed9af85ed5cb247b1a03eb25b0f40538", "bike_id": "ed9af85ed5cb247b1a03eb25b0f40538", "is_disabled": 0}, {"fusion_lat": 0.0, "fusion_lon": 0.0, "lat": 38.87063583333333, "type": "electric_scooter", "rental_uris": {"android": "https://dc.lft.to/lastmile_qr_scan", "ios": "https://dc.lft.to/lastmile_qr_scan"}, "is_reserved": 0, "lon": -76.97098783333334, "name": "cf31270e00ab552083224e76b3af33c3", "bike_id": "cf31270e00ab552083224e76b3af33c3", "is_disabled": 0}, {"fusion_lat": 0.0, "fusion_lon": 0.0, "lat": 38.9221915, "type": "electric_bike", "rental_uris": {"android": "https://dc.lft.to/lastmile_qr_scan", "ios": "https://dc.lft.to/lastmile_qr_scan"}, "is_reserved": 0, "lon": -77.20136016666666, "name": "315905f88d576374f7fb8967236da646", "bike_id": "315905f88d576374f7fb8967236da646", "is_disabled": 0}, {"fusion_lat": 0.0, "fusion_lon": 0.0, "lat": 38.921019, "type": "electric_scooter", "rental_uris": {"android": "https://dc.lft.to/lastmile_qr_scan", "ios": "https://dc.lft.to/lastmile_qr_scan"}, "is_reserved": 0, "lon": -77.0419735, "name": "3f187ad05590cd38df136672d1b1897a", "bike_id": "3f187ad05590cd38df136672d1b1897a", "is_disabled": 0}, {"fusion_lat": 0.0, "fusion_lon": 0.0, "lat": 38.9421085, "type": "electric_scooter", "rental_uris": {"android": "https://dc.lft.to/lastmile_qr_scan", "ios": "https://dc.lft.to/lastmile_qr_scan"}, "is_reserved": 0, "lon": -77.02586816666667, "name": "90bf13e2e0deb8f717abef8a044a96bd", "bike_id": "90bf13e2e0deb8f717abef8a044a96bd", "is_disabled": 0}, {"fusion_lat": 0.0, "fusion_lon": 0.0, "lat": 38.9069445, "type": "electric_bike", "rental_uris": {"android": "https://dc.lft.to/lastmile_qr_scan", "ios": "https://dc.lft.to/lastmile_qr_scan"}, "is_reserved": 0, "lon": -76.95250816666666, "name": "20ad58169ae427941bb892dc6895d9de", "bike_id": "20ad58169ae427941bb892dc6895d9de", "is_disabled": 0}, {"fusion_lat": 0.0, "fusion_lon": 0.0, "lat": 38.91187866666667, "type": "electric_scooter", "rental_uris": {"android": "https://dc.lft.to/lastmile_qr_scan", "ios": "https://dc.lft.to/lastmile_qr_scan"}, "is_reserved": 0, "lon": -77.04496566666667, "name": "b789d623bd37d9bfdf3d4009458f7e89", "bike_id": "b789d623bd37d9bfdf3d4009458f7e89", "is_disabled": 0}, {"fusion_lat": 0.0, "fusion_lon": 0.0, "lat": 38.89872066666667, "type": "electric_scooter", "rental_uris": {"android": "https://dc.lft.to/lastmile_qr_scan", "ios": "https://dc.lft.to/lastmile_qr_scan"}, "is_reserved": 0, "lon": -76.94637066666667, "name": "6526f07bb669b5a86db4659b55adc900", "bike_id": "6526f07bb669b5a86db4659b55adc900", "is_disabled": 0}, {"fusion_lat": 0.0, "fusion_lon": 0.0, "lat": 38.93475516666667, "type": "electric_scooter", "rental_uris": {"android": "https://dc.lft.to/lastmile_qr_scan", "ios": "https://dc.lft.to/lastmile_qr_scan"}, "is_reserved": 0, "lon": -77.02227566666667, "name": "7a76e43a78a30c114c606c675fd54c37", "bike_id": "7a76e43a78a30c114c606c675fd54c37", "is_disabled": 0}, {"fusion_lat": 0.0, "fusion_lon": 0.0, "lat": 38.96442033333334, "type": "electric_bike", "rental_uris": {"android": "https://dc.lft.to/lastmile_qr_scan", "ios": "https://dc.lft.to/lastmile_qr_scan"}, "is_reserved": 0, "lon": -77.031538, "name": "48adfc7ba3d4f0b7759118852a5a07f0", "bike_id": "48adfc7ba3d4f0b7759118852a5a07f0", "is_disabled": 0}, {"fusion_lat": 0.0, "fusion_lon": 0.0, "lat": 38.905749, "type": "electric_scooter", "rental_uris": {"android": "https://dc.lft.to/lastmile_qr_scan", "ios": "https://dc.lft.to/lastmile_qr_scan"}, "is_reserved": 0, "lon": -77.01502566666667, "name": "6bd6fb18f48925c3a40486366e4b6451", "bike_id": "6bd6fb18f48925c3a40486366e4b6451", "is_disabled": 0}, {"fusion_lat": 0.0, "fusion_lon": 0.0, "lat": 38.916307833333335, "type": "electric_scooter", "rental_uris": {"android": "https://dc.lft.to/lastmile_qr_scan", "ios": "https://dc.lft.to/lastmile_qr_scan"}, "is_reserved": 0, "lon": -77.03040033333333, "name": "f36609ee446e2fee6f6673e645234de2", "bike_id": "f36609ee446e2fee6f6673e645234de2", "is_disabled": 0}, {"fusion_lat": 0.0, "fusion_lon": 0.0, "lat": 38.91819533333334, "type": "electric_scooter", "rental_uris": {"android": "https://dc.lft.to/lastmile_qr_scan", "ios": "https://dc.lft.to/lastmile_qr_scan"}, "is_reserved": 0, "lon": -77.02715966666666, "name": "21bf72bb5157aa381fdea94a3e199a4f", "bike_id": "21bf72bb5157aa381fdea94a3e199a4f", "is_disabled": 0}, {"fusion_lat": 0.0, "fusion_lon": 0.0, "lat": 38.88119616666667, "type": "electric_scooter", "rental_uris": {"android": "https://dc.lft.to/lastmile_qr_scan", "ios": "https://dc.lft.to/lastmile_qr_scan"}, "is_reserved": 0, "lon": -77.01646566666666, "name": "6a9e1b760384881aa99f16e12c83f559", "bike_id": "6a9e1b760384881aa99f16e12c83f559", "is_disabled": 0}, {"fusion_lat": 0.0, "fusion_lon": 0.0, "lat": 38.89828416666667, "type": "electric_scooter", "rental_uris": {"android": "https://dc.lft.to/lastmile_qr_scan", "ios": "https://dc.lft.to/lastmile_qr_scan"}, "is_reserved": 0, "lon": -77.0454135, "name": "c72aa01fd989fcbed525e55f397dd6e7", "bike_id": "c72aa01fd989fcbed525e55f397dd6e7", "is_disabled": 0}, {"fusion_lat": 0.0, "fusion_lon": 0.0, "lat": 38.930163, "type": "electric_scooter", "rental_uris": {"android": "https://dc.lft.to/lastmile_qr_scan", "ios": "https://dc.lft.to/lastmile_qr_scan"}, "is_reserved": 0, "lon": -77.05523366666667, "name": "abdb2c98766f07e1c8aaaedb955b462c", "bike_id": "abdb2c98766f07e1c8aaaedb955b462c", "is_disabled": 0}, {"fusion_lat": 0.0, "fusion_lon": 0.0, "lat": 38.913262833333334, "type": "electric_scooter", "rental_uris": {"android": "https://dc.lft.to/lastmile_qr_scan", "ios": "https://dc.lft.to/lastmile_qr_scan"}, "is_reserved": 0, "lon": -77.01888966666667, "name": "8c3a9857c10043ef4c7eecb28eac7f2e", "bike_id": "8c3a9857c10043ef4c7eecb28eac7f2e", "is_disabled": 0}, {"fusion_lat": 0.0, "fusion_lon": 0.0, "lat": 38.9161135, "type": "electric_scooter", "rental_uris": {"android": "https://dc.lft.to/lastmile_qr_scan", "ios": "https://dc.lft.to/lastmile_qr_scan"}, "is_reserved": 0, "lon": -77.01732233333334, "name": "1419311192a47e00a9c311aa0d997c89", "bike_id": "1419311192a47e00a9c311aa0d997c89", "is_disabled": 0}, {"fusion_lat": 0.0, "fusion_lon": 0.0, "lat": 38.91047116666667, "type": "electric_scooter", "rental_uris": {"android": "https://dc.lft.to/lastmile_qr_scan", "ios": "https://dc.lft.to/lastmile_qr_scan"}, "is_reserved": 0, "lon": -77.04351833333334, "name": "d64afbc9b5fcd5a781457069c2d78641", "bike_id": "d64afbc9b5fcd5a781457069c2d78641", "is_disabled": 0}, {"fusion_lat": 0.0, "fusion_lon": 0.0, "lat": 38.922074333333335, "type": "electric_scooter", "rental_uris": {"android": "https://dc.lft.to/lastmile_qr_scan", "ios": "https://dc.lft.to/lastmile_qr_scan"}, "is_reserved": 0, "lon": -77.033962, "name": "5c85eec74aeb3eaa91f967abe76300f1", "bike_id": "5c85eec74aeb3eaa91f967abe76300f1", "is_disabled": 0}, {"fusion_lat": 0.0, "fusion_lon": 0.0, "lat": 38.902917333333335, "type": "electric_scooter", "rental_uris": {"android": "https://dc.lft.to/lastmile_qr_scan", "ios": "https://dc.lft.to/lastmile_qr_scan"}, "is_reserved": 0, "lon": -77.0468165, "name": "055fc0edc7e499c7dbb0402e1812dd92", "bike_id": "055fc0edc7e499c7dbb0402e1812dd92", "is_disabled": 0}, {"fusion_lat": 0.0, "fusion_lon": 0.0, "lat": 38.918198833333335, "type": "electric_scooter", "rental_uris": {"android": "https://dc.lft.to/lastmile_qr_scan", "ios": "https://dc.lft.to/lastmile_qr_scan"}, "is_reserved": 0, "lon": -77.0345145, "name": "47fe49c9e786f1511df72e543379a8a6", "bike_id": "47fe49c9e786f1511df72e543379a8a6", "is_disabled": 0}, {"fusion_lat": 0.0, "fusion_lon": 0.0, "lat": 38.87346933333333, "type": "electric_scooter", "rental_uris": {"android": "https://dc.lft.to/lastmile_qr_scan", "ios": "https://dc.lft.to/lastmile_qr_scan"}, "is_reserved": 0, "lon": -77.00067883333334, "name": "1f6fb43db649af2e2ceb9c2106ee7af3", "bike_id": "1f6fb43db649af2e2ceb9c2106ee7af3", "is_disabled": 0}, {"fusion_lat": 0.0, "fusion_lon": 0.0, "lat": 38.892482333333334, "type": "electric_scooter", "rental_uris": {"android": "https://dc.lft.to/lastmile_qr_scan", "ios": "https://dc.lft.to/lastmile_qr_scan"}, "is_reserved": 0, "lon": -77.03192016666667, "name": "bd474d8da6c9dc8797b0b89aa549f007", "bike_id": "bd474d8da6c9dc8797b0b89aa549f007", "is_disabled": 0}, {"fusion_lat": 0.0, "fusion_lon": 0.0, "lat": 38.8830145, "type": "electric_scooter", "rental_uris": {"android": "https://dc.lft.to/lastmile_qr_scan", "ios": "https://dc.lft.to/lastmile_qr_scan"}, "is_reserved": 0, "lon": -76.94852066666667, "name": "bdd8d63bee45ae0c89615b3451de65ff", "bike_id": "bdd8d63bee45ae0c89615b3451de65ff", "is_disabled": 0}, {"fusion_lat": 0.0, "fusion_lon": 0.0, "lat": 38.907824166666664, "type": "electric_scooter", "rental_uris": {"android": "https://dc.lft.to/lastmile_qr_scan", "ios": "https://dc.lft.to/lastmile_qr_scan"}, "is_reserved": 0, "lon": -77.07167183333334, "name": "45d588db45ce7dfa7d80200cdc3c8187", "bike_id": "45d588db45ce7dfa7d80200cdc3c8187", "is_disabled": 0}, {"fusion_lat": 0.0, "fusion_lon": 0.0, "lat": 38.9343025, "type": "electric_scooter", "rental_uris": {"android": "https://dc.lft.to/lastmile_qr_scan", "ios": "https://dc.lft.to/lastmile_qr_scan"}, "is_reserved": 0, "lon": -77.04000916666666, "name": "c2adfb1533719d9e274f9fefa260a60a", "bike_id": "c2adfb1533719d9e274f9fefa260a60a", "is_disabled": 0}, {"fusion_lat": 0.0, "fusion_lon": 0.0, "lat": 38.891825833333336, "type": "electric_scooter", "rental_uris": {"android": "https://dc.lft.to/lastmile_qr_scan", "ios": "https://dc.lft.to/lastmile_qr_scan"}, "is_reserved": 0, "lon": -76.99477333333333, "name": "6e081baf08c1b0a44e3839866e324f68", "bike_id": "6e081baf08c1b0a44e3839866e324f68", "is_disabled": 0}, {"fusion_lat": 0.0, "fusion_lon": 0.0, "lat": 38.927803833333336, "type": "electric_scooter", "rental_uris": {"android": "https://dc.lft.to/lastmile_qr_scan", "ios": "https://dc.lft.to/lastmile_qr_scan"}, "is_reserved": 0, "lon": -77.05253133333333, "name": "b79a02fe9f9b165c96ef1c696e9a921a", "bike_id": "b79a02fe9f9b165c96ef1c696e9a921a", "is_disabled": 0}, {"fusion_lat": 0.0, "fusion_lon": 0.0, "lat": 38.905242666666666, "type": "electric_scooter", "rental_uris": {"android": "https://dc.lft.to/lastmile_qr_scan", "ios": "https://dc.lft.to/lastmile_qr_scan"}, "is_reserved": 0, "lon": -77.06448383333333, "name": "695ecb4f0be397d08605f16ea687c397", "bike_id": "695ecb4f0be397d08605f16ea687c397", "is_disabled": 0}, {"fusion_lat": 0.0, "fusion_lon": 0.0, "lat": 38.8923345, "type": "electric_scooter", "rental_uris": {"android": "https://dc.lft.to/lastmile_qr_scan", "ios": "https://dc.lft.to/lastmile_qr_scan"}, "is_reserved": 0, "lon": -77.0320825, "name": "2b5447998bea863796c1acd703ba09fd", "bike_id": "2b5447998bea863796c1acd703ba09fd", "is_disabled": 0}, {"fusion_lat": 0.0, "fusion_lon": 0.0, "lat": 38.9014135, "type": "electric_scooter", "rental_uris": {"android": "https://dc.lft.to/lastmile_qr_scan", "ios": "https://dc.lft.to/lastmile_qr_scan"}, "is_reserved": 0, "lon": -77.032521, "name": "55903c36ce879a0698bb9075fecbb0f2", "bike_id": "55903c36ce879a0698bb9075fecbb0f2", "is_disabled": 0}, {"fusion_lat": 0.0, "fusion_lon": 0.0, "lat": 38.89390983333333, "type": "electric_scooter", "rental_uris": {"android": "https://dc.lft.to/lastmile_qr_scan", "ios": "https://dc.lft.to/lastmile_qr_scan"}, "is_reserved": 0, "lon": -77.02343816666666, "name": "44027e4e5d5c71e44ab4f288e96dcb51", "bike_id": "44027e4e5d5c71e44ab4f288e96dcb51", "is_disabled": 0}, {"fusion_lat": 0.0, "fusion_lon": 0.0, "lat": 38.9286335, "type": "electric_scooter", "rental_uris": {"android": "https://dc.lft.to/lastmile_qr_scan", "ios": "https://dc.lft.to/lastmile_qr_scan"}, "is_reserved": 0, "lon": -77.0217385, "name": "33246cb9934687b41d58156767bdd0e1", "bike_id": "33246cb9934687b41d58156767bdd0e1", "is_disabled": 0}, {"fusion_lat": 0.0, "fusion_lon": 0.0, "lat": 38.89911016666667, "type": "electric_scooter", "rental_uris": {"android": "https://dc.lft.to/lastmile_qr_scan", "ios": "https://dc.lft.to/lastmile_qr_scan"}, "is_reserved": 0, "lon": -76.93366616666667, "name": "62f8523471284147a97b8aa44f314d6c", "bike_id": "62f8523471284147a97b8aa44f314d6c", "is_disabled": 0}, {"fusion_lat": 0.0, "fusion_lon": 0.0, "lat": 38.904437333333334, "type": "electric_scooter", "rental_uris": {"android": "https://dc.lft.to/lastmile_qr_scan", "ios": "https://dc.lft.to/lastmile_qr_scan"}, "is_reserved": 0, "lon": -77.048501, "name": "d781ce269d6b0b7738e53e376524acee", "bike_id": "d781ce269d6b0b7738e53e376524acee", "is_disabled": 0}, {"fusion_lat": 0.0, "fusion_lon": 0.0, "lat": 38.9191935, "type": "electric_scooter", "rental_uris": {"android": "https://dc.lft.to/lastmile_qr_scan", "ios": "https://dc.lft.to/lastmile_qr_scan"}, "is_reserved": 0, "lon": -77.0336275, "name": "aeaf47e9708e3cdd7ed0b0d5770427d8", "bike_id": "aeaf47e9708e3cdd7ed0b0d5770427d8", "is_disabled": 0}, {"fusion_lat": 0.0, "fusion_lon": 0.0, "lat": 38.91756066666667, "type": "electric_scooter", "rental_uris": {"android": "https://dc.lft.to/lastmile_qr_scan", "ios": "https://dc.lft.to/lastmile_qr_scan"}, "is_reserved": 0, "lon": -77.0121445, "name": "98527575136eddef069387f20eb2e16a", "bike_id": "98527575136eddef069387f20eb2e16a", "is_disabled": 0}, {"fusion_lat": 0.0, "fusion_lon": 0.0, "lat": 38.90982966666667, "type": "electric_scooter", "rental_uris": {"android": "https://dc.lft.to/lastmile_qr_scan", "ios": "https://dc.lft.to/lastmile_qr_scan"}, "is_reserved": 0, "lon": -76.99494916666667, "name": "f13a3d8f190fec8725e92e2e41049308", "bike_id": "f13a3d8f190fec8725e92e2e41049308", "is_disabled": 0}, {"fusion_lat": 0.0, "fusion_lon": 0.0, "lat": 38.904479, "type": "electric_scooter", "rental_uris": {"android": "https://dc.lft.to/lastmile_qr_scan", "ios": "https://dc.lft.to/lastmile_qr_scan"}, "is_reserved": 0, "lon": -76.97998216666667, "name": "74b85837c6b4b13ac171b839ddd721de", "bike_id": "74b85837c6b4b13ac171b839ddd721de", "is_disabled": 0}, {"fusion_lat": 0.0, "fusion_lon": 0.0, "lat": 38.922477, "type": "electric_scooter", "rental_uris": {"android": "https://dc.lft.to/lastmile_qr_scan", "ios": "https://dc.lft.to/lastmile_qr_scan"}, "is_reserved": 0, "lon": -76.98081766666667, "name": "a786ad1ac86fe527f0ebb18f541f65c1", "bike_id": "a786ad1ac86fe527f0ebb18f541f65c1", "is_disabled": 0}, {"fusion_lat": 0.0, "fusion_lon": 0.0, "lat": 38.921322833333335, "type": "electric_scooter", "rental_uris": {"android": "https://dc.lft.to/lastmile_qr_scan", "ios": "https://dc.lft.to/lastmile_qr_scan"}, "is_reserved": 0, "lon": -77.04341183333334, "name": "295dad7fb0dc42d8ef59700372c3662f", "bike_id": "295dad7fb0dc42d8ef59700372c3662f", "is_disabled": 0}, {"fusion_lat": 0.0, "fusion_lon": 0.0, "lat": 38.920215166666665, "type": "electric_scooter", "rental_uris": {"android": "https://dc.lft.to/lastmile_qr_scan", "ios": "https://dc.lft.to/lastmile_qr_scan"}, "is_reserved": 0, "lon": -77.031789, "name": "b43ea587d5ed975e578f82251ae0fcc0", "bike_id": "b43ea587d5ed975e578f82251ae0fcc0", "is_disabled": 0}, {"fusion_lat": 0.0, "fusion_lon": 0.0, "lat": 38.9023565, "type": "electric_scooter", "rental_uris": {"android": "https://dc.lft.to/lastmile_qr_scan", "ios": "https://dc.lft.to/lastmile_qr_scan"}, "is_reserved": 0, "lon": -77.03255433333334, "name": "b93cab12cd367024f944e2d139c43caf", "bike_id": "b93cab12cd367024f944e2d139c43caf", "is_disabled": 0}, {"fusion_lat": 0.0, "fusion_lon": 0.0, "lat": 38.935367666666664, "type": "electric_scooter", "rental_uris": {"android": "https://dc.lft.to/lastmile_qr_scan", "ios": "https://dc.lft.to/lastmile_qr_scan"}, "is_reserved": 0, "lon": -77.02348216666667, "name": "22b3b683f644ca33756b5a80074d2eb0", "bike_id": "22b3b683f644ca33756b5a80074d2eb0", "is_disabled": 0}, {"fusion_lat": 0.0, "fusion_lon": 0.0, "lat": 38.89771833333333, "type": "electric_scooter", "rental_uris": {"android": "https://dc.lft.to/lastmile_qr_scan", "ios": "https://dc.lft.to/lastmile_qr_scan"}, "is_reserved": 0, "lon": -77.029631, "name": "26e5685fc7b8d0cce023a3169174a385", "bike_id": "26e5685fc7b8d0cce023a3169174a385", "is_disabled": 0}, {"fusion_lat": 0.0, "fusion_lon": 0.0, "lat": 38.93590966666667, "type": "electric_scooter", "rental_uris": {"android": "https://dc.lft.to/lastmile_qr_scan", "ios": "https://dc.lft.to/lastmile_qr_scan"}, "is_reserved": 0, "lon": -77.02445283333333, "name": "2daf806889d4492a6c12500faaa449dd", "bike_id": "2daf806889d4492a6c12500faaa449dd", "is_disabled": 0}, {"fusion_lat": 0.0, "fusion_lon": 0.0, "lat": 38.8045115, "type": "electric_bike", "rental_uris": {"android": "https://dc.lft.to/lastmile_qr_scan", "ios": "https://dc.lft.to/lastmile_qr_scan"}, "is_reserved": 0, "lon": -77.05392133333334, "name": "80bed548550e15792b079d177e348384", "bike_id": "80bed548550e15792b079d177e348384", "is_disabled": 0}, {"fusion_lat": 0.0, "fusion_lon": 0.0, "lat": 38.9047445, "type": "electric_scooter", "rental_uris": {"android": "https://dc.lft.to/lastmile_qr_scan", "ios": "https://dc.lft.to/lastmile_qr_scan"}, "is_reserved": 0, "lon": -77.04639633333333, "name": "0c2bf721cb23affa78dbbae7c644e1e0", "bike_id": "0c2bf721cb23affa78dbbae7c644e1e0", "is_disabled": 0}, {"fusion_lat": 0.0, "fusion_lon": 0.0, "lat": 38.898725, "type": "electric_scooter", "rental_uris": {"android": "https://dc.lft.to/lastmile_qr_scan", "ios": "https://dc.lft.to/lastmile_qr_scan"}, "is_reserved": 0, "lon": -76.97519533333333, "name": "ba3603e5c56b9cf663a081fe576a72b5", "bike_id": "ba3603e5c56b9cf663a081fe576a72b5", "is_disabled": 0}, {"fusion_lat": 0.0, "fusion_lon": 0.0, "lat": 38.899674, "type": "electric_scooter", "rental_uris": {"android": "https://dc.lft.to/lastmile_qr_scan", "ios": "https://dc.lft.to/lastmile_qr_scan"}, "is_reserved": 0, "lon": -76.98071566666667, "name": "23299511e86680ac505d5098152874d3", "bike_id": "23299511e86680ac505d5098152874d3", "is_disabled": 0}, {"fusion_lat": 0.0, "fusion_lon": 0.0, "lat": 38.9111475, "type": "electric_scooter", "rental_uris": {"android": "https://dc.lft.to/lastmile_qr_scan", "ios": "https://dc.lft.to/lastmile_qr_scan"}, "is_reserved": 0, "lon": -77.04078616666666, "name": "48af7556ddbe15b61a1d1a20763b4f05", "bike_id": "48af7556ddbe15b61a1d1a20763b4f05", "is_disabled": 0}, {"fusion_lat": 0.0, "fusion_lon": 0.0, "lat": 38.914233, "type": "electric_scooter", "rental_uris": {"android": "https://dc.lft.to/lastmile_qr_scan", "ios": "https://dc.lft.to/lastmile_qr_scan"}, "is_reserved": 0, "lon": -77.02404583333333, "name": "3247fb86a29783ada549d020177697c8", "bike_id": "3247fb86a29783ada549d020177697c8", "is_disabled": 0}, {"fusion_lat": 0.0, "fusion_lon": 0.0, "lat": 38.898361333333334, "type": "electric_scooter", "rental_uris": {"android": "https://dc.lft.to/lastmile_qr_scan", "ios": "https://dc.lft.to/lastmile_qr_scan"}, "is_reserved": 0, "lon": -77.0437, "name": "5db29a52fa238ae710a40df3271c415d", "bike_id": "5db29a52fa238ae710a40df3271c415d", "is_disabled": 0}, {"fusion_lat": 0.0, "fusion_lon": 0.0, "lat": 38.896092, "type": "electric_scooter", "rental_uris": {"android": "https://dc.lft.to/lastmile_qr_scan", "ios": "https://dc.lft.to/lastmile_qr_scan"}, "is_reserved": 0, "lon": -77.046132, "name": "e32e8bad2380f53c10c1ce1857e1275c", "bike_id": "e32e8bad2380f53c10c1ce1857e1275c", "is_disabled": 0}, {"fusion_lat": 0.0, "fusion_lon": 0.0, "lat": 38.898780333333335, "type": "electric_scooter", "rental_uris": {"android": "https://dc.lft.to/lastmile_qr_scan", "ios": "https://dc.lft.to/lastmile_qr_scan"}, "is_reserved": 0, "lon": -77.03281566666666, "name": "158b63cacfe80f311bd61e97266ecfb1", "bike_id": "158b63cacfe80f311bd61e97266ecfb1", "is_disabled": 0}, {"fusion_lat": 0.0, "fusion_lon": 0.0, "lat": 38.88493066666667, "type": "electric_scooter", "rental_uris": {"android": "https://dc.lft.to/lastmile_qr_scan", "ios": "https://dc.lft.to/lastmile_qr_scan"}, "is_reserved": 0, "lon": -77.00709566666667, "name": "1333ce57c695e1d994ab74fdcc3b32cf", "bike_id": "1333ce57c695e1d994ab74fdcc3b32cf", "is_disabled": 0}, {"fusion_lat": 0.0, "fusion_lon": 0.0, "lat": 38.909516333333336, "type": "electric_scooter", "rental_uris": {"android": "https://dc.lft.to/lastmile_qr_scan", "ios": "https://dc.lft.to/lastmile_qr_scan"}, "is_reserved": 0, "lon": -77.0318195, "name": "4f0ab339dc89956cbbcb9b696894c963", "bike_id": "4f0ab339dc89956cbbcb9b696894c963", "is_disabled": 0}, {"fusion_lat": 0.0, "fusion_lon": 0.0, "lat": 38.8936145, "type": "electric_scooter", "rental_uris": {"android": "https://dc.lft.to/lastmile_qr_scan", "ios": "https://dc.lft.to/lastmile_qr_scan"}, "is_reserved": 0, "lon": -77.00336216666666, "name": "f817e6f4eb75c966844aa5ee127f5182", "bike_id": "f817e6f4eb75c966844aa5ee127f5182", "is_disabled": 0}, {"fusion_lat": 0.0, "fusion_lon": 0.0, "lat": 38.93561316666667, "type": "electric_scooter", "rental_uris": {"android": "https://dc.lft.to/lastmile_qr_scan", "ios": "https://dc.lft.to/lastmile_qr_scan"}, "is_reserved": 0, "lon": -77.074554, "name": "499f448fe473de7e783068a6c4df92b2", "bike_id": "499f448fe473de7e783068a6c4df92b2", "is_disabled": 0}, {"fusion_lat": 0.0, "fusion_lon": 0.0, "lat": 38.87173083333333, "type": "electric_scooter", "rental_uris": {"android": "https://dc.lft.to/lastmile_qr_scan", "ios": "https://dc.lft.to/lastmile_qr_scan"}, "is_reserved": 0, "lon": -77.0062515, "name": "cf9f3bd05ca06f5281779915781bd8ee", "bike_id": "cf9f3bd05ca06f5281779915781bd8ee", "is_disabled": 0}, {"fusion_lat": 0.0, "fusion_lon": 0.0, "lat": 38.89133116666667, "type": "electric_scooter", "rental_uris": {"android": "https://dc.lft.to/lastmile_qr_scan", "ios": "https://dc.lft.to/lastmile_qr_scan"}, "is_reserved": 0, "lon": -76.95184833333333, "name": "4af89ad40de7ca373cee7f91b84c76ca", "bike_id": "4af89ad40de7ca373cee7f91b84c76ca", "is_disabled": 0}, {"fusion_lat": 0.0, "fusion_lon": 0.0, "lat": 38.9057455, "type": "electric_scooter", "rental_uris": {"android": "https://dc.lft.to/lastmile_qr_scan", "ios": "https://dc.lft.to/lastmile_qr_scan"}, "is_reserved": 0, "lon": -77.0404545, "name": "d4959b8eafd9eec9c00160ee3a3f7521", "bike_id": "d4959b8eafd9eec9c00160ee3a3f7521", "is_disabled": 0}, {"fusion_lat": 0.0, "fusion_lon": 0.0, "lat": 38.896532, "type": "electric_scooter", "rental_uris": {"android": "https://dc.lft.to/lastmile_qr_scan", "ios": "https://dc.lft.to/lastmile_qr_scan"}, "is_reserved": 0, "lon": -77.0093615, "name": "9d79b9c0024c89635359a560e5bcea1f", "bike_id": "9d79b9c0024c89635359a560e5bcea1f", "is_disabled": 0}, {"fusion_lat": 0.0, "fusion_lon": 0.0, "lat": 38.906511, "type": "electric_scooter", "rental_uris": {"android": "https://dc.lft.to/lastmile_qr_scan", "ios": "https://dc.lft.to/lastmile_qr_scan"}, "is_reserved": 0, "lon": -77.04290766666666, "name": "450077835eb363009e4fc7ac1faa3911", "bike_id": "450077835eb363009e4fc7ac1faa3911", "is_disabled": 0}, {"fusion_lat": 0.0, "fusion_lon": 0.0, "lat": 38.9096, "type": "electric_scooter", "rental_uris": {"android": "https://dc.lft.to/lastmile_qr_scan", "ios": "https://dc.lft.to/lastmile_qr_scan"}, "is_reserved": 0, "lon": -77.022808, "name": "c5b8a45ff2e7671af4df8d76b52b00cb", "bike_id": "c5b8a45ff2e7671af4df8d76b52b00cb", "is_disabled": 0}, {"fusion_lat": 0.0, "fusion_lon": 0.0, "lat": 38.900833, "type": "electric_scooter", "rental_uris": {"android": "https://dc.lft.to/lastmile_qr_scan", "ios": "https://dc.lft.to/lastmile_qr_scan"}, "is_reserved": 0, "lon": -77.0495785, "name": "bec7331f0b2c0c59cc24819fa4802522", "bike_id": "bec7331f0b2c0c59cc24819fa4802522", "is_disabled": 0}, {"fusion_lat": 0.0, "fusion_lon": 0.0, "lat": 38.938614666666666, "type": "electric_scooter", "rental_uris": {"android": "https://dc.lft.to/lastmile_qr_scan", "ios": "https://dc.lft.to/lastmile_qr_scan"}, "is_reserved": 0, "lon": -77.02650466666667, "name": "066a235cff65efba3221307ea135d569", "bike_id": "066a235cff65efba3221307ea135d569", "is_disabled": 0}, {"fusion_lat": 0.0, "fusion_lon": 0.0, "lat": 38.90731383333333, "type": "electric_scooter", "rental_uris": {"android": "https://dc.lft.to/lastmile_qr_scan", "ios": "https://dc.lft.to/lastmile_qr_scan"}, "is_reserved": 0, "lon": -77.02614383333334, "name": "85f0ffd6ec404035938202ca2002dfbf", "bike_id": "85f0ffd6ec404035938202ca2002dfbf", "is_disabled": 0}, {"fusion_lat": 0.0, "fusion_lon": 0.0, "lat": 38.921522833333334, "type": "electric_scooter", "rental_uris": {"android": "https://dc.lft.to/lastmile_qr_scan", "ios": "https://dc.lft.to/lastmile_qr_scan"}, "is_reserved": 0, "lon": -77.033693, "name": "68e3d7d2a3ac81a64ac0f31f6483270e", "bike_id": "68e3d7d2a3ac81a64ac0f31f6483270e", "is_disabled": 0}, {"fusion_lat": 0.0, "fusion_lon": 0.0, "lat": 38.89734383333333, "type": "electric_scooter", "rental_uris": {"android": "https://dc.lft.to/lastmile_qr_scan", "ios": "https://dc.lft.to/lastmile_qr_scan"}, "is_reserved": 0, "lon": -77.04463516666667, "name": "8101e5a726e9a5287ac6ef0c7593191b", "bike_id": "8101e5a726e9a5287ac6ef0c7593191b", "is_disabled": 0}, {"fusion_lat": 0.0, "fusion_lon": 0.0, "lat": 38.897419166666666, "type": "electric_scooter", "rental_uris": {"android": "https://dc.lft.to/lastmile_qr_scan", "ios": "https://dc.lft.to/lastmile_qr_scan"}, "is_reserved": 0, "lon": -77.02379333333333, "name": "7c0e520708345d1098f47b40f6add919", "bike_id": "7c0e520708345d1098f47b40f6add919", "is_disabled": 0}, {"fusion_lat": 0.0, "fusion_lon": 0.0, "lat": 38.916942666666664, "type": "electric_scooter", "rental_uris": {"android": "https://dc.lft.to/lastmile_qr_scan", "ios": "https://dc.lft.to/lastmile_qr_scan"}, "is_reserved": 0, "lon": -77.02761566666666, "name": "cb56c8fc0d43a7a5435852dc0345fd01", "bike_id": "cb56c8fc0d43a7a5435852dc0345fd01", "is_disabled": 0}, {"fusion_lat": 0.0, "fusion_lon": 0.0, "lat": 38.876874666666666, "type": "electric_scooter", "rental_uris": {"android": "https://dc.lft.to/lastmile_qr_scan", "ios": "https://dc.lft.to/lastmile_qr_scan"}, "is_reserved": 0, "lon": -77.0006485, "name": "360b2948c0d686a291bc0e4af254da2b", "bike_id": "360b2948c0d686a291bc0e4af254da2b", "is_disabled": 0}, {"fusion_lat": 0.0, "fusion_lon": 0.0, "lat": 38.904420333333334, "type": "electric_scooter", "rental_uris": {"android": "https://dc.lft.to/lastmile_qr_scan", "ios": "https://dc.lft.to/lastmile_qr_scan"}, "is_reserved": 0, "lon": -77.0345285, "name": "55f54e66936edf07c3fa17d12a64779f", "bike_id": "55f54e66936edf07c3fa17d12a64779f", "is_disabled": 0}, {"fusion_lat": 0.0, "fusion_lon": 0.0, "lat": 38.908920333333334, "type": "electric_scooter", "rental_uris": {"android": "https://dc.lft.to/lastmile_qr_scan", "ios": "https://dc.lft.to/lastmile_qr_scan"}, "is_reserved": 0, "lon": -76.98237066666667, "name": "c74267e821057db91647f6bd2cdaa7f0", "bike_id": "c74267e821057db91647f6bd2cdaa7f0", "is_disabled": 0}, {"fusion_lat": 0.0, "fusion_lon": 0.0, "lat": 38.8963645, "type": "electric_scooter", "rental_uris": {"android": "https://dc.lft.to/lastmile_qr_scan", "ios": "https://dc.lft.to/lastmile_qr_scan"}, "is_reserved": 0, "lon": -76.98307833333334, "name": "8ddd5e838d2c7990ef8f76547c72a774", "bike_id": "8ddd5e838d2c7990ef8f76547c72a774", "is_disabled": 0}, {"fusion_lat": 0.0, "fusion_lon": 0.0, "lat": 38.879408, "type": "electric_scooter", "rental_uris": {"android": "https://dc.lft.to/lastmile_qr_scan", "ios": "https://dc.lft.to/lastmile_qr_scan"}, "is_reserved": 0, "lon": -77.021529, "name": "fafb009b0afd57299cfbe25a0a82a31b", "bike_id": "fafb009b0afd57299cfbe25a0a82a31b", "is_disabled": 0}, {"fusion_lat": 0.0, "fusion_lon": 0.0, "lat": 38.900855, "type": "electric_scooter", "rental_uris": {"android": "https://dc.lft.to/lastmile_qr_scan", "ios": "https://dc.lft.to/lastmile_qr_scan"}, "is_reserved": 0, "lon": -77.046612, "name": "8f74bf291a386feb938e3a52186cd6d8", "bike_id": "8f74bf291a386feb938e3a52186cd6d8", "is_disabled": 0}, {"fusion_lat": 0.0, "fusion_lon": 0.0, "lat": 38.9204555, "type": "electric_scooter", "rental_uris": {"android": "https://dc.lft.to/lastmile_qr_scan", "ios": "https://dc.lft.to/lastmile_qr_scan"}, "is_reserved": 0, "lon": -77.01674666666666, "name": "6f3153d6861be7f2cbf4f14557101d04", "bike_id": "6f3153d6861be7f2cbf4f14557101d04", "is_disabled": 0}, {"fusion_lat": 0.0, "fusion_lon": 0.0, "lat": 38.90013016666666, "type": "electric_scooter", "rental_uris": {"android": "https://dc.lft.to/lastmile_qr_scan", "ios": "https://dc.lft.to/lastmile_qr_scan"}, "is_reserved": 0, "lon": -77.04171916666667, "name": "4c6d6822b62fe4a8a7722c34be0ae0eb", "bike_id": "4c6d6822b62fe4a8a7722c34be0ae0eb", "is_disabled": 0}, {"fusion_lat": 0.0, "fusion_lon": 0.0, "lat": 38.922789, "type": "electric_scooter", "rental_uris": {"android": "https://dc.lft.to/lastmile_qr_scan", "ios": "https://dc.lft.to/lastmile_qr_scan"}, "is_reserved": 0, "lon": -77.042383, "name": "d86c1d0a55ef55e2693f690fa4839d78", "bike_id": "d86c1d0a55ef55e2693f690fa4839d78", "is_disabled": 0}, {"fusion_lat": 0.0, "fusion_lon": 0.0, "lat": 38.89460966666667, "type": "electric_scooter", "rental_uris": {"android": "https://dc.lft.to/lastmile_qr_scan", "ios": "https://dc.lft.to/lastmile_qr_scan"}, "is_reserved": 0, "lon": -77.00342466666666, "name": "d503d903a4e511d71424509be06532bb", "bike_id": "d503d903a4e511d71424509be06532bb", "is_disabled": 0}, {"fusion_lat": 0.0, "fusion_lon": 0.0, "lat": 38.89426483333333, "type": "electric_scooter", "rental_uris": {"android": "https://dc.lft.to/lastmile_qr_scan", "ios": "https://dc.lft.to/lastmile_qr_scan"}, "is_reserved": 0, "lon": -77.02087433333334, "name": "a6116acaefa071d31a2f6f1eabd811c1", "bike_id": "a6116acaefa071d31a2f6f1eabd811c1", "is_disabled": 0}, {"fusion_lat": 0.0, "fusion_lon": 0.0, "lat": 38.921619166666666, "type": "electric_scooter", "rental_uris": {"android": "https://dc.lft.to/lastmile_qr_scan", "ios": "https://dc.lft.to/lastmile_qr_scan"}, "is_reserved": 0, "lon": -77.03314333333333, "name": "1be1dc593ba79a460188790a5b9092ca", "bike_id": "1be1dc593ba79a460188790a5b9092ca", "is_disabled": 0}, {"fusion_lat": 0.0, "fusion_lon": 0.0, "lat": 38.91636616666667, "type": "electric_scooter", "rental_uris": {"android": "https://dc.lft.to/lastmile_qr_scan", "ios": "https://dc.lft.to/lastmile_qr_scan"}, "is_reserved": 0, "lon": -77.03176333333333, "name": "bc12cafb83b2e9d4861af9cbd2fa856e", "bike_id": "bc12cafb83b2e9d4861af9cbd2fa856e", "is_disabled": 0}, {"fusion_lat": 0.0, "fusion_lon": 0.0, "lat": 38.936993333333334, "type": "electric_scooter", "rental_uris": {"android": "https://dc.lft.to/lastmile_qr_scan", "ios": "https://dc.lft.to/lastmile_qr_scan"}, "is_reserved": 0, "lon": -77.05598183333333, "name": "cfae7f49ed9bbf1a371b5e9a52ee77a6", "bike_id": "cfae7f49ed9bbf1a371b5e9a52ee77a6", "is_disabled": 0}, {"fusion_lat": 0.0, "fusion_lon": 0.0, "lat": 38.909631, "type": "electric_scooter", "rental_uris": {"android": "https://dc.lft.to/lastmile_qr_scan", "ios": "https://dc.lft.to/lastmile_qr_scan"}, "is_reserved": 0, "lon": -77.032851, "name": "866b74d45c028c364cdf4730d29887f9", "bike_id": "866b74d45c028c364cdf4730d29887f9", "is_disabled": 0}, {"fusion_lat": 0.0, "fusion_lon": 0.0, "lat": 38.908746, "type": "electric_scooter", "rental_uris": {"android": "https://dc.lft.to/lastmile_qr_scan", "ios": "https://dc.lft.to/lastmile_qr_scan"}, "is_reserved": 0, "lon": -76.99794083333333, "name": "94ba7335cedd8b93f899a32f43ebdf5c", "bike_id": "94ba7335cedd8b93f899a32f43ebdf5c", "is_disabled": 0}, {"fusion_lat": 0.0, "fusion_lon": 0.0, "lat": 38.909717666666666, "type": "electric_scooter", "rental_uris": {"android": "https://dc.lft.to/lastmile_qr_scan", "ios": "https://dc.lft.to/lastmile_qr_scan"}, "is_reserved": 0, "lon": -77.04232283333333, "name": "e722a7051be11aded69926f8eb0b666a", "bike_id": "e722a7051be11aded69926f8eb0b666a", "is_disabled": 0}, {"fusion_lat": 0.0, "fusion_lon": 0.0, "lat": 38.9204455, "type": "electric_scooter", "rental_uris": {"android": "https://dc.lft.to/lastmile_qr_scan", "ios": "https://dc.lft.to/lastmile_qr_scan"}, "is_reserved": 0, "lon": -77.04183266666666, "name": "d1172d068ef6915c97fcb68200fdf9f8", "bike_id": "d1172d068ef6915c97fcb68200fdf9f8", "is_disabled": 0}, {"fusion_lat": 0.0, "fusion_lon": 0.0, "lat": 38.914167666666664, "type": "electric_scooter", "rental_uris": {"android": "https://dc.lft.to/lastmile_qr_scan", "ios": "https://dc.lft.to/lastmile_qr_scan"}, "is_reserved": 0, "lon": -77.02271183333333, "name": "cef9cbe0a28fdb2f1562d4e934114e7b", "bike_id": "cef9cbe0a28fdb2f1562d4e934114e7b", "is_disabled": 0}, {"fusion_lat": 0.0, "fusion_lon": 0.0, "lat": 38.92320266666667, "type": "electric_scooter", "rental_uris": {"android": "https://dc.lft.to/lastmile_qr_scan", "ios": "https://dc.lft.to/lastmile_qr_scan"}, "is_reserved": 0, "lon": -77.04345766666667, "name": "63e30502cdd1eba7612c7c0488bee531", "bike_id": "63e30502cdd1eba7612c7c0488bee531", "is_disabled": 0}, {"fusion_lat": 0.0, "fusion_lon": 0.0, "lat": 38.875794, "type": "electric_bike", "rental_uris": {"android": "https://dc.lft.to/lastmile_qr_scan", "ios": "https://dc.lft.to/lastmile_qr_scan"}, "is_reserved": 0, "lon": -77.23407033333334, "name": "3c5c5aceda9b3c32be25347f7010d039", "bike_id": "3c5c5aceda9b3c32be25347f7010d039", "is_disabled": 0}, {"fusion_lat": 0.0, "fusion_lon": 0.0, "lat": 38.86541233333333, "type": "electric_scooter", "rental_uris": {"android": "https://dc.lft.to/lastmile_qr_scan", "ios": "https://dc.lft.to/lastmile_qr_scan"}, "is_reserved": 0, "lon": -76.98964333333333, "name": "663a163d57ca05b38f720b054fac4db2", "bike_id": "663a163d57ca05b38f720b054fac4db2", "is_disabled": 0}, {"fusion_lat": 0.0, "fusion_lon": 0.0, "lat": 38.944130666666666, "type": "electric_scooter", "rental_uris": {"android": "https://dc.lft.to/lastmile_qr_scan", "ios": "https://dc.lft.to/lastmile_qr_scan"}, "is_reserved": 0, "lon": -77.02618033333333, "name": "cc58ee713c57ad0dc44e0e24ac5ba267", "bike_id": "cc58ee713c57ad0dc44e0e24ac5ba267", "is_disabled": 0}, {"fusion_lat": 0.0, "fusion_lon": 0.0, "lat": 38.87499533333333, "type": "electric_scooter", "rental_uris": {"android": "https://dc.lft.to/lastmile_qr_scan", "ios": "https://dc.lft.to/lastmile_qr_scan"}, "is_reserved": 0, "lon": -77.00132183333334, "name": "69fee6ad2b60837f29af1b80bb2e0743", "bike_id": "69fee6ad2b60837f29af1b80bb2e0743", "is_disabled": 0}, {"fusion_lat": 0.0, "fusion_lon": 0.0, "lat": 38.923725, "type": "electric_scooter", "rental_uris": {"android": "https://dc.lft.to/lastmile_qr_scan", "ios": "https://dc.lft.to/lastmile_qr_scan"}, "is_reserved": 0, "lon": -77.04128483333334, "name": "291e8785e19c62b6e52bf3ff1e3f46d8", "bike_id": "291e8785e19c62b6e52bf3ff1e3f46d8", "is_disabled": 0}, {"fusion_lat": 0.0, "fusion_lon": 0.0, "lat": 38.90548783333333, "type": "electric_scooter", "rental_uris": {"android": "https://dc.lft.to/lastmile_qr_scan", "ios": "https://dc.lft.to/lastmile_qr_scan"}, "is_reserved": 0, "lon": -77.05051233333333, "name": "5f79a9c9be7dc200c7342e88fcc89cb0", "bike_id": "5f79a9c9be7dc200c7342e88fcc89cb0", "is_disabled": 0}, {"fusion_lat": 0.0, "fusion_lon": 0.0, "lat": 38.900026, "type": "electric_scooter", "rental_uris": {"android": "https://dc.lft.to/lastmile_qr_scan", "ios": "https://dc.lft.to/lastmile_qr_scan"}, "is_reserved": 0, "lon": -77.024566, "name": "6617bb255e491f3dcc50ea1ddc857515", "bike_id": "6617bb255e491f3dcc50ea1ddc857515", "is_disabled": 0}, {"fusion_lat": 0.0, "fusion_lon": 0.0, "lat": 38.903874, "type": "electric_scooter", "rental_uris": {"android": "https://dc.lft.to/lastmile_qr_scan", "ios": "https://dc.lft.to/lastmile_qr_scan"}, "is_reserved": 0, "lon": -77.03852966666666, "name": "690e58702a5e185ec0c017c81d1ea826", "bike_id": "690e58702a5e185ec0c017c81d1ea826", "is_disabled": 0}, {"fusion_lat": 0.0, "fusion_lon": 0.0, "lat": 38.925151666666665, "type": "electric_scooter", "rental_uris": {"android": "https://dc.lft.to/lastmile_qr_scan", "ios": "https://dc.lft.to/lastmile_qr_scan"}, "is_reserved": 0, "lon": -77.052233, "name": "34bc07d03ed52f92bab79242d82ad1a8", "bike_id": "34bc07d03ed52f92bab79242d82ad1a8", "is_disabled": 0}, {"fusion_lat": 0.0, "fusion_lon": 0.0, "lat": 38.90163016666666, "type": "electric_scooter", "rental_uris": {"android": "https://dc.lft.to/lastmile_qr_scan", "ios": "https://dc.lft.to/lastmile_qr_scan"}, "is_reserved": 0, "lon": -77.03342233333333, "name": "d49f5ed278b9ec55c739f8e01a0a66a2", "bike_id": "d49f5ed278b9ec55c739f8e01a0a66a2", "is_disabled": 0}, {"fusion_lat": 0.0, "fusion_lon": 0.0, "lat": 38.88533916666667, "type": "electric_scooter", "rental_uris": {"android": "https://dc.lft.to/lastmile_qr_scan", "ios": "https://dc.lft.to/lastmile_qr_scan"}, "is_reserved": 0, "lon": -76.98269583333334, "name": "45f8fc840415468189a338638187e7d6", "bike_id": "45f8fc840415468189a338638187e7d6", "is_disabled": 0}, {"fusion_lat": 0.0, "fusion_lon": 0.0, "lat": 38.91616883333333, "type": "electric_scooter", "rental_uris": {"android": "https://dc.lft.to/lastmile_qr_scan", "ios": "https://dc.lft.to/lastmile_qr_scan"}, "is_reserved": 0, "lon": -77.03093916666667, "name": "56df3ecac9176a492832fd34f64ea258", "bike_id": "56df3ecac9176a492832fd34f64ea258", "is_disabled": 0}, {"fusion_lat": 0.0, "fusion_lon": 0.0, "lat": 38.90241016666667, "type": "electric_scooter", "rental_uris": {"android": "https://dc.lft.to/lastmile_qr_scan", "ios": "https://dc.lft.to/lastmile_qr_scan"}, "is_reserved": 0, "lon": -77.03026866666667, "name": "d4863fa90c0d066bd2d76093d5fdbd0f", "bike_id": "d4863fa90c0d066bd2d76093d5fdbd0f", "is_disabled": 0}, {"fusion_lat": 0.0, "fusion_lon": 0.0, "lat": 38.922641666666664, "type": "electric_scooter", "rental_uris": {"android": "https://dc.lft.to/lastmile_qr_scan", "ios": "https://dc.lft.to/lastmile_qr_scan"}, "is_reserved": 0, "lon": -77.036624, "name": "6c7b38d3889e075cc29ce0ab6cf5a055", "bike_id": "6c7b38d3889e075cc29ce0ab6cf5a055", "is_disabled": 0}, {"fusion_lat": 0.0, "fusion_lon": 0.0, "lat": 38.893666, "type": "electric_scooter", "rental_uris": {"android": "https://dc.lft.to/lastmile_qr_scan", "ios": "https://dc.lft.to/lastmile_qr_scan"}, "is_reserved": 0, "lon": -76.9470145, "name": "5ba1ade4d7739169bd308e9275dbc705", "bike_id": "5ba1ade4d7739169bd308e9275dbc705", "is_disabled": 0}, {"fusion_lat": 0.0, "fusion_lon": 0.0, "lat": 38.90560416666667, "type": "electric_scooter", "rental_uris": {"android": "https://dc.lft.to/lastmile_qr_scan", "ios": "https://dc.lft.to/lastmile_qr_scan"}, "is_reserved": 0, "lon": -77.048698, "name": "ba99bb52db69d4a54773bad9612eee30", "bike_id": "ba99bb52db69d4a54773bad9612eee30", "is_disabled": 0}, {"fusion_lat": 0.0, "fusion_lon": 0.0, "lat": 38.9349015, "type": "electric_scooter", "rental_uris": {"android": "https://dc.lft.to/lastmile_qr_scan", "ios": "https://dc.lft.to/lastmile_qr_scan"}, "is_reserved": 0, "lon": -77.02602983333334, "name": "e96136f5ef7b0011582b902961f4934a", "bike_id": "e96136f5ef7b0011582b902961f4934a", "is_disabled": 0}, {"fusion_lat": 0.0, "fusion_lon": 0.0, "lat": 38.904748, "type": "electric_scooter", "rental_uris": {"android": "https://dc.lft.to/lastmile_qr_scan", "ios": "https://dc.lft.to/lastmile_qr_scan"}, "is_reserved": 0, "lon": -77.035652, "name": "f8980d976f67a3e1b7182e5a4bbae6f4", "bike_id": "f8980d976f67a3e1b7182e5a4bbae6f4", "is_disabled": 0}, {"fusion_lat": 0.0, "fusion_lon": 0.0, "lat": 38.91939983333333, "type": "electric_scooter", "rental_uris": {"android": "https://dc.lft.to/lastmile_qr_scan", "ios": "https://dc.lft.to/lastmile_qr_scan"}, "is_reserved": 0, "lon": -77.07082583333333, "name": "0b2f3bf8bc5aa882cd79a7c50363df98", "bike_id": "0b2f3bf8bc5aa882cd79a7c50363df98", "is_disabled": 0}, {"fusion_lat": 0.0, "fusion_lon": 0.0, "lat": 38.92983433333333, "type": "electric_scooter", "rental_uris": {"android": "https://dc.lft.to/lastmile_qr_scan", "ios": "https://dc.lft.to/lastmile_qr_scan"}, "is_reserved": 0, "lon": -77.0234525, "name": "4e16b0c26af52e34ae45925225da7e2d", "bike_id": "4e16b0c26af52e34ae45925225da7e2d", "is_disabled": 0}, {"fusion_lat": 0.0, "fusion_lon": 0.0, "lat": 38.886031, "type": "electric_scooter", "rental_uris": {"android": "https://dc.lft.to/lastmile_qr_scan", "ios": "https://dc.lft.to/lastmile_qr_scan"}, "is_reserved": 0, "lon": -76.99557566666667, "name": "b906ebc412496bd5d4c040a622ce3dca", "bike_id": "b906ebc412496bd5d4c040a622ce3dca", "is_disabled": 0}, {"fusion_lat": 0.0, "fusion_lon": 0.0, "lat": 38.965494, "type": "electric_scooter", "rental_uris": {"android": "https://dc.lft.to/lastmile_qr_scan", "ios": "https://dc.lft.to/lastmile_qr_scan"}, "is_reserved": 0, "lon": -77.03629783333334, "name": "c38e37adda8493e1012cdd593f1b68bb", "bike_id": "c38e37adda8493e1012cdd593f1b68bb", "is_disabled": 0}, {"fusion_lat": 0.0, "fusion_lon": 0.0, "lat": 38.89212583333333, "type": "electric_scooter", "rental_uris": {"android": "https://dc.lft.to/lastmile_qr_scan", "ios": "https://dc.lft.to/lastmile_qr_scan"}, "is_reserved": 0, "lon": -76.99566616666667, "name": "1f9a52897b5d173e9c6bb062a8b44fd2", "bike_id": "1f9a52897b5d173e9c6bb062a8b44fd2", "is_disabled": 0}, {"fusion_lat": 0.0, "fusion_lon": 0.0, "lat": 38.92421816666667, "type": "electric_scooter", "rental_uris": {"android": "https://dc.lft.to/lastmile_qr_scan", "ios": "https://dc.lft.to/lastmile_qr_scan"}, "is_reserved": 0, "lon": -77.01945233333333, "name": "01d59d71607147045ca8b2489d24a93e", "bike_id": "01d59d71607147045ca8b2489d24a93e", "is_disabled": 0}, {"fusion_lat": 0.0, "fusion_lon": 0.0, "lat": 38.920740333333335, "type": "electric_scooter", "rental_uris": {"android": "https://dc.lft.to/lastmile_qr_scan", "ios": "https://dc.lft.to/lastmile_qr_scan"},