{"data": {"bikes": [{"is_reserved": 0, "type": "electric_scooter", "fusion_lat": 0.0, "is_disabled": 0, "rental_uris": {"ios": "https://dc.lft.to/lastmile_qr_scan", "android": "https://dc.lft.to/lastmile_qr_scan"}, "bike_id": "996ff861349f46126524a72c09f6f7b2", "lat": 38.8857745, "name": "996ff861349f46126524a72c09f6f7b2", "lon": -77.01211983333333, "fusion_lon": 0.0}, {"is_reserved": 0, "type": "electric_scooter", "fusion_lat": 0.0, "is_disabled": 0, "rental_uris": {"ios": "https://dc.lft.to/lastmile_qr_scan", "android": "https://dc.lft.to/lastmile_qr_scan"}, "bike_id": "3a8ccff8a0c9e1c2297f191d446b2330", "lat": 38.930169, "name": "3a8ccff8a0c9e1c2297f191d446b2330", "lon": -77.040446, "fusion_lon": 0.0}, {"is_reserved": 0, "type": "electric_scooter", "fusion_lat": 0.0, "is_disabled": 0, "rental_uris": {"ios": "https://dc.lft.to/lastmile_qr_scan", "android": "https://dc.lft.to/lastmile_qr_scan"}, "bike_id": "dce725be99c0ef1550cd4bd86197aa69", "lat": 38.932664833333334, "name": "dce725be99c0ef1550cd4bd86197aa69", "lon": -77.0326415, "fusion_lon": 0.0}, {"is_reserved": 0, "type": "electric_bike", "fusion_lat": 0.0, "is_disabled": 0, "rental_uris": {"ios": "https://dc.lft.to/lastmile_qr_scan", "android": "https://dc.lft.to/lastmile_qr_scan"}, "bike_id": "35206692cb8845ee3f2f4c325dcd391e", "lat": 38.850600666666665, "name": "35206692cb8845ee3f2f4c325dcd391e", "lon": -76.95828866666666, "fusion_lon": 0.0}, {"is_reserved": 0, "type": "electric_scooter", "fusion_lat": 0.0, "is_disabled": 0, "rental_uris": {"ios": "https://dc.lft.to/lastmile_qr_scan", "android": "https://dc.lft.to/lastmile_qr_scan"}, "bike_id": "ef46b09396253780d17e8195c9a580ef", "lat": 38.9095315, "name": "ef46b09396253780d17e8195c9a580ef", "lon": -76.9957575, "fusion_lon": 0.0}, {"is_reserved": 0, "type": "electric_scooter", "fusion_lat": 0.0, "is_disabled": 0, "rental_uris": {"ios": "https://dc.lft.to/lastmile_qr_scan", "android": "https://dc.lft.to/lastmile_qr_scan"}, "bike_id": "a59576376fa3020467cfcb4f0f836c57", "lat": 38.90846883333333, "name": "a59576376fa3020467cfcb4f0f836c57", "lon": -77.04345683333334, "fusion_lon": 0.0}, {"is_reserved": 0, "type": "electric_scooter", "fusion_lat": 0.0, "is_disabled": 0, "rental_uris": {"ios": "https://dc.lft.to/lastmile_qr_scan", "android": "https://dc.lft.to/lastmile_qr_scan"}, "bike_id": "8aae88ee3a16865328697589cdbde192", "lat": 38.925685, "name": "8aae88ee3a16865328697589cdbde192", "lon": -77.02989433333333, "fusion_lon": 0.0}, {"is_reserved": 0, "type": "electric_scooter", "fusion_lat": 0.0, "is_disabled": 0, "rental_uris": {"ios": "https://dc.lft.to/lastmile_qr_scan", "android": "https://dc.lft.to/lastmile_qr_scan"}, "bike_id": "a87f5ebbedc04864cf5bf95f693da4aa", "lat": 38.90625683333333, "name": "a87f5ebbedc04864cf5bf95f693da4aa", "lon": -77.00912, "fusion_lon": 0.0}, {"is_reserved": 0, "type": "electric_bike", "fusion_lat": 0.0, "is_disabled": 0, "rental_uris": {"ios": "https://dc.lft.to/lastmile_qr_scan", "android": "https://dc.lft.to/lastmile_qr_scan"}, "bike_id": "d790b37f1651ac68a097d4ad549550d7", "lat": 38.896931333333335, "name": "d790b37f1651ac68a097d4ad549550d7", "lon": -77.02426033333333, "fusion_lon": 0.0}, {"is_reserved": 0, "type": "electric_scooter", "fusion_lat": 0.0, "is_disabled": 0, "rental_uris": {"ios": "https://dc.lft.to/lastmile_qr_scan", "android": "https://dc.lft.to/lastmile_qr_scan"}, "bike_id": "c904536003fc15d3a1b680bc2e8da58d", "lat": 38.860851, "name": "c904536003fc15d3a1b680bc2e8da58d", "lon": -76.98377, "fusion_lon": 0.0}, {"is_reserved": 0, "type": "electric_scooter", "fusion_lat": 0.0, "is_disabled": 0, "rental_uris": {"ios": "https://dc.lft.to/lastmile_qr_scan", "android": "https://dc.lft.to/lastmile_qr_scan"}, "bike_id": "73e50b55f74b60fa9a6dce7287451a37", "lat": 38.93098966666667, "name": "73e50b55f74b60fa9a6dce7287451a37", "lon": -77.02474516666666, "fusion_lon": 0.0}, {"is_reserved": 0, "type": "electric_scooter", "fusion_lat": 0.0, "is_disabled": 0, "rental_uris": {"ios": "https://dc.lft.to/lastmile_qr_scan", "android": "https://dc.lft.to/lastmile_qr_scan"}, "bike_id": "760aa27dac09e173adf1357da1286d03", "lat": 38.90743533333333, "name": "760aa27dac09e173adf1357da1286d03", "lon": -77.04284083333333, "fusion_lon": 0.0}, {"is_reserved": 0, "type": "electric_scooter", "fusion_lat": 0.0, "is_disabled": 0, "rental_uris": {"ios": "https://dc.lft.to/lastmile_qr_scan", "android": "https://dc.lft.to/lastmile_qr_scan"}, "bike_id": "ff69be78f4eb13c99593afcb75e52b8d", "lat": 38.921167833333335, "name": "ff69be78f4eb13c99593afcb75e52b8d", "lon": -77.01758366666667, "fusion_lon": 0.0}, {"is_reserved": 0, "type": "electric_scooter", "fusion_lat": 0.0, "is_disabled": 0, "rental_uris": {"ios": "https://dc.lft.to/lastmile_qr_scan", "android": "https://dc.lft.to/lastmile_qr_scan"}, "bike_id": "78f9933cd8ce6f5caf7c264e9dc39229", "lat": 38.90441666666667, "name": "78f9933cd8ce6f5caf7c264e9dc39229", "lon": -76.99732166666666, "fusion_lon": 0.0}, {"is_reserved": 0, "type": "electric_scooter", "fusion_lat": 0.0, "is_disabled": 0, "rental_uris": {"ios": "https://dc.lft.to/lastmile_qr_scan", "android": "https://dc.lft.to/lastmile_qr_scan"}, "bike_id": "f7f3b926219725cd568a91db24692109", "lat": 38.923833333333334, "name": "f7f3b926219725cd568a91db24692109", "lon": -77.04114566666667, "fusion_lon": 0.0}, {"is_reserved": 0, "type": "electric_scooter", "fusion_lat": 0.0, "is_disabled": 0, "rental_uris": {"ios": "https://dc.lft.to/lastmile_qr_scan", "android": "https://dc.lft.to/lastmile_qr_scan"}, "bike_id": "ad4d88d4ca0353b6d8ecfb301eb2ab18", "lat": 38.9049025, "name": "ad4d88d4ca0353b6d8ecfb301eb2ab18", "lon": -77.0281635, "fusion_lon": 0.0}, {"is_reserved": 0, "type": "electric_scooter", "fusion_lat": 0.0, "is_disabled": 0, "rental_uris": {"ios": "https://dc.lft.to/lastmile_qr_scan", "android": "https://dc.lft.to/lastmile_qr_scan"}, "bike_id": "84e63c469348fa94f77933f5c62c6d5d", "lat": 38.9061005, "name": "84e63c469348fa94f77933f5c62c6d5d", "lon": -77.0210615, "fusion_lon": 0.0}, {"is_reserved": 0, "type": "electric_scooter", "fusion_lat": 0.0, "is_disabled": 0, "rental_uris": {"ios": "https://dc.lft.to/lastmile_qr_scan", "android": "https://dc.lft.to/lastmile_qr_scan"}, "bike_id": "899ca1fe06e786505d5f2425aa2f8e24", "lat": 38.88664683333333, "name": "899ca1fe06e786505d5f2425aa2f8e24", "lon": -76.98562516666667, "fusion_lon": 0.0}, {"is_reserved": 0, "type": "electric_scooter", "fusion_lat": 0.0, "is_disabled": 0, "rental_uris": {"ios": "https://dc.lft.to/lastmile_qr_scan", "android": "https://dc.lft.to/lastmile_qr_scan"}, "bike_id": "d5ca66231fe72de9e149d5e969bccce9", "lat": 38.85520866666667, "name": "d5ca66231fe72de9e149d5e969bccce9", "lon": -76.991454, "fusion_lon": 0.0}, {"is_reserved": 0, "type": "electric_scooter", "fusion_lat": 0.0, "is_disabled": 0, "rental_uris": {"ios": "https://dc.lft.to/lastmile_qr_scan", "android": "https://dc.lft.to/lastmile_qr_scan"}, "bike_id": "7345597cf33a765ec25068d831a413d1", "lat": 38.89479216666667, "name": "7345597cf33a765ec25068d831a413d1", "lon": -76.99359366666667, "fusion_lon": 0.0}, {"is_reserved": 0, "type": "electric_scooter", "fusion_lat": 0.0, "is_disabled": 0, "rental_uris": {"ios": "https://dc.lft.to/lastmile_qr_scan", "android": "https://dc.lft.to/lastmile_qr_scan"}, "bike_id": "905bbc0f0c981493ecad842f5131d485", "lat": 38.898356, "name": "905bbc0f0c981493ecad842f5131d485", "lon": -76.94632933333334, "fusion_lon": 0.0}, {"is_reserved": 0, "type": "electric_scooter", "fusion_lat": 0.0, "is_disabled": 0, "rental_uris": {"ios": "https://dc.lft.to/lastmile_qr_scan", "android": "https://dc.lft.to/lastmile_qr_scan"}, "bike_id": "95b04927f5956d391a1e1dfca40d6bc3", "lat": 38.92284383333333, "name": "95b04927f5956d391a1e1dfca40d6bc3", "lon": -77.01992766666666, "fusion_lon": 0.0}, {"is_reserved": 0, "type": "electric_scooter", "fusion_lat": 0.0, "is_disabled": 0, "rental_uris": {"ios": "https://dc.lft.to/lastmile_qr_scan", "android": "https://dc.lft.to/lastmile_qr_scan"}, "bike_id": "1cb2e0f64174119ced500ad56fca95bf", "lat": 38.92217933333333, "name": "1cb2e0f64174119ced500ad56fca95bf", "lon": -77.03295583333333, "fusion_lon": 0.0}, {"is_reserved": 0, "type": "electric_scooter", "fusion_lat": 0.0, "is_disabled": 0, "rental_uris": {"ios": "https://dc.lft.to/lastmile_qr_scan", "android": "https://dc.lft.to/lastmile_qr_scan"}, "bike_id": "ba79f13c49b75aab2b12bed2b17a2c1f", "lat": 38.881242666666665, "name": "ba79f13c49b75aab2b12bed2b17a2c1f", "lon": -76.99345983333333, "fusion_lon": 0.0}, {"is_reserved": 0, "type": "electric_scooter", "fusion_lat": 0.0, "is_disabled": 0, "rental_uris": {"ios": "https://dc.lft.to/lastmile_qr_scan", "android": "https://dc.lft.to/lastmile_qr_scan"}, "bike_id": "6a20a84ffa3f2f387432f8a70fa9c1b9", "lat": 38.934239, "name": "6a20a84ffa3f2f387432f8a70fa9c1b9", "lon": -77.044106, "fusion_lon": 0.0}, {"is_reserved": 0, "type": "electric_scooter", "fusion_lat": 0.0, "is_disabled": 0, "rental_uris": {"ios": "https://dc.lft.to/lastmile_qr_scan", "android": "https://dc.lft.to/lastmile_qr_scan"}, "bike_id": "440ebcc020cf31696716e9c4f6980c57", "lat": 38.902021500000004, "name": "440ebcc020cf31696716e9c4f6980c57", "lon": -77.02376566666666, "fusion_lon": 0.0}, {"is_reserved": 0, "type": "electric_scooter", "fusion_lat": 0.0, "is_disabled": 0, "rental_uris": {"ios": "https://dc.lft.to/lastmile_qr_scan", "android": "https://dc.lft.to/lastmile_qr_scan"}, "bike_id": "3f7c17d4c29b5a634b58c451fb3af4b7", "lat": 38.928317666666665, "name": "3f7c17d4c29b5a634b58c451fb3af4b7", "lon": -77.03708933333333, "fusion_lon": 0.0}, {"is_reserved": 0, "type": "electric_scooter", "fusion_lat": 0.0, "is_disabled": 0, "rental_uris": {"ios": "https://dc.lft.to/lastmile_qr_scan", "android": "https://dc.lft.to/lastmile_qr_scan"}, "bike_id": "e1eb90cdcf09eec6095cab49b4872619", "lat": 38.914702166666665, "name": "e1eb90cdcf09eec6095cab49b4872619", "lon": -77.00214033333333, "fusion_lon": 0.0}, {"is_reserved": 0, "type": "electric_scooter", "fusion_lat": 0.0, "is_disabled": 0, "rental_uris": {"ios": "https://dc.lft.to/lastmile_qr_scan", "android": "https://dc.lft.to/lastmile_qr_scan"}, "bike_id": "0ce0e751a39cf22ceff5d2453b4b2cc9", "lat": 38.87634666666667, "name": "0ce0e751a39cf22ceff5d2453b4b2cc9", "lon": -77.00960383333333, "fusion_lon": 0.0}, {"is_reserved": 0, "type": "electric_scooter", "fusion_lat": 0.0, "is_disabled": 0, "rental_uris": {"ios": "https://dc.lft.to/lastmile_qr_scan", "android": "https://dc.lft.to/lastmile_qr_scan"}, "bike_id": "86b7786966a4f31939f510b1a4415f8b", "lat": 38.93866383333334, "name": "86b7786966a4f31939f510b1a4415f8b", "lon": -77.0723985, "fusion_lon": 0.0}, {"is_reserved": 0, "type": "electric_scooter", "fusion_lat": 0.0, "is_disabled": 0, "rental_uris": {"ios": "https://dc.lft.to/lastmile_qr_scan", "android": "https://dc.lft.to/lastmile_qr_scan"}, "bike_id": "eb16ada1b22da9a85439a07f433162c1", "lat": 38.92047733333333, "name": "eb16ada1b22da9a85439a07f433162c1", "lon": -77.01669266666667, "fusion_lon": 0.0}, {"is_reserved": 0, "type": "electric_scooter", "fusion_lat": 0.0, "is_disabled": 0, "rental_uris": {"ios": "https://dc.lft.to/lastmile_qr_scan", "android": "https://dc.lft.to/lastmile_qr_scan"}, "bike_id": "b8124d3f8a52522d26a1968a49248165", "lat": 38.92714383333333, "name": "b8124d3f8a52522d26a1968a49248165", "lon": -77.04051266666667, "fusion_lon": 0.0}, {"is_reserved": 0, "type": "electric_bike", "fusion_lat": 0.0, "is_disabled": 0, "rental_uris": {"ios": "https://dc.lft.to/lastmile_qr_scan", "android": "https://dc.lft.to/lastmile_qr_scan"}, "bike_id": "e1a96c24d1ec4d579c4959ceec19d427", "lat": 38.832728, "name": "e1a96c24d1ec4d579c4959ceec19d427", "lon": -77.08369416666666, "fusion_lon": 0.0}, {"is_reserved": 0, "type": "electric_scooter", "fusion_lat": 0.0, "is_disabled": 0, "rental_uris": {"ios": "https://dc.lft.to/lastmile_qr_scan", "android": "https://dc.lft.to/lastmile_qr_scan"}, "bike_id": "7afeb5c064df2ac29ae8d2b7a496aacc", "lat": 38.920244333333336, "name": "7afeb5c064df2ac29ae8d2b7a496aacc", "lon": -77.0170385, "fusion_lon": 0.0}, {"is_reserved": 0, "type": "electric_scooter", "fusion_lat": 0.0, "is_disabled": 0, "rental_uris": {"ios": "https://dc.lft.to/lastmile_qr_scan", "android": "https://dc.lft.to/lastmile_qr_scan"}, "bike_id": "5fc975bb1daa20b0f75ff1fa0e16e531", "lat": 38.92029566666667, "name": "5fc975bb1daa20b0f75ff1fa0e16e531", "lon": -77.03978666666667, "fusion_lon": 0.0}, {"is_reserved": 0, "type": "electric_scooter", "fusion_lat": 0.0, "is_disabled": 0, "rental_uris": {"ios": "https://dc.lft.to/lastmile_qr_scan", "android": "https://dc.lft.to/lastmile_qr_scan"}, "bike_id": "f784b6dc4c7746a79d64a3557fc8765e", "lat": 38.916993166666664, "name": "f784b6dc4c7746a79d64a3557fc8765e", "lon": -77.02486983333333, "fusion_lon": 0.0}, {"is_reserved": 0, "type": "electric_scooter", "fusion_lat": 0.0, "is_disabled": 0, "rental_uris": {"ios": "https://dc.lft.to/lastmile_qr_scan", "android": "https://dc.lft.to/lastmile_qr_scan"}, "bike_id": "753bbb3c0ac704574db2de6e7f2b0077", "lat": 38.89885533333333, "name": "753bbb3c0ac704574db2de6e7f2b0077", "lon": -77.03319133333333, "fusion_lon": 0.0}, {"is_reserved": 0, "type": "electric_scooter", "fusion_lat": 0.0, "is_disabled": 0, "rental_uris": {"ios": "https://dc.lft.to/lastmile_qr_scan", "android": "https://dc.lft.to/lastmile_qr_scan"}, "bike_id": "6fc77c0311fd527d0dcf7cafe42bbaaa", "lat": 38.9563515, "name": "6fc77c0311fd527d0dcf7cafe42bbaaa", "lon": -77.02211366666667, "fusion_lon": 0.0}, {"is_reserved": 0, "type": "electric_scooter", "fusion_lat": 0.0, "is_disabled": 0, "rental_uris": {"ios": "https://dc.lft.to/lastmile_qr_scan", "android": "https://dc.lft.to/lastmile_qr_scan"}, "bike_id": "7e153426b4e00729ad160bd30584543b", "lat": 38.907817666666666, "name": "7e153426b4e00729ad160bd30584543b", "lon": -77.00217516666666, "fusion_lon": 0.0}, {"is_reserved": 0, "type": "electric_scooter", "fusion_lat": 0.0, "is_disabled": 0, "rental_uris": {"ios": "https://dc.lft.to/lastmile_qr_scan", "android": "https://dc.lft.to/lastmile_qr_scan"}, "bike_id": "d215fca6b1f5c794596b20920ae4aeb5", "lat": 38.930425166666666, "name": "d215fca6b1f5c794596b20920ae4aeb5", "lon": -77.03807266666666, "fusion_lon": 0.0}, {"is_reserved": 0, "type": "electric_scooter", "fusion_lat": 0.0, "is_disabled": 0, "rental_uris": {"ios": "https://dc.lft.to/lastmile_qr_scan", "android": "https://dc.lft.to/lastmile_qr_scan"}, "bike_id": "bc1e4b022fbfee121fb66c2566351b57", "lat": 38.89905666666667, "name": "bc1e4b022fbfee121fb66c2566351b57", "lon": -77.049942, "fusion_lon": 0.0}, {"is_reserved": 0, "type": "electric_scooter", "fusion_lat": 0.0, "is_disabled": 0, "rental_uris": {"ios": "https://dc.lft.to/lastmile_qr_scan", "android": "https://dc.lft.to/lastmile_qr_scan"}, "bike_id": "44782983b0a01daa4f0e16279bbf5930", "lat": 38.9055075, "name": "44782983b0a01daa4f0e16279bbf5930", "lon": -77.00601766666666, "fusion_lon": 0.0}, {"is_reserved": 0, "type": "electric_scooter", "fusion_lat": 0.0, "is_disabled": 0, "rental_uris": {"ios": "https://dc.lft.to/lastmile_qr_scan", "android": "https://dc.lft.to/lastmile_qr_scan"}, "bike_id": "5d45d0d04ae7d97786e93330c0404714", "lat": 38.8800945, "name": "5d45d0d04ae7d97786e93330c0404714", "lon": -77.00215216666666, "fusion_lon": 0.0}, {"is_reserved": 0, "type": "electric_scooter", "fusion_lat": 0.0, "is_disabled": 0, "rental_uris": {"ios": "https://dc.lft.to/lastmile_qr_scan", "android": "https://dc.lft.to/lastmile_qr_scan"}, "bike_id": "963ba0d5b994879ff96dd31a346ba04e", "lat": 38.9044415, "name": "963ba0d5b994879ff96dd31a346ba04e", "lon": -76.98160366666667, "fusion_lon": 0.0}, {"is_reserved": 0, "type": "electric_scooter", "fusion_lat": 0.0, "is_disabled": 0, "rental_uris": {"ios": "https://dc.lft.to/lastmile_qr_scan", "android": "https://dc.lft.to/lastmile_qr_scan"}, "bike_id": "6890b9939ce08d9aad89059918a0a770", "lat": 38.921155666666664, "name": "6890b9939ce08d9aad89059918a0a770", "lon": -77.04706716666666, "fusion_lon": 0.0}, {"is_reserved": 0, "type": "electric_scooter", "fusion_lat": 0.0, "is_disabled": 0, "rental_uris": {"ios": "https://dc.lft.to/lastmile_qr_scan", "android": "https://dc.lft.to/lastmile_qr_scan"}, "bike_id": "90f872a9a00c25e7b0475e86caecf54d", "lat": 38.930829833333334, "name": "90f872a9a00c25e7b0475e86caecf54d", "lon": -77.026838, "fusion_lon": 0.0}, {"is_reserved": 0, "type": "electric_scooter", "fusion_lat": 0.0, "is_disabled": 0, "rental_uris": {"ios": "https://dc.lft.to/lastmile_qr_scan", "android": "https://dc.lft.to/lastmile_qr_scan"}, "bike_id": "6e754c312d331aa989e0b705ec4fca62", "lat": 38.9192635, "name": "6e754c312d331aa989e0b705ec4fca62", "lon": -77.03420866666667, "fusion_lon": 0.0}, {"is_reserved": 0, "type": "electric_scooter", "fusion_lat": 0.0, "is_disabled": 0, "rental_uris": {"ios": "https://dc.lft.to/lastmile_qr_scan", "android": "https://dc.lft.to/lastmile_qr_scan"}, "bike_id": "257346b95cfd2251306b26a694305e19", "lat": 38.914174333333335, "name": "257346b95cfd2251306b26a694305e19", "lon": -77.0309375, "fusion_lon": 0.0}, {"is_reserved": 0, "type": "electric_scooter", "fusion_lat": 0.0, "is_disabled": 0, "rental_uris": {"ios": "https://dc.lft.to/lastmile_qr_scan", "android": "https://dc.lft.to/lastmile_qr_scan"}, "bike_id": "516c5e6d244405ab3b249870564eed47", "lat": 38.879219666666664, "name": "516c5e6d244405ab3b249870564eed47", "lon": -77.01701983333334, "fusion_lon": 0.0}, {"is_reserved": 0, "type": "electric_bike", "fusion_lat": 0.0, "is_disabled": 0, "rental_uris": {"ios": "https://dc.lft.to/lastmile_qr_scan", "android": "https://dc.lft.to/lastmile_qr_scan"}, "bike_id": "e31632d41939f3d5b51b9d5ff7f4647f", "lat": 38.86442566666667, "name": "e31632d41939f3d5b51b9d5ff7f4647f", "lon": -76.969885, "fusion_lon": 0.0}, {"is_reserved": 0, "type": "electric_scooter", "fusion_lat": 0.0, "is_disabled": 0, "rental_uris": {"ios": "https://dc.lft.to/lastmile_qr_scan", "android": "https://dc.lft.to/lastmile_qr_scan"}, "bike_id": "6e851393d501a165cd210207f18823f2", "lat": 38.93250616666667, "name": "6e851393d501a165cd210207f18823f2", "lon": -77.03273033333333, "fusion_lon": 0.0}, {"is_reserved": 0, "type": "electric_scooter", "fusion_lat": 0.0, "is_disabled": 0, "rental_uris": {"ios": "https://dc.lft.to/lastmile_qr_scan", "android": "https://dc.lft.to/lastmile_qr_scan"}, "bike_id": "b5cddebe7fa6c0837a5401c665bc931a", "lat": 38.873771, "name": "b5cddebe7fa6c0837a5401c665bc931a", "lon": -77.0013125, "fusion_lon": 0.0}, {"is_reserved": 0, "type": "electric_scooter", "fusion_lat": 0.0, "is_disabled": 0, "rental_uris": {"ios": "https://dc.lft.to/lastmile_qr_scan", "android": "https://dc.lft.to/lastmile_qr_scan"}, "bike_id": "e7dacac69f1bb89f937a64de4279ee49", "lat": 38.93090133333333, "name": "e7dacac69f1bb89f937a64de4279ee49", "lon": -77.02553016666667, "fusion_lon": 0.0}, {"is_reserved": 0, "type": "electric_scooter", "fusion_lat": 0.0, "is_disabled": 0, "rental_uris": {"ios": "https://dc.lft.to/lastmile_qr_scan", "android": "https://dc.lft.to/lastmile_qr_scan"}, "bike_id": "6869ef5085afee90dd99ffcc68c03ac3", "lat": 38.905764, "name": "6869ef5085afee90dd99ffcc68c03ac3", "lon": -77.00649983333334, "fusion_lon": 0.0}, {"is_reserved": 0, "type": "electric_scooter", "fusion_lat": 0.0, "is_disabled": 0, "rental_uris": {"ios": "https://dc.lft.to/lastmile_qr_scan", "android": "https://dc.lft.to/lastmile_qr_scan"}, "bike_id": "a997f5bf3ea6bffda2421bece80726ff", "lat": 38.87856166666667, "name": "a997f5bf3ea6bffda2421bece80726ff", "lon": -77.00698783333333, "fusion_lon": 0.0}, {"is_reserved": 0, "type": "electric_scooter", "fusion_lat": 0.0, "is_disabled": 0, "rental_uris": {"ios": "https://dc.lft.to/lastmile_qr_scan", "android": "https://dc.lft.to/lastmile_qr_scan"}, "bike_id": "e50685c32edd7086f96f72ac41719834", "lat": 38.90391533333333, "name": "e50685c32edd7086f96f72ac41719834", "lon": -77.03183466666667, "fusion_lon": 0.0}, {"is_reserved": 0, "type": "electric_scooter", "fusion_lat": 0.0, "is_disabled": 0, "rental_uris": {"ios": "https://dc.lft.to/lastmile_qr_scan", "android": "https://dc.lft.to/lastmile_qr_scan"}, "bike_id": "5abdde2ae2898e9215b0bee42baf6861", "lat": 38.89789, "name": "5abdde2ae2898e9215b0bee42baf6861", "lon": -77.05023033333333, "fusion_lon": 0.0}, {"is_reserved": 0, "type": "electric_scooter", "fusion_lat": 0.0, "is_disabled": 0, "rental_uris": {"ios": "https://dc.lft.to/lastmile_qr_scan", "android": "https://dc.lft.to/lastmile_qr_scan"}, "bike_id": "e7553e505bfeb288f824b873c135b1a5", "lat": 38.94860533333333, "name": "e7553e505bfeb288f824b873c135b1a5", "lon": -77.07886866666666, "fusion_lon": 0.0}, {"is_reserved": 0, "type": "electric_bike", "fusion_lat": 0.0, "is_disabled": 0, "rental_uris": {"ios": "https://dc.lft.to/lastmile_qr_scan", "android": "https://dc.lft.to/lastmile_qr_scan"}, "bike_id": "60d615b7e4a2fa1677d18cc13c156653", "lat": 38.969003, "name": "60d615b7e4a2fa1677d18cc13c156653", "lon": -76.95576416666667, "fusion_lon": 0.0}, {"is_reserved": 0, "type": "electric_scooter", "fusion_lat": 0.0, "is_disabled": 0, "rental_uris": {"ios": "https://dc.lft.to/lastmile_qr_scan", "android": "https://dc.lft.to/lastmile_qr_scan"}, "bike_id": "6f078a9a7e4dc0ce7a50452d82d0c6de", "lat": 38.9227885, "name": "6f078a9a7e4dc0ce7a50452d82d0c6de", "lon": -76.997722, "fusion_lon": 0.0}, {"is_reserved": 0, "type": "electric_scooter", "fusion_lat": 0.0, "is_disabled": 0, "rental_uris": {"ios": "https://dc.lft.to/lastmile_qr_scan", "android": "https://dc.lft.to/lastmile_qr_scan"}, "bike_id": "08d52ae3f9ca07a3858cc653637c1029", "lat": 38.916562166666665, "name": "08d52ae3f9ca07a3858cc653637c1029", "lon": -77.04178866666666, "fusion_lon": 0.0}, {"is_reserved": 0, "type": "electric_scooter", "fusion_lat": 0.0, "is_disabled": 0, "rental_uris": {"ios": "https://dc.lft.to/lastmile_qr_scan", "android": "https://dc.lft.to/lastmile_qr_scan"}, "bike_id": "a3e2b3e0a6e48450ea4ad4a06f88eed3", "lat": 38.8969475, "name": "a3e2b3e0a6e48450ea4ad4a06f88eed3", "lon": -77.04326083333333, "fusion_lon": 0.0}, {"is_reserved": 0, "type": "electric_scooter", "fusion_lat": 0.0, "is_disabled": 0, "rental_uris": {"ios": "https://dc.lft.to/lastmile_qr_scan", "android": "https://dc.lft.to/lastmile_qr_scan"}, "bike_id": "12e3579a9c64984a1841d7fba79fded5", "lat": 38.934412333333334, "name": "12e3579a9c64984a1841d7fba79fded5", "lon": -77.032993, "fusion_lon": 0.0}, {"is_reserved": 0, "type": "electric_scooter", "fusion_lat": 0.0, "is_disabled": 0, "rental_uris": {"ios": "https://dc.lft.to/lastmile_qr_scan", "android": "https://dc.lft.to/lastmile_qr_scan"}, "bike_id": "990ba05df92b04eec0d10956f89c1870", "lat": 38.898799, "name": "990ba05df92b04eec0d10956f89c1870", "lon": -76.93179016666667, "fusion_lon": 0.0}, {"is_reserved": 0, "type": "electric_scooter", "fusion_lat": 0.0, "is_disabled": 0, "rental_uris": {"ios": "https://dc.lft.to/lastmile_qr_scan", "android": "https://dc.lft.to/lastmile_qr_scan"}, "bike_id": "73aedf6e84749ee09ab71a89c0ca27d0", "lat": 38.897296, "name": "73aedf6e84749ee09ab71a89c0ca27d0", "lon": -77.03071283333334, "fusion_lon": 0.0}, {"is_reserved": 0, "type": "electric_scooter", "fusion_lat": 0.0, "is_disabled": 0, "rental_uris": {"ios": "https://dc.lft.to/lastmile_qr_scan", "android": "https://dc.lft.to/lastmile_qr_scan"}, "bike_id": "0b9f6df856ba56f43218a82a2c00edf5", "lat": 38.919321833333335, "name": "0b9f6df856ba56f43218a82a2c00edf5", "lon": -77.0247175, "fusion_lon": 0.0}, {"is_reserved": 0, "type": "electric_scooter", "fusion_lat": 0.0, "is_disabled": 0, "rental_uris": {"ios": "https://dc.lft.to/lastmile_qr_scan", "android": "https://dc.lft.to/lastmile_qr_scan"}, "bike_id": "5afc341af949e972ac445b028e7992da", "lat": 38.913369833333334, "name": "5afc341af949e972ac445b028e7992da", "lon": -77.03038633333334, "fusion_lon": 0.0}, {"is_reserved": 0, "type": "electric_bike", "fusion_lat": 0.0, "is_disabled": 0, "rental_uris": {"ios": "https://dc.lft.to/lastmile_qr_scan", "android": "https://dc.lft.to/lastmile_qr_scan"}, "bike_id": "af264d1728acb693f2e394dff66a0717", "lat": 38.89728783333333, "name": "af264d1728acb693f2e394dff66a0717", "lon": -76.9723725, "fusion_lon": 0.0}, {"is_reserved": 0, "type": "electric_scooter", "fusion_lat": 0.0, "is_disabled": 0, "rental_uris": {"ios": "https://dc.lft.to/lastmile_qr_scan", "android": "https://dc.lft.to/lastmile_qr_scan"}, "bike_id": "b22cd1a50484127560ee1ad4f7e27446", "lat": 38.90092466666667, "name": "b22cd1a50484127560ee1ad4f7e27446", "lon": -77.02995566666667, "fusion_lon": 0.0}, {"is_reserved": 0, "type": "electric_scooter", "fusion_lat": 0.0, "is_disabled": 0, "rental_uris": {"ios": "https://dc.lft.to/lastmile_qr_scan", "android": "https://dc.lft.to/lastmile_qr_scan"}, "bike_id": "0323da436906e322038e1c495278676e", "lat": 38.97236766666666, "name": "0323da436906e322038e1c495278676e", "lon": -77.027166, "fusion_lon": 0.0}, {"is_reserved": 0, "type": "electric_bike", "fusion_lat": 0.0, "is_disabled": 0, "rental_uris": {"ios": "https://dc.lft.to/lastmile_qr_scan", "android": "https://dc.lft.to/lastmile_qr_scan"}, "bike_id": "b4f54042cddd7dbdbf7766dab3dd074e", "lat": 38.9190535, "name": "b4f54042cddd7dbdbf7766dab3dd074e", "lon": -77.00063683333333, "fusion_lon": 0.0}, {"is_reserved": 0, "type": "electric_scooter", "fusion_lat": 0.0, "is_disabled": 0, "rental_uris": {"ios": "https://dc.lft.to/lastmile_qr_scan", "android": "https://dc.lft.to/lastmile_qr_scan"}, "bike_id": "b811f425034ca14e296ab3ae7d73156b", "lat": 38.90598983333334, "name": "b811f425034ca14e296ab3ae7d73156b", "lon": -77.06665766666667, "fusion_lon": 0.0}, {"is_reserved": 0, "type": "electric_scooter", "fusion_lat": 0.0, "is_disabled": 0, "rental_uris": {"ios": "https://dc.lft.to/lastmile_qr_scan", "android": "https://dc.lft.to/lastmile_qr_scan"}, "bike_id": "a3022f41274be43c15a55b35c526e1a7", "lat": 38.9427625, "name": "a3022f41274be43c15a55b35c526e1a7", "lon": -77.02935883333333, "fusion_lon": 0.0}, {"is_reserved": 0, "type": "electric_scooter", "fusion_lat": 0.0, "is_disabled": 0, "rental_uris": {"ios": "https://dc.lft.to/lastmile_qr_scan", "android": "https://dc.lft.to/lastmile_qr_scan"}, "bike_id": "2a9a3c8f4105cdbfd36e01b1cca6c70b", "lat": 38.91632416666667, "name": "2a9a3c8f4105cdbfd36e01b1cca6c70b", "lon": -77.02814966666666, "fusion_lon": 0.0}, {"is_reserved": 0, "type": "electric_scooter", "fusion_lat": 0.0, "is_disabled": 0, "rental_uris": {"ios": "https://dc.lft.to/lastmile_qr_scan", "android": "https://dc.lft.to/lastmile_qr_scan"}, "bike_id": "0dca0296371b4bd777bef8f70f1e776d", "lat": 38.9210835, "name": "0dca0296371b4bd777bef8f70f1e776d", "lon": -77.017664, "fusion_lon": 0.0}, {"is_reserved": 0, "type": "electric_scooter", "fusion_lat": 0.0, "is_disabled": 0, "rental_uris": {"ios": "https://dc.lft.to/lastmile_qr_scan", "android": "https://dc.lft.to/lastmile_qr_scan"}, "bike_id": "f45a49bf8595c23763cf77f679a7dbab", "lat": 38.942059, "name": "f45a49bf8595c23763cf77f679a7dbab", "lon": -77.01330133333333, "fusion_lon": 0.0}, {"is_reserved": 0, "type": "electric_scooter", "fusion_lat": 0.0, "is_disabled": 0, "rental_uris": {"ios": "https://dc.lft.to/lastmile_qr_scan", "android": "https://dc.lft.to/lastmile_qr_scan"}, "bike_id": "e0068eaa2330d40a7d8da7a39ae1b642", "lat": 38.94649916666667, "name": "e0068eaa2330d40a7d8da7a39ae1b642", "lon": -77.017429, "fusion_lon": 0.0}, {"is_reserved": 0, "type": "electric_scooter", "fusion_lat": 0.0, "is_disabled": 0, "rental_uris": {"ios": "https://dc.lft.to/lastmile_qr_scan", "android": "https://dc.lft.to/lastmile_qr_scan"}, "bike_id": "6361421e40e36ec63ea017d0caa9425a", "lat": 38.90412716666667, "name": "6361421e40e36ec63ea017d0caa9425a", "lon": -76.97332416666667, "fusion_lon": 0.0}, {"is_reserved": 0, "type": "electric_scooter", "fusion_lat": 0.0, "is_disabled": 0, "rental_uris": {"ios": "https://dc.lft.to/lastmile_qr_scan", "android": "https://dc.lft.to/lastmile_qr_scan"}, "bike_id": "48adf4fdedff32fe2a50ed902732f5d4", "lat": 38.90541066666667, "name": "48adf4fdedff32fe2a50ed902732f5d4", "lon": -77.05803783333333, "fusion_lon": 0.0}, {"is_reserved": 0, "type": "electric_scooter", "fusion_lat": 0.0, "is_disabled": 0, "rental_uris": {"ios": "https://dc.lft.to/lastmile_qr_scan", "android": "https://dc.lft.to/lastmile_qr_scan"}, "bike_id": "2a3438beef0b6c7d1511a7ec4990d12e", "lat": 38.96428816666667, "name": "2a3438beef0b6c7d1511a7ec4990d12e", "lon": -77.07427366666667, "fusion_lon": 0.0}, {"is_reserved": 0, "type": "electric_bike", "fusion_lat": 0.0, "is_disabled": 0, "rental_uris": {"ios": "https://dc.lft.to/lastmile_qr_scan", "android": "https://dc.lft.to/lastmile_qr_scan"}, "bike_id": "18ce3dddadbbeccf5a8ebe5cc1bebe0c", "lat": 38.92802416666667, "name": "18ce3dddadbbeccf5a8ebe5cc1bebe0c", "lon": -77.22944316666667, "fusion_lon": 0.0}, {"is_reserved": 0, "type": "electric_scooter", "fusion_lat": 0.0, "is_disabled": 0, "rental_uris": {"ios": "https://dc.lft.to/lastmile_qr_scan", "android": "https://dc.lft.to/lastmile_qr_scan"}, "bike_id": "82a07ed556f6eed8a9e3036e65c330b3", "lat": 38.857200666666664, "name": "82a07ed556f6eed8a9e3036e65c330b3", "lon": -76.9809655, "fusion_lon": 0.0}, {"is_reserved": 0, "type": "electric_bike", "fusion_lat": 0.0, "is_disabled": 0, "rental_uris": {"ios": "https://dc.lft.to/lastmile_qr_scan", "android": "https://dc.lft.to/lastmile_qr_scan"}, "bike_id": "b3667ef604b170f95c11121e68e54c66", "lat": 38.83409433333333, "name": "b3667ef604b170f95c11121e68e54c66", "lon": -77.04998883333333, "fusion_lon": 0.0}, {"is_reserved": 0, "type": "electric_scooter", "fusion_lat": 0.0, "is_disabled": 0, "rental_uris": {"ios": "https://dc.lft.to/lastmile_qr_scan", "android": "https://dc.lft.to/lastmile_qr_scan"}, "bike_id": "344ddfa59ed8508df8280ad0f447bc70", "lat": 38.935661833333334, "name": "344ddfa59ed8508df8280ad0f447bc70", "lon": -77.07346766666667, "fusion_lon": 0.0}, {"is_reserved": 0, "type": "electric_scooter", "fusion_lat": 0.0, "is_disabled": 0, "rental_uris": {"ios": "https://dc.lft.to/lastmile_qr_scan", "android": "https://dc.lft.to/lastmile_qr_scan"}, "bike_id": "0e6cf9aa5e0f9a5dbfb42e672fdfcc83", "lat": 38.927564, "name": "0e6cf9aa5e0f9a5dbfb42e672fdfcc83", "lon": -77.03265433333333, "fusion_lon": 0.0}, {"is_reserved": 0, "type": "electric_scooter", "fusion_lat": 0.0, "is_disabled": 0, "rental_uris": {"ios": "https://dc.lft.to/lastmile_qr_scan", "android": "https://dc.lft.to/lastmile_qr_scan"}, "bike_id": "7884cdcd0557c92d760b377243d6aa79", "lat": 38.885415, "name": "7884cdcd0557c92d760b377243d6aa79", "lon": -76.985387, "fusion_lon": 0.0}, {"is_reserved": 0, "type": "electric_scooter", "fusion_lat": 0.0, "is_disabled": 0, "rental_uris": {"ios": "https://dc.lft.to/lastmile_qr_scan", "android": "https://dc.lft.to/lastmile_qr_scan"}, "bike_id": "2adc8c01eadf210dd43a4a530d464022", "lat": 38.9473055, "name": "2adc8c01eadf210dd43a4a530d464022", "lon": -77.02670433333333, "fusion_lon": 0.0}, {"is_reserved": 0, "type": "electric_scooter", "fusion_lat": 0.0, "is_disabled": 0, "rental_uris": {"ios": "https://dc.lft.to/lastmile_qr_scan", "android": "https://dc.lft.to/lastmile_qr_scan"}, "bike_id": "6132d5d61c99c86e5abf3ffaad1adb79", "lat": 38.917010833333336, "name": "6132d5d61c99c86e5abf3ffaad1adb79", "lon": -77.05298783333333, "fusion_lon": 0.0}, {"is_reserved": 0, "type": "electric_scooter", "fusion_lat": 0.0, "is_disabled": 0, "rental_uris": {"ios": "https://dc.lft.to/lastmile_qr_scan", "android": "https://dc.lft.to/lastmile_qr_scan"}, "bike_id": "fd0537b359c2e65366c71ef64de0b0d5", "lat": 38.91781533333333, "name": "fd0537b359c2e65366c71ef64de0b0d5", "lon": -77.014816, "fusion_lon": 0.0}, {"is_reserved": 0, "type": "electric_scooter", "fusion_lat": 0.0, "is_disabled": 0, "rental_uris": {"ios": "https://dc.lft.to/lastmile_qr_scan", "android": "https://dc.lft.to/lastmile_qr_scan"}, "bike_id": "082496440d233cb7efb7f73cbdffabd5", "lat": 38.88487216666667, "name": "082496440d233cb7efb7f73cbdffabd5", "lon": -77.04503333333334, "fusion_lon": 0.0}, {"is_reserved": 0, "type": "electric_scooter", "fusion_lat": 0.0, "is_disabled": 0, "rental_uris": {"ios": "https://dc.lft.to/lastmile_qr_scan", "android": "https://dc.lft.to/lastmile_qr_scan"}, "bike_id": "ba15abaa273a1e0541b4819bc8d46ad8", "lat": 38.92184366666667, "name": "ba15abaa273a1e0541b4819bc8d46ad8", "lon": -77.021182, "fusion_lon": 0.0}, {"is_reserved": 0, "type": "electric_scooter", "fusion_lat": 0.0, "is_disabled": 0, "rental_uris": {"ios": "https://dc.lft.to/lastmile_qr_scan", "android": "https://dc.lft.to/lastmile_qr_scan"}, "bike_id": "b76411bb373f27411d445f01cddc3ed6", "lat": 38.914866333333336, "name": "b76411bb373f27411d445f01cddc3ed6", "lon": -77.0218475, "fusion_lon": 0.0}, {"is_reserved": 0, "type": "electric_scooter", "fusion_lat": 0.0, "is_disabled": 0, "rental_uris": {"ios": "https://dc.lft.to/lastmile_qr_scan", "android": "https://dc.lft.to/lastmile_qr_scan"}, "bike_id": "b06ec100610833a5c285325b31841c54", "lat": 38.9321155, "name": "b06ec100610833a5c285325b31841c54", "lon": -77.025086, "fusion_lon": 0.0}, {"is_reserved": 0, "type": "electric_scooter", "fusion_lat": 0.0, "is_disabled": 0, "rental_uris": {"ios": "https://dc.lft.to/lastmile_qr_scan", "android": "https://dc.lft.to/lastmile_qr_scan"}, "bike_id": "fb5a4cb1656d58a03d1307180d05216c", "lat": 38.898763333333335, "name": "fb5a4cb1656d58a03d1307180d05216c", "lon": -76.931777, "fusion_lon": 0.0}, {"is_reserved": 0, "type": "electric_scooter", "fusion_lat": 0.0, "is_disabled": 0, "rental_uris": {"ios": "https://dc.lft.to/lastmile_qr_scan", "android": "https://dc.lft.to/lastmile_qr_scan"}, "bike_id": "6e87559ae35619bfb4c021b523f26f08", "lat": 38.900383, "name": "6e87559ae35619bfb4c021b523f26f08", "lon": -77.04343266666666, "fusion_lon": 0.0}, {"is_reserved": 0, "type": "electric_scooter", "fusion_lat": 0.0, "is_disabled": 0, "rental_uris": {"ios": "https://dc.lft.to/lastmile_qr_scan", "android": "https://dc.lft.to/lastmile_qr_scan"}, "bike_id": "22d32de55c842775a8fedd093e2db6f3", "lat": 38.901997, "name": "22d32de55c842775a8fedd093e2db6f3", "lon": -77.021994, "fusion_lon": 0.0}, {"is_reserved": 0, "type": "electric_scooter", "fusion_lat": 0.0, "is_disabled": 0, "rental_uris": {"ios": "https://dc.lft.to/lastmile_qr_scan", "android": "https://dc.lft.to/lastmile_qr_scan"}, "bike_id": "29914095e37813fc77ae2deda88b2b4f", "lat": 38.926388333333335, "name": "29914095e37813fc77ae2deda88b2b4f", "lon": -77.03837166666666, "fusion_lon": 0.0}, {"is_reserved": 0, "type": "electric_bike", "fusion_lat": 0.0, "is_disabled": 0, "rental_uris": {"ios": "https://dc.lft.to/lastmile_qr_scan", "android": "https://dc.lft.to/lastmile_qr_scan"}, "bike_id": "fa9afab5351e58957d0b7dbfad748a94", "lat": 38.868163, "name": "fa9afab5351e58957d0b7dbfad748a94", "lon": -76.98028383333333, "fusion_lon": 0.0}, {"is_reserved": 0, "type": "electric_scooter", "fusion_lat": 0.0, "is_disabled": 0, "rental_uris": {"ios": "https://dc.lft.to/lastmile_qr_scan", "android": "https://dc.lft.to/lastmile_qr_scan"}, "bike_id": "2b5db5e9821d4d343761c461ec4c0bcc", "lat": 38.919027666666665, "name": "2b5db5e9821d4d343761c461ec4c0bcc", "lon": -77.00046266666666, "fusion_lon": 0.0}, {"is_reserved": 0, "type": "electric_scooter", "fusion_lat": 0.0, "is_disabled": 0, "rental_uris": {"ios": "https://dc.lft.to/lastmile_qr_scan", "android": "https://dc.lft.to/lastmile_qr_scan"}, "bike_id": "53cba11dac4153c675008c2bf95fd434", "lat": 38.90736716666667, "name": "53cba11dac4153c675008c2bf95fd434", "lon": -77.035305, "fusion_lon": 0.0}, {"is_reserved": 0, "type": "electric_scooter", "fusion_lat": 0.0, "is_disabled": 0, "rental_uris": {"ios": "https://dc.lft.to/lastmile_qr_scan", "android": "https://dc.lft.to/lastmile_qr_scan"}, "bike_id": "810a19570fae65397240ca09661f1634", "lat": 38.9550345, "name": "810a19570fae65397240ca09661f1634", "lon": -77.06996383333333, "fusion_lon": 0.0}, {"is_reserved": 0, "type": "electric_scooter", "fusion_lat": 0.0, "is_disabled": 0, "rental_uris": {"ios": "https://dc.lft.to/lastmile_qr_scan", "android": "https://dc.lft.to/lastmile_qr_scan"}, "bike_id": "c679a4bdd1c6b700af7bad33ba27dd16", "lat": 38.90837883333333, "name": "c679a4bdd1c6b700af7bad33ba27dd16", "lon": -76.999835, "fusion_lon": 0.0}, {"is_reserved": 0, "type": "electric_scooter", "fusion_lat": 0.0, "is_disabled": 0, "rental_uris": {"ios": "https://dc.lft.to/lastmile_qr_scan", "android": "https://dc.lft.to/lastmile_qr_scan"}, "bike_id": "28e0060e3b41cb677d0d003cf18e2f3c", "lat": 38.92339583333333, "name": "28e0060e3b41cb677d0d003cf18e2f3c", "lon": -76.9849195, "fusion_lon": 0.0}, {"is_reserved": 0, "type": "electric_scooter", "fusion_lat": 0.0, "is_disabled": 0, "rental_uris": {"ios": "https://dc.lft.to/lastmile_qr_scan", "android": "https://dc.lft.to/lastmile_qr_scan"}, "bike_id": "519697cbeb0c8c4b3ab9a892d758a13f", "lat": 38.90875233333333, "name": "519697cbeb0c8c4b3ab9a892d758a13f", "lon": -77.04049033333334, "fusion_lon": 0.0}, {"is_reserved": 0, "type": "electric_scooter", "fusion_lat": 0.0, "is_disabled": 0, "rental_uris": {"ios": "https://dc.lft.to/lastmile_qr_scan", "android": "https://dc.lft.to/lastmile_qr_scan"}, "bike_id": "ee9a0c5abbd0fb72e94a063ba87ba7e6", "lat": 38.943033666666665, "name": "ee9a0c5abbd0fb72e94a063ba87ba7e6", "lon": -77.0253675, "fusion_lon": 0.0}, {"is_reserved": 0, "type": "electric_scooter", "fusion_lat": 0.0, "is_disabled": 0, "rental_uris": {"ios": "https://dc.lft.to/lastmile_qr_scan", "android": "https://dc.lft.to/lastmile_qr_scan"}, "bike_id": "047418d3a057d6a8eaf949d751836891", "lat": 38.9013285, "name": "047418d3a057d6a8eaf949d751836891", "lon": -77.04171316666667, "fusion_lon": 0.0}, {"is_reserved": 0, "type": "electric_scooter", "fusion_lat": 0.0, "is_disabled": 0, "rental_uris": {"ios": "https://dc.lft.to/lastmile_qr_scan", "android": "https://dc.lft.to/lastmile_qr_scan"}, "bike_id": "1e4a9374e233c83b0bfd579321262131", "lat": 38.905544, "name": "1e4a9374e233c83b0bfd579321262131", "lon": -77.0060235, "fusion_lon": 0.0}, {"is_reserved": 0, "type": "electric_scooter", "fusion_lat": 0.0, "is_disabled": 0, "rental_uris": {"ios": "https://dc.lft.to/lastmile_qr_scan", "android": "https://dc.lft.to/lastmile_qr_scan"}, "bike_id": "5fe14c2a9d970bf557e00b3a3075acd5", "lat": 38.90723066666666, "name": "5fe14c2a9d970bf557e00b3a3075acd5", "lon": -77.03223166666666, "fusion_lon": 0.0}, {"is_reserved": 0, "type": "electric_scooter", "fusion_lat": 0.0, "is_disabled": 0, "rental_uris": {"ios": "https://dc.lft.to/lastmile_qr_scan", "android": "https://dc.lft.to/lastmile_qr_scan"}, "bike_id": "51b2cf8fccac208592bf0558b4e944fd", "lat": 38.900107, "name": "51b2cf8fccac208592bf0558b4e944fd", "lon": -77.0068565, "fusion_lon": 0.0}, {"is_reserved": 0, "type": "electric_scooter", "fusion_lat": 0.0, "is_disabled": 0, "rental_uris": {"ios": "https://dc.lft.to/lastmile_qr_scan", "android": "https://dc.lft.to/lastmile_qr_scan"}, "bike_id": "0cd7fec4d5c6154ee91b7c0141a5e358", "lat": 38.89670916666667, "name": "0cd7fec4d5c6154ee91b7c0141a5e358", "lon": -76.93212016666666, "fusion_lon": 0.0}, {"is_reserved": 0, "type": "electric_scooter", "fusion_lat": 0.0, "is_disabled": 0, "rental_uris": {"ios": "https://dc.lft.to/lastmile_qr_scan", "android": "https://dc.lft.to/lastmile_qr_scan"}, "bike_id": "f451237ea1c8bdaf577d2b7aa7c92fb1", "lat": 38.8948165, "name": "f451237ea1c8bdaf577d2b7aa7c92fb1", "lon": -76.94872416666666, "fusion_lon": 0.0}, {"is_reserved": 0, "type": "electric_scooter", "fusion_lat": 0.0, "is_disabled": 0, "rental_uris": {"ios": "https://dc.lft.to/lastmile_qr_scan", "android": "https://dc.lft.to/lastmile_qr_scan"}, "bike_id": "62fc457d01bf8c24eeaf038c8357653e", "lat": 38.91409383333333, "name": "62fc457d01bf8c24eeaf038c8357653e", "lon": -77.04503933333334, "fusion_lon": 0.0}, {"is_reserved": 0, "type": "electric_bike", "fusion_lat": 0.0, "is_disabled": 0, "rental_uris": {"ios": "https://dc.lft.to/lastmile_qr_scan", "android": "https://dc.lft.to/lastmile_qr_scan"}, "bike_id": "25ef873e65992701cfdd1f93e0597ee4", "lat": 38.875773333333335, "name": "25ef873e65992701cfdd1f93e0597ee4", "lon": -77.234101, "fusion_lon": 0.0}, {"is_reserved": 0, "type": "electric_scooter", "fusion_lat": 0.0, "is_disabled": 0, "rental_uris": {"ios": "https://dc.lft.to/lastmile_qr_scan", "android": "https://dc.lft.to/lastmile_qr_scan"}, "bike_id": "c4c8c7e44e862c505fdaac943716c22f", "lat": 38.908478, "name": "c4c8c7e44e862c505fdaac943716c22f", "lon": -77.02466533333333, "fusion_lon": 0.0}, {"is_reserved": 0, "type": "electric_scooter", "fusion_lat": 0.0, "is_disabled": 0, "rental_uris": {"ios": "https://dc.lft.to/lastmile_qr_scan", "android": "https://dc.lft.to/lastmile_qr_scan"}, "bike_id": "1f31688fc862ceefd104a284fa752553", "lat": 38.91157533333333, "name": "1f31688fc862ceefd104a284fa752553", "lon": -77.04483866666666, "fusion_lon": 0.0}, {"is_reserved": 0, "type": "electric_scooter", "fusion_lat": 0.0, "is_disabled": 0, "rental_uris": {"ios": "https://dc.lft.to/lastmile_qr_scan", "android": "https://dc.lft.to/lastmile_qr_scan"}, "bike_id": "4061f52a96fba91ed08dab9833a01d0f", "lat": 38.893290666666665, "name": "4061f52a96fba91ed08dab9833a01d0f", "lon": -76.93930133333333, "fusion_lon": 0.0}, {"is_reserved": 0, "type": "electric_scooter", "fusion_lat": 0.0, "is_disabled": 0, "rental_uris": {"ios": "https://dc.lft.to/lastmile_qr_scan", "android": "https://dc.lft.to/lastmile_qr_scan"}, "bike_id": "1863cf435393cf95f17242fb7636d069", "lat": 38.91766783333333, "name": "1863cf435393cf95f17242fb7636d069", "lon": -77.00455133333334, "fusion_lon": 0.0}, {"is_reserved": 0, "type": "electric_scooter", "fusion_lat": 0.0, "is_disabled": 0, "rental_uris": {"ios": "https://dc.lft.to/lastmile_qr_scan", "android": "https://dc.lft.to/lastmile_qr_scan"}, "bike_id": "f075867eb10c94b57e1cbda7577c2243", "lat": 38.90266966666667, "name": "f075867eb10c94b57e1cbda7577c2243", "lon": -77.01753083333334, "fusion_lon": 0.0}, {"is_reserved": 0, "type": "electric_scooter", "fusion_lat": 0.0, "is_disabled": 0, "rental_uris": {"ios": "https://dc.lft.to/lastmile_qr_scan", "android": "https://dc.lft.to/lastmile_qr_scan"}, "bike_id": "4168bc17abb5db088873e9a26183078f", "lat": 38.924424333333334, "name": "4168bc17abb5db088873e9a26183078f", "lon": -77.0424005, "fusion_lon": 0.0}, {"is_reserved": 0, "type": "electric_scooter", "fusion_lat": 0.0, "is_disabled": 0, "rental_uris": {"ios": "https://dc.lft.to/lastmile_qr_scan", "android": "https://dc.lft.to/lastmile_qr_scan"}, "bike_id": "b201680988502ea40c2565d18d711fbf", "lat": 38.870732833333335, "name": "b201680988502ea40c2565d18d711fbf", "lon": -76.98128883333334, "fusion_lon": 0.0}, {"is_reserved": 0, "type": "electric_scooter", "fusion_lat": 0.0, "is_disabled": 0, "rental_uris": {"ios": "https://dc.lft.to/lastmile_qr_scan", "android": "https://dc.lft.to/lastmile_qr_scan"}, "bike_id": "2444f66329ffb915615a9eb899839cb7", "lat": 38.92597933333333, "name": "2444f66329ffb915615a9eb899839cb7", "lon": -77.02391183333333, "fusion_lon": 0.0}, {"is_reserved": 0, "type": "electric_bike", "fusion_lat": 0.0, "is_disabled": 0, "rental_uris": {"ios": "https://dc.lft.to/lastmile_qr_scan", "android": "https://dc.lft.to/lastmile_qr_scan"}, "bike_id": "f2453b57376f95228992e19a27d10d37", "lat": 38.879968, "name": "f2453b57376f95228992e19a27d10d37", "lon": -76.98544583333333, "fusion_lon": 0.0}, {"is_reserved": 0, "type": "electric_scooter", "fusion_lat": 0.0, "is_disabled": 0, "rental_uris": {"ios": "https://dc.lft.to/lastmile_qr_scan", "android": "https://dc.lft.to/lastmile_qr_scan"}, "bike_id": "9f63983a852a1a51fe0a755f0954790c", "lat": 38.917411666666666, "name": "9f63983a852a1a51fe0a755f0954790c", "lon": -77.01777283333334, "fusion_lon": 0.0}, {"is_reserved": 0, "type": "electric_scooter", "fusion_lat": 0.0, "is_disabled": 0, "rental_uris": {"ios": "https://dc.lft.to/lastmile_qr_scan", "android": "https://dc.lft.to/lastmile_qr_scan"}, "bike_id": "4e5bf244994e87f572fc50e94cd63763", "lat": 38.87455116666667, "name": "4e5bf244994e87f572fc50e94cd63763", "lon": -77.00485733333333, "fusion_lon": 0.0}, {"is_reserved": 0, "type": "electric_scooter", "fusion_lat": 0.0, "is_disabled": 0, "rental_uris": {"ios": "https://dc.lft.to/lastmile_qr_scan", "android": "https://dc.lft.to/lastmile_qr_scan"}, "bike_id": "a8efb51c2144e31112033e1ab3b0473e", "lat": 38.905734, "name": "a8efb51c2144e31112033e1ab3b0473e", "lon": -76.97633033333334, "fusion_lon": 0.0}, {"is_reserved": 0, "type": "electric_bike", "fusion_lat": 0.0, "is_disabled": 0, "rental_uris": {"ios": "https://dc.lft.to/lastmile_qr_scan", "android": "https://dc.lft.to/lastmile_qr_scan"}, "bike_id": "9d9917ae1e0ef89205b221c41a7f018b", "lat": 38.831596833333336, "name": "9d9917ae1e0ef89205b221c41a7f018b", "lon": -76.9959085, "fusion_lon": 0.0}, {"is_reserved": 0, "type": "electric_scooter", "fusion_lat": 0.0, "is_disabled": 0, "rental_uris": {"ios": "https://dc.lft.to/lastmile_qr_scan", "android": "https://dc.lft.to/lastmile_qr_scan"}, "bike_id": "e1286afa3071a1b24ebd0deb0f931c96", "lat": 38.90725116666667, "name": "e1286afa3071a1b24ebd0deb0f931c96", "lon": -77.02898683333333, "fusion_lon": 0.0}, {"is_reserved": 0, "type": "electric_scooter", "fusion_lat": 0.0, "is_disabled": 0, "rental_uris": {"ios": "https://dc.lft.to/lastmile_qr_scan", "android": "https://dc.lft.to/lastmile_qr_scan"}, "bike_id": "6d0e467a15445bbf46d48d9f9b352499", "lat": 38.921715, "name": "6d0e467a15445bbf46d48d9f9b352499", "lon": -77.04026233333333, "fusion_lon": 0.0}, {"is_reserved": 0, "type": "electric_scooter", "fusion_lat": 0.0, "is_disabled": 0, "rental_uris": {"ios": "https://dc.lft.to/lastmile_qr_scan", "android": "https://dc.lft.to/lastmile_qr_scan"}, "bike_id": "3f9f7e0cbdcafc1b916fc19cd3f3b844", "lat": 38.923421833333336, "name": "3f9f7e0cbdcafc1b916fc19cd3f3b844", "lon": -77.05782883333333, "fusion_lon": 0.0}, {"is_reserved": 0, "type": "electric_scooter", "fusion_lat": 0.0, "is_disabled": 0, "rental_uris": {"ios": "https://dc.lft.to/lastmile_qr_scan", "android": "https://dc.lft.to/lastmile_qr_scan"}, "bike_id": "4c8226050e104c961025913d8ed2a73a", "lat": 38.935079, "name": "4c8226050e104c961025913d8ed2a73a", "lon": -77.05691916666666, "fusion_lon": 0.0}, {"is_reserved": 0, "type": "electric_scooter", "fusion_lat": 0.0, "is_disabled": 0, "rental_uris": {"ios": "https://dc.lft.to/lastmile_qr_scan", "android": "https://dc.lft.to/lastmile_qr_scan"}, "bike_id": "38cfe018a87cbb730d9c50af67f1a8a3", "lat": 38.90911333333333, "name": "38cfe018a87cbb730d9c50af67f1a8a3", "lon": -77.03507883333333, "fusion_lon": 0.0}, {"is_reserved": 0, "type": "electric_scooter", "fusion_lat": 0.0, "is_disabled": 0, "rental_uris": {"ios": "https://dc.lft.to/lastmile_qr_scan", "android": "https://dc.lft.to/lastmile_qr_scan"}, "bike_id": "898167f22bf935a5110aa8da3c71ffe4", "lat": 38.8764275, "name": "898167f22bf935a5110aa8da3c71ffe4", "lon": -76.99293216666666, "fusion_lon": 0.0}, {"is_reserved": 0, "type": "electric_bike", "fusion_lat": 0.0, "is_disabled": 0, "rental_uris": {"ios": "https://dc.lft.to/lastmile_qr_scan", "android": "https://dc.lft.to/lastmile_qr_scan"}, "bike_id": "45ea536b5328e168d0de5550ae4c855b", "lat": 38.8726745, "name": "45ea536b5328e168d0de5550ae4c855b", "lon": -76.97562583333334, "fusion_lon": 0.0}, {"is_reserved": 0, "type": "electric_scooter", "fusion_lat": 0.0, "is_disabled": 0, "rental_uris": {"ios": "https://dc.lft.to/lastmile_qr_scan", "android": "https://dc.lft.to/lastmile_qr_scan"}, "bike_id": "b849970e8a2f66b50f72a5958fc44a9c", "lat": 38.89417433333333, "name": "b849970e8a2f66b50f72a5958fc44a9c", "lon": -77.01085266666666, "fusion_lon": 0.0}, {"is_reserved": 0, "type": "electric_bike", "fusion_lat": 0.0, "is_disabled": 0, "rental_uris": {"ios": "https://dc.lft.to/lastmile_qr_scan", "android": "https://dc.lft.to/lastmile_qr_scan"}, "bike_id": "df3606c5b42b0f992a6a86dc1a30979d", "lat": 38.80481666666667, "name": "df3606c5b42b0f992a6a86dc1a30979d", "lon": -76.991108, "fusion_lon": 0.0}, {"is_reserved": 0, "type": "electric_scooter", "fusion_lat": 0.0, "is_disabled": 0, "rental_uris": {"ios": "https://dc.lft.to/lastmile_qr_scan", "android": "https://dc.lft.to/lastmile_qr_scan"}, "bike_id": "8b501109fc3a5aceb4161617a5775ab4", "lat": 38.903984333333334, "name": "8b501109fc3a5aceb4161617a5775ab4", "lon": -76.9894285, "fusion_lon": 0.0}, {"is_reserved": 0, "type": "electric_scooter", "fusion_lat": 0.0, "is_disabled": 0, "rental_uris": {"ios": "https://dc.lft.to/lastmile_qr_scan", "android": "https://dc.lft.to/lastmile_qr_scan"}, "bike_id": "2daf195e41a6df95e9a3808b04a54560", "lat": 38.90790833333333, "name": "2daf195e41a6df95e9a3808b04a54560", "lon": -77.0434965, "fusion_lon": 0.0}, {"is_reserved": 0, "type": "electric_scooter", "fusion_lat": 0.0, "is_disabled": 0, "rental_uris": {"ios": "https://dc.lft.to/lastmile_qr_scan", "android": "https://dc.lft.to/lastmile_qr_scan"}, "bike_id": "20e1b3acd7a083a2ee7c4155c4d2a7ad", "lat": 38.917389166666666, "name": "20e1b3acd7a083a2ee7c4155c4d2a7ad", "lon": -77.06892533333334, "fusion_lon": 0.0}, {"is_reserved": 0, "type": "electric_bike", "fusion_lat": 0.0, "is_disabled": 0, "rental_uris": {"ios": "https://dc.lft.to/lastmile_qr_scan", "android": "https://dc.lft.to/lastmile_qr_scan"}, "bike_id": "d937c921315af438276d7230d97c74bc", "lat": 38.9295015, "name": "d937c921315af438276d7230d97c74bc", "lon": -76.97564316666667, "fusion_lon": 0.0}, {"is_reserved": 0, "type": "electric_scooter", "fusion_lat": 0.0, "is_disabled": 0, "rental_uris": {"ios": "https://dc.lft.to/lastmile_qr_scan", "android": "https://dc.lft.to/lastmile_qr_scan"}, "bike_id": "7ac73179d75b001e0cc9469a13b8d8b0", "lat": 38.91564483333333, "name": "7ac73179d75b001e0cc9469a13b8d8b0", "lon": -77.03175666666667, "fusion_lon": 0.0}, {"is_reserved": 0, "type": "electric_scooter", "fusion_lat": 0.0, "is_disabled": 0, "rental_uris": {"ios": "https://dc.lft.to/lastmile_qr_scan", "android": "https://dc.lft.to/lastmile_qr_scan"}, "bike_id": "28e9f5e51ea5f3571e73fcdd812ad195", "lat": 38.878695666666665, "name": "28e9f5e51ea5f3571e73fcdd812ad195", "lon": -77.00584766666667, "fusion_lon": 0.0}, {"is_reserved": 0, "type": "electric_scooter", "fusion_lat": 0.0, "is_disabled": 0, "rental_uris": {"ios": "https://dc.lft.to/lastmile_qr_scan", "android": "https://dc.lft.to/lastmile_qr_scan"}, "bike_id": "5dac10bf3c0c614de53ee6656866be2a", "lat": 38.926397, "name": "5dac10bf3c0c614de53ee6656866be2a", "lon": -77.05326, "fusion_lon": 0.0}, {"is_reserved": 0, "type": "electric_scooter", "fusion_lat": 0.0, "is_disabled": 0, "rental_uris": {"ios": "https://dc.lft.to/lastmile_qr_scan", "android": "https://dc.lft.to/lastmile_qr_scan"}, "bike_id": "4c2ff1d09fd1e09809d59ee45a28506e", "lat": 38.89670366666667, "name": "4c2ff1d09fd1e09809d59ee45a28506e", "lon": -77.04350083333334, "fusion_lon": 0.0}, {"is_reserved": 0, "type": "electric_scooter", "fusion_lat": 0.0, "is_disabled": 0, "rental_uris": {"ios": "https://dc.lft.to/lastmile_qr_scan", "android": "https://dc.lft.to/lastmile_qr_scan"}, "bike_id": "ff9b040c7aac5e84b77fff06d428a619", "lat": 38.9053505, "name": "ff9b040c7aac5e84b77fff06d428a619", "lon": -77.02927733333334, "fusion_lon": 0.0}, {"is_reserved": 0, "type": "electric_scooter", "fusion_lat": 0.0, "is_disabled": 0, "rental_uris": {"ios": "https://dc.lft.to/lastmile_qr_scan", "android": "https://dc.lft.to/lastmile_qr_scan"}, "bike_id": "f5ec1aa3918b2a1ccaec92641f7e1eca", "lat": 38.898554, "name": "f5ec1aa3918b2a1ccaec92641f7e1eca", "lon": -77.02292266666667, "fusion_lon": 0.0}, {"is_reserved": 0, "type": "electric_bike", "fusion_lat": 0.0, "is_disabled": 0, "rental_uris": {"ios": "https://dc.lft.to/lastmile_qr_scan", "android": "https://dc.lft.to/lastmile_qr_scan"}, "bike_id": "825dda197dc2772aed334221e0278677", "lat": 38.8359075, "name": "825dda197dc2772aed334221e0278677", "lon": -76.99022633333334, "fusion_lon": 0.0}, {"is_reserved": 0, "type": "electric_scooter", "fusion_lat": 0.0, "is_disabled": 0, "rental_uris": {"ios": "https://dc.lft.to/lastmile_qr_scan", "android": "https://dc.lft.to/lastmile_qr_scan"}, "bike_id": "e3a1b97d80f6b1c2eeb7d82caecf1820", "lat": 38.91985, "name": "e3a1b97d80f6b1c2eeb7d82caecf1820", "lon": -77.04127216666667, "fusion_lon": 0.0}, {"is_reserved": 0, "type": "electric_scooter", "fusion_lat": 0.0, "is_disabled": 0, "rental_uris": {"ios": "https://dc.lft.to/lastmile_qr_scan", "android": "https://dc.lft.to/lastmile_qr_scan"}, "bike_id": "75012f53368482ec3f72ed96617f25c0", "lat": 38.918276, "name": "75012f53368482ec3f72ed96617f25c0", "lon": -77.0228795, "fusion_lon": 0.0}, {"is_reserved": 0, "type": "electric_scooter", "fusion_lat": 0.0, "is_disabled": 0, "rental_uris": {"ios": "https://dc.lft.to/lastmile_qr_scan", "android": "https://dc.lft.to/lastmile_qr_scan"}, "bike_id": "1c60488654c9d67b6a7ca4ca2c49e677", "lat": 38.92114816666667, "name": "1c60488654c9d67b6a7ca4ca2c49e677", "lon": -77.01766816666667, "fusion_lon": 0.0}, {"is_reserved": 0, "type": "electric_scooter", "fusion_lat": 0.0, "is_disabled": 0, "rental_uris": {"ios": "https://dc.lft.to/lastmile_qr_scan", "android": "https://dc.lft.to/lastmile_qr_scan"}, "bike_id": "390d9c48eaadc5608f4b995e2c649535", "lat": 38.927515166666666, "name": "390d9c48eaadc5608f4b995e2c649535", "lon": -77.02146966666666, "fusion_lon": 0.0}, {"is_reserved": 0, "type": "electric_scooter", "fusion_lat": 0.0, "is_disabled": 0, "rental_uris": {"ios": "https://dc.lft.to/lastmile_qr_scan", "android": "https://dc.lft.to/lastmile_qr_scan"}, "bike_id": "3b19316bbc7aabf201396ccc321488b6", "lat": 38.92127716666667, "name": "3b19316bbc7aabf201396ccc321488b6", "lon": -77.01211066666667, "fusion_lon": 0.0}, {"is_reserved": 0, "type": "electric_scooter", "fusion_lat": 0.0, "is_disabled": 0, "rental_uris": {"ios": "https://dc.lft.to/lastmile_qr_scan", "android": "https://dc.lft.to/lastmile_qr_scan"}, "bike_id": "c987d9505167e6e917e567502a783ef9", "lat": 38.92245916666667, "name": "c987d9505167e6e917e567502a783ef9", "lon": -77.03660733333334, "fusion_lon": 0.0}, {"is_reserved": 0, "type": "electric_scooter", "fusion_lat": 0.0, "is_disabled": 0, "rental_uris": {"ios": "https://dc.lft.to/lastmile_qr_scan", "android": "https://dc.lft.to/lastmile_qr_scan"}, "bike_id": "3313193deb1299d24385416eb1df09ee", "lat": 38.90602666666667, "name": "3313193deb1299d24385416eb1df09ee", "lon": -77.0584265, "fusion_lon": 0.0}, {"is_reserved": 0, "type": "electric_scooter", "fusion_lat": 0.0, "is_disabled": 0, "rental_uris": {"ios": "https://dc.lft.to/lastmile_qr_scan", "android": "https://dc.lft.to/lastmile_qr_scan"}, "bike_id": "d40d27ce796c735cf7d111dc6986d40d", "lat": 38.91642433333333, "name": "d40d27ce796c735cf7d111dc6986d40d", "lon": -77.023892, "fusion_lon": 0.0}, {"is_reserved": 0, "type": "electric_scooter", "fusion_lat": 0.0, "is_disabled": 0, "rental_uris": {"ios": "https://dc.lft.to/lastmile_qr_scan", "android": "https://dc.lft.to/lastmile_qr_scan"}, "bike_id": "c1fd97e03f134cd37ef4819b3a29ab3e", "lat": 38.91440866666667, "name": "c1fd97e03f134cd37ef4819b3a29ab3e", "lon": -77.00349566666667, "fusion_lon": 0.0}, {"is_reserved": 0, "type": "electric_scooter", "fusion_lat": 0.0, "is_disabled": 0, "rental_uris": {"ios": "https://dc.lft.to/lastmile_qr_scan", "android": "https://dc.lft.to/lastmile_qr_scan"}, "bike_id": "a11326ed7b1894c97d3c41840c8716d7", "lat": 38.90875233333333, "name": "a11326ed7b1894c97d3c41840c8716d7", "lon": -77.07155016666667, "fusion_lon": 0.0}, {"is_reserved": 0, "type": "electric_bike", "fusion_lat": 0.0, "is_disabled": 0, "rental_uris": {"ios": "https://dc.lft.to/lastmile_qr_scan", "android": "https://dc.lft.to/lastmile_qr_scan"}, "bike_id": "cc8cec304af5e6361b5db619a2aa506f", "lat": 38.871759, "name": "cc8cec304af5e6361b5db619a2aa506f", "lon": -77.23394466666667, "fusion_lon": 0.0}, {"is_reserved": 0, "type": "electric_scooter", "fusion_lat": 0.0, "is_disabled": 0, "rental_uris": {"ios": "https://dc.lft.to/lastmile_qr_scan", "android": "https://dc.lft.to/lastmile_qr_scan"}, "bike_id": "be169a44ec83c300f4fe3f6bc4da65f4", "lat": 38.9181015, "name": "be169a44ec83c300f4fe3f6bc4da65f4", "lon": -77.03438616666666, "fusion_lon": 0.0}, {"is_reserved": 0, "type": "electric_scooter", "fusion_lat": 0.0, "is_disabled": 0, "rental_uris": {"ios": "https://dc.lft.to/lastmile_qr_scan", "android": "https://dc.lft.to/lastmile_qr_scan"}, "bike_id": "6a0361d1b9b934ae195cfa5ae1415548", "lat": 38.895469, "name": "6a0361d1b9b934ae195cfa5ae1415548", "lon": -76.98339133333333, "fusion_lon": 0.0}, {"is_reserved": 0, "type": "electric_scooter", "fusion_lat": 0.0, "is_disabled": 0, "rental_uris": {"ios": "https://dc.lft.to/lastmile_qr_scan", "android": "https://dc.lft.to/lastmile_qr_scan"}, "bike_id": "623533441a71b1045c329bb124ca9c48", "lat": 38.89363216666667, "name": "623533441a71b1045c329bb124ca9c48", "lon": -76.94108733333333, "fusion_lon": 0.0}, {"is_reserved": 0, "type": "electric_scooter", "fusion_lat": 0.0, "is_disabled": 0, "rental_uris": {"ios": "https://dc.lft.to/lastmile_qr_scan", "android": "https://dc.lft.to/lastmile_qr_scan"}, "bike_id": "de75c06e7623dd2b0cf47532cfa05741", "lat": 38.907284, "name": "de75c06e7623dd2b0cf47532cfa05741", "lon": -77.028309, "fusion_lon": 0.0}, {"is_reserved": 0, "type": "electric_bike", "fusion_lat": 0.0, "is_disabled": 0, "rental_uris": {"ios": "https://dc.lft.to/lastmile_qr_scan", "android": "https://dc.lft.to/lastmile_qr_scan"}, "bike_id": "a3d4cdbe4da1fa558e9cf39d440e34f1", "lat": 39.000032166666664, "name": "a3d4cdbe4da1fa558e9cf39d440e34f1", "lon": -76.91807166666666, "fusion_lon": 0.0}, {"is_reserved": 0, "type": "electric_scooter", "fusion_lat": 0.0, "is_disabled": 0, "rental_uris": {"ios": "https://dc.lft.to/lastmile_qr_scan", "android": "https://dc.lft.to/lastmile_qr_scan"}, "bike_id": "f624ec9e83c9530d18a19942497d4835", "lat": 38.90769733333333, "name": "f624ec9e83c9530d18a19942497d4835", "lon": -77.0011745, "fusion_lon": 0.0}, {"is_reserved": 0, "type": "electric_scooter", "fusion_lat": 0.0, "is_disabled": 0, "rental_uris": {"ios": "https://dc.lft.to/lastmile_qr_scan", "android": "https://dc.lft.to/lastmile_qr_scan"}, "bike_id": "01590ca3d6cabc39245f7460aff6215b", "lat": 38.9217125, "name": "01590ca3d6cabc39245f7460aff6215b", "lon": -77.0435605, "fusion_lon": 0.0}, {"is_reserved": 0, "type": "electric_bike", "fusion_lat": 0.0, "is_disabled": 0, "rental_uris": {"ios": "https://dc.lft.to/lastmile_qr_scan", "android": "https://dc.lft.to/lastmile_qr_scan"}, "bike_id": "396a447e71f01a2f06b630fc7e19cba4", "lat": 38.80738366666667, "name": "396a447e71f01a2f06b630fc7e19cba4", "lon": -77.096869, "fusion_lon": 0.0}, {"is_reserved": 0, "type": "electric_scooter", "fusion_lat": 0.0, "is_disabled": 0, "rental_uris": {"ios": "https://dc.lft.to/lastmile_qr_scan", "android": "https://dc.lft.to/lastmile_qr_scan"}, "bike_id": "d46c9dbbd3946629f8f192b5d6831f3d", "lat": 38.89233316666667, "name": "d46c9dbbd3946629f8f192b5d6831f3d", "lon": -77.05001716666666, "fusion_lon": 0.0}, {"is_reserved": 0, "type": "electric_scooter", "fusion_lat": 0.0, "is_disabled": 0, "rental_uris": {"ios": "https://dc.lft.to/lastmile_qr_scan", "android": "https://dc.lft.to/lastmile_qr_scan"}, "bike_id": "e0e9e43f0c7671bf7111af8d9da58308", "lat": 38.92624466666667, "name": "e0e9e43f0c7671bf7111af8d9da58308", "lon": -77.04153733333334, "fusion_lon": 0.0}, {"is_reserved": 0, "type": "electric_bike", "fusion_lat": 0.0, "is_disabled": 0, "rental_uris": {"ios": "https://dc.lft.to/lastmile_qr_scan", "android": "https://dc.lft.to/lastmile_qr_scan"}, "bike_id": "ecc2e76e98ce75bf6e7c784f767b0a7f", "lat": 38.95091083333333, "name": "ecc2e76e98ce75bf6e7c784f767b0a7f", "lon": -77.01227983333334, "fusion_lon": 0.0}, {"is_reserved": 0, "type": "electric_scooter", "fusion_lat": 0.0, "is_disabled": 0, "rental_uris": {"ios": "https://dc.lft.to/lastmile_qr_scan", "android": "https://dc.lft.to/lastmile_qr_scan"}, "bike_id": "798e301b73f688ec69b8fa4ed6a7dbbf", "lat": 38.9170995, "name": "798e301b73f688ec69b8fa4ed6a7dbbf", "lon": -77.02986833333334, "fusion_lon": 0.0}, {"is_reserved": 0, "type": "electric_scooter", "fusion_lat": 0.0, "is_disabled": 0, "rental_uris": {"ios": "https://dc.lft.to/lastmile_qr_scan", "android": "https://dc.lft.to/lastmile_qr_scan"}, "bike_id": "401d3be2cf64ae46c8ff0dca66bcdd28", "lat": 38.88243683333334, "name": "401d3be2cf64ae46c8ff0dca66bcdd28", "lon": -77.00637033333334, "fusion_lon": 0.0}, {"is_reserved": 0, "type": "electric_scooter", "fusion_lat": 0.0, "is_disabled": 0, "rental_uris": {"ios": "https://dc.lft.to/lastmile_qr_scan", "android": "https://dc.lft.to/lastmile_qr_scan"}, "bike_id": "1c60842fe2eb8d9e0ead3f004486a3b0", "lat": 38.89195816666667, "name": "1c60842fe2eb8d9e0ead3f004486a3b0", "lon": -77.02222, "fusion_lon": 0.0}, {"is_reserved": 0, "type": "electric_scooter", "fusion_lat": 0.0, "is_disabled": 0, "rental_uris": {"ios": "https://dc.lft.to/lastmile_qr_scan", "android": "https://dc.lft.to/lastmile_qr_scan"}, "bike_id": "5dd9847f0360a4366fa5a120ebff8efc", "lat": 38.899148, "name": "5dd9847f0360a4366fa5a120ebff8efc", "lon": -76.97834483333334, "fusion_lon": 0.0}, {"is_reserved": 0, "type": "electric_scooter", "fusion_lat": 0.0, "is_disabled": 0, "rental_uris": {"ios": "https://dc.lft.to/lastmile_qr_scan", "android": "https://dc.lft.to/lastmile_qr_scan"}, "bike_id": "b81d7e328dd9ef3dc4ab5578dc2b6e11", "lat": 38.901368, "name": "b81d7e328dd9ef3dc4ab5578dc2b6e11", "lon": -77.0161355, "fusion_lon": 0.0}, {"is_reserved": 0, "type": "electric_scooter", "fusion_lat": 0.0, "is_disabled": 0, "rental_uris": {"ios": "https://dc.lft.to/lastmile_qr_scan", "android": "https://dc.lft.to/lastmile_qr_scan"}, "bike_id": "9e654bea85603a15ff163267c42b9c28", "lat": 38.91637383333333, "name": "9e654bea85603a15ff163267c42b9c28", "lon": -77.04815033333334, "fusion_lon": 0.0}, {"is_reserved": 0, "type": "electric_scooter", "fusion_lat": 0.0, "is_disabled": 0, "rental_uris": {"ios": "https://dc.lft.to/lastmile_qr_scan", "android": "https://dc.lft.to/lastmile_qr_scan"}, "bike_id": "1bc46ca6cb023a6a47dffae2f4e655e2", "lat": 38.901234333333335, "name": "1bc46ca6cb023a6a47dffae2f4e655e2", "lon": -77.01821766666667, "fusion_lon": 0.0}, {"is_reserved": 0, "type": "electric_scooter", "fusion_lat": 0.0, "is_disabled": 0, "rental_uris": {"ios": "https://dc.lft.to/lastmile_qr_scan", "android": "https://dc.lft.to/lastmile_qr_scan"}, "bike_id": "6e1a079c825b2b22ccd308fb47ff20a5", "lat": 38.96621783333333, "name": "6e1a079c825b2b22ccd308fb47ff20a5", "lon": -77.02002583333334, "fusion_lon": 0.0}, {"is_reserved": 0, "type": "electric_scooter", "fusion_lat": 0.0, "is_disabled": 0, "rental_uris": {"ios": "https://dc.lft.to/lastmile_qr_scan", "android": "https://dc.lft.to/lastmile_qr_scan"}, "bike_id": "ecf2e98ea493aaf1811162dc65b7708a", "lat": 38.91739166666667, "name": "ecf2e98ea493aaf1811162dc65b7708a", "lon": -77.03604816666666, "fusion_lon": 0.0}, {"is_reserved": 0, "type": "electric_bike", "fusion_lat": 0.0, "is_disabled": 0, "rental_uris": {"ios": "https://dc.lft.to/lastmile_qr_scan", "android": "https://dc.lft.to/lastmile_qr_scan"}, "bike_id": "9bab6478554c59eed61e3d09da7fc71f", "lat": 38.8133465, "name": "9bab6478554c59eed61e3d09da7fc71f", "lon": -77.0512605, "fusion_lon": 0.0}, {"is_reserved": 0, "type": "electric_bike", "fusion_lat": 0.0, "is_disabled": 0, "rental_uris": {"ios": "https://dc.lft.to/lastmile_qr_scan", "android": "https://dc.lft.to/lastmile_qr_scan"}, "bike_id": "ad83d746daa61f6af7fa40366758997d", "lat": 38.86555633333333, "name": "ad83d746daa61f6af7fa40366758997d", "lon": -76.94147633333333, "fusion_lon": 0.0}, {"is_reserved": 0, "type": "electric_scooter", "fusion_lat": 0.0, "is_disabled": 0, "rental_uris": {"ios": "https://dc.lft.to/lastmile_qr_scan", "android": "https://dc.lft.to/lastmile_qr_scan"}, "bike_id": "1408967bf5c5c6eb90c3cc0e98568c35", "lat": 38.9125195, "name": "1408967bf5c5c6eb90c3cc0e98568c35", "lon": -76.98670483333333, "fusion_lon": 0.0}, {"is_reserved": 0, "type": "electric_scooter", "fusion_lat": 0.0, "is_disabled": 0, "rental_uris": {"ios": "https://dc.lft.to/lastmile_qr_scan", "android": "https://dc.lft.to/lastmile_qr_scan"}, "bike_id": "4f2a4ac48b01452d3d50795b6bcfd102", "lat": 38.91081333333333, "name": "4f2a4ac48b01452d3d50795b6bcfd102", "lon": -77.01614833333333, "fusion_lon": 0.0}, {"is_reserved": 0, "type": "electric_scooter", "fusion_lat": 0.0, "is_disabled": 0, "rental_uris": {"ios": "https://dc.lft.to/lastmile_qr_scan", "android": "https://dc.lft.to/lastmile_qr_scan"}, "bike_id": "54117b68582d26bf06fa032f66985a8f", "lat": 38.897767333333334, "name": "54117b68582d26bf06fa032f66985a8f", "lon": -77.04785633333333, "fusion_lon": 0.0}, {"is_reserved": 0, "type": "electric_scooter", "fusion_lat": 0.0, "is_disabled": 0, "rental_uris": {"ios": "https://dc.lft.to/lastmile_qr_scan", "android": "https://dc.lft.to/lastmile_qr_scan"}, "bike_id": "2e77776f91697db22a4110319d2528a4", "lat": 38.92179316666667, "name": "2e77776f91697db22a4110319d2528a4", "lon": -77.04599583333334, "fusion_lon": 0.0}, {"is_reserved": 0, "type": "electric_scooter", "fusion_lat": 0.0, "is_disabled": 0, "rental_uris": {"ios": "https://dc.lft.to/lastmile_qr_scan", "android": "https://dc.lft.to/lastmile_qr_scan"}, "bike_id": "9c8cdee7fbed88be7cc40f12b4e72ecc", "lat": 38.90145183333333, "name": "9c8cdee7fbed88be7cc40f12b4e72ecc", "lon": -76.93165583333334, "fusion_lon": 0.0}, {"is_reserved": 0, "type": "electric_scooter", "fusion_lat": 0.0, "is_disabled": 0, "rental_uris": {"ios": "https://dc.lft.to/lastmile_qr_scan", "android": "https://dc.lft.to/lastmile_qr_scan"}, "bike_id": "ee1f2d35d0d042fbad2d817715999514", "lat": 38.92176633333333, "name": "ee1f2d35d0d042fbad2d817715999514", "lon": -77.03834933333333, "fusion_lon": 0.0}, {"is_reserved": 0, "type": "electric_bike", "fusion_lat": 0.0, "is_disabled": 0, "rental_uris": {"ios": "https://dc.lft.to/lastmile_qr_scan", "android": "https://dc.lft.to/lastmile_qr_scan"}, "bike_id": "d83667250d56d88dbe94ec810b895c9d", "lat": 38.90693916666667, "name": "d83667250d56d88dbe94ec810b895c9d", "lon": -76.95253666666666, "fusion_lon": 0.0}, {"is_reserved": 0, "type": "electric_bike", "fusion_lat": 0.0, "is_disabled": 0, "rental_uris": {"ios": "https://dc.lft.to/lastmile_qr_scan", "android": "https://dc.lft.to/lastmile_qr_scan"}, "bike_id": "29d578b11948105b616f757ea886122b", "lat": 38.81336916666667, "name": "29d578b11948105b616f757ea886122b", "lon": -77.05114633333334, "fusion_lon": 0.0}, {"is_reserved": 0, "type": "electric_scooter", "fusion_lat": 0.0, "is_disabled": 0, "rental_uris": {"ios": "https://dc.lft.to/lastmile_qr_scan", "android": "https://dc.lft.to/lastmile_qr_scan"}, "bike_id": "ae2cb45002db5c4791d31ad7d9c43efc", "lat": 38.87639683333333, "name": "ae2cb45002db5c4791d31ad7d9c43efc", "lon": -77.00073316666666, "fusion_lon": 0.0}, {"is_reserved": 0, "type": "electric_scooter", "fusion_lat": 0.0, "is_disabled": 0, "rental_uris": {"ios": "https://dc.lft.to/lastmile_qr_scan", "android": "https://dc.lft.to/lastmile_qr_scan"}, "bike_id": "a869114263718d3e62586fe77daf085e", "lat": 38.9079075, "name": "a869114263718d3e62586fe77daf085e", "lon": -77.04352633333333, "fusion_lon": 0.0}, {"is_reserved": 0, "type": "electric_scooter", "fusion_lat": 0.0, "is_disabled": 0, "rental_uris": {"ios": "https://dc.lft.to/lastmile_qr_scan", "android": "https://dc.lft.to/lastmile_qr_scan"}, "bike_id": "7e85ef97a9be15526e9f4c20b356a350", "lat": 38.8813685, "name": "7e85ef97a9be15526e9f4c20b356a350", "lon": -77.0201165, "fusion_lon": 0.0}, {"is_reserved": 0, "type": "electric_scooter", "fusion_lat": 0.0, "is_disabled": 0, "rental_uris": {"ios": "https://dc.lft.to/lastmile_qr_scan", "android": "https://dc.lft.to/lastmile_qr_scan"}, "bike_id": "3ab3db1310952eb53cdd64f0da0ca2f8", "lat": 38.885232, "name": "3ab3db1310952eb53cdd64f0da0ca2f8", "lon": -76.9770995, "fusion_lon": 0.0}, {"is_reserved": 0, "type": "electric_scooter", "fusion_lat": 0.0, "is_disabled": 0, "rental_uris": {"ios": "https://dc.lft.to/lastmile_qr_scan", "android": "https://dc.lft.to/lastmile_qr_scan"}, "bike_id": "7d96bbcae8cc01c370891209a5e5a43e", "lat": 38.891993666666664, "name": "7d96bbcae8cc01c370891209a5e5a43e", "lon": -77.01551566666667, "fusion_lon": 0.0}, {"is_reserved": 0, "type": "electric_scooter", "fusion_lat": 0.0, "is_disabled": 0, "rental_uris": {"ios": "https://dc.lft.to/lastmile_qr_scan", "android": "https://dc.lft.to/lastmile_qr_scan"}, "bike_id": "3729cf82035a4ad38449765cfd806095", "lat": 38.917988333333334, "name": "3729cf82035a4ad38449765cfd806095", "lon": -77.04445316666667, "fusion_lon": 0.0}, {"is_reserved": 0, "type": "electric_scooter", "fusion_lat": 0.0, "is_disabled": 0, "rental_uris": {"ios": "https://dc.lft.to/lastmile_qr_scan", "android": "https://dc.lft.to/lastmile_qr_scan"}, "bike_id": "baf38a073e129c4502fe2bc5972fb969", "lat": 38.90240583333333, "name": "baf38a073e129c4502fe2bc5972fb969", "lon": -77.00060683333334, "fusion_lon": 0.0}, {"is_reserved": 0, "type": "electric_scooter", "fusion_lat": 0.0, "is_disabled": 0, "rental_uris": {"ios": "https://dc.lft.to/lastmile_qr_scan", "android": "https://dc.lft.to/lastmile_qr_scan"}, "bike_id": "62d9d9087812f7468f7d16e4492d2eea", "lat": 38.920678, "name": "62d9d9087812f7468f7d16e4492d2eea", "lon": -77.0717075, "fusion_lon": 0.0}, {"is_reserved": 0, "type": "electric_scooter", "fusion_lat": 0.0, "is_disabled": 0, "rental_uris": {"ios": "https://dc.lft.to/lastmile_qr_scan", "android": "https://dc.lft.to/lastmile_qr_scan"}, "bike_id": "82e77a0af0be9893aae079ed44085a05", "lat": 38.93593666666666, "name": "82e77a0af0be9893aae079ed44085a05", "lon": -77.0375735, "fusion_lon": 0.0}, {"is_reserved": 0, "type": "electric_scooter", "fusion_lat": 0.0, "is_disabled": 0, "rental_uris": {"ios": "https://dc.lft.to/lastmile_qr_scan", "android": "https://dc.lft.to/lastmile_qr_scan"}, "bike_id": "045105ddb2ebe4fc4436e2d39e02bee3", "lat": 38.896297, "name": "045105ddb2ebe4fc4436e2d39e02bee3", "lon": -77.02855516666666, "fusion_lon": 0.0}, {"is_reserved": 0, "type": "electric_bike", "fusion_lat": 0.0, "is_disabled": 0, "rental_uris": {"ios": "https://dc.lft.to/lastmile_qr_scan", "android": "https://dc.lft.to/lastmile_qr_scan"}, "bike_id": "4300cafecf6d149cd9ed92c350b23611", "lat": 38.920221833333336, "name": "4300cafecf6d149cd9ed92c350b23611", "lon": -77.00332333333333, "fusion_lon": 0.0}, {"is_reserved": 0, "type": "electric_scooter", "fusion_lat": 0.0, "is_disabled": 0, "rental_uris": {"ios": "https://dc.lft.to/lastmile_qr_scan", "android": "https://dc.lft.to/lastmile_qr_scan"}, "bike_id": "17a1b0b248ac25397c4f699254d17ade", "lat": 38.9266635, "name": "17a1b0b248ac25397c4f699254d17ade", "lon": -76.99536616666667, "fusion_lon": 0.0}, {"is_reserved": 0, "type": "electric_scooter", "fusion_lat": 0.0, "is_disabled": 0, "rental_uris": {"ios": "https://dc.lft.to/lastmile_qr_scan", "android": "https://dc.lft.to/lastmile_qr_scan"}, "bike_id": "a65572230a6e8a774bc14686bfe309ca", "lat": 38.897780166666664, "name": "a65572230a6e8a774bc14686bfe309ca", "lon": -77.047743, "fusion_lon": 0.0}, {"is_reserved": 0, "type": "electric_scooter", "fusion_lat": 0.0, "is_disabled": 0, "rental_uris": {"ios": "https://dc.lft.to/lastmile_qr_scan", "android": "https://dc.lft.to/lastmile_qr_scan"}, "bike_id": "e57b9f42b31707301c3f077ed7559940", "lat": 38.898255166666665, "name": "e57b9f42b31707301c3f077ed7559940", "lon": -76.93001966666667, "fusion_lon": 0.0}, {"is_reserved": 0, "type": "electric_bike", "fusion_lat": 0.0, "is_disabled": 0, "rental_uris": {"ios": "https://dc.lft.to/lastmile_qr_scan", "android": "https://dc.lft.to/lastmile_qr_scan"}, "bike_id": "e0e82284e1dcc67c83dfe35b29f24317", "lat": 38.93644033333333, "name": "e0e82284e1dcc67c83dfe35b29f24317", "lon": -76.95451916666667, "fusion_lon": 0.0}, {"is_reserved": 0, "type": "electric_scooter", "fusion_lat": 0.0, "is_disabled": 0, "rental_uris": {"ios": "https://dc.lft.to/lastmile_qr_scan", "android": "https://dc.lft.to/lastmile_qr_scan"}, "bike_id": "8cf552df0b714479ea2f04b309654ec0", "lat": 38.89820066666667, "name": "8cf552df0b714479ea2f04b309654ec0", "lon": -77.01271433333334, "fusion_lon": 0.0}, {"is_reserved": 0, "type": "electric_scooter", "fusion_lat": 0.0, "is_disabled": 0, "rental_uris": {"ios": "https://dc.lft.to/lastmile_qr_scan", "android": "https://dc.lft.to/lastmile_qr_scan"}, "bike_id": "c7617f275ebe293b2cdf7f9134efad38", "lat": 38.922150333333335, "name": "c7617f275ebe293b2cdf7f9134efad38", "lon": -77.04237216666667, "fusion_lon": 0.0}, {"is_reserved": 0, "type": "electric_scooter", "fusion_lat": 0.0, "is_disabled": 0, "rental_uris": {"ios": "https://dc.lft.to/lastmile_qr_scan", "android": "https://dc.lft.to/lastmile_qr_scan"}, "bike_id": "6acca3ebfa887d66b58713639716f3f8", "lat": 38.89445683333334, "name": "6acca3ebfa887d66b58713639716f3f8", "lon": -76.9808395, "fusion_lon": 0.0}, {"is_reserved": 0, "type": "electric_scooter", "fusion_lat": 0.0, "is_disabled": 0, "rental_uris": {"ios": "https://dc.lft.to/lastmile_qr_scan", "android": "https://dc.lft.to/lastmile_qr_scan"}, "bike_id": "9eef5281138fedce38bf027541566d70", "lat": 38.92468016666667, "name": "9eef5281138fedce38bf027541566d70", "lon": -77.02242516666666, "fusion_lon": 0.0}, {"is_reserved": 0, "type": "electric_scooter", "fusion_lat": 0.0, "is_disabled": 0, "rental_uris": {"ios": "https://dc.lft.to/lastmile_qr_scan", "android": "https://dc.lft.to/lastmile_qr_scan"}, "bike_id": "93f6919cced6e634ad037a29d30a704b", "lat": 38.9182575, "name": "93f6919cced6e634ad037a29d30a704b", "lon": -77.03195016666666, "fusion_lon": 0.0}, {"is_reserved": 0, "type": "electric_scooter", "fusion_lat": 0.0, "is_disabled": 0, "rental_uris": {"ios": "https://dc.lft.to/lastmile_qr_scan", "android": "https://dc.lft.to/lastmile_qr_scan"}, "bike_id": "e349a625e79381a075c8b9f58b7b62e9", "lat": 38.91559866666667, "name": "e349a625e79381a075c8b9f58b7b62e9", "lon": -77.02048766666667, "fusion_lon": 0.0}, {"is_reserved": 0, "type": "electric_bike", "fusion_lat": 0.0, "is_disabled": 0, "rental_uris": {"ios": "https://dc.lft.to/lastmile_qr_scan", "android": "https://dc.lft.to/lastmile_qr_scan"}, "bike_id": "d3de0bd3aaf683a94a18e1ee2bb4bc07", "lat": 38.883084, "name": "d3de0bd3aaf683a94a18e1ee2bb4bc07", "lon": -77.00196716666666, "fusion_lon": 0.0}, {"is_reserved": 0, "type": "electric_scooter", "fusion_lat": 0.0, "is_disabled": 0, "rental_uris": {"ios": "https://dc.lft.to/lastmile_qr_scan", "android": "https://dc.lft.to/lastmile_qr_scan"}, "bike_id": "5aea415beff379229e7b383c6142ccbe", "lat": 38.921640833333335, "name": "5aea415beff379229e7b383c6142ccbe", "lon": -77.03393116666666, "fusion_lon": 0.0}, {"is_reserved": 0, "type": "electric_scooter", "fusion_lat": 0.0, "is_disabled": 0, "rental_uris": {"ios": "https://dc.lft.to/lastmile_qr_scan", "android": "https://dc.lft.to/lastmile_qr_scan"}, "bike_id": "04e283c21cef906e4c6c4b0fbff81977", "lat": 38.918819666666664, "name": "04e283c21cef906e4c6c4b0fbff81977", "lon": -77.03506566666667, "fusion_lon": 0.0}, {"is_reserved": 0, "type": "electric_scooter", "fusion_lat": 0.0, "is_disabled": 0, "rental_uris": {"ios": "https://dc.lft.to/lastmile_qr_scan", "android": "https://dc.lft.to/lastmile_qr_scan"}, "bike_id": "81122d3c53cfd4605ccff904bbf3ee27", "lat": 38.916522, "name": "81122d3c53cfd4605ccff904bbf3ee27", "lon": -77.01025533333333, "fusion_lon": 0.0}, {"is_reserved": 0, "type": "electric_scooter", "fusion_lat": 0.0, "is_disabled": 0, "rental_uris": {"ios": "https://dc.lft.to/lastmile_qr_scan", "android": "https://dc.lft.to/lastmile_qr_scan"}, "bike_id": "de91c31932c1715709c1a6514144b516", "lat": 38.94486466666667, "name": "de91c31932c1715709c1a6514144b516", "lon": -77.09505283333333, "fusion_lon": 0.0}, {"is_reserved": 0, "type": "electric_bike", "fusion_lat": 0.0, "is_disabled": 0, "rental_uris": {"ios": "https://dc.lft.to/lastmile_qr_scan", "android": "https://dc.lft.to/lastmile_qr_scan"}, "bike_id": "9bba4a10aa7866c5f5c60acece18fc65", "lat": 38.80979216666667, "name": "9bba4a10aa7866c5f5c60acece18fc65", "lon": -77.07661333333333, "fusion_lon": 0.0}, {"is_reserved": 0, "type": "electric_scooter", "fusion_lat": 0.0, "is_disabled": 0, "rental_uris": {"ios": "https://dc.lft.to/lastmile_qr_scan", "android": "https://dc.lft.to/lastmile_qr_scan"}, "bike_id": "e834d3f47e91fdf568b7c5ca42519a36", "lat": 38.87882966666667, "name": "e834d3f47e91fdf568b7c5ca42519a36", "lon": -77.00056816666667, "fusion_lon": 0.0}, {"is_reserved": 0, "type": "electric_scooter", "fusion_lat": 0.0, "is_disabled": 0, "rental_uris": {"ios": "https://dc.lft.to/lastmile_qr_scan", "android": "https://dc.lft.to/lastmile_qr_scan"}, "bike_id": "f380c9de6b5daa0f9e7c394a9166fd3a", "lat": 38.92064, "name": "f380c9de6b5daa0f9e7c394a9166fd3a", "lon": -77.04233633333334, "fusion_lon": 0.0}, {"is_reserved": 0, "type": "electric_scooter", "fusion_lat": 0.0, "is_disabled": 0, "rental_uris": {"ios": "https://dc.lft.to/lastmile_qr_scan", "android": "https://dc.lft.to/lastmile_qr_scan"}, "bike_id": "aff7c155e7c284a46059659ae42c9667", "lat": 38.940937, "name": "aff7c155e7c284a46059659ae42c9667", "lon": -77.027261, "fusion_lon": 0.0}, {"is_reserved": 0, "type": "electric_scooter", "fusion_lat": 0.0, "is_disabled": 0, "rental_uris": {"ios": "https://dc.lft.to/lastmile_qr_scan", "android": "https://dc.lft.to/lastmile_qr_scan"}, "bike_id": "560fd4df72fd66a40d33fdc0e4a38fba", "lat": 38.924755, "name": "560fd4df72fd66a40d33fdc0e4a38fba", "lon": -77.02218866666666, "fusion_lon": 0.0}, {"is_reserved": 0, "type": "electric_scooter", "fusion_lat": 0.0, "is_disabled": 0, "rental_uris": {"ios": "https://dc.lft.to/lastmile_qr_scan", "android": "https://dc.lft.to/lastmile_qr_scan"}, "bike_id": "a3147ff2682410e2a29383adeddeb315", "lat": 38.9004715, "name": "a3147ff2682410e2a29383adeddeb315", "lon": -77.01689233333333, "fusion_lon": 0.0}, {"is_reserved": 0, "type": "electric_scooter", "fusion_lat": 0.0, "is_disabled": 0, "rental_uris": {"ios": "https://dc.lft.to/lastmile_qr_scan", "android": "https://dc.lft.to/lastmile_qr_scan"}, "bike_id": "b11d2c88aa793683ea0c0b197ef0f0c7", "lat": 38.86497033333333, "name": "b11d2c88aa793683ea0c0b197ef0f0c7", "lon": -76.977289, "fusion_lon": 0.0}, {"is_reserved": 0, "type": "electric_scooter", "fusion_lat": 0.0, "is_disabled": 0, "rental_uris": {"ios": "https://dc.lft.to/lastmile_qr_scan", "android": "https://dc.lft.to/lastmile_qr_scan"}, "bike_id": "0db6b6fd04182bb73e676f44dd17f77c", "lat": 38.899534833333334, "name": "0db6b6fd04182bb73e676f44dd17f77c", "lon": -76.92636133333333, "fusion_lon": 0.0}, {"is_reserved": 0, "type": "electric_scooter", "fusion_lat": 0.0, "is_disabled": 0, "rental_uris": {"ios": "https://dc.lft.to/lastmile_qr_scan", "android": "https://dc.lft.to/lastmile_qr_scan"}, "bike_id": "3a663627e058adcd021a35282cfe94e5", "lat": 38.89299066666667, "name": "3a663627e058adcd021a35282cfe94e5", "lon": -77.020006, "fusion_lon": 0.0}, {"is_reserved": 0, "type": "electric_bike", "fusion_lat": 0.0, "is_disabled": 0, "rental_uris": {"ios": "https://dc.lft.to/lastmile_qr_scan", "android": "https://dc.lft.to/lastmile_qr_scan"}, "bike_id": "8a3e01512750b0c173922c88298917d2", "lat": 39.0252135, "name": "8a3e01512750b0c173922c88298917d2", "lon": -77.01967616666667, "fusion_lon": 0.0}, {"is_reserved": 0, "type": "electric_scooter", "fusion_lat": 0.0, "is_disabled": 0, "rental_uris": {"ios": "https://dc.lft.to/lastmile_qr_scan", "android": "https://dc.lft.to/lastmile_qr_scan"}, "bike_id": "05df06d7ecba1fc7da33e07ed88be76c", "lat": 38.934850833333336, "name": "05df06d7ecba1fc7da33e07ed88be76c", "lon": -77.057975, "fusion_lon": 0.0}, {"is_reserved": 0, "type": "electric_bike", "fusion_lat": 0.0, "is_disabled": 0, "rental_uris": {"ios": "https://dc.lft.to/lastmile_qr_scan", "android": "https://dc.lft.to/lastmile_qr_scan"}, "bike_id": "1bf45a7c5c27c24784019812ed702fd0", "lat": 39.08474616666667, "name": "1bf45a7c5c27c24784019812ed702fd0", "lon": -76.9507065, "fusion_lon": 0.0}, {"is_reserved": 0, "type": "electric_scooter", "fusion_lat": 0.0, "is_disabled": 0, "rental_uris": {"ios": "https://dc.lft.to/lastmile_qr_scan", "android": "https://dc.lft.to/lastmile_qr_scan"}, "bike_id": "0b378c6aa48bff9e46127377e41aa526", "lat": 38.876361333333335, "name": "0b378c6aa48bff9e46127377e41aa526", "lon": -77.00076333333334, "fusion_lon": 0.0}, {"is_reserved": 0, "type": "electric_scooter", "fusion_lat": 0.0, "is_disabled": 0, "rental_uris": {"ios": "https://dc.lft.to/lastmile_qr_scan", "android": "https://dc.lft.to/lastmile_qr_scan"}, "bike_id": "c03670ada7b3c84ca5985922ed22baa6", "lat": 38.93327933333333, "name": "c03670ada7b3c84ca5985922ed22baa6", "lon": -77.02397433333333, "fusion_lon": 0.0}, {"is_reserved": 0, "type": "electric_scooter", "fusion_lat": 0.0, "is_disabled": 0, "rental_uris": {"ios": "https://dc.lft.to/lastmile_qr_scan", "android": "https://dc.lft.to/lastmile_qr_scan"}, "bike_id": "6416128d3fa0cce84761153fc86f8d89", "lat": 38.920868, "name": "6416128d3fa0cce84761153fc86f8d89", "lon": -77.02538333333334, "fusion_lon": 0.0}, {"is_reserved": 0, "type": "electric_bike", "fusion_lat": 0.0, "is_disabled": 0, "rental_uris": {"ios": "https://dc.lft.to/lastmile_qr_scan", "android": "https://dc.lft.to/lastmile_qr_scan"}, "bike_id": "b1c537b716579ae47b58c03ccdd491b3", "lat": 39.00452033333333, "name": "b1c537b716579ae47b58c03ccdd491b3", "lon": -76.90117333333333, "fusion_lon": 0.0}, {"is_reserved": 0, "type": "electric_scooter", "fusion_lat": 0.0, "is_disabled": 0, "rental_uris": {"ios": "https://dc.lft.to/lastmile_qr_scan", "android": "https://dc.lft.to/lastmile_qr_scan"}, "bike_id": "c51aaf676e0468a35757dd61a5e58ff9", "lat": 38.91264483333333, "name": "c51aaf676e0468a35757dd61a5e58ff9", "lon": -77.04792583333334, "fusion_lon": 0.0}, {"is_reserved": 0, "type": "electric_scooter", "fusion_lat": 0.0, "is_disabled": 0, "rental_uris": {"ios": "https://dc.lft.to/lastmile_qr_scan", "android": "https://dc.lft.to/lastmile_qr_scan"}, "bike_id": "e8a335031c8ee0aa334c37effc7ec8d5", "lat": 38.893645, "name": "e8a335031c8ee0aa334c37effc7ec8d5", "lon": -77.044759, "fusion_lon": 0.0}, {"is_reserved": 0, "type": "electric_scooter", "fusion_lat": 0.0, "is_disabled": 0, "rental_uris": {"ios": "https://dc.lft.to/lastmile_qr_scan", "android": "https://dc.lft.to/lastmile_qr_scan"}, "bike_id": "e45d2296e5d1f86370a8cb255fcd16cc", "lat": 38.934537666666664, "name": "e45d2296e5d1f86370a8cb255fcd16cc", "lon": -77.0280825, "fusion_lon": 0.0}, {"is_reserved": 0, "type": "electric_scooter", "fusion_lat": 0.0, "is_disabled": 0, "rental_uris": {"ios": "https://dc.lft.to/lastmile_qr_scan", "android": "https://dc.lft.to/lastmile_qr_scan"}, "bike_id": "600728078bbe526e88e77a493f4de56b", "lat": 38.93372133333333, "name": "600728078bbe526e88e77a493f4de56b", "lon": -77.02401483333334, "fusion_lon": 0.0}, {"is_reserved": 0, "type": "electric_scooter", "fusion_lat": 0.0, "is_disabled": 0, "rental_uris": {"ios": "https://dc.lft.to/lastmile_qr_scan", "android": "https://dc.lft.to/lastmile_qr_scan"}, "bike_id": "364f0b4c8611a0f73cc026ce4062b302", "lat": 38.90542083333333, "name": "364f0b4c8611a0f73cc026ce4062b302", "lon": -76.97547383333334, "fusion_lon": 0.0}, {"is_reserved": 0, "type": "electric_scooter", "fusion_lat": 0.0, "is_disabled": 0, "rental_uris": {"ios": "https://dc.lft.to/lastmile_qr_scan", "android": "https://dc.lft.to/lastmile_qr_scan"}, "bike_id": "9b9efc6e81e0cf44c71bea0bebeab959", "lat": 38.91187516666667, "name": "9b9efc6e81e0cf44c71bea0bebeab959", "lon": -77.06619233333333, "fusion_lon": 0.0}, {"is_reserved": 0, "type": "electric_scooter", "fusion_lat": 0.0, "is_disabled": 0, "rental_uris": {"ios": "https://dc.lft.to/lastmile_qr_scan", "android": "https://dc.lft.to/lastmile_qr_scan"}, "bike_id": "50478679ad886ed0a165a509d9faf6d5", "lat": 38.956179, "name": "50478679ad886ed0a165a509d9faf6d5", "lon": -77.0330875, "fusion_lon": 0.0}, {"is_reserved": 0, "type": "electric_scooter", "fusion_lat": 0.0, "is_disabled": 0, "rental_uris": {"ios": "https://dc.lft.to/lastmile_qr_scan", "android": "https://dc.lft.to/lastmile_qr_scan"}, "bike_id": "68b34223ff1c7b8da06d557450f99259", "lat": 38.918221833333334, "name": "68b34223ff1c7b8da06d557450f99259", "lon": -77.032514, "fusion_lon": 0.0}, {"is_reserved": 0, "type": "electric_scooter", "fusion_lat": 0.0, "is_disabled": 0, "rental_uris": {"ios": "https://dc.lft.to/lastmile_qr_scan", "android": "https://dc.lft.to/lastmile_qr_scan"}, "bike_id": "7dc3158ebbbbbcf6a3e32c1c541680c6", "lat": 38.929990833333335, "name": "7dc3158ebbbbbcf6a3e32c1c541680c6", "lon": -77.0217225, "fusion_lon": 0.0}, {"is_reserved": 0, "type": "electric_scooter", "fusion_lat": 0.0, "is_disabled": 0, "rental_uris": {"ios": "https://dc.lft.to/lastmile_qr_scan", "android": "https://dc.lft.to/lastmile_qr_scan"}, "bike_id": "d8d3ce1180aadb591ba8c0303ffcaa9d", "lat": 38.91816933333333, "name": "d8d3ce1180aadb591ba8c0303ffcaa9d", "lon": -77.03203666666667, "fusion_lon": 0.0}, {"is_reserved": 0, "type": "electric_scooter", "fusion_lat": 0.0, "is_disabled": 0, "rental_uris": {"ios": "https://dc.lft.to/lastmile_qr_scan", "android": "https://dc.lft.to/lastmile_qr_scan"}, "bike_id": "2981bdbfb3f8f6d0fff02dced227b76e", "lat": 38.910467833333335, "name": "2981bdbfb3f8f6d0fff02dced227b76e", "lon": -77.0281545, "fusion_lon": 0.0}, {"is_reserved": 0, "type": "electric_scooter", "fusion_lat": 0.0, "is_disabled": 0, "rental_uris": {"ios": "https://dc.lft.to/lastmile_qr_scan", "android": "https://dc.lft.to/lastmile_qr_scan"}, "bike_id": "9f585c21e19b3273d86185fb01d80f5c", "lat": 38.923805333333334, "name": "9f585c21e19b3273d86185fb01d80f5c", "lon": -77.04089783333333, "fusion_lon": 0.0}, {"is_reserved": 0, "type": "electric_bike", "fusion_lat": 0.0, "is_disabled": 0, "rental_uris": {"ios": "https://dc.lft.to/lastmile_qr_scan", "android": "https://dc.lft.to/lastmile_qr_scan"}, "bike_id": "68b55bb5a8b5b0ab24e8ffa76d657c66", "lat": 38.91677816666667, "name": "68b55bb5a8b5b0ab24e8ffa76d657c66", "lon": -77.00055333333333, "fusion_lon": 0.0}, {"is_reserved": 0, "type": "electric_scooter", "fusion_lat": 0.0, "is_disabled": 0, "rental_uris": {"ios": "https://dc.lft.to/lastmile_qr_scan", "android": "https://dc.lft.to/lastmile_qr_scan"}, "bike_id": "554753f718095421ec4c687085b26600", "lat": 38.91736083333333, "name": "554753f718095421ec4c687085b26600", "lon": -77.02601733333333, "fusion_lon": 0.0}, {"is_reserved": 0, "type": "electric_scooter", "fusion_lat": 0.0, "is_disabled": 0, "rental_uris": {"ios": "https://dc.lft.to/lastmile_qr_scan", "android": "https://dc.lft.to/lastmile_qr_scan"}, "bike_id": "4470912d542e9e1d043cb5a018c22149", "lat": 38.92022583333333, "name": "4470912d542e9e1d043cb5a018c22149", "lon": -77.012849, "fusion_lon": 0.0}, {"is_reserved": 0, "type": "electric_bike", "fusion_lat": 0.0, "is_disabled": 0, "rental_uris": {"ios": "https://dc.lft.to/lastmile_qr_scan", "android": "https://dc.lft.to/lastmile_qr_scan"}, "bike_id": "21c0d7d3c29ea54f0398980546661af4", "lat": 38.87561, "name": "21c0d7d3c29ea54f0398980546661af4", "lon": -77.04646, "fusion_lon": 0.0}, {"is_reserved": 0, "type": "electric_bike", "fusion_lat": 0.0, "is_disabled": 0, "rental_uris": {"ios": "https://dc.lft.to/lastmile_qr_scan", "android": "https://dc.lft.to/lastmile_qr_scan"}, "bike_id": "96a5b7ce1cd9095414cadebc68f7e754", "lat": 38.99831316666667, "name": "96a5b7ce1cd9095414cadebc68f7e754", "lon": -76.9972685, "fusion_lon": 0.0}, {"is_reserved": 0, "type": "electric_scooter", "fusion_lat": 0.0, "is_disabled": 0, "rental_uris": {"ios": "https://dc.lft.to/lastmile_qr_scan", "android": "https://dc.lft.to/lastmile_qr_scan"}, "bike_id": "1c054799de94b35a9eabe44c142a89d1", "lat": 38.892092, "name": "1c054799de94b35a9eabe44c142a89d1", "lon": -76.96119, "fusion_lon": 0.0}, {"is_reserved": 0, "type": "electric_scooter", "fusion_lat": 0.0, "is_disabled": 0, "rental_uris": {"ios": "https://dc.lft.to/lastmile_qr_scan", "android": "https://dc.lft.to/lastmile_qr_scan"}, "bike_id": "73d8a980b76621a5d44ea3453bd02610", "lat": 38.9596205, "name": "73d8a980b76621a5d44ea3453bd02610", "lon": -77.0331455, "fusion_lon": 0.0}, {"is_reserved": 0, "type": "electric_scooter", "fusion_lat": 0.0, "is_disabled": 0, "rental_uris": {"ios": "https://dc.lft.to/lastmile_qr_scan", "android": "https://dc.lft.to/lastmile_qr_scan"}, "bike_id": "378bd77af1ec92185c3542bf32f201e2", "lat": 38.92204983333333, "name": "378bd77af1ec92185c3542bf32f201e2", "lon": -77.04331483333333, "fusion_lon": 0.0}, {"is_reserved": 0, "type": "electric_scooter", "fusion_lat": 0.0, "is_disabled": 0, "rental_uris": {"ios": "https://dc.lft.to/lastmile_qr_scan", "android": "https://dc.lft.to/lastmile_qr_scan"}, "bike_id": "778e8d3c30de7d6f9201fa284040c284", "lat": 38.912788166666665, "name": "778e8d3c30de7d6f9201fa284040c284", "lon": -77.04667, "fusion_lon": 0.0}, {"is_reserved": 0, "type": "electric_scooter", "fusion_lat": 0.0, "is_disabled": 0, "rental_uris": {"ios": "https://dc.lft.to/lastmile_qr_scan", "android": "https://dc.lft.to/lastmile_qr_scan"}, "bike_id": "897c7338afdfd18f5ce6d600e2fed57a", "lat": 38.88383416666667, "name": "897c7338afdfd18f5ce6d600e2fed57a", "lon": -77.04608666666667, "fusion_lon": 0.0}, {"is_reserved": 0, "type": "electric_bike", "fusion_lat": 0.0, "is_disabled": 0, "rental_uris": {"ios": "https://dc.lft.to/lastmile_qr_scan", "android": "https://dc.lft.to/lastmile_qr_scan"}, "bike_id": "5d8c9620f4e234dfec4bb83c24826a4d", "lat": 38.94410366666666, "name": "5d8c9620f4e234dfec4bb83c24826a4d", "lon": -77.0218935, "fusion_lon": 0.0}, {"is_reserved": 0, "type": "electric_scooter", "fusion_lat": 0.0, "is_disabled": 0, "rental_uris": {"ios": "https://dc.lft.to/lastmile_qr_scan", "android": "https://dc.lft.to/lastmile_qr_scan"}, "bike_id": "07980b2b5461ace3f3868ceadc8c6dfd", "lat": 38.9119045, "name": "07980b2b5461ace3f3868ceadc8c6dfd", "lon": -77.01767066666666, "fusion_lon": 0.0}, {"is_reserved": 0, "type": "electric_scooter", "fusion_lat": 0.0, "is_disabled": 0, "rental_uris": {"ios": "https://dc.lft.to/lastmile_qr_scan", "android": "https://dc.lft.to/lastmile_qr_scan"}, "bike_id": "e39b81f0cdd239928aa4e3efc877562b", "lat": 38.9289355, "name": "e39b81f0cdd239928aa4e3efc877562b", "lon": -77.03871933333333, "fusion_lon": 0.0}, {"is_reserved": 0, "type": "electric_scooter", "fusion_lat": 0.0, "is_disabled": 0, "rental_uris": {"ios": "https://dc.lft.to/lastmile_qr_scan", "android": "https://dc.lft.to/lastmile_qr_scan"}, "bike_id": "9f59368c5192e3719d9ca236f35333be", "lat": 38.902895, "name": "9f59368c5192e3719d9ca236f35333be", "lon": -77.03348833333334, "fusion_lon": 0.0}, {"is_reserved": 0, "type": "electric_scooter", "fusion_lat": 0.0, "is_disabled": 0, "rental_uris": {"ios": "https://dc.lft.to/lastmile_qr_scan", "android": "https://dc.lft.to/lastmile_qr_scan"}, "bike_id": "a8f49a09aead82b1cdf7150e1b007a27", "lat": 38.9102795, "name": "a8f49a09aead82b1cdf7150e1b007a27", "lon": -77.03837, "fusion_lon": 0.0}, {"is_reserved": 0, "type": "electric_scooter", "fusion_lat": 0.0, "is_disabled": 0, "rental_uris": {"ios": "https://dc.lft.to/lastmile_qr_scan", "android": "https://dc.lft.to/lastmile_qr_scan"}, "bike_id": "4f32b6baf0d304ac678f17e76c344e7f", "lat": 38.914864333333334, "name": "4f32b6baf0d304ac678f17e76c344e7f", "lon": -77.02181516666667, "fusion_lon": 0.0}, {"is_reserved": 0, "type": "electric_scooter", "fusion_lat": 0.0, "is_disabled": 0, "rental_uris": {"ios": "https://dc.lft.to/lastmile_qr_scan", "android": "https://dc.lft.to/lastmile_qr_scan"}, "bike_id": "d76c7d2a9c322dd41eb955e1989914ad", "lat": 38.914193833333336, "name": "d76c7d2a9c322dd41eb955e1989914ad", "lon": -77.03153983333333, "fusion_lon": 0.0}, {"is_reserved": 0, "type": "electric_bike", "fusion_lat": 0.0, "is_disabled": 0, "rental_uris": {"ios": "https://dc.lft.to/lastmile_qr_scan", "android": "https://dc.lft.to/lastmile_qr_scan"}, "bike_id": "95586aa5db5804b09dedf251290176ad", "lat": 38.97443233333333, "name": "95586aa5db5804b09dedf251290176ad", "lon": -77.09616233333334, "fusion_lon": 0.0}, {"is_reserved": 0, "type": "electric_scooter", "fusion_lat": 0.0, "is_disabled": 0, "rental_uris": {"ios": "https://dc.lft.to/lastmile_qr_scan", "android": "https://dc.lft.to/lastmile_qr_scan"}, "bike_id": "ab72c74592e0c9c77f4b3bb784336b52", "lat": 38.8555275, "name": "ab72c74592e0c9c77f4b3bb784336b52", "lon": -76.986565, "fusion_lon": 0.0}, {"is_reserved": 0, "type": "electric_scooter", "fusion_lat": 0.0, "is_disabled": 0, "rental_uris": {"ios": "https://dc.lft.to/lastmile_qr_scan", "android": "https://dc.lft.to/lastmile_qr_scan"}, "bike_id": "ddf8372f18b83a681aa9e571a460cee2", "lat": 38.91693566666667, "name": "ddf8372f18b83a681aa9e571a460cee2", "lon": -77.02599666666667, "fusion_lon": 0.0}, {"is_reserved": 0, "type": "electric_scooter", "fusion_lat": 0.0, "is_disabled": 0, "rental_uris": {"ios": "https://dc.lft.to/lastmile_qr_scan", "android": "https://dc.lft.to/lastmile_qr_scan"}, "bike_id": "050f08c13f6afb141a8cf1c88c2d2f12", "lat": 38.8974335, "name": "050f08c13f6afb141a8cf1c88c2d2f12", "lon": -77.0459775, "fusion_lon": 0.0}, {"is_reserved": 0, "type": "electric_scooter", "fusion_lat": 0.0, "is_disabled": 0, "rental_uris": {"ios": "https://dc.lft.to/lastmile_qr_scan", "android": "https://dc.lft.to/lastmile_qr_scan"}, "bike_id": "dfc98d277a7ba9f5b798af1c000913c9", "lat": 38.93266283333333, "name": "dfc98d277a7ba9f5b798af1c000913c9", "lon": -77.02093016666667, "fusion_lon": 0.0}, {"is_reserved": 0, "type": "electric_bike", "fusion_lat": 0.0, "is_disabled": 0, "rental_uris": {"ios": "https://dc.lft.to/lastmile_qr_scan", "android": "https://dc.lft.to/lastmile_qr_scan"}, "bike_id": "e019d62c865432a4600352b66a1b342b", "lat": 38.855934, "name": "e019d62c865432a4600352b66a1b342b", "lon": -76.97276716666667, "fusion_lon": 0.0}, {"is_reserved": 0, "type": "electric_scooter", "fusion_lat": 0.0, "is_disabled": 0, "rental_uris": {"ios": "https://dc.lft.to/lastmile_qr_scan", "android": "https://dc.lft.to/lastmile_qr_scan"}, "bike_id": "44492a132502ad9ff2359850fc08859b", "lat": 38.909043833333335, "name": "44492a132502ad9ff2359850fc08859b", "lon": -76.99120733333334, "fusion_lon": 0.0}, {"is_reserved": 0, "type": "electric_bike", "fusion_lat": 0.0, "is_disabled": 0, "rental_uris": {"ios": "https://dc.lft.to/lastmile_qr_scan", "android": "https://dc.lft.to/lastmile_qr_scan"}, "bike_id": "f1c91ba681353b623ee7ba3adf177014", "lat": 38.804093, "name": "f1c91ba681353b623ee7ba3adf177014", "lon": -77.113273, "fusion_lon": 0.0}, {"is_reserved": 0, "type": "electric_scooter", "fusion_lat": 0.0, "is_disabled": 0, "rental_uris": {"ios": "https://dc.lft.to/lastmile_qr_scan", "android": "https://dc.lft.to/lastmile_qr_scan"}, "bike_id": "74d00901ddb450ea12873007c9a27ca5", "lat": 38.874719166666665, "name": "74d00901ddb450ea12873007c9a27ca5", "lon": -76.991672, "fusion_lon": 0.0}, {"is_reserved": 0, "type": "electric_scooter", "fusion_lat": 0.0, "is_disabled": 0, "rental_uris": {"ios": "https://dc.lft.to/lastmile_qr_scan", "android": "https://dc.lft.to/lastmile_qr_scan"}, "bike_id": "8edd04e0ef189253cfa80e23d012c71d", "lat": 38.9069025, "name": "8edd04e0ef189253cfa80e23d012c71d", "lon": -77.0101295, "fusion_lon": 0.0}, {"is_reserved": 0, "type": "electric_scooter", "fusion_lat": 0.0, "is_disabled": 0, "rental_uris": {"ios": "https://dc.lft.to/lastmile_qr_scan", "android": "https://dc.lft.to/lastmile_qr_scan"}, "bike_id": "d646904e31259f53eb4d12800584071c", "lat": 38.93861416666667, "name": "d646904e31259f53eb4d12800584071c", "lon": -77.078273, "fusion_lon": 0.0}, {"is_reserved": 0, "type": "electric_scooter", "fusion_lat": 0.0, "is_disabled": 0, "rental_uris": {"ios": "https://dc.lft.to/lastmile_qr_scan", "android": "https://dc.lft.to/lastmile_qr_scan"}, "bike_id": "896c1cef1d91dde172c0afbeae94161a", "lat": 38.923666, "name": "896c1cef1d91dde172c0afbeae94161a", "lon": -77.04033333333334, "fusion_lon": 0.0}, {"is_reserved": 0, "type": "electric_scooter", "fusion_lat": 0.0, "is_disabled": 0, "rental_uris": {"ios": "https://dc.lft.to/lastmile_qr_scan", "android": "https://dc.lft.to/lastmile_qr_scan"}, "bike_id": "651771a85f27b301704e0b0808f4705a", "lat": 38.922312, "name": "651771a85f27b301704e0b0808f4705a", "lon": -76.9753555, "fusion_lon": 0.0}, {"is_reserved": 0, "type": "electric_scooter", "fusion_lat": 0.0, "is_disabled": 0, "rental_uris": {"ios": "https://dc.lft.to/lastmile_qr_scan", "android": "https://dc.lft.to/lastmile_qr_scan"}, "bike_id": "bbecfc6af21ca8998483f4a0d65e0994", "lat": 38.9339665, "name": "bbecfc6af21ca8998483f4a0d65e0994", "lon": -77.07382866666667, "fusion_lon": 0.0}, {"is_reserved": 0, "type": "electric_scooter", "fusion_lat": 0.0, "is_disabled": 0, "rental_uris": {"ios": "https://dc.lft.to/lastmile_qr_scan", "android": "https://dc.lft.to/lastmile_qr_scan"}, "bike_id": "f328ddbb58f5629b0cd25713f3079b88", "lat": 38.9068395, "name": "f328ddbb58f5629b0cd25713f3079b88", "lon": -77.0488335, "fusion_lon": 0.0}, {"is_reserved": 0, "type": "electric_scooter", "fusion_lat": 0.0, "is_disabled": 0, "rental_uris": {"ios": "https://dc.lft.to/lastmile_qr_scan", "android": "https://dc.lft.to/lastmile_qr_scan"}, "bike_id": "9a7a9a202c42163b4ba243c08171ec72", "lat": 38.90094116666667, "name": "9a7a9a202c42163b4ba243c08171ec72", "lon": -77.04353816666666, "fusion_lon": 0.0}, {"is_reserved": 0, "type": "electric_scooter", "fusion_lat": 0.0, "is_disabled": 0, "rental_uris": {"ios": "https://dc.lft.to/lastmile_qr_scan", "android": "https://dc.lft.to/lastmile_qr_scan"}, "bike_id": "445e252638deca9563de9be8178dd819", "lat": 38.923706, "name": "445e252638deca9563de9be8178dd819", "lon": -77.020542, "fusion_lon": 0.0}, {"is_reserved": 0, "type": "electric_scooter", "fusion_lat": 0.0, "is_disabled": 0, "rental_uris": {"ios": "https://dc.lft.to/lastmile_qr_scan", "android": "https://dc.lft.to/lastmile_qr_scan"}, "bike_id": "d1aebfc029df8e734fe32a3cf9b010ef", "lat": 38.924755833333336, "name": "d1aebfc029df8e734fe32a3cf9b010ef", "lon": -77.022165, "fusion_lon": 0.0}, {"is_reserved": 0, "type": "electric_scooter", "fusion_lat": 0.0, "is_disabled": 0, "rental_uris": {"ios": "https://dc.lft.to/lastmile_qr_scan", "android": "https://dc.lft.to/lastmile_qr_scan"}, "bike_id": "3804965acf2d9f7206994c69b2da45e5", "lat": 38.9011885, "name": "3804965acf2d9f7206994c69b2da45e5", "lon": -77.03443916666667, "fusion_lon": 0.0}, {"is_reserved": 0, "type": "electric_scooter", "fusion_lat": 0.0, "is_disabled": 0, "rental_uris": {"ios": "https://dc.lft.to/lastmile_qr_scan", "android": "https://dc.lft.to/lastmile_qr_scan"}, "bike_id": "4938c2b1b1e62f26b1a536aab1ef990e", "lat": 38.9332885, "name": "4938c2b1b1e62f26b1a536aab1ef990e", "lon": -77.02394483333333, "fusion_lon": 0.0}, {"is_reserved": 0, "type": "electric_scooter", "fusion_lat": 0.0, "is_disabled": 0, "rental_uris": {"ios": "https://dc.lft.to/lastmile_qr_scan", "android": "https://dc.lft.to/lastmile_qr_scan"}, "bike_id": "580f46457c877e5567d4822d7573ffda", "lat": 38.90279066666667, "name": "580f46457c877e5567d4822d7573ffda", "lon": -77.03907416666667, "fusion_lon": 0.0}, {"is_reserved": 0, "type": "electric_scooter", "fusion_lat": 0.0, "is_disabled": 0, "rental_uris": {"ios": "https://dc.lft.to/lastmile_qr_scan", "android": "https://dc.lft.to/lastmile_qr_scan"}, "bike_id": "9262a12a1aee9e13f03b2a770e576f22", "lat": 38.944933, "name": "9262a12a1aee9e13f03b2a770e576f22", "lon": -77.00737, "fusion_lon": 0.0}, {"is_reserved": 0, "type": "electric_scooter", "fusion_lat": 0.0, "is_disabled": 0, "rental_uris": {"ios": "https://dc.lft.to/lastmile_qr_scan", "android": "https://dc.lft.to/lastmile_qr_scan"}, "bike_id": "b061dcffac8451acfe924dd9ea7dd656", "lat": 38.92211283333334, "name": "b061dcffac8451acfe924dd9ea7dd656", "lon": -77.01848616666666, "fusion_lon": 0.0}, {"is_reserved": 0, "type": "electric_scooter", "fusion_lat": 0.0, "is_disabled": 0, "rental_uris": {"ios": "https://dc.lft.to/lastmile_qr_scan", "android": "https://dc.lft.to/lastmile_qr_scan"}, "bike_id": "c4e7ed944df503583db08adef9c48172", "lat": 38.9017525, "name": "c4e7ed944df503583db08adef9c48172", "lon": -76.929475, "fusion_lon": 0.0}, {"is_reserved": 0, "type": "electric_scooter", "fusion_lat": 0.0, "is_disabled": 0, "rental_uris": {"ios": "https://dc.lft.to/lastmile_qr_scan", "android": "https://dc.lft.to/lastmile_qr_scan"},