{"data": {"bikes": [{"lat": 38.9263535, "fusion_lat": 0.0, "type": "electric_scooter", "bike_id": "cc0f7b91f8f1c2f5cc8f79317aaf18bc", "rental_uris": {"ios": "https://dc.lft.to/lastmile_qr_scan", "android": "https://dc.lft.to/lastmile_qr_scan"}, "fusion_lon": 0.0, "lon": -77.03510433333334, "name": "cc0f7b91f8f1c2f5cc8f79317aaf18bc", "is_reserved": 0, "is_disabled": 0}, {"lat": 38.917066, "fusion_lat": 0.0, "type": "electric_scooter", "bike_id": "92a797914550d50e5282b0f6bb218daa", "rental_uris": {"ios": "https://dc.lft.to/lastmile_qr_scan", "android": "https://dc.lft.to/lastmile_qr_scan"}, "fusion_lon": 0.0, "lon": -77.04202166666667, "name": "92a797914550d50e5282b0f6bb218daa", "is_reserved": 0, "is_disabled": 0}, {"lat": 38.897948, "fusion_lat": 0.0, "type": "electric_scooter", "bike_id": "b48056518821be0eb5b63b664bf68e76", "rental_uris": {"ios": "https://dc.lft.to/lastmile_qr_scan", "android": "https://dc.lft.to/lastmile_qr_scan"}, "fusion_lon": 0.0, "lon": -77.00915333333333, "name": "b48056518821be0eb5b63b664bf68e76", "is_reserved": 0, "is_disabled": 0}, {"lat": 38.96463133333334, "fusion_lat": 0.0, "type": "electric_bike", "bike_id": "4d678ca95b418e6aa2fd196092916133", "rental_uris": {"ios": "https://dc.lft.to/lastmile_qr_scan", "android": "https://dc.lft.to/lastmile_qr_scan"}, "fusion_lon": 0.0, "lon": -77.03567466666667, "name": "4d678ca95b418e6aa2fd196092916133", "is_reserved": 0, "is_disabled": 0}, {"lat": 38.911128166666664, "fusion_lat": 0.0, "type": "electric_scooter", "bike_id": "22829ea0dd28e3081e7e106786267be3", "rental_uris": {"ios": "https://dc.lft.to/lastmile_qr_scan", "android": "https://dc.lft.to/lastmile_qr_scan"}, "fusion_lon": 0.0, "lon": -77.03760883333334, "name": "22829ea0dd28e3081e7e106786267be3", "is_reserved": 0, "is_disabled": 0}, {"lat": 38.925431333333336, "fusion_lat": 0.0, "type": "electric_scooter", "bike_id": "240f07d25726b69f9324ed4eb8b535da", "rental_uris": {"ios": "https://dc.lft.to/lastmile_qr_scan", "android": "https://dc.lft.to/lastmile_qr_scan"}, "fusion_lon": 0.0, "lon": -77.03875483333333, "name": "240f07d25726b69f9324ed4eb8b535da", "is_reserved": 0, "is_disabled": 0}, {"lat": 38.92255983333333, "fusion_lat": 0.0, "type": "electric_scooter", "bike_id": "2c57d05f8068b2bb12ae533d2e1a450c", "rental_uris": {"ios": "https://dc.lft.to/lastmile_qr_scan", "android": "https://dc.lft.to/lastmile_qr_scan"}, "fusion_lon": 0.0, "lon": -77.02103366666667, "name": "2c57d05f8068b2bb12ae533d2e1a450c", "is_reserved": 0, "is_disabled": 0}, {"lat": 38.898097, "fusion_lat": 0.0, "type": "electric_bike", "bike_id": "a5363611f94c8fe5a61fd7ab087ce56d", "rental_uris": {"ios": "https://dc.lft.to/lastmile_qr_scan", "android": "https://dc.lft.to/lastmile_qr_scan"}, "fusion_lon": 0.0, "lon": -76.99075466666666, "name": "a5363611f94c8fe5a61fd7ab087ce56d", "is_reserved": 0, "is_disabled": 0}, {"lat": 38.924493, "fusion_lat": 0.0, "type": "electric_scooter", "bike_id": "6c06dfbc3a0fb591aa131846404ba440", "rental_uris": {"ios": "https://dc.lft.to/lastmile_qr_scan", "android": "https://dc.lft.to/lastmile_qr_scan"}, "fusion_lon": 0.0, "lon": -77.040196, "name": "6c06dfbc3a0fb591aa131846404ba440", "is_reserved": 0, "is_disabled": 0}, {"lat": 38.90918833333333, "fusion_lat": 0.0, "type": "electric_scooter", "bike_id": "2596c4d779dcc8d4ebe1deffab67573c", "rental_uris": {"ios": "https://dc.lft.to/lastmile_qr_scan", "android": "https://dc.lft.to/lastmile_qr_scan"}, "fusion_lon": 0.0, "lon": -77.03959216666667, "name": "2596c4d779dcc8d4ebe1deffab67573c", "is_reserved": 0, "is_disabled": 0}, {"lat": 38.97369483333333, "fusion_lat": 0.0, "type": "electric_scooter", "bike_id": "276c9a1b459df227ce2768af68dd6d53", "rental_uris": {"ios": "https://dc.lft.to/lastmile_qr_scan", "android": "https://dc.lft.to/lastmile_qr_scan"}, "fusion_lon": 0.0, "lon": -77.01864183333333, "name": "276c9a1b459df227ce2768af68dd6d53", "is_reserved": 0, "is_disabled": 0}, {"lat": 38.91360816666667, "fusion_lat": 0.0, "type": "electric_scooter", "bike_id": "e3d0360a9b7230cd4732da8949dc248f", "rental_uris": {"ios": "https://dc.lft.to/lastmile_qr_scan", "android": "https://dc.lft.to/lastmile_qr_scan"}, "fusion_lon": 0.0, "lon": -77.0204885, "name": "e3d0360a9b7230cd4732da8949dc248f", "is_reserved": 0, "is_disabled": 0}, {"lat": 38.899837833333336, "fusion_lat": 0.0, "type": "electric_scooter", "bike_id": "a748db2c28c6592c3d00783787e9c7cd", "rental_uris": {"ios": "https://dc.lft.to/lastmile_qr_scan", "android": "https://dc.lft.to/lastmile_qr_scan"}, "fusion_lon": 0.0, "lon": -76.985605, "name": "a748db2c28c6592c3d00783787e9c7cd", "is_reserved": 0, "is_disabled": 0}, {"lat": 38.88542866666667, "fusion_lat": 0.0, "type": "electric_scooter", "bike_id": "c7695645aaa5253a78f0a1fde28fcfe8", "rental_uris": {"ios": "https://dc.lft.to/lastmile_qr_scan", "android": "https://dc.lft.to/lastmile_qr_scan"}, "fusion_lon": 0.0, "lon": -76.978908, "name": "c7695645aaa5253a78f0a1fde28fcfe8", "is_reserved": 0, "is_disabled": 0}, {"lat": 38.898232, "fusion_lat": 0.0, "type": "electric_scooter", "bike_id": "8bee9cbf79dc9f0b5e881339cfebda11", "rental_uris": {"ios": "https://dc.lft.to/lastmile_qr_scan", "android": "https://dc.lft.to/lastmile_qr_scan"}, "fusion_lon": 0.0, "lon": -77.04111083333333, "name": "8bee9cbf79dc9f0b5e881339cfebda11", "is_reserved": 0, "is_disabled": 0}, {"lat": 38.92249616666667, "fusion_lat": 0.0, "type": "electric_scooter", "bike_id": "132c0a3c3e6bae272c28d40d15b10bcd", "rental_uris": {"ios": "https://dc.lft.to/lastmile_qr_scan", "android": "https://dc.lft.to/lastmile_qr_scan"}, "fusion_lon": 0.0, "lon": -77.01948566666667, "name": "132c0a3c3e6bae272c28d40d15b10bcd", "is_reserved": 0, "is_disabled": 0}, {"lat": 38.93096383333334, "fusion_lat": 0.0, "type": "electric_scooter", "bike_id": "fcc8c06dd41b3fe79c799b4d0d510849", "rental_uris": {"ios": "https://dc.lft.to/lastmile_qr_scan", "android": "https://dc.lft.to/lastmile_qr_scan"}, "fusion_lon": 0.0, "lon": -77.0265345, "name": "fcc8c06dd41b3fe79c799b4d0d510849", "is_reserved": 0, "is_disabled": 0}, {"lat": 38.934292, "fusion_lat": 0.0, "type": "electric_scooter", "bike_id": "5b5a02cb5b658353032c67d66adc2306", "rental_uris": {"ios": "https://dc.lft.to/lastmile_qr_scan", "android": "https://dc.lft.to/lastmile_qr_scan"}, "fusion_lon": 0.0, "lon": -77.04536483333334, "name": "5b5a02cb5b658353032c67d66adc2306", "is_reserved": 0, "is_disabled": 0}, {"lat": 38.91416066666667, "fusion_lat": 0.0, "type": "electric_scooter", "bike_id": "e896cf626afdb20383c95fb8536d375d", "rental_uris": {"ios": "https://dc.lft.to/lastmile_qr_scan", "android": "https://dc.lft.to/lastmile_qr_scan"}, "fusion_lon": 0.0, "lon": -77.0223625, "name": "e896cf626afdb20383c95fb8536d375d", "is_reserved": 0, "is_disabled": 0}, {"lat": 38.918666, "fusion_lat": 0.0, "type": "electric_scooter", "bike_id": "701201c95a45ec0347348c67d64336d4", "rental_uris": {"ios": "https://dc.lft.to/lastmile_qr_scan", "android": "https://dc.lft.to/lastmile_qr_scan"}, "fusion_lon": 0.0, "lon": -77.04762983333333, "name": "701201c95a45ec0347348c67d64336d4", "is_reserved": 0, "is_disabled": 0}, {"lat": 38.913538333333335, "fusion_lat": 0.0, "type": "electric_scooter", "bike_id": "9e48cae21e9cfe96ab40ef38d8dfe819", "rental_uris": {"ios": "https://dc.lft.to/lastmile_qr_scan", "android": "https://dc.lft.to/lastmile_qr_scan"}, "fusion_lon": 0.0, "lon": -77.04348183333333, "name": "9e48cae21e9cfe96ab40ef38d8dfe819", "is_reserved": 0, "is_disabled": 0}, {"lat": 38.895921333333334, "fusion_lat": 0.0, "type": "electric_scooter", "bike_id": "86d3e9876110790409bf5481787ffeef", "rental_uris": {"ios": "https://dc.lft.to/lastmile_qr_scan", "android": "https://dc.lft.to/lastmile_qr_scan"}, "fusion_lon": 0.0, "lon": -77.02358766666667, "name": "86d3e9876110790409bf5481787ffeef", "is_reserved": 0, "is_disabled": 0}, {"lat": 38.95675383333333, "fusion_lat": 0.0, "type": "electric_scooter", "bike_id": "5c6bb744025f6b1f4f2d29962fb22734", "rental_uris": {"ios": "https://dc.lft.to/lastmile_qr_scan", "android": "https://dc.lft.to/lastmile_qr_scan"}, "fusion_lon": 0.0, "lon": -77.01359416666666, "name": "5c6bb744025f6b1f4f2d29962fb22734", "is_reserved": 0, "is_disabled": 0}, {"lat": 38.936280833333335, "fusion_lat": 0.0, "type": "electric_scooter", "bike_id": "d373f2a2e3a4954429dc6067fdc754cd", "rental_uris": {"ios": "https://dc.lft.to/lastmile_qr_scan", "android": "https://dc.lft.to/lastmile_qr_scan"}, "fusion_lon": 0.0, "lon": -77.05875733333333, "name": "d373f2a2e3a4954429dc6067fdc754cd", "is_reserved": 0, "is_disabled": 0}, {"lat": 38.94192183333333, "fusion_lat": 0.0, "type": "electric_scooter", "bike_id": "094f74f46dd79bad4c7d9074eb21c4ab", "rental_uris": {"ios": "https://dc.lft.to/lastmile_qr_scan", "android": "https://dc.lft.to/lastmile_qr_scan"}, "fusion_lon": 0.0, "lon": -77.02476833333333, "name": "094f74f46dd79bad4c7d9074eb21c4ab", "is_reserved": 0, "is_disabled": 0}, {"lat": 38.873894166666666, "fusion_lat": 0.0, "type": "electric_scooter", "bike_id": "a475cdf8f86bb396657898260726a089", "rental_uris": {"ios": "https://dc.lft.to/lastmile_qr_scan", "android": "https://dc.lft.to/lastmile_qr_scan"}, "fusion_lon": 0.0, "lon": -77.0003755, "name": "a475cdf8f86bb396657898260726a089", "is_reserved": 0, "is_disabled": 0}, {"lat": 38.928777333333336, "fusion_lat": 0.0, "type": "electric_scooter", "bike_id": "eb33152a8af24b18876b373bd5049a12", "rental_uris": {"ios": "https://dc.lft.to/lastmile_qr_scan", "android": "https://dc.lft.to/lastmile_qr_scan"}, "fusion_lon": 0.0, "lon": -77.03274233333333, "name": "eb33152a8af24b18876b373bd5049a12", "is_reserved": 0, "is_disabled": 0}, {"lat": 38.9183485, "fusion_lat": 0.0, "type": "electric_scooter", "bike_id": "42b992c24a685a543785ea14180e61b8", "rental_uris": {"ios": "https://dc.lft.to/lastmile_qr_scan", "android": "https://dc.lft.to/lastmile_qr_scan"}, "fusion_lon": 0.0, "lon": -77.02296433333333, "name": "42b992c24a685a543785ea14180e61b8", "is_reserved": 0, "is_disabled": 0}, {"lat": 38.93880766666667, "fusion_lat": 0.0, "type": "electric_scooter", "bike_id": "663fb8acebf377986b158ea580b4c86a", "rental_uris": {"ios": "https://dc.lft.to/lastmile_qr_scan", "android": "https://dc.lft.to/lastmile_qr_scan"}, "fusion_lon": 0.0, "lon": -77.02481066666667, "name": "663fb8acebf377986b158ea580b4c86a", "is_reserved": 0, "is_disabled": 0}, {"lat": 38.932201, "fusion_lat": 0.0, "type": "electric_scooter", "bike_id": "e97bfbbdde96d3cfe642d1ec8660396d", "rental_uris": {"ios": "https://dc.lft.to/lastmile_qr_scan", "android": "https://dc.lft.to/lastmile_qr_scan"}, "fusion_lon": 0.0, "lon": -77.02987316666666, "name": "e97bfbbdde96d3cfe642d1ec8660396d", "is_reserved": 0, "is_disabled": 0}, {"lat": 38.915171, "fusion_lat": 0.0, "type": "electric_scooter", "bike_id": "1618d7ebb994392fb0795dde40d62771", "rental_uris": {"ios": "https://dc.lft.to/lastmile_qr_scan", "android": "https://dc.lft.to/lastmile_qr_scan"}, "fusion_lon": 0.0, "lon": -77.01982033333333, "name": "1618d7ebb994392fb0795dde40d62771", "is_reserved": 0, "is_disabled": 0}, {"lat": 38.901569, "fusion_lat": 0.0, "type": "electric_scooter", "bike_id": "52cba51b0d3b4cc6f324988c396c3979", "rental_uris": {"ios": "https://dc.lft.to/lastmile_qr_scan", "android": "https://dc.lft.to/lastmile_qr_scan"}, "fusion_lon": 0.0, "lon": -77.03938333333333, "name": "52cba51b0d3b4cc6f324988c396c3979", "is_reserved": 0, "is_disabled": 0}, {"lat": 38.9210485, "fusion_lat": 0.0, "type": "electric_scooter", "bike_id": "09a291cb3056dee7683874a43d140751", "rental_uris": {"ios": "https://dc.lft.to/lastmile_qr_scan", "android": "https://dc.lft.to/lastmile_qr_scan"}, "fusion_lon": 0.0, "lon": -77.0366265, "name": "09a291cb3056dee7683874a43d140751", "is_reserved": 0, "is_disabled": 0}, {"lat": 38.8957095, "fusion_lat": 0.0, "type": "electric_scooter", "bike_id": "e9cdd17a08133a446e15b3dd282f1114", "rental_uris": {"ios": "https://dc.lft.to/lastmile_qr_scan", "android": "https://dc.lft.to/lastmile_qr_scan"}, "fusion_lon": 0.0, "lon": -76.98317516666667, "name": "e9cdd17a08133a446e15b3dd282f1114", "is_reserved": 0, "is_disabled": 0}, {"lat": 38.9370915, "fusion_lat": 0.0, "type": "electric_scooter", "bike_id": "6899e60de65b0a06b5a3faf4131a7865", "rental_uris": {"ios": "https://dc.lft.to/lastmile_qr_scan", "android": "https://dc.lft.to/lastmile_qr_scan"}, "fusion_lon": 0.0, "lon": -77.03517783333334, "name": "6899e60de65b0a06b5a3faf4131a7865", "is_reserved": 0, "is_disabled": 0}, {"lat": 38.902398, "fusion_lat": 0.0, "type": "electric_scooter", "bike_id": "22ccc2a8af7036ca64322ada34ebc5aa", "rental_uris": {"ios": "https://dc.lft.to/lastmile_qr_scan", "android": "https://dc.lft.to/lastmile_qr_scan"}, "fusion_lon": 0.0, "lon": -77.001995, "name": "22ccc2a8af7036ca64322ada34ebc5aa", "is_reserved": 0, "is_disabled": 0}, {"lat": 38.91527683333333, "fusion_lat": 0.0, "type": "electric_scooter", "bike_id": "4f5975cccc8a7c983a0282e6263a5b24", "rental_uris": {"ios": "https://dc.lft.to/lastmile_qr_scan", "android": "https://dc.lft.to/lastmile_qr_scan"}, "fusion_lon": 0.0, "lon": -77.03193783333333, "name": "4f5975cccc8a7c983a0282e6263a5b24", "is_reserved": 0, "is_disabled": 0}, {"lat": 38.937930333333334, "fusion_lat": 0.0, "type": "electric_scooter", "bike_id": "ee57a1b67328e1e56fd33f6be0cb31de", "rental_uris": {"ios": "https://dc.lft.to/lastmile_qr_scan", "android": "https://dc.lft.to/lastmile_qr_scan"}, "fusion_lon": 0.0, "lon": -77.03280933333333, "name": "ee57a1b67328e1e56fd33f6be0cb31de", "is_reserved": 0, "is_disabled": 0}, {"lat": 38.909595333333336, "fusion_lat": 0.0, "type": "electric_scooter", "bike_id": "d186c3321fafdc516caff3d020f9f740", "rental_uris": {"ios": "https://dc.lft.to/lastmile_qr_scan", "android": "https://dc.lft.to/lastmile_qr_scan"}, "fusion_lon": 0.0, "lon": -77.0443565, "name": "d186c3321fafdc516caff3d020f9f740", "is_reserved": 0, "is_disabled": 0}, {"lat": 38.934294333333334, "fusion_lat": 0.0, "type": "electric_scooter", "bike_id": "bf40c11a47b00e44491bf47cdce5bbd7", "rental_uris": {"ios": "https://dc.lft.to/lastmile_qr_scan", "android": "https://dc.lft.to/lastmile_qr_scan"}, "fusion_lon": 0.0, "lon": -77.0427795, "name": "bf40c11a47b00e44491bf47cdce5bbd7", "is_reserved": 0, "is_disabled": 0}, {"lat": 38.91213916666667, "fusion_lat": 0.0, "type": "electric_scooter", "bike_id": "f077236196d81904828bab1477f3088e", "rental_uris": {"ios": "https://dc.lft.to/lastmile_qr_scan", "android": "https://dc.lft.to/lastmile_qr_scan"}, "fusion_lon": 0.0, "lon": -77.0384165, "name": "f077236196d81904828bab1477f3088e", "is_reserved": 0, "is_disabled": 0}, {"lat": 38.89177216666667, "fusion_lat": 0.0, "type": "electric_scooter", "bike_id": "92fe86551841984e2ed4afbcad69850b", "rental_uris": {"ios": "https://dc.lft.to/lastmile_qr_scan", "android": "https://dc.lft.to/lastmile_qr_scan"}, "fusion_lon": 0.0, "lon": -76.99541216666667, "name": "92fe86551841984e2ed4afbcad69850b", "is_reserved": 0, "is_disabled": 0}, {"lat": 38.91627116666667, "fusion_lat": 0.0, "type": "electric_scooter", "bike_id": "1450e1d74a8692be75456d9639e17fa7", "rental_uris": {"ios": "https://dc.lft.to/lastmile_qr_scan", "android": "https://dc.lft.to/lastmile_qr_scan"}, "fusion_lon": 0.0, "lon": -77.04016383333334, "name": "1450e1d74a8692be75456d9639e17fa7", "is_reserved": 0, "is_disabled": 0}, {"lat": 38.914162833333336, "fusion_lat": 0.0, "type": "electric_scooter", "bike_id": "203ab926f6b09ae3511fec0624a9a184", "rental_uris": {"ios": "https://dc.lft.to/lastmile_qr_scan", "android": "https://dc.lft.to/lastmile_qr_scan"}, "fusion_lon": 0.0, "lon": -77.02235733333333, "name": "203ab926f6b09ae3511fec0624a9a184", "is_reserved": 0, "is_disabled": 0}, {"lat": 38.91989233333334, "fusion_lat": 0.0, "type": "electric_scooter", "bike_id": "8c92876ccc9c2f0eadc404a6b9ff0e1d", "rental_uris": {"ios": "https://dc.lft.to/lastmile_qr_scan", "android": "https://dc.lft.to/lastmile_qr_scan"}, "fusion_lon": 0.0, "lon": -76.973048, "name": "8c92876ccc9c2f0eadc404a6b9ff0e1d", "is_reserved": 0, "is_disabled": 0}, {"lat": 38.90488766666667, "fusion_lat": 0.0, "type": "electric_scooter", "bike_id": "ddc56725abfb3650f985571e16e29b77", "rental_uris": {"ios": "https://dc.lft.to/lastmile_qr_scan", "android": "https://dc.lft.to/lastmile_qr_scan"}, "fusion_lon": 0.0, "lon": -77.02818816666667, "name": "ddc56725abfb3650f985571e16e29b77", "is_reserved": 0, "is_disabled": 0}, {"lat": 38.90211516666667, "fusion_lat": 0.0, "type": "electric_scooter", "bike_id": "79f1a79fb624b52ea44c434b28618e77", "rental_uris": {"ios": "https://dc.lft.to/lastmile_qr_scan", "android": "https://dc.lft.to/lastmile_qr_scan"}, "fusion_lon": 0.0, "lon": -76.974252, "name": "79f1a79fb624b52ea44c434b28618e77", "is_reserved": 0, "is_disabled": 0}, {"lat": 38.897964333333334, "fusion_lat": 0.0, "type": "electric_scooter", "bike_id": "fe612fbe13c5ff7d5d35d792fb011bf4", "rental_uris": {"ios": "https://dc.lft.to/lastmile_qr_scan", "android": "https://dc.lft.to/lastmile_qr_scan"}, "fusion_lon": 0.0, "lon": -77.04185166666667, "name": "fe612fbe13c5ff7d5d35d792fb011bf4", "is_reserved": 0, "is_disabled": 0}, {"lat": 38.907286666666664, "fusion_lat": 0.0, "type": "electric_scooter", "bike_id": "323dc666d9d0fefd262d8a9316694702", "rental_uris": {"ios": "https://dc.lft.to/lastmile_qr_scan", "android": "https://dc.lft.to/lastmile_qr_scan"}, "fusion_lon": 0.0, "lon": -77.035903, "name": "323dc666d9d0fefd262d8a9316694702", "is_reserved": 0, "is_disabled": 0}, {"lat": 38.920343333333335, "fusion_lat": 0.0, "type": "electric_scooter", "bike_id": "598333d4dd939438b9e0e0aecf4d2a0d", "rental_uris": {"ios": "https://dc.lft.to/lastmile_qr_scan", "android": "https://dc.lft.to/lastmile_qr_scan"}, "fusion_lon": 0.0, "lon": -77.01215583333334, "name": "598333d4dd939438b9e0e0aecf4d2a0d", "is_reserved": 0, "is_disabled": 0}, {"lat": 38.911102, "fusion_lat": 0.0, "type": "electric_scooter", "bike_id": "0c721963ca5f3e727b1511850b70f62b", "rental_uris": {"ios": "https://dc.lft.to/lastmile_qr_scan", "android": "https://dc.lft.to/lastmile_qr_scan"}, "fusion_lon": 0.0, "lon": -77.03080816666667, "name": "0c721963ca5f3e727b1511850b70f62b", "is_reserved": 0, "is_disabled": 0}, {"lat": 38.91594966666667, "fusion_lat": 0.0, "type": "electric_scooter", "bike_id": "d4e07b7dfc78b740ce23fe019cc2a45b", "rental_uris": {"ios": "https://dc.lft.to/lastmile_qr_scan", "android": "https://dc.lft.to/lastmile_qr_scan"}, "fusion_lon": 0.0, "lon": -77.01480766666667, "name": "d4e07b7dfc78b740ce23fe019cc2a45b", "is_reserved": 0, "is_disabled": 0}, {"lat": 38.93218983333333, "fusion_lat": 0.0, "type": "electric_scooter", "bike_id": "6a20e503966ac2a0234f5e490f0b1414", "rental_uris": {"ios": "https://dc.lft.to/lastmile_qr_scan", "android": "https://dc.lft.to/lastmile_qr_scan"}, "fusion_lon": 0.0, "lon": -77.03513533333333, "name": "6a20e503966ac2a0234f5e490f0b1414", "is_reserved": 0, "is_disabled": 0}, {"lat": 38.887660333333336, "fusion_lat": 0.0, "type": "electric_scooter", "bike_id": "20d888970ba1fb5e0995b5c484c588de", "rental_uris": {"ios": "https://dc.lft.to/lastmile_qr_scan", "android": "https://dc.lft.to/lastmile_qr_scan"}, "fusion_lon": 0.0, "lon": -76.98295466666667, "name": "20d888970ba1fb5e0995b5c484c588de", "is_reserved": 0, "is_disabled": 0}, {"lat": 38.922702, "fusion_lat": 0.0, "type": "electric_scooter", "bike_id": "f81a8ab3b52ec8064512df526d8227b4", "rental_uris": {"ios": "https://dc.lft.to/lastmile_qr_scan", "android": "https://dc.lft.to/lastmile_qr_scan"}, "fusion_lon": 0.0, "lon": -76.99432, "name": "f81a8ab3b52ec8064512df526d8227b4", "is_reserved": 0, "is_disabled": 0}, {"lat": 38.894996, "fusion_lat": 0.0, "type": "electric_scooter", "bike_id": "7678f44c68bf322cffa40eb84556c18c", "rental_uris": {"ios": "https://dc.lft.to/lastmile_qr_scan", "android": "https://dc.lft.to/lastmile_qr_scan"}, "fusion_lon": 0.0, "lon": -77.02160933333333, "name": "7678f44c68bf322cffa40eb84556c18c", "is_reserved": 0, "is_disabled": 0}, {"lat": 38.9018925, "fusion_lat": 0.0, "type": "electric_scooter", "bike_id": "ec5dd4506fdcba1ef99825894644a1be", "rental_uris": {"ios": "https://dc.lft.to/lastmile_qr_scan", "android": "https://dc.lft.to/lastmile_qr_scan"}, "fusion_lon": 0.0, "lon": -77.02407666666667, "name": "ec5dd4506fdcba1ef99825894644a1be", "is_reserved": 0, "is_disabled": 0}, {"lat": 38.9163365, "fusion_lat": 0.0, "type": "electric_scooter", "bike_id": "ab43ca2b38ff39508bbbf19e513eee52", "rental_uris": {"ios": "https://dc.lft.to/lastmile_qr_scan", "android": "https://dc.lft.to/lastmile_qr_scan"}, "fusion_lon": 0.0, "lon": -77.04808166666666, "name": "ab43ca2b38ff39508bbbf19e513eee52", "is_reserved": 0, "is_disabled": 0}, {"lat": 38.947388833333335, "fusion_lat": 0.0, "type": "electric_scooter", "bike_id": "e97a1efe03055bbf6f969900d5b100e4", "rental_uris": {"ios": "https://dc.lft.to/lastmile_qr_scan", "android": "https://dc.lft.to/lastmile_qr_scan"}, "fusion_lon": 0.0, "lon": -77.01617166666666, "name": "e97a1efe03055bbf6f969900d5b100e4", "is_reserved": 0, "is_disabled": 0}, {"lat": 38.9318715, "fusion_lat": 0.0, "type": "electric_scooter", "bike_id": "86e96233cebb5ac97496e8c4f9a61724", "rental_uris": {"ios": "https://dc.lft.to/lastmile_qr_scan", "android": "https://dc.lft.to/lastmile_qr_scan"}, "fusion_lon": 0.0, "lon": -77.029691, "name": "86e96233cebb5ac97496e8c4f9a61724", "is_reserved": 0, "is_disabled": 0}, {"lat": 38.90718066666667, "fusion_lat": 0.0, "type": "electric_scooter", "bike_id": "8a894c4d377255e43d46f5618bf001b1", "rental_uris": {"ios": "https://dc.lft.to/lastmile_qr_scan", "android": "https://dc.lft.to/lastmile_qr_scan"}, "fusion_lon": 0.0, "lon": -77.04656866666667, "name": "8a894c4d377255e43d46f5618bf001b1", "is_reserved": 0, "is_disabled": 0}, {"lat": 38.95221083333333, "fusion_lat": 0.0, "type": "electric_scooter", "bike_id": "517936da73f030931779bf59e874af78", "rental_uris": {"ios": "https://dc.lft.to/lastmile_qr_scan", "android": "https://dc.lft.to/lastmile_qr_scan"}, "fusion_lon": 0.0, "lon": -77.01753616666667, "name": "517936da73f030931779bf59e874af78", "is_reserved": 0, "is_disabled": 0}, {"lat": 38.8990475, "fusion_lat": 0.0, "type": "electric_scooter", "bike_id": "7341f37e3c8be011de2bd3b1a1bbaeed", "rental_uris": {"ios": "https://dc.lft.to/lastmile_qr_scan", "android": "https://dc.lft.to/lastmile_qr_scan"}, "fusion_lon": 0.0, "lon": -76.94553083333334, "name": "7341f37e3c8be011de2bd3b1a1bbaeed", "is_reserved": 0, "is_disabled": 0}, {"lat": 38.83248916666667, "fusion_lat": 0.0, "type": "electric_bike", "bike_id": "e30d56205433c62f5cd4df5ed1416530", "rental_uris": {"ios": "https://dc.lft.to/lastmile_qr_scan", "android": "https://dc.lft.to/lastmile_qr_scan"}, "fusion_lon": 0.0, "lon": -77.00727183333333, "name": "e30d56205433c62f5cd4df5ed1416530", "is_reserved": 0, "is_disabled": 0}, {"lat": 38.930890166666664, "fusion_lat": 0.0, "type": "electric_scooter", "bike_id": "5295cf2ded327489e6c784a48bdd9d61", "rental_uris": {"ios": "https://dc.lft.to/lastmile_qr_scan", "android": "https://dc.lft.to/lastmile_qr_scan"}, "fusion_lon": 0.0, "lon": -77.023645, "name": "5295cf2ded327489e6c784a48bdd9d61", "is_reserved": 0, "is_disabled": 0}, {"lat": 38.907299333333334, "fusion_lat": 0.0, "type": "electric_scooter", "bike_id": "a80ffbd8d2df6f2b3b509dc9dccdf981", "rental_uris": {"ios": "https://dc.lft.to/lastmile_qr_scan", "android": "https://dc.lft.to/lastmile_qr_scan"}, "fusion_lon": 0.0, "lon": -77.03357866666667, "name": "a80ffbd8d2df6f2b3b509dc9dccdf981", "is_reserved": 0, "is_disabled": 0}, {"lat": 38.86473316666667, "fusion_lat": 0.0, "type": "electric_scooter", "bike_id": "4cce5c03c700f7a82416a0eec375a346", "rental_uris": {"ios": "https://dc.lft.to/lastmile_qr_scan", "android": "https://dc.lft.to/lastmile_qr_scan"}, "fusion_lon": 0.0, "lon": -76.97757483333334, "name": "4cce5c03c700f7a82416a0eec375a346", "is_reserved": 0, "is_disabled": 0}, {"lat": 38.922855, "fusion_lat": 0.0, "type": "electric_scooter", "bike_id": "93825f826f0490f00b20ef5d6f81b797", "rental_uris": {"ios": "https://dc.lft.to/lastmile_qr_scan", "android": "https://dc.lft.to/lastmile_qr_scan"}, "fusion_lon": 0.0, "lon": -77.02962066666667, "name": "93825f826f0490f00b20ef5d6f81b797", "is_reserved": 0, "is_disabled": 0}, {"lat": 38.88119966666667, "fusion_lat": 0.0, "type": "electric_scooter", "bike_id": "26abe00b1c91dba9366929c5a567fb8a", "rental_uris": {"ios": "https://dc.lft.to/lastmile_qr_scan", "android": "https://dc.lft.to/lastmile_qr_scan"}, "fusion_lon": 0.0, "lon": -77.0173775, "name": "26abe00b1c91dba9366929c5a567fb8a", "is_reserved": 0, "is_disabled": 0}, {"lat": 38.907781, "fusion_lat": 0.0, "type": "electric_scooter", "bike_id": "e1a9e34875c32a92c50c1f73d40cba15", "rental_uris": {"ios": "https://dc.lft.to/lastmile_qr_scan", "android": "https://dc.lft.to/lastmile_qr_scan"}, "fusion_lon": 0.0, "lon": -77.03826583333333, "name": "e1a9e34875c32a92c50c1f73d40cba15", "is_reserved": 0, "is_disabled": 0}, {"lat": 38.8813635, "fusion_lat": 0.0, "type": "electric_bike", "bike_id": "57ec9629487e5a4c2be75cd0aa0dd5c6", "rental_uris": {"ios": "https://dc.lft.to/lastmile_qr_scan", "android": "https://dc.lft.to/lastmile_qr_scan"}, "fusion_lon": 0.0, "lon": -77.01654166666667, "name": "57ec9629487e5a4c2be75cd0aa0dd5c6", "is_reserved": 0, "is_disabled": 0}, {"lat": 38.96134633333333, "fusion_lat": 0.0, "type": "electric_bike", "bike_id": "eebb1a42dbf42138e77be18e1e178498", "rental_uris": {"ios": "https://dc.lft.to/lastmile_qr_scan", "android": "https://dc.lft.to/lastmile_qr_scan"}, "fusion_lon": 0.0, "lon": -77.03338083333334, "name": "eebb1a42dbf42138e77be18e1e178498", "is_reserved": 0, "is_disabled": 0}, {"lat": 38.8876825, "fusion_lat": 0.0, "type": "electric_scooter", "bike_id": "ae4970604efbd8c1ab4e12655349ee97", "rental_uris": {"ios": "https://dc.lft.to/lastmile_qr_scan", "android": "https://dc.lft.to/lastmile_qr_scan"}, "fusion_lon": 0.0, "lon": -77.02238083333333, "name": "ae4970604efbd8c1ab4e12655349ee97", "is_reserved": 0, "is_disabled": 0}, {"lat": 38.897372833333336, "fusion_lat": 0.0, "type": "electric_scooter", "bike_id": "63f280137a3207f92e820b22d3e16b14", "rental_uris": {"ios": "https://dc.lft.to/lastmile_qr_scan", "android": "https://dc.lft.to/lastmile_qr_scan"}, "fusion_lon": 0.0, "lon": -77.04863166666667, "name": "63f280137a3207f92e820b22d3e16b14", "is_reserved": 0, "is_disabled": 0}, {"lat": 38.90565216666667, "fusion_lat": 0.0, "type": "electric_scooter", "bike_id": "781a870d4a3832f9249b6de4b868179e", "rental_uris": {"ios": "https://dc.lft.to/lastmile_qr_scan", "android": "https://dc.lft.to/lastmile_qr_scan"}, "fusion_lon": 0.0, "lon": -77.00603033333333, "name": "781a870d4a3832f9249b6de4b868179e", "is_reserved": 0, "is_disabled": 0}, {"lat": 38.87692666666667, "fusion_lat": 0.0, "type": "electric_scooter", "bike_id": "798a77ed644f8c8967f053c7035d7600", "rental_uris": {"ios": "https://dc.lft.to/lastmile_qr_scan", "android": "https://dc.lft.to/lastmile_qr_scan"}, "fusion_lon": 0.0, "lon": -77.00640016666667, "name": "798a77ed644f8c8967f053c7035d7600", "is_reserved": 0, "is_disabled": 0}, {"lat": 38.9150165, "fusion_lat": 0.0, "type": "electric_scooter", "bike_id": "8ebfb70f76877bfb50b9c2b23bc559a3", "rental_uris": {"ios": "https://dc.lft.to/lastmile_qr_scan", "android": "https://dc.lft.to/lastmile_qr_scan"}, "fusion_lon": 0.0, "lon": -76.98374183333334, "name": "8ebfb70f76877bfb50b9c2b23bc559a3", "is_reserved": 0, "is_disabled": 0}, {"lat": 38.91112783333333, "fusion_lat": 0.0, "type": "electric_scooter", "bike_id": "480aef71aea971f5990b520ac7ca9145", "rental_uris": {"ios": "https://dc.lft.to/lastmile_qr_scan", "android": "https://dc.lft.to/lastmile_qr_scan"}, "fusion_lon": 0.0, "lon": -77.0269385, "name": "480aef71aea971f5990b520ac7ca9145", "is_reserved": 0, "is_disabled": 0}, {"lat": 38.91793633333333, "fusion_lat": 0.0, "type": "electric_scooter", "bike_id": "125cf1539594a080e66f628a77b56a9d", "rental_uris": {"ios": "https://dc.lft.to/lastmile_qr_scan", "android": "https://dc.lft.to/lastmile_qr_scan"}, "fusion_lon": 0.0, "lon": -77.04008983333334, "name": "125cf1539594a080e66f628a77b56a9d", "is_reserved": 0, "is_disabled": 0}, {"lat": 38.915517666666666, "fusion_lat": 0.0, "type": "electric_scooter", "bike_id": "dc16f20402d69709bd84642319fbf9c5", "rental_uris": {"ios": "https://dc.lft.to/lastmile_qr_scan", "android": "https://dc.lft.to/lastmile_qr_scan"}, "fusion_lon": 0.0, "lon": -77.02841233333334, "name": "dc16f20402d69709bd84642319fbf9c5", "is_reserved": 0, "is_disabled": 0}, {"lat": 38.93035066666667, "fusion_lat": 0.0, "type": "electric_scooter", "bike_id": "05b6327ac1fd9650cf95d63b661cdbb6", "rental_uris": {"ios": "https://dc.lft.to/lastmile_qr_scan", "android": "https://dc.lft.to/lastmile_qr_scan"}, "fusion_lon": 0.0, "lon": -77.055575, "name": "05b6327ac1fd9650cf95d63b661cdbb6", "is_reserved": 0, "is_disabled": 0}, {"lat": 38.91819066666667, "fusion_lat": 0.0, "type": "electric_scooter", "bike_id": "ae6f1cbee808042484acb1ae81673716", "rental_uris": {"ios": "https://dc.lft.to/lastmile_qr_scan", "android": "https://dc.lft.to/lastmile_qr_scan"}, "fusion_lon": 0.0, "lon": -77.01206416666666, "name": "ae6f1cbee808042484acb1ae81673716", "is_reserved": 0, "is_disabled": 0}, {"lat": 38.906550333333335, "fusion_lat": 0.0, "type": "electric_scooter", "bike_id": "1de53f9afb3c37621d471dfe8810f216", "rental_uris": {"ios": "https://dc.lft.to/lastmile_qr_scan", "android": "https://dc.lft.to/lastmile_qr_scan"}, "fusion_lon": 0.0, "lon": -77.05123016666667, "name": "1de53f9afb3c37621d471dfe8810f216", "is_reserved": 0, "is_disabled": 0}, {"lat": 38.923740333333335, "fusion_lat": 0.0, "type": "electric_scooter", "bike_id": "02d09f4f63b0e2589cd290dd84672ada", "rental_uris": {"ios": "https://dc.lft.to/lastmile_qr_scan", "android": "https://dc.lft.to/lastmile_qr_scan"}, "fusion_lon": 0.0, "lon": -77.02249766666667, "name": "02d09f4f63b0e2589cd290dd84672ada", "is_reserved": 0, "is_disabled": 0}, {"lat": 38.924929666666664, "fusion_lat": 0.0, "type": "electric_scooter", "bike_id": "24026534384d9092107723820c9c7799", "rental_uris": {"ios": "https://dc.lft.to/lastmile_qr_scan", "android": "https://dc.lft.to/lastmile_qr_scan"}, "fusion_lon": 0.0, "lon": -77.03906216666667, "name": "24026534384d9092107723820c9c7799", "is_reserved": 0, "is_disabled": 0}, {"lat": 38.895291666666665, "fusion_lat": 0.0, "type": "electric_scooter", "bike_id": "4f014ba10a3805ec41bb781a27048895", "rental_uris": {"ios": "https://dc.lft.to/lastmile_qr_scan", "android": "https://dc.lft.to/lastmile_qr_scan"}, "fusion_lon": 0.0, "lon": -76.949298, "name": "4f014ba10a3805ec41bb781a27048895", "is_reserved": 0, "is_disabled": 0}, {"lat": 38.91626516666667, "fusion_lat": 0.0, "type": "electric_scooter", "bike_id": "0ee542c822ac4d554801887b0ed74151", "rental_uris": {"ios": "https://dc.lft.to/lastmile_qr_scan", "android": "https://dc.lft.to/lastmile_qr_scan"}, "fusion_lon": 0.0, "lon": -77.02690966666667, "name": "0ee542c822ac4d554801887b0ed74151", "is_reserved": 0, "is_disabled": 0}, {"lat": 38.93895366666667, "fusion_lat": 0.0, "type": "electric_scooter", "bike_id": "89dcbf32dc6c4acb7bac039e5baa58af", "rental_uris": {"ios": "https://dc.lft.to/lastmile_qr_scan", "android": "https://dc.lft.to/lastmile_qr_scan"}, "fusion_lon": 0.0, "lon": -76.986056, "name": "89dcbf32dc6c4acb7bac039e5baa58af", "is_reserved": 0, "is_disabled": 0}, {"lat": 38.927451833333336, "fusion_lat": 0.0, "type": "electric_scooter", "bike_id": "9bcecdcd38b49f36406a3bfdbcd14d09", "rental_uris": {"ios": "https://dc.lft.to/lastmile_qr_scan", "android": "https://dc.lft.to/lastmile_qr_scan"}, "fusion_lon": 0.0, "lon": -77.036375, "name": "9bcecdcd38b49f36406a3bfdbcd14d09", "is_reserved": 0, "is_disabled": 0}, {"lat": 38.876529, "fusion_lat": 0.0, "type": "electric_scooter", "bike_id": "5acee727963238ce7d8a3cc5cf11f7e8", "rental_uris": {"ios": "https://dc.lft.to/lastmile_qr_scan", "android": "https://dc.lft.to/lastmile_qr_scan"}, "fusion_lon": 0.0, "lon": -77.00588816666667, "name": "5acee727963238ce7d8a3cc5cf11f7e8", "is_reserved": 0, "is_disabled": 0}, {"lat": 38.900026, "fusion_lat": 0.0, "type": "electric_scooter", "bike_id": "3368d39d9a00648c57b386eddcedcf2d", "rental_uris": {"ios": "https://dc.lft.to/lastmile_qr_scan", "android": "https://dc.lft.to/lastmile_qr_scan"}, "fusion_lon": 0.0, "lon": -77.001474, "name": "3368d39d9a00648c57b386eddcedcf2d", "is_reserved": 0, "is_disabled": 0}, {"lat": 38.902371, "fusion_lat": 0.0, "type": "electric_scooter", "bike_id": "992f87939b9f95667212f3d9cf370655", "rental_uris": {"ios": "https://dc.lft.to/lastmile_qr_scan", "android": "https://dc.lft.to/lastmile_qr_scan"}, "fusion_lon": 0.0, "lon": -77.00205366666667, "name": "992f87939b9f95667212f3d9cf370655", "is_reserved": 0, "is_disabled": 0}, {"lat": 38.942941833333336, "fusion_lat": 0.0, "type": "electric_bike", "bike_id": "1fb186dc63aacb2509b9a61391f3aee2", "rental_uris": {"ios": "https://dc.lft.to/lastmile_qr_scan", "android": "https://dc.lft.to/lastmile_qr_scan"}, "fusion_lon": 0.0, "lon": -76.97392366666666, "name": "1fb186dc63aacb2509b9a61391f3aee2", "is_reserved": 0, "is_disabled": 0}, {"lat": 38.92273566666667, "fusion_lat": 0.0, "type": "electric_scooter", "bike_id": "b3ce901c2f6a28a8ae1c575d3b24d173", "rental_uris": {"ios": "https://dc.lft.to/lastmile_qr_scan", "android": "https://dc.lft.to/lastmile_qr_scan"}, "fusion_lon": 0.0, "lon": -76.99775666666666, "name": "b3ce901c2f6a28a8ae1c575d3b24d173", "is_reserved": 0, "is_disabled": 0}, {"lat": 38.87460516666667, "fusion_lat": 0.0, "type": "electric_scooter", "bike_id": "36dd922f9fb3fce706aaa3d410e2d684", "rental_uris": {"ios": "https://dc.lft.to/lastmile_qr_scan", "android": "https://dc.lft.to/lastmile_qr_scan"}, "fusion_lon": 0.0, "lon": -77.00540883333333, "name": "36dd922f9fb3fce706aaa3d410e2d684", "is_reserved": 0, "is_disabled": 0}, {"lat": 38.922189833333334, "fusion_lat": 0.0, "type": "electric_scooter", "bike_id": "8f60d66ccef04d5940a7dbe1f7bbba88", "rental_uris": {"ios": "https://dc.lft.to/lastmile_qr_scan", "android": "https://dc.lft.to/lastmile_qr_scan"}, "fusion_lon": 0.0, "lon": -77.0424195, "name": "8f60d66ccef04d5940a7dbe1f7bbba88", "is_reserved": 0, "is_disabled": 0}, {"lat": 38.89227233333333, "fusion_lat": 0.0, "type": "electric_scooter", "bike_id": "5b85f9e86a951bf05bc8f503761409b5", "rental_uris": {"ios": "https://dc.lft.to/lastmile_qr_scan", "android": "https://dc.lft.to/lastmile_qr_scan"}, "fusion_lon": 0.0, "lon": -77.02184516666667, "name": "5b85f9e86a951bf05bc8f503761409b5", "is_reserved": 0, "is_disabled": 0}, {"lat": 38.91402216666667, "fusion_lat": 0.0, "type": "electric_scooter", "bike_id": "d59b48593ca8e43c875e7bd4344e65e3", "rental_uris": {"ios": "https://dc.lft.to/lastmile_qr_scan", "android": "https://dc.lft.to/lastmile_qr_scan"}, "fusion_lon": 0.0, "lon": -77.0390255, "name": "d59b48593ca8e43c875e7bd4344e65e3", "is_reserved": 0, "is_disabled": 0}, {"lat": 38.937573, "fusion_lat": 0.0, "type": "electric_scooter", "bike_id": "3c67716c6da366c5bbeecad09ebebc2a", "rental_uris": {"ios": "https://dc.lft.to/lastmile_qr_scan", "android": "https://dc.lft.to/lastmile_qr_scan"}, "fusion_lon": 0.0, "lon": -77.03281366666667, "name": "3c67716c6da366c5bbeecad09ebebc2a", "is_reserved": 0, "is_disabled": 0}, {"lat": 38.915659833333336, "fusion_lat": 0.0, "type": "electric_scooter", "bike_id": "b89f274e6cecd5a7ede1125f1ade54d7", "rental_uris": {"ios": "https://dc.lft.to/lastmile_qr_scan", "android": "https://dc.lft.to/lastmile_qr_scan"}, "fusion_lon": 0.0, "lon": -77.0251705, "name": "b89f274e6cecd5a7ede1125f1ade54d7", "is_reserved": 0, "is_disabled": 0}, {"lat": 38.89901283333333, "fusion_lat": 0.0, "type": "electric_scooter", "bike_id": "5232f69ed32416955717583067d2a511", "rental_uris": {"ios": "https://dc.lft.to/lastmile_qr_scan", "android": "https://dc.lft.to/lastmile_qr_scan"}, "fusion_lon": 0.0, "lon": -77.04103683333334, "name": "5232f69ed32416955717583067d2a511", "is_reserved": 0, "is_disabled": 0}, {"lat": 38.87888266666667, "fusion_lat": 0.0, "type": "electric_scooter", "bike_id": "4f02d50a072b1837c3bd0b273209fd2c", "rental_uris": {"ios": "https://dc.lft.to/lastmile_qr_scan", "android": "https://dc.lft.to/lastmile_qr_scan"}, "fusion_lon": 0.0, "lon": -77.0230995, "name": "4f02d50a072b1837c3bd0b273209fd2c", "is_reserved": 0, "is_disabled": 0}, {"lat": 38.91728533333333, "fusion_lat": 0.0, "type": "electric_scooter", "bike_id": "5a08cea82598ed1054dafee0d10cd9d7", "rental_uris": {"ios": "https://dc.lft.to/lastmile_qr_scan", "android": "https://dc.lft.to/lastmile_qr_scan"}, "fusion_lon": 0.0, "lon": -77.0289075, "name": "5a08cea82598ed1054dafee0d10cd9d7", "is_reserved": 0, "is_disabled": 0}, {"lat": 38.91262716666667, "fusion_lat": 0.0, "type": "electric_scooter", "bike_id": "0696048a782b4e48efedb426344164b5", "rental_uris": {"ios": "https://dc.lft.to/lastmile_qr_scan", "android": "https://dc.lft.to/lastmile_qr_scan"}, "fusion_lon": 0.0, "lon": -77.031799, "name": "0696048a782b4e48efedb426344164b5", "is_reserved": 0, "is_disabled": 0}, {"lat": 38.901373, "fusion_lat": 0.0, "type": "electric_scooter", "bike_id": "2808e40546583b40780da3db331b5c91", "rental_uris": {"ios": "https://dc.lft.to/lastmile_qr_scan", "android": "https://dc.lft.to/lastmile_qr_scan"}, "fusion_lon": 0.0, "lon": -76.991252, "name": "2808e40546583b40780da3db331b5c91", "is_reserved": 0, "is_disabled": 0}, {"lat": 38.85767633333333, "fusion_lat": 0.0, "type": "electric_bike", "bike_id": "c2f29954f13af4a8221e5a123f1af6a5", "rental_uris": {"ios": "https://dc.lft.to/lastmile_qr_scan", "android": "https://dc.lft.to/lastmile_qr_scan"}, "fusion_lon": 0.0, "lon": -76.9876655, "name": "c2f29954f13af4a8221e5a123f1af6a5", "is_reserved": 0, "is_disabled": 0}, {"lat": 38.93628066666667, "fusion_lat": 0.0, "type": "electric_scooter", "bike_id": "f983daafdf1711845f910db37b2da74d", "rental_uris": {"ios": "https://dc.lft.to/lastmile_qr_scan", "android": "https://dc.lft.to/lastmile_qr_scan"}, "fusion_lon": 0.0, "lon": -77.05875183333333, "name": "f983daafdf1711845f910db37b2da74d", "is_reserved": 0, "is_disabled": 0}, {"lat": 39.08622916666667, "fusion_lat": 0.0, "type": "electric_bike", "bike_id": "04ff1a2af7cc18a4f4095b3581e9b8ae", "rental_uris": {"ios": "https://dc.lft.to/lastmile_qr_scan", "android": "https://dc.lft.to/lastmile_qr_scan"}, "fusion_lon": 0.0, "lon": -77.15243966666667, "name": "04ff1a2af7cc18a4f4095b3581e9b8ae", "is_reserved": 0, "is_disabled": 0}, {"lat": 38.87284866666667, "fusion_lat": 0.0, "type": "electric_bike", "bike_id": "a71202036abbcbf85abaa35efbf0eb07", "rental_uris": {"ios": "https://dc.lft.to/lastmile_qr_scan", "android": "https://dc.lft.to/lastmile_qr_scan"}, "fusion_lon": 0.0, "lon": -77.233196, "name": "a71202036abbcbf85abaa35efbf0eb07", "is_reserved": 0, "is_disabled": 0}, {"lat": 38.9203615, "fusion_lat": 0.0, "type": "electric_scooter", "bike_id": "41a09287ddec21c52d69898057229787", "rental_uris": {"ios": "https://dc.lft.to/lastmile_qr_scan", "android": "https://dc.lft.to/lastmile_qr_scan"}, "fusion_lon": 0.0, "lon": -77.01808283333334, "name": "41a09287ddec21c52d69898057229787", "is_reserved": 0, "is_disabled": 0}, {"lat": 38.907019, "fusion_lat": 0.0, "type": "electric_scooter", "bike_id": "808f0333a2ce5e650f4e99afbd971fdc", "rental_uris": {"ios": "https://dc.lft.to/lastmile_qr_scan", "android": "https://dc.lft.to/lastmile_qr_scan"}, "fusion_lon": 0.0, "lon": -76.98853583333333, "name": "808f0333a2ce5e650f4e99afbd971fdc", "is_reserved": 0, "is_disabled": 0}, {"lat": 38.939942333333335, "fusion_lat": 0.0, "type": "electric_scooter", "bike_id": "bb7bf480b8aae266fe5282b7b30b27e5", "rental_uris": {"ios": "https://dc.lft.to/lastmile_qr_scan", "android": "https://dc.lft.to/lastmile_qr_scan"}, "fusion_lon": 0.0, "lon": -77.02551583333333, "name": "bb7bf480b8aae266fe5282b7b30b27e5", "is_reserved": 0, "is_disabled": 0}, {"lat": 38.869755166666664, "fusion_lat": 0.0, "type": "electric_scooter", "bike_id": "c30cde14b4f7d9c68c774036560d4358", "rental_uris": {"ios": "https://dc.lft.to/lastmile_qr_scan", "android": "https://dc.lft.to/lastmile_qr_scan"}, "fusion_lon": 0.0, "lon": -77.01228483333334, "name": "c30cde14b4f7d9c68c774036560d4358", "is_reserved": 0, "is_disabled": 0}, {"lat": 38.89742483333333, "fusion_lat": 0.0, "type": "electric_scooter", "bike_id": "443b4cb16d8c85c1059bac29cebd658c", "rental_uris": {"ios": "https://dc.lft.to/lastmile_qr_scan", "android": "https://dc.lft.to/lastmile_qr_scan"}, "fusion_lon": 0.0, "lon": -77.0271425, "name": "443b4cb16d8c85c1059bac29cebd658c", "is_reserved": 0, "is_disabled": 0}, {"lat": 38.942142, "fusion_lat": 0.0, "type": "electric_scooter", "bike_id": "b9cbc699bc30fa776a6a49c8cfa351ac", "rental_uris": {"ios": "https://dc.lft.to/lastmile_qr_scan", "android": "https://dc.lft.to/lastmile_qr_scan"}, "fusion_lon": 0.0, "lon": -77.02023383333334, "name": "b9cbc699bc30fa776a6a49c8cfa351ac", "is_reserved": 0, "is_disabled": 0}, {"lat": 38.96664666666667, "fusion_lat": 0.0, "type": "electric_bike", "bike_id": "f138d8b4e8f47962e4e1123c9d36c78b", "rental_uris": {"ios": "https://dc.lft.to/lastmile_qr_scan", "android": "https://dc.lft.to/lastmile_qr_scan"}, "fusion_lon": 0.0, "lon": -76.97448683333333, "name": "f138d8b4e8f47962e4e1123c9d36c78b", "is_reserved": 0, "is_disabled": 0}, {"lat": 38.918085833333336, "fusion_lat": 0.0, "type": "electric_scooter", "bike_id": "a692b285432065424f558707bb76550a", "rental_uris": {"ios": "https://dc.lft.to/lastmile_qr_scan", "android": "https://dc.lft.to/lastmile_qr_scan"}, "fusion_lon": 0.0, "lon": -77.03432466666666, "name": "a692b285432065424f558707bb76550a", "is_reserved": 0, "is_disabled": 0}, {"lat": 38.9214925, "fusion_lat": 0.0, "type": "electric_scooter", "bike_id": "b28304ec9674df4d8b2dd4f00f6971fc", "rental_uris": {"ios": "https://dc.lft.to/lastmile_qr_scan", "android": "https://dc.lft.to/lastmile_qr_scan"}, "fusion_lon": 0.0, "lon": -77.02400316666666, "name": "b28304ec9674df4d8b2dd4f00f6971fc", "is_reserved": 0, "is_disabled": 0}, {"lat": 38.871408333333335, "fusion_lat": 0.0, "type": "electric_scooter", "bike_id": "53299df36af71d107a8374dd3e25ce50", "rental_uris": {"ios": "https://dc.lft.to/lastmile_qr_scan", "android": "https://dc.lft.to/lastmile_qr_scan"}, "fusion_lon": 0.0, "lon": -77.00703816666666, "name": "53299df36af71d107a8374dd3e25ce50", "is_reserved": 0, "is_disabled": 0}, {"lat": 38.9142105, "fusion_lat": 0.0, "type": "electric_scooter", "bike_id": "2f06159269825c6d6ba64ac71d3131ed", "rental_uris": {"ios": "https://dc.lft.to/lastmile_qr_scan", "android": "https://dc.lft.to/lastmile_qr_scan"}, "fusion_lon": 0.0, "lon": -77.03174766666666, "name": "2f06159269825c6d6ba64ac71d3131ed", "is_reserved": 0, "is_disabled": 0}, {"lat": 38.892699, "fusion_lat": 0.0, "type": "electric_scooter", "bike_id": "65b1654b1c8ec4ab7498cb431582480f", "rental_uris": {"ios": "https://dc.lft.to/lastmile_qr_scan", "android": "https://dc.lft.to/lastmile_qr_scan"}, "fusion_lon": 0.0, "lon": -77.046714, "name": "65b1654b1c8ec4ab7498cb431582480f", "is_reserved": 0, "is_disabled": 0}, {"lat": 38.91804033333333, "fusion_lat": 0.0, "type": "electric_scooter", "bike_id": "a32164c99ee7967eee3e5be19b949cfa", "rental_uris": {"ios": "https://dc.lft.to/lastmile_qr_scan", "android": "https://dc.lft.to/lastmile_qr_scan"}, "fusion_lon": 0.0, "lon": -77.02279316666667, "name": "a32164c99ee7967eee3e5be19b949cfa", "is_reserved": 0, "is_disabled": 0}, {"lat": 38.878700333333335, "fusion_lat": 0.0, "type": "electric_scooter", "bike_id": "2aefd58b3623cfeab56131dcb4b08873", "rental_uris": {"ios": "https://dc.lft.to/lastmile_qr_scan", "android": "https://dc.lft.to/lastmile_qr_scan"}, "fusion_lon": 0.0, "lon": -76.99680033333334, "name": "2aefd58b3623cfeab56131dcb4b08873", "is_reserved": 0, "is_disabled": 0}, {"lat": 38.86936033333333, "fusion_lat": 0.0, "type": "electric_scooter", "bike_id": "172364353cd195fc2eacbd322eb336f6", "rental_uris": {"ios": "https://dc.lft.to/lastmile_qr_scan", "android": "https://dc.lft.to/lastmile_qr_scan"}, "fusion_lon": 0.0, "lon": -77.0137525, "name": "172364353cd195fc2eacbd322eb336f6", "is_reserved": 0, "is_disabled": 0}, {"lat": 38.892297, "fusion_lat": 0.0, "type": "electric_scooter", "bike_id": "52c15b9127151eeacad06306c2cf280e", "rental_uris": {"ios": "https://dc.lft.to/lastmile_qr_scan", "android": "https://dc.lft.to/lastmile_qr_scan"}, "fusion_lon": 0.0, "lon": -77.021818, "name": "52c15b9127151eeacad06306c2cf280e", "is_reserved": 0, "is_disabled": 0}, {"lat": 38.92568766666667, "fusion_lat": 0.0, "type": "electric_scooter", "bike_id": "017d0f316573b7aff7cb4df0bdcbd7f7", "rental_uris": {"ios": "https://dc.lft.to/lastmile_qr_scan", "android": "https://dc.lft.to/lastmile_qr_scan"}, "fusion_lon": 0.0, "lon": -77.077824, "name": "017d0f316573b7aff7cb4df0bdcbd7f7", "is_reserved": 0, "is_disabled": 0}, {"lat": 38.864380833333335, "fusion_lat": 0.0, "type": "electric_scooter", "bike_id": "2eb3c09a3cb2b008b50ae54ed30b7e53", "rental_uris": {"ios": "https://dc.lft.to/lastmile_qr_scan", "android": "https://dc.lft.to/lastmile_qr_scan"}, "fusion_lon": 0.0, "lon": -76.9741345, "name": "2eb3c09a3cb2b008b50ae54ed30b7e53", "is_reserved": 0, "is_disabled": 0}, {"lat": 38.89609183333334, "fusion_lat": 0.0, "type": "electric_scooter", "bike_id": "2e107ed7e3b8ca732fc03cc903fdb1f3", "rental_uris": {"ios": "https://dc.lft.to/lastmile_qr_scan", "android": "https://dc.lft.to/lastmile_qr_scan"}, "fusion_lon": 0.0, "lon": -77.0427185, "name": "2e107ed7e3b8ca732fc03cc903fdb1f3", "is_reserved": 0, "is_disabled": 0}, {"lat": 38.890476166666666, "fusion_lat": 0.0, "type": "electric_scooter", "bike_id": "27fe83e773600738225e7fabe51802a6", "rental_uris": {"ios": "https://dc.lft.to/lastmile_qr_scan", "android": "https://dc.lft.to/lastmile_qr_scan"}, "fusion_lon": 0.0, "lon": -76.937564, "name": "27fe83e773600738225e7fabe51802a6", "is_reserved": 0, "is_disabled": 0}, {"lat": 38.90128433333334, "fusion_lat": 0.0, "type": "electric_scooter", "bike_id": "c863c6a051c1abd05072436b7c663afe", "rental_uris": {"ios": "https://dc.lft.to/lastmile_qr_scan", "android": "https://dc.lft.to/lastmile_qr_scan"}, "fusion_lon": 0.0, "lon": -77.02174816666667, "name": "c863c6a051c1abd05072436b7c663afe", "is_reserved": 0, "is_disabled": 0}, {"lat": 38.89444533333333, "fusion_lat": 0.0, "type": "electric_bike", "bike_id": "f987db988563be93301c6bd8e12243a0", "rental_uris": {"ios": "https://dc.lft.to/lastmile_qr_scan", "android": "https://dc.lft.to/lastmile_qr_scan"}, "fusion_lon": 0.0, "lon": -77.03160466666667, "name": "f987db988563be93301c6bd8e12243a0", "is_reserved": 0, "is_disabled": 0}, {"lat": 38.912960166666664, "fusion_lat": 0.0, "type": "electric_scooter", "bike_id": "c7311096767211394e1270e371b846a2", "rental_uris": {"ios": "https://dc.lft.to/lastmile_qr_scan", "android": "https://dc.lft.to/lastmile_qr_scan"}, "fusion_lon": 0.0, "lon": -77.02687983333334, "name": "c7311096767211394e1270e371b846a2", "is_reserved": 0, "is_disabled": 0}, {"lat": 38.9126135, "fusion_lat": 0.0, "type": "electric_scooter", "bike_id": "c7726ad2719bcfdaadae02d65e786907", "rental_uris": {"ios": "https://dc.lft.to/lastmile_qr_scan", "android": "https://dc.lft.to/lastmile_qr_scan"}, "fusion_lon": 0.0, "lon": -77.03727633333334, "name": "c7726ad2719bcfdaadae02d65e786907", "is_reserved": 0, "is_disabled": 0}, {"lat": 38.92031933333333, "fusion_lat": 0.0, "type": "electric_scooter", "bike_id": "0960b40189f8789a1cb102b2e73fc3a4", "rental_uris": {"ios": "https://dc.lft.to/lastmile_qr_scan", "android": "https://dc.lft.to/lastmile_qr_scan"}, "fusion_lon": 0.0, "lon": -77.030591, "name": "0960b40189f8789a1cb102b2e73fc3a4", "is_reserved": 0, "is_disabled": 0}, {"lat": 38.916685, "fusion_lat": 0.0, "type": "electric_scooter", "bike_id": "39d9757ad9c527825256cd60e008a33a", "rental_uris": {"ios": "https://dc.lft.to/lastmile_qr_scan", "android": "https://dc.lft.to/lastmile_qr_scan"}, "fusion_lon": 0.0, "lon": -77.03845516666667, "name": "39d9757ad9c527825256cd60e008a33a", "is_reserved": 0, "is_disabled": 0}, {"lat": 38.89356433333333, "fusion_lat": 0.0, "type": "electric_scooter", "bike_id": "767cd5ba7a0b9954eed4d7eaff130a9c", "rental_uris": {"ios": "https://dc.lft.to/lastmile_qr_scan", "android": "https://dc.lft.to/lastmile_qr_scan"}, "fusion_lon": 0.0, "lon": -77.0033495, "name": "767cd5ba7a0b9954eed4d7eaff130a9c", "is_reserved": 0, "is_disabled": 0}, {"lat": 38.9253705, "fusion_lat": 0.0, "type": "electric_bike", "bike_id": "d2ba121c424766542b95c5aba2bd358b", "rental_uris": {"ios": "https://dc.lft.to/lastmile_qr_scan", "android": "https://dc.lft.to/lastmile_qr_scan"}, "fusion_lon": 0.0, "lon": -77.0010705, "name": "d2ba121c424766542b95c5aba2bd358b", "is_reserved": 0, "is_disabled": 0}, {"lat": 38.90103366666666, "fusion_lat": 0.0, "type": "electric_scooter", "bike_id": "49d8ff4ee74cacfb549f3847e37b10ca", "rental_uris": {"ios": "https://dc.lft.to/lastmile_qr_scan", "android": "https://dc.lft.to/lastmile_qr_scan"}, "fusion_lon": 0.0, "lon": -77.04541116666667, "name": "49d8ff4ee74cacfb549f3847e37b10ca", "is_reserved": 0, "is_disabled": 0}, {"lat": 38.95599383333333, "fusion_lat": 0.0, "type": "electric_bike", "bike_id": "ddeb484b4d2f378beeb4dd5b127d83c5", "rental_uris": {"ios": "https://dc.lft.to/lastmile_qr_scan", "android": "https://dc.lft.to/lastmile_qr_scan"}, "fusion_lon": 0.0, "lon": -77.01017233333333, "name": "ddeb484b4d2f378beeb4dd5b127d83c5", "is_reserved": 0, "is_disabled": 0}, {"lat": 38.922557833333336, "fusion_lat": 0.0, "type": "electric_bike", "bike_id": "f65b900eb1fb5d64b81d17b2794e00a4", "rental_uris": {"ios": "https://dc.lft.to/lastmile_qr_scan", "android": "https://dc.lft.to/lastmile_qr_scan"}, "fusion_lon": 0.0, "lon": -76.9977195, "name": "f65b900eb1fb5d64b81d17b2794e00a4", "is_reserved": 0, "is_disabled": 0}, {"lat": 38.8874525, "fusion_lat": 0.0, "type": "electric_scooter", "bike_id": "a65e43a89e425e7ce8c6b9ba565485c5", "rental_uris": {"ios": "https://dc.lft.to/lastmile_qr_scan", "android": "https://dc.lft.to/lastmile_qr_scan"}, "fusion_lon": 0.0, "lon": -77.02128866666666, "name": "a65e43a89e425e7ce8c6b9ba565485c5", "is_reserved": 0, "is_disabled": 0}, {"lat": 38.887204, "fusion_lat": 0.0, "type": "electric_scooter", "bike_id": "d6940330df205638e3dc08d786839e12", "rental_uris": {"ios": "https://dc.lft.to/lastmile_qr_scan", "android": "https://dc.lft.to/lastmile_qr_scan"}, "fusion_lon": 0.0, "lon": -77.022034, "name": "d6940330df205638e3dc08d786839e12", "is_reserved": 0, "is_disabled": 0}, {"lat": 38.920815833333336, "fusion_lat": 0.0, "type": "electric_scooter", "bike_id": "dd61633e6c8e9e2b4a26850753be9bbe", "rental_uris": {"ios": "https://dc.lft.to/lastmile_qr_scan", "android": "https://dc.lft.to/lastmile_qr_scan"}, "fusion_lon": 0.0, "lon": -77.02514033333334, "name": "dd61633e6c8e9e2b4a26850753be9bbe", "is_reserved": 0, "is_disabled": 0}, {"lat": 38.914169333333334, "fusion_lat": 0.0, "type": "electric_scooter", "bike_id": "d97d55ca552bd4c2eae32dc29f7c3b64", "rental_uris": {"ios": "https://dc.lft.to/lastmile_qr_scan", "android": "https://dc.lft.to/lastmile_qr_scan"}, "fusion_lon": 0.0, "lon": -77.0316995, "name": "d97d55ca552bd4c2eae32dc29f7c3b64", "is_reserved": 0, "is_disabled": 0}, {"lat": 38.937202166666665, "fusion_lat": 0.0, "type": "electric_scooter", "bike_id": "c6779b4b275470e811de75344cc410d7", "rental_uris": {"ios": "https://dc.lft.to/lastmile_qr_scan", "android": "https://dc.lft.to/lastmile_qr_scan"}, "fusion_lon": 0.0, "lon": -77.03629866666667, "name": "c6779b4b275470e811de75344cc410d7", "is_reserved": 0, "is_disabled": 0}, {"lat": 38.9100245, "fusion_lat": 0.0, "type": "electric_scooter", "bike_id": "d6d839a2680294ab161f93e64ef81052", "rental_uris": {"ios": "https://dc.lft.to/lastmile_qr_scan", "android": "https://dc.lft.to/lastmile_qr_scan"}, "fusion_lon": 0.0, "lon": -77.03455516666666, "name": "d6d839a2680294ab161f93e64ef81052", "is_reserved": 0, "is_disabled": 0}, {"lat": 38.934111333333334, "fusion_lat": 0.0, "type": "electric_scooter", "bike_id": "dfb5ed8aefcf3915d665a025181063cf", "rental_uris": {"ios": "https://dc.lft.to/lastmile_qr_scan", "android": "https://dc.lft.to/lastmile_qr_scan"}, "fusion_lon": 0.0, "lon": -77.01975483333334, "name": "dfb5ed8aefcf3915d665a025181063cf", "is_reserved": 0, "is_disabled": 0}, {"lat": 38.91692883333333, "fusion_lat": 0.0, "type": "electric_scooter", "bike_id": "13fdb1a0392a8e861adc2957188b3f06", "rental_uris": {"ios": "https://dc.lft.to/lastmile_qr_scan", "android": "https://dc.lft.to/lastmile_qr_scan"}, "fusion_lon": 0.0, "lon": -77.0091915, "name": "13fdb1a0392a8e861adc2957188b3f06", "is_reserved": 0, "is_disabled": 0}, {"lat": 38.9360665, "fusion_lat": 0.0, "type": "electric_scooter", "bike_id": "62f14981eac016939669961a9a993b3b", "rental_uris": {"ios": "https://dc.lft.to/lastmile_qr_scan", "android": "https://dc.lft.to/lastmile_qr_scan"}, "fusion_lon": 0.0, "lon": -77.03789833333333, "name": "62f14981eac016939669961a9a993b3b", "is_reserved": 0, "is_disabled": 0}, {"lat": 38.889873333333334, "fusion_lat": 0.0, "type": "electric_scooter", "bike_id": "81ff382c244c239428492e50b7788b1a", "rental_uris": {"ios": "https://dc.lft.to/lastmile_qr_scan", "android": "https://dc.lft.to/lastmile_qr_scan"}, "fusion_lon": 0.0, "lon": -76.954412, "name": "81ff382c244c239428492e50b7788b1a", "is_reserved": 0, "is_disabled": 0}, {"lat": 38.87919983333333, "fusion_lat": 0.0, "type": "electric_scooter", "bike_id": "43db768b760ce95fe52edcb07e7a9259", "rental_uris": {"ios": "https://dc.lft.to/lastmile_qr_scan", "android": "https://dc.lft.to/lastmile_qr_scan"}, "fusion_lon": 0.0, "lon": -77.00763366666666, "name": "43db768b760ce95fe52edcb07e7a9259", "is_reserved": 0, "is_disabled": 0}, {"lat": 38.915497, "fusion_lat": 0.0, "type": "electric_scooter", "bike_id": "c261e63169dc362649479e601ea8ff65", "rental_uris": {"ios": "https://dc.lft.to/lastmile_qr_scan", "android": "https://dc.lft.to/lastmile_qr_scan"}, "fusion_lon": 0.0, "lon": -77.03169966666667, "name": "c261e63169dc362649479e601ea8ff65", "is_reserved": 0, "is_disabled": 0}, {"lat": 38.910077, "fusion_lat": 0.0, "type": "electric_scooter", "bike_id": "1c7e5a6e7c50b498fa7892397d9373c3", "rental_uris": {"ios": "https://dc.lft.to/lastmile_qr_scan", "android": "https://dc.lft.to/lastmile_qr_scan"}, "fusion_lon": 0.0, "lon": -77.02094833333334, "name": "1c7e5a6e7c50b498fa7892397d9373c3", "is_reserved": 0, "is_disabled": 0}, {"lat": 38.92856316666666, "fusion_lat": 0.0, "type": "electric_scooter", "bike_id": "ba5f31a1bb12b7537f4ac9acb889bcd7", "rental_uris": {"ios": "https://dc.lft.to/lastmile_qr_scan", "android": "https://dc.lft.to/lastmile_qr_scan"}, "fusion_lon": 0.0, "lon": -77.03308916666667, "name": "ba5f31a1bb12b7537f4ac9acb889bcd7", "is_reserved": 0, "is_disabled": 0}, {"lat": 38.83515633333333, "fusion_lat": 0.0, "type": "electric_bike", "bike_id": "6786f36ce1eac390a66b3e6542f0fdb3", "rental_uris": {"ios": "https://dc.lft.to/lastmile_qr_scan", "android": "https://dc.lft.to/lastmile_qr_scan"}, "fusion_lon": 0.0, "lon": -76.98677933333333, "name": "6786f36ce1eac390a66b3e6542f0fdb3", "is_reserved": 0, "is_disabled": 0}, {"lat": 38.92524183333333, "fusion_lat": 0.0, "type": "electric_scooter", "bike_id": "ca8d6c66402062c75ef177a707d674ba", "rental_uris": {"ios": "https://dc.lft.to/lastmile_qr_scan", "android": "https://dc.lft.to/lastmile_qr_scan"}, "fusion_lon": 0.0, "lon": -77.02132266666666, "name": "ca8d6c66402062c75ef177a707d674ba", "is_reserved": 0, "is_disabled": 0}, {"lat": 38.91280583333333, "fusion_lat": 0.0, "type": "electric_scooter", "bike_id": "176b324049f94c6b09f70576c2502e92", "rental_uris": {"ios": "https://dc.lft.to/lastmile_qr_scan", "android": "https://dc.lft.to/lastmile_qr_scan"}, "fusion_lon": 0.0, "lon": -77.04506933333333, "name": "176b324049f94c6b09f70576c2502e92", "is_reserved": 0, "is_disabled": 0}, {"lat": 38.9057425, "fusion_lat": 0.0, "type": "electric_scooter", "bike_id": "2e0f6afbb7dd315fe6f1da94c18a9502", "rental_uris": {"ios": "https://dc.lft.to/lastmile_qr_scan", "android": "https://dc.lft.to/lastmile_qr_scan"}, "fusion_lon": 0.0, "lon": -77.01856816666667, "name": "2e0f6afbb7dd315fe6f1da94c18a9502", "is_reserved": 0, "is_disabled": 0}, {"lat": 38.913582, "fusion_lat": 0.0, "type": "electric_scooter", "bike_id": "7cad05aa0606f0363024fe5ed43510ea", "rental_uris": {"ios": "https://dc.lft.to/lastmile_qr_scan", "android": "https://dc.lft.to/lastmile_qr_scan"}, "fusion_lon": 0.0, "lon": -77.0395365, "name": "7cad05aa0606f0363024fe5ed43510ea", "is_reserved": 0, "is_disabled": 0}, {"lat": 38.88632783333333, "fusion_lat": 0.0, "type": "electric_scooter", "bike_id": "a84281bcea12a86edc0bf7d058118975", "rental_uris": {"ios": "https://dc.lft.to/lastmile_qr_scan", "android": "https://dc.lft.to/lastmile_qr_scan"}, "fusion_lon": 0.0, "lon": -76.9258325, "name": "a84281bcea12a86edc0bf7d058118975", "is_reserved": 0, "is_disabled": 0}, {"lat": 38.87868666666667, "fusion_lat": 0.0, "type": "electric_scooter", "bike_id": "7632dc1ded39bbdba3cbe5199844882d", "rental_uris": {"ios": "https://dc.lft.to/lastmile_qr_scan", "android": "https://dc.lft.to/lastmile_qr_scan"}, "fusion_lon": 0.0, "lon": -76.96257216666666, "name": "7632dc1ded39bbdba3cbe5199844882d", "is_reserved": 0, "is_disabled": 0}, {"lat": 38.919653833333335, "fusion_lat": 0.0, "type": "electric_scooter", "bike_id": "6939d861d34f504a9262e7ad60f3feb1", "rental_uris": {"ios": "https://dc.lft.to/lastmile_qr_scan", "android": "https://dc.lft.to/lastmile_qr_scan"}, "fusion_lon": 0.0, "lon": -77.03374966666667, "name": "6939d861d34f504a9262e7ad60f3feb1", "is_reserved": 0, "is_disabled": 0}, {"lat": 38.9191315, "fusion_lat": 0.0, "type": "electric_scooter", "bike_id": "e8fed8f3a10cdf4f0a6a954e573031b8", "rental_uris": {"ios": "https://dc.lft.to/lastmile_qr_scan", "android": "https://dc.lft.to/lastmile_qr_scan"}, "fusion_lon": 0.0, "lon": -77.044626, "name": "e8fed8f3a10cdf4f0a6a954e573031b8", "is_reserved": 0, "is_disabled": 0}, {"lat": 38.899236333333334, "fusion_lat": 0.0, "type": "electric_scooter", "bike_id": "e9de37459c8003e66d3f7f49f9f5cb95", "rental_uris": {"ios": "https://dc.lft.to/lastmile_qr_scan", "android": "https://dc.lft.to/lastmile_qr_scan"}, "fusion_lon": 0.0, "lon": -77.0499885, "name": "e9de37459c8003e66d3f7f49f9f5cb95", "is_reserved": 0, "is_disabled": 0}, {"lat": 38.906187333333335, "fusion_lat": 0.0, "type": "electric_scooter", "bike_id": "c69440e61dbe96a67082b898e365071d", "rental_uris": {"ios": "https://dc.lft.to/lastmile_qr_scan", "android": "https://dc.lft.to/lastmile_qr_scan"}, "fusion_lon": 0.0, "lon": -77.038704, "name": "c69440e61dbe96a67082b898e365071d", "is_reserved": 0, "is_disabled": 0}, {"lat": 38.90320033333333, "fusion_lat": 0.0, "type": "electric_scooter", "bike_id": "f12b91284d25d788108c305c3189d9c4", "rental_uris": {"ios": "https://dc.lft.to/lastmile_qr_scan", "android": "https://dc.lft.to/lastmile_qr_scan"}, "fusion_lon": 0.0, "lon": -77.016221, "name": "f12b91284d25d788108c305c3189d9c4", "is_reserved": 0, "is_disabled": 0}, {"lat": 38.91124666666666, "fusion_lat": 0.0, "type": "electric_scooter", "bike_id": "6b929180f8e55eaec2eb57dbca1d41d6", "rental_uris": {"ios": "https://dc.lft.to/lastmile_qr_scan", "android": "https://dc.lft.to/lastmile_qr_scan"}, "fusion_lon": 0.0, "lon": -77.03761483333334, "name": "6b929180f8e55eaec2eb57dbca1d41d6", "is_reserved": 0, "is_disabled": 0}, {"lat": 38.920328, "fusion_lat": 0.0, "type": "electric_scooter", "bike_id": "0bdee7274dbb42e90dd2edd649539bef", "rental_uris": {"ios": "https://dc.lft.to/lastmile_qr_scan", "android": "https://dc.lft.to/lastmile_qr_scan"}, "fusion_lon": 0.0, "lon": -77.03669616666667, "name": "0bdee7274dbb42e90dd2edd649539bef", "is_reserved": 0, "is_disabled": 0}, {"lat": 38.9078825, "fusion_lat": 0.0, "type": "electric_scooter", "bike_id": "23806858f2d57a870fcc62727c174672", "rental_uris": {"ios": "https://dc.lft.to/lastmile_qr_scan", "android": "https://dc.lft.to/lastmile_qr_scan"}, "fusion_lon": 0.0, "lon": -77.01104283333333, "name": "23806858f2d57a870fcc62727c174672", "is_reserved": 0, "is_disabled": 0}, {"lat": 38.90034383333333, "fusion_lat": 0.0, "type": "electric_scooter", "bike_id": "8bb54219ef3f121470ccfac170b5706d", "rental_uris": {"ios": "https://dc.lft.to/lastmile_qr_scan", "android": "https://dc.lft.to/lastmile_qr_scan"}, "fusion_lon": 0.0, "lon": -77.024025, "name": "8bb54219ef3f121470ccfac170b5706d", "is_reserved": 0, "is_disabled": 0}, {"lat": 38.95646433333334, "fusion_lat": 0.0, "type": "electric_bike", "bike_id": "a776c4bcd91338ee2a93d605022ac7a8", "rental_uris": {"ios": "https://dc.lft.to/lastmile_qr_scan", "android": "https://dc.lft.to/lastmile_qr_scan"}, "fusion_lon": 0.0, "lon": -77.03284583333334, "name": "a776c4bcd91338ee2a93d605022ac7a8", "is_reserved": 0, "is_disabled": 0}, {"lat": 38.9172175, "fusion_lat": 0.0, "type": "electric_scooter", "bike_id": "b0cb4336b91ff75975fca0ee9e270a47", "rental_uris": {"ios": "https://dc.lft.to/lastmile_qr_scan", "android": "https://dc.lft.to/lastmile_qr_scan"}, "fusion_lon": 0.0, "lon": -77.03257366666666, "name": "b0cb4336b91ff75975fca0ee9e270a47", "is_reserved": 0, "is_disabled": 0}, {"lat": 38.91944, "fusion_lat": 0.0, "type": "electric_scooter", "bike_id": "4dda9d1c78f7c962cedffd93c81eca34", "rental_uris": {"ios": "https://dc.lft.to/lastmile_qr_scan", "android": "https://dc.lft.to/lastmile_qr_scan"}, "fusion_lon": 0.0, "lon": -77.02496416666666, "name": "4dda9d1c78f7c962cedffd93c81eca34", "is_reserved": 0, "is_disabled": 0}, {"lat": 38.921231666666664, "fusion_lat": 0.0, "type": "electric_scooter", "bike_id": "ca3ed83f5a57d0771575d764aa939de5", "rental_uris": {"ios": "https://dc.lft.to/lastmile_qr_scan", "android": "https://dc.lft.to/lastmile_qr_scan"}, "fusion_lon": 0.0, "lon": -77.01793066666667, "name": "ca3ed83f5a57d0771575d764aa939de5", "is_reserved": 0, "is_disabled": 0}, {"lat": 38.942030333333335, "fusion_lat": 0.0, "type": "electric_scooter", "bike_id": "b3f9961f2ed6db2d686312a9fee20d67", "rental_uris": {"ios": "https://dc.lft.to/lastmile_qr_scan", "android": "https://dc.lft.to/lastmile_qr_scan"}, "fusion_lon": 0.0, "lon": -77.02592883333334, "name": "b3f9961f2ed6db2d686312a9fee20d67", "is_reserved": 0, "is_disabled": 0}, {"lat": 38.92425716666666, "fusion_lat": 0.0, "type": "electric_scooter", "bike_id": "056e205dc1b2f312d3bfe852500790b6", "rental_uris": {"ios": "https://dc.lft.to/lastmile_qr_scan", "android": "https://dc.lft.to/lastmile_qr_scan"}, "fusion_lon": 0.0, "lon": -77.051795, "name": "056e205dc1b2f312d3bfe852500790b6", "is_reserved": 0, "is_disabled": 0}, {"lat": 38.920559833333336, "fusion_lat": 0.0, "type": "electric_bike", "bike_id": "a888387c565b2114036862c30d3bee40", "rental_uris": {"ios": "https://dc.lft.to/lastmile_qr_scan", "android": "https://dc.lft.to/lastmile_qr_scan"}, "fusion_lon": 0.0, "lon": -77.24128666666667, "name": "a888387c565b2114036862c30d3bee40", "is_reserved": 0, "is_disabled": 0}, {"lat": 38.91604866666667, "fusion_lat": 0.0, "type": "electric_scooter", "bike_id": "2f2457d1178d612ebdc4ed128dee4129", "rental_uris": {"ios": "https://dc.lft.to/lastmile_qr_scan", "android": "https://dc.lft.to/lastmile_qr_scan"}, "fusion_lon": 0.0, "lon": -77.03943416666667, "name": "2f2457d1178d612ebdc4ed128dee4129", "is_reserved": 0, "is_disabled": 0}, {"lat": 38.92063983333333, "fusion_lat": 0.0, "type": "electric_bike", "bike_id": "589c33ce840f62f11d277931f364b68d", "rental_uris": {"ios": "https://dc.lft.to/lastmile_qr_scan", "android": "https://dc.lft.to/lastmile_qr_scan"}, "fusion_lon": 0.0, "lon": -77.02392883333333, "name": "589c33ce840f62f11d277931f364b68d", "is_reserved": 0, "is_disabled": 0}, {"lat": 38.91859316666667, "fusion_lat": 0.0, "type": "electric_scooter", "bike_id": "5d18a24e40e6c85012cee2c1f2c12aa2", "rental_uris": {"ios": "https://dc.lft.to/lastmile_qr_scan", "android": "https://dc.lft.to/lastmile_qr_scan"}, "fusion_lon": 0.0, "lon": -77.0348965, "name": "5d18a24e40e6c85012cee2c1f2c12aa2", "is_reserved": 0, "is_disabled": 0}, {"lat": 38.9001135, "fusion_lat": 0.0, "type": "electric_scooter", "bike_id": "b1a591316d1bdc0f9ce25b1cebd49e09", "rental_uris": {"ios": "https://dc.lft.to/lastmile_qr_scan", "android": "https://dc.lft.to/lastmile_qr_scan"}, "fusion_lon": 0.0, "lon": -77.00184733333333, "name": "b1a591316d1bdc0f9ce25b1cebd49e09", "is_reserved": 0, "is_disabled": 0}, {"lat": 38.92349016666667, "fusion_lat": 0.0, "type": "electric_scooter", "bike_id": "6df3ff0d14acea2c8183fef7b33c3dc6", "rental_uris": {"ios": "https://dc.lft.to/lastmile_qr_scan", "android": "https://dc.lft.to/lastmile_qr_scan"}, "fusion_lon": 0.0, "lon": -77.03492666666666, "name": "6df3ff0d14acea2c8183fef7b33c3dc6", "is_reserved": 0, "is_disabled": 0}, {"lat": 38.90410216666667, "fusion_lat": 0.0, "type": "electric_scooter", "bike_id": "5257188cbf73b1863ad4e9c22e0cc4d5", "rental_uris": {"ios": "https://dc.lft.to/lastmile_qr_scan", "android": "https://dc.lft.to/lastmile_qr_scan"}, "fusion_lon": 0.0, "lon": -76.97330166666667, "name": "5257188cbf73b1863ad4e9c22e0cc4d5", "is_reserved": 0, "is_disabled": 0}, {"lat": 38.84848916666667, "fusion_lat": 0.0, "type": "electric_bike", "bike_id": "fd8c426e81b1a4053d96c5e7bfde158a", "rental_uris": {"ios": "https://dc.lft.to/lastmile_qr_scan", "android": "https://dc.lft.to/lastmile_qr_scan"}, "fusion_lon": 0.0, "lon": -77.084928, "name": "fd8c426e81b1a4053d96c5e7bfde158a", "is_reserved": 0, "is_disabled": 0}, {"lat": 38.935302166666666, "fusion_lat": 0.0, "type": "electric_scooter", "bike_id": "0f97fca5f479eebbd7a4c44d1da9731f", "rental_uris": {"ios": "https://dc.lft.to/lastmile_qr_scan", "android": "https://dc.lft.to/lastmile_qr_scan"}, "fusion_lon": 0.0, "lon": -77.0346865, "name": "0f97fca5f479eebbd7a4c44d1da9731f", "is_reserved": 0, "is_disabled": 0}, {"lat": 38.93558916666667, "fusion_lat": 0.0, "type": "electric_scooter", "bike_id": "cfa7216cef557209c0bdaeb63a440bdc", "rental_uris": {"ios": "https://dc.lft.to/lastmile_qr_scan", "android": "https://dc.lft.to/lastmile_qr_scan"}, "fusion_lon": 0.0, "lon": -77.07456133333334, "name": "cfa7216cef557209c0bdaeb63a440bdc", "is_reserved": 0, "is_disabled": 0}, {"lat": 38.907022833333336, "fusion_lat": 0.0, "type": "electric_scooter", "bike_id": "495b78308e8680a621b8521729b3f15e", "rental_uris": {"ios": "https://dc.lft.to/lastmile_qr_scan", "android": "https://dc.lft.to/lastmile_qr_scan"}, "fusion_lon": 0.0, "lon": -77.04160683333333, "name": "495b78308e8680a621b8521729b3f15e", "is_reserved": 0, "is_disabled": 0}, {"lat": 38.9102765, "fusion_lat": 0.0, "type": "electric_scooter", "bike_id": "32944aa499112acce347109fda9d1037", "rental_uris": {"ios": "https://dc.lft.to/lastmile_qr_scan", "android": "https://dc.lft.to/lastmile_qr_scan"}, "fusion_lon": 0.0, "lon": -77.0331255, "name": "32944aa499112acce347109fda9d1037", "is_reserved": 0, "is_disabled": 0}, {"lat": 38.9156815, "fusion_lat": 0.0, "type": "electric_scooter", "bike_id": "4ae3c47f4d5b20385063c9da523d6d6a", "rental_uris": {"ios": "https://dc.lft.to/lastmile_qr_scan", "android": "https://dc.lft.to/lastmile_qr_scan"}, "fusion_lon": 0.0, "lon": -77.01964383333333, "name": "4ae3c47f4d5b20385063c9da523d6d6a", "is_reserved": 0, "is_disabled": 0}, {"lat": 38.9083645, "fusion_lat": 0.0, "type": "electric_scooter", "bike_id": "0574453275d5a28d0fe2ffee7901c482", "rental_uris": {"ios": "https://dc.lft.to/lastmile_qr_scan", "android": "https://dc.lft.to/lastmile_qr_scan"}, "fusion_lon": 0.0, "lon": -77.03205233333334, "name": "0574453275d5a28d0fe2ffee7901c482", "is_reserved": 0, "is_disabled": 0}, {"lat": 38.897302333333336, "fusion_lat": 0.0, "type": "electric_scooter", "bike_id": "201abbcafd678becb5e5a86ac71b27e4", "rental_uris": {"ios": "https://dc.lft.to/lastmile_qr_scan", "android": "https://dc.lft.to/lastmile_qr_scan"}, "fusion_lon": 0.0, "lon": -77.02332316666667, "name": "201abbcafd678becb5e5a86ac71b27e4", "is_reserved": 0, "is_disabled": 0}, {"lat": 38.936995833333334, "fusion_lat": 0.0, "type": "electric_scooter", "bike_id": "a91ea43b48da72136d9020073c10c5a7", "rental_uris": {"ios": "https://dc.lft.to/lastmile_qr_scan", "android": "https://dc.lft.to/lastmile_qr_scan"}, "fusion_lon": 0.0, "lon": -77.05600366666667, "name": "a91ea43b48da72136d9020073c10c5a7", "is_reserved": 0, "is_disabled": 0}, {"lat": 38.90646733333333, "fusion_lat": 0.0, "type": "electric_scooter", "bike_id": "fa1ca90cec3d7aa64da2ccc4772ece54", "rental_uris": {"ios": "https://dc.lft.to/lastmile_qr_scan", "android": "https://dc.lft.to/lastmile_qr_scan"}, "fusion_lon": 0.0, "lon": -77.01763316666667, "name": "fa1ca90cec3d7aa64da2ccc4772ece54", "is_reserved": 0, "is_disabled": 0}, {"lat": 38.871849166666664, "fusion_lat": 0.0, "type": "electric_scooter", "bike_id": "11a8fe36c70a88a02e3f6bb25695605a", "rental_uris": {"ios": "https://dc.lft.to/lastmile_qr_scan", "android": "https://dc.lft.to/lastmile_qr_scan"}, "fusion_lon": 0.0, "lon": -77.00642916666666, "name": "11a8fe36c70a88a02e3f6bb25695605a", "is_reserved": 0, "is_disabled": 0}, {"lat": 38.894662, "fusion_lat": 0.0, "type": "electric_scooter", "bike_id": "aefc795be3dc60d1e09cf90922c435e0", "rental_uris": {"ios": "https://dc.lft.to/lastmile_qr_scan", "android": "https://dc.lft.to/lastmile_qr_scan"}, "fusion_lon": 0.0, "lon": -76.99618083333333, "name": "aefc795be3dc60d1e09cf90922c435e0", "is_reserved": 0, "is_disabled": 0}, {"lat": 38.836122, "fusion_lat": 0.0, "type": "electric_bike", "bike_id": "402a102cb2d751743ac5f8231e3f513e", "rental_uris": {"ios": "https://dc.lft.to/lastmile_qr_scan", "android": "https://dc.lft.to/lastmile_qr_scan"}, "fusion_lon": 0.0, "lon": -77.0037875, "name": "402a102cb2d751743ac5f8231e3f513e", "is_reserved": 0, "is_disabled": 0}, {"lat": 38.908598, "fusion_lat": 0.0, "type": "electric_scooter", "bike_id": "42c6e13527fd0c1a24d8ed440f23478c", "rental_uris": {"ios": "https://dc.lft.to/lastmile_qr_scan", "android": "https://dc.lft.to/lastmile_qr_scan"}, "fusion_lon": 0.0, "lon": -76.99814833333333, "name": "42c6e13527fd0c1a24d8ed440f23478c", "is_reserved": 0, "is_disabled": 0}, {"lat": 38.91814933333333, "fusion_lat": 0.0, "type": "electric_scooter", "bike_id": "cafb59d8d6cb18879ce5197cd561a408", "rental_uris": {"ios": "https://dc.lft.to/lastmile_qr_scan", "android": "https://dc.lft.to/lastmile_qr_scan"}, "fusion_lon": 0.0, "lon": -77.0378085, "name": "cafb59d8d6cb18879ce5197cd561a408", "is_reserved": 0, "is_disabled": 0}, {"lat": 38.902944166666664, "fusion_lat": 0.0, "type": "electric_scooter", "bike_id": "3fd737eb584f0c3f9f2ebc013abfa6a9", "rental_uris": {"ios": "https://dc.lft.to/lastmile_qr_scan", "android": "https://dc.lft.to/lastmile_qr_scan"}, "fusion_lon": 0.0, "lon": -77.05465383333333, "name": "3fd737eb584f0c3f9f2ebc013abfa6a9", "is_reserved": 0, "is_disabled": 0}, {"lat": 38.922286166666666, "fusion_lat": 0.0, "type": "electric_scooter", "bike_id": "93380a6c606462ba01b82b03a63a8a45", "rental_uris": {"ios": "https://dc.lft.to/lastmile_qr_scan", "android": "https://dc.lft.to/lastmile_qr_scan"}, "fusion_lon": 0.0, "lon": -77.07286966666666, "name": "93380a6c606462ba01b82b03a63a8a45", "is_reserved": 0, "is_disabled": 0}, {"lat": 38.871853333333334, "fusion_lat": 0.0, "type": "electric_scooter", "bike_id": "9e64c7fc4a1ac9683b96df04f8bcacd6", "rental_uris": {"ios": "https://dc.lft.to/lastmile_qr_scan", "android": "https://dc.lft.to/lastmile_qr_scan"}, "fusion_lon": 0.0, "lon": -77.0064145, "name": "9e64c7fc4a1ac9683b96df04f8bcacd6", "is_reserved": 0, "is_disabled": 0}, {"lat": 38.89353766666667, "fusion_lat": 0.0, "type": "electric_scooter", "bike_id": "85cba898ff156093f512c20deaf09be2", "rental_uris": {"ios": "https://dc.lft.to/lastmile_qr_scan", "android": "https://dc.lft.to/lastmile_qr_scan"}, "fusion_lon": 0.0, "lon": -77.003277, "name": "85cba898ff156093f512c20deaf09be2", "is_reserved": 0, "is_disabled": 0}, {"lat": 38.9145695, "fusion_lat": 0.0, "type": "electric_scooter", "bike_id": "225988db7a6ec23ff7bc56e0ace2469d", "rental_uris": {"ios": "https://dc.lft.to/lastmile_qr_scan", "android": "https://dc.lft.to/lastmile_qr_scan"}, "fusion_lon": 0.0, "lon": -77.02295083333334, "name": "225988db7a6ec23ff7bc56e0ace2469d", "is_reserved": 0, "is_disabled": 0}, {"lat": 38.893427, "fusion_lat": 0.0, "type": "electric_scooter", "bike_id": "d0bf296b10bc04f38277f9ce60ab264b", "rental_uris": {"ios": "https://dc.lft.to/lastmile_qr_scan", "android": "https://dc.lft.to/lastmile_qr_scan"}, "fusion_lon": 0.0, "lon": -76.95225966666666, "name": "d0bf296b10bc04f38277f9ce60ab264b", "is_reserved": 0, "is_disabled": 0}, {"lat": 38.90299366666667, "fusion_lat": 0.0, "type": "electric_scooter", "bike_id": "2912a991c2f33ca185fbd6a710274a38", "rental_uris": {"ios": "https://dc.lft.to/lastmile_qr_scan", "android": "https://dc.lft.to/lastmile_qr_scan"}, "fusion_lon": 0.0, "lon": -76.99263733333333, "name": "2912a991c2f33ca185fbd6a710274a38", "is_reserved": 0, "is_disabled": 0}, {"lat": 38.97212533333333, "fusion_lat": 0.0, "type": "electric_scooter", "bike_id": "c46543f8f18a8f83c6646e32418cfffb", "rental_uris": {"ios": "https://dc.lft.to/lastmile_qr_scan", "android": "https://dc.lft.to/lastmile_qr_scan"}, "fusion_lon": 0.0, "lon": -77.0333205, "name": "c46543f8f18a8f83c6646e32418cfffb", "is_reserved": 0, "is_disabled": 0}, {"lat": 38.90572616666667, "fusion_lat": 0.0, "type": "electric_scooter", "bike_id": "22f9bd7649ccfa0f2cc8e2dbc4e974ea", "rental_uris": {"ios": "https://dc.lft.to/lastmile_qr_scan", "android": "https://dc.lft.to/lastmile_qr_scan"}, "fusion_lon": 0.0, "lon": -76.97622533333333, "name": "22f9bd7649ccfa0f2cc8e2dbc4e974ea", "is_reserved": 0, "is_disabled": 0}, {"lat": 38.89626233333333, "fusion_lat": 0.0, "type": "electric_scooter", "bike_id": "cfba941357f6868c715c1dadc6430990", "rental_uris": {"ios": "https://dc.lft.to/lastmile_qr_scan", "android": "https://dc.lft.to/lastmile_qr_scan"}, "fusion_lon": 0.0, "lon": -77.01317083333333, "name": "cfba941357f6868c715c1dadc6430990", "is_reserved": 0, "is_disabled": 0}, {"lat": 38.912909, "fusion_lat": 0.0, "type": "electric_bike", "bike_id": "df9f47a32cdd44bd008dffb162c1a533", "rental_uris": {"ios": "https://dc.lft.to/lastmile_qr_scan", "android": "https://dc.lft.to/lastmile_qr_scan"}, "fusion_lon": 0.0, "lon": -77.04480466666666, "name": "df9f47a32cdd44bd008dffb162c1a533", "is_reserved": 0, "is_disabled": 0}, {"lat": 38.909182666666666, "fusion_lat": 0.0, "type": "electric_scooter", "bike_id": "c9921ed4f941a2bc6df1a1849c7f3ec2", "rental_uris": {"ios": "https://dc.lft.to/lastmile_qr_scan", "android": "https://dc.lft.to/lastmile_qr_scan"}, "fusion_lon": 0.0, "lon": -76.99961616666667, "name": "c9921ed4f941a2bc6df1a1849c7f3ec2", "is_reserved": 0, "is_disabled": 0}, {"lat": 38.911300833333335, "fusion_lat": 0.0, "type": "electric_scooter", "bike_id": "ee67adbebbcd1bc094974b48e1f00097", "rental_uris": {"ios": "https://dc.lft.to/lastmile_qr_scan", "android": "https://dc.lft.to/lastmile_qr_scan"}, "fusion_lon": 0.0, "lon": -77.02184233333334, "name": "ee67adbebbcd1bc094974b48e1f00097", "is_reserved": 0, "is_disabled": 0}, {"lat": 38.9244055, "fusion_lat": 0.0, "type": "electric_scooter", "bike_id": "1cb96a74600346a8a36404c6af332cf2", "rental_uris": {"ios": "https://dc.lft.to/lastmile_qr_scan", "android": "https://dc.lft.to/lastmile_qr_scan"}, "fusion_lon": 0.0, "lon": -77.02028866666667, "name": "1cb96a74600346a8a36404c6af332cf2", "is_reserved": 0, "is_disabled": 0}, {"lat": 38.887232, "fusion_lat": 0.0, "type": "electric_scooter", "bike_id": "96fdc2e3bfa438c3b9889ade558de5c9", "rental_uris": {"ios": "https://dc.lft.to/lastmile_qr_scan", "android": "https://dc.lft.to/lastmile_qr_scan"}, "fusion_lon": 0.0, "lon": -77.0220145, "name": "96fdc2e3bfa438c3b9889ade558de5c9", "is_reserved": 0, "is_disabled": 0}, {"lat": 38.93247216666666, "fusion_lat": 0.0, "type": "electric_scooter", "bike_id": "f2e650de399b74ae0117fbfb9317e965", "rental_uris": {"ios": "https://dc.lft.to/lastmile_qr_scan", "android": "https://dc.lft.to/lastmile_qr_scan"}, "fusion_lon": 0.0, "lon": -77.0294625, "name": "f2e650de399b74ae0117fbfb9317e965", "is_reserved": 0, "is_disabled": 0}, {"lat": 38.900132, "fusion_lat": 0.0, "type": "electric_scooter", "bike_id": "7fc6dd6e694bde65786e040282dd9248", "rental_uris": {"ios": "https://dc.lft.to/lastmile_qr_scan", "android": "https://dc.lft.to/lastmile_qr_scan"}, "fusion_lon": 0.0, "lon": -77.02892266666667, "name": "7fc6dd6e694bde65786e040282dd9248", "is_reserved": 0, "is_disabled": 0}, {"lat": 38.924493, "fusion_lat": 0.0, "type": "electric_scooter", "bike_id": "5ca65714d11753b3f4e78300a187eb0a", "rental_uris": {"ios": "https://dc.lft.to/lastmile_qr_scan", "android": "https://dc.lft.to/lastmile_qr_scan"}, "fusion_lon": 0.0, "lon": -76.989891, "name": "5ca65714d11753b3f4e78300a187eb0a", "is_reserved": 0, "is_disabled": 0}, {"lat": 38.9073225, "fusion_lat": 0.0, "type": "electric_scooter", "bike_id": "e1a6711f2b437be6ee4a597f845a912e", "rental_uris": {"ios": "https://dc.lft.to/lastmile_qr_scan", "android": "https://dc.lft.to/lastmile_qr_scan"}, "fusion_lon": 0.0, "lon": -77.0130395, "name": "e1a6711f2b437be6ee4a597f845a912e", "is_reserved": 0, "is_disabled": 0}, {"lat": 38.847418833333336, "fusion_lat": 0.0, "type": "electric_scooter", "bike_id": "a556f61738ce61b41d3a1683f363569f", "rental_uris": {"ios": "https://dc.lft.to/lastmile_qr_scan", "android": "https://dc.lft.to/lastmile_qr_scan"}, "fusion_lon": 0.0, "lon": -76.99509333333333, "name": "a556f61738ce61b41d3a1683f363569f", "is_reserved": 0, "is_disabled": 0}, {"lat": 38.908045666666666, "fusion_lat": 0.0, "type": "electric_scooter", "bike_id": "80a5f67971012de39f8d6c03dd81f894", "rental_uris": {"ios": "https://dc.lft.to/lastmile_qr_scan", "android": "https://dc.lft.to/lastmile_qr_scan"}, "fusion_lon": 0.0, "lon": -77.02527216666667, "name": "80a5f67971012de39f8d6c03dd81f894", "is_reserved": 0, "is_disabled": 0}, {"lat": 38.91149716666666, "fusion_lat": 0.0, "type": "electric_scooter", "bike_id": "395e66dae1040d093ac9924164cf39fa", "rental_uris": {"ios": "https://dc.lft.to/lastmile_qr_scan", "android": "https://dc.lft.to/lastmile_qr_scan"}, "fusion_lon": 0.0, "lon": -77.00875283333333, "name": "395e66dae1040d093ac9924164cf39fa", "is_reserved": 0, "is_disabled": 0}, {"lat": 38.907076, "fusion_lat": 0.0, "type": "electric_scooter", "bike_id": "a3fb43156c455516d78d5609dafe4f8e", "rental_uris": {"ios": "https://dc.lft.to/lastmile_qr_scan", "android": "https://dc.lft.to/lastmile_qr_scan"}, "fusion_lon": 0.0, "lon": -77.075889, "name": "a3fb43156c455516d78d5609dafe4f8e", "is_reserved": 0, "is_disabled": 0}, {"lat": 38.898100166666666, "fusion_lat": 0.0, "type": "electric_scooter", "bike_id": "caa1a8d7192853723fa4719c16cf0e13", "rental_uris": {"ios": "https://dc.lft.to/lastmile_qr_scan", "android": "https://dc.lft.to/lastmile_qr_scan"}, "fusion_lon": 0.0, "lon": -76.9471415, "name": "caa1a8d7192853723fa4719c16cf0e13", "is_reserved": 0, "is_disabled": 0}, {"lat": 38.93470283333333, "fusion_lat": 0.0, "type": "electric_scooter", "bike_id": "e41590ca9a31bc677d98059c14e15fa1", "rental_uris": {"ios": "https://dc.lft.to/lastmile_qr_scan", "android": "https://dc.lft.to/lastmile_qr_scan"}, "fusion_lon": 0.0, "lon": -77.07274416666667, "name": "e41590ca9a31bc677d98059c14e15fa1", "is_reserved": 0, "is_disabled": 0}, {"lat": 38.899608666666666, "fusion_lat": 0.0, "type": "electric_scooter", "bike_id": "de2c19f22b1effa03d1cc623905820bd", "rental_uris": {"ios": "https://dc.lft.to/lastmile_qr_scan", "android": "https://dc.lft.to/lastmile_qr_scan"}, "fusion_lon": 0.0, "lon": -77.04669033333333, "name": "de2c19f22b1effa03d1cc623905820bd", "is_reserved": 0, "is_disabled": 0}, {"lat": 38.896970833333334, "fusion_lat": 0.0, "type": "electric_bike", "bike_id": "164ca634aa02501daaaf7cfffcdc2405", "rental_uris": {"ios": "https://dc.lft.to/lastmile_qr_scan", "android": "https://dc.lft.to/lastmile_qr_scan"}, "fusion_lon": 0.0, "lon": -76.963044, "name": "164ca634aa02501daaaf7cfffcdc2405", "is_reserved": 0, "is_disabled": 0}, {"lat": 38.889378, "fusion_lat": 0.0, "type": "electric_scooter", "bike_id": "714a26572f4a6ddb8344da40ced503f9", "rental_uris": {"ios": "https://dc.lft.to/lastmile_qr_scan", "android": "https://dc.lft.to/lastmile_qr_scan"}, "fusion_lon": 0.0, "lon": -76.99367516666666, "name": "714a26572f4a6ddb8344da40ced503f9", "is_reserved": 0, "is_disabled": 0}, {"lat": 38.917882166666665, "fusion_lat": 0.0, "type": "electric_scooter", "bike_id": "de3b9fb203026f09a322bb383630ac45", "rental_uris": {"ios": "https://dc.lft.to/lastmile_qr_scan", "android": "https://dc.lft.to/lastmile_qr_scan"}, "fusion_lon": 0.0, "lon": -77.02278266666667, "name": "de3b9fb203026f09a322bb383630ac45", "is_reserved": 0, "is_disabled": 0}, {"lat": 38.904119333333334, "fusion_lat": 0.0, "type": "electric_scooter", "bike_id": "99a2a23868055a63063432a0ba8aacf1", "rental_uris": {"ios": "https://dc.lft.to/lastmile_qr_scan", "android": "https://dc.lft.to/lastmile_qr_scan"}, "fusion_lon": 0.0, "lon": -76.97327133333333, "name": "99a2a23868055a63063432a0ba8aacf1", "is_reserved": 0, "is_disabled": 0}, {"lat": 38.905484333333334, "fusion_lat": 0.0, "type": "electric_scooter", "bike_id": "f66cade48c130bb88969afb09fd5d3f6", "rental_uris": {"ios": "https://dc.lft.to/lastmile_qr_scan", "android": "https://dc.lft.to/lastmile_qr_scan"}, "fusion_lon": 0.0, "lon": -77.005432, "name": "f66cade48c130bb88969afb09fd5d3f6", "is_reserved": 0, "is_disabled": 0}, {"lat": 38.91259183333333, "fusion_lat": 0.0, "type": "electric_scooter", "bike_id": "a1a7893eeafda0c0ab4cb5e23bba0e46", "rental_uris": {"ios": "https://dc.lft.to/lastmile_qr_scan", "android": "https://dc.lft.to/lastmile_qr_scan"}, "fusion_lon": 0.0, "lon": -77.047369, "name": "a1a7893eeafda0c0ab4cb5e23bba0e46", "is_reserved": 0, "is_disabled": 0}, {"lat": 38.923374333333335, "fusion_lat": 0.0, "type": "electric_scooter", "bike_id": "fb36fdb9a071388d4ec43b690ff4caaa", "rental_uris": {"ios": "https://dc.lft.to/lastmile_qr_scan", "android": "https://dc.lft.to/lastmile_qr_scan"}, "fusion_lon": 0.0, "lon": -77.05680866666667, "name": "fb36fdb9a071388d4ec43b690ff4caaa", "is_reserved": 0, "is_disabled": 0}, {"lat": 38.93580583333333, "fusion_lat": 0.0, "type": "electric_scooter", "bike_id": "a441f7790fbc49700a9b1184429c1866", "rental_uris": {"ios": "https://dc.lft.to/lastmile_qr_scan", "android": "https://dc.lft.to/lastmile_qr_scan"}, "fusion_lon": 0.0, "lon": -77.02124816666667, "name": "a441f7790fbc49700a9b1184429c1866", "is_reserved": 0, "is_disabled": 0}, {"lat": 38.84346983333333, "fusion_lat": 0.0, "type": "electric_scooter", "bike_id": "dd0e9733ad5decc03c243e7c65de37d4", "rental_uris": {"ios": "https://dc.lft.to/lastmile_qr_scan", "android": "https://dc.lft.to/lastmile_qr_scan"}, "fusion_lon": 0.0, "lon": -76.99914933333334, "name": "dd0e9733ad5decc03c243e7c65de37d4", "is_reserved": 0, "is_disabled": 0}, {"lat": 38.932819333333335, "fusion_lat": 0.0, "type": "electric_scooter", "bike_id": "ad685e1ef61a86806e21c826d4abeb73", "rental_uris": {"ios": "https://dc.lft.to/lastmile_qr_scan", "android": "https://dc.lft.to/lastmile_qr_scan"}, "fusion_lon": 0.0, "lon": -77.02824766666667, "name": "ad685e1ef61a86806e21c826d4abeb73", "is_reserved": 0, "is_disabled": 0}, {"lat": 38.91817133333333, "fusion_lat": 0.0, "type": "electric_scooter", "bike_id": "f687b22ad02b367e9d5bf8c49e775ae5", "rental_uris": {"ios": "https://dc.lft.to/lastmile_qr_scan", "android": "https://dc.lft.to/lastmile_qr_scan"}, "fusion_lon": 0.0, "lon": -77.02586683333334, "name": "f687b22ad02b367e9d5bf8c49e775ae5", "is_reserved": 0, "is_disabled": 0}, {"lat": 38.88343716666667, "fusion_lat": 0.0, "type": "electric_scooter", "bike_id": "c4b5d67c427f643174d69833c4512c2b", "rental_uris": {"ios": "https://dc.lft.to/lastmile_qr_scan", "android": "https://dc.lft.to/lastmile_qr_scan"}, "fusion_lon": 0.0, "lon": -76.935073, "name": "c4b5d67c427f643174d69833c4512c2b", "is_reserved": 0, "is_disabled": 0}, {"lat": 38.89441033333333, "fusion_lat": 0.0, "type": "electric_scooter", "bike_id": "56e678f50c8d3b5db279225fb5b09127", "rental_uris": {"ios": "https://dc.lft.to/lastmile_qr_scan", "android": "https://dc.lft.to/lastmile_qr_scan"}, "fusion_lon": 0.0, "lon": -77.01070933333334, "name": "56e678f50c8d3b5db279225fb5b09127", "is_reserved": 0, "is_disabled": 0}, {"lat": 38.94339083333333, "fusion_lat": 0.0, "type": "electric_scooter", "bike_id": "6a32b24277c3837c448996fc26ebb286", "rental_uris": {"ios": "https://dc.lft.to/lastmile_qr_scan", "android": "https://dc.lft.to/lastmile_qr_scan"}, "fusion_lon": 0.0, "lon": -76.98313866666666, "name": "6a32b24277c3837c448996fc26ebb286", "is_reserved": 0, "is_disabled": 0}, {"lat": 38.86754083333334, "fusion_lat": 0.0, "type": "electric_bike", "bike_id": "9847967123ac14a06f1941661bf5670c", "rental_uris": {"ios": "https://dc.lft.to/lastmile_qr_scan", "android": "https://dc.lft.to/lastmile_qr_scan"}, "fusion_lon": 0.0, "lon": -76.94531233333333, "name": "9847967123ac14a06f1941661bf5670c", "is_reserved": 0, "is_disabled": 0}, {"lat": 38.96611933333333, "fusion_lat": 0.0, "type": "electric_scooter", "bike_id": "92c7d236d5a51728f9c38b73e16c1735", "rental_uris": {"ios": "https://dc.lft.to/lastmile_qr_scan", "android": "https://dc.lft.to/lastmile_qr_scan"}, "fusion_lon": 0.0, "lon": -77.02742416666666, "name": "92c7d236d5a51728f9c38b73e16c1735", "is_reserved": 0, "is_disabled": 0}, {"lat": 38.916327, "fusion_lat": 0.0, "type": "electric_scooter", "bike_id": "855b988312a44669461dd29d6a19ab2b", "rental_uris": {"ios": "https://dc.lft.to/lastmile_qr_scan", "android": "https://dc.lft.to/lastmile_qr_scan"}, "fusion_lon": 0.0, "lon": -77.030037, "name": "855b988312a44669461dd29d6a19ab2b", "is_reserved": 0, "is_disabled": 0}, {"lat": 38.92343066666667, "fusion_lat": 0.0, "type": "electric_scooter", "bike_id": "3366acf3461eb92d59ce49dff68f2796", "rental_uris": {"ios": "https://dc.lft.to/lastmile_qr_scan", "android": "https://dc.lft.to/lastmile_qr_scan"}, "fusion_lon": 0.0, "lon": -77.05182116666667, "name": "3366acf3461eb92d59ce49dff68f2796", "is_reserved": 0, "is_disabled": 0}, {"lat": 38.9156365, "fusion_lat": 0.0, "type": "electric_scooter", "bike_id": "55c9b01bb95207f6b16ea11221cfccc8", "rental_uris": {"ios": "https://dc.lft.to/lastmile_qr_scan", "android": "https://dc.lft.to/lastmile_qr_scan"}, "fusion_lon": 0.0, "lon": -77.03955266666667, "name": "55c9b01bb95207f6b16ea11221cfccc8", "is_reserved": 0, "is_disabled": 0}, {"lat": 38.906489, "fusion_lat": 0.0, "type": "electric_scooter", "bike_id": "80aab74b7762539c8ddac293851949f6", "rental_uris": {"ios": "https://dc.lft.to/lastmile_qr_scan", "android": "https://dc.lft.to/lastmile_qr_scan"}, "fusion_lon": 0.0, "lon": -77.0144, "name": "80aab74b7762539c8ddac293851949f6", "is_reserved": 0, "is_disabled": 0}, {"lat": 38.9235635, "fusion_lat": 0.0, "type": "electric_scooter", "bike_id": "2ad48448c112bac1eca473cb26d84974", "rental_uris": {"ios": "https://dc.lft.to/lastmile_qr_scan", "android": "https://dc.lft.to/lastmile_qr_scan"}, "fusion_lon": 0.0, "lon": -76.99950933333334, "name": "2ad48448c112bac1eca473cb26d84974", "is_reserved": 0, "is_disabled": 0}, {"lat": 38.9604615, "fusion_lat": 0.0, "type": "electric_bike", "bike_id": "97efa8e359a49785a0c19a94809c6224", "rental_uris": {"ios": "https://dc.lft.to/lastmile_qr_scan", "android": "https://dc.lft.to/lastmile_qr_scan"}, "fusion_lon": 0.0, "lon": -76.94001283333333, "name": "97efa8e359a49785a0c19a94809c6224", "is_reserved": 0, "is_disabled": 0}, {"lat": 38.893529, "fusion_lat": 0.0, "type": "electric_scooter", "bike_id": "1551ae020c6532c9137fa0d148d6c7ef", "rental_uris": {"ios": "https://dc.lft.to/lastmile_qr_scan", "android": "https://dc.lft.to/lastmile_qr_scan"}, "fusion_lon": 0.0, "lon": -77.003283, "name": "1551ae020c6532c9137fa0d148d6c7ef", "is_reserved": 0, "is_disabled": 0}, {"lat": 38.922441, "fusion_lat": 0.0, "type": "electric_scooter", "bike_id": "4bb059dc44bc0dd53abc5391a7aaf9d7", "rental_uris": {"ios": "https://dc.lft.to/lastmile_qr_scan", "android": "https://dc.lft.to/lastmile_qr_scan"}, "fusion_lon": 0.0, "lon": -77.05285716666667, "name": "4bb059dc44bc0dd53abc5391a7aaf9d7", "is_reserved": 0, "is_disabled": 0}, {"lat": 38.90971966666667, "fusion_lat": 0.0, "type": "electric_bike", "bike_id": "0517e762e8317fbe18b2e85af8ef13c2", "rental_uris": {"ios": "https://dc.lft.to/lastmile_qr_scan", "android": "https://dc.lft.to/lastmile_qr_scan"}, "fusion_lon": 0.0, "lon": -77.08821833333333, "name": "0517e762e8317fbe18b2e85af8ef13c2", "is_reserved": 0, "is_disabled": 0}, {"lat": 38.87546433333333, "fusion_lat": 0.0, "type": "electric_scooter", "bike_id": "7e791ad289d9441429f93802546868d4", "rental_uris": {"ios": "https://dc.lft.to/lastmile_qr_scan", "android": "https://dc.lft.to/lastmile_qr_scan"}, "fusion_lon": 0.0, "lon": -77.00537533333333, "name": "7e791ad289d9441429f93802546868d4", "is_reserved": 0, "is_disabled": 0}, {"lat": 38.89576816666667, "fusion_lat": 0.0, "type": "electric_scooter", "bike_id": "8cfdd2191339286d8f6d6009634c76ba", "rental_uris": {"ios": "https://dc.lft.to/lastmile_qr_scan", "android": "https://dc.lft.to/lastmile_qr_scan"}, "fusion_lon": 0.0, "lon": -76.98319216666667, "name": "8cfdd2191339286d8f6d6009634c76ba", "is_reserved": 0, "is_disabled": 0}, {"lat": 38.916539, "fusion_lat": 0.0, "type": "electric_scooter", "bike_id": "5703c52b542e4d239866f47c353992e7", "rental_uris": {"ios": "https://dc.lft.to/lastmile_qr_scan", "android": "https://dc.lft.to/lastmile_qr_scan"}, "fusion_lon": 0.0, "lon": -77.0281595, "name": "5703c52b542e4d239866f47c353992e7", "is_reserved": 0, "is_disabled": 0}, {"lat": 38.86540733333333, "fusion_lat": 0.0, "type": "electric_scooter", "bike_id": "f6391a3878dac1ff12e555f242e0671f", "rental_uris": {"ios": "https://dc.lft.to/lastmile_qr_scan", "android": "https://dc.lft.to/lastmile_qr_scan"}, "fusion_lon": 0.0, "lon": -76.98708966666666, "name": "f6391a3878dac1ff12e555f242e0671f", "is_reserved": 0, "is_disabled": 0}, {"lat": 38.89733233333333, "fusion_lat": 0.0, "type": "electric_scooter", "bike_id": "14625b9e6d16065a24715a09cb8b2bd5", "rental_uris": {"ios": "https://dc.lft.to/lastmile_qr_scan", "android": "https://dc.lft.to/lastmile_qr_scan"}, "fusion_lon": 0.0, "lon": -77.00972533333334, "name": "14625b9e6d16065a24715a09cb8b2bd5", "is_reserved": 0, "is_disabled": 0}, {"lat": 38.86268183333333, "fusion_lat": 0.0, "type": "electric_scooter", "bike_id": "4e841972e6d5275abd36b286dce0e721", "rental_uris": {"ios": "https://dc.lft.to/lastmile_qr_scan", "android": "https://dc.lft.to/lastmile_qr_scan"}, "fusion_lon": 0.0, "lon": -76.99535916666666, "name": "4e841972e6d5275abd36b286dce0e721", "is_reserved": 0, "is_disabled": 0}, {"lat": 38.9087215, "fusion_lat": 0.0, "type": "electric_scooter", "bike_id": "4a08242539a99c9fc230a40e70d89ac1", "rental_uris": {"ios": "https://dc.lft.to/lastmile_qr_scan", "android": "https://dc.lft.to/lastmile_qr_scan"}, "fusion_lon": 0.0, "lon": -77.002637, "name": "4a08242539a99c9fc230a40e70d89ac1", "is_reserved": 0, "is_disabled": 0}, {"lat": 38.890367833333336, "fusion_lat": 0.0, "type": "electric_scooter", "bike_id": "ccfc6188d13f932acdfee0f874e9cd5d", "rental_uris": {"ios": "https://dc.lft.to/lastmile_qr_scan", "android": "https://dc.lft.to/lastmile_qr_scan"}, "fusion_lon": 0.0, "lon": -76.9375145, "name": "ccfc6188d13f932acdfee0f874e9cd5d", "is_reserved": 0, "is_disabled": 0}, {"lat": 38.92786816666667, "fusion_lat": 0.0, "type": "electric_scooter", "bike_id": "c409076557adfe19a25d6211cd86c021", "rental_uris": {"ios": "https://dc.lft.to/lastmile_qr_scan", "android": "https://dc.lft.to/lastmile_qr_scan"}, "fusion_lon": 0.0, "lon": -77.021312, "name": "c409076557adfe19a25d6211cd86c021", "is_reserved": 0, "is_disabled": 0}, {"lat": 38.919226, "fusion_lat": 0.0, "type": "electric_scooter", "bike_id": "6088bc7327fa004dac4bb760c5fa8f19", "rental_uris": {"ios": "https://dc.lft.to/lastmile_qr_scan", "android": "https://dc.lft.to/lastmile_qr_scan"}, "fusion_lon": 0.0, "lon": -77.03260183333333, "name": "6088bc7327fa004dac4bb760c5fa8f19", "is_reserved": 0, "is_disabled": 0}, {"lat": 38.93395983333333, "fusion_lat": 0.0, "type": "electric_scooter", "bike_id": "a11c105d0cca09dbec92cd47dfc94efc", "rental_uris": {"ios": "https://dc.lft.to/lastmile_qr_scan", "android": "https://dc.lft.to/lastmile_qr_scan"}, "fusion_lon": 0.0, "lon": -77.05740833333333, "name": "a11c105d0cca09dbec92cd47dfc94efc", "is_reserved": 0, "is_disabled": 0}, {"lat": 38.89236066666667, "fusion_lat": 0.0, "type": "electric_scooter", "bike_id": "565178873aadf89b692839d9439da80a", "rental_uris": {"ios": "https://dc.lft.to/lastmile_qr_scan", "android": "https://dc.lft.to/lastmile_qr_scan"}, "fusion_lon": 0.0, "lon": -77.04484683333334, "name": "565178873aadf89b692839d9439da80a", "is_reserved": 0, "is_disabled": 0}, {"lat": 38.923164166666666, "fusion_lat": 0.0, "type": "electric_scooter", "bike_id": "6c7f1fb550245bf6577e04e429556315", "rental_uris": {"ios": "https://dc.lft.to/lastmile_qr_scan", "android": "https://dc.lft.to/lastmile_qr_scan"}, "fusion_lon": 0.0, "lon": -77.0404195, "name": "6c7f1fb550245bf6577e04e429556315", "is_reserved": 0, "is_disabled": 0}, {"lat": 38.966034, "fusion_lat": 0.0, "type": "electric_scooter", "bike_id": "d2e80dc69c318164fe81d3ed54c8f9e2", "rental_uris": {"ios": "https://dc.lft.to/lastmile_qr_scan", "android": "https://dc.lft.to/lastmile_qr_scan"}, "fusion_lon": 0.0, "lon": -77.0274145, "name": "d2e80dc69c318164fe81d3ed54c8f9e2", "is_reserved": 0, "is_disabled": 0}, {"lat": 38.913647833333336, "fusion_lat": 0.0, "type": "electric_scooter", "bike_id": "f197f6d06433b462376c012afc6de435", "rental_uris": {"ios": "https://dc.lft.to/lastmile_qr_scan", "android": "https://dc.lft.to/lastmile_qr_scan"}, "fusion_lon": 0.0, "lon": -77.0225915, "name": "f197f6d06433b462376c012afc6de435", "is_reserved": 0, "is_disabled": 0}, {"lat": 38.8960245, "fusion_lat": 0.0, "type": "electric_scooter", "bike_id": "5caadb94e25b300084be4a87a1dd1d8d", "rental_uris": {"ios": "https://dc.lft.to/lastmile_qr_scan", "android": "https://dc.lft.to/lastmile_qr_scan"}, "fusion_lon": 0.0, "lon": -76.998868, "name": "5caadb94e25b300084be4a87a1dd1d8d", "is_reserved": 0, "is_disabled": 0}, {"lat": 38.8954305, "fusion_lat": 0.0, "type": "electric_scooter", "bike_id": "e44e3b6f183be7f89bf68cf2f2b5790b", "rental_uris": {"ios": "https://dc.lft.to/lastmile_qr_scan", "android": "https://dc.lft.to/lastmile_qr_scan"}, "fusion_lon": 0.0, "lon": -76.98336533333334, "name": "e44e3b6f183be7f89bf68cf2f2b5790b", "is_reserved": 0, "is_disabled": 0}, {"lat": 38.8772355, "fusion_lat": 0.0, "type": "electric_scooter", "bike_id": "b6e68f69688e3dde51dee3a285966832", "rental_uris": {"ios": "https://dc.lft.to/lastmile_qr_scan", "android": "https://dc.lft.to/lastmile_qr_scan"}, "fusion_lon": 0.0, "lon": -77.0057685, "name": "b6e68f69688e3dde51dee3a285966832", "is_reserved": 0, "is_disabled": 0}, {"lat": 38.913379166666665, "fusion_lat": 0.0, "type": "electric_scooter", "bike_id": "7ed8b2d024e28b2cc1bd8cddee6a564f", "rental_uris": {"ios": "https://dc.lft.to/lastmile_qr_scan", "android": "https://dc.lft.to/lastmile_qr_scan"}, "fusion_lon": 0.0, "lon": -77.003354, "name": "7ed8b2d024e28b2cc1bd8cddee6a564f", "is_reserved": 0, "is_disabled": 0}, {"lat": 38.90470583333333, "fusion_lat": 0.0, "type": "electric_scooter", "bike_id": "b1701aae6e8fcb104a28e70fc36dafc8", "rental_uris": {"ios": "https://dc.lft.to/lastmile_qr_scan", "android": "https://dc.lft.to/lastmile_qr_scan"}, "fusion_lon": 0.0, "lon": -77.06598733333334, "name": "b1701aae6e8fcb104a28e70fc36dafc8", "is_reserved": 0, "is_disabled": 0}, {"lat": 38.89246116666666, "fusion_lat": 0.0, "type": "electric_bike", "bike_id": "83f48eb304e01baa289326c2b3d3c115", "rental_uris": {"ios": "https://dc.lft.to/lastmile_qr_scan", "android": "https://dc.lft.to/lastmile_qr_scan"}, "fusion_lon": 0.0, "lon": -76.98539983333333, "name": "83f48eb304e01baa289326c2b3d3c115", "is_reserved": 0, "is_disabled": 0}, {"lat": 38.9879085, "fusion_lat": 0.0, "type": "electric_bike", "bike_id": "12fac3af8b5d8f2c455af6ec9727561e", "rental_uris": {"ios": "https://dc.lft.to/lastmile_qr_scan", "android": "https://dc.lft.to/lastmile_qr_scan"}, "fusion_lon": 0.0, "lon": -77.14096683333334, "name": "12fac3af8b5d8f2c455af6ec9727561e", "is_reserved": 0, "is_disabled": 0}, {"lat": 38.91714833333333, "fusion_lat": 0.0, "type": "electric_scooter", "bike_id": "cb80f8738766265e591026935e8c9039", "rental_uris": {"ios": "https://dc.lft.to/lastmile_qr_scan", "android": "https://dc.lft.to/lastmile_qr_scan"}, "fusion_lon": 0.0, "lon": -77.03348866666667, "name": "cb80f8738766265e591026935e8c9039", "is_reserved": 0, "is_disabled": 0}, {"lat": 38.83870183333333, "fusion_lat": 0.0, "type": "electric_bike", "bike_id": "ad4b0ccee578c175dc149c1e6d9764c9", "rental_uris": {"ios": "https://dc.lft.to/lastmile_qr_scan", "android": "https://dc.lft.to/lastmile_qr_scan"}, "fusion_lon": 0.0, "lon": -76.99711716666667, "name": "ad4b0ccee578c175dc149c1e6d9764c9", "is_reserved": 0, "is_disabled": 0}, {"lat": 38.89813383333333, "fusion_lat": 0.0, "type": "electric_scooter", "bike_id": "51f76530a208b808ac40664857d381eb", "rental_uris": {"ios": "https://dc.lft.to/lastmile_qr_scan", "android": "https://dc.lft.to/lastmile_qr_scan"}, "fusion_lon": 0.0, "lon": -77.01539083333333, "name": "51f76530a208b808ac40664857d381eb", "is_reserved": 0, "is_disabled": 0}, {"lat": 38.91706683333334, "fusion_lat": 0.0, "type": "electric_scooter", "bike_id": "ed78db9568dae3d1c40031ad0eb2462c", "rental_uris": {"ios": "https://dc.lft.to/lastmile_qr_scan", "android": "https://dc.lft.to/lastmile_qr_scan"}, "fusion_lon": 0.0, "lon": -77.0385935, "name": "ed78db9568dae3d1c40031ad0eb2462c", "is_reserved": 0, "is_disabled": 0}, {"lat": 38.91598166666667, "fusion_lat": 0.0, "type": "electric_scooter", "bike_id": "4a3728781543e99947d4784bbac5fc1e", "rental_uris": {"ios": "https://dc.lft.to/lastmile_qr_scan", "android": "https://dc.lft.to/lastmile_qr_scan"}, "fusion_lon": 0.0, "lon": -77.01437, "name": "4a3728781543e99947d4784bbac5fc1e", "is_reserved": 0, "is_disabled": 0}, {"lat": 38.8766805, "fusion_lat": 0.0, "type": "electric_scooter", "bike_id": "7a7b64e5c778790e8e04522ca6dd3d90", "rental_uris": {"ios": "https://dc.lft.to/lastmile_qr_scan", "android": "https://dc.lft.to/lastmile_qr_scan"}, "fusion_lon": 0.0, "lon": -77.00329566666667, "name": "7a7b64e5c778790e8e04522ca6dd3d90", "is_reserved": 0, "is_disabled": 0}, {"lat": 38.917815833333336, "fusion_lat": 0.0, "type": "electric_scooter", "bike_id": "9d9b39e6c0243be94c0eb54ee412aa5c", "rental_uris": {"ios": "https://dc.lft.to/lastmile_qr_scan", "android": "https://dc.lft.to/lastmile_qr_scan"}, "fusion_lon": 0.0, "lon": -77.03579266666667, "name": "9d9b39e6c0243be94c0eb54ee412aa5c", "is_reserved": 0, "is_disabled": 0}, {"lat": 38.900316333333336, "fusion_lat": 0.0, "type": "electric_scooter", "bike_id": "776fa989afb38b9fb4c72c21674284f0", "rental_uris": {"ios": "https://dc.lft.to/lastmile_qr_scan", "android": "https://dc.lft.to/lastmile_qr_scan"}, "fusion_lon": 0.0, "lon": -77.00217666666667, "name": "776fa989afb38b9fb4c72c21674284f0", "is_reserved": 0, "is_disabled": 0}, {"lat": 38.908515, "fusion_lat": 0.0, "type": "electric_scooter", "bike_id": "f450ad411ab2903e944946f62c77a899", "rental_uris": {"ios": "https://dc.lft.to/lastmile_qr_scan", "android": "https://dc.lft.to/lastmile_qr_scan"}, "fusion_lon": 0.0, "lon": -77.01967816666667, "name": "f450ad411ab2903e944946f62c77a899", "is_reserved": 0, "is_disabled": 0}, {"lat": 38.910547333333334, "fusion_lat": 0.0, "type": "electric_scooter", "bike_id": "d81748c57e6d73716786b0b9ffb58828", "rental_uris": {"ios": "https://dc.lft.to/lastmile_qr_scan", "android": "https://dc.lft.to/lastmile_qr_scan"}, "fusion_lon": 0.0, "lon": -77.030884, "name": "d81748c57e6d73716786b0b9ffb58828", "is_reserved": 0, "is_disabled": 0}, {"lat": 38.90734966666667, "fusion_lat": 0.0, "type": "electric_scooter", "bike_id": "b9ed01fdf37cf22ff189afa74966cb21", "rental_uris": {"ios": "https://dc.lft.to/lastmile_qr_scan", "android": "https://dc.lft.to/lastmile_qr_scan"}, "fusion_lon": 0.0, "lon": -76.97984683333334, "name": "b9ed01fdf37cf22ff189afa74966cb21", "is_reserved": 0, "is_disabled": 0},