{"data": {"bikes": [{"name": "ecbd38029a1c18c5901cfb7c383ba849", "fusion_lat": 0.0, "type": "electric_scooter", "lat": 38.91340866666667, "is_reserved": 0, "is_disabled": 0, "fusion_lon": 0.0, "bike_id": "ecbd38029a1c18c5901cfb7c383ba849", "lon": -77.04262133333333, "rental_uris": {"ios": "https://dc.lft.to/lastmile_qr_scan", "android": "https://dc.lft.to/lastmile_qr_scan"}}, {"name": "47bb7435820c78702192cfffcf92d0db", "fusion_lat": 0.0, "type": "electric_scooter", "lat": 38.90841666666667, "is_reserved": 0, "is_disabled": 0, "fusion_lon": 0.0, "bike_id": "47bb7435820c78702192cfffcf92d0db", "lon": -77.0327285, "rental_uris": {"ios": "https://dc.lft.to/lastmile_qr_scan", "android": "https://dc.lft.to/lastmile_qr_scan"}}, {"name": "0f13cacd81e93c18f9b5baba7d4cf6b0", "fusion_lat": 0.0, "type": "electric_scooter", "lat": 38.92343016666667, "is_reserved": 0, "is_disabled": 0, "fusion_lon": 0.0, "bike_id": "0f13cacd81e93c18f9b5baba7d4cf6b0", "lon": -77.05100633333333, "rental_uris": {"ios": "https://dc.lft.to/lastmile_qr_scan", "android": "https://dc.lft.to/lastmile_qr_scan"}}, {"name": "1721dbd1dc156ab2a7b83e96113477e4", "fusion_lat": 0.0, "type": "electric_scooter", "lat": 38.89525533333333, "is_reserved": 0, "is_disabled": 0, "fusion_lon": 0.0, "bike_id": "1721dbd1dc156ab2a7b83e96113477e4", "lon": -77.01611933333334, "rental_uris": {"ios": "https://dc.lft.to/lastmile_qr_scan", "android": "https://dc.lft.to/lastmile_qr_scan"}}, {"name": "f0e7d2c5dc3ee064135f70b28b74bf0b", "fusion_lat": 0.0, "type": "electric_scooter", "lat": 38.90638283333333, "is_reserved": 0, "is_disabled": 0, "fusion_lon": 0.0, "bike_id": "f0e7d2c5dc3ee064135f70b28b74bf0b", "lon": -77.00589166666667, "rental_uris": {"ios": "https://dc.lft.to/lastmile_qr_scan", "android": "https://dc.lft.to/lastmile_qr_scan"}}, {"name": "3732f26d020cda5455e056818a61c8a2", "fusion_lat": 0.0, "type": "electric_bike", "lat": 38.9463695, "is_reserved": 0, "is_disabled": 0, "fusion_lon": 0.0, "bike_id": "3732f26d020cda5455e056818a61c8a2", "lon": -77.0184345, "rental_uris": {"ios": "https://dc.lft.to/lastmile_qr_scan", "android": "https://dc.lft.to/lastmile_qr_scan"}}, {"name": "2624fac8e31ae5dc3fef4b43ba912820", "fusion_lat": 0.0, "type": "electric_bike", "lat": 38.93100916666667, "is_reserved": 0, "is_disabled": 0, "fusion_lon": 0.0, "bike_id": "2624fac8e31ae5dc3fef4b43ba912820", "lon": -77.024767, "rental_uris": {"ios": "https://dc.lft.to/lastmile_qr_scan", "android": "https://dc.lft.to/lastmile_qr_scan"}}, {"name": "92e189d52b6e925129ab86afdaa3f879", "fusion_lat": 0.0, "type": "electric_scooter", "lat": 38.917161666666665, "is_reserved": 0, "is_disabled": 0, "fusion_lon": 0.0, "bike_id": "92e189d52b6e925129ab86afdaa3f879", "lon": -77.03551083333333, "rental_uris": {"ios": "https://dc.lft.to/lastmile_qr_scan", "android": "https://dc.lft.to/lastmile_qr_scan"}}, {"name": "44529b6102b9993bc3ce416c916fd2f0", "fusion_lat": 0.0, "type": "electric_scooter", "lat": 38.90394166666667, "is_reserved": 0, "is_disabled": 0, "fusion_lon": 0.0, "bike_id": "44529b6102b9993bc3ce416c916fd2f0", "lon": -77.04221716666666, "rental_uris": {"ios": "https://dc.lft.to/lastmile_qr_scan", "android": "https://dc.lft.to/lastmile_qr_scan"}}, {"name": "416a4cf70fbb5d53f9faef9e09dfe188", "fusion_lat": 0.0, "type": "electric_scooter", "lat": 38.91709, "is_reserved": 0, "is_disabled": 0, "fusion_lon": 0.0, "bike_id": "416a4cf70fbb5d53f9faef9e09dfe188", "lon": -77.028987, "rental_uris": {"ios": "https://dc.lft.to/lastmile_qr_scan", "android": "https://dc.lft.to/lastmile_qr_scan"}}, {"name": "7ae3e9c0670edeb9d24e683d639c90c4", "fusion_lat": 0.0, "type": "electric_scooter", "lat": 38.9063965, "is_reserved": 0, "is_disabled": 0, "fusion_lon": 0.0, "bike_id": "7ae3e9c0670edeb9d24e683d639c90c4", "lon": -77.00875933333333, "rental_uris": {"ios": "https://dc.lft.to/lastmile_qr_scan", "android": "https://dc.lft.to/lastmile_qr_scan"}}, {"name": "a0cebdf37cdfcbe07610dd7bfb387307", "fusion_lat": 0.0, "type": "electric_scooter", "lat": 38.932069166666665, "is_reserved": 0, "is_disabled": 0, "fusion_lon": 0.0, "bike_id": "a0cebdf37cdfcbe07610dd7bfb387307", "lon": -77.03663466666667, "rental_uris": {"ios": "https://dc.lft.to/lastmile_qr_scan", "android": "https://dc.lft.to/lastmile_qr_scan"}}, {"name": "acd4c4d95bd8047876db963c6aae9097", "fusion_lat": 0.0, "type": "electric_scooter", "lat": 38.917753166666664, "is_reserved": 0, "is_disabled": 0, "fusion_lon": 0.0, "bike_id": "acd4c4d95bd8047876db963c6aae9097", "lon": -77.04746216666666, "rental_uris": {"ios": "https://dc.lft.to/lastmile_qr_scan", "android": "https://dc.lft.to/lastmile_qr_scan"}}, {"name": "8f4662493be1c8e6bad57f691f5972ad", "fusion_lat": 0.0, "type": "electric_bike", "lat": 38.854484666666664, "is_reserved": 0, "is_disabled": 0, "fusion_lon": 0.0, "bike_id": "8f4662493be1c8e6bad57f691f5972ad", "lon": -77.11683366666666, "rental_uris": {"ios": "https://dc.lft.to/lastmile_qr_scan", "android": "https://dc.lft.to/lastmile_qr_scan"}}, {"name": "16c7f1a93c79be9ae0c3f369c62f9de1", "fusion_lat": 0.0, "type": "electric_bike", "lat": 38.858762, "is_reserved": 0, "is_disabled": 0, "fusion_lon": 0.0, "bike_id": "16c7f1a93c79be9ae0c3f369c62f9de1", "lon": -77.0955915, "rental_uris": {"ios": "https://dc.lft.to/lastmile_qr_scan", "android": "https://dc.lft.to/lastmile_qr_scan"}}, {"name": "1c5fb4dd3c9d7eaf34f6bcb65e601a95", "fusion_lat": 0.0, "type": "electric_scooter", "lat": 38.929104333333335, "is_reserved": 0, "is_disabled": 0, "fusion_lon": 0.0, "bike_id": "1c5fb4dd3c9d7eaf34f6bcb65e601a95", "lon": -77.01955233333334, "rental_uris": {"ios": "https://dc.lft.to/lastmile_qr_scan", "android": "https://dc.lft.to/lastmile_qr_scan"}}, {"name": "0f3bf4097e0c37262b3c859c8f5ea448", "fusion_lat": 0.0, "type": "electric_scooter", "lat": 38.892097, "is_reserved": 0, "is_disabled": 0, "fusion_lon": 0.0, "bike_id": "0f3bf4097e0c37262b3c859c8f5ea448", "lon": -76.99565183333333, "rental_uris": {"ios": "https://dc.lft.to/lastmile_qr_scan", "android": "https://dc.lft.to/lastmile_qr_scan"}}, {"name": "674e4909519888eff7927f09e87fdedc", "fusion_lat": 0.0, "type": "electric_scooter", "lat": 38.93826516666667, "is_reserved": 0, "is_disabled": 0, "fusion_lon": 0.0, "bike_id": "674e4909519888eff7927f09e87fdedc", "lon": -77.02639416666666, "rental_uris": {"ios": "https://dc.lft.to/lastmile_qr_scan", "android": "https://dc.lft.to/lastmile_qr_scan"}}, {"name": "6ac1ea164ef813bb98eabd2814a85f60", "fusion_lat": 0.0, "type": "electric_scooter", "lat": 38.87269783333333, "is_reserved": 0, "is_disabled": 0, "fusion_lon": 0.0, "bike_id": "6ac1ea164ef813bb98eabd2814a85f60", "lon": -77.0153215, "rental_uris": {"ios": "https://dc.lft.to/lastmile_qr_scan", "android": "https://dc.lft.to/lastmile_qr_scan"}}, {"name": "20e4f22c8adec678861b9ac6efc97f25", "fusion_lat": 0.0, "type": "electric_scooter", "lat": 38.90136833333333, "is_reserved": 0, "is_disabled": 0, "fusion_lon": 0.0, "bike_id": "20e4f22c8adec678861b9ac6efc97f25", "lon": -77.000664, "rental_uris": {"ios": "https://dc.lft.to/lastmile_qr_scan", "android": "https://dc.lft.to/lastmile_qr_scan"}}, {"name": "f5315e6d968eac50a2d21510db263727", "fusion_lat": 0.0, "type": "electric_scooter", "lat": 38.90760983333333, "is_reserved": 0, "is_disabled": 0, "fusion_lon": 0.0, "bike_id": "f5315e6d968eac50a2d21510db263727", "lon": -77.00105766666667, "rental_uris": {"ios": "https://dc.lft.to/lastmile_qr_scan", "android": "https://dc.lft.to/lastmile_qr_scan"}}, {"name": "06a2553a642fb48327a82d70c61d0eb2", "fusion_lat": 0.0, "type": "electric_bike", "lat": 38.951923, "is_reserved": 0, "is_disabled": 0, "fusion_lon": 0.0, "bike_id": "06a2553a642fb48327a82d70c61d0eb2", "lon": -76.93548383333334, "rental_uris": {"ios": "https://dc.lft.to/lastmile_qr_scan", "android": "https://dc.lft.to/lastmile_qr_scan"}}, {"name": "909adeb1da9f38f4347ebd4710356178", "fusion_lat": 0.0, "type": "electric_scooter", "lat": 38.912306666666666, "is_reserved": 0, "is_disabled": 0, "fusion_lon": 0.0, "bike_id": "909adeb1da9f38f4347ebd4710356178", "lon": -77.029555, "rental_uris": {"ios": "https://dc.lft.to/lastmile_qr_scan", "android": "https://dc.lft.to/lastmile_qr_scan"}}, {"name": "5be611f939651ee402227f9405f77101", "fusion_lat": 0.0, "type": "electric_scooter", "lat": 38.94187, "is_reserved": 0, "is_disabled": 0, "fusion_lon": 0.0, "bike_id": "5be611f939651ee402227f9405f77101", "lon": -77.0248555, "rental_uris": {"ios": "https://dc.lft.to/lastmile_qr_scan", "android": "https://dc.lft.to/lastmile_qr_scan"}}, {"name": "ceb6376eca2e915d4adfac10a6b5bb6e", "fusion_lat": 0.0, "type": "electric_scooter", "lat": 38.898560333333336, "is_reserved": 0, "is_disabled": 0, "fusion_lon": 0.0, "bike_id": "ceb6376eca2e915d4adfac10a6b5bb6e", "lon": -77.04080633333334, "rental_uris": {"ios": "https://dc.lft.to/lastmile_qr_scan", "android": "https://dc.lft.to/lastmile_qr_scan"}}, {"name": "1dc4bfa05deccf6b51ea0db50a77ec7a", "fusion_lat": 0.0, "type": "electric_scooter", "lat": 38.91607966666667, "is_reserved": 0, "is_disabled": 0, "fusion_lon": 0.0, "bike_id": "1dc4bfa05deccf6b51ea0db50a77ec7a", "lon": -77.04176183333334, "rental_uris": {"ios": "https://dc.lft.to/lastmile_qr_scan", "android": "https://dc.lft.to/lastmile_qr_scan"}}, {"name": "7072ad066ababe321a1152aa222ef21d", "fusion_lat": 0.0, "type": "electric_bike", "lat": 38.92351266666667, "is_reserved": 0, "is_disabled": 0, "fusion_lon": 0.0, "bike_id": "7072ad066ababe321a1152aa222ef21d", "lon": -76.99250516666666, "rental_uris": {"ios": "https://dc.lft.to/lastmile_qr_scan", "android": "https://dc.lft.to/lastmile_qr_scan"}}, {"name": "e2aadefc98bc00d468a75aac37e89c29", "fusion_lat": 0.0, "type": "electric_scooter", "lat": 38.92901533333333, "is_reserved": 0, "is_disabled": 0, "fusion_lon": 0.0, "bike_id": "e2aadefc98bc00d468a75aac37e89c29", "lon": -77.05941716666666, "rental_uris": {"ios": "https://dc.lft.to/lastmile_qr_scan", "android": "https://dc.lft.to/lastmile_qr_scan"}}, {"name": "967db2a05730b30361f8d9ab73a2af6a", "fusion_lat": 0.0, "type": "electric_scooter", "lat": 38.933012833333336, "is_reserved": 0, "is_disabled": 0, "fusion_lon": 0.0, "bike_id": "967db2a05730b30361f8d9ab73a2af6a", "lon": -77.024734, "rental_uris": {"ios": "https://dc.lft.to/lastmile_qr_scan", "android": "https://dc.lft.to/lastmile_qr_scan"}}, {"name": "e177d7058a2b89ff60b5dd4b8310b856", "fusion_lat": 0.0, "type": "electric_scooter", "lat": 38.911218, "is_reserved": 0, "is_disabled": 0, "fusion_lon": 0.0, "bike_id": "e177d7058a2b89ff60b5dd4b8310b856", "lon": -77.0347895, "rental_uris": {"ios": "https://dc.lft.to/lastmile_qr_scan", "android": "https://dc.lft.to/lastmile_qr_scan"}}, {"name": "f5cab7208bffd82c0588f042f111e9d0", "fusion_lat": 0.0, "type": "electric_bike", "lat": 38.9548495, "is_reserved": 0, "is_disabled": 0, "fusion_lon": 0.0, "bike_id": "f5cab7208bffd82c0588f042f111e9d0", "lon": -77.08243683333333, "rental_uris": {"ios": "https://dc.lft.to/lastmile_qr_scan", "android": "https://dc.lft.to/lastmile_qr_scan"}}, {"name": "c713f1fafb414d851779e732df27f92c", "fusion_lat": 0.0, "type": "electric_scooter", "lat": 38.9048305, "is_reserved": 0, "is_disabled": 0, "fusion_lon": 0.0, "bike_id": "c713f1fafb414d851779e732df27f92c", "lon": -77.0416065, "rental_uris": {"ios": "https://dc.lft.to/lastmile_qr_scan", "android": "https://dc.lft.to/lastmile_qr_scan"}}, {"name": "8735ffec4f8cb0784c49befa10c76b54", "fusion_lat": 0.0, "type": "electric_scooter", "lat": 38.900883, "is_reserved": 0, "is_disabled": 0, "fusion_lon": 0.0, "bike_id": "8735ffec4f8cb0784c49befa10c76b54", "lon": -77.05019916666667, "rental_uris": {"ios": "https://dc.lft.to/lastmile_qr_scan", "android": "https://dc.lft.to/lastmile_qr_scan"}}, {"name": "2907f211492b594664df48b187840de4", "fusion_lat": 0.0, "type": "electric_scooter", "lat": 38.8966225, "is_reserved": 0, "is_disabled": 0, "fusion_lon": 0.0, "bike_id": "2907f211492b594664df48b187840de4", "lon": -77.04890833333333, "rental_uris": {"ios": "https://dc.lft.to/lastmile_qr_scan", "android": "https://dc.lft.to/lastmile_qr_scan"}}, {"name": "bd49b4acc9e8ce7a73cf1e959069d2ba", "fusion_lat": 0.0, "type": "electric_scooter", "lat": 38.924251, "is_reserved": 0, "is_disabled": 0, "fusion_lon": 0.0, "bike_id": "bd49b4acc9e8ce7a73cf1e959069d2ba", "lon": -77.0194955, "rental_uris": {"ios": "https://dc.lft.to/lastmile_qr_scan", "android": "https://dc.lft.to/lastmile_qr_scan"}}, {"name": "1dbde4c604f8d3ec93f2febc5bd78f8d", "fusion_lat": 0.0, "type": "electric_scooter", "lat": 38.92878283333334, "is_reserved": 0, "is_disabled": 0, "fusion_lon": 0.0, "bike_id": "1dbde4c604f8d3ec93f2febc5bd78f8d", "lon": -77.0412785, "rental_uris": {"ios": "https://dc.lft.to/lastmile_qr_scan", "android": "https://dc.lft.to/lastmile_qr_scan"}}, {"name": "b36514139c0e9e2af452aa6db094c691", "fusion_lat": 0.0, "type": "electric_scooter", "lat": 38.90454833333333, "is_reserved": 0, "is_disabled": 0, "fusion_lon": 0.0, "bike_id": "b36514139c0e9e2af452aa6db094c691", "lon": -77.032553, "rental_uris": {"ios": "https://dc.lft.to/lastmile_qr_scan", "android": "https://dc.lft.to/lastmile_qr_scan"}}, {"name": "59d60152811f3b371057496b15651a5a", "fusion_lat": 0.0, "type": "electric_scooter", "lat": 38.93367166666667, "is_reserved": 0, "is_disabled": 0, "fusion_lon": 0.0, "bike_id": "59d60152811f3b371057496b15651a5a", "lon": -77.05726216666666, "rental_uris": {"ios": "https://dc.lft.to/lastmile_qr_scan", "android": "https://dc.lft.to/lastmile_qr_scan"}}, {"name": "7eb84f07b942c4a41a896e147ae96b3a", "fusion_lat": 0.0, "type": "electric_scooter", "lat": 38.934887333333336, "is_reserved": 0, "is_disabled": 0, "fusion_lon": 0.0, "bike_id": "7eb84f07b942c4a41a896e147ae96b3a", "lon": -77.033981, "rental_uris": {"ios": "https://dc.lft.to/lastmile_qr_scan", "android": "https://dc.lft.to/lastmile_qr_scan"}}, {"name": "8ab12b5bc26a5343253ac37c7e2d6d64", "fusion_lat": 0.0, "type": "electric_scooter", "lat": 38.92165966666666, "is_reserved": 0, "is_disabled": 0, "fusion_lon": 0.0, "bike_id": "8ab12b5bc26a5343253ac37c7e2d6d64", "lon": -77.03381716666667, "rental_uris": {"ios": "https://dc.lft.to/lastmile_qr_scan", "android": "https://dc.lft.to/lastmile_qr_scan"}}, {"name": "5c3f298110224812a4a1ecd1d0511c65", "fusion_lat": 0.0, "type": "electric_scooter", "lat": 38.91550466666666, "is_reserved": 0, "is_disabled": 0, "fusion_lon": 0.0, "bike_id": "5c3f298110224812a4a1ecd1d0511c65", "lon": -77.03854933333334, "rental_uris": {"ios": "https://dc.lft.to/lastmile_qr_scan", "android": "https://dc.lft.to/lastmile_qr_scan"}}, {"name": "cc0b5716d940633de3c43a716767dfdd", "fusion_lat": 0.0, "type": "electric_scooter", "lat": 38.90036683333334, "is_reserved": 0, "is_disabled": 0, "fusion_lon": 0.0, "bike_id": "cc0b5716d940633de3c43a716767dfdd", "lon": -77.00906066666667, "rental_uris": {"ios": "https://dc.lft.to/lastmile_qr_scan", "android": "https://dc.lft.to/lastmile_qr_scan"}}, {"name": "895160dad493d7dbfa17dd25a0c90e06", "fusion_lat": 0.0, "type": "electric_bike", "lat": 38.92850683333333, "is_reserved": 0, "is_disabled": 0, "fusion_lon": 0.0, "bike_id": "895160dad493d7dbfa17dd25a0c90e06", "lon": -77.02056233333333, "rental_uris": {"ios": "https://dc.lft.to/lastmile_qr_scan", "android": "https://dc.lft.to/lastmile_qr_scan"}}, {"name": "abf925e50ee2f1cd452d883c734b70e7", "fusion_lat": 0.0, "type": "electric_scooter", "lat": 38.86211, "is_reserved": 0, "is_disabled": 0, "fusion_lon": 0.0, "bike_id": "abf925e50ee2f1cd452d883c734b70e7", "lon": -76.99475866666667, "rental_uris": {"ios": "https://dc.lft.to/lastmile_qr_scan", "android": "https://dc.lft.to/lastmile_qr_scan"}}, {"name": "68282b96b60bddc2d822f4b8d72850d7", "fusion_lat": 0.0, "type": "electric_scooter", "lat": 38.921595333333336, "is_reserved": 0, "is_disabled": 0, "fusion_lon": 0.0, "bike_id": "68282b96b60bddc2d822f4b8d72850d7", "lon": -77.03386883333333, "rental_uris": {"ios": "https://dc.lft.to/lastmile_qr_scan", "android": "https://dc.lft.to/lastmile_qr_scan"}}, {"name": "b49dec683ee010f101ab57cd73ea9893", "fusion_lat": 0.0, "type": "electric_scooter", "lat": 38.900316833333335, "is_reserved": 0, "is_disabled": 0, "fusion_lon": 0.0, "bike_id": "b49dec683ee010f101ab57cd73ea9893", "lon": -77.040342, "rental_uris": {"ios": "https://dc.lft.to/lastmile_qr_scan", "android": "https://dc.lft.to/lastmile_qr_scan"}}, {"name": "4d44a981a3c2932b7619a122f65bed58", "fusion_lat": 0.0, "type": "electric_scooter", "lat": 38.91761666666667, "is_reserved": 0, "is_disabled": 0, "fusion_lon": 0.0, "bike_id": "4d44a981a3c2932b7619a122f65bed58", "lon": -77.04156716666667, "rental_uris": {"ios": "https://dc.lft.to/lastmile_qr_scan", "android": "https://dc.lft.to/lastmile_qr_scan"}}, {"name": "87821594934349d1d7118894178d6aee", "fusion_lat": 0.0, "type": "electric_scooter", "lat": 38.93094633333333, "is_reserved": 0, "is_disabled": 0, "fusion_lon": 0.0, "bike_id": "87821594934349d1d7118894178d6aee", "lon": -77.02491766666667, "rental_uris": {"ios": "https://dc.lft.to/lastmile_qr_scan", "android": "https://dc.lft.to/lastmile_qr_scan"}}, {"name": "c64c4ca7baff11c3088de1f8fcdb3695", "fusion_lat": 0.0, "type": "electric_scooter", "lat": 38.90174183333333, "is_reserved": 0, "is_disabled": 0, "fusion_lon": 0.0, "bike_id": "c64c4ca7baff11c3088de1f8fcdb3695", "lon": -76.98067316666666, "rental_uris": {"ios": "https://dc.lft.to/lastmile_qr_scan", "android": "https://dc.lft.to/lastmile_qr_scan"}}, {"name": "edcb09ccd419148318c7c0dae73c93fd", "fusion_lat": 0.0, "type": "electric_scooter", "lat": 38.924834, "is_reserved": 0, "is_disabled": 0, "fusion_lon": 0.0, "bike_id": "edcb09ccd419148318c7c0dae73c93fd", "lon": -77.03139066666667, "rental_uris": {"ios": "https://dc.lft.to/lastmile_qr_scan", "android": "https://dc.lft.to/lastmile_qr_scan"}}, {"name": "1160ecb0a981e605b88b8a70a1bad124", "fusion_lat": 0.0, "type": "electric_scooter", "lat": 38.862741, "is_reserved": 0, "is_disabled": 0, "fusion_lon": 0.0, "bike_id": "1160ecb0a981e605b88b8a70a1bad124", "lon": -76.987244, "rental_uris": {"ios": "https://dc.lft.to/lastmile_qr_scan", "android": "https://dc.lft.to/lastmile_qr_scan"}}, {"name": "3525f64b913bf4aa1bb81705a5ea567a", "fusion_lat": 0.0, "type": "electric_scooter", "lat": 38.9031375, "is_reserved": 0, "is_disabled": 0, "fusion_lon": 0.0, "bike_id": "3525f64b913bf4aa1bb81705a5ea567a", "lon": -77.0499115, "rental_uris": {"ios": "https://dc.lft.to/lastmile_qr_scan", "android": "https://dc.lft.to/lastmile_qr_scan"}}, {"name": "62a0248d9002d256f1709f9c644267ea", "fusion_lat": 0.0, "type": "electric_scooter", "lat": 38.933942333333334, "is_reserved": 0, "is_disabled": 0, "fusion_lon": 0.0, "bike_id": "62a0248d9002d256f1709f9c644267ea", "lon": -77.07391083333333, "rental_uris": {"ios": "https://dc.lft.to/lastmile_qr_scan", "android": "https://dc.lft.to/lastmile_qr_scan"}}, {"name": "832e7ecb47ca1a79fb829c8a8eeaa544", "fusion_lat": 0.0, "type": "electric_scooter", "lat": 38.9029075, "is_reserved": 0, "is_disabled": 0, "fusion_lon": 0.0, "bike_id": "832e7ecb47ca1a79fb829c8a8eeaa544", "lon": -77.03847266666666, "rental_uris": {"ios": "https://dc.lft.to/lastmile_qr_scan", "android": "https://dc.lft.to/lastmile_qr_scan"}}, {"name": "72f6aaf2b91f689e3610043b1c23ad0c", "fusion_lat": 0.0, "type": "electric_scooter", "lat": 38.9168655, "is_reserved": 0, "is_disabled": 0, "fusion_lon": 0.0, "bike_id": "72f6aaf2b91f689e3610043b1c23ad0c", "lon": -77.02890333333333, "rental_uris": {"ios": "https://dc.lft.to/lastmile_qr_scan", "android": "https://dc.lft.to/lastmile_qr_scan"}}, {"name": "c4351d20f1f0f121fd3eb5be30558b86", "fusion_lat": 0.0, "type": "electric_bike", "lat": 38.886188, "is_reserved": 0, "is_disabled": 0, "fusion_lon": 0.0, "bike_id": "c4351d20f1f0f121fd3eb5be30558b86", "lon": -77.1075575, "rental_uris": {"ios": "https://dc.lft.to/lastmile_qr_scan", "android": "https://dc.lft.to/lastmile_qr_scan"}}, {"name": "4c6cd7f809d0280d2282b15eadd0f381", "fusion_lat": 0.0, "type": "electric_scooter", "lat": 38.894959166666666, "is_reserved": 0, "is_disabled": 0, "fusion_lon": 0.0, "bike_id": "4c6cd7f809d0280d2282b15eadd0f381", "lon": -77.01015316666667, "rental_uris": {"ios": "https://dc.lft.to/lastmile_qr_scan", "android": "https://dc.lft.to/lastmile_qr_scan"}}, {"name": "cfb82c3bde4ff3e375eaa05ff23f7a51", "fusion_lat": 0.0, "type": "electric_scooter", "lat": 38.90266333333334, "is_reserved": 0, "is_disabled": 0, "fusion_lon": 0.0, "bike_id": "cfb82c3bde4ff3e375eaa05ff23f7a51", "lon": -77.03832016666667, "rental_uris": {"ios": "https://dc.lft.to/lastmile_qr_scan", "android": "https://dc.lft.to/lastmile_qr_scan"}}, {"name": "d8a4fa2f2c7e6d749c6eb557faa4eb37", "fusion_lat": 0.0, "type": "electric_scooter", "lat": 38.921631, "is_reserved": 0, "is_disabled": 0, "fusion_lon": 0.0, "bike_id": "d8a4fa2f2c7e6d749c6eb557faa4eb37", "lon": -77.03328483333334, "rental_uris": {"ios": "https://dc.lft.to/lastmile_qr_scan", "android": "https://dc.lft.to/lastmile_qr_scan"}}, {"name": "785322742f71876c2375fcecadffc958", "fusion_lat": 0.0, "type": "electric_scooter", "lat": 38.9389775, "is_reserved": 0, "is_disabled": 0, "fusion_lon": 0.0, "bike_id": "785322742f71876c2375fcecadffc958", "lon": -77.02469583333334, "rental_uris": {"ios": "https://dc.lft.to/lastmile_qr_scan", "android": "https://dc.lft.to/lastmile_qr_scan"}}, {"name": "01f3aa2ccea1ef77b09cd75c03bee463", "fusion_lat": 0.0, "type": "electric_scooter", "lat": 38.884018, "is_reserved": 0, "is_disabled": 0, "fusion_lon": 0.0, "bike_id": "01f3aa2ccea1ef77b09cd75c03bee463", "lon": -76.93038433333334, "rental_uris": {"ios": "https://dc.lft.to/lastmile_qr_scan", "android": "https://dc.lft.to/lastmile_qr_scan"}}, {"name": "c0a097c76013fd125e29402976e163d0", "fusion_lat": 0.0, "type": "electric_bike", "lat": 38.92216033333333, "is_reserved": 0, "is_disabled": 0, "fusion_lon": 0.0, "bike_id": "c0a097c76013fd125e29402976e163d0", "lon": -76.98790933333333, "rental_uris": {"ios": "https://dc.lft.to/lastmile_qr_scan", "android": "https://dc.lft.to/lastmile_qr_scan"}}, {"name": "1109b331dc08d1f42d4b3b12ebb1e641", "fusion_lat": 0.0, "type": "electric_scooter", "lat": 38.88755716666667, "is_reserved": 0, "is_disabled": 0, "fusion_lon": 0.0, "bike_id": "1109b331dc08d1f42d4b3b12ebb1e641", "lon": -76.97986783333333, "rental_uris": {"ios": "https://dc.lft.to/lastmile_qr_scan", "android": "https://dc.lft.to/lastmile_qr_scan"}}, {"name": "37f108ff7d71ed1df048e88dc6a0f447", "fusion_lat": 0.0, "type": "electric_scooter", "lat": 38.94307766666667, "is_reserved": 0, "is_disabled": 0, "fusion_lon": 0.0, "bike_id": "37f108ff7d71ed1df048e88dc6a0f447", "lon": -77.06808966666667, "rental_uris": {"ios": "https://dc.lft.to/lastmile_qr_scan", "android": "https://dc.lft.to/lastmile_qr_scan"}}, {"name": "b9ab8d0c384a1944cdbb38d3643013ff", "fusion_lat": 0.0, "type": "electric_scooter", "lat": 38.96393833333333, "is_reserved": 0, "is_disabled": 0, "fusion_lon": 0.0, "bike_id": "b9ab8d0c384a1944cdbb38d3643013ff", "lon": -77.03506066666667, "rental_uris": {"ios": "https://dc.lft.to/lastmile_qr_scan", "android": "https://dc.lft.to/lastmile_qr_scan"}}, {"name": "10c4b2a52cbf65506b8d8b6f71f04539", "fusion_lat": 0.0, "type": "electric_scooter", "lat": 38.922702, "is_reserved": 0, "is_disabled": 0, "fusion_lon": 0.0, "bike_id": "10c4b2a52cbf65506b8d8b6f71f04539", "lon": -77.03400116666667, "rental_uris": {"ios": "https://dc.lft.to/lastmile_qr_scan", "android": "https://dc.lft.to/lastmile_qr_scan"}}, {"name": "1a79e7d8138ec824d4bd3df34728942f", "fusion_lat": 0.0, "type": "electric_scooter", "lat": 38.89936466666666, "is_reserved": 0, "is_disabled": 0, "fusion_lon": 0.0, "bike_id": "1a79e7d8138ec824d4bd3df34728942f", "lon": -77.04101266666666, "rental_uris": {"ios": "https://dc.lft.to/lastmile_qr_scan", "android": "https://dc.lft.to/lastmile_qr_scan"}}, {"name": "c5d6237f5a3bb8e7bf103594d160b04f", "fusion_lat": 0.0, "type": "electric_scooter", "lat": 38.912335, "is_reserved": 0, "is_disabled": 0, "fusion_lon": 0.0, "bike_id": "c5d6237f5a3bb8e7bf103594d160b04f", "lon": -77.05112983333333, "rental_uris": {"ios": "https://dc.lft.to/lastmile_qr_scan", "android": "https://dc.lft.to/lastmile_qr_scan"}}, {"name": "ab2a8e940bdb0b0bdf47e80b7ba923d1", "fusion_lat": 0.0, "type": "electric_scooter", "lat": 38.9224625, "is_reserved": 0, "is_disabled": 0, "fusion_lon": 0.0, "bike_id": "ab2a8e940bdb0b0bdf47e80b7ba923d1", "lon": -77.03664083333334, "rental_uris": {"ios": "https://dc.lft.to/lastmile_qr_scan", "android": "https://dc.lft.to/lastmile_qr_scan"}}, {"name": "dca6fc2ff44a22c24fc71c33c80a5da3", "fusion_lat": 0.0, "type": "electric_scooter", "lat": 38.92322216666667, "is_reserved": 0, "is_disabled": 0, "fusion_lon": 0.0, "bike_id": "dca6fc2ff44a22c24fc71c33c80a5da3", "lon": -77.0298595, "rental_uris": {"ios": "https://dc.lft.to/lastmile_qr_scan", "android": "https://dc.lft.to/lastmile_qr_scan"}}, {"name": "96337941f179c4c40e3dfe4c5ce1dd52", "fusion_lat": 0.0, "type": "electric_bike", "lat": 39.0304825, "is_reserved": 0, "is_disabled": 0, "fusion_lon": 0.0, "bike_id": "96337941f179c4c40e3dfe4c5ce1dd52", "lon": -77.09478033333333, "rental_uris": {"ios": "https://dc.lft.to/lastmile_qr_scan", "android": "https://dc.lft.to/lastmile_qr_scan"}}, {"name": "e004102a69a1e8385b61494378740486", "fusion_lat": 0.0, "type": "electric_scooter", "lat": 38.9056345, "is_reserved": 0, "is_disabled": 0, "fusion_lon": 0.0, "bike_id": "e004102a69a1e8385b61494378740486", "lon": -77.0371595, "rental_uris": {"ios": "https://dc.lft.to/lastmile_qr_scan", "android": "https://dc.lft.to/lastmile_qr_scan"}}, {"name": "ec119680eab63014331f6abe03cea90c", "fusion_lat": 0.0, "type": "electric_scooter", "lat": 38.927482, "is_reserved": 0, "is_disabled": 0, "fusion_lon": 0.0, "bike_id": "ec119680eab63014331f6abe03cea90c", "lon": -77.023128, "rental_uris": {"ios": "https://dc.lft.to/lastmile_qr_scan", "android": "https://dc.lft.to/lastmile_qr_scan"}}, {"name": "67d9eaa5923b33ec95dc9496f915946e", "fusion_lat": 0.0, "type": "electric_scooter", "lat": 38.868299666666665, "is_reserved": 0, "is_disabled": 0, "fusion_lon": 0.0, "bike_id": "67d9eaa5923b33ec95dc9496f915946e", "lon": -76.9861515, "rental_uris": {"ios": "https://dc.lft.to/lastmile_qr_scan", "android": "https://dc.lft.to/lastmile_qr_scan"}}, {"name": "2860863a9656a5d76ff4d5e86c306434", "fusion_lat": 0.0, "type": "electric_scooter", "lat": 38.9387155, "is_reserved": 0, "is_disabled": 0, "fusion_lon": 0.0, "bike_id": "2860863a9656a5d76ff4d5e86c306434", "lon": -77.02223783333334, "rental_uris": {"ios": "https://dc.lft.to/lastmile_qr_scan", "android": "https://dc.lft.to/lastmile_qr_scan"}}, {"name": "6e7e5354cba1fa68c834507bca3f5e70", "fusion_lat": 0.0, "type": "electric_scooter", "lat": 38.88588166666667, "is_reserved": 0, "is_disabled": 0, "fusion_lon": 0.0, "bike_id": "6e7e5354cba1fa68c834507bca3f5e70", "lon": -76.9950095, "rental_uris": {"ios": "https://dc.lft.to/lastmile_qr_scan", "android": "https://dc.lft.to/lastmile_qr_scan"}}, {"name": "d07c24e161df89f6bdbb884c31897ea7", "fusion_lat": 0.0, "type": "electric_scooter", "lat": 38.92484666666667, "is_reserved": 0, "is_disabled": 0, "fusion_lon": 0.0, "bike_id": "d07c24e161df89f6bdbb884c31897ea7", "lon": -77.02998633333333, "rental_uris": {"ios": "https://dc.lft.to/lastmile_qr_scan", "android": "https://dc.lft.to/lastmile_qr_scan"}}, {"name": "95da5b79e3224f9e4320eaa74c35f56e", "fusion_lat": 0.0, "type": "electric_scooter", "lat": 38.928109, "is_reserved": 0, "is_disabled": 0, "fusion_lon": 0.0, "bike_id": "95da5b79e3224f9e4320eaa74c35f56e", "lon": -77.01418716666667, "rental_uris": {"ios": "https://dc.lft.to/lastmile_qr_scan", "android": "https://dc.lft.to/lastmile_qr_scan"}}, {"name": "921cf1357d6f567225be8d28b28e5c70", "fusion_lat": 0.0, "type": "electric_scooter", "lat": 38.915909666666664, "is_reserved": 0, "is_disabled": 0, "fusion_lon": 0.0, "bike_id": "921cf1357d6f567225be8d28b28e5c70", "lon": -77.04260616666667, "rental_uris": {"ios": "https://dc.lft.to/lastmile_qr_scan", "android": "https://dc.lft.to/lastmile_qr_scan"}}, {"name": "35a50bef5239dfef60b723985c9cefdc", "fusion_lat": 0.0, "type": "electric_scooter", "lat": 38.92165833333333, "is_reserved": 0, "is_disabled": 0, "fusion_lon": 0.0, "bike_id": "35a50bef5239dfef60b723985c9cefdc", "lon": -77.0422355, "rental_uris": {"ios": "https://dc.lft.to/lastmile_qr_scan", "android": "https://dc.lft.to/lastmile_qr_scan"}}, {"name": "b658c7722640eb8449907e96dd6ba611", "fusion_lat": 0.0, "type": "electric_scooter", "lat": 38.924883333333334, "is_reserved": 0, "is_disabled": 0, "fusion_lon": 0.0, "bike_id": "b658c7722640eb8449907e96dd6ba611", "lon": -77.02707766666667, "rental_uris": {"ios": "https://dc.lft.to/lastmile_qr_scan", "android": "https://dc.lft.to/lastmile_qr_scan"}}, {"name": "c9c5a1f33ba1b48638ee6a77f96ae61d", "fusion_lat": 0.0, "type": "electric_scooter", "lat": 38.89963783333334, "is_reserved": 0, "is_disabled": 0, "fusion_lon": 0.0, "bike_id": "c9c5a1f33ba1b48638ee6a77f96ae61d", "lon": -77.05295466666666, "rental_uris": {"ios": "https://dc.lft.to/lastmile_qr_scan", "android": "https://dc.lft.to/lastmile_qr_scan"}}, {"name": "863a4ac56c1fd030d6df1ce3a372ceaf", "fusion_lat": 0.0, "type": "electric_scooter", "lat": 38.927419, "is_reserved": 0, "is_disabled": 0, "fusion_lon": 0.0, "bike_id": "863a4ac56c1fd030d6df1ce3a372ceaf", "lon": -77.02245033333334, "rental_uris": {"ios": "https://dc.lft.to/lastmile_qr_scan", "android": "https://dc.lft.to/lastmile_qr_scan"}}, {"name": "96a27e643251ba6001ec997e7f3b5c01", "fusion_lat": 0.0, "type": "electric_scooter", "lat": 38.90729833333333, "is_reserved": 0, "is_disabled": 0, "fusion_lon": 0.0, "bike_id": "96a27e643251ba6001ec997e7f3b5c01", "lon": -77.0319565, "rental_uris": {"ios": "https://dc.lft.to/lastmile_qr_scan", "android": "https://dc.lft.to/lastmile_qr_scan"}}, {"name": "1e6358cc2c587ed85b66f172ffaebcce", "fusion_lat": 0.0, "type": "electric_bike", "lat": 38.92803833333333, "is_reserved": 0, "is_disabled": 0, "fusion_lon": 0.0, "bike_id": "1e6358cc2c587ed85b66f172ffaebcce", "lon": -77.03253716666667, "rental_uris": {"ios": "https://dc.lft.to/lastmile_qr_scan", "android": "https://dc.lft.to/lastmile_qr_scan"}}, {"name": "022e1d339ce6530740f952fd8cbd02f8", "fusion_lat": 0.0, "type": "electric_scooter", "lat": 38.883431333333334, "is_reserved": 0, "is_disabled": 0, "fusion_lon": 0.0, "bike_id": "022e1d339ce6530740f952fd8cbd02f8", "lon": -77.01546383333333, "rental_uris": {"ios": "https://dc.lft.to/lastmile_qr_scan", "android": "https://dc.lft.to/lastmile_qr_scan"}}, {"name": "70b662ecf915dbfe52d8ecfa83d71aac", "fusion_lat": 0.0, "type": "electric_scooter", "lat": 38.93910916666667, "is_reserved": 0, "is_disabled": 0, "fusion_lon": 0.0, "bike_id": "70b662ecf915dbfe52d8ecfa83d71aac", "lon": -77.060459, "rental_uris": {"ios": "https://dc.lft.to/lastmile_qr_scan", "android": "https://dc.lft.to/lastmile_qr_scan"}}, {"name": "f542ec37dffbff224c3977cba5338c86", "fusion_lat": 0.0, "type": "electric_scooter", "lat": 38.901398, "is_reserved": 0, "is_disabled": 0, "fusion_lon": 0.0, "bike_id": "f542ec37dffbff224c3977cba5338c86", "lon": -77.04715783333333, "rental_uris": {"ios": "https://dc.lft.to/lastmile_qr_scan", "android": "https://dc.lft.to/lastmile_qr_scan"}}, {"name": "a63997b55056f2311694758dc862a7aa", "fusion_lat": 0.0, "type": "electric_scooter", "lat": 38.878406, "is_reserved": 0, "is_disabled": 0, "fusion_lon": 0.0, "bike_id": "a63997b55056f2311694758dc862a7aa", "lon": -76.98614433333333, "rental_uris": {"ios": "https://dc.lft.to/lastmile_qr_scan", "android": "https://dc.lft.to/lastmile_qr_scan"}}, {"name": "9420e70d887e1ba5e0660ab0eef9a69d", "fusion_lat": 0.0, "type": "electric_scooter", "lat": 38.905653, "is_reserved": 0, "is_disabled": 0, "fusion_lon": 0.0, "bike_id": "9420e70d887e1ba5e0660ab0eef9a69d", "lon": -77.00577333333334, "rental_uris": {"ios": "https://dc.lft.to/lastmile_qr_scan", "android": "https://dc.lft.to/lastmile_qr_scan"}}, {"name": "1b234758d93f8b2bfa792bde9cc1c039", "fusion_lat": 0.0, "type": "electric_scooter", "lat": 38.91021583333333, "is_reserved": 0, "is_disabled": 0, "fusion_lon": 0.0, "bike_id": "1b234758d93f8b2bfa792bde9cc1c039", "lon": -76.99673666666666, "rental_uris": {"ios": "https://dc.lft.to/lastmile_qr_scan", "android": "https://dc.lft.to/lastmile_qr_scan"}}, {"name": "0f6d04e7763b44c2bcd9719952e17f0e", "fusion_lat": 0.0, "type": "electric_scooter", "lat": 38.92745933333333, "is_reserved": 0, "is_disabled": 0, "fusion_lon": 0.0, "bike_id": "0f6d04e7763b44c2bcd9719952e17f0e", "lon": -77.02494, "rental_uris": {"ios": "https://dc.lft.to/lastmile_qr_scan", "android": "https://dc.lft.to/lastmile_qr_scan"}}, {"name": "590a4fdde37c002e7ba1f518b2391652", "fusion_lat": 0.0, "type": "electric_scooter", "lat": 38.9288295, "is_reserved": 0, "is_disabled": 0, "fusion_lon": 0.0, "bike_id": "590a4fdde37c002e7ba1f518b2391652", "lon": -77.02714966666667, "rental_uris": {"ios": "https://dc.lft.to/lastmile_qr_scan", "android": "https://dc.lft.to/lastmile_qr_scan"}}, {"name": "a9c5bb7d5ace81da5db26ad68b228ae1", "fusion_lat": 0.0, "type": "electric_scooter", "lat": 38.911814166666666, "is_reserved": 0, "is_disabled": 0, "fusion_lon": 0.0, "bike_id": "a9c5bb7d5ace81da5db26ad68b228ae1", "lon": -77.03199916666667, "rental_uris": {"ios": "https://dc.lft.to/lastmile_qr_scan", "android": "https://dc.lft.to/lastmile_qr_scan"}}, {"name": "308fead93fde4fdbd2dadfb90d1aebd0", "fusion_lat": 0.0, "type": "electric_scooter", "lat": 38.902880333333336, "is_reserved": 0, "is_disabled": 0, "fusion_lon": 0.0, "bike_id": "308fead93fde4fdbd2dadfb90d1aebd0", "lon": -77.03986766666667, "rental_uris": {"ios": "https://dc.lft.to/lastmile_qr_scan", "android": "https://dc.lft.to/lastmile_qr_scan"}}, {"name": "1a29615bc70ed17dc854789da7ea8a73", "fusion_lat": 0.0, "type": "electric_scooter", "lat": 38.95658183333333, "is_reserved": 0, "is_disabled": 0, "fusion_lon": 0.0, "bike_id": "1a29615bc70ed17dc854789da7ea8a73", "lon": -77.033005, "rental_uris": {"ios": "https://dc.lft.to/lastmile_qr_scan", "android": "https://dc.lft.to/lastmile_qr_scan"}}, {"name": "ca4ad9b18d904c87ee464c93e65a49da", "fusion_lat": 0.0, "type": "electric_bike", "lat": 39.088614, "is_reserved": 0, "is_disabled": 0, "fusion_lon": 0.0, "bike_id": "ca4ad9b18d904c87ee464c93e65a49da", "lon": -77.178476, "rental_uris": {"ios": "https://dc.lft.to/lastmile_qr_scan", "android": "https://dc.lft.to/lastmile_qr_scan"}}, {"name": "bf60a2c5cb2d8ec244667edb539041bc", "fusion_lat": 0.0, "type": "electric_scooter", "lat": 38.90728216666667, "is_reserved": 0, "is_disabled": 0, "fusion_lon": 0.0, "bike_id": "bf60a2c5cb2d8ec244667edb539041bc", "lon": -77.0326605, "rental_uris": {"ios": "https://dc.lft.to/lastmile_qr_scan", "android": "https://dc.lft.to/lastmile_qr_scan"}}, {"name": "4b862a56627398a070bc6cba45bb9c07", "fusion_lat": 0.0, "type": "electric_bike", "lat": 39.053595333333334, "is_reserved": 0, "is_disabled": 0, "fusion_lon": 0.0, "bike_id": "4b862a56627398a070bc6cba45bb9c07", "lon": -77.0473535, "rental_uris": {"ios": "https://dc.lft.to/lastmile_qr_scan", "android": "https://dc.lft.to/lastmile_qr_scan"}}, {"name": "51573382de25f0ec46350134751dcae2", "fusion_lat": 0.0, "type": "electric_bike", "lat": 38.935244, "is_reserved": 0, "is_disabled": 0, "fusion_lon": 0.0, "bike_id": "51573382de25f0ec46350134751dcae2", "lon": -76.950636, "rental_uris": {"ios": "https://dc.lft.to/lastmile_qr_scan", "android": "https://dc.lft.to/lastmile_qr_scan"}}, {"name": "707448487ea839219c3525edefebc547", "fusion_lat": 0.0, "type": "electric_scooter", "lat": 38.902799333333334, "is_reserved": 0, "is_disabled": 0, "fusion_lon": 0.0, "bike_id": "707448487ea839219c3525edefebc547", "lon": -77.03641483333334, "rental_uris": {"ios": "https://dc.lft.to/lastmile_qr_scan", "android": "https://dc.lft.to/lastmile_qr_scan"}}, {"name": "8c5ab7280395c95c4c223e1278fe9bda", "fusion_lat": 0.0, "type": "electric_scooter", "lat": 38.92251516666666, "is_reserved": 0, "is_disabled": 0, "fusion_lon": 0.0, "bike_id": "8c5ab7280395c95c4c223e1278fe9bda", "lon": -76.99396533333334, "rental_uris": {"ios": "https://dc.lft.to/lastmile_qr_scan", "android": "https://dc.lft.to/lastmile_qr_scan"}}, {"name": "825c84e649b39a2b8f83d85cce310c57", "fusion_lat": 0.0, "type": "electric_scooter", "lat": 38.905651666666664, "is_reserved": 0, "is_disabled": 0, "fusion_lon": 0.0, "bike_id": "825c84e649b39a2b8f83d85cce310c57", "lon": -77.02233466666667, "rental_uris": {"ios": "https://dc.lft.to/lastmile_qr_scan", "android": "https://dc.lft.to/lastmile_qr_scan"}}, {"name": "f75bfdf2e7a993dc9d3af0d4025588e7", "fusion_lat": 0.0, "type": "electric_scooter", "lat": 38.86540433333333, "is_reserved": 0, "is_disabled": 0, "fusion_lon": 0.0, "bike_id": "f75bfdf2e7a993dc9d3af0d4025588e7", "lon": -76.98709483333333, "rental_uris": {"ios": "https://dc.lft.to/lastmile_qr_scan", "android": "https://dc.lft.to/lastmile_qr_scan"}}, {"name": "3b7c3eb06149aa36b0a9a097de9d3bac", "fusion_lat": 0.0, "type": "electric_scooter", "lat": 38.901437666666666, "is_reserved": 0, "is_disabled": 0, "fusion_lon": 0.0, "bike_id": "3b7c3eb06149aa36b0a9a097de9d3bac", "lon": -77.0422075, "rental_uris": {"ios": "https://dc.lft.to/lastmile_qr_scan", "android": "https://dc.lft.to/lastmile_qr_scan"}}, {"name": "c162747ff244002c4c3abd4f050c6fae", "fusion_lat": 0.0, "type": "electric_bike", "lat": 38.92862983333333, "is_reserved": 0, "is_disabled": 0, "fusion_lon": 0.0, "bike_id": "c162747ff244002c4c3abd4f050c6fae", "lon": -77.22228916666667, "rental_uris": {"ios": "https://dc.lft.to/lastmile_qr_scan", "android": "https://dc.lft.to/lastmile_qr_scan"}}, {"name": "8a2cd176d285925c399359eb0170f496", "fusion_lat": 0.0, "type": "electric_scooter", "lat": 38.90270483333333, "is_reserved": 0, "is_disabled": 0, "fusion_lon": 0.0, "bike_id": "8a2cd176d285925c399359eb0170f496", "lon": -76.98718933333333, "rental_uris": {"ios": "https://dc.lft.to/lastmile_qr_scan", "android": "https://dc.lft.to/lastmile_qr_scan"}}, {"name": "cff14dd5b8ef1e8855e6883fb994d2d4", "fusion_lat": 0.0, "type": "electric_scooter", "lat": 38.914071166666666, "is_reserved": 0, "is_disabled": 0, "fusion_lon": 0.0, "bike_id": "cff14dd5b8ef1e8855e6883fb994d2d4", "lon": -77.02228933333333, "rental_uris": {"ios": "https://dc.lft.to/lastmile_qr_scan", "android": "https://dc.lft.to/lastmile_qr_scan"}}, {"name": "363d479993eca5fee601ed9fdc8fe788", "fusion_lat": 0.0, "type": "electric_scooter", "lat": 38.90031783333333, "is_reserved": 0, "is_disabled": 0, "fusion_lon": 0.0, "bike_id": "363d479993eca5fee601ed9fdc8fe788", "lon": -76.98854616666667, "rental_uris": {"ios": "https://dc.lft.to/lastmile_qr_scan", "android": "https://dc.lft.to/lastmile_qr_scan"}}, {"name": "71872de37d86c405c8009de20858ebbb", "fusion_lat": 0.0, "type": "electric_scooter", "lat": 38.911552, "is_reserved": 0, "is_disabled": 0, "fusion_lon": 0.0, "bike_id": "71872de37d86c405c8009de20858ebbb", "lon": -77.0443285, "rental_uris": {"ios": "https://dc.lft.to/lastmile_qr_scan", "android": "https://dc.lft.to/lastmile_qr_scan"}}, {"name": "d3f3ff41eccbb50a2569dc531fe3ad0c", "fusion_lat": 0.0, "type": "electric_scooter", "lat": 38.912897666666666, "is_reserved": 0, "is_disabled": 0, "fusion_lon": 0.0, "bike_id": "d3f3ff41eccbb50a2569dc531fe3ad0c", "lon": -77.02389433333333, "rental_uris": {"ios": "https://dc.lft.to/lastmile_qr_scan", "android": "https://dc.lft.to/lastmile_qr_scan"}}, {"name": "563620700ecf760b3f0178db64b9ab2d", "fusion_lat": 0.0, "type": "electric_bike", "lat": 38.96495766666666, "is_reserved": 0, "is_disabled": 0, "fusion_lon": 0.0, "bike_id": "563620700ecf760b3f0178db64b9ab2d", "lon": -77.06491833333334, "rental_uris": {"ios": "https://dc.lft.to/lastmile_qr_scan", "android": "https://dc.lft.to/lastmile_qr_scan"}}, {"name": "7753170007144f740db112e6c5060c1c", "fusion_lat": 0.0, "type": "electric_scooter", "lat": 38.901354, "is_reserved": 0, "is_disabled": 0, "fusion_lon": 0.0, "bike_id": "7753170007144f740db112e6c5060c1c", "lon": -77.04493466666666, "rental_uris": {"ios": "https://dc.lft.to/lastmile_qr_scan", "android": "https://dc.lft.to/lastmile_qr_scan"}}, {"name": "94b1eee82545891c46e60bb0c26567d3", "fusion_lat": 0.0, "type": "electric_scooter", "lat": 38.899893666666664, "is_reserved": 0, "is_disabled": 0, "fusion_lon": 0.0, "bike_id": "94b1eee82545891c46e60bb0c26567d3", "lon": -77.02947966666666, "rental_uris": {"ios": "https://dc.lft.to/lastmile_qr_scan", "android": "https://dc.lft.to/lastmile_qr_scan"}}, {"name": "bbd77c3c40ea49d83a91d51cb1086bb6", "fusion_lat": 0.0, "type": "electric_scooter", "lat": 38.911269833333336, "is_reserved": 0, "is_disabled": 0, "fusion_lon": 0.0, "bike_id": "bbd77c3c40ea49d83a91d51cb1086bb6", "lon": -77.03197983333334, "rental_uris": {"ios": "https://dc.lft.to/lastmile_qr_scan", "android": "https://dc.lft.to/lastmile_qr_scan"}}, {"name": "e6df5904cdebddf55c7e1e49d8711b8d", "fusion_lat": 0.0, "type": "electric_scooter", "lat": 38.90580633333333, "is_reserved": 0, "is_disabled": 0, "fusion_lon": 0.0, "bike_id": "e6df5904cdebddf55c7e1e49d8711b8d", "lon": -77.034412, "rental_uris": {"ios": "https://dc.lft.to/lastmile_qr_scan", "android": "https://dc.lft.to/lastmile_qr_scan"}}, {"name": "db4fffea1c5fd1439a3ca4407a9cf58e", "fusion_lat": 0.0, "type": "electric_scooter", "lat": 38.90954216666667, "is_reserved": 0, "is_disabled": 0, "fusion_lon": 0.0, "bike_id": "db4fffea1c5fd1439a3ca4407a9cf58e", "lon": -77.04126016666666, "rental_uris": {"ios": "https://dc.lft.to/lastmile_qr_scan", "android": "https://dc.lft.to/lastmile_qr_scan"}}, {"name": "2237ffac99d08db7ff9815a3ef9db479", "fusion_lat": 0.0, "type": "electric_scooter", "lat": 38.92567016666667, "is_reserved": 0, "is_disabled": 0, "fusion_lon": 0.0, "bike_id": "2237ffac99d08db7ff9815a3ef9db479", "lon": -77.02844466666667, "rental_uris": {"ios": "https://dc.lft.to/lastmile_qr_scan", "android": "https://dc.lft.to/lastmile_qr_scan"}}, {"name": "d5ae3014e5d8f0e9066be4eb5ac8d17e", "fusion_lat": 0.0, "type": "electric_scooter", "lat": 38.912007333333335, "is_reserved": 0, "is_disabled": 0, "fusion_lon": 0.0, "bike_id": "d5ae3014e5d8f0e9066be4eb5ac8d17e", "lon": -77.00082516666667, "rental_uris": {"ios": "https://dc.lft.to/lastmile_qr_scan", "android": "https://dc.lft.to/lastmile_qr_scan"}}, {"name": "7c10d68756f2104725cb1c26db9a671d", "fusion_lat": 0.0, "type": "electric_scooter", "lat": 38.9206955, "is_reserved": 0, "is_disabled": 0, "fusion_lon": 0.0, "bike_id": "7c10d68756f2104725cb1c26db9a671d", "lon": -77.0296275, "rental_uris": {"ios": "https://dc.lft.to/lastmile_qr_scan", "android": "https://dc.lft.to/lastmile_qr_scan"}}, {"name": "ffc17b519231e9bc0d07e30f7b5194b7", "fusion_lat": 0.0, "type": "electric_scooter", "lat": 38.93540133333333, "is_reserved": 0, "is_disabled": 0, "fusion_lon": 0.0, "bike_id": "ffc17b519231e9bc0d07e30f7b5194b7", "lon": -77.02354866666667, "rental_uris": {"ios": "https://dc.lft.to/lastmile_qr_scan", "android": "https://dc.lft.to/lastmile_qr_scan"}}, {"name": "8774c72dacb0a047d38efa29e48328dc", "fusion_lat": 0.0, "type": "electric_scooter", "lat": 38.91239916666667, "is_reserved": 0, "is_disabled": 0, "fusion_lon": 0.0, "bike_id": "8774c72dacb0a047d38efa29e48328dc", "lon": -77.00915616666667, "rental_uris": {"ios": "https://dc.lft.to/lastmile_qr_scan", "android": "https://dc.lft.to/lastmile_qr_scan"}}, {"name": "5c18f9b24ceff7791e301085d1defcc5", "fusion_lat": 0.0, "type": "electric_bike", "lat": 38.83237116666667, "is_reserved": 0, "is_disabled": 0, "fusion_lon": 0.0, "bike_id": "5c18f9b24ceff7791e301085d1defcc5", "lon": -76.94623233333333, "rental_uris": {"ios": "https://dc.lft.to/lastmile_qr_scan", "android": "https://dc.lft.to/lastmile_qr_scan"}}, {"name": "e51e45b8593b6d1185e11640a0e5a461", "fusion_lat": 0.0, "type": "electric_scooter", "lat": 38.890950833333335, "is_reserved": 0, "is_disabled": 0, "fusion_lon": 0.0, "bike_id": "e51e45b8593b6d1185e11640a0e5a461", "lon": -76.99155733333333, "rental_uris": {"ios": "https://dc.lft.to/lastmile_qr_scan", "android": "https://dc.lft.to/lastmile_qr_scan"}}, {"name": "99729f3a4e7a7970bec5192602b4b362", "fusion_lat": 0.0, "type": "electric_scooter", "lat": 38.93966483333333, "is_reserved": 0, "is_disabled": 0, "fusion_lon": 0.0, "bike_id": "99729f3a4e7a7970bec5192602b4b362", "lon": -77.027502, "rental_uris": {"ios": "https://dc.lft.to/lastmile_qr_scan", "android": "https://dc.lft.to/lastmile_qr_scan"}}, {"name": "6108b0fa78fd6c13b95a8a4a8643d6e7", "fusion_lat": 0.0, "type": "electric_scooter", "lat": 38.89300816666667, "is_reserved": 0, "is_disabled": 0, "fusion_lon": 0.0, "bike_id": "6108b0fa78fd6c13b95a8a4a8643d6e7", "lon": -76.939339, "rental_uris": {"ios": "https://dc.lft.to/lastmile_qr_scan", "android": "https://dc.lft.to/lastmile_qr_scan"}}, {"name": "941c5a302c824e48054abe9b1caaab62", "fusion_lat": 0.0, "type": "electric_scooter", "lat": 38.90128166666667, "is_reserved": 0, "is_disabled": 0, "fusion_lon": 0.0, "bike_id": "941c5a302c824e48054abe9b1caaab62", "lon": -77.02394783333334, "rental_uris": {"ios": "https://dc.lft.to/lastmile_qr_scan", "android": "https://dc.lft.to/lastmile_qr_scan"}}, {"name": "3f79e9352cfdc0d19f8659eae545eb12", "fusion_lat": 0.0, "type": "electric_scooter", "lat": 38.90985033333333, "is_reserved": 0, "is_disabled": 0, "fusion_lon": 0.0, "bike_id": "3f79e9352cfdc0d19f8659eae545eb12", "lon": -77.04875633333333, "rental_uris": {"ios": "https://dc.lft.to/lastmile_qr_scan", "android": "https://dc.lft.to/lastmile_qr_scan"}}, {"name": "2d2752d00b3b5f98e7d92e0241d87b7f", "fusion_lat": 0.0, "type": "electric_scooter", "lat": 38.92075616666666, "is_reserved": 0, "is_disabled": 0, "fusion_lon": 0.0, "bike_id": "2d2752d00b3b5f98e7d92e0241d87b7f", "lon": -77.02397966666666, "rental_uris": {"ios": "https://dc.lft.to/lastmile_qr_scan", "android": "https://dc.lft.to/lastmile_qr_scan"}}, {"name": "5e2b5a7c8e2488e1a128783b5c083b02", "fusion_lat": 0.0, "type": "electric_scooter", "lat": 38.90783066666667, "is_reserved": 0, "is_disabled": 0, "fusion_lon": 0.0, "bike_id": "5e2b5a7c8e2488e1a128783b5c083b02", "lon": -77.03864933333334, "rental_uris": {"ios": "https://dc.lft.to/lastmile_qr_scan", "android": "https://dc.lft.to/lastmile_qr_scan"}}, {"name": "15a3d21890c089a52f94913955f2b710", "fusion_lat": 0.0, "type": "electric_scooter", "lat": 38.909229, "is_reserved": 0, "is_disabled": 0, "fusion_lon": 0.0, "bike_id": "15a3d21890c089a52f94913955f2b710", "lon": -77.03180633333334, "rental_uris": {"ios": "https://dc.lft.to/lastmile_qr_scan", "android": "https://dc.lft.to/lastmile_qr_scan"}}, {"name": "3fed385334a15b514a8cc99ac5eb88d5", "fusion_lat": 0.0, "type": "electric_scooter", "lat": 38.91190366666667, "is_reserved": 0, "is_disabled": 0, "fusion_lon": 0.0, "bike_id": "3fed385334a15b514a8cc99ac5eb88d5", "lon": -77.0325275, "rental_uris": {"ios": "https://dc.lft.to/lastmile_qr_scan", "android": "https://dc.lft.to/lastmile_qr_scan"}}, {"name": "174aa8310e4e2ee7aeb46aeeffedc1f3", "fusion_lat": 0.0, "type": "electric_scooter", "lat": 38.919289166666665, "is_reserved": 0, "is_disabled": 0, "fusion_lon": 0.0, "bike_id": "174aa8310e4e2ee7aeb46aeeffedc1f3", "lon": -77.03114883333333, "rental_uris": {"ios": "https://dc.lft.to/lastmile_qr_scan", "android": "https://dc.lft.to/lastmile_qr_scan"}}, {"name": "8193bc051f8939cc2c55778475cf43c4", "fusion_lat": 0.0, "type": "electric_scooter", "lat": 38.913486666666664, "is_reserved": 0, "is_disabled": 0, "fusion_lon": 0.0, "bike_id": "8193bc051f8939cc2c55778475cf43c4", "lon": -77.04236466666667, "rental_uris": {"ios": "https://dc.lft.to/lastmile_qr_scan", "android": "https://dc.lft.to/lastmile_qr_scan"}}, {"name": "d15c1a66ad49b4b0823367025414d1d8", "fusion_lat": 0.0, "type": "electric_scooter", "lat": 38.907376166666666, "is_reserved": 0, "is_disabled": 0, "fusion_lon": 0.0, "bike_id": "d15c1a66ad49b4b0823367025414d1d8", "lon": -77.0320475, "rental_uris": {"ios": "https://dc.lft.to/lastmile_qr_scan", "android": "https://dc.lft.to/lastmile_qr_scan"}}, {"name": "56f92e5783867c58e3a1fc4d17e30efb", "fusion_lat": 0.0, "type": "electric_scooter", "lat": 38.895513333333334, "is_reserved": 0, "is_disabled": 0, "fusion_lon": 0.0, "bike_id": "56f92e5783867c58e3a1fc4d17e30efb", "lon": -76.94889016666667, "rental_uris": {"ios": "https://dc.lft.to/lastmile_qr_scan", "android": "https://dc.lft.to/lastmile_qr_scan"}}, {"name": "a73374e4ce86b41ef84542ba0e3c15e6", "fusion_lat": 0.0, "type": "electric_scooter", "lat": 38.927114833333334, "is_reserved": 0, "is_disabled": 0, "fusion_lon": 0.0, "bike_id": "a73374e4ce86b41ef84542ba0e3c15e6", "lon": -77.03727716666667, "rental_uris": {"ios": "https://dc.lft.to/lastmile_qr_scan", "android": "https://dc.lft.to/lastmile_qr_scan"}}, {"name": "c69962434bab9e2666388d8be0a21686", "fusion_lat": 0.0, "type": "electric_scooter", "lat": 38.8990125, "is_reserved": 0, "is_disabled": 0, "fusion_lon": 0.0, "bike_id": "c69962434bab9e2666388d8be0a21686", "lon": -77.01511566666667, "rental_uris": {"ios": "https://dc.lft.to/lastmile_qr_scan", "android": "https://dc.lft.to/lastmile_qr_scan"}}, {"name": "93b3ddeb510b0e3337c8528e0b5cb9fe", "fusion_lat": 0.0, "type": "electric_scooter", "lat": 38.902399, "is_reserved": 0, "is_disabled": 0, "fusion_lon": 0.0, "bike_id": "93b3ddeb510b0e3337c8528e0b5cb9fe", "lon": -77.05341766666666, "rental_uris": {"ios": "https://dc.lft.to/lastmile_qr_scan", "android": "https://dc.lft.to/lastmile_qr_scan"}}, {"name": "7d668969f2bd3c8abe7e3748a9f3fa27", "fusion_lat": 0.0, "type": "electric_bike", "lat": 38.8151365, "is_reserved": 0, "is_disabled": 0, "fusion_lon": 0.0, "bike_id": "7d668969f2bd3c8abe7e3748a9f3fa27", "lon": -77.1265265, "rental_uris": {"ios": "https://dc.lft.to/lastmile_qr_scan", "android": "https://dc.lft.to/lastmile_qr_scan"}}, {"name": "f536ce591fa2b92d5d2151b32cb8c181", "fusion_lat": 0.0, "type": "electric_scooter", "lat": 38.909639, "is_reserved": 0, "is_disabled": 0, "fusion_lon": 0.0, "bike_id": "f536ce591fa2b92d5d2151b32cb8c181", "lon": -77.026852, "rental_uris": {"ios": "https://dc.lft.to/lastmile_qr_scan", "android": "https://dc.lft.to/lastmile_qr_scan"}}, {"name": "8b43711799e938bd8d148feab6b45931", "fusion_lat": 0.0, "type": "electric_scooter", "lat": 38.86212533333333, "is_reserved": 0, "is_disabled": 0, "fusion_lon": 0.0, "bike_id": "8b43711799e938bd8d148feab6b45931", "lon": -76.9947085, "rental_uris": {"ios": "https://dc.lft.to/lastmile_qr_scan", "android": "https://dc.lft.to/lastmile_qr_scan"}}, {"name": "9aae3967201773720722b601328f7933", "fusion_lat": 0.0, "type": "electric_scooter", "lat": 38.924226, "is_reserved": 0, "is_disabled": 0, "fusion_lon": 0.0, "bike_id": "9aae3967201773720722b601328f7933", "lon": -77.01949583333334, "rental_uris": {"ios": "https://dc.lft.to/lastmile_qr_scan", "android": "https://dc.lft.to/lastmile_qr_scan"}}, {"name": "a44baf9e15cc6daf1ce824472bbb9ee0", "fusion_lat": 0.0, "type": "electric_scooter", "lat": 38.9182185, "is_reserved": 0, "is_disabled": 0, "fusion_lon": 0.0, "bike_id": "a44baf9e15cc6daf1ce824472bbb9ee0", "lon": -77.03998533333333, "rental_uris": {"ios": "https://dc.lft.to/lastmile_qr_scan", "android": "https://dc.lft.to/lastmile_qr_scan"}}, {"name": "dc1b110e13f1919770d0842f0fcaf81f", "fusion_lat": 0.0, "type": "electric_scooter", "lat": 38.877511166666665, "is_reserved": 0, "is_disabled": 0, "fusion_lon": 0.0, "bike_id": "dc1b110e13f1919770d0842f0fcaf81f", "lon": -77.019888, "rental_uris": {"ios": "https://dc.lft.to/lastmile_qr_scan", "android": "https://dc.lft.to/lastmile_qr_scan"}}, {"name": "1b33f2ae5dfdb55b27f2c76f5a2d0baa", "fusion_lat": 0.0, "type": "electric_scooter", "lat": 38.92491033333334, "is_reserved": 0, "is_disabled": 0, "fusion_lon": 0.0, "bike_id": "1b33f2ae5dfdb55b27f2c76f5a2d0baa", "lon": -77.028473, "rental_uris": {"ios": "https://dc.lft.to/lastmile_qr_scan", "android": "https://dc.lft.to/lastmile_qr_scan"}}, {"name": "ab3daee06f34a3ee9b022bfb13df1f10", "fusion_lat": 0.0, "type": "electric_scooter", "lat": 38.93616383333333, "is_reserved": 0, "is_disabled": 0, "fusion_lon": 0.0, "bike_id": "ab3daee06f34a3ee9b022bfb13df1f10", "lon": -77.03207016666667, "rental_uris": {"ios": "https://dc.lft.to/lastmile_qr_scan", "android": "https://dc.lft.to/lastmile_qr_scan"}}, {"name": "79dded37ac4df2fe276b8c59bbd29396", "fusion_lat": 0.0, "type": "electric_scooter", "lat": 38.90142483333333, "is_reserved": 0, "is_disabled": 0, "fusion_lon": 0.0, "bike_id": "79dded37ac4df2fe276b8c59bbd29396", "lon": -77.00059066666667, "rental_uris": {"ios": "https://dc.lft.to/lastmile_qr_scan", "android": "https://dc.lft.to/lastmile_qr_scan"}}, {"name": "2c1ffd68559d4b738cd07672ff975866", "fusion_lat": 0.0, "type": "electric_scooter", "lat": 38.929479666666666, "is_reserved": 0, "is_disabled": 0, "fusion_lon": 0.0, "bike_id": "2c1ffd68559d4b738cd07672ff975866", "lon": -76.99749333333334, "rental_uris": {"ios": "https://dc.lft.to/lastmile_qr_scan", "android": "https://dc.lft.to/lastmile_qr_scan"}}, {"name": "40bf751edc8ba46c59d38941512ea917", "fusion_lat": 0.0, "type": "electric_bike", "lat": 38.91102883333333, "is_reserved": 0, "is_disabled": 0, "fusion_lon": 0.0, "bike_id": "40bf751edc8ba46c59d38941512ea917", "lon": -77.00496816666667, "rental_uris": {"ios": "https://dc.lft.to/lastmile_qr_scan", "android": "https://dc.lft.to/lastmile_qr_scan"}}, {"name": "585f723858df02ab7267ee115a394c86", "fusion_lat": 0.0, "type": "electric_scooter", "lat": 38.91951733333333, "is_reserved": 0, "is_disabled": 0, "fusion_lon": 0.0, "bike_id": "585f723858df02ab7267ee115a394c86", "lon": -77.01396283333334, "rental_uris": {"ios": "https://dc.lft.to/lastmile_qr_scan", "android": "https://dc.lft.to/lastmile_qr_scan"}}, {"name": "d8f9338640bb1f55ed3c0f884a33fdf6", "fusion_lat": 0.0, "type": "electric_scooter", "lat": 38.89230383333334, "is_reserved": 0, "is_disabled": 0, "fusion_lon": 0.0, "bike_id": "d8f9338640bb1f55ed3c0f884a33fdf6", "lon": -77.05002316666666, "rental_uris": {"ios": "https://dc.lft.to/lastmile_qr_scan", "android": "https://dc.lft.to/lastmile_qr_scan"}}, {"name": "fc471c6839c83d3bc98f0755d38375c2", "fusion_lat": 0.0, "type": "electric_scooter", "lat": 38.906604333333334, "is_reserved": 0, "is_disabled": 0, "fusion_lon": 0.0, "bike_id": "fc471c6839c83d3bc98f0755d38375c2", "lon": -77.05319233333333, "rental_uris": {"ios": "https://dc.lft.to/lastmile_qr_scan", "android": "https://dc.lft.to/lastmile_qr_scan"}}, {"name": "9c437584018d3cba113893e526c9d952", "fusion_lat": 0.0, "type": "electric_scooter", "lat": 38.903423, "is_reserved": 0, "is_disabled": 0, "fusion_lon": 0.0, "bike_id": "9c437584018d3cba113893e526c9d952", "lon": -76.9466615, "rental_uris": {"ios": "https://dc.lft.to/lastmile_qr_scan", "android": "https://dc.lft.to/lastmile_qr_scan"}}, {"name": "64fd97e4bcc22c05aad11a4e2dd71ea0", "fusion_lat": 0.0, "type": "electric_scooter", "lat": 38.901494166666666, "is_reserved": 0, "is_disabled": 0, "fusion_lon": 0.0, "bike_id": "64fd97e4bcc22c05aad11a4e2dd71ea0", "lon": -77.03972483333334, "rental_uris": {"ios": "https://dc.lft.to/lastmile_qr_scan", "android": "https://dc.lft.to/lastmile_qr_scan"}}, {"name": "57ef4822257b54e657c5eda03ea6d60c", "fusion_lat": 0.0, "type": "electric_scooter", "lat": 38.90740266666667, "is_reserved": 0, "is_disabled": 0, "fusion_lon": 0.0, "bike_id": "57ef4822257b54e657c5eda03ea6d60c", "lon": -77.034621, "rental_uris": {"ios": "https://dc.lft.to/lastmile_qr_scan", "android": "https://dc.lft.to/lastmile_qr_scan"}}, {"name": "8637faf0c61746eec3bf8c9d7a19f883", "fusion_lat": 0.0, "type": "electric_scooter", "lat": 38.90134883333333, "is_reserved": 0, "is_disabled": 0, "fusion_lon": 0.0, "bike_id": "8637faf0c61746eec3bf8c9d7a19f883", "lon": -77.044911, "rental_uris": {"ios": "https://dc.lft.to/lastmile_qr_scan", "android": "https://dc.lft.to/lastmile_qr_scan"}}, {"name": "ac0be979a2878b334eaaf3474441b1ff", "fusion_lat": 0.0, "type": "electric_scooter", "lat": 38.90854433333333, "is_reserved": 0, "is_disabled": 0, "fusion_lon": 0.0, "bike_id": "ac0be979a2878b334eaaf3474441b1ff", "lon": -77.031951, "rental_uris": {"ios": "https://dc.lft.to/lastmile_qr_scan", "android": "https://dc.lft.to/lastmile_qr_scan"}}, {"name": "43a349cb64cf64dcff05c6021776d293", "fusion_lat": 0.0, "type": "electric_bike", "lat": 38.99238833333333, "is_reserved": 0, "is_disabled": 0, "fusion_lon": 0.0, "bike_id": "43a349cb64cf64dcff05c6021776d293", "lon": -76.8781995, "rental_uris": {"ios": "https://dc.lft.to/lastmile_qr_scan", "android": "https://dc.lft.to/lastmile_qr_scan"}}, {"name": "5afde62150f4ac5dfb8982ac519b0cf4", "fusion_lat": 0.0, "type": "electric_scooter", "lat": 38.91116433333333, "is_reserved": 0, "is_disabled": 0, "fusion_lon": 0.0, "bike_id": "5afde62150f4ac5dfb8982ac519b0cf4", "lon": -77.03732933333333, "rental_uris": {"ios": "https://dc.lft.to/lastmile_qr_scan", "android": "https://dc.lft.to/lastmile_qr_scan"}}, {"name": "7e0aa8d63522d636771c3e5ec02bc8b2", "fusion_lat": 0.0, "type": "electric_scooter", "lat": 38.904660666666665, "is_reserved": 0, "is_disabled": 0, "fusion_lon": 0.0, "bike_id": "7e0aa8d63522d636771c3e5ec02bc8b2", "lon": -76.98254416666667, "rental_uris": {"ios": "https://dc.lft.to/lastmile_qr_scan", "android": "https://dc.lft.to/lastmile_qr_scan"}}, {"name": "e7d8e6a7402657852c5faf1c05761c86", "fusion_lat": 0.0, "type": "electric_bike", "lat": 38.94366616666667, "is_reserved": 0, "is_disabled": 0, "fusion_lon": 0.0, "bike_id": "e7d8e6a7402657852c5faf1c05761c86", "lon": -77.00351183333333, "rental_uris": {"ios": "https://dc.lft.to/lastmile_qr_scan", "android": "https://dc.lft.to/lastmile_qr_scan"}}, {"name": "d828688ced26b86c1cefe347133fc47e", "fusion_lat": 0.0, "type": "electric_scooter", "lat": 38.85527033333334, "is_reserved": 0, "is_disabled": 0, "fusion_lon": 0.0, "bike_id": "d828688ced26b86c1cefe347133fc47e", "lon": -76.96917766666667, "rental_uris": {"ios": "https://dc.lft.to/lastmile_qr_scan", "android": "https://dc.lft.to/lastmile_qr_scan"}}, {"name": "771cb9c39255cdd069b2bdac7a41a50f", "fusion_lat": 0.0, "type": "electric_bike", "lat": 38.896403166666666, "is_reserved": 0, "is_disabled": 0, "fusion_lon": 0.0, "bike_id": "771cb9c39255cdd069b2bdac7a41a50f", "lon": -77.10458966666667, "rental_uris": {"ios": "https://dc.lft.to/lastmile_qr_scan", "android": "https://dc.lft.to/lastmile_qr_scan"}}, {"name": "dcbd24ef1dd7e1fa79ca8310fcc2cc4e", "fusion_lat": 0.0, "type": "electric_scooter", "lat": 38.924905833333334, "is_reserved": 0, "is_disabled": 0, "fusion_lon": 0.0, "bike_id": "dcbd24ef1dd7e1fa79ca8310fcc2cc4e", "lon": -77.034887, "rental_uris": {"ios": "https://dc.lft.to/lastmile_qr_scan", "android": "https://dc.lft.to/lastmile_qr_scan"}}, {"name": "b216156baf15de164b2b60e738a75b5a", "fusion_lat": 0.0, "type": "electric_scooter", "lat": 38.92063516666666, "is_reserved": 0, "is_disabled": 0, "fusion_lon": 0.0, "bike_id": "b216156baf15de164b2b60e738a75b5a", "lon": -77.023669, "rental_uris": {"ios": "https://dc.lft.to/lastmile_qr_scan", "android": "https://dc.lft.to/lastmile_qr_scan"}}, {"name": "ff72464e716bbb65c9cb1a79ed64b04e", "fusion_lat": 0.0, "type": "electric_scooter", "lat": 38.92330483333333, "is_reserved": 0, "is_disabled": 0, "fusion_lon": 0.0, "bike_id": "ff72464e716bbb65c9cb1a79ed64b04e", "lon": -77.04125316666666, "rental_uris": {"ios": "https://dc.lft.to/lastmile_qr_scan", "android": "https://dc.lft.to/lastmile_qr_scan"}}, {"name": "cd7bd5462f8a1b25219b499defc73864", "fusion_lat": 0.0, "type": "electric_scooter", "lat": 38.9527045, "is_reserved": 0, "is_disabled": 0, "fusion_lon": 0.0, "bike_id": "cd7bd5462f8a1b25219b499defc73864", "lon": -77.02570516666667, "rental_uris": {"ios": "https://dc.lft.to/lastmile_qr_scan", "android": "https://dc.lft.to/lastmile_qr_scan"}}, {"name": "fd10de55eea3c03179f461023e0058b6", "fusion_lat": 0.0, "type": "electric_scooter", "lat": 38.92390916666667, "is_reserved": 0, "is_disabled": 0, "fusion_lon": 0.0, "bike_id": "fd10de55eea3c03179f461023e0058b6", "lon": -77.02983033333334, "rental_uris": {"ios": "https://dc.lft.to/lastmile_qr_scan", "android": "https://dc.lft.to/lastmile_qr_scan"}}, {"name": "ecc9e47783e15115889cf4ab5d00c381", "fusion_lat": 0.0, "type": "electric_scooter", "lat": 38.89405683333333, "is_reserved": 0, "is_disabled": 0, "fusion_lon": 0.0, "bike_id": "ecc9e47783e15115889cf4ab5d00c381", "lon": -76.948015, "rental_uris": {"ios": "https://dc.lft.to/lastmile_qr_scan", "android": "https://dc.lft.to/lastmile_qr_scan"}}, {"name": "395c5e0244b3f29872dbe25b3ca02d08", "fusion_lat": 0.0, "type": "electric_scooter", "lat": 38.864286166666666, "is_reserved": 0, "is_disabled": 0, "fusion_lon": 0.0, "bike_id": "395c5e0244b3f29872dbe25b3ca02d08", "lon": -76.98045083333334, "rental_uris": {"ios": "https://dc.lft.to/lastmile_qr_scan", "android": "https://dc.lft.to/lastmile_qr_scan"}}, {"name": "8008117bf425e2117a610d221947c517", "fusion_lat": 0.0, "type": "electric_scooter", "lat": 38.883966666666666, "is_reserved": 0, "is_disabled": 0, "fusion_lon": 0.0, "bike_id": "8008117bf425e2117a610d221947c517", "lon": -76.9858935, "rental_uris": {"ios": "https://dc.lft.to/lastmile_qr_scan", "android": "https://dc.lft.to/lastmile_qr_scan"}}, {"name": "40b114f1e50c56ded0907239ccb5c084", "fusion_lat": 0.0, "type": "electric_scooter", "lat": 38.92318133333333, "is_reserved": 0, "is_disabled": 0, "fusion_lon": 0.0, "bike_id": "40b114f1e50c56ded0907239ccb5c084", "lon": -77.03546633333333, "rental_uris": {"ios": "https://dc.lft.to/lastmile_qr_scan", "android": "https://dc.lft.to/lastmile_qr_scan"}}, {"name": "adcfb945197bd118ae1dd12a9dfee4d3", "fusion_lat": 0.0, "type": "electric_scooter", "lat": 38.92111, "is_reserved": 0, "is_disabled": 0, "fusion_lon": 0.0, "bike_id": "adcfb945197bd118ae1dd12a9dfee4d3", "lon": -77.02984866666667, "rental_uris": {"ios": "https://dc.lft.to/lastmile_qr_scan", "android": "https://dc.lft.to/lastmile_qr_scan"}}, {"name": "177b79fd10e137710afc11afde36b947", "fusion_lat": 0.0, "type": "electric_scooter", "lat": 38.91223316666667, "is_reserved": 0, "is_disabled": 0, "fusion_lon": 0.0, "bike_id": "177b79fd10e137710afc11afde36b947", "lon": -77.01213366666667, "rental_uris": {"ios": "https://dc.lft.to/lastmile_qr_scan", "android": "https://dc.lft.to/lastmile_qr_scan"}}, {"name": "fb9b446ffcafa8e43dcb6fd89f9491d3", "fusion_lat": 0.0, "type": "electric_scooter", "lat": 38.941082, "is_reserved": 0, "is_disabled": 0, "fusion_lon": 0.0, "bike_id": "fb9b446ffcafa8e43dcb6fd89f9491d3", "lon": -77.02663333333334, "rental_uris": {"ios": "https://dc.lft.to/lastmile_qr_scan", "android": "https://dc.lft.to/lastmile_qr_scan"}}, {"name": "d089d7430d5c9e47a7c9c85b6bf9cd57", "fusion_lat": 0.0, "type": "electric_scooter", "lat": 38.90203316666667, "is_reserved": 0, "is_disabled": 0, "fusion_lon": 0.0, "bike_id": "d089d7430d5c9e47a7c9c85b6bf9cd57", "lon": -76.98818183333333, "rental_uris": {"ios": "https://dc.lft.to/lastmile_qr_scan", "android": "https://dc.lft.to/lastmile_qr_scan"}}, {"name": "65c6adb72cec73a43dfd1d1ee7eecb65", "fusion_lat": 0.0, "type": "electric_scooter", "lat": 38.86458183333333, "is_reserved": 0, "is_disabled": 0, "fusion_lon": 0.0, "bike_id": "65c6adb72cec73a43dfd1d1ee7eecb65", "lon": -76.98245683333333, "rental_uris": {"ios": "https://dc.lft.to/lastmile_qr_scan", "android": "https://dc.lft.to/lastmile_qr_scan"}}, {"name": "4c4bb96db1607b8e4bff2e0eb593150e", "fusion_lat": 0.0, "type": "electric_scooter", "lat": 38.9655925, "is_reserved": 0, "is_disabled": 0, "fusion_lon": 0.0, "bike_id": "4c4bb96db1607b8e4bff2e0eb593150e", "lon": -77.0162275, "rental_uris": {"ios": "https://dc.lft.to/lastmile_qr_scan", "android": "https://dc.lft.to/lastmile_qr_scan"}}, {"name": "d478bd309d80b89eae55fa1a32dd9a73", "fusion_lat": 0.0, "type": "electric_scooter", "lat": 38.9041415, "is_reserved": 0, "is_disabled": 0, "fusion_lon": 0.0, "bike_id": "d478bd309d80b89eae55fa1a32dd9a73", "lon": -77.05340666666666, "rental_uris": {"ios": "https://dc.lft.to/lastmile_qr_scan", "android": "https://dc.lft.to/lastmile_qr_scan"}}, {"name": "b9ea1b893da76ff9e7aa90080b88f9a1", "fusion_lat": 0.0, "type": "electric_scooter", "lat": 38.9064345, "is_reserved": 0, "is_disabled": 0, "fusion_lon": 0.0, "bike_id": "b9ea1b893da76ff9e7aa90080b88f9a1", "lon": -77.02604433333333, "rental_uris": {"ios": "https://dc.lft.to/lastmile_qr_scan", "android": "https://dc.lft.to/lastmile_qr_scan"}}, {"name": "90ad94d1c0b233346ea0a5eefcd903e8", "fusion_lat": 0.0, "type": "electric_bike", "lat": 38.920438833333336, "is_reserved": 0, "is_disabled": 0, "fusion_lon": 0.0, "bike_id": "90ad94d1c0b233346ea0a5eefcd903e8", "lon": -77.00351083333334, "rental_uris": {"ios": "https://dc.lft.to/lastmile_qr_scan", "android": "https://dc.lft.to/lastmile_qr_scan"}}, {"name": "be19ab7ef30a1944462ab68919da0ec7", "fusion_lat": 0.0, "type": "electric_scooter", "lat": 38.938641, "is_reserved": 0, "is_disabled": 0, "fusion_lon": 0.0, "bike_id": "be19ab7ef30a1944462ab68919da0ec7", "lon": -77.02650466666667, "rental_uris": {"ios": "https://dc.lft.to/lastmile_qr_scan", "android": "https://dc.lft.to/lastmile_qr_scan"}}, {"name": "80ed3c1d80aa11a9fa4344c592e27565", "fusion_lat": 0.0, "type": "electric_scooter", "lat": 38.904884333333335, "is_reserved": 0, "is_disabled": 0, "fusion_lon": 0.0, "bike_id": "80ed3c1d80aa11a9fa4344c592e27565", "lon": -77.028122, "rental_uris": {"ios": "https://dc.lft.to/lastmile_qr_scan", "android": "https://dc.lft.to/lastmile_qr_scan"}}, {"name": "56136cb427006565a5e9ba5e2f23e180", "fusion_lat": 0.0, "type": "electric_bike", "lat": 38.9286805, "is_reserved": 0, "is_disabled": 0, "fusion_lon": 0.0, "bike_id": "56136cb427006565a5e9ba5e2f23e180", "lon": -76.96111383333333, "rental_uris": {"ios": "https://dc.lft.to/lastmile_qr_scan", "android": "https://dc.lft.to/lastmile_qr_scan"}}, {"name": "613a842e4190b13ee480b4ec18e22418", "fusion_lat": 0.0, "type": "electric_scooter", "lat": 38.880568833333335, "is_reserved": 0, "is_disabled": 0, "fusion_lon": 0.0, "bike_id": "613a842e4190b13ee480b4ec18e22418", "lon": -77.01332433333333, "rental_uris": {"ios": "https://dc.lft.to/lastmile_qr_scan", "android": "https://dc.lft.to/lastmile_qr_scan"}}, {"name": "d59fba459c30b0537a12763e8c6a1b4a", "fusion_lat": 0.0, "type": "electric_scooter", "lat": 38.9073255, "is_reserved": 0, "is_disabled": 0, "fusion_lon": 0.0, "bike_id": "d59fba459c30b0537a12763e8c6a1b4a", "lon": -77.00609933333334, "rental_uris": {"ios": "https://dc.lft.to/lastmile_qr_scan", "android": "https://dc.lft.to/lastmile_qr_scan"}}, {"name": "2344efbaeb2b0a3713e3b2583cbb5e52", "fusion_lat": 0.0, "type": "electric_scooter", "lat": 38.89970666666667, "is_reserved": 0, "is_disabled": 0, "fusion_lon": 0.0, "bike_id": "2344efbaeb2b0a3713e3b2583cbb5e52", "lon": -77.0553045, "rental_uris": {"ios": "https://dc.lft.to/lastmile_qr_scan", "android": "https://dc.lft.to/lastmile_qr_scan"}}, {"name": "45624591aa19a64b8083720ce1607da0", "fusion_lat": 0.0, "type": "electric_scooter", "lat": 38.9125725, "is_reserved": 0, "is_disabled": 0, "fusion_lon": 0.0, "bike_id": "45624591aa19a64b8083720ce1607da0", "lon": -77.03866966666666, "rental_uris": {"ios": "https://dc.lft.to/lastmile_qr_scan", "android": "https://dc.lft.to/lastmile_qr_scan"}}, {"name": "09fe7703271058ad95813397d30b4003", "fusion_lat": 0.0, "type": "electric_scooter", "lat": 38.9229525, "is_reserved": 0, "is_disabled": 0, "fusion_lon": 0.0, "bike_id": "09fe7703271058ad95813397d30b4003", "lon": -77.04205866666666, "rental_uris": {"ios": "https://dc.lft.to/lastmile_qr_scan", "android": "https://dc.lft.to/lastmile_qr_scan"}}, {"name": "a967d254e05dda34627446ebbed36355", "fusion_lat": 0.0, "type": "electric_scooter", "lat": 38.94207933333333, "is_reserved": 0, "is_disabled": 0, "fusion_lon": 0.0, "bike_id": "a967d254e05dda34627446ebbed36355", "lon": -77.03584766666667, "rental_uris": {"ios": "https://dc.lft.to/lastmile_qr_scan", "android": "https://dc.lft.to/lastmile_qr_scan"}}, {"name": "26a6ee074d81ef5466b973bb0b5c03f5", "fusion_lat": 0.0, "type": "electric_scooter", "lat": 38.898030166666665, "is_reserved": 0, "is_disabled": 0, "fusion_lon": 0.0, "bike_id": "26a6ee074d81ef5466b973bb0b5c03f5", "lon": -76.99164016666667, "rental_uris": {"ios": "https://dc.lft.to/lastmile_qr_scan", "android": "https://dc.lft.to/lastmile_qr_scan"}}, {"name": "be6208979d03f447f5427caf63ae0e3b", "fusion_lat": 0.0, "type": "electric_scooter", "lat": 38.898267, "is_reserved": 0, "is_disabled": 0, "fusion_lon": 0.0, "bike_id": "be6208979d03f447f5427caf63ae0e3b", "lon": -76.9877885, "rental_uris": {"ios": "https://dc.lft.to/lastmile_qr_scan", "android": "https://dc.lft.to/lastmile_qr_scan"}}, {"name": "729f74511e2f210b34132962221103da", "fusion_lat": 0.0, "type": "electric_scooter", "lat": 38.89613883333333, "is_reserved": 0, "is_disabled": 0, "fusion_lon": 0.0, "bike_id": "729f74511e2f210b34132962221103da", "lon": -77.02679866666666, "rental_uris": {"ios": "https://dc.lft.to/lastmile_qr_scan", "android": "https://dc.lft.to/lastmile_qr_scan"}}, {"name": "5c89b86aff1c5b9584267f5795376195", "fusion_lat": 0.0, "type": "electric_scooter", "lat": 38.906398833333334, "is_reserved": 0, "is_disabled": 0, "fusion_lon": 0.0, "bike_id": "5c89b86aff1c5b9584267f5795376195", "lon": -77.00742016666666, "rental_uris": {"ios": "https://dc.lft.to/lastmile_qr_scan", "android": "https://dc.lft.to/lastmile_qr_scan"}}, {"name": "8a520197a8fa4d7e862030b9c4f374a2", "fusion_lat": 0.0, "type": "electric_scooter", "lat": 38.90116783333333, "is_reserved": 0, "is_disabled": 0, "fusion_lon": 0.0, "bike_id": "8a520197a8fa4d7e862030b9c4f374a2", "lon": -77.0498615, "rental_uris": {"ios": "https://dc.lft.to/lastmile_qr_scan", "android": "https://dc.lft.to/lastmile_qr_scan"}}, {"name": "8fd5408fecdd615ad4a858a6a6c5bc5e", "fusion_lat": 0.0, "type": "electric_scooter", "lat": 38.9065745, "is_reserved": 0, "is_disabled": 0, "fusion_lon": 0.0, "bike_id": "8fd5408fecdd615ad4a858a6a6c5bc5e", "lon": -77.0531735, "rental_uris": {"ios": "https://dc.lft.to/lastmile_qr_scan", "android": "https://dc.lft.to/lastmile_qr_scan"}}, {"name": "e756f51c93f5b6d16c240f3517d10dc2", "fusion_lat": 0.0, "type": "electric_scooter", "lat": 38.898971, "is_reserved": 0, "is_disabled": 0, "fusion_lon": 0.0, "bike_id": "e756f51c93f5b6d16c240f3517d10dc2", "lon": -77.039176, "rental_uris": {"ios": "https://dc.lft.to/lastmile_qr_scan", "android": "https://dc.lft.to/lastmile_qr_scan"}}, {"name": "9f2c165f43e947402675cb26084dcc6d", "fusion_lat": 0.0, "type": "electric_scooter", "lat": 38.91021583333333, "is_reserved": 0, "is_disabled": 0, "fusion_lon": 0.0, "bike_id": "9f2c165f43e947402675cb26084dcc6d", "lon": -77.02779116666666, "rental_uris": {"ios": "https://dc.lft.to/lastmile_qr_scan", "android": "https://dc.lft.to/lastmile_qr_scan"}}, {"name": "35445b527ba14cb7ec1612ff20893036", "fusion_lat": 0.0, "type": "electric_scooter", "lat": 38.903648, "is_reserved": 0, "is_disabled": 0, "fusion_lon": 0.0, "bike_id": "35445b527ba14cb7ec1612ff20893036", "lon": -77.03544883333333, "rental_uris": {"ios": "https://dc.lft.to/lastmile_qr_scan", "android": "https://dc.lft.to/lastmile_qr_scan"}}, {"name": "ad519564a810b21e2dd253ce93901846", "fusion_lat": 0.0, "type": "electric_scooter", "lat": 38.918321166666665, "is_reserved": 0, "is_disabled": 0, "fusion_lon": 0.0, "bike_id": "ad519564a810b21e2dd253ce93901846", "lon": -77.02301366666667, "rental_uris": {"ios": "https://dc.lft.to/lastmile_qr_scan", "android": "https://dc.lft.to/lastmile_qr_scan"}}, {"name": "cda900cc761aa0fc1ed39112b59c5b7e", "fusion_lat": 0.0, "type": "electric_scooter", "lat": 38.91132, "is_reserved": 0, "is_disabled": 0, "fusion_lon": 0.0, "bike_id": "cda900cc761aa0fc1ed39112b59c5b7e", "lon": -77.0365385, "rental_uris": {"ios": "https://dc.lft.to/lastmile_qr_scan", "android": "https://dc.lft.to/lastmile_qr_scan"}}, {"name": "6b9f3c07263361c8a05995e3b0e9715d", "fusion_lat": 0.0, "type": "electric_scooter", "lat": 38.91190533333334, "is_reserved": 0, "is_disabled": 0, "fusion_lon": 0.0, "bike_id": "6b9f3c07263361c8a05995e3b0e9715d", "lon": -77.031472, "rental_uris": {"ios": "https://dc.lft.to/lastmile_qr_scan", "android": "https://dc.lft.to/lastmile_qr_scan"}}, {"name": "e803ee8f0afa431265a65dbde25d9b0a", "fusion_lat": 0.0, "type": "electric_scooter", "lat": 38.89859366666666, "is_reserved": 0, "is_disabled": 0, "fusion_lon": 0.0, "bike_id": "e803ee8f0afa431265a65dbde25d9b0a", "lon": -77.01616466666667, "rental_uris": {"ios": "https://dc.lft.to/lastmile_qr_scan", "android": "https://dc.lft.to/lastmile_qr_scan"}}, {"name": "26420531f7d6ad5b734b0637552b4861", "fusion_lat": 0.0, "type": "electric_scooter", "lat": 38.8636155, "is_reserved": 0, "is_disabled": 0, "fusion_lon": 0.0, "bike_id": "26420531f7d6ad5b734b0637552b4861", "lon": -76.9907115, "rental_uris": {"ios": "https://dc.lft.to/lastmile_qr_scan", "android": "https://dc.lft.to/lastmile_qr_scan"}}, {"name": "6caeb209b3dd8642c65670082b9ab84a", "fusion_lat": 0.0, "type": "electric_scooter", "lat": 38.920673666666666, "is_reserved": 0, "is_disabled": 0, "fusion_lon": 0.0, "bike_id": "6caeb209b3dd8642c65670082b9ab84a", "lon": -76.99850916666666, "rental_uris": {"ios": "https://dc.lft.to/lastmile_qr_scan", "android": "https://dc.lft.to/lastmile_qr_scan"}}, {"name": "75d64231d3b491389b2cf48ba17e1a77", "fusion_lat": 0.0, "type": "electric_scooter", "lat": 38.8429625, "is_reserved": 0, "is_disabled": 0, "fusion_lon": 0.0, "bike_id": "75d64231d3b491389b2cf48ba17e1a77", "lon": -76.99944616666667, "rental_uris": {"ios": "https://dc.lft.to/lastmile_qr_scan", "android": "https://dc.lft.to/lastmile_qr_scan"}}, {"name": "a6b6f89c56a210c71f12a9ac2025c563", "fusion_lat": 0.0, "type": "electric_scooter", "lat": 38.902776, "is_reserved": 0, "is_disabled": 0, "fusion_lon": 0.0, "bike_id": "a6b6f89c56a210c71f12a9ac2025c563", "lon": -77.03837766666666, "rental_uris": {"ios": "https://dc.lft.to/lastmile_qr_scan", "android": "https://dc.lft.to/lastmile_qr_scan"}}, {"name": "a66a0df81cc3589ffeba5c475ad1fe41", "fusion_lat": 0.0, "type": "electric_scooter", "lat": 38.914084333333335, "is_reserved": 0, "is_disabled": 0, "fusion_lon": 0.0, "bike_id": "a66a0df81cc3589ffeba5c475ad1fe41", "lon": -77.02728233333333, "rental_uris": {"ios": "https://dc.lft.to/lastmile_qr_scan", "android": "https://dc.lft.to/lastmile_qr_scan"}}, {"name": "3669c86f6222953bde6ae0326833a02f", "fusion_lat": 0.0, "type": "electric_scooter", "lat": 38.918018833333335, "is_reserved": 0, "is_disabled": 0, "fusion_lon": 0.0, "bike_id": "3669c86f6222953bde6ae0326833a02f", "lon": -77.04015133333333, "rental_uris": {"ios": "https://dc.lft.to/lastmile_qr_scan", "android": "https://dc.lft.to/lastmile_qr_scan"}}, {"name": "a239342847bf95c51043ea57a4e9d8db", "fusion_lat": 0.0, "type": "electric_scooter", "lat": 38.907351166666665, "is_reserved": 0, "is_disabled": 0, "fusion_lon": 0.0, "bike_id": "a239342847bf95c51043ea57a4e9d8db", "lon": -77.04495183333333, "rental_uris": {"ios": "https://dc.lft.to/lastmile_qr_scan", "android": "https://dc.lft.to/lastmile_qr_scan"}}, {"name": "e0c33003fbe0b1916db7fbf4c81deb49", "fusion_lat": 0.0, "type": "electric_scooter", "lat": 38.934735333333336, "is_reserved": 0, "is_disabled": 0, "fusion_lon": 0.0, "bike_id": "e0c33003fbe0b1916db7fbf4c81deb49", "lon": -77.02841516666666, "rental_uris": {"ios": "https://dc.lft.to/lastmile_qr_scan", "android": "https://dc.lft.to/lastmile_qr_scan"}}, {"name": "0efd18f2dfe101f7b9baced33866b7a8", "fusion_lat": 0.0, "type": "electric_bike", "lat": 38.852509166666664, "is_reserved": 0, "is_disabled": 0, "fusion_lon": 0.0, "bike_id": "0efd18f2dfe101f7b9baced33866b7a8", "lon": -77.11428883333333, "rental_uris": {"ios": "https://dc.lft.to/lastmile_qr_scan", "android": "https://dc.lft.to/lastmile_qr_scan"}}, {"name": "b3b55969b5659ae7156dd650f29a5d47", "fusion_lat": 0.0, "type": "electric_scooter", "lat": 38.915679, "is_reserved": 0, "is_disabled": 0, "fusion_lon": 0.0, "bike_id": "b3b55969b5659ae7156dd650f29a5d47", "lon": -77.03203016666667, "rental_uris": {"ios": "https://dc.lft.to/lastmile_qr_scan", "android": "https://dc.lft.to/lastmile_qr_scan"}}, {"name": "341720ec9ae2b027f72b14b09325ee1d", "fusion_lat": 0.0, "type": "electric_scooter", "lat": 38.922411333333336, "is_reserved": 0, "is_disabled": 0, "fusion_lon": 0.0, "bike_id": "341720ec9ae2b027f72b14b09325ee1d", "lon": -77.0424625, "rental_uris": {"ios": "https://dc.lft.to/lastmile_qr_scan", "android": "https://dc.lft.to/lastmile_qr_scan"}}, {"name": "a1ecdb88a9b135ba0dba2924d4ad8441", "fusion_lat": 0.0, "type": "electric_scooter", "lat": 38.958798, "is_reserved": 0, "is_disabled": 0, "fusion_lon": 0.0, "bike_id": "a1ecdb88a9b135ba0dba2924d4ad8441", "lon": -77.020533, "rental_uris": {"ios": "https://dc.lft.to/lastmile_qr_scan", "android": "https://dc.lft.to/lastmile_qr_scan"}}, {"name": "ae11dfcee193458e663b70542ed350d3", "fusion_lat": 0.0, "type": "electric_scooter", "lat": 38.90964833333334, "is_reserved": 0, "is_disabled": 0, "fusion_lon": 0.0, "bike_id": "ae11dfcee193458e663b70542ed350d3", "lon": -77.04132883333334, "rental_uris": {"ios": "https://dc.lft.to/lastmile_qr_scan", "android": "https://dc.lft.to/lastmile_qr_scan"}}, {"name": "870e73e77466018ae5f04f1a81a845f0", "fusion_lat": 0.0, "type": "electric_scooter", "lat": 38.9291245, "is_reserved": 0, "is_disabled": 0, "fusion_lon": 0.0, "bike_id": "870e73e77466018ae5f04f1a81a845f0", "lon": -77.02613766666667, "rental_uris": {"ios": "https://dc.lft.to/lastmile_qr_scan", "android": "https://dc.lft.to/lastmile_qr_scan"}}, {"name": "1db8eb9b6e0615ba2c34709d3ad87e2f", "fusion_lat": 0.0, "type": "electric_scooter", "lat": 38.899756333333336, "is_reserved": 0, "is_disabled": 0, "fusion_lon": 0.0, "bike_id": "1db8eb9b6e0615ba2c34709d3ad87e2f", "lon": -77.05700166666666, "rental_uris": {"ios": "https://dc.lft.to/lastmile_qr_scan", "android": "https://dc.lft.to/lastmile_qr_scan"}}, {"name": "e335370598850e33a0cad52dd870f0d1", "fusion_lat": 0.0, "type": "electric_scooter", "lat": 38.94282466666667, "is_reserved": 0, "is_disabled": 0, "fusion_lon": 0.0, "bike_id": "e335370598850e33a0cad52dd870f0d1", "lon": -77.02507383333334, "rental_uris": {"ios": "https://dc.lft.to/lastmile_qr_scan", "android": "https://dc.lft.to/lastmile_qr_scan"}}, {"name": "e2d6acf4b21a61cdd9ce10a4ff63ce50", "fusion_lat": 0.0, "type": "electric_scooter", "lat": 38.9066375, "is_reserved": 0, "is_disabled": 0, "fusion_lon": 0.0, "bike_id": "e2d6acf4b21a61cdd9ce10a4ff63ce50", "lon": -77.03875433333333, "rental_uris": {"ios": "https://dc.lft.to/lastmile_qr_scan", "android": "https://dc.lft.to/lastmile_qr_scan"}}, {"name": "7795960830cd6625d695688d1d625f04", "fusion_lat": 0.0, "type": "electric_scooter", "lat": 38.90482266666667, "is_reserved": 0, "is_disabled": 0, "fusion_lon": 0.0, "bike_id": "7795960830cd6625d695688d1d625f04", "lon": -77.04652816666666, "rental_uris": {"ios": "https://dc.lft.to/lastmile_qr_scan", "android": "https://dc.lft.to/lastmile_qr_scan"}}, {"name": "62682ab75a817c014d32bf4858689ace", "fusion_lat": 0.0, "type": "electric_bike", "lat": 38.82881916666667, "is_reserved": 0, "is_disabled": 0, "fusion_lon": 0.0, "bike_id": "62682ab75a817c014d32bf4858689ace", "lon": -77.11226316666666, "rental_uris": {"ios": "https://dc.lft.to/lastmile_qr_scan", "android": "https://dc.lft.to/lastmile_qr_scan"}}, {"name": "afd6011c5fd50df820497712eb22cb88", "fusion_lat": 0.0, "type": "electric_scooter", "lat": 38.906447, "is_reserved": 0, "is_disabled": 0, "fusion_lon": 0.0, "bike_id": "afd6011c5fd50df820497712eb22cb88", "lon": -77.00748633333333, "rental_uris": {"ios": "https://dc.lft.to/lastmile_qr_scan", "android": "https://dc.lft.to/lastmile_qr_scan"}}, {"name": "b86f039f0c3bbaa10a64b04d9bc44728", "fusion_lat": 0.0, "type": "electric_scooter", "lat": 38.936123333333335, "is_reserved": 0, "is_disabled": 0, "fusion_lon": 0.0, "bike_id": "b86f039f0c3bbaa10a64b04d9bc44728", "lon": -77.058598, "rental_uris": {"ios": "https://dc.lft.to/lastmile_qr_scan", "android": "https://dc.lft.to/lastmile_qr_scan"}}, {"name": "f83260eabe05149c7377f34401db35c9", "fusion_lat": 0.0, "type": "electric_scooter", "lat": 38.924445666666664, "is_reserved": 0, "is_disabled": 0, "fusion_lon": 0.0, "bike_id": "f83260eabe05149c7377f34401db35c9", "lon": -77.03352283333334, "rental_uris": {"ios": "https://dc.lft.to/lastmile_qr_scan", "android": "https://dc.lft.to/lastmile_qr_scan"}}, {"name": "db385c7a4c902e43bd5c6e05228deda2", "fusion_lat": 0.0, "type": "electric_scooter", "lat": 38.9016115, "is_reserved": 0, "is_disabled": 0, "fusion_lon": 0.0, "bike_id": "db385c7a4c902e43bd5c6e05228deda2", "lon": -77.02180233333333, "rental_uris": {"ios": "https://dc.lft.to/lastmile_qr_scan", "android": "https://dc.lft.to/lastmile_qr_scan"}}, {"name": "26efabae0a7b905dbfc1b304fdf10788", "fusion_lat": 0.0, "type": "electric_scooter", "lat": 38.8841475, "is_reserved": 0, "is_disabled": 0, "fusion_lon": 0.0, "bike_id": "26efabae0a7b905dbfc1b304fdf10788", "lon": -77.0153275, "rental_uris": {"ios": "https://dc.lft.to/lastmile_qr_scan", "android": "https://dc.lft.to/lastmile_qr_scan"}}, {"name": "0cfded8f6f1339ee919a146c35b30c56", "fusion_lat": 0.0, "type": "electric_bike", "lat": 38.990934833333334, "is_reserved": 0, "is_disabled": 0, "fusion_lon": 0.0, "bike_id": "0cfded8f6f1339ee919a146c35b30c56", "lon": -76.87494983333333, "rental_uris": {"ios": "https://dc.lft.to/lastmile_qr_scan", "android": "https://dc.lft.to/lastmile_qr_scan"}}, {"name": "99f8b2c627d6a42980938e17a7a5d191", "fusion_lat": 0.0, "type": "electric_scooter", "lat": 38.91752683333333, "is_reserved": 0, "is_disabled": 0, "fusion_lon": 0.0, "bike_id": "99f8b2c627d6a42980938e17a7a5d191", "lon": -77.022912, "rental_uris": {"ios": "https://dc.lft.to/lastmile_qr_scan", "android": "https://dc.lft.to/lastmile_qr_scan"}}, {"name": "1e343c3b1b648c92667cd434648910a9", "fusion_lat": 0.0, "type": "electric_scooter", "lat": 38.91414566666667, "is_reserved": 0, "is_disabled": 0, "fusion_lon": 0.0, "bike_id": "1e343c3b1b648c92667cd434648910a9", "lon": -77.04000566666667, "rental_uris": {"ios": "https://dc.lft.to/lastmile_qr_scan", "android": "https://dc.lft.to/lastmile_qr_scan"}}, {"name": "5350dd307fe6618e59a98d0eed81b3bd", "fusion_lat": 0.0, "type": "electric_scooter", "lat": 38.909750833333334, "is_reserved": 0, "is_disabled": 0, "fusion_lon": 0.0, "bike_id": "5350dd307fe6618e59a98d0eed81b3bd", "lon": -77.02183233333334, "rental_uris": {"ios": "https://dc.lft.to/lastmile_qr_scan", "android": "https://dc.lft.to/lastmile_qr_scan"}}, {"name": "4f902e68867c38a6de232933a1331672", "fusion_lat": 0.0, "type": "electric_scooter", "lat": 38.91351083333333, "is_reserved": 0, "is_disabled": 0, "fusion_lon": 0.0, "bike_id": "4f902e68867c38a6de232933a1331672", "lon": -77.0034885, "rental_uris": {"ios": "https://dc.lft.to/lastmile_qr_scan", "android": "https://dc.lft.to/lastmile_qr_scan"}}, {"name": "bcebad95d45cfdbfb5eaf3013229b3bf", "fusion_lat": 0.0, "type": "electric_scooter", "lat": 38.900298166666666, "is_reserved": 0, "is_disabled": 0, "fusion_lon": 0.0, "bike_id": "bcebad95d45cfdbfb5eaf3013229b3bf", "lon": -76.9884935, "rental_uris": {"ios": "https://dc.lft.to/lastmile_qr_scan", "android": "https://dc.lft.to/lastmile_qr_scan"}}, {"name": "e76bddacc038f7f56f9216140b3f168a", "fusion_lat": 0.0, "type": "electric_scooter", "lat": 38.92461466666666, "is_reserved": 0, "is_disabled": 0, "fusion_lon": 0.0, "bike_id": "e76bddacc038f7f56f9216140b3f168a", "lon": -77.032796, "rental_uris": {"ios": "https://dc.lft.to/lastmile_qr_scan", "android": "https://dc.lft.to/lastmile_qr_scan"}}, {"name": "162b86a8214350cfa0a829feb0451f27", "fusion_lat": 0.0, "type": "electric_scooter", "lat": 38.908674, "is_reserved": 0, "is_disabled": 0, "fusion_lon": 0.0, "bike_id": "162b86a8214350cfa0a829feb0451f27", "lon": -77.08595733333334, "rental_uris": {"ios": "https://dc.lft.to/lastmile_qr_scan", "android": "https://dc.lft.to/lastmile_qr_scan"}}, {"name": "c31fba1085944da51a84a7e30229beaf", "fusion_lat": 0.0, "type": "electric_scooter", "lat": 38.935611, "is_reserved": 0, "is_disabled": 0, "fusion_lon": 0.0, "bike_id": "c31fba1085944da51a84a7e30229beaf", "lon": -77.02364833333333, "rental_uris": {"ios": "https://dc.lft.to/lastmile_qr_scan", "android": "https://dc.lft.to/lastmile_qr_scan"}}, {"name": "09f33c6f39fb3b68876c4f9fac486323", "fusion_lat": 0.0, "type": "electric_scooter", "lat": 38.938939166666664, "is_reserved": 0, "is_disabled": 0, "fusion_lon": 0.0, "bike_id": "09f33c6f39fb3b68876c4f9fac486323", "lon": -77.02466683333333, "rental_uris": {"ios": "https://dc.lft.to/lastmile_qr_scan", "android": "https://dc.lft.to/lastmile_qr_scan"}}, {"name": "be02d0aaf3937a2c9afab48dfe7172a9", "fusion_lat": 0.0, "type": "electric_scooter", "lat": 38.93616733333333, "is_reserved": 0, "is_disabled": 0, "fusion_lon": 0.0, "bike_id": "be02d0aaf3937a2c9afab48dfe7172a9", "lon": -77.055858, "rental_uris": {"ios": "https://dc.lft.to/lastmile_qr_scan", "android": "https://dc.lft.to/lastmile_qr_scan"}}, {"name": "ae039548709462e5612f15f912225664", "fusion_lat": 0.0, "type": "electric_scooter", "lat": 38.918151333333334, "is_reserved": 0, "is_disabled": 0, "fusion_lon": 0.0, "bike_id": "ae039548709462e5612f15f912225664", "lon": -77.03556733333333, "rental_uris": {"ios": "https://dc.lft.to/lastmile_qr_scan", "android": "https://dc.lft.to/lastmile_qr_scan"}}, {"name": "d89147d32343cf543ea3a6e0ff0d1997", "fusion_lat": 0.0, "type": "electric_scooter", "lat": 38.8836775, "is_reserved": 0, "is_disabled": 0, "fusion_lon": 0.0, "bike_id": "d89147d32343cf543ea3a6e0ff0d1997", "lon": -77.03182966666667, "rental_uris": {"ios": "https://dc.lft.to/lastmile_qr_scan", "android": "https://dc.lft.to/lastmile_qr_scan"}}, {"name": "29ba5834a1a019491775f84506620c18", "fusion_lat": 0.0, "type": "electric_scooter", "lat": 38.936857833333335, "is_reserved": 0, "is_disabled": 0, "fusion_lon": 0.0, "bike_id": "29ba5834a1a019491775f84506620c18", "lon": -77.03163383333333, "rental_uris": {"ios": "https://dc.lft.to/lastmile_qr_scan", "android": "https://dc.lft.to/lastmile_qr_scan"}}, {"name": "6a1ad46cf606cd9b1d51da67e511c693", "fusion_lat": 0.0, "type": "electric_scooter", "lat": 38.900344, "is_reserved": 0, "is_disabled": 0, "fusion_lon": 0.0, "bike_id": "6a1ad46cf606cd9b1d51da67e511c693", "lon": -77.002227, "rental_uris": {"ios": "https://dc.lft.to/lastmile_qr_scan", "android": "https://dc.lft.to/lastmile_qr_scan"}}, {"name": "b05b68b6e644d5e124fcc14f24a489e1", "fusion_lat": 0.0, "type": "electric_scooter", "lat": 38.899876166666665, "is_reserved": 0, "is_disabled": 0, "fusion_lon": 0.0, "bike_id": "b05b68b6e644d5e124fcc14f24a489e1", "lon": -77.01608833333333, "rental_uris": {"ios": "https://dc.lft.to/lastmile_qr_scan", "android": "https://dc.lft.to/lastmile_qr_scan"}}, {"name": "f12069e2488af89f128bfe3c318eb71e", "fusion_lat": 0.0, "type": "electric_scooter", "lat": 38.89236616666667, "is_reserved": 0, "is_disabled": 0, "fusion_lon": 0.0, "bike_id": "f12069e2488af89f128bfe3c318eb71e", "lon": -77.05004, "rental_uris": {"ios": "https://dc.lft.to/lastmile_qr_scan", "android": "https://dc.lft.to/lastmile_qr_scan"}}, {"name": "e85b33adbc1aae46941c3bbe2c1952a2", "fusion_lat": 0.0, "type": "electric_scooter", "lat": 38.912595333333336, "is_reserved": 0, "is_disabled": 0, "fusion_lon": 0.0, "bike_id": "e85b33adbc1aae46941c3bbe2c1952a2", "lon": -77.00958233333333, "rental_uris": {"ios": "https://dc.lft.to/lastmile_qr_scan", "android": "https://dc.lft.to/lastmile_qr_scan"}}, {"name": "edc051f9fbf9e074a5c917e1840c36af", "fusion_lat": 0.0, "type": "electric_bike", "lat": 38.96628066666667, "is_reserved": 0, "is_disabled": 0, "fusion_lon": 0.0, "bike_id": "edc051f9fbf9e074a5c917e1840c36af", "lon": -76.97671333333334, "rental_uris": {"ios": "https://dc.lft.to/lastmile_qr_scan", "android": "https://dc.lft.to/lastmile_qr_scan"}}, {"name": "17489fc1d0d0b699ef785674031a00bf", "fusion_lat": 0.0, "type": "electric_scooter", "lat": 38.9329875, "is_reserved": 0, "is_disabled": 0, "fusion_lon": 0.0, "bike_id": "17489fc1d0d0b699ef785674031a00bf", "lon": -77.02799716666667, "rental_uris": {"ios": "https://dc.lft.to/lastmile_qr_scan", "android": "https://dc.lft.to/lastmile_qr_scan"}}, {"name": "90c81cacdbdb3fd2b91281c45249c2c1", "fusion_lat": 0.0, "type": "electric_scooter", "lat": 38.90746683333333, "is_reserved": 0, "is_disabled": 0, "fusion_lon": 0.0, "bike_id": "90c81cacdbdb3fd2b91281c45249c2c1", "lon": -77.0319575, "rental_uris": {"ios": "https://dc.lft.to/lastmile_qr_scan", "android": "https://dc.lft.to/lastmile_qr_scan"}}, {"name": "49e9a037292fd26bce15ade5d3a2f1fa", "fusion_lat": 0.0, "type": "electric_scooter", "lat": 38.935345833333336, "is_reserved": 0, "is_disabled": 0, "fusion_lon": 0.0, "bike_id": "49e9a037292fd26bce15ade5d3a2f1fa", "lon": -77.02854966666666, "rental_uris": {"ios": "https://dc.lft.to/lastmile_qr_scan", "android": "https://dc.lft.to/lastmile_qr_scan"}}, {"name": "332eac65a80853cbe0e1327da0d121f6", "fusion_lat": 0.0, "type": "electric_bike", "lat": 38.8944335, "is_reserved": 0, "is_disabled": 0, "fusion_lon": 0.0, "bike_id": "332eac65a80853cbe0e1327da0d121f6", "lon": -76.98344516666667, "rental_uris": {"ios": "https://dc.lft.to/lastmile_qr_scan", "android": "https://dc.lft.to/lastmile_qr_scan"}}, {"name": "2b92629f50ebbb63995e4f2138ac565a", "fusion_lat": 0.0, "type": "electric_scooter", "lat": 38.91709266666667, "is_reserved": 0, "is_disabled": 0, "fusion_lon": 0.0, "bike_id": "2b92629f50ebbb63995e4f2138ac565a", "lon": -77.04173866666666, "rental_uris": {"ios": "https://dc.lft.to/lastmile_qr_scan", "android": "https://dc.lft.to/lastmile_qr_scan"}}, {"name": "d5747265389858e663c3281321cae036", "fusion_lat": 0.0, "type": "electric_scooter", "lat": 38.90450933333334, "is_reserved": 0, "is_disabled": 0, "fusion_lon": 0.0, "bike_id": "d5747265389858e663c3281321cae036", "lon": -77.02854533333333, "rental_uris": {"ios": "https://dc.lft.to/lastmile_qr_scan", "android": "https://dc.lft.to/lastmile_qr_scan"}}, {"name": "edc7ebc0dd194c1116fd8e95a5b2f3d4", "fusion_lat": 0.0, "type": "electric_scooter", "lat": 38.9081755, "is_reserved": 0, "is_disabled": 0, "fusion_lon": 0.0, "bike_id": "edc7ebc0dd194c1116fd8e95a5b2f3d4", "lon": -77.03943483333333, "rental_uris": {"ios": "https://dc.lft.to/lastmile_qr_scan", "android": "https://dc.lft.to/lastmile_qr_scan"}}, {"name": "2c1f2335f8658d20d29742a29cdc58df", "fusion_lat": 0.0, "type": "electric_scooter", "lat": 38.9039815, "is_reserved": 0, "is_disabled": 0, "fusion_lon": 0.0, "bike_id": "2c1f2335f8658d20d29742a29cdc58df", "lon": -77.00695383333333, "rental_uris": {"ios": "https://dc.lft.to/lastmile_qr_scan", "android": "https://dc.lft.to/lastmile_qr_scan"}}, {"name": "7c48d302e57a218a96bc00a7df700980", "fusion_lat": 0.0, "type": "electric_scooter", "lat": 38.975078833333335, "is_reserved": 0, "is_disabled": 0, "fusion_lon": 0.0, "bike_id": "7c48d302e57a218a96bc00a7df700980", "lon": -77.0169735, "rental_uris": {"ios": "https://dc.lft.to/lastmile_qr_scan", "android": "https://dc.lft.to/lastmile_qr_scan"}}, {"name": "30815ae9227b71da29b5526513e4d496", "fusion_lat": 0.0, "type": "electric_scooter", "lat": 38.90006, "is_reserved": 0, "is_disabled": 0, "fusion_lon": 0.0, "bike_id": "30815ae9227b71da29b5526513e4d496", "lon": -77.05338483333334, "rental_uris": {"ios": "https://dc.lft.to/lastmile_qr_scan", "android": "https://dc.lft.to/lastmile_qr_scan"}}, {"name": "5e932bce5ea1638e1b5400b9e750435a", "fusion_lat": 0.0, "type": "electric_bike", "lat": 38.953339666666665, "is_reserved": 0, "is_disabled": 0, "fusion_lon": 0.0, "bike_id": "5e932bce5ea1638e1b5400b9e750435a", "lon": -76.9783335, "rental_uris": {"ios": "https://dc.lft.to/lastmile_qr_scan", "android": "https://dc.lft.to/lastmile_qr_scan"}}, {"name": "e31347919e1bb1be0fde7a9b77111dfd", "fusion_lat": 0.0, "type": "electric_scooter", "lat": 38.928261166666665, "is_reserved": 0, "is_disabled": 0, "fusion_lon": 0.0, "bike_id": "e31347919e1bb1be0fde7a9b77111dfd", "lon": -77.02257266666666, "rental_uris": {"ios": "https://dc.lft.to/lastmile_qr_scan", "android": "https://dc.lft.to/lastmile_qr_scan"}}, {"name": "1975bbd4b69208f818da48585e435663", "fusion_lat": 0.0, "type": "electric_scooter", "lat": 38.90560683333333, "is_reserved": 0, "is_disabled": 0, "fusion_lon": 0.0, "bike_id": "1975bbd4b69208f818da48585e435663", "lon": -77.059203, "rental_uris": {"ios": "https://dc.lft.to/lastmile_qr_scan", "android": "https://dc.lft.to/lastmile_qr_scan"}}, {"name": "27755d3c5184570090831a3fc30ac2a8", "fusion_lat": 0.0, "type": "electric_scooter", "lat": 38.926652833333335, "is_reserved": 0, "is_disabled": 0, "fusion_lon": 0.0, "bike_id": "27755d3c5184570090831a3fc30ac2a8", "lon": -77.03728266666667, "rental_uris": {"ios": "https://dc.lft.to/lastmile_qr_scan", "android": "https://dc.lft.to/lastmile_qr_scan"}}, {"name": "acfd31bda5eabbedcf327033d76b7287", "fusion_lat": 0.0, "type": "electric_scooter", "lat": 38.869627, "is_reserved": 0, "is_disabled": 0, "fusion_lon": 0.0, "bike_id": "acfd31bda5eabbedcf327033d76b7287", "lon": -77.013741, "rental_uris": {"ios": "https://dc.lft.to/lastmile_qr_scan", "android": "https://dc.lft.to/lastmile_qr_scan"}}, {"name": "01f9819fe92014b62eabb08bd2aaab72", "fusion_lat": 0.0, "type": "electric_scooter", "lat": 38.90146416666666, "is_reserved": 0, "is_disabled": 0, "fusion_lon": 0.0, "bike_id": "01f9819fe92014b62eabb08bd2aaab72", "lon": -77.00056566666666, "rental_uris": {"ios": "https://dc.lft.to/lastmile_qr_scan", "android": "https://dc.lft.to/lastmile_qr_scan"}}, {"name": "2bc27c0e44094e7896dfa2feb6176052", "fusion_lat": 0.0, "type": "electric_bike", "lat": 38.87769516666667, "is_reserved": 0, "is_disabled": 0, "fusion_lon": 0.0, "bike_id": "2bc27c0e44094e7896dfa2feb6176052", "lon": -76.9798715, "rental_uris": {"ios": "https://dc.lft.to/lastmile_qr_scan", "android": "https://dc.lft.to/lastmile_qr_scan"}}, {"name": "d65219003ece45e2d3c7c32a745daae8", "fusion_lat": 0.0, "type": "electric_scooter", "lat": 38.91055433333333, "is_reserved": 0, "is_disabled": 0, "fusion_lon": 0.0, "bike_id": "d65219003ece45e2d3c7c32a745daae8", "lon": -77.022081, "rental_uris": {"ios": "https://dc.lft.to/lastmile_qr_scan", "android": "https://dc.lft.to/lastmile_qr_scan"}}, {"name": "72c736d177294a69122f0db43c499ce7", "fusion_lat": 0.0, "type": "electric_scooter", "lat": 38.912366, "is_reserved": 0, "is_disabled": 0, "fusion_lon": 0.0, "bike_id": "72c736d177294a69122f0db43c499ce7", "lon": -77.04875033333333, "rental_uris": {"ios": "https://dc.lft.to/lastmile_qr_scan", "android": "https://dc.lft.to/lastmile_qr_scan"}}, {"name": "1acd416aaa218e56f008f8c44959e21a", "fusion_lat": 0.0, "type": "electric_scooter", "lat": 38.91816633333333, "is_reserved": 0, "is_disabled": 0, "fusion_lon": 0.0, "bike_id": "1acd416aaa218e56f008f8c44959e21a", "lon": -77.03453416666666, "rental_uris": {"ios": "https://dc.lft.to/lastmile_qr_scan", "android": "https://dc.lft.to/lastmile_qr_scan"}}, {"name": "d16aad21ea07155ad0bb74c48852d1eb", "fusion_lat": 0.0, "type": "electric_scooter", "lat": 38.895544666666666, "is_reserved": 0, "is_disabled": 0, "fusion_lon": 0.0, "bike_id": "d16aad21ea07155ad0bb74c48852d1eb", "lon": -76.94879983333334, "rental_uris": {"ios": "https://dc.lft.to/lastmile_qr_scan", "android": "https://dc.lft.to/lastmile_qr_scan"}}, {"name": "573859891a4ff417e73b7b08f2b6e64b", "fusion_lat": 0.0, "type": "electric_bike", "lat": 38.93953583333333, "is_reserved": 0, "is_disabled": 0, "fusion_lon": 0.0, "bike_id": "573859891a4ff417e73b7b08f2b6e64b", "lon": -77.360994, "rental_uris": {"ios": "https://dc.lft.to/lastmile_qr_scan", "android": "https://dc.lft.to/lastmile_qr_scan"}}, {"name": "2b11cbc1903f9dbae9f4f2b7efd272a0", "fusion_lat": 0.0, "type": "electric_scooter", "lat": 38.909697666666666, "is_reserved": 0, "is_disabled": 0, "fusion_lon": 0.0, "bike_id": "2b11cbc1903f9dbae9f4f2b7efd272a0", "lon": -77.01117266666667, "rental_uris": {"ios": "https://dc.lft.to/lastmile_qr_scan", "android": "https://dc.lft.to/lastmile_qr_scan"}}, {"name": "1e2c37e9f458b1d1d9fe053907376f09", "fusion_lat": 0.0, "type": "electric_bike", "lat": 38.959311166666666, "is_reserved": 0, "is_disabled": 0, "fusion_lon": 0.0, "bike_id": "1e2c37e9f458b1d1d9fe053907376f09", "lon": -76.92539266666667, "rental_uris": {"ios": "https://dc.lft.to/lastmile_qr_scan", "android": "https://dc.lft.to/lastmile_qr_scan"}}, {"name": "e8e4ca0ae5909c019397d0941ef8bbd6", "fusion_lat": 0.0, "type": "electric_scooter", "lat": 38.90032583333333, "is_reserved": 0, "is_disabled": 0, "fusion_lon": 0.0, "bike_id": "e8e4ca0ae5909c019397d0941ef8bbd6", "lon": -77.033408, "rental_uris": {"ios": "https://dc.lft.to/lastmile_qr_scan", "android": "https://dc.lft.to/lastmile_qr_scan"}}, {"name": "d7bd64be9c3aa006d36f717e53788a4d", "fusion_lat": 0.0, "type": "electric_scooter", "lat": 38.90334083333333, "is_reserved": 0, "is_disabled": 0, "fusion_lon": 0.0, "bike_id": "d7bd64be9c3aa006d36f717e53788a4d", "lon": -77.02901883333334, "rental_uris": {"ios": "https://dc.lft.to/lastmile_qr_scan", "android": "https://dc.lft.to/lastmile_qr_scan"}}, {"name": "800cddc0401459ec3fdb0326ce4b351c", "fusion_lat": 0.0, "type": "electric_scooter", "lat": 38.90162383333333, "is_reserved": 0, "is_disabled": 0, "fusion_lon": 0.0, "bike_id": "800cddc0401459ec3fdb0326ce4b351c", "lon": -77.028901, "rental_uris": {"ios": "https://dc.lft.to/lastmile_qr_scan", "android": "https://dc.lft.to/lastmile_qr_scan"}}, {"name": "71a6636ffa41fbdd247173cfe2e40576", "fusion_lat": 0.0, "type": "electric_scooter", "lat": 38.901385833333336, "is_reserved": 0, "is_disabled": 0, "fusion_lon": 0.0, "bike_id": "71a6636ffa41fbdd247173cfe2e40576", "lon": -77.030549, "rental_uris": {"ios": "https://dc.lft.to/lastmile_qr_scan", "android": "https://dc.lft.to/lastmile_qr_scan"}}, {"name": "a45a59aa9cff45ee0ba1d4a72253b009", "fusion_lat": 0.0, "type": "electric_bike", "lat": 38.936800166666664, "is_reserved": 0, "is_disabled": 0, "fusion_lon": 0.0, "bike_id": "a45a59aa9cff45ee0ba1d4a72253b009", "lon": -76.9520965, "rental_uris": {"ios": "https://dc.lft.to/lastmile_qr_scan", "android": "https://dc.lft.to/lastmile_qr_scan"}}, {"name": "d080ef0a33ad4e6596eb6af8a834c0ea", "fusion_lat": 0.0, "type": "electric_scooter", "lat": 38.917115, "is_reserved": 0, "is_disabled": 0, "fusion_lon": 0.0, "bike_id": "d080ef0a33ad4e6596eb6af8a834c0ea", "lon": -77.04682233333334, "rental_uris": {"ios": "https://dc.lft.to/lastmile_qr_scan", "android": "https://dc.lft.to/lastmile_qr_scan"}}, {"name": "7ae13be00635135b0f29b23d8b624f34", "fusion_lat": 0.0, "type": "electric_scooter", "lat": 38.8835885, "is_reserved": 0, "is_disabled": 0, "fusion_lon": 0.0, "bike_id": "7ae13be00635135b0f29b23d8b624f34", "lon": -76.98539033333333, "rental_uris": {"ios": "https://dc.lft.to/lastmile_qr_scan", "android": "https://dc.lft.to/lastmile_qr_scan"}}, {"name": "fb8e3a9514b66f3e8449beb07a1e27ed", "fusion_lat": 0.0, "type": "electric_scooter", "lat": 38.92036016666667, "is_reserved": 0, "is_disabled": 0, "fusion_lon": 0.0, "bike_id": "fb8e3a9514b66f3e8449beb07a1e27ed", "lon": -77.03120883333334, "rental_uris": {"ios": "https://dc.lft.to/lastmile_qr_scan", "android": "https://dc.lft.to/lastmile_qr_scan"}}, {"name": "f1c137c406c13100c161058c82e1527c", "fusion_lat": 0.0, "type": "electric_scooter", "lat": 38.894214833333336, "is_reserved": 0, "is_disabled": 0, "fusion_lon": 0.0, "bike_id": "f1c137c406c13100c161058c82e1527c", "lon": -76.93969266666667, "rental_uris": {"ios": "https://dc.lft.to/lastmile_qr_scan", "android": "https://dc.lft.to/lastmile_qr_scan"}}, {"name": "f5364321bbbb5464b8ae05c20e061863", "fusion_lat": 0.0, "type": "electric_scooter", "lat": 38.9259455, "is_reserved": 0, "is_disabled": 0, "fusion_lon": 0.0, "bike_id": "f5364321bbbb5464b8ae05c20e061863", "lon": -77.02963483333333, "rental_uris": {"ios": "https://dc.lft.to/lastmile_qr_scan", "android": "https://dc.lft.to/lastmile_qr_scan"}}, {"name": "de1f0c9a5f378eb37dad4a320c8074c0", "fusion_lat": 0.0, "type": "electric_scooter", "lat": 38.858044, "is_reserved": 0, "is_disabled": 0, "fusion_lon": 0.0, "bike_id": "de1f0c9a5f378eb37dad4a320c8074c0", "lon": -76.986492, "rental_uris": {"ios": "https://dc.lft.to/lastmile_qr_scan", "android": "https://dc.lft.to/lastmile_qr_scan"}},