{"data": {"bikes": [{"fusion_lon": 0.0, "lat": 38.8458535, "lon": -76.96981833333334, "bike_id": "d60978b100c967bceb3f230f4f536d44", "rental_uris": {"android": "https://dc.lft.to/lastmile_qr_scan", "ios": "https://dc.lft.to/lastmile_qr_scan"}, "fusion_lat": 0.0, "name": "d60978b100c967bceb3f230f4f536d44", "is_reserved": 0, "is_disabled": 0, "type": "electric_bike"}, {"fusion_lon": 0.0, "lat": 38.90514916666667, "lon": -77.0447555, "bike_id": "ad0edba780d3973b3ae30151f700d7f4", "rental_uris": {"android": "https://dc.lft.to/lastmile_qr_scan", "ios": "https://dc.lft.to/lastmile_qr_scan"}, "fusion_lat": 0.0, "name": "ad0edba780d3973b3ae30151f700d7f4", "is_reserved": 0, "is_disabled": 0, "type": "electric_scooter"}, {"fusion_lon": 0.0, "lat": 38.92394933333333, "lon": -77.02702633333334, "bike_id": "26f55e39a663057c653b25671c4303e9", "rental_uris": {"android": "https://dc.lft.to/lastmile_qr_scan", "ios": "https://dc.lft.to/lastmile_qr_scan"}, "fusion_lat": 0.0, "name": "26f55e39a663057c653b25671c4303e9", "is_reserved": 0, "is_disabled": 0, "type": "electric_scooter"}, {"fusion_lon": 0.0, "lat": 38.880229666666665, "lon": -77.02325416666666, "bike_id": "d0a5abbe49ce48cabd37da6ec87bd62e", "rental_uris": {"android": "https://dc.lft.to/lastmile_qr_scan", "ios": "https://dc.lft.to/lastmile_qr_scan"}, "fusion_lat": 0.0, "name": "d0a5abbe49ce48cabd37da6ec87bd62e", "is_reserved": 0, "is_disabled": 0, "type": "electric_scooter"}, {"fusion_lon": 0.0, "lat": 38.89634066666667, "lon": -77.0400085, "bike_id": "4c9a9ccb940ecc29450dfa199a440820", "rental_uris": {"android": "https://dc.lft.to/lastmile_qr_scan", "ios": "https://dc.lft.to/lastmile_qr_scan"}, "fusion_lat": 0.0, "name": "4c9a9ccb940ecc29450dfa199a440820", "is_reserved": 0, "is_disabled": 0, "type": "electric_scooter"}, {"fusion_lon": 0.0, "lat": 38.919449166666666, "lon": -77.01392616666666, "bike_id": "23b90b1cde2ce83fbc6042e8d7b4c3fb", "rental_uris": {"android": "https://dc.lft.to/lastmile_qr_scan", "ios": "https://dc.lft.to/lastmile_qr_scan"}, "fusion_lat": 0.0, "name": "23b90b1cde2ce83fbc6042e8d7b4c3fb", "is_reserved": 0, "is_disabled": 0, "type": "electric_scooter"}, {"fusion_lon": 0.0, "lat": 38.934558333333335, "lon": -76.96446833333333, "bike_id": "bf48ae7b465e5f530fe40e2d684be3a0", "rental_uris": {"android": "https://dc.lft.to/lastmile_qr_scan", "ios": "https://dc.lft.to/lastmile_qr_scan"}, "fusion_lat": 0.0, "name": "bf48ae7b465e5f530fe40e2d684be3a0", "is_reserved": 0, "is_disabled": 0, "type": "electric_scooter"}, {"fusion_lon": 0.0, "lat": 38.9025185, "lon": -76.9848025, "bike_id": "e64123b88812c45e32de4a94a16672ba", "rental_uris": {"android": "https://dc.lft.to/lastmile_qr_scan", "ios": "https://dc.lft.to/lastmile_qr_scan"}, "fusion_lat": 0.0, "name": "e64123b88812c45e32de4a94a16672ba", "is_reserved": 0, "is_disabled": 0, "type": "electric_scooter"}, {"fusion_lon": 0.0, "lat": 38.90566966666667, "lon": -77.0297715, "bike_id": "e66dc46e8bb97c8a4100b1e5c3591fbb", "rental_uris": {"android": "https://dc.lft.to/lastmile_qr_scan", "ios": "https://dc.lft.to/lastmile_qr_scan"}, "fusion_lat": 0.0, "name": "e66dc46e8bb97c8a4100b1e5c3591fbb", "is_reserved": 0, "is_disabled": 0, "type": "electric_scooter"}, {"fusion_lon": 0.0, "lat": 38.878622, "lon": -76.99663033333333, "bike_id": "27146630f2a521d10f747c94b16053e7", "rental_uris": {"android": "https://dc.lft.to/lastmile_qr_scan", "ios": "https://dc.lft.to/lastmile_qr_scan"}, "fusion_lat": 0.0, "name": "27146630f2a521d10f747c94b16053e7", "is_reserved": 0, "is_disabled": 0, "type": "electric_scooter"}, {"fusion_lon": 0.0, "lat": 38.90409416666667, "lon": -76.9733295, "bike_id": "3157e2ac6c0bd3c4dad1f0d4dd1a7584", "rental_uris": {"android": "https://dc.lft.to/lastmile_qr_scan", "ios": "https://dc.lft.to/lastmile_qr_scan"}, "fusion_lat": 0.0, "name": "3157e2ac6c0bd3c4dad1f0d4dd1a7584", "is_reserved": 0, "is_disabled": 0, "type": "electric_scooter"}, {"fusion_lon": 0.0, "lat": 38.85445883333333, "lon": -76.98608666666667, "bike_id": "c9ea01fde0bc5f655a7aebc764f6a916", "rental_uris": {"android": "https://dc.lft.to/lastmile_qr_scan", "ios": "https://dc.lft.to/lastmile_qr_scan"}, "fusion_lat": 0.0, "name": "c9ea01fde0bc5f655a7aebc764f6a916", "is_reserved": 0, "is_disabled": 0, "type": "electric_bike"}, {"fusion_lon": 0.0, "lat": 38.923781166666664, "lon": -77.03549583333333, "bike_id": "48d4b911b850f390962a2b3e857f312c", "rental_uris": {"android": "https://dc.lft.to/lastmile_qr_scan", "ios": "https://dc.lft.to/lastmile_qr_scan"}, "fusion_lat": 0.0, "name": "48d4b911b850f390962a2b3e857f312c", "is_reserved": 0, "is_disabled": 0, "type": "electric_scooter"}, {"fusion_lon": 0.0, "lat": 38.895012, "lon": -77.046843, "bike_id": "8274a79ade9c6e03f247c01e53d34571", "rental_uris": {"android": "https://dc.lft.to/lastmile_qr_scan", "ios": "https://dc.lft.to/lastmile_qr_scan"}, "fusion_lat": 0.0, "name": "8274a79ade9c6e03f247c01e53d34571", "is_reserved": 0, "is_disabled": 0, "type": "electric_scooter"}, {"fusion_lon": 0.0, "lat": 38.903878166666665, "lon": -76.9737245, "bike_id": "cea6cefc97c8442cc1bec61d110eea7e", "rental_uris": {"android": "https://dc.lft.to/lastmile_qr_scan", "ios": "https://dc.lft.to/lastmile_qr_scan"}, "fusion_lat": 0.0, "name": "cea6cefc97c8442cc1bec61d110eea7e", "is_reserved": 0, "is_disabled": 0, "type": "electric_scooter"}, {"fusion_lon": 0.0, "lat": 38.89444783333333, "lon": -77.02674366666666, "bike_id": "68d0f44351c249e0c7dce6ff69c73d71", "rental_uris": {"android": "https://dc.lft.to/lastmile_qr_scan", "ios": "https://dc.lft.to/lastmile_qr_scan"}, "fusion_lat": 0.0, "name": "68d0f44351c249e0c7dce6ff69c73d71", "is_reserved": 0, "is_disabled": 0, "type": "electric_scooter"}, {"fusion_lon": 0.0, "lat": 38.87682483333333, "lon": -77.01762416666666, "bike_id": "ea461754463359e5114440123d6db48e", "rental_uris": {"android": "https://dc.lft.to/lastmile_qr_scan", "ios": "https://dc.lft.to/lastmile_qr_scan"}, "fusion_lat": 0.0, "name": "ea461754463359e5114440123d6db48e", "is_reserved": 0, "is_disabled": 0, "type": "electric_scooter"}, {"fusion_lon": 0.0, "lat": 38.93110266666667, "lon": -77.03510233333333, "bike_id": "1184df98ed8b9a67f0d0ab0fdd5aa959", "rental_uris": {"android": "https://dc.lft.to/lastmile_qr_scan", "ios": "https://dc.lft.to/lastmile_qr_scan"}, "fusion_lat": 0.0, "name": "1184df98ed8b9a67f0d0ab0fdd5aa959", "is_reserved": 0, "is_disabled": 0, "type": "electric_scooter"}, {"fusion_lon": 0.0, "lat": 38.800530333333334, "lon": -77.12838866666667, "bike_id": "04a2643d8ee0ce1eb82b7f3a49ff1c6d", "rental_uris": {"android": "https://dc.lft.to/lastmile_qr_scan", "ios": "https://dc.lft.to/lastmile_qr_scan"}, "fusion_lat": 0.0, "name": "04a2643d8ee0ce1eb82b7f3a49ff1c6d", "is_reserved": 0, "is_disabled": 0, "type": "electric_bike"}, {"fusion_lon": 0.0, "lat": 38.89418716666667, "lon": -76.99775700000001, "bike_id": "48940915b30ae1c79b3f46b259ed4a71", "rental_uris": {"android": "https://dc.lft.to/lastmile_qr_scan", "ios": "https://dc.lft.to/lastmile_qr_scan"}, "fusion_lat": 0.0, "name": "48940915b30ae1c79b3f46b259ed4a71", "is_reserved": 0, "is_disabled": 0, "type": "electric_scooter"}, {"fusion_lon": 0.0, "lat": 38.9234085, "lon": -77.05016433333333, "bike_id": "083841eeb19b0abc5d9b1a69dca50a66", "rental_uris": {"android": "https://dc.lft.to/lastmile_qr_scan", "ios": "https://dc.lft.to/lastmile_qr_scan"}, "fusion_lat": 0.0, "name": "083841eeb19b0abc5d9b1a69dca50a66", "is_reserved": 0, "is_disabled": 0, "type": "electric_scooter"}, {"fusion_lon": 0.0, "lat": 38.898378666666666, "lon": -77.03042133333334, "bike_id": "97b9953685404a71e18540a964cd3267", "rental_uris": {"android": "https://dc.lft.to/lastmile_qr_scan", "ios": "https://dc.lft.to/lastmile_qr_scan"}, "fusion_lat": 0.0, "name": "97b9953685404a71e18540a964cd3267", "is_reserved": 0, "is_disabled": 0, "type": "electric_bike"}, {"fusion_lon": 0.0, "lat": 38.905560333333334, "lon": -77.034277, "bike_id": "08bfe591e4267f28b0b2757526aa84f1", "rental_uris": {"android": "https://dc.lft.to/lastmile_qr_scan", "ios": "https://dc.lft.to/lastmile_qr_scan"}, "fusion_lat": 0.0, "name": "08bfe591e4267f28b0b2757526aa84f1", "is_reserved": 0, "is_disabled": 0, "type": "electric_scooter"}, {"fusion_lon": 0.0, "lat": 38.892163833333335, "lon": -77.04474533333334, "bike_id": "017d3baacc2f900df95ac7a7ef51d65f", "rental_uris": {"android": "https://dc.lft.to/lastmile_qr_scan", "ios": "https://dc.lft.to/lastmile_qr_scan"}, "fusion_lat": 0.0, "name": "017d3baacc2f900df95ac7a7ef51d65f", "is_reserved": 0, "is_disabled": 0, "type": "electric_scooter"}, {"fusion_lon": 0.0, "lat": 38.90776483333333, "lon": -77.0703045, "bike_id": "beadf99500647f07d41c154ffd98a0ec", "rental_uris": {"android": "https://dc.lft.to/lastmile_qr_scan", "ios": "https://dc.lft.to/lastmile_qr_scan"}, "fusion_lat": 0.0, "name": "beadf99500647f07d41c154ffd98a0ec", "is_reserved": 0, "is_disabled": 0, "type": "electric_scooter"}, {"fusion_lon": 0.0, "lat": 38.89929083333333, "lon": -77.02946516666667, "bike_id": "617df339d106c33cc5ea07151b4802ec", "rental_uris": {"android": "https://dc.lft.to/lastmile_qr_scan", "ios": "https://dc.lft.to/lastmile_qr_scan"}, "fusion_lat": 0.0, "name": "617df339d106c33cc5ea07151b4802ec", "is_reserved": 0, "is_disabled": 0, "type": "electric_scooter"}, {"fusion_lon": 0.0, "lat": 38.8578615, "lon": -77.099647, "bike_id": "0399998ecf96d184a716a435b9f7df09", "rental_uris": {"android": "https://dc.lft.to/lastmile_qr_scan", "ios": "https://dc.lft.to/lastmile_qr_scan"}, "fusion_lat": 0.0, "name": "0399998ecf96d184a716a435b9f7df09", "is_reserved": 0, "is_disabled": 0, "type": "electric_bike"}, {"fusion_lon": 0.0, "lat": 38.944403666666666, "lon": -77.06409883333333, "bike_id": "5f2475fc011566e55b8415e8f671c554", "rental_uris": {"android": "https://dc.lft.to/lastmile_qr_scan", "ios": "https://dc.lft.to/lastmile_qr_scan"}, "fusion_lat": 0.0, "name": "5f2475fc011566e55b8415e8f671c554", "is_reserved": 0, "is_disabled": 0, "type": "electric_scooter"}, {"fusion_lon": 0.0, "lat": 38.95066633333333, "lon": -76.9708745, "bike_id": "e3b4416cd737a9017145aa7eff80ba3d", "rental_uris": {"android": "https://dc.lft.to/lastmile_qr_scan", "ios": "https://dc.lft.to/lastmile_qr_scan"}, "fusion_lat": 0.0, "name": "e3b4416cd737a9017145aa7eff80ba3d", "is_reserved": 0, "is_disabled": 0, "type": "electric_bike"}, {"fusion_lon": 0.0, "lat": 38.9081395, "lon": -77.03657083333333, "bike_id": "a1fe571ec9edac9ba70ab8fabba65dbe", "rental_uris": {"android": "https://dc.lft.to/lastmile_qr_scan", "ios": "https://dc.lft.to/lastmile_qr_scan"}, "fusion_lat": 0.0, "name": "a1fe571ec9edac9ba70ab8fabba65dbe", "is_reserved": 0, "is_disabled": 0, "type": "electric_scooter"}, {"fusion_lon": 0.0, "lat": 38.90434966666667, "lon": -77.04328283333334, "bike_id": "9145b1fe0d76b1b47f9845d5fcc2a8d1", "rental_uris": {"android": "https://dc.lft.to/lastmile_qr_scan", "ios": "https://dc.lft.to/lastmile_qr_scan"}, "fusion_lat": 0.0, "name": "9145b1fe0d76b1b47f9845d5fcc2a8d1", "is_reserved": 0, "is_disabled": 0, "type": "electric_scooter"}, {"fusion_lon": 0.0, "lat": 38.90126583333333, "lon": -76.99050383333334, "bike_id": "65c3d3963e7f715a1bf22f0943eb5920", "rental_uris": {"android": "https://dc.lft.to/lastmile_qr_scan", "ios": "https://dc.lft.to/lastmile_qr_scan"}, "fusion_lat": 0.0, "name": "65c3d3963e7f715a1bf22f0943eb5920", "is_reserved": 0, "is_disabled": 0, "type": "electric_scooter"}, {"fusion_lon": 0.0, "lat": 38.897132, "lon": -77.024511, "bike_id": "76039eb758c47c15b0e4dd3a384685b6", "rental_uris": {"android": "https://dc.lft.to/lastmile_qr_scan", "ios": "https://dc.lft.to/lastmile_qr_scan"}, "fusion_lat": 0.0, "name": "76039eb758c47c15b0e4dd3a384685b6", "is_reserved": 0, "is_disabled": 0, "type": "electric_scooter"}, {"fusion_lon": 0.0, "lat": 38.9198475, "lon": -77.0326255, "bike_id": "60f1230dd31efa532d69a4b340272e01", "rental_uris": {"android": "https://dc.lft.to/lastmile_qr_scan", "ios": "https://dc.lft.to/lastmile_qr_scan"}, "fusion_lat": 0.0, "name": "60f1230dd31efa532d69a4b340272e01", "is_reserved": 0, "is_disabled": 0, "type": "electric_scooter"}, {"fusion_lon": 0.0, "lat": 38.913269666666665, "lon": -77.04538183333334, "bike_id": "8d90bc4ca6e36e7762c02ea3dc4904f6", "rental_uris": {"android": "https://dc.lft.to/lastmile_qr_scan", "ios": "https://dc.lft.to/lastmile_qr_scan"}, "fusion_lat": 0.0, "name": "8d90bc4ca6e36e7762c02ea3dc4904f6", "is_reserved": 0, "is_disabled": 0, "type": "electric_scooter"}, {"fusion_lon": 0.0, "lat": 38.916529833333335, "lon": -77.0280505, "bike_id": "66ba8db0fb0724242acf75adb89baa73", "rental_uris": {"android": "https://dc.lft.to/lastmile_qr_scan", "ios": "https://dc.lft.to/lastmile_qr_scan"}, "fusion_lat": 0.0, "name": "66ba8db0fb0724242acf75adb89baa73", "is_reserved": 0, "is_disabled": 0, "type": "electric_scooter"}, {"fusion_lon": 0.0, "lat": 38.8959255, "lon": -77.04811316666667, "bike_id": "a9f0a9e65b0ebf8d4a0c5a2ab1c9a770", "rental_uris": {"android": "https://dc.lft.to/lastmile_qr_scan", "ios": "https://dc.lft.to/lastmile_qr_scan"}, "fusion_lat": 0.0, "name": "a9f0a9e65b0ebf8d4a0c5a2ab1c9a770", "is_reserved": 0, "is_disabled": 0, "type": "electric_scooter"}, {"fusion_lon": 0.0, "lat": 38.8921285, "lon": -77.04645433333333, "bike_id": "365f200b100f1e638b86791c4477dc5c", "rental_uris": {"android": "https://dc.lft.to/lastmile_qr_scan", "ios": "https://dc.lft.to/lastmile_qr_scan"}, "fusion_lat": 0.0, "name": "365f200b100f1e638b86791c4477dc5c", "is_reserved": 0, "is_disabled": 0, "type": "electric_scooter"}, {"fusion_lon": 0.0, "lat": 38.896687, "lon": -77.0546925, "bike_id": "d9ae5ede23c0bd943d7a5be5a0425053", "rental_uris": {"android": "https://dc.lft.to/lastmile_qr_scan", "ios": "https://dc.lft.to/lastmile_qr_scan"}, "fusion_lat": 0.0, "name": "d9ae5ede23c0bd943d7a5be5a0425053", "is_reserved": 0, "is_disabled": 0, "type": "electric_scooter"}, {"fusion_lon": 0.0, "lat": 38.928932333333336, "lon": -77.032338, "bike_id": "0c6a686ab51b5c8d80b20e440ed84b3e", "rental_uris": {"android": "https://dc.lft.to/lastmile_qr_scan", "ios": "https://dc.lft.to/lastmile_qr_scan"}, "fusion_lat": 0.0, "name": "0c6a686ab51b5c8d80b20e440ed84b3e", "is_reserved": 0, "is_disabled": 0, "type": "electric_scooter"}, {"fusion_lon": 0.0, "lat": 38.887045666666666, "lon": -77.02172283333333, "bike_id": "c31809de34b3d9230469f6e4b2c2b23f", "rental_uris": {"android": "https://dc.lft.to/lastmile_qr_scan", "ios": "https://dc.lft.to/lastmile_qr_scan"}, "fusion_lat": 0.0, "name": "c31809de34b3d9230469f6e4b2c2b23f", "is_reserved": 0, "is_disabled": 0, "type": "electric_scooter"}, {"fusion_lon": 0.0, "lat": 38.836081, "lon": -77.00383533333333, "bike_id": "59fdbc7278f617cb1058c2ac461fdd2c", "rental_uris": {"android": "https://dc.lft.to/lastmile_qr_scan", "ios": "https://dc.lft.to/lastmile_qr_scan"}, "fusion_lat": 0.0, "name": "59fdbc7278f617cb1058c2ac461fdd2c", "is_reserved": 0, "is_disabled": 0, "type": "electric_bike"}, {"fusion_lon": 0.0, "lat": 38.8964575, "lon": -77.05027966666667, "bike_id": "3cc416167e93e937dd91852956d61d8f", "rental_uris": {"android": "https://dc.lft.to/lastmile_qr_scan", "ios": "https://dc.lft.to/lastmile_qr_scan"}, "fusion_lat": 0.0, "name": "3cc416167e93e937dd91852956d61d8f", "is_reserved": 0, "is_disabled": 0, "type": "electric_scooter"}, {"fusion_lon": 0.0, "lat": 38.91873116666667, "lon": -76.9644025, "bike_id": "53f3f3efb835c0648dbde1b37dec008a", "rental_uris": {"android": "https://dc.lft.to/lastmile_qr_scan", "ios": "https://dc.lft.to/lastmile_qr_scan"}, "fusion_lat": 0.0, "name": "53f3f3efb835c0648dbde1b37dec008a", "is_reserved": 0, "is_disabled": 0, "type": "electric_bike"}, {"fusion_lon": 0.0, "lat": 38.90905716666666, "lon": -77.07279616666666, "bike_id": "9e372581f5b99e583b4c52755db5a527", "rental_uris": {"android": "https://dc.lft.to/lastmile_qr_scan", "ios": "https://dc.lft.to/lastmile_qr_scan"}, "fusion_lat": 0.0, "name": "9e372581f5b99e583b4c52755db5a527", "is_reserved": 0, "is_disabled": 0, "type": "electric_scooter"}, {"fusion_lon": 0.0, "lat": 38.88477283333334, "lon": -77.02559366666667, "bike_id": "26961d50117387a3d67046b4bae00278", "rental_uris": {"android": "https://dc.lft.to/lastmile_qr_scan", "ios": "https://dc.lft.to/lastmile_qr_scan"}, "fusion_lat": 0.0, "name": "26961d50117387a3d67046b4bae00278", "is_reserved": 0, "is_disabled": 0, "type": "electric_scooter"}, {"fusion_lon": 0.0, "lat": 38.90248583333333, "lon": -77.0174155, "bike_id": "9758059ecf1a933b3ea5be7b8b421e29", "rental_uris": {"android": "https://dc.lft.to/lastmile_qr_scan", "ios": "https://dc.lft.to/lastmile_qr_scan"}, "fusion_lat": 0.0, "name": "9758059ecf1a933b3ea5be7b8b421e29", "is_reserved": 0, "is_disabled": 0, "type": "electric_scooter"}, {"fusion_lon": 0.0, "lat": 38.91262666666667, "lon": -77.04552116666666, "bike_id": "df976ed0f7855ffac239f42b419ec47f", "rental_uris": {"android": "https://dc.lft.to/lastmile_qr_scan", "ios": "https://dc.lft.to/lastmile_qr_scan"}, "fusion_lat": 0.0, "name": "df976ed0f7855ffac239f42b419ec47f", "is_reserved": 0, "is_disabled": 0, "type": "electric_scooter"}, {"fusion_lon": 0.0, "lat": 38.88280833333334, "lon": -76.93242883333333, "bike_id": "e6c34cdf5289b90c5e9d71fb258885b9", "rental_uris": {"android": "https://dc.lft.to/lastmile_qr_scan", "ios": "https://dc.lft.to/lastmile_qr_scan"}, "fusion_lat": 0.0, "name": "e6c34cdf5289b90c5e9d71fb258885b9", "is_reserved": 0, "is_disabled": 0, "type": "electric_bike"}, {"fusion_lon": 0.0, "lat": 38.91382883333333, "lon": -77.03210133333333, "bike_id": "9624798f80a2852b70a1967bd1fcffb7", "rental_uris": {"android": "https://dc.lft.to/lastmile_qr_scan", "ios": "https://dc.lft.to/lastmile_qr_scan"}, "fusion_lat": 0.0, "name": "9624798f80a2852b70a1967bd1fcffb7", "is_reserved": 0, "is_disabled": 0, "type": "electric_scooter"}, {"fusion_lon": 0.0, "lat": 38.897010333333334, "lon": -77.03183366666667, "bike_id": "223dc1e048b02ccfdf9141d9461d4126", "rental_uris": {"android": "https://dc.lft.to/lastmile_qr_scan", "ios": "https://dc.lft.to/lastmile_qr_scan"}, "fusion_lat": 0.0, "name": "223dc1e048b02ccfdf9141d9461d4126", "is_reserved": 0, "is_disabled": 0, "type": "electric_scooter"}, {"fusion_lon": 0.0, "lat": 38.900281666666665, "lon": -77.03934216666667, "bike_id": "b7c82a52fe9fa8ead9310a7ddf8542e7", "rental_uris": {"android": "https://dc.lft.to/lastmile_qr_scan", "ios": "https://dc.lft.to/lastmile_qr_scan"}, "fusion_lat": 0.0, "name": "b7c82a52fe9fa8ead9310a7ddf8542e7", "is_reserved": 0, "is_disabled": 0, "type": "electric_scooter"}, {"fusion_lon": 0.0, "lat": 38.915766833333336, "lon": -77.067794, "bike_id": "d1aacff5d17c83801ee26c2944fc6abf", "rental_uris": {"android": "https://dc.lft.to/lastmile_qr_scan", "ios": "https://dc.lft.to/lastmile_qr_scan"}, "fusion_lat": 0.0, "name": "d1aacff5d17c83801ee26c2944fc6abf", "is_reserved": 0, "is_disabled": 0, "type": "electric_scooter"}, {"fusion_lon": 0.0, "lat": 38.921217166666665, "lon": -77.03655533333334, "bike_id": "c058f90aae2ded089b0e1b0bd721e4ec", "rental_uris": {"android": "https://dc.lft.to/lastmile_qr_scan", "ios": "https://dc.lft.to/lastmile_qr_scan"}, "fusion_lat": 0.0, "name": "c058f90aae2ded089b0e1b0bd721e4ec", "is_reserved": 0, "is_disabled": 0, "type": "electric_scooter"}, {"fusion_lon": 0.0, "lat": 38.92441516666667, "lon": -77.021549, "bike_id": "b777681f7534f65f19d571f583f0b6a7", "rental_uris": {"android": "https://dc.lft.to/lastmile_qr_scan", "ios": "https://dc.lft.to/lastmile_qr_scan"}, "fusion_lat": 0.0, "name": "b777681f7534f65f19d571f583f0b6a7", "is_reserved": 0, "is_disabled": 0, "type": "electric_scooter"}, {"fusion_lon": 0.0, "lat": 38.903079166666664, "lon": -76.9750245, "bike_id": "5431148e476c6731638a5d2df2968bcc", "rental_uris": {"android": "https://dc.lft.to/lastmile_qr_scan", "ios": "https://dc.lft.to/lastmile_qr_scan"}, "fusion_lat": 0.0, "name": "5431148e476c6731638a5d2df2968bcc", "is_reserved": 0, "is_disabled": 0, "type": "electric_scooter"}, {"fusion_lon": 0.0, "lat": 38.89916816666667, "lon": -77.044708, "bike_id": "eaee5446201b823dd5450873554ad634", "rental_uris": {"android": "https://dc.lft.to/lastmile_qr_scan", "ios": "https://dc.lft.to/lastmile_qr_scan"}, "fusion_lat": 0.0, "name": "eaee5446201b823dd5450873554ad634", "is_reserved": 0, "is_disabled": 0, "type": "electric_scooter"}, {"fusion_lon": 0.0, "lat": 38.9518135, "lon": -77.012623, "bike_id": "fc46a259822df2b8efe1706311986b44", "rental_uris": {"android": "https://dc.lft.to/lastmile_qr_scan", "ios": "https://dc.lft.to/lastmile_qr_scan"}, "fusion_lat": 0.0, "name": "fc46a259822df2b8efe1706311986b44", "is_reserved": 0, "is_disabled": 0, "type": "electric_scooter"}, {"fusion_lon": 0.0, "lat": 38.899794, "lon": -77.01608833333333, "bike_id": "d8c61c9b42916779847c4c56b51e99fa", "rental_uris": {"android": "https://dc.lft.to/lastmile_qr_scan", "ios": "https://dc.lft.to/lastmile_qr_scan"}, "fusion_lat": 0.0, "name": "d8c61c9b42916779847c4c56b51e99fa", "is_reserved": 0, "is_disabled": 0, "type": "electric_scooter"}, {"fusion_lon": 0.0, "lat": 38.884356833333335, "lon": -76.99726616666666, "bike_id": "a911b6f51ce05b30557bbb809e8bd7c5", "rental_uris": {"android": "https://dc.lft.to/lastmile_qr_scan", "ios": "https://dc.lft.to/lastmile_qr_scan"}, "fusion_lat": 0.0, "name": "a911b6f51ce05b30557bbb809e8bd7c5", "is_reserved": 0, "is_disabled": 0, "type": "electric_scooter"}, {"fusion_lon": 0.0, "lat": 38.8652035, "lon": -76.9691095, "bike_id": "fad4a14eebd1d19467bf39300f291641", "rental_uris": {"android": "https://dc.lft.to/lastmile_qr_scan", "ios": "https://dc.lft.to/lastmile_qr_scan"}, "fusion_lat": 0.0, "name": "fad4a14eebd1d19467bf39300f291641", "is_reserved": 0, "is_disabled": 0, "type": "electric_scooter"}, {"fusion_lon": 0.0, "lat": 38.9340525, "lon": -77.03264266666666, "bike_id": "17c84c0d7ab85833db3b4cd95c01c7ea", "rental_uris": {"android": "https://dc.lft.to/lastmile_qr_scan", "ios": "https://dc.lft.to/lastmile_qr_scan"}, "fusion_lat": 0.0, "name": "17c84c0d7ab85833db3b4cd95c01c7ea", "is_reserved": 0, "is_disabled": 0, "type": "electric_scooter"}, {"fusion_lon": 0.0, "lat": 38.9157325, "lon": -77.03665533333333, "bike_id": "bfec87eaa92f8a283d96c30e6d7a0eb7", "rental_uris": {"android": "https://dc.lft.to/lastmile_qr_scan", "ios": "https://dc.lft.to/lastmile_qr_scan"}, "fusion_lat": 0.0, "name": "bfec87eaa92f8a283d96c30e6d7a0eb7", "is_reserved": 0, "is_disabled": 0, "type": "electric_scooter"}, {"fusion_lon": 0.0, "lat": 38.91811166666667, "lon": -77.0344845, "bike_id": "166aedc1ef5f26c927454e7c2fb4ff06", "rental_uris": {"android": "https://dc.lft.to/lastmile_qr_scan", "ios": "https://dc.lft.to/lastmile_qr_scan"}, "fusion_lat": 0.0, "name": "166aedc1ef5f26c927454e7c2fb4ff06", "is_reserved": 0, "is_disabled": 0, "type": "electric_scooter"}, {"fusion_lon": 0.0, "lat": 38.872870166666665, "lon": -77.0158845, "bike_id": "ef323a06871bf43b35ed7f659ddf0dd7", "rental_uris": {"android": "https://dc.lft.to/lastmile_qr_scan", "ios": "https://dc.lft.to/lastmile_qr_scan"}, "fusion_lat": 0.0, "name": "ef323a06871bf43b35ed7f659ddf0dd7", "is_reserved": 0, "is_disabled": 0, "type": "electric_scooter"}, {"fusion_lon": 0.0, "lat": 38.926366, "lon": -77.02507583333333, "bike_id": "06d6684f10a4fdc79e2f23f01d0c368a", "rental_uris": {"android": "https://dc.lft.to/lastmile_qr_scan", "ios": "https://dc.lft.to/lastmile_qr_scan"}, "fusion_lat": 0.0, "name": "06d6684f10a4fdc79e2f23f01d0c368a", "is_reserved": 0, "is_disabled": 0, "type": "electric_scooter"}, {"fusion_lon": 0.0, "lat": 38.92601833333333, "lon": -77.02157116666666, "bike_id": "b60a7d039be7081cdf23a167d7dc12e7", "rental_uris": {"android": "https://dc.lft.to/lastmile_qr_scan", "ios": "https://dc.lft.to/lastmile_qr_scan"}, "fusion_lat": 0.0, "name": "b60a7d039be7081cdf23a167d7dc12e7", "is_reserved": 0, "is_disabled": 0, "type": "electric_scooter"}, {"fusion_lon": 0.0, "lat": 38.89365516666667, "lon": -77.003328, "bike_id": "ca3d508e5ee3501f85f9a20ac8360e7f", "rental_uris": {"android": "https://dc.lft.to/lastmile_qr_scan", "ios": "https://dc.lft.to/lastmile_qr_scan"}, "fusion_lat": 0.0, "name": "ca3d508e5ee3501f85f9a20ac8360e7f", "is_reserved": 0, "is_disabled": 0, "type": "electric_scooter"}, {"fusion_lon": 0.0, "lat": 38.9089175, "lon": -77.043232, "bike_id": "36e8badb8ae848d6221b56a64a4c0c4f", "rental_uris": {"android": "https://dc.lft.to/lastmile_qr_scan", "ios": "https://dc.lft.to/lastmile_qr_scan"}, "fusion_lat": 0.0, "name": "36e8badb8ae848d6221b56a64a4c0c4f", "is_reserved": 0, "is_disabled": 0, "type": "electric_scooter"}, {"fusion_lon": 0.0, "lat": 38.8971685, "lon": -77.03125116666666, "bike_id": "dad858040fc40ecbddb861f2681f2a87", "rental_uris": {"android": "https://dc.lft.to/lastmile_qr_scan", "ios": "https://dc.lft.to/lastmile_qr_scan"}, "fusion_lat": 0.0, "name": "dad858040fc40ecbddb861f2681f2a87", "is_reserved": 0, "is_disabled": 0, "type": "electric_scooter"}, {"fusion_lon": 0.0, "lat": 38.922352, "lon": -77.02854066666667, "bike_id": "1447d452c907bf89dc29f1e2eadd71ec", "rental_uris": {"android": "https://dc.lft.to/lastmile_qr_scan", "ios": "https://dc.lft.to/lastmile_qr_scan"}, "fusion_lat": 0.0, "name": "1447d452c907bf89dc29f1e2eadd71ec", "is_reserved": 0, "is_disabled": 0, "type": "electric_scooter"}, {"fusion_lon": 0.0, "lat": 38.90022283333333, "lon": -77.04089766666667, "bike_id": "eb65a3998c34585ae8e8ebe6f76b31ad", "rental_uris": {"android": "https://dc.lft.to/lastmile_qr_scan", "ios": "https://dc.lft.to/lastmile_qr_scan"}, "fusion_lat": 0.0, "name": "eb65a3998c34585ae8e8ebe6f76b31ad", "is_reserved": 0, "is_disabled": 0, "type": "electric_scooter"}, {"fusion_lon": 0.0, "lat": 38.95261716666667, "lon": -77.06849266666667, "bike_id": "832f57672bf11a2a65617b3abca96f8c", "rental_uris": {"android": "https://dc.lft.to/lastmile_qr_scan", "ios": "https://dc.lft.to/lastmile_qr_scan"}, "fusion_lat": 0.0, "name": "832f57672bf11a2a65617b3abca96f8c", "is_reserved": 0, "is_disabled": 0, "type": "electric_scooter"}, {"fusion_lon": 0.0, "lat": 38.87697583333333, "lon": -77.016512, "bike_id": "8639638bd6acd5565e5fdd4a0dac52e6", "rental_uris": {"android": "https://dc.lft.to/lastmile_qr_scan", "ios": "https://dc.lft.to/lastmile_qr_scan"}, "fusion_lat": 0.0, "name": "8639638bd6acd5565e5fdd4a0dac52e6", "is_reserved": 0, "is_disabled": 0, "type": "electric_scooter"}, {"fusion_lon": 0.0, "lat": 38.90212066666667, "lon": -77.02076516666666, "bike_id": "c1752f71e6cae637b4ed1eca58a68014", "rental_uris": {"android": "https://dc.lft.to/lastmile_qr_scan", "ios": "https://dc.lft.to/lastmile_qr_scan"}, "fusion_lat": 0.0, "name": "c1752f71e6cae637b4ed1eca58a68014", "is_reserved": 0, "is_disabled": 0, "type": "electric_scooter"}, {"fusion_lon": 0.0, "lat": 38.89383933333333, "lon": -77.003494, "bike_id": "faa2349403e5053934d0669775c4916a", "rental_uris": {"android": "https://dc.lft.to/lastmile_qr_scan", "ios": "https://dc.lft.to/lastmile_qr_scan"}, "fusion_lat": 0.0, "name": "faa2349403e5053934d0669775c4916a", "is_reserved": 0, "is_disabled": 0, "type": "electric_scooter"}, {"fusion_lon": 0.0, "lat": 38.92960216666667, "lon": -77.042026, "bike_id": "46f7e5f081dffff8c103483458e22de7", "rental_uris": {"android": "https://dc.lft.to/lastmile_qr_scan", "ios": "https://dc.lft.to/lastmile_qr_scan"}, "fusion_lat": 0.0, "name": "46f7e5f081dffff8c103483458e22de7", "is_reserved": 0, "is_disabled": 0, "type": "electric_scooter"}, {"fusion_lon": 0.0, "lat": 38.9134965, "lon": -77.03183716666666, "bike_id": "7136fe755204b52105fef98af7a15d4d", "rental_uris": {"android": "https://dc.lft.to/lastmile_qr_scan", "ios": "https://dc.lft.to/lastmile_qr_scan"}, "fusion_lat": 0.0, "name": "7136fe755204b52105fef98af7a15d4d", "is_reserved": 0, "is_disabled": 0, "type": "electric_scooter"}, {"fusion_lon": 0.0, "lat": 38.9002255, "lon": -76.99352283333333, "bike_id": "a8f216c673cc7efc5168a40cec5a5933", "rental_uris": {"android": "https://dc.lft.to/lastmile_qr_scan", "ios": "https://dc.lft.to/lastmile_qr_scan"}, "fusion_lat": 0.0, "name": "a8f216c673cc7efc5168a40cec5a5933", "is_reserved": 0, "is_disabled": 0, "type": "electric_scooter"}, {"fusion_lon": 0.0, "lat": 38.916636833333335, "lon": -77.038506, "bike_id": "0f97670c8b6e344ac7bfe519a3f31e87", "rental_uris": {"android": "https://dc.lft.to/lastmile_qr_scan", "ios": "https://dc.lft.to/lastmile_qr_scan"}, "fusion_lat": 0.0, "name": "0f97670c8b6e344ac7bfe519a3f31e87", "is_reserved": 0, "is_disabled": 0, "type": "electric_scooter"}, {"fusion_lon": 0.0, "lat": 38.9069175, "lon": -76.952564, "bike_id": "6cc22832853b0c87b89d2fe59886cdc9", "rental_uris": {"android": "https://dc.lft.to/lastmile_qr_scan", "ios": "https://dc.lft.to/lastmile_qr_scan"}, "fusion_lat": 0.0, "name": "6cc22832853b0c87b89d2fe59886cdc9", "is_reserved": 0, "is_disabled": 0, "type": "electric_bike"}, {"fusion_lon": 0.0, "lat": 38.9275615, "lon": -77.03219566666667, "bike_id": "d2d48a7389e2a62a82bda1d526021ced", "rental_uris": {"android": "https://dc.lft.to/lastmile_qr_scan", "ios": "https://dc.lft.to/lastmile_qr_scan"}, "fusion_lat": 0.0, "name": "d2d48a7389e2a62a82bda1d526021ced", "is_reserved": 0, "is_disabled": 0, "type": "electric_scooter"}, {"fusion_lon": 0.0, "lat": 38.89772133333334, "lon": -77.01206566666667, "bike_id": "11714dd0dbeeb5edf21393c3bf15805a", "rental_uris": {"android": "https://dc.lft.to/lastmile_qr_scan", "ios": "https://dc.lft.to/lastmile_qr_scan"}, "fusion_lat": 0.0, "name": "11714dd0dbeeb5edf21393c3bf15805a", "is_reserved": 0, "is_disabled": 0, "type": "electric_scooter"}, {"fusion_lon": 0.0, "lat": 38.92903233333333, "lon": -77.03269566666667, "bike_id": "fba1fc14d1b3c308428c5b3cf93971dc", "rental_uris": {"android": "https://dc.lft.to/lastmile_qr_scan", "ios": "https://dc.lft.to/lastmile_qr_scan"}, "fusion_lat": 0.0, "name": "fba1fc14d1b3c308428c5b3cf93971dc", "is_reserved": 0, "is_disabled": 0, "type": "electric_scooter"}, {"fusion_lon": 0.0, "lat": 38.92397, "lon": -77.04069816666667, "bike_id": "99b369f70797665f3d23a80360798f14", "rental_uris": {"android": "https://dc.lft.to/lastmile_qr_scan", "ios": "https://dc.lft.to/lastmile_qr_scan"}, "fusion_lat": 0.0, "name": "99b369f70797665f3d23a80360798f14", "is_reserved": 0, "is_disabled": 0, "type": "electric_scooter"}, {"fusion_lon": 0.0, "lat": 38.927267, "lon": -77.03537033333333, "bike_id": "31ddf4f2aa6f759cd72baa77148ce996", "rental_uris": {"android": "https://dc.lft.to/lastmile_qr_scan", "ios": "https://dc.lft.to/lastmile_qr_scan"}, "fusion_lat": 0.0, "name": "31ddf4f2aa6f759cd72baa77148ce996", "is_reserved": 0, "is_disabled": 0, "type": "electric_scooter"}, {"fusion_lon": 0.0, "lat": 38.99799816666667, "lon": -77.028888, "bike_id": "e7b798dcf3eb940e845c6d707625f424", "rental_uris": {"android": "https://dc.lft.to/lastmile_qr_scan", "ios": "https://dc.lft.to/lastmile_qr_scan"}, "fusion_lat": 0.0, "name": "e7b798dcf3eb940e845c6d707625f424", "is_reserved": 0, "is_disabled": 0, "type": "electric_bike"}, {"fusion_lon": 0.0, "lat": 38.880330666666666, "lon": -77.00533283333333, "bike_id": "faabab9e554c05a07aa9ef11942e7a3b", "rental_uris": {"android": "https://dc.lft.to/lastmile_qr_scan", "ios": "https://dc.lft.to/lastmile_qr_scan"}, "fusion_lat": 0.0, "name": "faabab9e554c05a07aa9ef11942e7a3b", "is_reserved": 0, "is_disabled": 0, "type": "electric_scooter"}, {"fusion_lon": 0.0, "lat": 38.876972333333335, "lon": -77.01772333333334, "bike_id": "bfe68a8df3ddb6a947a823ee702da978", "rental_uris": {"android": "https://dc.lft.to/lastmile_qr_scan", "ios": "https://dc.lft.to/lastmile_qr_scan"}, "fusion_lat": 0.0, "name": "bfe68a8df3ddb6a947a823ee702da978", "is_reserved": 0, "is_disabled": 0, "type": "electric_scooter"}, {"fusion_lon": 0.0, "lat": 38.894905666666666, "lon": -76.94894916666667, "bike_id": "9e08af9fbb370ae251e93a1cd98e8937", "rental_uris": {"android": "https://dc.lft.to/lastmile_qr_scan", "ios": "https://dc.lft.to/lastmile_qr_scan"}, "fusion_lat": 0.0, "name": "9e08af9fbb370ae251e93a1cd98e8937", "is_reserved": 0, "is_disabled": 0, "type": "electric_scooter"}, {"fusion_lon": 0.0, "lat": 38.8919815, "lon": -76.9938185, "bike_id": "4ef71c913530e03602a9090f10512372", "rental_uris": {"android": "https://dc.lft.to/lastmile_qr_scan", "ios": "https://dc.lft.to/lastmile_qr_scan"}, "fusion_lat": 0.0, "name": "4ef71c913530e03602a9090f10512372", "is_reserved": 0, "is_disabled": 0, "type": "electric_scooter"}, {"fusion_lon": 0.0, "lat": 38.91368216666667, "lon": -77.04482333333333, "bike_id": "b20f58318ae4f76df53209d69eb77438", "rental_uris": {"android": "https://dc.lft.to/lastmile_qr_scan", "ios": "https://dc.lft.to/lastmile_qr_scan"}, "fusion_lat": 0.0, "name": "b20f58318ae4f76df53209d69eb77438", "is_reserved": 0, "is_disabled": 0, "type": "electric_scooter"}, {"fusion_lon": 0.0, "lat": 38.9154485, "lon": -77.04443216666667, "bike_id": "f10f4d8fc94f8ed369d10af403376958", "rental_uris": {"android": "https://dc.lft.to/lastmile_qr_scan", "ios": "https://dc.lft.to/lastmile_qr_scan"}, "fusion_lat": 0.0, "name": "f10f4d8fc94f8ed369d10af403376958", "is_reserved": 0, "is_disabled": 0, "type": "electric_scooter"}, {"fusion_lon": 0.0, "lat": 38.887126333333335, "lon": -76.99609866666667, "bike_id": "534be3e444488ea14e2f9ae40ddde0d6", "rental_uris": {"android": "https://dc.lft.to/lastmile_qr_scan", "ios": "https://dc.lft.to/lastmile_qr_scan"}, "fusion_lat": 0.0, "name": "534be3e444488ea14e2f9ae40ddde0d6", "is_reserved": 0, "is_disabled": 0, "type": "electric_scooter"}, {"fusion_lon": 0.0, "lat": 38.939739333333335, "lon": -77.02839566666667, "bike_id": "fe665f5b2d148c85f0edfeb8286a3c98", "rental_uris": {"android": "https://dc.lft.to/lastmile_qr_scan", "ios": "https://dc.lft.to/lastmile_qr_scan"}, "fusion_lat": 0.0, "name": "fe665f5b2d148c85f0edfeb8286a3c98", "is_reserved": 0, "is_disabled": 0, "type": "electric_scooter"}, {"fusion_lon": 0.0, "lat": 38.88366216666667, "lon": -77.01876633333333, "bike_id": "1b80ead985dcf24650a95bce48530476", "rental_uris": {"android": "https://dc.lft.to/lastmile_qr_scan", "ios": "https://dc.lft.to/lastmile_qr_scan"}, "fusion_lat": 0.0, "name": "1b80ead985dcf24650a95bce48530476", "is_reserved": 0, "is_disabled": 0, "type": "electric_scooter"}, {"fusion_lon": 0.0, "lat": 38.9181155, "lon": -77.04027766666667, "bike_id": "f1c18a2c1043071acba78f32e803da5d", "rental_uris": {"android": "https://dc.lft.to/lastmile_qr_scan", "ios": "https://dc.lft.to/lastmile_qr_scan"}, "fusion_lat": 0.0, "name": "f1c18a2c1043071acba78f32e803da5d", "is_reserved": 0, "is_disabled": 0, "type": "electric_scooter"}, {"fusion_lon": 0.0, "lat": 38.89773566666667, "lon": -77.031712, "bike_id": "0864f0c1148f87f78e9757841982af21", "rental_uris": {"android": "https://dc.lft.to/lastmile_qr_scan", "ios": "https://dc.lft.to/lastmile_qr_scan"}, "fusion_lat": 0.0, "name": "0864f0c1148f87f78e9757841982af21", "is_reserved": 0, "is_disabled": 0, "type": "electric_scooter"}, {"fusion_lon": 0.0, "lat": 38.89906116666667, "lon": -77.021689, "bike_id": "3764a14e9d42d2e97b246f22439a72e5", "rental_uris": {"android": "https://dc.lft.to/lastmile_qr_scan", "ios": "https://dc.lft.to/lastmile_qr_scan"}, "fusion_lat": 0.0, "name": "3764a14e9d42d2e97b246f22439a72e5", "is_reserved": 0, "is_disabled": 0, "type": "electric_scooter"}, {"fusion_lon": 0.0, "lat": 38.89309383333333, "lon": -76.93971866666666, "bike_id": "7d43a4b721dbb0702fdb7565d4021240", "rental_uris": {"android": "https://dc.lft.to/lastmile_qr_scan", "ios": "https://dc.lft.to/lastmile_qr_scan"}, "fusion_lat": 0.0, "name": "7d43a4b721dbb0702fdb7565d4021240", "is_reserved": 0, "is_disabled": 0, "type": "electric_scooter"}, {"fusion_lon": 0.0, "lat": 38.84756683333333, "lon": -77.05381733333333, "bike_id": "12fdeec08b6309e999871008c9ccaead", "rental_uris": {"android": "https://dc.lft.to/lastmile_qr_scan", "ios": "https://dc.lft.to/lastmile_qr_scan"}, "fusion_lat": 0.0, "name": "12fdeec08b6309e999871008c9ccaead", "is_reserved": 0, "is_disabled": 0, "type": "electric_bike"}, {"fusion_lon": 0.0, "lat": 38.9004505, "lon": -76.98833133333333, "bike_id": "f25c9a99f04d083b211a034fdd9d5830", "rental_uris": {"android": "https://dc.lft.to/lastmile_qr_scan", "ios": "https://dc.lft.to/lastmile_qr_scan"}, "fusion_lat": 0.0, "name": "f25c9a99f04d083b211a034fdd9d5830", "is_reserved": 0, "is_disabled": 0, "type": "electric_scooter"}, {"fusion_lon": 0.0, "lat": 38.92392266666667, "lon": -77.022561, "bike_id": "1b6d7dbf98facf1b3f708951fbdda418", "rental_uris": {"android": "https://dc.lft.to/lastmile_qr_scan", "ios": "https://dc.lft.to/lastmile_qr_scan"}, "fusion_lat": 0.0, "name": "1b6d7dbf98facf1b3f708951fbdda418", "is_reserved": 0, "is_disabled": 0, "type": "electric_scooter"}, {"fusion_lon": 0.0, "lat": 38.90007283333333, "lon": -77.04106233333333, "bike_id": "e1f0ce32f721ab76be3cf7bd7a7e45bd", "rental_uris": {"android": "https://dc.lft.to/lastmile_qr_scan", "ios": "https://dc.lft.to/lastmile_qr_scan"}, "fusion_lat": 0.0, "name": "e1f0ce32f721ab76be3cf7bd7a7e45bd", "is_reserved": 0, "is_disabled": 0, "type": "electric_scooter"}, {"fusion_lon": 0.0, "lat": 38.91664983333333, "lon": -77.0385185, "bike_id": "9e29e2d1143dca9f49c0d3070cdc91d6", "rental_uris": {"android": "https://dc.lft.to/lastmile_qr_scan", "ios": "https://dc.lft.to/lastmile_qr_scan"}, "fusion_lat": 0.0, "name": "9e29e2d1143dca9f49c0d3070cdc91d6", "is_reserved": 0, "is_disabled": 0, "type": "electric_scooter"}, {"fusion_lon": 0.0, "lat": 38.915735, "lon": -77.0679245, "bike_id": "2e90b81718401459252d23698bb9f593", "rental_uris": {"android": "https://dc.lft.to/lastmile_qr_scan", "ios": "https://dc.lft.to/lastmile_qr_scan"}, "fusion_lat": 0.0, "name": "2e90b81718401459252d23698bb9f593", "is_reserved": 0, "is_disabled": 0, "type": "electric_scooter"}, {"fusion_lon": 0.0, "lat": 38.918643, "lon": -77.03183433333334, "bike_id": "4726b689204419bf5e844587d38e03a6", "rental_uris": {"android": "https://dc.lft.to/lastmile_qr_scan", "ios": "https://dc.lft.to/lastmile_qr_scan"}, "fusion_lat": 0.0, "name": "4726b689204419bf5e844587d38e03a6", "is_reserved": 0, "is_disabled": 0, "type": "electric_scooter"}, {"fusion_lon": 0.0, "lat": 38.917957, "lon": -77.02717516666667, "bike_id": "d606e28d1a1618a5dfe481bbd6a50125", "rental_uris": {"android": "https://dc.lft.to/lastmile_qr_scan", "ios": "https://dc.lft.to/lastmile_qr_scan"}, "fusion_lat": 0.0, "name": "d606e28d1a1618a5dfe481bbd6a50125", "is_reserved": 0, "is_disabled": 0, "type": "electric_scooter"}, {"fusion_lon": 0.0, "lat": 38.908630333333335, "lon": -77.07645716666667, "bike_id": "cff0552266e89adc47d861b66424d554", "rental_uris": {"android": "https://dc.lft.to/lastmile_qr_scan", "ios": "https://dc.lft.to/lastmile_qr_scan"}, "fusion_lat": 0.0, "name": "cff0552266e89adc47d861b66424d554", "is_reserved": 0, "is_disabled": 0, "type": "electric_scooter"}, {"fusion_lon": 0.0, "lat": 38.902252, "lon": -77.04538916666667, "bike_id": "41832456ebdd5ff97a261f8b7710f037", "rental_uris": {"android": "https://dc.lft.to/lastmile_qr_scan", "ios": "https://dc.lft.to/lastmile_qr_scan"}, "fusion_lat": 0.0, "name": "41832456ebdd5ff97a261f8b7710f037", "is_reserved": 0, "is_disabled": 0, "type": "electric_scooter"}, {"fusion_lon": 0.0, "lat": 38.870712166666664, "lon": -76.98003733333333, "bike_id": "761c4997bfa0997238aef01b55f4569c", "rental_uris": {"android": "https://dc.lft.to/lastmile_qr_scan", "ios": "https://dc.lft.to/lastmile_qr_scan"}, "fusion_lat": 0.0, "name": "761c4997bfa0997238aef01b55f4569c", "is_reserved": 0, "is_disabled": 0, "type": "electric_scooter"}, {"fusion_lon": 0.0, "lat": 38.824237, "lon": -77.12043766666666, "bike_id": "ae94d70da43b4fb317fb7bb83c95f987", "rental_uris": {"android": "https://dc.lft.to/lastmile_qr_scan", "ios": "https://dc.lft.to/lastmile_qr_scan"}, "fusion_lat": 0.0, "name": "ae94d70da43b4fb317fb7bb83c95f987", "is_reserved": 0, "is_disabled": 0, "type": "electric_bike"}, {"fusion_lon": 0.0, "lat": 38.902777, "lon": -77.01740483333333, "bike_id": "c0a9466691ec29896c4332bff83f50ba", "rental_uris": {"android": "https://dc.lft.to/lastmile_qr_scan", "ios": "https://dc.lft.to/lastmile_qr_scan"}, "fusion_lat": 0.0, "name": "c0a9466691ec29896c4332bff83f50ba", "is_reserved": 0, "is_disabled": 0, "type": "electric_scooter"}, {"fusion_lon": 0.0, "lat": 38.857720666666665, "lon": -76.98761083333333, "bike_id": "6b1854a7a56ce715bd3c3424d670fa39", "rental_uris": {"android": "https://dc.lft.to/lastmile_qr_scan", "ios": "https://dc.lft.to/lastmile_qr_scan"}, "fusion_lat": 0.0, "name": "6b1854a7a56ce715bd3c3424d670fa39", "is_reserved": 0, "is_disabled": 0, "type": "electric_bike"}, {"fusion_lon": 0.0, "lat": 38.939697333333335, "lon": -76.98616233333334, "bike_id": "475830ff7028f4ce0c7b349e5b206a32", "rental_uris": {"android": "https://dc.lft.to/lastmile_qr_scan", "ios": "https://dc.lft.to/lastmile_qr_scan"}, "fusion_lat": 0.0, "name": "475830ff7028f4ce0c7b349e5b206a32", "is_reserved": 0, "is_disabled": 0, "type": "electric_bike"}, {"fusion_lon": 0.0, "lat": 38.920803166666666, "lon": -77.02533633333333, "bike_id": "adb6319a38ee24e9d28e9eaf66f0ba3b", "rental_uris": {"android": "https://dc.lft.to/lastmile_qr_scan", "ios": "https://dc.lft.to/lastmile_qr_scan"}, "fusion_lat": 0.0, "name": "adb6319a38ee24e9d28e9eaf66f0ba3b", "is_reserved": 0, "is_disabled": 0, "type": "electric_scooter"}, {"fusion_lon": 0.0, "lat": 38.867273833333336, "lon": -77.01020466666667, "bike_id": "3d3141b6b10118fdd55e5bff86ff9360", "rental_uris": {"android": "https://dc.lft.to/lastmile_qr_scan", "ios": "https://dc.lft.to/lastmile_qr_scan"}, "fusion_lat": 0.0, "name": "3d3141b6b10118fdd55e5bff86ff9360", "is_reserved": 0, "is_disabled": 0, "type": "electric_scooter"}, {"fusion_lon": 0.0, "lat": 38.88216933333333, "lon": -76.939264, "bike_id": "11e4aa88c10348498f28a3d7bb6bb69e", "rental_uris": {"android": "https://dc.lft.to/lastmile_qr_scan", "ios": "https://dc.lft.to/lastmile_qr_scan"}, "fusion_lat": 0.0, "name": "11e4aa88c10348498f28a3d7bb6bb69e", "is_reserved": 0, "is_disabled": 0, "type": "electric_scooter"}, {"fusion_lon": 0.0, "lat": 38.892194333333336, "lon": -77.04468033333333, "bike_id": "7bce111b258cc3eb91a0496ae6bdd11a", "rental_uris": {"android": "https://dc.lft.to/lastmile_qr_scan", "ios": "https://dc.lft.to/lastmile_qr_scan"}, "fusion_lat": 0.0, "name": "7bce111b258cc3eb91a0496ae6bdd11a", "is_reserved": 0, "is_disabled": 0, "type": "electric_scooter"}, {"fusion_lon": 0.0, "lat": 39.03907183333333, "lon": -77.05039183333334, "bike_id": "79475b5363d0d401839bbd7b22cb48c2", "rental_uris": {"android": "https://dc.lft.to/lastmile_qr_scan", "ios": "https://dc.lft.to/lastmile_qr_scan"}, "fusion_lat": 0.0, "name": "79475b5363d0d401839bbd7b22cb48c2", "is_reserved": 0, "is_disabled": 0, "type": "electric_bike"}, {"fusion_lon": 0.0, "lat": 38.89922333333333, "lon": -77.04149666666666, "bike_id": "b503abd0719ac98d5b29cd28c4087231", "rental_uris": {"android": "https://dc.lft.to/lastmile_qr_scan", "ios": "https://dc.lft.to/lastmile_qr_scan"}, "fusion_lat": 0.0, "name": "b503abd0719ac98d5b29cd28c4087231", "is_reserved": 0, "is_disabled": 0, "type": "electric_scooter"}, {"fusion_lon": 0.0, "lat": 38.914888166666664, "lon": -77.04487733333333, "bike_id": "63e3e5f94a13dec686df66468685249e", "rental_uris": {"android": "https://dc.lft.to/lastmile_qr_scan", "ios": "https://dc.lft.to/lastmile_qr_scan"}, "fusion_lat": 0.0, "name": "63e3e5f94a13dec686df66468685249e", "is_reserved": 0, "is_disabled": 0, "type": "electric_scooter"}, {"fusion_lon": 0.0, "lat": 38.94197916666667, "lon": -77.02858266666667, "bike_id": "28629dde5b9a1d23977364a5056bed56", "rental_uris": {"android": "https://dc.lft.to/lastmile_qr_scan", "ios": "https://dc.lft.to/lastmile_qr_scan"}, "fusion_lat": 0.0, "name": "28629dde5b9a1d23977364a5056bed56", "is_reserved": 0, "is_disabled": 0, "type": "electric_scooter"}, {"fusion_lon": 0.0, "lat": 38.92675666666667, "lon": -77.027494, "bike_id": "b126d5258a3cca5fee1f03ce646d3fc9", "rental_uris": {"android": "https://dc.lft.to/lastmile_qr_scan", "ios": "https://dc.lft.to/lastmile_qr_scan"}, "fusion_lat": 0.0, "name": "b126d5258a3cca5fee1f03ce646d3fc9", "is_reserved": 0, "is_disabled": 0, "type": "electric_scooter"}, {"fusion_lon": 0.0, "lat": 38.90038116666667, "lon": -76.98555516666667, "bike_id": "71edbcd907a2f939a319f2bf02c2ab10", "rental_uris": {"android": "https://dc.lft.to/lastmile_qr_scan", "ios": "https://dc.lft.to/lastmile_qr_scan"}, "fusion_lat": 0.0, "name": "71edbcd907a2f939a319f2bf02c2ab10", "is_reserved": 0, "is_disabled": 0, "type": "electric_scooter"}, {"fusion_lon": 0.0, "lat": 38.90719816666667, "lon": -77.00307316666667, "bike_id": "47d7f6bdd42fa13a3e346e8f84c8164d", "rental_uris": {"android": "https://dc.lft.to/lastmile_qr_scan", "ios": "https://dc.lft.to/lastmile_qr_scan"}, "fusion_lat": 0.0, "name": "47d7f6bdd42fa13a3e346e8f84c8164d", "is_reserved": 0, "is_disabled": 0, "type": "electric_scooter"}, {"fusion_lon": 0.0, "lat": 38.92469533333333, "lon": -77.02209316666666, "bike_id": "bdc1b420c4a5934239c05f2c091321ca", "rental_uris": {"android": "https://dc.lft.to/lastmile_qr_scan", "ios": "https://dc.lft.to/lastmile_qr_scan"}, "fusion_lat": 0.0, "name": "bdc1b420c4a5934239c05f2c091321ca", "is_reserved": 0, "is_disabled": 0, "type": "electric_scooter"}, {"fusion_lon": 0.0, "lat": 38.8941925, "lon": -76.99775183333334, "bike_id": "5b4d4199ad04d14ff27b15180e9d4f9f", "rental_uris": {"android": "https://dc.lft.to/lastmile_qr_scan", "ios": "https://dc.lft.to/lastmile_qr_scan"}, "fusion_lat": 0.0, "name": "5b4d4199ad04d14ff27b15180e9d4f9f", "is_reserved": 0, "is_disabled": 0, "type": "electric_scooter"}, {"fusion_lon": 0.0, "lat": 38.92179, "lon": -77.04619083333333, "bike_id": "1bf364402f48279ad3ab05573f3065c0", "rental_uris": {"android": "https://dc.lft.to/lastmile_qr_scan", "ios": "https://dc.lft.to/lastmile_qr_scan"}, "fusion_lat": 0.0, "name": "1bf364402f48279ad3ab05573f3065c0", "is_reserved": 0, "is_disabled": 0, "type": "electric_scooter"}, {"fusion_lon": 0.0, "lat": 38.92149283333333, "lon": -77.03536166666666, "bike_id": "674a30bb8d432d40f1796fd088b93139", "rental_uris": {"android": "https://dc.lft.to/lastmile_qr_scan", "ios": "https://dc.lft.to/lastmile_qr_scan"}, "fusion_lat": 0.0, "name": "674a30bb8d432d40f1796fd088b93139", "is_reserved": 0, "is_disabled": 0, "type": "electric_scooter"}, {"fusion_lon": 0.0, "lat": 38.9013225, "lon": -76.9807535, "bike_id": "a748e4ccaeb257ff85629d107d0c4be2", "rental_uris": {"android": "https://dc.lft.to/lastmile_qr_scan", "ios": "https://dc.lft.to/lastmile_qr_scan"}, "fusion_lat": 0.0, "name": "a748e4ccaeb257ff85629d107d0c4be2", "is_reserved": 0, "is_disabled": 0, "type": "electric_scooter"}, {"fusion_lon": 0.0, "lat": 38.9246275, "lon": -77.0520655, "bike_id": "b424c4d0673cb15f7e05a62edf476d91", "rental_uris": {"android": "https://dc.lft.to/lastmile_qr_scan", "ios": "https://dc.lft.to/lastmile_qr_scan"}, "fusion_lat": 0.0, "name": "b424c4d0673cb15f7e05a62edf476d91", "is_reserved": 0, "is_disabled": 0, "type": "electric_scooter"}, {"fusion_lon": 0.0, "lat": 38.8837805, "lon": -77.00891383333334, "bike_id": "bdca0560e3412816a4bc304ab3ece3c1", "rental_uris": {"android": "https://dc.lft.to/lastmile_qr_scan", "ios": "https://dc.lft.to/lastmile_qr_scan"}, "fusion_lat": 0.0, "name": "bdca0560e3412816a4bc304ab3ece3c1", "is_reserved": 0, "is_disabled": 0, "type": "electric_scooter"}, {"fusion_lon": 0.0, "lat": 38.89215466666667, "lon": -77.04867283333333, "bike_id": "203f89a305b7b4e02e5cd7666be221ba", "rental_uris": {"android": "https://dc.lft.to/lastmile_qr_scan", "ios": "https://dc.lft.to/lastmile_qr_scan"}, "fusion_lat": 0.0, "name": "203f89a305b7b4e02e5cd7666be221ba", "is_reserved": 0, "is_disabled": 0, "type": "electric_scooter"}, {"fusion_lon": 0.0, "lat": 38.9215345, "lon": -77.03383166666667, "bike_id": "42629983691af987d57ef1c9b83f09eb", "rental_uris": {"android": "https://dc.lft.to/lastmile_qr_scan", "ios": "https://dc.lft.to/lastmile_qr_scan"}, "fusion_lat": 0.0, "name": "42629983691af987d57ef1c9b83f09eb", "is_reserved": 0, "is_disabled": 0, "type": "electric_scooter"}, {"fusion_lon": 0.0, "lat": 38.90049233333333, "lon": -77.036587, "bike_id": "fa218efa93a75d652d239c450d5640b8", "rental_uris": {"android": "https://dc.lft.to/lastmile_qr_scan", "ios": "https://dc.lft.to/lastmile_qr_scan"}, "fusion_lat": 0.0, "name": "fa218efa93a75d652d239c450d5640b8", "is_reserved": 0, "is_disabled": 0, "type": "electric_scooter"}, {"fusion_lon": 0.0, "lat": 38.92857166666667, "lon": -77.014209, "bike_id": "2466c82e99993e5c7bf8c3e35ea96afc", "rental_uris": {"android": "https://dc.lft.to/lastmile_qr_scan", "ios": "https://dc.lft.to/lastmile_qr_scan"}, "fusion_lat": 0.0, "name": "2466c82e99993e5c7bf8c3e35ea96afc", "is_reserved": 0, "is_disabled": 0, "type": "electric_scooter"}, {"fusion_lon": 0.0, "lat": 38.89744816666666, "lon": -76.975828, "bike_id": "b75f67ed0bf55a0941833fc9fcc82045", "rental_uris": {"android": "https://dc.lft.to/lastmile_qr_scan", "ios": "https://dc.lft.to/lastmile_qr_scan"}, "fusion_lat": 0.0, "name": "b75f67ed0bf55a0941833fc9fcc82045", "is_reserved": 0, "is_disabled": 0, "type": "electric_scooter"}, {"fusion_lon": 0.0, "lat": 38.92325816666666, "lon": -77.03680533333333, "bike_id": "29197e5e3c7eb1be55a36685f803cc41", "rental_uris": {"android": "https://dc.lft.to/lastmile_qr_scan", "ios": "https://dc.lft.to/lastmile_qr_scan"}, "fusion_lat": 0.0, "name": "29197e5e3c7eb1be55a36685f803cc41", "is_reserved": 0, "is_disabled": 0, "type": "electric_scooter"}, {"fusion_lon": 0.0, "lat": 38.891979, "lon": -77.00300583333333, "bike_id": "2c052db9cae6c3244f753fcaf559b875", "rental_uris": {"android": "https://dc.lft.to/lastmile_qr_scan", "ios": "https://dc.lft.to/lastmile_qr_scan"}, "fusion_lat": 0.0, "name": "2c052db9cae6c3244f753fcaf559b875", "is_reserved": 0, "is_disabled": 0, "type": "electric_scooter"}, {"fusion_lon": 0.0, "lat": 38.920564, "lon": -77.04259416666666, "bike_id": "fc77fdd9fe879cf1a177d3417a321106", "rental_uris": {"android": "https://dc.lft.to/lastmile_qr_scan", "ios": "https://dc.lft.to/lastmile_qr_scan"}, "fusion_lat": 0.0, "name": "fc77fdd9fe879cf1a177d3417a321106", "is_reserved": 0, "is_disabled": 0, "type": "electric_scooter"}, {"fusion_lon": 0.0, "lat": 38.921479, "lon": -77.03533116666667, "bike_id": "cf2171728da5f2728808625d249b8c6b", "rental_uris": {"android": "https://dc.lft.to/lastmile_qr_scan", "ios": "https://dc.lft.to/lastmile_qr_scan"}, "fusion_lat": 0.0, "name": "cf2171728da5f2728808625d249b8c6b", "is_reserved": 0, "is_disabled": 0, "type": "electric_scooter"}, {"fusion_lon": 0.0, "lat": 38.8996955, "lon": -77.02075833333333, "bike_id": "e0fa1c325ef33a107a27a0e2b1c736f0", "rental_uris": {"android": "https://dc.lft.to/lastmile_qr_scan", "ios": "https://dc.lft.to/lastmile_qr_scan"}, "fusion_lat": 0.0, "name": "e0fa1c325ef33a107a27a0e2b1c736f0", "is_reserved": 0, "is_disabled": 0, "type": "electric_scooter"}, {"fusion_lon": 0.0, "lat": 38.90918933333333, "lon": -77.03180616666667, "bike_id": "ef5ec56a0b68ff5dd37ee2feaa2aa5a5", "rental_uris": {"android": "https://dc.lft.to/lastmile_qr_scan", "ios": "https://dc.lft.to/lastmile_qr_scan"}, "fusion_lat": 0.0, "name": "ef5ec56a0b68ff5dd37ee2feaa2aa5a5", "is_reserved": 0, "is_disabled": 0, "type": "electric_scooter"}, {"fusion_lon": 0.0, "lat": 39.01529333333333, "lon": -77.0436745, "bike_id": "416e4700edbe3dfd602b4425b239f6df", "rental_uris": {"android": "https://dc.lft.to/lastmile_qr_scan", "ios": "https://dc.lft.to/lastmile_qr_scan"}, "fusion_lat": 0.0, "name": "416e4700edbe3dfd602b4425b239f6df", "is_reserved": 0, "is_disabled": 0, "type": "electric_bike"}, {"fusion_lon": 0.0, "lat": 38.91803383333333, "lon": -77.02284883333333, "bike_id": "311130c93dabf7bcc976387e8d866b0f", "rental_uris": {"android": "https://dc.lft.to/lastmile_qr_scan", "ios": "https://dc.lft.to/lastmile_qr_scan"}, "fusion_lat": 0.0, "name": "311130c93dabf7bcc976387e8d866b0f", "is_reserved": 0, "is_disabled": 0, "type": "electric_scooter"}, {"fusion_lon": 0.0, "lat": 38.8988775, "lon": -77.04055916666667, "bike_id": "b1645244d3cd4869251433e2cc167660", "rental_uris": {"android": "https://dc.lft.to/lastmile_qr_scan", "ios": "https://dc.lft.to/lastmile_qr_scan"}, "fusion_lat": 0.0, "name": "b1645244d3cd4869251433e2cc167660", "is_reserved": 0, "is_disabled": 0, "type": "electric_scooter"}, {"fusion_lon": 0.0, "lat": 38.8949405, "lon": -77.04642166666666, "bike_id": "4935caa3183a3dad5312cfefbc5e86b2", "rental_uris": {"android": "https://dc.lft.to/lastmile_qr_scan", "ios": "https://dc.lft.to/lastmile_qr_scan"}, "fusion_lat": 0.0, "name": "4935caa3183a3dad5312cfefbc5e86b2", "is_reserved": 0, "is_disabled": 0, "type": "electric_scooter"}, {"fusion_lon": 0.0, "lat": 38.93815633333333, "lon": -77.05992333333333, "bike_id": "65f12a56b83ed03e6c95a30a0fced95d", "rental_uris": {"android": "https://dc.lft.to/lastmile_qr_scan", "ios": "https://dc.lft.to/lastmile_qr_scan"}, "fusion_lat": 0.0, "name": "65f12a56b83ed03e6c95a30a0fced95d", "is_reserved": 0, "is_disabled": 0, "type": "electric_scooter"}, {"fusion_lon": 0.0, "lat": 38.927586, "lon": -77.03205866666667, "bike_id": "e7ac065acd7bd881e78535b8d7a5ef28", "rental_uris": {"android": "https://dc.lft.to/lastmile_qr_scan", "ios": "https://dc.lft.to/lastmile_qr_scan"}, "fusion_lat": 0.0, "name": "e7ac065acd7bd881e78535b8d7a5ef28", "is_reserved": 0, "is_disabled": 0, "type": "electric_scooter"}, {"fusion_lon": 0.0, "lat": 38.903735, "lon": -77.06868716666666, "bike_id": "ab1ead56ce39cd350802803216ecc74e", "rental_uris": {"android": "https://dc.lft.to/lastmile_qr_scan", "ios": "https://dc.lft.to/lastmile_qr_scan"}, "fusion_lat": 0.0, "name": "ab1ead56ce39cd350802803216ecc74e", "is_reserved": 0, "is_disabled": 0, "type": "electric_scooter"}, {"fusion_lon": 0.0, "lat": 38.90341983333333, "lon": -76.98277033333333, "bike_id": "042e7ea1f1448fbe368523a2cacc9845", "rental_uris": {"android": "https://dc.lft.to/lastmile_qr_scan", "ios": "https://dc.lft.to/lastmile_qr_scan"}, "fusion_lat": 0.0, "name": "042e7ea1f1448fbe368523a2cacc9845", "is_reserved": 0, "is_disabled": 0, "type": "electric_scooter"}, {"fusion_lon": 0.0, "lat": 38.887397, "lon": -77.025756, "bike_id": "b63e3ff3700b71ceee6a97db0bbfafb1", "rental_uris": {"android": "https://dc.lft.to/lastmile_qr_scan", "ios": "https://dc.lft.to/lastmile_qr_scan"}, "fusion_lat": 0.0, "name": "b63e3ff3700b71ceee6a97db0bbfafb1", "is_reserved": 0, "is_disabled": 0, "type": "electric_scooter"}, {"fusion_lon": 0.0, "lat": 38.8925655, "lon": -77.0021885, "bike_id": "91fe2323e9b6e5d27b29500f349ca2e5", "rental_uris": {"android": "https://dc.lft.to/lastmile_qr_scan", "ios": "https://dc.lft.to/lastmile_qr_scan"}, "fusion_lat": 0.0, "name": "91fe2323e9b6e5d27b29500f349ca2e5", "is_reserved": 0, "is_disabled": 0, "type": "electric_scooter"}, {"fusion_lon": 0.0, "lat": 38.90046683333333, "lon": -77.04334133333333, "bike_id": "77003f95b65cd40c80d77741e5ac6cbc", "rental_uris": {"android": "https://dc.lft.to/lastmile_qr_scan", "ios": "https://dc.lft.to/lastmile_qr_scan"}, "fusion_lat": 0.0, "name": "77003f95b65cd40c80d77741e5ac6cbc", "is_reserved": 0, "is_disabled": 0, "type": "electric_scooter"}, {"fusion_lon": 0.0, "lat": 38.897187333333335, "lon": -77.03214066666666, "bike_id": "955a02a43f1d6ccdb844100ffa2949c6", "rental_uris": {"android": "https://dc.lft.to/lastmile_qr_scan", "ios": "https://dc.lft.to/lastmile_qr_scan"}, "fusion_lat": 0.0, "name": "955a02a43f1d6ccdb844100ffa2949c6", "is_reserved": 0, "is_disabled": 0, "type": "electric_scooter"}, {"fusion_lon": 0.0, "lat": 38.892201666666665, "lon": -77.04364416666667, "bike_id": "5b0fffdd9c9dabaf822e9d4f50a671c3", "rental_uris": {"android": "https://dc.lft.to/lastmile_qr_scan", "ios": "https://dc.lft.to/lastmile_qr_scan"}, "fusion_lat": 0.0, "name": "5b0fffdd9c9dabaf822e9d4f50a671c3", "is_reserved": 0, "is_disabled": 0, "type": "electric_scooter"}, {"fusion_lon": 0.0, "lat": 38.90429666666667, "lon": -77.03432883333333, "bike_id": "1287bffc3109d972edd68e5e33b34959", "rental_uris": {"android": "https://dc.lft.to/lastmile_qr_scan", "ios": "https://dc.lft.to/lastmile_qr_scan"}, "fusion_lat": 0.0, "name": "1287bffc3109d972edd68e5e33b34959", "is_reserved": 0, "is_disabled": 0, "type": "electric_scooter"}, {"fusion_lon": 0.0, "lat": 38.899664666666666, "lon": -77.03358866666666, "bike_id": "5d0d58a217b80f825447369b967b343d", "rental_uris": {"android": "https://dc.lft.to/lastmile_qr_scan", "ios": "https://dc.lft.to/lastmile_qr_scan"}, "fusion_lat": 0.0, "name": "5d0d58a217b80f825447369b967b343d", "is_reserved": 0, "is_disabled": 0, "type": "electric_scooter"}, {"fusion_lon": 0.0, "lat": 38.900508, "lon": -77.05003633333334, "bike_id": "a2dfedec33882ef1ab3fdf59a09e4f45", "rental_uris": {"android": "https://dc.lft.to/lastmile_qr_scan", "ios": "https://dc.lft.to/lastmile_qr_scan"}, "fusion_lat": 0.0, "name": "a2dfedec33882ef1ab3fdf59a09e4f45", "is_reserved": 0, "is_disabled": 0, "type": "electric_scooter"}, {"fusion_lon": 0.0, "lat": 38.911101333333335, "lon": -77.04522933333334, "bike_id": "e7a093c151add181a7ea074abd5e60af", "rental_uris": {"android": "https://dc.lft.to/lastmile_qr_scan", "ios": "https://dc.lft.to/lastmile_qr_scan"}, "fusion_lat": 0.0, "name": "e7a093c151add181a7ea074abd5e60af", "is_reserved": 0, "is_disabled": 0, "type": "electric_scooter"}, {"fusion_lon": 0.0, "lat": 38.884906666666666, "lon": -77.00715183333334, "bike_id": "5e8a361235a6d84dc419e6a433979ea3", "rental_uris": {"android": "https://dc.lft.to/lastmile_qr_scan", "ios": "https://dc.lft.to/lastmile_qr_scan"}, "fusion_lat": 0.0, "name": "5e8a361235a6d84dc419e6a433979ea3", "is_reserved": 0, "is_disabled": 0, "type": "electric_scooter"}, {"fusion_lon": 0.0, "lat": 38.9015545, "lon": -77.05055933333334, "bike_id": "c57a2e0bb373215365e38786edc119c0", "rental_uris": {"android": "https://dc.lft.to/lastmile_qr_scan", "ios": "https://dc.lft.to/lastmile_qr_scan"}, "fusion_lat": 0.0, "name": "c57a2e0bb373215365e38786edc119c0", "is_reserved": 0, "is_disabled": 0, "type": "electric_scooter"}, {"fusion_lon": 0.0, "lat": 38.903162333333334, "lon": -77.038419, "bike_id": "eddad269937b04190051b316949a76a3", "rental_uris": {"android": "https://dc.lft.to/lastmile_qr_scan", "ios": "https://dc.lft.to/lastmile_qr_scan"}, "fusion_lat": 0.0, "name": "eddad269937b04190051b316949a76a3", "is_reserved": 0, "is_disabled": 0, "type": "electric_scooter"}, {"fusion_lon": 0.0, "lat": 38.895451666666666, "lon": -76.94912533333333, "bike_id": "38dc8ddd17625891a6c9a14025b55f9a", "rental_uris": {"android": "https://dc.lft.to/lastmile_qr_scan", "ios": "https://dc.lft.to/lastmile_qr_scan"}, "fusion_lat": 0.0, "name": "38dc8ddd17625891a6c9a14025b55f9a", "is_reserved": 0, "is_disabled": 0, "type": "electric_scooter"}, {"fusion_lon": 0.0, "lat": 38.92305266666666, "lon": -77.03117383333333, "bike_id": "57326960ba7c0397e404bd20d6b6c4d0", "rental_uris": {"android": "https://dc.lft.to/lastmile_qr_scan", "ios": "https://dc.lft.to/lastmile_qr_scan"}, "fusion_lat": 0.0, "name": "57326960ba7c0397e404bd20d6b6c4d0", "is_reserved": 0, "is_disabled": 0, "type": "electric_scooter"}, {"fusion_lon": 0.0, "lat": 38.900554666666665, "lon": -76.984895, "bike_id": "80be45f1bc9f8e0605b2e3eb27577988", "rental_uris": {"android": "https://dc.lft.to/lastmile_qr_scan", "ios": "https://dc.lft.to/lastmile_qr_scan"}, "fusion_lat": 0.0, "name": "80be45f1bc9f8e0605b2e3eb27577988", "is_reserved": 0, "is_disabled": 0, "type": "electric_scooter"}, {"fusion_lon": 0.0, "lat": 38.888690833333335, "lon": -76.986787, "bike_id": "4fd4798a8168164a3d93e821fcf2dc0e", "rental_uris": {"android": "https://dc.lft.to/lastmile_qr_scan", "ios": "https://dc.lft.to/lastmile_qr_scan"}, "fusion_lat": 0.0, "name": "4fd4798a8168164a3d93e821fcf2dc0e", "is_reserved": 0, "is_disabled": 0, "type": "electric_scooter"}, {"fusion_lon": 0.0, "lat": 38.95578166666667, "lon": -76.96888316666667, "bike_id": "d602ee5731c7fc363bb3a70cd19c8567", "rental_uris": {"android": "https://dc.lft.to/lastmile_qr_scan", "ios": "https://dc.lft.to/lastmile_qr_scan"}, "fusion_lat": 0.0, "name": "d602ee5731c7fc363bb3a70cd19c8567", "is_reserved": 0, "is_disabled": 0, "type": "electric_bike"}, {"fusion_lon": 0.0, "lat": 38.92052266666666, "lon": -77.04292383333333, "bike_id": "b1d6d07eea144b5995a38e6d3b0e3f05", "rental_uris": {"android": "https://dc.lft.to/lastmile_qr_scan", "ios": "https://dc.lft.to/lastmile_qr_scan"}, "fusion_lat": 0.0, "name": "b1d6d07eea144b5995a38e6d3b0e3f05", "is_reserved": 0, "is_disabled": 0, "type": "electric_scooter"}, {"fusion_lon": 0.0, "lat": 38.89357366666667, "lon": -77.021853, "bike_id": "226998204223a007bd18d5ce0d37ffe3", "rental_uris": {"android": "https://dc.lft.to/lastmile_qr_scan", "ios": "https://dc.lft.to/lastmile_qr_scan"}, "fusion_lat": 0.0, "name": "226998204223a007bd18d5ce0d37ffe3", "is_reserved": 0, "is_disabled": 0, "type": "electric_scooter"}, {"fusion_lon": 0.0, "lat": 38.93590566666666, "lon": -77.05849266666667, "bike_id": "63053a97554c1155423e7503d7b3e0f4", "rental_uris": {"android": "https://dc.lft.to/lastmile_qr_scan", "ios": "https://dc.lft.to/lastmile_qr_scan"}, "fusion_lat": 0.0, "name": "63053a97554c1155423e7503d7b3e0f4", "is_reserved": 0, "is_disabled": 0, "type": "electric_scooter"}, {"fusion_lon": 0.0, "lat": 38.903606333333336, "lon": -77.03846933333334, "bike_id": "58348deae670352c0f5c2f71c36a0da4", "rental_uris": {"android": "https://dc.lft.to/lastmile_qr_scan", "ios": "https://dc.lft.to/lastmile_qr_scan"}, "fusion_lat": 0.0, "name": "58348deae670352c0f5c2f71c36a0da4", "is_reserved": 0, "is_disabled": 0, "type": "electric_scooter"}, {"fusion_lon": 0.0, "lat": 38.916636, "lon": -77.03852866666666, "bike_id": "edde67455138723aba20f245d8bbc706", "rental_uris": {"android": "https://dc.lft.to/lastmile_qr_scan", "ios": "https://dc.lft.to/lastmile_qr_scan"}, "fusion_lat": 0.0, "name": "edde67455138723aba20f245d8bbc706", "is_reserved": 0, "is_disabled": 0, "type": "electric_scooter"}, {"fusion_lon": 0.0, "lat": 38.900304166666665, "lon": -76.98755933333334, "bike_id": "f90ff41d19b87ac1e422f6ebf7dc9285", "rental_uris": {"android": "https://dc.lft.to/lastmile_qr_scan", "ios": "https://dc.lft.to/lastmile_qr_scan"}, "fusion_lat": 0.0, "name": "f90ff41d19b87ac1e422f6ebf7dc9285", "is_reserved": 0, "is_disabled": 0, "type": "electric_scooter"}, {"fusion_lon": 0.0, "lat": 38.90029416666667, "lon": -76.987549, "bike_id": "23d6ea5f068fe74e669e0dca60dfa470", "rental_uris": {"android": "https://dc.lft.to/lastmile_qr_scan", "ios": "https://dc.lft.to/lastmile_qr_scan"}, "fusion_lat": 0.0, "name": "23d6ea5f068fe74e669e0dca60dfa470", "is_reserved": 0, "is_disabled": 0, "type": "electric_scooter"}, {"fusion_lon": 0.0, "lat": 38.92466866666667, "lon": -77.02221816666666, "bike_id": "efb8b4788d3373fbd2607ebd6973ea4c", "rental_uris": {"android": "https://dc.lft.to/lastmile_qr_scan", "ios": "https://dc.lft.to/lastmile_qr_scan"}, "fusion_lat": 0.0, "name": "efb8b4788d3373fbd2607ebd6973ea4c", "is_reserved": 0, "is_disabled": 0, "type": "electric_scooter"}, {"fusion_lon": 0.0, "lat": 38.91077116666666, "lon": -77.04477233333333, "bike_id": "54c0660da1c83267258ff29ce57ac8e5", "rental_uris": {"android": "https://dc.lft.to/lastmile_qr_scan", "ios": "https://dc.lft.to/lastmile_qr_scan"}, "fusion_lat": 0.0, "name": "54c0660da1c83267258ff29ce57ac8e5", "is_reserved": 0, "is_disabled": 0, "type": "electric_scooter"}, {"fusion_lon": 0.0, "lat": 38.896089, "lon": -77.04515333333333, "bike_id": "9aeadef671b82d59ce4a54065521f4de", "rental_uris": {"android": "https://dc.lft.to/lastmile_qr_scan", "ios": "https://dc.lft.to/lastmile_qr_scan"}, "fusion_lat": 0.0, "name": "9aeadef671b82d59ce4a54065521f4de", "is_reserved": 0, "is_disabled": 0, "type": "electric_scooter"}, {"fusion_lon": 0.0, "lat": 38.923022833333334, "lon": -77.0211815, "bike_id": "7bae2d40e6085a3a62737febd42c9ef4", "rental_uris": {"android": "https://dc.lft.to/lastmile_qr_scan", "ios": "https://dc.lft.to/lastmile_qr_scan"}, "fusion_lat": 0.0, "name": "7bae2d40e6085a3a62737febd42c9ef4", "is_reserved": 0, "is_disabled": 0, "type": "electric_scooter"}, {"fusion_lon": 0.0, "lat": 38.915746166666665, "lon": -77.03659216666667, "bike_id": "804b006191425f27dab45f3145f68ccd", "rental_uris": {"android": "https://dc.lft.to/lastmile_qr_scan", "ios": "https://dc.lft.to/lastmile_qr_scan"}, "fusion_lat": 0.0, "name": "804b006191425f27dab45f3145f68ccd", "is_reserved": 0, "is_disabled": 0, "type": "electric_scooter"}, {"fusion_lon": 0.0, "lat": 38.953104333333336, "lon": -76.98184116666667, "bike_id": "5747e0d29d4e128240f1430f6b4d9283", "rental_uris": {"android": "https://dc.lft.to/lastmile_qr_scan", "ios": "https://dc.lft.to/lastmile_qr_scan"}, "fusion_lat": 0.0, "name": "5747e0d29d4e128240f1430f6b4d9283", "is_reserved": 0, "is_disabled": 0, "type": "electric_bike"}, {"fusion_lon": 0.0, "lat": 38.908467333333334, "lon": -77.04944883333333, "bike_id": "e61703cf23ed55cdf66c86b1f1d7bde3", "rental_uris": {"android": "https://dc.lft.to/lastmile_qr_scan", "ios": "https://dc.lft.to/lastmile_qr_scan"}, "fusion_lat": 0.0, "name": "e61703cf23ed55cdf66c86b1f1d7bde3", "is_reserved": 0, "is_disabled": 0, "type": "electric_scooter"}, {"fusion_lon": 0.0, "lat": 38.869504166666665, "lon": -77.13306783333333, "bike_id": "d33e78fe64bbe9a6c921a6d771aca38b", "rental_uris": {"android": "https://dc.lft.to/lastmile_qr_scan", "ios": "https://dc.lft.to/lastmile_qr_scan"}, "fusion_lat": 0.0, "name": "d33e78fe64bbe9a6c921a6d771aca38b", "is_reserved": 0, "is_disabled": 0, "type": "electric_bike"}, {"fusion_lon": 0.0, "lat": 38.898648333333334, "lon": -77.0138535, "bike_id": "69d2a72424b156cf583679f2cd25b719", "rental_uris": {"android": "https://dc.lft.to/lastmile_qr_scan", "ios": "https://dc.lft.to/lastmile_qr_scan"}, "fusion_lat": 0.0, "name": "69d2a72424b156cf583679f2cd25b719", "is_reserved": 0, "is_disabled": 0, "type": "electric_scooter"}, {"fusion_lon": 0.0, "lat": 38.91586816666667, "lon": -77.045892, "bike_id": "00aed23f105f73670a66f11eb6a31f09", "rental_uris": {"android": "https://dc.lft.to/lastmile_qr_scan", "ios": "https://dc.lft.to/lastmile_qr_scan"}, "fusion_lat": 0.0, "name": "00aed23f105f73670a66f11eb6a31f09", "is_reserved": 0, "is_disabled": 0, "type": "electric_scooter"}, {"fusion_lon": 0.0, "lat": 38.913559, "lon": -77.06474883333334, "bike_id": "02bd428908209c82b5ff17c1432fe704", "rental_uris": {"android": "https://dc.lft.to/lastmile_qr_scan", "ios": "https://dc.lft.to/lastmile_qr_scan"}, "fusion_lat": 0.0, "name": "02bd428908209c82b5ff17c1432fe704", "is_reserved": 0, "is_disabled": 0, "type": "electric_scooter"}, {"fusion_lon": 0.0, "lat": 38.92148266666667, "lon": -77.03536166666666, "bike_id": "cd17a674a9d5ebb5c7e5a048a699a5e6", "rental_uris": {"android": "https://dc.lft.to/lastmile_qr_scan", "ios": "https://dc.lft.to/lastmile_qr_scan"}, "fusion_lat": 0.0, "name": "cd17a674a9d5ebb5c7e5a048a699a5e6", "is_reserved": 0, "is_disabled": 0, "type": "electric_scooter"}, {"fusion_lon": 0.0, "lat": 38.83934216666667, "lon": -77.07904283333333, "bike_id": "3f0ca06f2edeb7c615d0840c8f60fce9", "rental_uris": {"android": "https://dc.lft.to/lastmile_qr_scan", "ios": "https://dc.lft.to/lastmile_qr_scan"}, "fusion_lat": 0.0, "name": "3f0ca06f2edeb7c615d0840c8f60fce9", "is_reserved": 0, "is_disabled": 0, "type": "electric_bike"}, {"fusion_lon": 0.0, "lat": 38.89233483333334, "lon": -77.00325466666666, "bike_id": "52a837c35ae9b7cb1f31f613aa1cf3b8", "rental_uris": {"android": "https://dc.lft.to/lastmile_qr_scan", "ios": "https://dc.lft.to/lastmile_qr_scan"}, "fusion_lat": 0.0, "name": "52a837c35ae9b7cb1f31f613aa1cf3b8", "is_reserved": 0, "is_disabled": 0, "type": "electric_scooter"}, {"fusion_lon": 0.0, "lat": 38.890967, "lon": -77.00211166666666, "bike_id": "226a2c502e928d6cadb0e3618c202fd0", "rental_uris": {"android": "https://dc.lft.to/lastmile_qr_scan", "ios": "https://dc.lft.to/lastmile_qr_scan"}, "fusion_lat": 0.0, "name": "226a2c502e928d6cadb0e3618c202fd0", "is_reserved": 0, "is_disabled": 0, "type": "electric_scooter"}, {"fusion_lon": 0.0, "lat": 38.92696983333333, "lon": -77.02277533333333, "bike_id": "7e54fa72466a802533901a9ecbf4f3db", "rental_uris": {"android": "https://dc.lft.to/lastmile_qr_scan", "ios": "https://dc.lft.to/lastmile_qr_scan"}, "fusion_lat": 0.0, "name": "7e54fa72466a802533901a9ecbf4f3db", "is_reserved": 0, "is_disabled": 0, "type": "electric_scooter"}, {"fusion_lon": 0.0, "lat": 38.89888416666667, "lon": -77.0404835, "bike_id": "d0bb1b65154d7daac44bd287108eb6d9", "rental_uris": {"android": "https://dc.lft.to/lastmile_qr_scan", "ios": "https://dc.lft.to/lastmile_qr_scan"}, "fusion_lat": 0.0, "name": "d0bb1b65154d7daac44bd287108eb6d9", "is_reserved": 0, "is_disabled": 0, "type": "electric_scooter"}, {"fusion_lon": 0.0, "lat": 38.8358355, "lon": -76.99033716666666, "bike_id": "e4f8db4a8cb9025e2b1cba2bcdff842a", "rental_uris": {"android": "https://dc.lft.to/lastmile_qr_scan", "ios": "https://dc.lft.to/lastmile_qr_scan"}, "fusion_lat": 0.0, "name": "e4f8db4a8cb9025e2b1cba2bcdff842a", "is_reserved": 0, "is_disabled": 0, "type": "electric_bike"}, {"fusion_lon": 0.0, "lat": 38.90336966666667, "lon": -76.97622033333333, "bike_id": "5f2412cf6196da44dd19880406efb3f3", "rental_uris": {"android": "https://dc.lft.to/lastmile_qr_scan", "ios": "https://dc.lft.to/lastmile_qr_scan"}, "fusion_lat": 0.0, "name": "5f2412cf6196da44dd19880406efb3f3", "is_reserved": 0, "is_disabled": 0, "type": "electric_scooter"}, {"fusion_lon": 0.0, "lat": 38.9225595, "lon": -77.01953666666667, "bike_id": "5c1fb199ffe3f4ba7673447907d0dbfb", "rental_uris": {"android": "https://dc.lft.to/lastmile_qr_scan", "ios": "https://dc.lft.to/lastmile_qr_scan"}, "fusion_lat": 0.0, "name": "5c1fb199ffe3f4ba7673447907d0dbfb", "is_reserved": 0, "is_disabled": 0, "type": "electric_scooter"}, {"fusion_lon": 0.0, "lat": 38.96388616666667, "lon": -77.02591583333333, "bike_id": "099334c62c49ae6a83ff102d2de104d4", "rental_uris": {"android": "https://dc.lft.to/lastmile_qr_scan", "ios": "https://dc.lft.to/lastmile_qr_scan"}, "fusion_lat": 0.0, "name": "099334c62c49ae6a83ff102d2de104d4", "is_reserved": 0, "is_disabled": 0, "type": "electric_scooter"}, {"fusion_lon": 0.0, "lat": 38.9189595, "lon": -77.10173033333334, "bike_id": "3760bf94d437a764a8c247a13fc0897b", "rental_uris": {"android": "https://dc.lft.to/lastmile_qr_scan", "ios": "https://dc.lft.to/lastmile_qr_scan"}, "fusion_lat": 0.0, "name": "3760bf94d437a764a8c247a13fc0897b", "is_reserved": 0, "is_disabled": 0, "type": "electric_bike"}, {"fusion_lon": 0.0, "lat": 38.900382, "lon": -76.97231116666667, "bike_id": "68307801c329df4488c3713dfbfb4654", "rental_uris": {"android": "https://dc.lft.to/lastmile_qr_scan", "ios": "https://dc.lft.to/lastmile_qr_scan"}, "fusion_lat": 0.0, "name": "68307801c329df4488c3713dfbfb4654", "is_reserved": 0, "is_disabled": 0, "type": "electric_bike"}, {"fusion_lon": 0.0, "lat": 38.90611216666667, "lon": -77.12889783333334, "bike_id": "07480bd2c6aacbaaecf8da1514ac99eb", "rental_uris": {"android": "https://dc.lft.to/lastmile_qr_scan", "ios": "https://dc.lft.to/lastmile_qr_scan"}, "fusion_lat": 0.0, "name": "07480bd2c6aacbaaecf8da1514ac99eb", "is_reserved": 0, "is_disabled": 0, "type": "electric_bike"}, {"fusion_lon": 0.0, "lat": 38.925651333333334, "lon": -76.9996105, "bike_id": "3989671e2cc0047e471a206350a62b1f", "rental_uris": {"android": "https://dc.lft.to/lastmile_qr_scan", "ios": "https://dc.lft.to/lastmile_qr_scan"}, "fusion_lat": 0.0, "name": "3989671e2cc0047e471a206350a62b1f", "is_reserved": 0, "is_disabled": 0, "type": "electric_scooter"}, {"fusion_lon": 0.0, "lat": 38.880550166666666, "lon": -77.011787, "bike_id": "ca72a1f6b0b0a7044a80f175a5670bd0", "rental_uris": {"android": "https://dc.lft.to/lastmile_qr_scan", "ios": "https://dc.lft.to/lastmile_qr_scan"}, "fusion_lat": 0.0, "name": "ca72a1f6b0b0a7044a80f175a5670bd0", "is_reserved": 0, "is_disabled": 0, "type": "electric_scooter"}, {"fusion_lon": 0.0, "lat": 38.884763166666666, "lon": -77.02209333333333, "bike_id": "9cd496ab1e644a8be1d029486f254c3d", "rental_uris": {"android": "https://dc.lft.to/lastmile_qr_scan", "ios": "https://dc.lft.to/lastmile_qr_scan"}, "fusion_lat": 0.0, "name": "9cd496ab1e644a8be1d029486f254c3d", "is_reserved": 0, "is_disabled": 0, "type": "electric_scooter"}, {"fusion_lon": 0.0, "lat": 38.896077, "lon": -77.04516266666667, "bike_id": "99a187795eb298bffc41f5d18921c5c6", "rental_uris": {"android": "https://dc.lft.to/lastmile_qr_scan", "ios": "https://dc.lft.to/lastmile_qr_scan"}, "fusion_lat": 0.0, "name": "99a187795eb298bffc41f5d18921c5c6", "is_reserved": 0, "is_disabled": 0, "type": "electric_scooter"}, {"fusion_lon": 0.0, "lat": 38.922553, "lon": -77.01952466666667, "bike_id": "c10b65100585093d261dd561c8c21fdb", "rental_uris": {"android": "https://dc.lft.to/lastmile_qr_scan", "ios": "https://dc.lft.to/lastmile_qr_scan"}, "fusion_lat": 0.0, "name": "c10b65100585093d261dd561c8c21fdb", "is_reserved": 0, "is_disabled": 0, "type": "electric_scooter"}, {"fusion_lon": 0.0, "lat": 38.89717183333333, "lon": -77.02900216666667, "bike_id": "8287b729af63b901b545dadc4f45a4d0", "rental_uris": {"android": "https://dc.lft.to/lastmile_qr_scan", "ios": "https://dc.lft.to/lastmile_qr_scan"}, "fusion_lat": 0.0, "name": "8287b729af63b901b545dadc4f45a4d0", "is_reserved": 0, "is_disabled": 0, "type": "electric_scooter"}, {"fusion_lon": 0.0, "lat": 38.907818666666664, "lon": -77.04500666666667, "bike_id": "5fb80e4388b0b29cb9584e2093d8b1fc", "rental_uris": {"android": "https://dc.lft.to/lastmile_qr_scan", "ios": "https://dc.lft.to/lastmile_qr_scan"}, "fusion_lat": 0.0, "name": "5fb80e4388b0b29cb9584e2093d8b1fc", "is_reserved": 0, "is_disabled": 0, "type": "electric_scooter"}, {"fusion_lon": 0.0, "lat": 38.89719483333333, "lon": -77.04698783333333, "bike_id": "512db1b74b30d9cd12723bd7ac1495d7", "rental_uris": {"android": "https://dc.lft.to/lastmile_qr_scan", "ios": "https://dc.lft.to/lastmile_qr_scan"}, "fusion_lat": 0.0, "name": "512db1b74b30d9cd12723bd7ac1495d7", "is_reserved": 0, "is_disabled": 0, "type": "electric_scooter"}, {"fusion_lon": 0.0, "lat": 38.9001635, "lon": -76.9876185, "bike_id": "583e9ab522ac34ea77bcaa0c06b31a85", "rental_uris": {"android": "https://dc.lft.to/lastmile_qr_scan", "ios": "https://dc.lft.to/lastmile_qr_scan"}, "fusion_lat": 0.0, "name": "583e9ab522ac34ea77bcaa0c06b31a85", "is_reserved": 0, "is_disabled": 0, "type": "electric_scooter"}, {"fusion_lon": 0.0, "lat": 38.915552, "lon": -77.03201816666666, "bike_id": "779de14fdd40a496d826eb074d0693ef", "rental_uris": {"android": "https://dc.lft.to/lastmile_qr_scan", "ios": "https://dc.lft.to/lastmile_qr_scan"}, "fusion_lat": 0.0, "name": "779de14fdd40a496d826eb074d0693ef", "is_reserved": 0, "is_disabled": 0, "type": "electric_scooter"}, {"fusion_lon": 0.0, "lat": 38.9037225, "lon": -77.03196283333334, "bike_id": "a93b9d373d4162755bb34f8f067f7103", "rental_uris": {"android": "https://dc.lft.to/lastmile_qr_scan", "ios": "https://dc.lft.to/lastmile_qr_scan"}, "fusion_lat": 0.0, "name": "a93b9d373d4162755bb34f8f067f7103", "is_reserved": 0, "is_disabled": 0, "type": "electric_scooter"}, {"fusion_lon": 0.0, "lat": 38.89810266666667, "lon": -77.02943183333333, "bike_id": "b0844df4d5b28e391bf3163deb9facd7", "rental_uris": {"android": "https://dc.lft.to/lastmile_qr_scan", "ios": "https://dc.lft.to/lastmile_qr_scan"}, "fusion_lat": 0.0, "name": "b0844df4d5b28e391bf3163deb9facd7", "is_reserved": 0, "is_disabled": 0, "type": "electric_scooter"}, {"fusion_lon": 0.0, "lat": 38.90527016666667, "lon": -77.06173333333334, "bike_id": "5a2f7a923db58fcf2823fb71d44ecac3", "rental_uris": {"android": "https://dc.lft.to/lastmile_qr_scan", "ios": "https://dc.lft.to/lastmile_qr_scan"}, "fusion_lat": 0.0, "name": "5a2f7a923db58fcf2823fb71d44ecac3", "is_reserved": 0, "is_disabled": 0, "type": "electric_scooter"}, {"fusion_lon": 0.0, "lat": 38.9015715, "lon": -77.02992516666667, "bike_id": "c829a2ce2408692682fdec4038a8de5d", "rental_uris": {"android": "https://dc.lft.to/lastmile_qr_scan", "ios": "https://dc.lft.to/lastmile_qr_scan"}, "fusion_lat": 0.0, "name": "c829a2ce2408692682fdec4038a8de5d", "is_reserved": 0, "is_disabled": 0, "type": "electric_scooter"}, {"fusion_lon": 0.0, "lat": 38.84692733333333, "lon": -76.99620983333334, "bike_id": "c91e257e8fb67d280449f7a1115f8a9c", "rental_uris": {"android": "https://dc.lft.to/lastmile_qr_scan", "ios": "https://dc.lft.to/lastmile_qr_scan"}, "fusion_lat": 0.0, "name": "c91e257e8fb67d280449f7a1115f8a9c", "is_reserved": 0, "is_disabled": 0, "type": "electric_scooter"}, {"fusion_lon": 0.0, "lat": 38.92963116666667, "lon": -77.027983, "bike_id": "5f414ab0ee78872db50fca3d6d4f0915", "rental_uris": {"android": "https://dc.lft.to/lastmile_qr_scan", "ios": "https://dc.lft.to/lastmile_qr_scan"}, "fusion_lat": 0.0, "name": "5f414ab0ee78872db50fca3d6d4f0915", "is_reserved": 0, "is_disabled": 0, "type": "electric_scooter"}, {"fusion_lon": 0.0, "lat": 38.8846085, "lon": -77.00041133333333, "bike_id": "fe53d4984fa26f642854d23e2a2665d2", "rental_uris": {"android": "https://dc.lft.to/lastmile_qr_scan", "ios": "https://dc.lft.to/lastmile_qr_scan"}, "fusion_lat": 0.0, "name": "fe53d4984fa26f642854d23e2a2665d2", "is_reserved": 0, "is_disabled": 0, "type": "electric_scooter"}, {"fusion_lon": 0.0, "lat": 38.935399333333336, "lon": -77.03420633333333, "bike_id": "214dc0241182c4eb8f2691f8b42b0411", "rental_uris": {"android": "https://dc.lft.to/lastmile_qr_scan", "ios": "https://dc.lft.to/lastmile_qr_scan"}, "fusion_lat": 0.0, "name": "214dc0241182c4eb8f2691f8b42b0411", "is_reserved": 0, "is_disabled": 0, "type": "electric_scooter"}, {"fusion_lon": 0.0, "lat": 38.913378, "lon": -76.988879, "bike_id": "d54eeb4dd7c0a6c8477043862664dc06", "rental_uris": {"android": "https://dc.lft.to/lastmile_qr_scan", "ios": "https://dc.lft.to/lastmile_qr_scan"}, "fusion_lat": 0.0, "name": "d54eeb4dd7c0a6c8477043862664dc06", "is_reserved": 0, "is_disabled": 0, "type": "electric_scooter"}, {"fusion_lon": 0.0, "lat": 38.9310505, "lon": -77.03824883333333, "bike_id": "e72aaa059eb05d582c50596aff2c107a", "rental_uris": {"android": "https://dc.lft.to/lastmile_qr_scan", "ios": "https://dc.lft.to/lastmile_qr_scan"}, "fusion_lat": 0.0, "name": "e72aaa059eb05d582c50596aff2c107a", "is_reserved": 0, "is_disabled": 0, "type": "electric_scooter"}, {"fusion_lon": 0.0, "lat": 38.87541616666667, "lon": -77.00577983333334, "bike_id": "a5d7cc02640ffa4d80d99bacada11213", "rental_uris": {"android": "https://dc.lft.to/lastmile_qr_scan", "ios": "https://dc.lft.to/lastmile_qr_scan"}, "fusion_lat": 0.0, "name": "a5d7cc02640ffa4d80d99bacada11213", "is_reserved": 0, "is_disabled": 0, "type": "electric_scooter"}, {"fusion_lon": 0.0, "lat": 38.924379, "lon": -77.01955133333334, "bike_id": "7127ff380ad1aeb846545f4433ce793a", "rental_uris": {"android": "https://dc.lft.to/lastmile_qr_scan", "ios": "https://dc.lft.to/lastmile_qr_scan"}, "fusion_lat": 0.0, "name": "7127ff380ad1aeb846545f4433ce793a", "is_reserved": 0, "is_disabled": 0, "type": "electric_scooter"}, {"fusion_lon": 0.0, "lat": 38.892365, "lon": -77.04880566666667, "bike_id": "7419459a23dce63f99669fa54d0bc6f8", "rental_uris": {"android": "https://dc.lft.to/lastmile_qr_scan", "ios": "https://dc.lft.to/lastmile_qr_scan"}, "fusion_lat": 0.0, "name": "7419459a23dce63f99669fa54d0bc6f8", "is_reserved": 0, "is_disabled": 0, "type": "electric_scooter"}, {"fusion_lon": 0.0, "lat": 38.87995566666667, "lon": -76.98544666666666, "bike_id": "8224ea51f3fa149d789c4b699516277d", "rental_uris": {"android": "https://dc.lft.to/lastmile_qr_scan", "ios": "https://dc.lft.to/lastmile_qr_scan"}, "fusion_lat": 0.0, "name": "8224ea51f3fa149d789c4b699516277d", "is_reserved": 0, "is_disabled": 0, "type": "electric_scooter"}, {"fusion_lon": 0.0, "lat": 38.92804316666667, "lon": -77.01949133333333, "bike_id": "6b28df8b4d739e5867a858e7ff9d9337", "rental_uris": {"android": "https://dc.lft.to/lastmile_qr_scan", "ios": "https://dc.lft.to/lastmile_qr_scan"}, "fusion_lat": 0.0, "name": "6b28df8b4d739e5867a858e7ff9d9337", "is_reserved": 0, "is_disabled": 0, "type": "electric_scooter"}, {"fusion_lon": 0.0, "lat": 38.902558, "lon": -77.0292825, "bike_id": "2c33f1283a382f9f058bbe60aaaa7a23", "rental_uris": {"android": "https://dc.lft.to/lastmile_qr_scan", "ios": "https://dc.lft.to/lastmile_qr_scan"}, "fusion_lat": 0.0, "name": "2c33f1283a382f9f058bbe60aaaa7a23", "is_reserved": 0, "is_disabled": 0, "type": "electric_scooter"}, {"fusion_lon": 0.0, "lat": 38.89882016666667, "lon": -76.93178883333333, "bike_id": "3668187cd1b2fac7f4443bed0bda6eb3", "rental_uris": {"android": "https://dc.lft.to/lastmile_qr_scan", "ios": "https://dc.lft.to/lastmile_qr_scan"}, "fusion_lat": 0.0, "name": "3668187cd1b2fac7f4443bed0bda6eb3", "is_reserved": 0, "is_disabled": 0, "type": "electric_scooter"}, {"fusion_lon": 0.0, "lat": 38.895591833333334, "lon": -77.12738683333333, "bike_id": "f5bf0da392ee619f864c0454129501e2", "rental_uris": {"android": "https://dc.lft.to/lastmile_qr_scan", "ios": "https://dc.lft.to/lastmile_qr_scan"}, "fusion_lat": 0.0, "name": "f5bf0da392ee619f864c0454129501e2", "is_reserved": 0, "is_disabled": 0, "type": "electric_bike"}, {"fusion_lon": 0.0, "lat": 38.889834, "lon": -76.92113233333333, "bike_id": "8345115a2024de7c64893430888e852e", "rental_uris": {"android": "https://dc.lft.to/lastmile_qr_scan", "ios": "https://dc.lft.to/lastmile_qr_scan"}, "fusion_lat": 0.0, "name": "8345115a2024de7c64893430888e852e", "is_reserved": 0, "is_disabled": 0, "type": "electric_scooter"}, {"fusion_lon": 0.0, "lat": 38.901195666666666, "lon": -76.9936975, "bike_id": "be7d4281be5fb8969730d8d962eb6576", "rental_uris": {"android": "https://dc.lft.to/lastmile_qr_scan", "ios": "https://dc.lft.to/lastmile_qr_scan"}, "fusion_lat": 0.0, "name": "be7d4281be5fb8969730d8d962eb6576", "is_reserved": 0, "is_disabled": 0, "type": "electric_scooter"}, {"fusion_lon": 0.0, "lat": 38.896092333333335, "lon": -77.02199416666667, "bike_id": "f56c4ed62097fc6b3b6602304dfcc483", "rental_uris": {"android": "https://dc.lft.to/lastmile_qr_scan", "ios": "https://dc.lft.to/lastmile_qr_scan"}, "fusion_lat": 0.0, "name": "f56c4ed62097fc6b3b6602304dfcc483", "is_reserved": 0, "is_disabled": 0, "type": "electric_scooter"}, {"fusion_lon": 0.0, "lat": 38.900138166666665, "lon": -77.02206033333333, "bike_id": "929932f91b5c28033a5ad6efb508b3c0", "rental_uris": {"android": "https://dc.lft.to/lastmile_qr_scan", "ios": "https://dc.lft.to/lastmile_qr_scan"}, "fusion_lat": 0.0, "name": "929932f91b5c28033a5ad6efb508b3c0", "is_reserved": 0, "is_disabled": 0, "type": "electric_scooter"}, {"fusion_lon": 0.0, "lat": 38.902276666666666, "lon": -77.034727, "bike_id": "5df02a9e10e0c2975c937c6186bf8611", "rental_uris": {"android": "https://dc.lft.to/lastmile_qr_scan", "ios": "https://dc.lft.to/lastmile_qr_scan"}, "fusion_lat": 0.0, "name": "5df02a9e10e0c2975c937c6186bf8611", "is_reserved": 0, "is_disabled": 0, "type": "electric_scooter"}, {"fusion_lon": 0.0, "lat": 38.88742116666667, "lon": -77.02575616666667, "bike_id": "9a59351af6acd054e2cadaec401e6b44", "rental_uris": {"android": "https://dc.lft.to/lastmile_qr_scan", "ios": "https://dc.lft.to/lastmile_qr_scan"}, "fusion_lat": 0.0, "name": "9a59351af6acd054e2cadaec401e6b44", "is_reserved": 0, "is_disabled": 0, "type": "electric_scooter"}, {"fusion_lon": 0.0, "lat": 38.916227666666664, "lon": -77.03508866666667, "bike_id": "9a347154677db0a313889bd9bd18bad8", "rental_uris": {"android": "https://dc.lft.to/lastmile_qr_scan", "ios": "https://dc.lft.to/lastmile_qr_scan"}, "fusion_lat": 0.0, "name": "9a347154677db0a313889bd9bd18bad8", "is_reserved": 0, "is_disabled": 0, "type": "electric_scooter"}, {"fusion_lon": 0.0, "lat": 38.89995016666667, "lon": -77.03334733333334, "bike_id": "97235b6f6684181454b3fc251d6d57d4", "rental_uris": {"android": "https://dc.lft.to/lastmile_qr_scan", "ios": "https://dc.lft.to/lastmile_qr_scan"}, "fusion_lat": 0.0, "name": "97235b6f6684181454b3fc251d6d57d4", "is_reserved": 0, "is_disabled": 0, "type": "electric_scooter"}, {"fusion_lon": 0.0, "lat": 38.87086133333333, "lon": -77.013801, "bike_id": "4121570ec6e7b3aa4b2ac3bafe3a06e4", "rental_uris": {"android": "https://dc.lft.to/lastmile_qr_scan", "ios": "https://dc.lft.to/lastmile_qr_scan"}, "fusion_lat": 0.0, "name": "4121570ec6e7b3aa4b2ac3bafe3a06e4", "is_reserved": 0, "is_disabled": 0, "type": "electric_scooter"}, {"fusion_lon": 0.0, "lat": 38.90842983333334, "lon": -77.04179916666666, "bike_id": "c4d5e19cd19128c255e7164b203c3af2", "rental_uris": {"android": "https://dc.lft.to/lastmile_qr_scan", "ios": "https://dc.lft.to/lastmile_qr_scan"}, "fusion_lat": 0.0, "name": "c4d5e19cd19128c255e7164b203c3af2", "is_reserved": 0, "is_disabled": 0, "type": "electric_scooter"}, {"fusion_lon": 0.0, "lat": 38.89899416666667, "lon": -77.02970233333333, "bike_id": "e09301a2f609f180377940b14aac0347", "rental_uris": {"android": "https://dc.lft.to/lastmile_qr_scan", "ios": "https://dc.lft.to/lastmile_qr_scan"}, "fusion_lat": 0.0, "name": "e09301a2f609f180377940b14aac0347", "is_reserved": 0, "is_disabled": 0, "type": "electric_scooter"}, {"fusion_lon": 0.0, "lat": 38.89280883333333, "lon": -77.05038916666666, "bike_id": "6abe461ff338219883022f645d8e3312", "rental_uris": {"android": "https://dc.lft.to/lastmile_qr_scan", "ios": "https://dc.lft.to/lastmile_qr_scan"}, "fusion_lat": 0.0, "name": "6abe461ff338219883022f645d8e3312", "is_reserved": 0, "is_disabled": 0, "type": "electric_bike"}, {"fusion_lon": 0.0, "lat": 38.924744833333335, "lon": -77.02901716666666, "bike_id": "af21a4b86fac93a912445bc7df5555c0", "rental_uris": {"android": "https://dc.lft.to/lastmile_qr_scan", "ios": "https://dc.lft.to/lastmile_qr_scan"}, "fusion_lat": 0.0, "name": "af21a4b86fac93a912445bc7df5555c0", "is_reserved": 0, "is_disabled": 0, "type": "electric_scooter"}, {"fusion_lon": 0.0, "lat": 38.92669433333333, "lon": -77.01498633333334, "bike_id": "4f5e687db8087eb05afb3c20dcac4dda", "rental_uris": {"android": "https://dc.lft.to/lastmile_qr_scan", "ios": "https://dc.lft.to/lastmile_qr_scan"}, "fusion_lat": 0.0, "name": "4f5e687db8087eb05afb3c20dcac4dda", "is_reserved": 0, "is_disabled": 0, "type": "electric_scooter"}, {"fusion_lon": 0.0, "lat": 38.876755333333335, "lon": -77.0035205, "bike_id": "75de9575672ef9d94b39a7b56e746bab", "rental_uris": {"android": "https://dc.lft.to/lastmile_qr_scan", "ios": "https://dc.lft.to/lastmile_qr_scan"}, "fusion_lat": 0.0, "name": "75de9575672ef9d94b39a7b56e746bab", "is_reserved": 0, "is_disabled": 0, "type": "electric_scooter"}, {"fusion_lon": 0.0, "lat": 38.895476333333335, "lon": -76.9889635, "bike_id": "b912a1cf8247768fb7538416933501f3", "rental_uris": {"android": "https://dc.lft.to/lastmile_qr_scan", "ios": "https://dc.lft.to/lastmile_qr_scan"}, "fusion_lat": 0.0, "name": "b912a1cf8247768fb7538416933501f3", "is_reserved": 0, "is_disabled": 0, "type": "electric_scooter"}, {"fusion_lon": 0.0, "lat": 38.898292833333336, "lon": -77.04683966666667, "bike_id": "533228594dc028745a1b27f0bc798dc9", "rental_uris": {"android": "https://dc.lft.to/lastmile_qr_scan", "ios": "https://dc.lft.to/lastmile_qr_scan"}, "fusion_lat": 0.0, "name": "533228594dc028745a1b27f0bc798dc9", "is_reserved": 0, "is_disabled": 0, "type": "electric_bike"}, {"fusion_lon": 0.0, "lat": 38.93676516666667, "lon": -77.03577866666667, "bike_id": "668193660ed5c6f65fd816f6dcebbc40", "rental_uris": {"android": "https://dc.lft.to/lastmile_qr_scan", "ios": "https://dc.lft.to/lastmile_qr_scan"}, "fusion_lat": 0.0, "name": "668193660ed5c6f65fd816f6dcebbc40", "is_reserved": 0, "is_disabled": 0, "type": "electric_scooter"}, {"fusion_lon": 0.0, "lat": 38.89626366666667, "lon": -77.030314, "bike_id": "cc81a49d93054f4e068537d7b6d38104", "rental_uris": {"android": "https://dc.lft.to/lastmile_qr_scan", "ios": "https://dc.lft.to/lastmile_qr_scan"}, "fusion_lat": 0.0, "name": "cc81a49d93054f4e068537d7b6d38104", "is_reserved": 0, "is_disabled": 0, "type": "electric_scooter"}, {"fusion_lon": 0.0, "lat": 38.907814, "lon": -77.045055, "bike_id": "3731183736847a4d2538b35791a0b8a7", "rental_uris": {"android": "https://dc.lft.to/lastmile_qr_scan", "ios": "https://dc.lft.to/lastmile_qr_scan"}, "fusion_lat": 0.0, "name": "3731183736847a4d2538b35791a0b8a7", "is_reserved": 0, "is_disabled": 0, "type": "electric_scooter"}, {"fusion_lon": 0.0, "lat": 38.935243, "lon": -77.0284815, "bike_id": "28972a3d078f83d522a8d3e6af8a3bc7", "rental_uris": {"android": "https://dc.lft.to/lastmile_qr_scan", "ios": "https://dc.lft.to/lastmile_qr_scan"}, "fusion_lat": 0.0, "name": "28972a3d078f83d522a8d3e6af8a3bc7", "is_reserved": 0, "is_disabled": 0, "type": "electric_scooter"}, {"fusion_lon": 0.0, "lat": 38.89837983333334, "lon": -77.03319833333333, "bike_id": "c6f3ef970eb1a97110a617e6eb85e8f6", "rental_uris": {"android": "https://dc.lft.to/lastmile_qr_scan", "ios": "https://dc.lft.to/lastmile_qr_scan"}, "fusion_lat": 0.0, "name": "c6f3ef970eb1a97110a617e6eb85e8f6", "is_reserved": 0, "is_disabled": 0, "type": "electric_scooter"}, {"fusion_lon": 0.0, "lat": 38.875773833333334, "lon": -77.0057765, "bike_id": "0b46cce2d7854e0bb5d7be1a354ab064", "rental_uris": {"android": "https://dc.lft.to/lastmile_qr_scan", "ios": "https://dc.lft.to/lastmile_qr_scan"}, "fusion_lat": 0.0, "name": "0b46cce2d7854e0bb5d7be1a354ab064", "is_reserved": 0, "is_disabled": 0, "type": "electric_scooter"}, {"fusion_lon": 0.0, "lat": 38.90261783333333, "lon": -77.06174833333333, "bike_id": "380564c77645051c6381336c286f0f3b", "rental_uris": {"android": "https://dc.lft.to/lastmile_qr_scan", "ios": "https://dc.lft.to/lastmile_qr_scan"}, "fusion_lat": 0.0, "name": "380564c77645051c6381336c286f0f3b", "is_reserved": 0, "is_disabled": 0, "type": "electric_scooter"}, {"fusion_lon": 0.0, "lat": 38.885378333333335, "lon": -76.982073, "bike_id": "95fd35a3012ce66d80694d8675a535b5", "rental_uris": {"android": "https://dc.lft.to/lastmile_qr_scan", "ios": "https://dc.lft.to/lastmile_qr_scan"}, "fusion_lat": 0.0, "name": "95fd35a3012ce66d80694d8675a535b5", "is_reserved": 0, "is_disabled": 0, "type": "electric_scooter"}, {"fusion_lon": 0.0, "lat": 38.909478, "lon": -77.03184516666667, "bike_id": "449fed47634d0e122fa6ed5447ceb7c7", "rental_uris": {"android": "https://dc.lft.to/lastmile_qr_scan", "ios": "https://dc.lft.to/lastmile_qr_scan"}, "fusion_lat": 0.0, "name": "449fed47634d0e122fa6ed5447ceb7c7", "is_reserved": 0, "is_disabled": 0, "type": "electric_scooter"}, {"fusion_lon": 0.0, "lat": 38.893575, "lon": -77.03167216666667, "bike_id": "de16879a7d5957cefedbded2220cd499", "rental_uris": {"android": "https://dc.lft.to/lastmile_qr_scan", "ios": "https://dc.lft.to/lastmile_qr_scan"}, "fusion_lat": 0.0, "name": "de16879a7d5957cefedbded2220cd499", "is_reserved": 0, "is_disabled": 0, "type": "electric_scooter"}, {"fusion_lon": 0.0, "lat": 38.928878833333336, "lon": -77.03478483333333, "bike_id": "cdb2c078f64535c475ca5ecd2ad71579", "rental_uris": {"android": "https://dc.lft.to/lastmile_qr_scan", "ios": "https://dc.lft.to/lastmile_qr_scan"}, "fusion_lat": 0.0, "name": "cdb2c078f64535c475ca5ecd2ad71579", "is_reserved": 0, "is_disabled": 0, "type": "electric_scooter"}, {"fusion_lon": 0.0, "lat": 38.886069666666664, "lon": -76.99655816666667, "bike_id": "755d67178c7ff2ec1968ec656ea3a4a2", "rental_uris": {"android": "https://dc.lft.to/lastmile_qr_scan", "ios": "https://dc.lft.to/lastmile_qr_scan"}, "fusion_lat": 0.0, "name": "755d67178c7ff2ec1968ec656ea3a4a2", "is_reserved": 0, "is_disabled": 0, "type": "electric_scooter"}, {"fusion_lon": 0.0, "lat": 38.90265016666667, "lon": -77.03840866666667, "bike_id": "db04067606746f2f8b18af21079737a8", "rental_uris": {"android": "https://dc.lft.to/lastmile_qr_scan", "ios": "https://dc.lft.to/lastmile_qr_scan"}, "fusion_lat": 0.0, "name": "db04067606746f2f8b18af21079737a8", "is_reserved": 0, "is_disabled": 0, "type": "electric_scooter"}, {"fusion_lon": 0.0, "lat": 38.900509666666665, "lon": -77.04817933333334, "bike_id": "62edef550e7eedc9b9339653080641da", "rental_uris": {"android": "https://dc.lft.to/lastmile_qr_scan", "ios": "https://dc.lft.to/lastmile_qr_scan"}, "fusion_lat": 0.0, "name": "62edef550e7eedc9b9339653080641da", "is_reserved": 0, "is_disabled": 0, "type": "electric_scooter"}, {"fusion_lon": 0.0, "lat": 38.926814666666665, "lon": -77.0149075, "bike_id": "3c25969bdb5b72d96fbd1fd51e1b29e2", "rental_uris": {"android": "https://dc.lft.to/lastmile_qr_scan", "ios": "https://dc.lft.to/lastmile_qr_scan"}, "fusion_lat": 0.0, "name": "3c25969bdb5b72d96fbd1fd51e1b29e2", "is_reserved": 0, "is_disabled": 0, "type": "electric_scooter"}, {"fusion_lon": 0.0, "lat": 38.9055075, "lon": -77.04485883333334, "bike_id": "e85b16bd8019e9a5c39d5cb162bdb11c", "rental_uris": {"android": "https://dc.lft.to/lastmile_qr_scan", "ios": "https://dc.lft.to/lastmile_qr_scan"}, "fusion_lat": 0.0, "name": "e85b16bd8019e9a5c39d5cb162bdb11c", "is_reserved": 0, "is_disabled": 0, "type": "electric_scooter"}, {"fusion_lon": 0.0, "lat": 38.89573633333333, "lon": -76.994147, "bike_id": "7cfd937ada84a47efaccea9129017f60", "rental_uris": {"android": "https://dc.lft.to/lastmile_qr_scan", "ios": "https://dc.lft.to/lastmile_qr_scan"}, "fusion_lat": 0.0, "name": "7cfd937ada84a47efaccea9129017f60", "is_reserved": 0, "is_disabled": 0, "type": "electric_scooter"}, {"fusion_lon": 0.0, "lat": 38.92898016666667, "lon": -77.03270016666667, "bike_id": "4f1c2879d19cf2df3a30b138541f6334", "rental_uris": {"android": "https://dc.lft.to/lastmile_qr_scan", "ios": "https://dc.lft.to/lastmile_qr_scan"}, "fusion_lat": 0.0, "name": "4f1c2879d19cf2df3a30b138541f6334", "is_reserved": 0, "is_disabled": 0, "type": "electric_scooter"}, {"fusion_lon": 0.0, "lat": 38.90033066666667, "lon": -76.99853216666666, "bike_id": "f9b147634ec1203474948b1442d164ab", "rental_uris": {"android": "https://dc.lft.to/lastmile_qr_scan", "ios": "https://dc.lft.to/lastmile_qr_scan"}, "fusion_lat": 0.0, "name": "f9b147634ec1203474948b1442d164ab", "is_reserved": 0, "is_disabled": 0, "type": "electric_scooter"}, {"fusion_lon": 0.0, "lat": 38.924164, "lon": -77.019518, "bike_id": "de1a8a706b9356be014d7bf5c0a629dc", "rental_uris": {"android": "https://dc.lft.to/lastmile_qr_scan", "ios": "https://dc.lft.to/lastmile_qr_scan"}, "fusion_lat": 0.0, "name": "de1a8a706b9356be014d7bf5c0a629dc", "is_reserved": 0, "is_disabled": 0, "type": "electric_scooter"}, {"fusion_lon": 0.0, "lat": 38.92488516666667, "lon": -77.03935266666667, "bike_id": "ad8034b915ab7a6fd496b96e92b21a27", "rental_uris": {"android": "https://dc.lft.to/lastmile_qr_scan", "ios": "https://dc.lft.to/lastmile_qr_scan"}, "fusion_lat": 0.0, "name": "ad8034b915ab7a6fd496b96e92b21a27", "is_reserved": 0, "is_disabled": 0, "type": "electric_scooter"}, {"fusion_lon": 0.0, "lat": 38.9054895, "lon": -77.04775333333333, "bike_id": "9d9d8d811bd729191f484191afd3a9ea", "rental_uris": {"android": "https://dc.lft.to/lastmile_qr_scan", "ios": "https://dc.lft.to/lastmile_qr_scan"}, "fusion_lat": 0.0, "name": "9d9d8d811bd729191f484191afd3a9ea", "is_reserved": 0, "is_disabled": 0, "type": "electric_scooter"}, {"fusion_lon": 0.0, "lat": 38.8946035, "lon": -77.0202625, "bike_id": "4c9e19c27693e03d934048eac63e95d8", "rental_uris": {"android": "https://dc.lft.to/lastmile_qr_scan", "ios": "https://dc.lft.to/lastmile_qr_scan"}, "fusion_lat": 0.0, "name": "4c9e19c27693e03d934048eac63e95d8", "is_reserved": 0, "is_disabled": 0, "type": "electric_scooter"}, {"fusion_lon": 0.0, "lat": 38.9056205, "lon": -77.03485616666667, "bike_id": "bc6fb2befe0115048486c15850b5afa6", "rental_uris": {"android": "https://dc.lft.to/lastmile_qr_scan", "ios": "https://dc.lft.to/lastmile_qr_scan"}, "fusion_lat": 0.0, "name": "bc6fb2befe0115048486c15850b5afa6", "is_reserved": 0, "is_disabled": 0, "type": "electric_scooter"}, {"fusion_lon": 0.0, "lat": 38.907181333333334, "lon": -77.04083166666666, "bike_id": "c48a33e717231807e8ba7701047c1b09", "rental_uris": {"android": "https://dc.lft.to/lastmile_qr_scan", "ios": "https://dc.lft.to/lastmile_qr_scan"}, "fusion_lat": 0.0, "name": "c48a33e717231807e8ba7701047c1b09", "is_reserved": 0, "is_disabled": 0, "type": "electric_scooter"}, {"fusion_lon": 0.0, "lat": 38.901661, "lon": -77.02173783333333, "bike_id": "9fdd9dccde32fbc6737f58f4c52765f8", "rental_uris": {"android": "https://dc.lft.to/lastmile_qr_scan", "ios": "https://dc.lft.to/lastmile_qr_scan"}, "fusion_lat": 0.0, "name": "9fdd9dccde32fbc6737f58f4c52765f8", "is_reserved": 0, "is_disabled": 0, "type": "electric_scooter"}, {"fusion_lon": 0.0, "lat": 38.89013383333333, "lon": -76.93746033333333, "bike_id": "701cdcc70e599035da6f2da1e8de88d2", "rental_uris": {"android": "https://dc.lft.to/lastmile_qr_scan", "ios": "https://dc.lft.to/lastmile_qr_scan"}, "fusion_lat": 0.0, "name": "701cdcc70e599035da6f2da1e8de88d2", "is_reserved": 0, "is_disabled": 0, "type": "electric_scooter"}, {"fusion_lon": 0.0, "lat": 38.898757833333335, "lon": -76.93189033333333, "bike_id": "949e753694933392b37e3161bf54c8bf", "rental_uris": {"android": "https://dc.lft.to/lastmile_qr_scan", "ios": "https://dc.lft.to/lastmile_qr_scan"}, "fusion_lat": 0.0, "name": "949e753694933392b37e3161bf54c8bf", "is_reserved": 0, "is_disabled": 0, "type": "electric_bike"}, {"fusion_lon": 0.0, "lat": 38.93778566666667, "lon": -77.019149, "bike_id": "ba9e73da6b2d98b282ef1b129166bf88", "rental_uris": {"android": "https://dc.lft.to/lastmile_qr_scan", "ios": "https://dc.lft.to/lastmile_qr_scan"}, "fusion_lat": 0.0, "name": "ba9e73da6b2d98b282ef1b129166bf88", "is_reserved": 0, "is_disabled": 0, "type": "electric_bike"}, {"fusion_lon": 0.0, "lat": 38.895784, "lon": -76.94847866666667, "bike_id": "e544aa08643127ea240e952431dffa57", "rental_uris": {"android": "https://dc.lft.to/lastmile_qr_scan", "ios": "https://dc.lft.to/lastmile_qr_scan"}, "fusion_lat": 0.0, "name": "e544aa08643127ea240e952431dffa57", "is_reserved": 0, "is_disabled": 0, "type": "electric_scooter"}, {"fusion_lon": 0.0, "lat": 38.884004, "lon": -77.02563683333334, "bike_id": "4babc05042ceef717e4ba5a1732dea51", "rental_uris": {"android": "https://dc.lft.to/lastmile_qr_scan", "ios": "https://dc.lft.to/lastmile_qr_scan"}, "fusion_lat": 0.0, "name": "4babc05042ceef717e4ba5a1732dea51", "is_reserved": 0, "is_disabled": 0, "type": "electric_scooter"}, {"fusion_lon": 0.0, "lat": 38.938669166666664, "lon": -77.02530966666667, "bike_id": "7ad1a842b818abe8901ec97475b64a41", "rental_uris": {"android": "https://dc.lft.to/lastmile_qr_scan", "ios": "https://dc.lft.to/lastmile_qr_scan"}, "fusion_lat": 0.0, "name": "7ad1a842b818abe8901ec97475b64a41", "is_reserved": 0, "is_disabled": 0, "type": "electric_scooter"}, {"fusion_lon": 0.0, "lat": 38.879364, "lon": -77.003727, "bike_id": "24ee943a32febbfb8ce637944f98c394", "rental_uris": {"android": "https://dc.lft.to/lastmile_qr_scan", "ios": "https://dc.lft.to/lastmile_qr_scan"}, "fusion_lat": 0.0, "name": "24ee943a32febbfb8ce637944f98c394", "is_reserved": 0, "is_disabled": 0, "type": "electric_scooter"}, {"fusion_lon": 0.0, "lat": 38.94201916666667, "lon": -77.01838033333334, "bike_id": "d749b8754106ceb5fcbadcfdb004ca11", "rental_uris": {"android": "https://dc.lft.to/lastmile_qr_scan", "ios": "https://dc.lft.to/lastmile_qr_scan"}, "fusion_lat": 0.0, "name": "d749b8754106ceb5fcbadcfdb004ca11", "is_reserved": 0, "is_disabled": 0, "type": "electric_scooter"}, {"fusion_lon": 0.0, "lat": 38.892113333333334, "lon": -77.046474, "bike_id": "810ecfe6d4bf753bbe4149402a399789", "rental_uris": {"android": "https://dc.lft.to/lastmile_qr_scan", "ios": "https://dc.lft.to/lastmile_qr_scan"}, "fusion_lat": 0.0, "name": "810ecfe6d4bf753bbe4149402a399789", "is_reserved": 0, "is_disabled": 0, "type": "electric_scooter"}, {"fusion_lon": 0.0, "lat": 38.896138666666666, "lon": -77.00337483333334, "bike_id": "2c1696ae16cac875d43c8a1ebcc16bcc", "rental_uris": {"android": "https://dc.lft.to/lastmile_qr_scan", "ios": "https://dc.lft.to/lastmile_qr_scan"}, "fusion_lat": 0.0, "name": "2c1696ae16cac875d43c8a1ebcc16bcc", "is_reserved": 0, "is_disabled": 0, "type": "electric_scooter"}, {"fusion_lon": 0.0, "lat": 38.92408016666667, "lon": -77.02016166666667, "bike_id": "f16b1bbe2b804308bb0a12fb1e3e79c5", "rental_uris": {"android": "https://dc.lft.to/lastmile_qr_scan", "ios": "https://dc.lft.to/lastmile_qr_scan"}, "fusion_lat": 0.0, "name": "f16b1bbe2b804308bb0a12fb1e3e79c5", "is_reserved": 0, "is_disabled": 0, "type": "electric_scooter"},