{"data": {"bikes": [{"fusion_lon": 0.0, "name": "881b6042b1b17f569a77cfb5de17f0fc", "rental_uris": {"android": "https://dc.lft.to/lastmile_qr_scan", "ios": "https://dc.lft.to/lastmile_qr_scan"}, "lat": 39.09438083333333, "bike_id": "881b6042b1b17f569a77cfb5de17f0fc", "is_disabled": 0, "lon": -77.13459083333333, "is_reserved": 0, "fusion_lat": 0.0, "type": "electric_bike"}, {"fusion_lon": 0.0, "name": "7f2c6a216d8cb8df3de2e1865d0dc43a", "rental_uris": {"android": "https://dc.lft.to/lastmile_qr_scan", "ios": "https://dc.lft.to/lastmile_qr_scan"}, "lat": 38.89708383333333, "bike_id": "7f2c6a216d8cb8df3de2e1865d0dc43a", "is_disabled": 0, "lon": -76.9911175, "is_reserved": 0, "fusion_lat": 0.0, "type": "electric_scooter"}, {"fusion_lon": 0.0, "name": "8a3e0eb04ea242c3d0034c72b8a36467", "rental_uris": {"android": "https://dc.lft.to/lastmile_qr_scan", "ios": "https://dc.lft.to/lastmile_qr_scan"}, "lat": 38.89893416666666, "bike_id": "8a3e0eb04ea242c3d0034c72b8a36467", "is_disabled": 0, "lon": -77.0330135, "is_reserved": 0, "fusion_lat": 0.0, "type": "electric_scooter"}, {"fusion_lon": 0.0, "name": "06dbb5316e0de1835ba6995735575e46", "rental_uris": {"android": "https://dc.lft.to/lastmile_qr_scan", "ios": "https://dc.lft.to/lastmile_qr_scan"}, "lat": 38.942616666666666, "bike_id": "06dbb5316e0de1835ba6995735575e46", "is_disabled": 0, "lon": -77.02837066666666, "is_reserved": 0, "fusion_lat": 0.0, "type": "electric_scooter"}, {"fusion_lon": 0.0, "name": "0f4a8b5e920db5166ec96391dad2f91a", "rental_uris": {"android": "https://dc.lft.to/lastmile_qr_scan", "ios": "https://dc.lft.to/lastmile_qr_scan"}, "lat": 38.895755666666666, "bike_id": "0f4a8b5e920db5166ec96391dad2f91a", "is_disabled": 0, "lon": -77.03183866666667, "is_reserved": 0, "fusion_lat": 0.0, "type": "electric_scooter"}, {"fusion_lon": 0.0, "name": "ddb024822d1273a80f0f2b6df42aadba", "rental_uris": {"android": "https://dc.lft.to/lastmile_qr_scan", "ios": "https://dc.lft.to/lastmile_qr_scan"}, "lat": 38.91570983333333, "bike_id": "ddb024822d1273a80f0f2b6df42aadba", "is_disabled": 0, "lon": -77.04421383333333, "is_reserved": 0, "fusion_lat": 0.0, "type": "electric_scooter"}, {"fusion_lon": 0.0, "name": "73c24561c2bd3e0187b0ba1183519a71", "rental_uris": {"android": "https://dc.lft.to/lastmile_qr_scan", "ios": "https://dc.lft.to/lastmile_qr_scan"}, "lat": 38.97516983333333, "bike_id": "73c24561c2bd3e0187b0ba1183519a71", "is_disabled": 0, "lon": -77.01687766666667, "is_reserved": 0, "fusion_lat": 0.0, "type": "electric_scooter"}, {"fusion_lon": 0.0, "name": "d0ee90eebb867798d3ef2c8e93a69c06", "rental_uris": {"android": "https://dc.lft.to/lastmile_qr_scan", "ios": "https://dc.lft.to/lastmile_qr_scan"}, "lat": 38.921856, "bike_id": "d0ee90eebb867798d3ef2c8e93a69c06", "is_disabled": 0, "lon": -77.042298, "is_reserved": 0, "fusion_lat": 0.0, "type": "electric_scooter"}, {"fusion_lon": 0.0, "name": "87a67e54684f212d42a7b3786f1015c3", "rental_uris": {"android": "https://dc.lft.to/lastmile_qr_scan", "ios": "https://dc.lft.to/lastmile_qr_scan"}, "lat": 38.862394333333334, "bike_id": "87a67e54684f212d42a7b3786f1015c3", "is_disabled": 0, "lon": -76.99552166666666, "is_reserved": 0, "fusion_lat": 0.0, "type": "electric_scooter"}, {"fusion_lon": 0.0, "name": "1adf5674dfc4bd359dc9207069b93610", "rental_uris": {"android": "https://dc.lft.to/lastmile_qr_scan", "ios": "https://dc.lft.to/lastmile_qr_scan"}, "lat": 38.91927783333333, "bike_id": "1adf5674dfc4bd359dc9207069b93610", "is_disabled": 0, "lon": -77.03474233333333, "is_reserved": 0, "fusion_lat": 0.0, "type": "electric_scooter"}, {"fusion_lon": 0.0, "name": "c9dff00f79bafcd0655b760709705d93", "rental_uris": {"android": "https://dc.lft.to/lastmile_qr_scan", "ios": "https://dc.lft.to/lastmile_qr_scan"}, "lat": 38.9188455, "bike_id": "c9dff00f79bafcd0655b760709705d93", "is_disabled": 0, "lon": -77.02199683333333, "is_reserved": 0, "fusion_lat": 0.0, "type": "electric_scooter"}, {"fusion_lon": 0.0, "name": "ec8d56d2ebd960cab7088b9534c8922d", "rental_uris": {"android": "https://dc.lft.to/lastmile_qr_scan", "ios": "https://dc.lft.to/lastmile_qr_scan"}, "lat": 38.92370733333333, "bike_id": "ec8d56d2ebd960cab7088b9534c8922d", "is_disabled": 0, "lon": -77.01909233333333, "is_reserved": 0, "fusion_lat": 0.0, "type": "electric_scooter"}, {"fusion_lon": 0.0, "name": "d1d8bb364b9631cd46455a38012c7a74", "rental_uris": {"android": "https://dc.lft.to/lastmile_qr_scan", "ios": "https://dc.lft.to/lastmile_qr_scan"}, "lat": 38.9076675, "bike_id": "d1d8bb364b9631cd46455a38012c7a74", "is_disabled": 0, "lon": -77.03714816666667, "is_reserved": 0, "fusion_lat": 0.0, "type": "electric_scooter"}, {"fusion_lon": 0.0, "name": "3b76f6f42076029221897b4d67ed4708", "rental_uris": {"android": "https://dc.lft.to/lastmile_qr_scan", "ios": "https://dc.lft.to/lastmile_qr_scan"}, "lat": 38.914782833333334, "bike_id": "3b76f6f42076029221897b4d67ed4708", "is_disabled": 0, "lon": -77.01827483333334, "is_reserved": 0, "fusion_lat": 0.0, "type": "electric_scooter"}, {"fusion_lon": 0.0, "name": "1fa44eb302264e9831056ff44d3a3249", "rental_uris": {"android": "https://dc.lft.to/lastmile_qr_scan", "ios": "https://dc.lft.to/lastmile_qr_scan"}, "lat": 38.936821333333334, "bike_id": "1fa44eb302264e9831056ff44d3a3249", "is_disabled": 0, "lon": -77.019397, "is_reserved": 0, "fusion_lat": 0.0, "type": "electric_scooter"}, {"fusion_lon": 0.0, "name": "d9bf1e4d05e6e636be88153f74270f28", "rental_uris": {"android": "https://dc.lft.to/lastmile_qr_scan", "ios": "https://dc.lft.to/lastmile_qr_scan"}, "lat": 38.897392333333336, "bike_id": "d9bf1e4d05e6e636be88153f74270f28", "is_disabled": 0, "lon": -77.04578, "is_reserved": 0, "fusion_lat": 0.0, "type": "electric_scooter"}, {"fusion_lon": 0.0, "name": "73dfef2864581e158d2a9346f53dc9e9", "rental_uris": {"android": "https://dc.lft.to/lastmile_qr_scan", "ios": "https://dc.lft.to/lastmile_qr_scan"}, "lat": 38.936170833333335, "bike_id": "73dfef2864581e158d2a9346f53dc9e9", "is_disabled": 0, "lon": -77.06430883333333, "is_reserved": 0, "fusion_lat": 0.0, "type": "electric_scooter"}, {"fusion_lon": 0.0, "name": "e2358a4bbfc9f25d6d68c568a4a1d461", "rental_uris": {"android": "https://dc.lft.to/lastmile_qr_scan", "ios": "https://dc.lft.to/lastmile_qr_scan"}, "lat": 38.91408416666667, "bike_id": "e2358a4bbfc9f25d6d68c568a4a1d461", "is_disabled": 0, "lon": -77.01842166666667, "is_reserved": 0, "fusion_lat": 0.0, "type": "electric_scooter"}, {"fusion_lon": 0.0, "name": "886064ae2c4ceeab7b84324c23430468", "rental_uris": {"android": "https://dc.lft.to/lastmile_qr_scan", "ios": "https://dc.lft.to/lastmile_qr_scan"}, "lat": 38.8997395, "bike_id": "886064ae2c4ceeab7b84324c23430468", "is_disabled": 0, "lon": -77.04524516666666, "is_reserved": 0, "fusion_lat": 0.0, "type": "electric_scooter"}, {"fusion_lon": 0.0, "name": "d084ac32e01a7b94601bd5e90bba432b", "rental_uris": {"android": "https://dc.lft.to/lastmile_qr_scan", "ios": "https://dc.lft.to/lastmile_qr_scan"}, "lat": 38.989116333333335, "bike_id": "d084ac32e01a7b94601bd5e90bba432b", "is_disabled": 0, "lon": -77.09793166666667, "is_reserved": 0, "fusion_lat": 0.0, "type": "electric_bike"}, {"fusion_lon": 0.0, "name": "29d5927ba420c1ee545f061eb34d9aad", "rental_uris": {"android": "https://dc.lft.to/lastmile_qr_scan", "ios": "https://dc.lft.to/lastmile_qr_scan"}, "lat": 38.9119885, "bike_id": "29d5927ba420c1ee545f061eb34d9aad", "is_disabled": 0, "lon": -77.00972216666666, "is_reserved": 0, "fusion_lat": 0.0, "type": "electric_scooter"}, {"fusion_lon": 0.0, "name": "45015c187bc921a249ed3c3d5b82874d", "rental_uris": {"android": "https://dc.lft.to/lastmile_qr_scan", "ios": "https://dc.lft.to/lastmile_qr_scan"}, "lat": 38.929713666666665, "bike_id": "45015c187bc921a249ed3c3d5b82874d", "is_disabled": 0, "lon": -77.02790433333334, "is_reserved": 0, "fusion_lat": 0.0, "type": "electric_scooter"}, {"fusion_lon": 0.0, "name": "48670960340e2d3e7bdaf93384b55f13", "rental_uris": {"android": "https://dc.lft.to/lastmile_qr_scan", "ios": "https://dc.lft.to/lastmile_qr_scan"}, "lat": 38.92325783333333, "bike_id": "48670960340e2d3e7bdaf93384b55f13", "is_disabled": 0, "lon": -77.01961566666667, "is_reserved": 0, "fusion_lat": 0.0, "type": "electric_scooter"}, {"fusion_lon": 0.0, "name": "c2f94ce4a457321966d06f0bf87d9cb3", "rental_uris": {"android": "https://dc.lft.to/lastmile_qr_scan", "ios": "https://dc.lft.to/lastmile_qr_scan"}, "lat": 38.90125366666667, "bike_id": "c2f94ce4a457321966d06f0bf87d9cb3", "is_disabled": 0, "lon": -77.04436266666667, "is_reserved": 0, "fusion_lat": 0.0, "type": "electric_scooter"}, {"fusion_lon": 0.0, "name": "74e9b78541a81f38b4da1f5ef7ceef2c", "rental_uris": {"android": "https://dc.lft.to/lastmile_qr_scan", "ios": "https://dc.lft.to/lastmile_qr_scan"}, "lat": 38.90538633333333, "bike_id": "74e9b78541a81f38b4da1f5ef7ceef2c", "is_disabled": 0, "lon": -77.05909116666666, "is_reserved": 0, "fusion_lat": 0.0, "type": "electric_scooter"}, {"fusion_lon": 0.0, "name": "f7eb438e1b9a790c00f07c1a6f05f42f", "rental_uris": {"android": "https://dc.lft.to/lastmile_qr_scan", "ios": "https://dc.lft.to/lastmile_qr_scan"}, "lat": 38.9140295, "bike_id": "f7eb438e1b9a790c00f07c1a6f05f42f", "is_disabled": 0, "lon": -77.032617, "is_reserved": 0, "fusion_lat": 0.0, "type": "electric_scooter"}, {"fusion_lon": 0.0, "name": "6d49c8c401b4a51fc573ce50fae7f7e1", "rental_uris": {"android": "https://dc.lft.to/lastmile_qr_scan", "ios": "https://dc.lft.to/lastmile_qr_scan"}, "lat": 38.924675, "bike_id": "6d49c8c401b4a51fc573ce50fae7f7e1", "is_disabled": 0, "lon": -77.02208233333333, "is_reserved": 0, "fusion_lat": 0.0, "type": "electric_scooter"}, {"fusion_lon": 0.0, "name": "3a3dfe92d1f01633274107fa020054f0", "rental_uris": {"android": "https://dc.lft.to/lastmile_qr_scan", "ios": "https://dc.lft.to/lastmile_qr_scan"}, "lat": 38.908985, "bike_id": "3a3dfe92d1f01633274107fa020054f0", "is_disabled": 0, "lon": -77.0152275, "is_reserved": 0, "fusion_lat": 0.0, "type": "electric_scooter"}, {"fusion_lon": 0.0, "name": "3bbf8b12623ccba11f4ae00e1ca4a3eb", "rental_uris": {"android": "https://dc.lft.to/lastmile_qr_scan", "ios": "https://dc.lft.to/lastmile_qr_scan"}, "lat": 38.9057705, "bike_id": "3bbf8b12623ccba11f4ae00e1ca4a3eb", "is_disabled": 0, "lon": -77.00721833333333, "is_reserved": 0, "fusion_lat": 0.0, "type": "electric_scooter"}, {"fusion_lon": 0.0, "name": "f2303c9bc22f300df36f7c54e39326a7", "rental_uris": {"android": "https://dc.lft.to/lastmile_qr_scan", "ios": "https://dc.lft.to/lastmile_qr_scan"}, "lat": 38.895421, "bike_id": "f2303c9bc22f300df36f7c54e39326a7", "is_disabled": 0, "lon": -76.92659866666666, "is_reserved": 0, "fusion_lat": 0.0, "type": "electric_scooter"}, {"fusion_lon": 0.0, "name": "9756bf009eedaeed78b2016782b14bab", "rental_uris": {"android": "https://dc.lft.to/lastmile_qr_scan", "ios": "https://dc.lft.to/lastmile_qr_scan"}, "lat": 38.92296533333333, "bike_id": "9756bf009eedaeed78b2016782b14bab", "is_disabled": 0, "lon": -77.04143216666667, "is_reserved": 0, "fusion_lat": 0.0, "type": "electric_scooter"}, {"fusion_lon": 0.0, "name": "fdd2bce390c89fb319582280b76e5b67", "rental_uris": {"android": "https://dc.lft.to/lastmile_qr_scan", "ios": "https://dc.lft.to/lastmile_qr_scan"}, "lat": 38.8979045, "bike_id": "fdd2bce390c89fb319582280b76e5b67", "is_disabled": 0, "lon": -77.01188833333333, "is_reserved": 0, "fusion_lat": 0.0, "type": "electric_scooter"}, {"fusion_lon": 0.0, "name": "73fe1a960f83373c362855317df79f06", "rental_uris": {"android": "https://dc.lft.to/lastmile_qr_scan", "ios": "https://dc.lft.to/lastmile_qr_scan"}, "lat": 38.91701883333333, "bike_id": "73fe1a960f83373c362855317df79f06", "is_disabled": 0, "lon": -77.04145183333333, "is_reserved": 0, "fusion_lat": 0.0, "type": "electric_scooter"}, {"fusion_lon": 0.0, "name": "8701adbb6225b8521a46e780d6a5e206", "rental_uris": {"android": "https://dc.lft.to/lastmile_qr_scan", "ios": "https://dc.lft.to/lastmile_qr_scan"}, "lat": 38.90703283333333, "bike_id": "8701adbb6225b8521a46e780d6a5e206", "is_disabled": 0, "lon": -76.9870005, "is_reserved": 0, "fusion_lat": 0.0, "type": "electric_scooter"}, {"fusion_lon": 0.0, "name": "920005511edd28443ba61b495a8ce04f", "rental_uris": {"android": "https://dc.lft.to/lastmile_qr_scan", "ios": "https://dc.lft.to/lastmile_qr_scan"}, "lat": 38.93484566666667, "bike_id": "920005511edd28443ba61b495a8ce04f", "is_disabled": 0, "lon": -77.0727195, "is_reserved": 0, "fusion_lat": 0.0, "type": "electric_scooter"}, {"fusion_lon": 0.0, "name": "0dadbc6cf14944ab2ecba43b4e4a9b76", "rental_uris": {"android": "https://dc.lft.to/lastmile_qr_scan", "ios": "https://dc.lft.to/lastmile_qr_scan"}, "lat": 38.9243745, "bike_id": "0dadbc6cf14944ab2ecba43b4e4a9b76", "is_disabled": 0, "lon": -77.021284, "is_reserved": 0, "fusion_lat": 0.0, "type": "electric_scooter"}, {"fusion_lon": 0.0, "name": "3536b6deb99ee4821aa602cc2e5a4023", "rental_uris": {"android": "https://dc.lft.to/lastmile_qr_scan", "ios": "https://dc.lft.to/lastmile_qr_scan"}, "lat": 38.864884833333335, "bike_id": "3536b6deb99ee4821aa602cc2e5a4023", "is_disabled": 0, "lon": -76.9773765, "is_reserved": 0, "fusion_lat": 0.0, "type": "electric_bike"}, {"fusion_lon": 0.0, "name": "83d56fe2f4b6e695b45f536075212435", "rental_uris": {"android": "https://dc.lft.to/lastmile_qr_scan", "ios": "https://dc.lft.to/lastmile_qr_scan"}, "lat": 38.937658166666665, "bike_id": "83d56fe2f4b6e695b45f536075212435", "is_disabled": 0, "lon": -77.03241683333333, "is_reserved": 0, "fusion_lat": 0.0, "type": "electric_scooter"}, {"fusion_lon": 0.0, "name": "cb6fdf86abd71878b4d094b81add11de", "rental_uris": {"android": "https://dc.lft.to/lastmile_qr_scan", "ios": "https://dc.lft.to/lastmile_qr_scan"}, "lat": 38.90425233333333, "bike_id": "cb6fdf86abd71878b4d094b81add11de", "is_disabled": 0, "lon": -77.04366833333333, "is_reserved": 0, "fusion_lat": 0.0, "type": "electric_scooter"}, {"fusion_lon": 0.0, "name": "527c549041c85f234b1ac230bb3ac091", "rental_uris": {"android": "https://dc.lft.to/lastmile_qr_scan", "ios": "https://dc.lft.to/lastmile_qr_scan"}, "lat": 38.9215015, "bike_id": "527c549041c85f234b1ac230bb3ac091", "is_disabled": 0, "lon": -77.02103866666667, "is_reserved": 0, "fusion_lat": 0.0, "type": "electric_scooter"}, {"fusion_lon": 0.0, "name": "f8bc58aa4bc0b923f1f45b608b1ccee8", "rental_uris": {"android": "https://dc.lft.to/lastmile_qr_scan", "ios": "https://dc.lft.to/lastmile_qr_scan"}, "lat": 38.95188016666667, "bike_id": "f8bc58aa4bc0b923f1f45b608b1ccee8", "is_disabled": 0, "lon": -76.991749, "is_reserved": 0, "fusion_lat": 0.0, "type": "electric_scooter"}, {"fusion_lon": 0.0, "name": "dbc023a7be876d50b9179b7e22812c72", "rental_uris": {"android": "https://dc.lft.to/lastmile_qr_scan", "ios": "https://dc.lft.to/lastmile_qr_scan"}, "lat": 38.9205555, "bike_id": "dbc023a7be876d50b9179b7e22812c72", "is_disabled": 0, "lon": -77.0231265, "is_reserved": 0, "fusion_lat": 0.0, "type": "electric_scooter"}, {"fusion_lon": 0.0, "name": "3c8e523c6a4597b8e487a4f0bec6a75e", "rental_uris": {"android": "https://dc.lft.to/lastmile_qr_scan", "ios": "https://dc.lft.to/lastmile_qr_scan"}, "lat": 38.91642783333333, "bike_id": "3c8e523c6a4597b8e487a4f0bec6a75e", "is_disabled": 0, "lon": -77.06945683333333, "is_reserved": 0, "fusion_lat": 0.0, "type": "electric_scooter"}, {"fusion_lon": 0.0, "name": "6751b5634c41d974f1fe9e27a0ed1c8e", "rental_uris": {"android": "https://dc.lft.to/lastmile_qr_scan", "ios": "https://dc.lft.to/lastmile_qr_scan"}, "lat": 38.915538833333336, "bike_id": "6751b5634c41d974f1fe9e27a0ed1c8e", "is_disabled": 0, "lon": -77.01215516666667, "is_reserved": 0, "fusion_lat": 0.0, "type": "electric_scooter"}, {"fusion_lon": 0.0, "name": "5e607b232fd4573721d36264878f1605", "rental_uris": {"android": "https://dc.lft.to/lastmile_qr_scan", "ios": "https://dc.lft.to/lastmile_qr_scan"}, "lat": 38.92289616666667, "bike_id": "5e607b232fd4573721d36264878f1605", "is_disabled": 0, "lon": -76.99763166666666, "is_reserved": 0, "fusion_lat": 0.0, "type": "electric_scooter"}, {"fusion_lon": 0.0, "name": "f79abacd8f3add961c4f95aa19ce7d09", "rental_uris": {"android": "https://dc.lft.to/lastmile_qr_scan", "ios": "https://dc.lft.to/lastmile_qr_scan"}, "lat": 38.943177166666665, "bike_id": "f79abacd8f3add961c4f95aa19ce7d09", "is_disabled": 0, "lon": -77.06143483333334, "is_reserved": 0, "fusion_lat": 0.0, "type": "electric_scooter"}, {"fusion_lon": 0.0, "name": "9947ba2a884233f2bd880a036e6e8d23", "rental_uris": {"android": "https://dc.lft.to/lastmile_qr_scan", "ios": "https://dc.lft.to/lastmile_qr_scan"}, "lat": 38.898912833333334, "bike_id": "9947ba2a884233f2bd880a036e6e8d23", "is_disabled": 0, "lon": -76.97992083333334, "is_reserved": 0, "fusion_lat": 0.0, "type": "electric_scooter"}, {"fusion_lon": 0.0, "name": "7c3595624348a47f5b83feef49733da4", "rental_uris": {"android": "https://dc.lft.to/lastmile_qr_scan", "ios": "https://dc.lft.to/lastmile_qr_scan"}, "lat": 38.926698, "bike_id": "7c3595624348a47f5b83feef49733da4", "is_disabled": 0, "lon": -77.054371, "is_reserved": 0, "fusion_lat": 0.0, "type": "electric_scooter"}, {"fusion_lon": 0.0, "name": "a3d2ad34a421cbe4fd0098e525326409", "rental_uris": {"android": "https://dc.lft.to/lastmile_qr_scan", "ios": "https://dc.lft.to/lastmile_qr_scan"}, "lat": 38.89852316666666, "bike_id": "a3d2ad34a421cbe4fd0098e525326409", "is_disabled": 0, "lon": -77.0280025, "is_reserved": 0, "fusion_lat": 0.0, "type": "electric_scooter"}, {"fusion_lon": 0.0, "name": "061273fcecaf4bcad285a2c7a4628cf2", "rental_uris": {"android": "https://dc.lft.to/lastmile_qr_scan", "ios": "https://dc.lft.to/lastmile_qr_scan"}, "lat": 38.92390833333333, "bike_id": "061273fcecaf4bcad285a2c7a4628cf2", "is_disabled": 0, "lon": -77.03413833333333, "is_reserved": 0, "fusion_lat": 0.0, "type": "electric_scooter"}, {"fusion_lon": 0.0, "name": "f53fb7ce2855aec04b565ddabd4cd9f6", "rental_uris": {"android": "https://dc.lft.to/lastmile_qr_scan", "ios": "https://dc.lft.to/lastmile_qr_scan"}, "lat": 38.900835, "bike_id": "f53fb7ce2855aec04b565ddabd4cd9f6", "is_disabled": 0, "lon": -77.04757, "is_reserved": 0, "fusion_lat": 0.0, "type": "electric_scooter"}, {"fusion_lon": 0.0, "name": "972535ea774c096bcb6208d007fe85dd", "rental_uris": {"android": "https://dc.lft.to/lastmile_qr_scan", "ios": "https://dc.lft.to/lastmile_qr_scan"}, "lat": 38.90264483333333, "bike_id": "972535ea774c096bcb6208d007fe85dd", "is_disabled": 0, "lon": -77.03036766666666, "is_reserved": 0, "fusion_lat": 0.0, "type": "electric_scooter"}, {"fusion_lon": 0.0, "name": "5c8f9f4332594befd09da05e11bca2e8", "rental_uris": {"android": "https://dc.lft.to/lastmile_qr_scan", "ios": "https://dc.lft.to/lastmile_qr_scan"}, "lat": 38.92686116666667, "bike_id": "5c8f9f4332594befd09da05e11bca2e8", "is_disabled": 0, "lon": -77.02966733333334, "is_reserved": 0, "fusion_lat": 0.0, "type": "electric_scooter"}, {"fusion_lon": 0.0, "name": "2138bff219d160e05fa6124b0f4db4c6", "rental_uris": {"android": "https://dc.lft.to/lastmile_qr_scan", "ios": "https://dc.lft.to/lastmile_qr_scan"}, "lat": 38.929715, "bike_id": "2138bff219d160e05fa6124b0f4db4c6", "is_disabled": 0, "lon": -77.0233945, "is_reserved": 0, "fusion_lat": 0.0, "type": "electric_scooter"}, {"fusion_lon": 0.0, "name": "4de7cd0c710cd3001d046b3806b69271", "rental_uris": {"android": "https://dc.lft.to/lastmile_qr_scan", "ios": "https://dc.lft.to/lastmile_qr_scan"}, "lat": 38.90871416666667, "bike_id": "4de7cd0c710cd3001d046b3806b69271", "is_disabled": 0, "lon": -77.07152033333334, "is_reserved": 0, "fusion_lat": 0.0, "type": "electric_scooter"}, {"fusion_lon": 0.0, "name": "7b6a9651f8733266ca00cc8e698abac9", "rental_uris": {"android": "https://dc.lft.to/lastmile_qr_scan", "ios": "https://dc.lft.to/lastmile_qr_scan"}, "lat": 38.917103, "bike_id": "7b6a9651f8733266ca00cc8e698abac9", "is_disabled": 0, "lon": -77.03724666666666, "is_reserved": 0, "fusion_lat": 0.0, "type": "electric_scooter"}, {"fusion_lon": 0.0, "name": "e582c526ab6e611d37810253bbdef6b3", "rental_uris": {"android": "https://dc.lft.to/lastmile_qr_scan", "ios": "https://dc.lft.to/lastmile_qr_scan"}, "lat": 38.9039205, "bike_id": "e582c526ab6e611d37810253bbdef6b3", "is_disabled": 0, "lon": -77.043609, "is_reserved": 0, "fusion_lat": 0.0, "type": "electric_scooter"}, {"fusion_lon": 0.0, "name": "a6d687dacc0e363a42ebb58a8c655296", "rental_uris": {"android": "https://dc.lft.to/lastmile_qr_scan", "ios": "https://dc.lft.to/lastmile_qr_scan"}, "lat": 38.9237925, "bike_id": "a6d687dacc0e363a42ebb58a8c655296", "is_disabled": 0, "lon": -77.02955016666667, "is_reserved": 0, "fusion_lat": 0.0, "type": "electric_scooter"}, {"fusion_lon": 0.0, "name": "e7a20d543518ab74ef75db387310036d", "rental_uris": {"android": "https://dc.lft.to/lastmile_qr_scan", "ios": "https://dc.lft.to/lastmile_qr_scan"}, "lat": 38.87062383333333, "bike_id": "e7a20d543518ab74ef75db387310036d", "is_disabled": 0, "lon": -77.11034116666667, "is_reserved": 0, "fusion_lat": 0.0, "type": "electric_bike"}, {"fusion_lon": 0.0, "name": "0f321b142b7a5ffb2f54534a1a4a5486", "rental_uris": {"android": "https://dc.lft.to/lastmile_qr_scan", "ios": "https://dc.lft.to/lastmile_qr_scan"}, "lat": 38.92318066666667, "bike_id": "0f321b142b7a5ffb2f54534a1a4a5486", "is_disabled": 0, "lon": -77.0291145, "is_reserved": 0, "fusion_lat": 0.0, "type": "electric_scooter"}, {"fusion_lon": 0.0, "name": "741b38c72020993ee55ab9ea303d2140", "rental_uris": {"android": "https://dc.lft.to/lastmile_qr_scan", "ios": "https://dc.lft.to/lastmile_qr_scan"}, "lat": 38.9066935, "bike_id": "741b38c72020993ee55ab9ea303d2140", "is_disabled": 0, "lon": -77.0346675, "is_reserved": 0, "fusion_lat": 0.0, "type": "electric_scooter"}, {"fusion_lon": 0.0, "name": "57b818d2a4e5db34319420c1d8591d7c", "rental_uris": {"android": "https://dc.lft.to/lastmile_qr_scan", "ios": "https://dc.lft.to/lastmile_qr_scan"}, "lat": 38.919858833333336, "bike_id": "57b818d2a4e5db34319420c1d8591d7c", "is_disabled": 0, "lon": -77.032655, "is_reserved": 0, "fusion_lat": 0.0, "type": "electric_scooter"}, {"fusion_lon": 0.0, "name": "6f183754dff2815a36ab3a64e8565c40", "rental_uris": {"android": "https://dc.lft.to/lastmile_qr_scan", "ios": "https://dc.lft.to/lastmile_qr_scan"}, "lat": 38.87495666666667, "bike_id": "6f183754dff2815a36ab3a64e8565c40", "is_disabled": 0, "lon": -76.99788, "is_reserved": 0, "fusion_lat": 0.0, "type": "electric_scooter"}, {"fusion_lon": 0.0, "name": "2381437d17373b24e856222a1918be50", "rental_uris": {"android": "https://dc.lft.to/lastmile_qr_scan", "ios": "https://dc.lft.to/lastmile_qr_scan"}, "lat": 38.9640655, "bike_id": "2381437d17373b24e856222a1918be50", "is_disabled": 0, "lon": -77.03286733333333, "is_reserved": 0, "fusion_lat": 0.0, "type": "electric_scooter"}, {"fusion_lon": 0.0, "name": "c3cf6cc97aa4cf604b1237f5f9ca23a5", "rental_uris": {"android": "https://dc.lft.to/lastmile_qr_scan", "ios": "https://dc.lft.to/lastmile_qr_scan"}, "lat": 38.92680266666667, "bike_id": "c3cf6cc97aa4cf604b1237f5f9ca23a5", "is_disabled": 0, "lon": -77.0227085, "is_reserved": 0, "fusion_lat": 0.0, "type": "electric_scooter"}, {"fusion_lon": 0.0, "name": "8b2e6e27db9232d9deaa503fa1609648", "rental_uris": {"android": "https://dc.lft.to/lastmile_qr_scan", "ios": "https://dc.lft.to/lastmile_qr_scan"}, "lat": 38.879387, "bike_id": "8b2e6e27db9232d9deaa503fa1609648", "is_disabled": 0, "lon": -77.00369033333334, "is_reserved": 0, "fusion_lat": 0.0, "type": "electric_scooter"}, {"fusion_lon": 0.0, "name": "a000b787e005310c0e2222155b30b259", "rental_uris": {"android": "https://dc.lft.to/lastmile_qr_scan", "ios": "https://dc.lft.to/lastmile_qr_scan"}, "lat": 38.88339466666667, "bike_id": "a000b787e005310c0e2222155b30b259", "is_disabled": 0, "lon": -76.94285766666667, "is_reserved": 0, "fusion_lat": 0.0, "type": "electric_scooter"}, {"fusion_lon": 0.0, "name": "235ec08f615193e70fd21a2ca36442d6", "rental_uris": {"android": "https://dc.lft.to/lastmile_qr_scan", "ios": "https://dc.lft.to/lastmile_qr_scan"}, "lat": 38.89616783333334, "bike_id": "235ec08f615193e70fd21a2ca36442d6", "is_disabled": 0, "lon": -77.00345066666667, "is_reserved": 0, "fusion_lat": 0.0, "type": "electric_scooter"}, {"fusion_lon": 0.0, "name": "260fba4ef78fbce397311022f34970ed", "rental_uris": {"android": "https://dc.lft.to/lastmile_qr_scan", "ios": "https://dc.lft.to/lastmile_qr_scan"}, "lat": 38.892198, "bike_id": "260fba4ef78fbce397311022f34970ed", "is_disabled": 0, "lon": -77.046395, "is_reserved": 0, "fusion_lat": 0.0, "type": "electric_scooter"}, {"fusion_lon": 0.0, "name": "0abc286e6dbb79140bcdc3fca0e0b019", "rental_uris": {"android": "https://dc.lft.to/lastmile_qr_scan", "ios": "https://dc.lft.to/lastmile_qr_scan"}, "lat": 38.965003, "bike_id": "0abc286e6dbb79140bcdc3fca0e0b019", "is_disabled": 0, "lon": -77.00259066666666, "is_reserved": 0, "fusion_lat": 0.0, "type": "electric_scooter"}, {"fusion_lon": 0.0, "name": "3aaf52649e450d46a55233994303fd8f", "rental_uris": {"android": "https://dc.lft.to/lastmile_qr_scan", "ios": "https://dc.lft.to/lastmile_qr_scan"}, "lat": 38.895787166666665, "bike_id": "3aaf52649e450d46a55233994303fd8f", "is_disabled": 0, "lon": -76.94841566666666, "is_reserved": 0, "fusion_lat": 0.0, "type": "electric_scooter"}, {"fusion_lon": 0.0, "name": "dcab44b7d07063b106700d0f025b40fd", "rental_uris": {"android": "https://dc.lft.to/lastmile_qr_scan", "ios": "https://dc.lft.to/lastmile_qr_scan"}, "lat": 38.938429166666666, "bike_id": "dcab44b7d07063b106700d0f025b40fd", "is_disabled": 0, "lon": -77.033871, "is_reserved": 0, "fusion_lat": 0.0, "type": "electric_scooter"}, {"fusion_lon": 0.0, "name": "87ebe3dd7aaebc89faa2a70bb6aecead", "rental_uris": {"android": "https://dc.lft.to/lastmile_qr_scan", "ios": "https://dc.lft.to/lastmile_qr_scan"}, "lat": 38.88414233333334, "bike_id": "87ebe3dd7aaebc89faa2a70bb6aecead", "is_disabled": 0, "lon": -77.025442, "is_reserved": 0, "fusion_lat": 0.0, "type": "electric_scooter"}, {"fusion_lon": 0.0, "name": "048ac8b65472a50e726f575dfb492f7b", "rental_uris": {"android": "https://dc.lft.to/lastmile_qr_scan", "ios": "https://dc.lft.to/lastmile_qr_scan"}, "lat": 38.898785, "bike_id": "048ac8b65472a50e726f575dfb492f7b", "is_disabled": 0, "lon": -76.93184966666666, "is_reserved": 0, "fusion_lat": 0.0, "type": "electric_bike"}, {"fusion_lon": 0.0, "name": "9d9c5d1b5e5abf18112079c456ba6e90", "rental_uris": {"android": "https://dc.lft.to/lastmile_qr_scan", "ios": "https://dc.lft.to/lastmile_qr_scan"}, "lat": 38.890435333333336, "bike_id": "9d9c5d1b5e5abf18112079c456ba6e90", "is_disabled": 0, "lon": -76.99009133333334, "is_reserved": 0, "fusion_lat": 0.0, "type": "electric_scooter"}, {"fusion_lon": 0.0, "name": "bb5e73a3a40d9a7003cb42e9fc8a8429", "rental_uris": {"android": "https://dc.lft.to/lastmile_qr_scan", "ios": "https://dc.lft.to/lastmile_qr_scan"}, "lat": 38.95629983333333, "bike_id": "bb5e73a3a40d9a7003cb42e9fc8a8429", "is_disabled": 0, "lon": -77.0330005, "is_reserved": 0, "fusion_lat": 0.0, "type": "electric_scooter"}, {"fusion_lon": 0.0, "name": "df536c0887ee3e60c1cdd820612361b6", "rental_uris": {"android": "https://dc.lft.to/lastmile_qr_scan", "ios": "https://dc.lft.to/lastmile_qr_scan"}, "lat": 38.907807, "bike_id": "df536c0887ee3e60c1cdd820612361b6", "is_disabled": 0, "lon": -77.03773983333333, "is_reserved": 0, "fusion_lat": 0.0, "type": "electric_scooter"}, {"fusion_lon": 0.0, "name": "49e32987105d70b42d010c38be42aa3f", "rental_uris": {"android": "https://dc.lft.to/lastmile_qr_scan", "ios": "https://dc.lft.to/lastmile_qr_scan"}, "lat": 38.8959115, "bike_id": "49e32987105d70b42d010c38be42aa3f", "is_disabled": 0, "lon": -77.02178533333333, "is_reserved": 0, "fusion_lat": 0.0, "type": "electric_scooter"}, {"fusion_lon": 0.0, "name": "51394e4d32d1efbeadacf2ff8590c748", "rental_uris": {"android": "https://dc.lft.to/lastmile_qr_scan", "ios": "https://dc.lft.to/lastmile_qr_scan"}, "lat": 38.891957833333336, "bike_id": "51394e4d32d1efbeadacf2ff8590c748", "is_disabled": 0, "lon": -76.99379883333333, "is_reserved": 0, "fusion_lat": 0.0, "type": "electric_scooter"}, {"fusion_lon": 0.0, "name": "359364b4d74f545dc6eaed5b8ac2a43a", "rental_uris": {"android": "https://dc.lft.to/lastmile_qr_scan", "ios": "https://dc.lft.to/lastmile_qr_scan"}, "lat": 38.89309166666666, "bike_id": "359364b4d74f545dc6eaed5b8ac2a43a", "is_disabled": 0, "lon": -76.93972333333333, "is_reserved": 0, "fusion_lat": 0.0, "type": "electric_scooter"}, {"fusion_lon": 0.0, "name": "8b60877a3350596a5eb6128a19be8c89", "rental_uris": {"android": "https://dc.lft.to/lastmile_qr_scan", "ios": "https://dc.lft.to/lastmile_qr_scan"}, "lat": 38.92359066666667, "bike_id": "8b60877a3350596a5eb6128a19be8c89", "is_disabled": 0, "lon": -77.05029683333333, "is_reserved": 0, "fusion_lat": 0.0, "type": "electric_scooter"}, {"fusion_lon": 0.0, "name": "5575601c92855346834a0564f6d93b9f", "rental_uris": {"android": "https://dc.lft.to/lastmile_qr_scan", "ios": "https://dc.lft.to/lastmile_qr_scan"}, "lat": 38.8963085, "bike_id": "5575601c92855346834a0564f6d93b9f", "is_disabled": 0, "lon": -77.0320695, "is_reserved": 0, "fusion_lat": 0.0, "type": "electric_scooter"}, {"fusion_lon": 0.0, "name": "071eb50e10d9ac5f1e9df2ed0b0058bb", "rental_uris": {"android": "https://dc.lft.to/lastmile_qr_scan", "ios": "https://dc.lft.to/lastmile_qr_scan"}, "lat": 38.88868266666667, "bike_id": "071eb50e10d9ac5f1e9df2ed0b0058bb", "is_disabled": 0, "lon": -77.03995483333334, "is_reserved": 0, "fusion_lat": 0.0, "type": "electric_scooter"}, {"fusion_lon": 0.0, "name": "1f618dd26d060f0f36234f4b9ed72834", "rental_uris": {"android": "https://dc.lft.to/lastmile_qr_scan", "ios": "https://dc.lft.to/lastmile_qr_scan"}, "lat": 38.92268283333333, "bike_id": "1f618dd26d060f0f36234f4b9ed72834", "is_disabled": 0, "lon": -77.02964133333333, "is_reserved": 0, "fusion_lat": 0.0, "type": "electric_scooter"}, {"fusion_lon": 0.0, "name": "f881efcb915d3f37b66753aced98b117", "rental_uris": {"android": "https://dc.lft.to/lastmile_qr_scan", "ios": "https://dc.lft.to/lastmile_qr_scan"}, "lat": 38.84760816666667, "bike_id": "f881efcb915d3f37b66753aced98b117", "is_disabled": 0, "lon": -77.05371583333333, "is_reserved": 0, "fusion_lat": 0.0, "type": "electric_bike"}, {"fusion_lon": 0.0, "name": "c28ade24d10b3f8c80c4c256e3c2eb6a", "rental_uris": {"android": "https://dc.lft.to/lastmile_qr_scan", "ios": "https://dc.lft.to/lastmile_qr_scan"}, "lat": 38.94348733333333, "bike_id": "c28ade24d10b3f8c80c4c256e3c2eb6a", "is_disabled": 0, "lon": -77.0613105, "is_reserved": 0, "fusion_lat": 0.0, "type": "electric_scooter"}, {"fusion_lon": 0.0, "name": "6147aa5ab292aa271a6fbc9c1f2b9750", "rental_uris": {"android": "https://dc.lft.to/lastmile_qr_scan", "ios": "https://dc.lft.to/lastmile_qr_scan"}, "lat": 38.894891333333334, "bike_id": "6147aa5ab292aa271a6fbc9c1f2b9750", "is_disabled": 0, "lon": -76.9489025, "is_reserved": 0, "fusion_lat": 0.0, "type": "electric_scooter"}, {"fusion_lon": 0.0, "name": "3409f1021713c78c52ef49a17ea80393", "rental_uris": {"android": "https://dc.lft.to/lastmile_qr_scan", "ios": "https://dc.lft.to/lastmile_qr_scan"}, "lat": 38.939801833333334, "bike_id": "3409f1021713c78c52ef49a17ea80393", "is_disabled": 0, "lon": -77.02832683333334, "is_reserved": 0, "fusion_lat": 0.0, "type": "electric_scooter"}, {"fusion_lon": 0.0, "name": "46b35fdd337a0ba3e8d8bc3e6de9cdef", "rental_uris": {"android": "https://dc.lft.to/lastmile_qr_scan", "ios": "https://dc.lft.to/lastmile_qr_scan"}, "lat": 38.91575383333333, "bike_id": "46b35fdd337a0ba3e8d8bc3e6de9cdef", "is_disabled": 0, "lon": -77.04429833333333, "is_reserved": 0, "fusion_lat": 0.0, "type": "electric_scooter"}, {"fusion_lon": 0.0, "name": "7be83651747d260843eb2bd161391e3f", "rental_uris": {"android": "https://dc.lft.to/lastmile_qr_scan", "ios": "https://dc.lft.to/lastmile_qr_scan"}, "lat": 38.89993116666667, "bike_id": "7be83651747d260843eb2bd161391e3f", "is_disabled": 0, "lon": -77.04098433333333, "is_reserved": 0, "fusion_lat": 0.0, "type": "electric_scooter"}, {"fusion_lon": 0.0, "name": "bfc08aa939f852f271dae62df3581fff", "rental_uris": {"android": "https://dc.lft.to/lastmile_qr_scan", "ios": "https://dc.lft.to/lastmile_qr_scan"}, "lat": 38.8753195, "bike_id": "bfc08aa939f852f271dae62df3581fff", "is_disabled": 0, "lon": -77.017492, "is_reserved": 0, "fusion_lat": 0.0, "type": "electric_scooter"}, {"fusion_lon": 0.0, "name": "891709cf1d2c426eb7b5fe574e821ddd", "rental_uris": {"android": "https://dc.lft.to/lastmile_qr_scan", "ios": "https://dc.lft.to/lastmile_qr_scan"}, "lat": 38.9120685, "bike_id": "891709cf1d2c426eb7b5fe574e821ddd", "is_disabled": 0, "lon": -77.0449165, "is_reserved": 0, "fusion_lat": 0.0, "type": "electric_scooter"}, {"fusion_lon": 0.0, "name": "4792c5390cc26410ab10179ff563439c", "rental_uris": {"android": "https://dc.lft.to/lastmile_qr_scan", "ios": "https://dc.lft.to/lastmile_qr_scan"}, "lat": 38.923597666666666, "bike_id": "4792c5390cc26410ab10179ff563439c", "is_disabled": 0, "lon": -77.05026066666667, "is_reserved": 0, "fusion_lat": 0.0, "type": "electric_scooter"}, {"fusion_lon": 0.0, "name": "fd9a42027a2bb2fb625b8f6d213ab139", "rental_uris": {"android": "https://dc.lft.to/lastmile_qr_scan", "ios": "https://dc.lft.to/lastmile_qr_scan"}, "lat": 38.914041, "bike_id": "fd9a42027a2bb2fb625b8f6d213ab139", "is_disabled": 0, "lon": -77.03262516666666, "is_reserved": 0, "fusion_lat": 0.0, "type": "electric_scooter"}, {"fusion_lon": 0.0, "name": "f1372464730bf92973a61bc8063550ac", "rental_uris": {"android": "https://dc.lft.to/lastmile_qr_scan", "ios": "https://dc.lft.to/lastmile_qr_scan"}, "lat": 38.90335483333333, "bike_id": "f1372464730bf92973a61bc8063550ac", "is_disabled": 0, "lon": -76.9336715, "is_reserved": 0, "fusion_lat": 0.0, "type": "electric_bike"}, {"fusion_lon": 0.0, "name": "018447b6ea46e224e7fba2fd13928eb8", "rental_uris": {"android": "https://dc.lft.to/lastmile_qr_scan", "ios": "https://dc.lft.to/lastmile_qr_scan"}, "lat": 38.91862583333333, "bike_id": "018447b6ea46e224e7fba2fd13928eb8", "is_disabled": 0, "lon": -77.04831266666666, "is_reserved": 0, "fusion_lat": 0.0, "type": "electric_scooter"}, {"fusion_lon": 0.0, "name": "cba151478328b472098b4e53025bc323", "rental_uris": {"android": "https://dc.lft.to/lastmile_qr_scan", "ios": "https://dc.lft.to/lastmile_qr_scan"}, "lat": 38.9387845, "bike_id": "cba151478328b472098b4e53025bc323", "is_disabled": 0, "lon": -77.02479533333333, "is_reserved": 0, "fusion_lat": 0.0, "type": "electric_scooter"}, {"fusion_lon": 0.0, "name": "df9442d477f8b14b4cdd956d47079f1d", "rental_uris": {"android": "https://dc.lft.to/lastmile_qr_scan", "ios": "https://dc.lft.to/lastmile_qr_scan"}, "lat": 38.91487583333333, "bike_id": "df9442d477f8b14b4cdd956d47079f1d", "is_disabled": 0, "lon": -77.04131133333334, "is_reserved": 0, "fusion_lat": 0.0, "type": "electric_scooter"}, {"fusion_lon": 0.0, "name": "7ee1d509cdeaa30fb8be33f3f60b287f", "rental_uris": {"android": "https://dc.lft.to/lastmile_qr_scan", "ios": "https://dc.lft.to/lastmile_qr_scan"}, "lat": 38.92466233333333, "bike_id": "7ee1d509cdeaa30fb8be33f3f60b287f", "is_disabled": 0, "lon": -77.02190016666667, "is_reserved": 0, "fusion_lat": 0.0, "type": "electric_scooter"}, {"fusion_lon": 0.0, "name": "460070556b980599abf58dff20a79bf6", "rental_uris": {"android": "https://dc.lft.to/lastmile_qr_scan", "ios": "https://dc.lft.to/lastmile_qr_scan"}, "lat": 38.91264683333333, "bike_id": "460070556b980599abf58dff20a79bf6", "is_disabled": 0, "lon": -77.03854983333333, "is_reserved": 0, "fusion_lat": 0.0, "type": "electric_scooter"}, {"fusion_lon": 0.0, "name": "16b689eb8d84d4246eb2ad5e639d1a12", "rental_uris": {"android": "https://dc.lft.to/lastmile_qr_scan", "ios": "https://dc.lft.to/lastmile_qr_scan"}, "lat": 38.903692666666664, "bike_id": "16b689eb8d84d4246eb2ad5e639d1a12", "is_disabled": 0, "lon": -76.98485316666667, "is_reserved": 0, "fusion_lat": 0.0, "type": "electric_scooter"}, {"fusion_lon": 0.0, "name": "5627a554d68abb5f779cc5e0b3e33768", "rental_uris": {"android": "https://dc.lft.to/lastmile_qr_scan", "ios": "https://dc.lft.to/lastmile_qr_scan"}, "lat": 38.902708, "bike_id": "5627a554d68abb5f779cc5e0b3e33768", "is_disabled": 0, "lon": -77.03956066666667, "is_reserved": 0, "fusion_lat": 0.0, "type": "electric_scooter"}, {"fusion_lon": 0.0, "name": "2b2bd58fbe757019b31505cd0179c56d", "rental_uris": {"android": "https://dc.lft.to/lastmile_qr_scan", "ios": "https://dc.lft.to/lastmile_qr_scan"}, "lat": 38.9265245, "bike_id": "2b2bd58fbe757019b31505cd0179c56d", "is_disabled": 0, "lon": -77.02410866666666, "is_reserved": 0, "fusion_lat": 0.0, "type": "electric_scooter"}, {"fusion_lon": 0.0, "name": "3e8b8641d66df224bdff2a9d966a832b", "rental_uris": {"android": "https://dc.lft.to/lastmile_qr_scan", "ios": "https://dc.lft.to/lastmile_qr_scan"}, "lat": 38.938809666666664, "bike_id": "3e8b8641d66df224bdff2a9d966a832b", "is_disabled": 0, "lon": -77.03233366666667, "is_reserved": 0, "fusion_lat": 0.0, "type": "electric_scooter"}, {"fusion_lon": 0.0, "name": "98c35cd56f2fe7bfca8c8f6891c17044", "rental_uris": {"android": "https://dc.lft.to/lastmile_qr_scan", "ios": "https://dc.lft.to/lastmile_qr_scan"}, "lat": 38.90327116666667, "bike_id": "98c35cd56f2fe7bfca8c8f6891c17044", "is_disabled": 0, "lon": -77.02469866666667, "is_reserved": 0, "fusion_lat": 0.0, "type": "electric_scooter"}, {"fusion_lon": 0.0, "name": "49ddcdf52ed8df05e8340879406d4999", "rental_uris": {"android": "https://dc.lft.to/lastmile_qr_scan", "ios": "https://dc.lft.to/lastmile_qr_scan"}, "lat": 38.89219933333333, "bike_id": "49ddcdf52ed8df05e8340879406d4999", "is_disabled": 0, "lon": -77.02161583333333, "is_reserved": 0, "fusion_lat": 0.0, "type": "electric_scooter"}, {"fusion_lon": 0.0, "name": "5c73605836d78794e863e373a213f9f0", "rental_uris": {"android": "https://dc.lft.to/lastmile_qr_scan", "ios": "https://dc.lft.to/lastmile_qr_scan"}, "lat": 38.91265416666667, "bike_id": "5c73605836d78794e863e373a213f9f0", "is_disabled": 0, "lon": -77.07317766666667, "is_reserved": 0, "fusion_lat": 0.0, "type": "electric_scooter"}, {"fusion_lon": 0.0, "name": "64157ab66be1e73f321ac808f36abbcd", "rental_uris": {"android": "https://dc.lft.to/lastmile_qr_scan", "ios": "https://dc.lft.to/lastmile_qr_scan"}, "lat": 38.882868333333334, "bike_id": "64157ab66be1e73f321ac808f36abbcd", "is_disabled": 0, "lon": -76.93431933333333, "is_reserved": 0, "fusion_lat": 0.0, "type": "electric_scooter"}, {"fusion_lon": 0.0, "name": "584844ad55b44b01a6520dfd04196264", "rental_uris": {"android": "https://dc.lft.to/lastmile_qr_scan", "ios": "https://dc.lft.to/lastmile_qr_scan"}, "lat": 38.835856, "bike_id": "584844ad55b44b01a6520dfd04196264", "is_disabled": 0, "lon": -76.990235, "is_reserved": 0, "fusion_lat": 0.0, "type": "electric_bike"}, {"fusion_lon": 0.0, "name": "6b4867b9ea08e342d9f22451bfad0563", "rental_uris": {"android": "https://dc.lft.to/lastmile_qr_scan", "ios": "https://dc.lft.to/lastmile_qr_scan"}, "lat": 38.888621666666666, "bike_id": "6b4867b9ea08e342d9f22451bfad0563", "is_disabled": 0, "lon": -77.040037, "is_reserved": 0, "fusion_lat": 0.0, "type": "electric_scooter"}, {"fusion_lon": 0.0, "name": "c6d28840b1f9499d64d9cf646e3915dd", "rental_uris": {"android": "https://dc.lft.to/lastmile_qr_scan", "ios": "https://dc.lft.to/lastmile_qr_scan"}, "lat": 38.863803, "bike_id": "c6d28840b1f9499d64d9cf646e3915dd", "is_disabled": 0, "lon": -76.98812333333333, "is_reserved": 0, "fusion_lat": 0.0, "type": "electric_scooter"}, {"fusion_lon": 0.0, "name": "4c5132ce5453841949b58df2c0e85b20", "rental_uris": {"android": "https://dc.lft.to/lastmile_qr_scan", "ios": "https://dc.lft.to/lastmile_qr_scan"}, "lat": 38.89820983333333, "bike_id": "4c5132ce5453841949b58df2c0e85b20", "is_disabled": 0, "lon": -76.9300905, "is_reserved": 0, "fusion_lat": 0.0, "type": "electric_scooter"}, {"fusion_lon": 0.0, "name": "a0f41e79f2759a77121d7ccab5c19101", "rental_uris": {"android": "https://dc.lft.to/lastmile_qr_scan", "ios": "https://dc.lft.to/lastmile_qr_scan"}, "lat": 38.863330833333336, "bike_id": "a0f41e79f2759a77121d7ccab5c19101", "is_disabled": 0, "lon": -76.98719666666666, "is_reserved": 0, "fusion_lat": 0.0, "type": "electric_scooter"}, {"fusion_lon": 0.0, "name": "c6c6e74d9e43408836c062ad536a47f4", "rental_uris": {"android": "https://dc.lft.to/lastmile_qr_scan", "ios": "https://dc.lft.to/lastmile_qr_scan"}, "lat": 38.892213, "bike_id": "c6c6e74d9e43408836c062ad536a47f4", "is_disabled": 0, "lon": -77.01397983333334, "is_reserved": 0, "fusion_lat": 0.0, "type": "electric_scooter"}, {"fusion_lon": 0.0, "name": "afbe68699f963ec4f8454625a19ff125", "rental_uris": {"android": "https://dc.lft.to/lastmile_qr_scan", "ios": "https://dc.lft.to/lastmile_qr_scan"}, "lat": 38.89983866666667, "bike_id": "afbe68699f963ec4f8454625a19ff125", "is_disabled": 0, "lon": -77.01589233333333, "is_reserved": 0, "fusion_lat": 0.0, "type": "electric_scooter"}, {"fusion_lon": 0.0, "name": "f875c549f52aaaf7655c25731fb8e16d", "rental_uris": {"android": "https://dc.lft.to/lastmile_qr_scan", "ios": "https://dc.lft.to/lastmile_qr_scan"}, "lat": 38.879328666666666, "bike_id": "f875c549f52aaaf7655c25731fb8e16d", "is_disabled": 0, "lon": -77.017172, "is_reserved": 0, "fusion_lat": 0.0, "type": "electric_scooter"}, {"fusion_lon": 0.0, "name": "6c01ce0261e4dcb7932da3ba85a27658", "rental_uris": {"android": "https://dc.lft.to/lastmile_qr_scan", "ios": "https://dc.lft.to/lastmile_qr_scan"}, "lat": 38.900609833333334, "bike_id": "6c01ce0261e4dcb7932da3ba85a27658", "is_disabled": 0, "lon": -77.02976616666666, "is_reserved": 0, "fusion_lat": 0.0, "type": "electric_scooter"}, {"fusion_lon": 0.0, "name": "09751e314f4119d7f415f80a2c5d949f", "rental_uris": {"android": "https://dc.lft.to/lastmile_qr_scan", "ios": "https://dc.lft.to/lastmile_qr_scan"}, "lat": 38.93473766666666, "bike_id": "09751e314f4119d7f415f80a2c5d949f", "is_disabled": 0, "lon": -77.08663116666666, "is_reserved": 0, "fusion_lat": 0.0, "type": "electric_scooter"}, {"fusion_lon": 0.0, "name": "eece550d7c5afe4171eea1cc4f682b8f", "rental_uris": {"android": "https://dc.lft.to/lastmile_qr_scan", "ios": "https://dc.lft.to/lastmile_qr_scan"}, "lat": 38.90575116666667, "bike_id": "eece550d7c5afe4171eea1cc4f682b8f", "is_disabled": 0, "lon": -77.0297495, "is_reserved": 0, "fusion_lat": 0.0, "type": "electric_scooter"}, {"fusion_lon": 0.0, "name": "dc3e22cb306118ed4b6c6b0ae4be2a9b", "rental_uris": {"android": "https://dc.lft.to/lastmile_qr_scan", "ios": "https://dc.lft.to/lastmile_qr_scan"}, "lat": 38.89362033333333, "bike_id": "dc3e22cb306118ed4b6c6b0ae4be2a9b", "is_disabled": 0, "lon": -77.04621233333333, "is_reserved": 0, "fusion_lat": 0.0, "type": "electric_scooter"}, {"fusion_lon": 0.0, "name": "34a8374443e333f9f6e2fb0d429a6a7b", "rental_uris": {"android": "https://dc.lft.to/lastmile_qr_scan", "ios": "https://dc.lft.to/lastmile_qr_scan"}, "lat": 38.92434166666666, "bike_id": "34a8374443e333f9f6e2fb0d429a6a7b", "is_disabled": 0, "lon": -77.0400215, "is_reserved": 0, "fusion_lat": 0.0, "type": "electric_scooter"}, {"fusion_lon": 0.0, "name": "b565257b3a2f7b8bae9fed7b147e3d49", "rental_uris": {"android": "https://dc.lft.to/lastmile_qr_scan", "ios": "https://dc.lft.to/lastmile_qr_scan"}, "lat": 38.910609, "bike_id": "b565257b3a2f7b8bae9fed7b147e3d49", "is_disabled": 0, "lon": -77.00920666666667, "is_reserved": 0, "fusion_lat": 0.0, "type": "electric_scooter"}, {"fusion_lon": 0.0, "name": "e2b5ae2cb52308bd1a081a7a6ad22e79", "rental_uris": {"android": "https://dc.lft.to/lastmile_qr_scan", "ios": "https://dc.lft.to/lastmile_qr_scan"}, "lat": 38.95614233333333, "bike_id": "e2b5ae2cb52308bd1a081a7a6ad22e79", "is_disabled": 0, "lon": -77.03250533333333, "is_reserved": 0, "fusion_lat": 0.0, "type": "electric_scooter"}, {"fusion_lon": 0.0, "name": "c1657c28eba660a78fa43536f067238b", "rental_uris": {"android": "https://dc.lft.to/lastmile_qr_scan", "ios": "https://dc.lft.to/lastmile_qr_scan"}, "lat": 38.903912, "bike_id": "c1657c28eba660a78fa43536f067238b", "is_disabled": 0, "lon": -77.01735666666667, "is_reserved": 0, "fusion_lat": 0.0, "type": "electric_scooter"}, {"fusion_lon": 0.0, "name": "d846efc76207a2598c36a12bdf43903b", "rental_uris": {"android": "https://dc.lft.to/lastmile_qr_scan", "ios": "https://dc.lft.to/lastmile_qr_scan"}, "lat": 38.93403816666667, "bike_id": "d846efc76207a2598c36a12bdf43903b", "is_disabled": 0, "lon": -77.03819883333334, "is_reserved": 0, "fusion_lat": 0.0, "type": "electric_scooter"}, {"fusion_lon": 0.0, "name": "9296947239f043356a2c1dff56c103e2", "rental_uris": {"android": "https://dc.lft.to/lastmile_qr_scan", "ios": "https://dc.lft.to/lastmile_qr_scan"}, "lat": 38.93014816666667, "bike_id": "9296947239f043356a2c1dff56c103e2", "is_disabled": 0, "lon": -77.06186316666667, "is_reserved": 0, "fusion_lat": 0.0, "type": "electric_scooter"}, {"fusion_lon": 0.0, "name": "107d14b15b5895595cf1753f57e615ca", "rental_uris": {"android": "https://dc.lft.to/lastmile_qr_scan", "ios": "https://dc.lft.to/lastmile_qr_scan"}, "lat": 38.897344833333335, "bike_id": "107d14b15b5895595cf1753f57e615ca", "is_disabled": 0, "lon": -77.0092605, "is_reserved": 0, "fusion_lat": 0.0, "type": "electric_scooter"}, {"fusion_lon": 0.0, "name": "9a1858f7cc95143638920addf699758e", "rental_uris": {"android": "https://dc.lft.to/lastmile_qr_scan", "ios": "https://dc.lft.to/lastmile_qr_scan"}, "lat": 38.92688316666667, "bike_id": "9a1858f7cc95143638920addf699758e", "is_disabled": 0, "lon": -77.03231466666666, "is_reserved": 0, "fusion_lat": 0.0, "type": "electric_scooter"}, {"fusion_lon": 0.0, "name": "80f3c1da598d2715855785c1dcb6ee22", "rental_uris": {"android": "https://dc.lft.to/lastmile_qr_scan", "ios": "https://dc.lft.to/lastmile_qr_scan"}, "lat": 38.922643666666666, "bike_id": "80f3c1da598d2715855785c1dcb6ee22", "is_disabled": 0, "lon": -77.0188975, "is_reserved": 0, "fusion_lat": 0.0, "type": "electric_scooter"}, {"fusion_lon": 0.0, "name": "171f0f8bf62f3ce984d102207af79deb", "rental_uris": {"android": "https://dc.lft.to/lastmile_qr_scan", "ios": "https://dc.lft.to/lastmile_qr_scan"}, "lat": 38.89219083333333, "bike_id": "171f0f8bf62f3ce984d102207af79deb", "is_disabled": 0, "lon": -77.04684416666667, "is_reserved": 0, "fusion_lat": 0.0, "type": "electric_scooter"}, {"fusion_lon": 0.0, "name": "e6cbb5d44d936519e0e1f2f25928a441", "rental_uris": {"android": "https://dc.lft.to/lastmile_qr_scan", "ios": "https://dc.lft.to/lastmile_qr_scan"}, "lat": 38.87895916666667, "bike_id": "e6cbb5d44d936519e0e1f2f25928a441", "is_disabled": 0, "lon": -77.02205233333333, "is_reserved": 0, "fusion_lat": 0.0, "type": "electric_scooter"}, {"fusion_lon": 0.0, "name": "490a51e7d94c44beae898c2d3dc3d4ac", "rental_uris": {"android": "https://dc.lft.to/lastmile_qr_scan", "ios": "https://dc.lft.to/lastmile_qr_scan"}, "lat": 38.958883, "bike_id": "490a51e7d94c44beae898c2d3dc3d4ac", "is_disabled": 0, "lon": -76.970376, "is_reserved": 0, "fusion_lat": 0.0, "type": "electric_bike"}, {"fusion_lon": 0.0, "name": "1aa8a8def7db62e8bd01f0780d4525c1", "rental_uris": {"android": "https://dc.lft.to/lastmile_qr_scan", "ios": "https://dc.lft.to/lastmile_qr_scan"}, "lat": 38.888168666666665, "bike_id": "1aa8a8def7db62e8bd01f0780d4525c1", "is_disabled": 0, "lon": -76.9770825, "is_reserved": 0, "fusion_lat": 0.0, "type": "electric_scooter"}, {"fusion_lon": 0.0, "name": "25df9803c8a562342d96539fd9da19d0", "rental_uris": {"android": "https://dc.lft.to/lastmile_qr_scan", "ios": "https://dc.lft.to/lastmile_qr_scan"}, "lat": 38.895107333333335, "bike_id": "25df9803c8a562342d96539fd9da19d0", "is_disabled": 0, "lon": -76.94883616666667, "is_reserved": 0, "fusion_lat": 0.0, "type": "electric_scooter"}, {"fusion_lon": 0.0, "name": "d251352e06298b7decc13e4f25b9a701", "rental_uris": {"android": "https://dc.lft.to/lastmile_qr_scan", "ios": "https://dc.lft.to/lastmile_qr_scan"}, "lat": 38.89720616666666, "bike_id": "d251352e06298b7decc13e4f25b9a701", "is_disabled": 0, "lon": -76.93908433333333, "is_reserved": 0, "fusion_lat": 0.0, "type": "electric_scooter"}, {"fusion_lon": 0.0, "name": "21ccb9861251fdb3f01e8b2e345dc9ce", "rental_uris": {"android": "https://dc.lft.to/lastmile_qr_scan", "ios": "https://dc.lft.to/lastmile_qr_scan"}, "lat": 38.87658833333333, "bike_id": "21ccb9861251fdb3f01e8b2e345dc9ce", "is_disabled": 0, "lon": -77.01170683333333, "is_reserved": 0, "fusion_lat": 0.0, "type": "electric_scooter"}, {"fusion_lon": 0.0, "name": "5070d31ae22589de2f9fd5e105611417", "rental_uris": {"android": "https://dc.lft.to/lastmile_qr_scan", "ios": "https://dc.lft.to/lastmile_qr_scan"}, "lat": 38.902452833333335, "bike_id": "5070d31ae22589de2f9fd5e105611417", "is_disabled": 0, "lon": -77.03249833333334, "is_reserved": 0, "fusion_lat": 0.0, "type": "electric_scooter"}, {"fusion_lon": 0.0, "name": "ac21246fcc27212c2f111b514189e380", "rental_uris": {"android": "https://dc.lft.to/lastmile_qr_scan", "ios": "https://dc.lft.to/lastmile_qr_scan"}, "lat": 38.87651666666667, "bike_id": "ac21246fcc27212c2f111b514189e380", "is_disabled": 0, "lon": -77.00586233333334, "is_reserved": 0, "fusion_lat": 0.0, "type": "electric_scooter"}, {"fusion_lon": 0.0, "name": "d06a26b92b01a607e1b35dabc29e5a1b", "rental_uris": {"android": "https://dc.lft.to/lastmile_qr_scan", "ios": "https://dc.lft.to/lastmile_qr_scan"}, "lat": 39.00718616666666, "bike_id": "d06a26b92b01a607e1b35dabc29e5a1b", "is_disabled": 0, "lon": -76.98146733333333, "is_reserved": 0, "fusion_lat": 0.0, "type": "electric_bike"}, {"fusion_lon": 0.0, "name": "dabbe04e159111255d326669d8da4332", "rental_uris": {"android": "https://dc.lft.to/lastmile_qr_scan", "ios": "https://dc.lft.to/lastmile_qr_scan"}, "lat": 38.90277233333333, "bike_id": "dabbe04e159111255d326669d8da4332", "is_disabled": 0, "lon": -77.04695533333333, "is_reserved": 0, "fusion_lat": 0.0, "type": "electric_scooter"}, {"fusion_lon": 0.0, "name": "6feb9a485d3577d680b8c0a062f13e11", "rental_uris": {"android": "https://dc.lft.to/lastmile_qr_scan", "ios": "https://dc.lft.to/lastmile_qr_scan"}, "lat": 38.922937833333336, "bike_id": "6feb9a485d3577d680b8c0a062f13e11", "is_disabled": 0, "lon": -77.01947233333334, "is_reserved": 0, "fusion_lat": 0.0, "type": "electric_scooter"}, {"fusion_lon": 0.0, "name": "aad88ef0e32c476a7553b20b157d45d0", "rental_uris": {"android": "https://dc.lft.to/lastmile_qr_scan", "ios": "https://dc.lft.to/lastmile_qr_scan"}, "lat": 38.91402, "bike_id": "aad88ef0e32c476a7553b20b157d45d0", "is_disabled": 0, "lon": -77.03912583333333, "is_reserved": 0, "fusion_lat": 0.0, "type": "electric_scooter"}, {"fusion_lon": 0.0, "name": "476adca9989ad956a9e535dbc1918cd3", "rental_uris": {"android": "https://dc.lft.to/lastmile_qr_scan", "ios": "https://dc.lft.to/lastmile_qr_scan"}, "lat": 38.90025816666667, "bike_id": "476adca9989ad956a9e535dbc1918cd3", "is_disabled": 0, "lon": -77.01765916666666, "is_reserved": 0, "fusion_lat": 0.0, "type": "electric_scooter"}, {"fusion_lon": 0.0, "name": "feec93356a8b6aa46aa4dd7b7cc458bc", "rental_uris": {"android": "https://dc.lft.to/lastmile_qr_scan", "ios": "https://dc.lft.to/lastmile_qr_scan"}, "lat": 38.8488515, "bike_id": "feec93356a8b6aa46aa4dd7b7cc458bc", "is_disabled": 0, "lon": -77.07792916666666, "is_reserved": 0, "fusion_lat": 0.0, "type": "electric_bike"}, {"fusion_lon": 0.0, "name": "b8d76b98695e4378815daff9fdfae055", "rental_uris": {"android": "https://dc.lft.to/lastmile_qr_scan", "ios": "https://dc.lft.to/lastmile_qr_scan"}, "lat": 38.91558766666667, "bike_id": "b8d76b98695e4378815daff9fdfae055", "is_disabled": 0, "lon": -77.00699566666667, "is_reserved": 0, "fusion_lat": 0.0, "type": "electric_scooter"}, {"fusion_lon": 0.0, "name": "5bf34e31474c3e1a0b2d9f95a0f92b17", "rental_uris": {"android": "https://dc.lft.to/lastmile_qr_scan", "ios": "https://dc.lft.to/lastmile_qr_scan"}, "lat": 38.92514966666667, "bike_id": "5bf34e31474c3e1a0b2d9f95a0f92b17", "is_disabled": 0, "lon": -77.02273516666666, "is_reserved": 0, "fusion_lat": 0.0, "type": "electric_scooter"}, {"fusion_lon": 0.0, "name": "b934fae3ad072fb575cb66b444399c59", "rental_uris": {"android": "https://dc.lft.to/lastmile_qr_scan", "ios": "https://dc.lft.to/lastmile_qr_scan"}, "lat": 38.904972666666666, "bike_id": "b934fae3ad072fb575cb66b444399c59", "is_disabled": 0, "lon": -77.029713, "is_reserved": 0, "fusion_lat": 0.0, "type": "electric_scooter"}, {"fusion_lon": 0.0, "name": "d7323b73e3a927fc8591770ee4508fb4", "rental_uris": {"android": "https://dc.lft.to/lastmile_qr_scan", "ios": "https://dc.lft.to/lastmile_qr_scan"}, "lat": 38.9037685, "bike_id": "d7323b73e3a927fc8591770ee4508fb4", "is_disabled": 0, "lon": -77.01983283333334, "is_reserved": 0, "fusion_lat": 0.0, "type": "electric_scooter"}, {"fusion_lon": 0.0, "name": "f22d96e525de841e26136a183948017a", "rental_uris": {"android": "https://dc.lft.to/lastmile_qr_scan", "ios": "https://dc.lft.to/lastmile_qr_scan"}, "lat": 38.91153966666667, "bike_id": "f22d96e525de841e26136a183948017a", "is_disabled": 0, "lon": -77.00457366666667, "is_reserved": 0, "fusion_lat": 0.0, "type": "electric_scooter"}, {"fusion_lon": 0.0, "name": "26b8f08c0f6aeb40109620cc1c4e9b28", "rental_uris": {"android": "https://dc.lft.to/lastmile_qr_scan", "ios": "https://dc.lft.to/lastmile_qr_scan"}, "lat": 38.928333, "bike_id": "26b8f08c0f6aeb40109620cc1c4e9b28", "is_disabled": 0, "lon": -76.99586, "is_reserved": 0, "fusion_lat": 0.0, "type": "electric_scooter"}, {"fusion_lon": 0.0, "name": "16bfbbac294a20d52a9db4f92704fdac", "rental_uris": {"android": "https://dc.lft.to/lastmile_qr_scan", "ios": "https://dc.lft.to/lastmile_qr_scan"}, "lat": 38.87643083333333, "bike_id": "16bfbbac294a20d52a9db4f92704fdac", "is_disabled": 0, "lon": -77.00600616666667, "is_reserved": 0, "fusion_lat": 0.0, "type": "electric_scooter"}, {"fusion_lon": 0.0, "name": "231efd4851d7a1b195a5250c47fe91d2", "rental_uris": {"android": "https://dc.lft.to/lastmile_qr_scan", "ios": "https://dc.lft.to/lastmile_qr_scan"}, "lat": 38.892586333333334, "bike_id": "231efd4851d7a1b195a5250c47fe91d2", "is_disabled": 0, "lon": -77.00210383333334, "is_reserved": 0, "fusion_lat": 0.0, "type": "electric_scooter"}, {"fusion_lon": 0.0, "name": "2c4a4f8d779d58f6c732b98150f9a4c6", "rental_uris": {"android": "https://dc.lft.to/lastmile_qr_scan", "ios": "https://dc.lft.to/lastmile_qr_scan"}, "lat": 38.900646, "bike_id": "2c4a4f8d779d58f6c732b98150f9a4c6", "is_disabled": 0, "lon": -76.92744216666667, "is_reserved": 0, "fusion_lat": 0.0, "type": "electric_scooter"}, {"fusion_lon": 0.0, "name": "0dd9de3cd3636f391897187b7fc5f6e5", "rental_uris": {"android": "https://dc.lft.to/lastmile_qr_scan", "ios": "https://dc.lft.to/lastmile_qr_scan"}, "lat": 38.89899966666667, "bike_id": "0dd9de3cd3636f391897187b7fc5f6e5", "is_disabled": 0, "lon": -77.032719, "is_reserved": 0, "fusion_lat": 0.0, "type": "electric_scooter"}, {"fusion_lon": 0.0, "name": "32b711f9b000affb7e45cd8944bf4948", "rental_uris": {"android": "https://dc.lft.to/lastmile_qr_scan", "ios": "https://dc.lft.to/lastmile_qr_scan"}, "lat": 38.8786235, "bike_id": "32b711f9b000affb7e45cd8944bf4948", "is_disabled": 0, "lon": -76.991578, "is_reserved": 0, "fusion_lat": 0.0, "type": "electric_scooter"}, {"fusion_lon": 0.0, "name": "0d1b700154b3071910d22b25fc9a1789", "rental_uris": {"android": "https://dc.lft.to/lastmile_qr_scan", "ios": "https://dc.lft.to/lastmile_qr_scan"}, "lat": 38.88120416666667, "bike_id": "0d1b700154b3071910d22b25fc9a1789", "is_disabled": 0, "lon": -76.992938, "is_reserved": 0, "fusion_lat": 0.0, "type": "electric_scooter"}, {"fusion_lon": 0.0, "name": "13cc57a1f7987d977b86f0e54d7c5f3c", "rental_uris": {"android": "https://dc.lft.to/lastmile_qr_scan", "ios": "https://dc.lft.to/lastmile_qr_scan"}, "lat": 38.8975605, "bike_id": "13cc57a1f7987d977b86f0e54d7c5f3c", "is_disabled": 0, "lon": -77.02591183333334, "is_reserved": 0, "fusion_lat": 0.0, "type": "electric_scooter"}, {"fusion_lon": 0.0, "name": "62c53a2bd08ef30ccbc1f9939c705881", "rental_uris": {"android": "https://dc.lft.to/lastmile_qr_scan", "ios": "https://dc.lft.to/lastmile_qr_scan"}, "lat": 38.899361, "bike_id": "62c53a2bd08ef30ccbc1f9939c705881", "is_disabled": 0, "lon": -77.0450165, "is_reserved": 0, "fusion_lat": 0.0, "type": "electric_scooter"}, {"fusion_lon": 0.0, "name": "44b11ba3d7614e7426c102647a8f6782", "rental_uris": {"android": "https://dc.lft.to/lastmile_qr_scan", "ios": "https://dc.lft.to/lastmile_qr_scan"}, "lat": 38.90506466666667, "bike_id": "44b11ba3d7614e7426c102647a8f6782", "is_disabled": 0, "lon": -77.0638255, "is_reserved": 0, "fusion_lat": 0.0, "type": "electric_scooter"}, {"fusion_lon": 0.0, "name": "7be04c0692173f19fb38ad46ee3c422a", "rental_uris": {"android": "https://dc.lft.to/lastmile_qr_scan", "ios": "https://dc.lft.to/lastmile_qr_scan"}, "lat": 38.896186166666666, "bike_id": "7be04c0692173f19fb38ad46ee3c422a", "is_disabled": 0, "lon": -77.01167966666667, "is_reserved": 0, "fusion_lat": 0.0, "type": "electric_scooter"}, {"fusion_lon": 0.0, "name": "69042b073f30c33fc38795e1eb64e5b2", "rental_uris": {"android": "https://dc.lft.to/lastmile_qr_scan", "ios": "https://dc.lft.to/lastmile_qr_scan"}, "lat": 38.909576666666666, "bike_id": "69042b073f30c33fc38795e1eb64e5b2", "is_disabled": 0, "lon": -77.0227805, "is_reserved": 0, "fusion_lat": 0.0, "type": "electric_scooter"}, {"fusion_lon": 0.0, "name": "5f1e2e6d6d1d6ef1f0e380afe17c1512", "rental_uris": {"android": "https://dc.lft.to/lastmile_qr_scan", "ios": "https://dc.lft.to/lastmile_qr_scan"}, "lat": 38.895666166666665, "bike_id": "5f1e2e6d6d1d6ef1f0e380afe17c1512", "is_disabled": 0, "lon": -76.99408433333333, "is_reserved": 0, "fusion_lat": 0.0, "type": "electric_scooter"}, {"fusion_lon": 0.0, "name": "c514cdadf4240435454b3ffa930a9bc4", "rental_uris": {"android": "https://dc.lft.to/lastmile_qr_scan", "ios": "https://dc.lft.to/lastmile_qr_scan"}, "lat": 38.90012183333333, "bike_id": "c514cdadf4240435454b3ffa930a9bc4", "is_disabled": 0, "lon": -77.010249, "is_reserved": 0, "fusion_lat": 0.0, "type": "electric_scooter"}, {"fusion_lon": 0.0, "name": "11424031b671eedae6a954c1199e229f", "rental_uris": {"android": "https://dc.lft.to/lastmile_qr_scan", "ios": "https://dc.lft.to/lastmile_qr_scan"}, "lat": 38.9096265, "bike_id": "11424031b671eedae6a954c1199e229f", "is_disabled": 0, "lon": -77.07344583333334, "is_reserved": 0, "fusion_lat": 0.0, "type": "electric_scooter"}, {"fusion_lon": 0.0, "name": "1117ca8686078231b2aec23636772e8f", "rental_uris": {"android": "https://dc.lft.to/lastmile_qr_scan", "ios": "https://dc.lft.to/lastmile_qr_scan"}, "lat": 38.916868666666666, "bike_id": "1117ca8686078231b2aec23636772e8f", "is_disabled": 0, "lon": -77.03632483333334, "is_reserved": 0, "fusion_lat": 0.0, "type": "electric_scooter"}, {"fusion_lon": 0.0, "name": "73b196643773add9a03c4673e3989bb1", "rental_uris": {"android": "https://dc.lft.to/lastmile_qr_scan", "ios": "https://dc.lft.to/lastmile_qr_scan"}, "lat": 38.90727666666667, "bike_id": "73b196643773add9a03c4673e3989bb1", "is_disabled": 0, "lon": -77.04075966666667, "is_reserved": 0, "fusion_lat": 0.0, "type": "electric_scooter"}, {"fusion_lon": 0.0, "name": "6f0de58c144b7c81c069c4402841a806", "rental_uris": {"android": "https://dc.lft.to/lastmile_qr_scan", "ios": "https://dc.lft.to/lastmile_qr_scan"}, "lat": 38.89471916666667, "bike_id": "6f0de58c144b7c81c069c4402841a806", "is_disabled": 0, "lon": -77.02014183333333, "is_reserved": 0, "fusion_lat": 0.0, "type": "electric_scooter"}, {"fusion_lon": 0.0, "name": "b6ed969c745de1f211a4eaaf2ecaccf5", "rental_uris": {"android": "https://dc.lft.to/lastmile_qr_scan", "ios": "https://dc.lft.to/lastmile_qr_scan"}, "lat": 38.89700966666667, "bike_id": "b6ed969c745de1f211a4eaaf2ecaccf5", "is_disabled": 0, "lon": -77.031443, "is_reserved": 0, "fusion_lat": 0.0, "type": "electric_scooter"}, {"fusion_lon": 0.0, "name": "81697ac445247f954375a117b80b8993", "rental_uris": {"android": "https://dc.lft.to/lastmile_qr_scan", "ios": "https://dc.lft.to/lastmile_qr_scan"}, "lat": 38.90799466666667, "bike_id": "81697ac445247f954375a117b80b8993", "is_disabled": 0, "lon": -77.08397316666667, "is_reserved": 0, "fusion_lat": 0.0, "type": "electric_scooter"}, {"fusion_lon": 0.0, "name": "b2a75a4243a1e396099d7f5c9383c77d", "rental_uris": {"android": "https://dc.lft.to/lastmile_qr_scan", "ios": "https://dc.lft.to/lastmile_qr_scan"}, "lat": 38.90861666666667, "bike_id": "b2a75a4243a1e396099d7f5c9383c77d", "is_disabled": 0, "lon": -77.08073066666667, "is_reserved": 0, "fusion_lat": 0.0, "type": "electric_bike"}, {"fusion_lon": 0.0, "name": "3770024af8538dc7ca59461a070b2850", "rental_uris": {"android": "https://dc.lft.to/lastmile_qr_scan", "ios": "https://dc.lft.to/lastmile_qr_scan"}, "lat": 38.92346966666667, "bike_id": "3770024af8538dc7ca59461a070b2850", "is_disabled": 0, "lon": -77.021379, "is_reserved": 0, "fusion_lat": 0.0, "type": "electric_scooter"}, {"fusion_lon": 0.0, "name": "dbdc8cff771ed7c4bf3e39ff60919ac1", "rental_uris": {"android": "https://dc.lft.to/lastmile_qr_scan", "ios": "https://dc.lft.to/lastmile_qr_scan"}, "lat": 38.972564, "bike_id": "dbdc8cff771ed7c4bf3e39ff60919ac1", "is_disabled": 0, "lon": -76.99280833333333, "is_reserved": 0, "fusion_lat": 0.0, "type": "electric_bike"}, {"fusion_lon": 0.0, "name": "446ea85d857052e630bfe01d6c807aaf", "rental_uris": {"android": "https://dc.lft.to/lastmile_qr_scan", "ios": "https://dc.lft.to/lastmile_qr_scan"}, "lat": 38.9242615, "bike_id": "446ea85d857052e630bfe01d6c807aaf", "is_disabled": 0, "lon": -77.02125316666667, "is_reserved": 0, "fusion_lat": 0.0, "type": "electric_scooter"}, {"fusion_lon": 0.0, "name": "0a7f55592e558f523a3a8eb9f8c096e0", "rental_uris": {"android": "https://dc.lft.to/lastmile_qr_scan", "ios": "https://dc.lft.to/lastmile_qr_scan"}, "lat": 38.963814, "bike_id": "0a7f55592e558f523a3a8eb9f8c096e0", "is_disabled": 0, "lon": -77.02957633333334, "is_reserved": 0, "fusion_lat": 0.0, "type": "electric_scooter"}, {"fusion_lon": 0.0, "name": "16d2b4562bbfee8ee0caeac03696ca18", "rental_uris": {"android": "https://dc.lft.to/lastmile_qr_scan", "ios": "https://dc.lft.to/lastmile_qr_scan"}, "lat": 38.92420933333333, "bike_id": "16d2b4562bbfee8ee0caeac03696ca18", "is_disabled": 0, "lon": -77.0197515, "is_reserved": 0, "fusion_lat": 0.0, "type": "electric_scooter"}, {"fusion_lon": 0.0, "name": "60b67704431fc1d319e11be06563a7f6", "rental_uris": {"android": "https://dc.lft.to/lastmile_qr_scan", "ios": "https://dc.lft.to/lastmile_qr_scan"}, "lat": 38.8938805, "bike_id": "60b67704431fc1d319e11be06563a7f6", "is_disabled": 0, "lon": -77.02249883333333, "is_reserved": 0, "fusion_lat": 0.0, "type": "electric_scooter"}, {"fusion_lon": 0.0, "name": "22f87ddf49f2b5f139271a2e3fdefd22", "rental_uris": {"android": "https://dc.lft.to/lastmile_qr_scan", "ios": "https://dc.lft.to/lastmile_qr_scan"}, "lat": 38.9007215, "bike_id": "22f87ddf49f2b5f139271a2e3fdefd22", "is_disabled": 0, "lon": -77.048979, "is_reserved": 0, "fusion_lat": 0.0, "type": "electric_scooter"}, {"fusion_lon": 0.0, "name": "015551dbfca903ba14317ef9b9f8e45f", "rental_uris": {"android": "https://dc.lft.to/lastmile_qr_scan", "ios": "https://dc.lft.to/lastmile_qr_scan"}, "lat": 38.93527383333333, "bike_id": "015551dbfca903ba14317ef9b9f8e45f", "is_disabled": 0, "lon": -77.0349295, "is_reserved": 0, "fusion_lat": 0.0, "type": "electric_scooter"}, {"fusion_lon": 0.0, "name": "e70a01396038919d05cebacb756e1a4b", "rental_uris": {"android": "https://dc.lft.to/lastmile_qr_scan", "ios": "https://dc.lft.to/lastmile_qr_scan"}, "lat": 38.91755533333333, "bike_id": "e70a01396038919d05cebacb756e1a4b", "is_disabled": 0, "lon": -77.021037, "is_reserved": 0, "fusion_lat": 0.0, "type": "electric_scooter"}, {"fusion_lon": 0.0, "name": "0cd5474a944d363429abb692045a1ded", "rental_uris": {"android": "https://dc.lft.to/lastmile_qr_scan", "ios": "https://dc.lft.to/lastmile_qr_scan"}, "lat": 38.92564216666667, "bike_id": "0cd5474a944d363429abb692045a1ded", "is_disabled": 0, "lon": -76.99955216666666, "is_reserved": 0, "fusion_lat": 0.0, "type": "electric_scooter"}, {"fusion_lon": 0.0, "name": "5aafd5d93731bb76ff4dfd2b6b62579f", "rental_uris": {"android": "https://dc.lft.to/lastmile_qr_scan", "ios": "https://dc.lft.to/lastmile_qr_scan"}, "lat": 38.918790666666666, "bike_id": "5aafd5d93731bb76ff4dfd2b6b62579f", "is_disabled": 0, "lon": -77.041729, "is_reserved": 0, "fusion_lat": 0.0, "type": "electric_scooter"}, {"fusion_lon": 0.0, "name": "0786c64e89928ecaf875be12517cb9d7", "rental_uris": {"android": "https://dc.lft.to/lastmile_qr_scan", "ios": "https://dc.lft.to/lastmile_qr_scan"}, "lat": 38.88120283333333, "bike_id": "0786c64e89928ecaf875be12517cb9d7", "is_disabled": 0, "lon": -76.99279166666666, "is_reserved": 0, "fusion_lat": 0.0, "type": "electric_scooter"}, {"fusion_lon": 0.0, "name": "c2d2799e1169ff61d144201754357e04", "rental_uris": {"android": "https://dc.lft.to/lastmile_qr_scan", "ios": "https://dc.lft.to/lastmile_qr_scan"}, "lat": 38.909761, "bike_id": "c2d2799e1169ff61d144201754357e04", "is_disabled": 0, "lon": -77.03419333333333, "is_reserved": 0, "fusion_lat": 0.0, "type": "electric_scooter"}, {"fusion_lon": 0.0, "name": "6758fa08a7f15a96e61ccb9367e756e6", "rental_uris": {"android": "https://dc.lft.to/lastmile_qr_scan", "ios": "https://dc.lft.to/lastmile_qr_scan"}, "lat": 38.913986666666666, "bike_id": "6758fa08a7f15a96e61ccb9367e756e6", "is_disabled": 0, "lon": -77.048793, "is_reserved": 0, "fusion_lat": 0.0, "type": "electric_scooter"}, {"fusion_lon": 0.0, "name": "dccc379b9a7c442894375c61fd1a40b5", "rental_uris": {"android": "https://dc.lft.to/lastmile_qr_scan", "ios": "https://dc.lft.to/lastmile_qr_scan"}, "lat": 38.858151166666666, "bike_id": "dccc379b9a7c442894375c61fd1a40b5", "is_disabled": 0, "lon": -76.98997816666666, "is_reserved": 0, "fusion_lat": 0.0, "type": "electric_scooter"}, {"fusion_lon": 0.0, "name": "2bab681284f8b6aa74381ee05a220f91", "rental_uris": {"android": "https://dc.lft.to/lastmile_qr_scan", "ios": "https://dc.lft.to/lastmile_qr_scan"}, "lat": 38.9243925, "bike_id": "2bab681284f8b6aa74381ee05a220f91", "is_disabled": 0, "lon": -77.01942966666667, "is_reserved": 0, "fusion_lat": 0.0, "type": "electric_scooter"}, {"fusion_lon": 0.0, "name": "451d9037bb2172589708f8492fcceff0", "rental_uris": {"android": "https://dc.lft.to/lastmile_qr_scan", "ios": "https://dc.lft.to/lastmile_qr_scan"}, "lat": 38.86872783333333, "bike_id": "451d9037bb2172589708f8492fcceff0", "is_disabled": 0, "lon": -76.986607, "is_reserved": 0, "fusion_lat": 0.0, "type": "electric_scooter"}, {"fusion_lon": 0.0, "name": "5aad2d06fad6eaa31ec529f902e133c2", "rental_uris": {"android": "https://dc.lft.to/lastmile_qr_scan", "ios": "https://dc.lft.to/lastmile_qr_scan"}, "lat": 38.9014845, "bike_id": "5aad2d06fad6eaa31ec529f902e133c2", "is_disabled": 0, "lon": -77.04495783333333, "is_reserved": 0, "fusion_lat": 0.0, "type": "electric_scooter"}, {"fusion_lon": 0.0, "name": "89e2090095fda7b346ce49a342ac7475", "rental_uris": {"android": "https://dc.lft.to/lastmile_qr_scan", "ios": "https://dc.lft.to/lastmile_qr_scan"}, "lat": 38.89592616666667, "bike_id": "89e2090095fda7b346ce49a342ac7475", "is_disabled": 0, "lon": -77.0161875, "is_reserved": 0, "fusion_lat": 0.0, "type": "electric_scooter"}, {"fusion_lon": 0.0, "name": "8751cad22d448bde72213595e915c4fd", "rental_uris": {"android": "https://dc.lft.to/lastmile_qr_scan", "ios": "https://dc.lft.to/lastmile_qr_scan"}, "lat": 38.876388, "bike_id": "8751cad22d448bde72213595e915c4fd", "is_disabled": 0, "lon": -77.02075366666666, "is_reserved": 0, "fusion_lat": 0.0, "type": "electric_bike"}, {"fusion_lon": 0.0, "name": "6d4df6d805ebc8680982ec94f07d2ef7", "rental_uris": {"android": "https://dc.lft.to/lastmile_qr_scan", "ios": "https://dc.lft.to/lastmile_qr_scan"}, "lat": 38.922365166666665, "bike_id": "6d4df6d805ebc8680982ec94f07d2ef7", "is_disabled": 0, "lon": -77.02119516666667, "is_reserved": 0, "fusion_lat": 0.0, "type": "electric_scooter"}, {"fusion_lon": 0.0, "name": "860f9b67230e4facc7039c7f59348be7", "rental_uris": {"android": "https://dc.lft.to/lastmile_qr_scan", "ios": "https://dc.lft.to/lastmile_qr_scan"}, "lat": 38.932638, "bike_id": "860f9b67230e4facc7039c7f59348be7", "is_disabled": 0, "lon": -77.03264566666667, "is_reserved": 0, "fusion_lat": 0.0, "type": "electric_scooter"}, {"fusion_lon": 0.0, "name": "0a303aa14d2d45f5e467632e6a76e4f3", "rental_uris": {"android": "https://dc.lft.to/lastmile_qr_scan", "ios": "https://dc.lft.to/lastmile_qr_scan"}, "lat": 38.93826716666667, "bike_id": "0a303aa14d2d45f5e467632e6a76e4f3", "is_disabled": 0, "lon": -77.10169983333333, "is_reserved": 0, "fusion_lat": 0.0, "type": "electric_bike"}, {"fusion_lon": 0.0, "name": "2bbfe845f11276d1e799f373aa6740ba", "rental_uris": {"android": "https://dc.lft.to/lastmile_qr_scan", "ios": "https://dc.lft.to/lastmile_qr_scan"}, "lat": 38.9009655, "bike_id": "2bbfe845f11276d1e799f373aa6740ba", "is_disabled": 0, "lon": -77.05767033333333, "is_reserved": 0, "fusion_lat": 0.0, "type": "electric_scooter"}, {"fusion_lon": 0.0, "name": "5f3b14e8ae14124079a90da6a36a0d12", "rental_uris": {"android": "https://dc.lft.to/lastmile_qr_scan", "ios": "https://dc.lft.to/lastmile_qr_scan"}, "lat": 38.927036, "bike_id": "5f3b14e8ae14124079a90da6a36a0d12", "is_disabled": 0, "lon": -77.023037, "is_reserved": 0, "fusion_lat": 0.0, "type": "electric_scooter"}, {"fusion_lon": 0.0, "name": "2ad67b55c01862f1a90d2f9750b94bc8", "rental_uris": {"android": "https://dc.lft.to/lastmile_qr_scan", "ios": "https://dc.lft.to/lastmile_qr_scan"}, "lat": 38.85440166666667, "bike_id": "2ad67b55c01862f1a90d2f9750b94bc8", "is_disabled": 0, "lon": -77.08312616666667, "is_reserved": 0, "fusion_lat": 0.0, "type": "electric_bike"}, {"fusion_lon": 0.0, "name": "54428f798443acd07ec4a12846c7cecc", "rental_uris": {"android": "https://dc.lft.to/lastmile_qr_scan", "ios": "https://dc.lft.to/lastmile_qr_scan"}, "lat": 38.9077345, "bike_id": "54428f798443acd07ec4a12846c7cecc", "is_disabled": 0, "lon": -77.0717165, "is_reserved": 0, "fusion_lat": 0.0, "type": "electric_scooter"}, {"fusion_lon": 0.0, "name": "3032ade8c1ca996ee3cf7befb43143a6", "rental_uris": {"android": "https://dc.lft.to/lastmile_qr_scan", "ios": "https://dc.lft.to/lastmile_qr_scan"}, "lat": 38.932651, "bike_id": "3032ade8c1ca996ee3cf7befb43143a6", "is_disabled": 0, "lon": -77.02091516666667, "is_reserved": 0, "fusion_lat": 0.0, "type": "electric_scooter"}, {"fusion_lon": 0.0, "name": "f7f50df653410dc33cdda3ec1311e05c", "rental_uris": {"android": "https://dc.lft.to/lastmile_qr_scan", "ios": "https://dc.lft.to/lastmile_qr_scan"}, "lat": 38.90697133333333, "bike_id": "f7f50df653410dc33cdda3ec1311e05c", "is_disabled": 0, "lon": -77.01112483333333, "is_reserved": 0, "fusion_lat": 0.0, "type": "electric_scooter"}, {"fusion_lon": 0.0, "name": "23e8bf2fe6eb41e5dd40bc5cdb9ede86", "rental_uris": {"android": "https://dc.lft.to/lastmile_qr_scan", "ios": "https://dc.lft.to/lastmile_qr_scan"}, "lat": 38.892587666666664, "bike_id": "23e8bf2fe6eb41e5dd40bc5cdb9ede86", "is_disabled": 0, "lon": -77.00212416666666, "is_reserved": 0, "fusion_lat": 0.0, "type": "electric_scooter"}, {"fusion_lon": 0.0, "name": "977a31dccc7acc3f267bbe7860910d9a", "rental_uris": {"android": "https://dc.lft.to/lastmile_qr_scan", "ios": "https://dc.lft.to/lastmile_qr_scan"}, "lat": 38.92875633333333, "bike_id": "977a31dccc7acc3f267bbe7860910d9a", "is_disabled": 0, "lon": -77.01408816666667, "is_reserved": 0, "fusion_lat": 0.0, "type": "electric_scooter"}, {"fusion_lon": 0.0, "name": "ec948201488621ba14614c0b793ca835", "rental_uris": {"android": "https://dc.lft.to/lastmile_qr_scan", "ios": "https://dc.lft.to/lastmile_qr_scan"}, "lat": 38.91081066666667, "bike_id": "ec948201488621ba14614c0b793ca835", "is_disabled": 0, "lon": -77.04481716666666, "is_reserved": 0, "fusion_lat": 0.0, "type": "electric_scooter"}, {"fusion_lon": 0.0, "name": "30a5ee878da4d8adb2440a288257f1b7", "rental_uris": {"android": "https://dc.lft.to/lastmile_qr_scan", "ios": "https://dc.lft.to/lastmile_qr_scan"}, "lat": 38.895513333333334, "bike_id": "30a5ee878da4d8adb2440a288257f1b7", "is_disabled": 0, "lon": -77.00925733333334, "is_reserved": 0, "fusion_lat": 0.0, "type": "electric_scooter"}, {"fusion_lon": 0.0, "name": "81676c42977ed9751d0aac917c05d506", "rental_uris": {"android": "https://dc.lft.to/lastmile_qr_scan", "ios": "https://dc.lft.to/lastmile_qr_scan"}, "lat": 38.896092, "bike_id": "81676c42977ed9751d0aac917c05d506", "is_disabled": 0, "lon": -77.0507965, "is_reserved": 0, "fusion_lat": 0.0, "type": "electric_scooter"}, {"fusion_lon": 0.0, "name": "6d73ed97793690bcc52a5440b807556f", "rental_uris": {"android": "https://dc.lft.to/lastmile_qr_scan", "ios": "https://dc.lft.to/lastmile_qr_scan"}, "lat": 38.893502, "bike_id": "6d73ed97793690bcc52a5440b807556f", "is_disabled": 0, "lon": -77.02916183333333, "is_reserved": 0, "fusion_lat": 0.0, "type": "electric_scooter"}, {"fusion_lon": 0.0, "name": "33251fef34d8845be0fd0c7c94f7f0e7", "rental_uris": {"android": "https://dc.lft.to/lastmile_qr_scan", "ios": "https://dc.lft.to/lastmile_qr_scan"}, "lat": 38.912441666666666, "bike_id": "33251fef34d8845be0fd0c7c94f7f0e7", "is_disabled": 0, "lon": -77.03207166666667, "is_reserved": 0, "fusion_lat": 0.0, "type": "electric_scooter"}, {"fusion_lon": 0.0, "name": "5654d5a94bc5e77073d337bf1df41473", "rental_uris": {"android": "https://dc.lft.to/lastmile_qr_scan", "ios": "https://dc.lft.to/lastmile_qr_scan"}, "lat": 38.886136, "bike_id": "5654d5a94bc5e77073d337bf1df41473", "is_disabled": 0, "lon": -77.0027455, "is_reserved": 0, "fusion_lat": 0.0, "type": "electric_scooter"}, {"fusion_lon": 0.0, "name": "c6007e6f0cf566148ed506639ff4113f", "rental_uris": {"android": "https://dc.lft.to/lastmile_qr_scan", "ios": "https://dc.lft.to/lastmile_qr_scan"}, "lat": 38.934302833333334, "bike_id": "c6007e6f0cf566148ed506639ff4113f", "is_disabled": 0, "lon": -77.03444766666667, "is_reserved": 0, "fusion_lat": 0.0, "type": "electric_scooter"}, {"fusion_lon": 0.0, "name": "745b5c7e1a6d91e3bfa3bbacd14c563c", "rental_uris": {"android": "https://dc.lft.to/lastmile_qr_scan", "ios": "https://dc.lft.to/lastmile_qr_scan"}, "lat": 38.92260233333333, "bike_id": "745b5c7e1a6d91e3bfa3bbacd14c563c", "is_disabled": 0, "lon": -77.03674583333333, "is_reserved": 0, "fusion_lat": 0.0, "type": "electric_scooter"}, {"fusion_lon": 0.0, "name": "926fabf6c0c93f7d96a1c978e0c49975", "rental_uris": {"android": "https://dc.lft.to/lastmile_qr_scan", "ios": "https://dc.lft.to/lastmile_qr_scan"}, "lat": 38.89625183333333, "bike_id": "926fabf6c0c93f7d96a1c978e0c49975", "is_disabled": 0, "lon": -77.0317815, "is_reserved": 0, "fusion_lat": 0.0, "type": "electric_scooter"}, {"fusion_lon": 0.0, "name": "c6120cc159a4170e2fee9149e4f7d70f", "rental_uris": {"android": "https://dc.lft.to/lastmile_qr_scan", "ios": "https://dc.lft.to/lastmile_qr_scan"}, "lat": 38.909765666666665, "bike_id": "c6120cc159a4170e2fee9149e4f7d70f", "is_disabled": 0, "lon": -77.03361566666666, "is_reserved": 0, "fusion_lat": 0.0, "type": "electric_scooter"}, {"fusion_lon": 0.0, "name": "68a80ad9d6d3761c9d2c6b84fd28ca25", "rental_uris": {"android": "https://dc.lft.to/lastmile_qr_scan", "ios": "https://dc.lft.to/lastmile_qr_scan"}, "lat": 38.97518483333333, "bike_id": "68a80ad9d6d3761c9d2c6b84fd28ca25", "is_disabled": 0, "lon": -77.01686183333334, "is_reserved": 0, "fusion_lat": 0.0, "type": "electric_scooter"}, {"fusion_lon": 0.0, "name": "d74343354aabd3d27654ea79aae8943f", "rental_uris": {"android": "https://dc.lft.to/lastmile_qr_scan", "ios": "https://dc.lft.to/lastmile_qr_scan"}, "lat": 38.94422, "bike_id": "d74343354aabd3d27654ea79aae8943f", "is_disabled": 0, "lon": -77.0551645, "is_reserved": 0, "fusion_lat": 0.0, "type": "electric_scooter"}, {"fusion_lon": 0.0, "name": "0cc30536072fae57b84619dadfe96f3d", "rental_uris": {"android": "https://dc.lft.to/lastmile_qr_scan", "ios": "https://dc.lft.to/lastmile_qr_scan"}, "lat": 38.90197533333333, "bike_id": "0cc30536072fae57b84619dadfe96f3d", "is_disabled": 0, "lon": -77.05907116666667, "is_reserved": 0, "fusion_lat": 0.0, "type": "electric_scooter"}, {"fusion_lon": 0.0, "name": "63a9dbc7da8df9c67700180af784590a", "rental_uris": {"android": "https://dc.lft.to/lastmile_qr_scan", "ios": "https://dc.lft.to/lastmile_qr_scan"}, "lat": 38.900603333333336, "bike_id": "63a9dbc7da8df9c67700180af784590a", "is_disabled": 0, "lon": -77.031983, "is_reserved": 0, "fusion_lat": 0.0, "type": "electric_scooter"}, {"fusion_lon": 0.0, "name": "18941cc76a4f91bdc69649f1b5fd59fb", "rental_uris": {"android": "https://dc.lft.to/lastmile_qr_scan", "ios": "https://dc.lft.to/lastmile_qr_scan"}, "lat": 38.920454, "bike_id": "18941cc76a4f91bdc69649f1b5fd59fb", "is_disabled": 0, "lon": -77.02441483333334, "is_reserved": 0, "fusion_lat": 0.0, "type": "electric_scooter"}, {"fusion_lon": 0.0, "name": "42f4daaf2a2d8195824739727564d94b", "rental_uris": {"android": "https://dc.lft.to/lastmile_qr_scan", "ios": "https://dc.lft.to/lastmile_qr_scan"}, "lat": 38.91951483333333, "bike_id": "42f4daaf2a2d8195824739727564d94b", "is_disabled": 0, "lon": -77.04844383333334, "is_reserved": 0, "fusion_lat": 0.0, "type": "electric_scooter"}, {"fusion_lon": 0.0, "name": "6dce0d9a2445e6204a0e7209f925c5ff", "rental_uris": {"android": "https://dc.lft.to/lastmile_qr_scan", "ios": "https://dc.lft.to/lastmile_qr_scan"}, "lat": 38.91697333333333, "bike_id": "6dce0d9a2445e6204a0e7209f925c5ff", "is_disabled": 0, "lon": -77.00106816666667, "is_reserved": 0, "fusion_lat": 0.0, "type": "electric_scooter"}, {"fusion_lon": 0.0, "name": "14845bad666ecc8e9119de58a672ae9e", "rental_uris": {"android": "https://dc.lft.to/lastmile_qr_scan", "ios": "https://dc.lft.to/lastmile_qr_scan"}, "lat": 38.901707333333334, "bike_id": "14845bad666ecc8e9119de58a672ae9e", "is_disabled": 0, "lon": -77.05074516666667, "is_reserved": 0, "fusion_lat": 0.0, "type": "electric_scooter"}, {"fusion_lon": 0.0, "name": "6e6392ae13a3b779852bf216b59f983e", "rental_uris": {"android": "https://dc.lft.to/lastmile_qr_scan", "ios": "https://dc.lft.to/lastmile_qr_scan"}, "lat": 39.084966666666666, "bike_id": "6e6392ae13a3b779852bf216b59f983e", "is_disabled": 0, "lon": -76.95048633333333, "is_reserved": 0, "fusion_lat": 0.0, "type": "electric_bike"}, {"fusion_lon": 0.0, "name": "dd3b4fa7599f90e0e57eb7b0862d5a66", "rental_uris": {"android": "https://dc.lft.to/lastmile_qr_scan", "ios": "https://dc.lft.to/lastmile_qr_scan"}, "lat": 38.91299083333333, "bike_id": "dd3b4fa7599f90e0e57eb7b0862d5a66", "is_disabled": 0, "lon": -77.04517633333333, "is_reserved": 0, "fusion_lat": 0.0, "type": "electric_scooter"}, {"fusion_lon": 0.0, "name": "b3634766e40058f34452295cdc51397c", "rental_uris": {"android": "https://dc.lft.to/lastmile_qr_scan", "ios": "https://dc.lft.to/lastmile_qr_scan"}, "lat": 38.90849133333333, "bike_id": "b3634766e40058f34452295cdc51397c", "is_disabled": 0, "lon": -77.02400616666667, "is_reserved": 0, "fusion_lat": 0.0, "type": "electric_scooter"}, {"fusion_lon": 0.0, "name": "a448bf0f72c00adfe7cd2632da4cc580", "rental_uris": {"android": "https://dc.lft.to/lastmile_qr_scan", "ios": "https://dc.lft.to/lastmile_qr_scan"}, "lat": 38.87912133333333, "bike_id": "a448bf0f72c00adfe7cd2632da4cc580", "is_disabled": 0, "lon": -77.0099755, "is_reserved": 0, "fusion_lat": 0.0, "type": "electric_scooter"}, {"fusion_lon": 0.0, "name": "07184474bede5099bedc30ab89c4142d", "rental_uris": {"android": "https://dc.lft.to/lastmile_qr_scan", "ios": "https://dc.lft.to/lastmile_qr_scan"}, "lat": 38.904264833333336, "bike_id": "07184474bede5099bedc30ab89c4142d", "is_disabled": 0, "lon": -77.02502716666666, "is_reserved": 0, "fusion_lat": 0.0, "type": "electric_scooter"}, {"fusion_lon": 0.0, "name": "0bf9bd22a0d2170f6cdebffb09adcdf0", "rental_uris": {"android": "https://dc.lft.to/lastmile_qr_scan", "ios": "https://dc.lft.to/lastmile_qr_scan"}, "lat": 38.9135965, "bike_id": "0bf9bd22a0d2170f6cdebffb09adcdf0", "is_disabled": 0, "lon": -77.09190416666667, "is_reserved": 0, "fusion_lat": 0.0, "type": "electric_scooter"}, {"fusion_lon": 0.0, "name": "d6b3147e2bd29b439256373387902c36", "rental_uris": {"android": "https://dc.lft.to/lastmile_qr_scan", "ios": "https://dc.lft.to/lastmile_qr_scan"}, "lat": 38.846396, "bike_id": "d6b3147e2bd29b439256373387902c36", "is_disabled": 0, "lon": -76.9706795, "is_reserved": 0, "fusion_lat": 0.0, "type": "electric_bike"}, {"fusion_lon": 0.0, "name": "316342938d1fb3f2971fad357a2073a9", "rental_uris": {"android": "https://dc.lft.to/lastmile_qr_scan", "ios": "https://dc.lft.to/lastmile_qr_scan"}, "lat": 38.89601416666667, "bike_id": "316342938d1fb3f2971fad357a2073a9", "is_disabled": 0, "lon": -77.02378966666667, "is_reserved": 0, "fusion_lat": 0.0, "type": "electric_scooter"}, {"fusion_lon": 0.0, "name": "04ac9a6f23348757207f52ab50ebb309", "rental_uris": {"android": "https://dc.lft.to/lastmile_qr_scan", "ios": "https://dc.lft.to/lastmile_qr_scan"}, "lat": 38.937613, "bike_id": "04ac9a6f23348757207f52ab50ebb309", "is_disabled": 0, "lon": -77.03260983333334, "is_reserved": 0, "fusion_lat": 0.0, "type": "electric_scooter"}, {"fusion_lon": 0.0, "name": "5944cf95a34aedec729086caeb2428a7", "rental_uris": {"android": "https://dc.lft.to/lastmile_qr_scan", "ios": "https://dc.lft.to/lastmile_qr_scan"}, "lat": 38.88136333333333, "bike_id": "5944cf95a34aedec729086caeb2428a7", "is_disabled": 0, "lon": -77.02232466666666, "is_reserved": 0, "fusion_lat": 0.0, "type": "electric_scooter"}, {"fusion_lon": 0.0, "name": "fb1e5ea26799b4e09c82e1c021f9e0f5", "rental_uris": {"android": "https://dc.lft.to/lastmile_qr_scan", "ios": "https://dc.lft.to/lastmile_qr_scan"}, "lat": 38.899865166666665, "bike_id": "fb1e5ea26799b4e09c82e1c021f9e0f5", "is_disabled": 0, "lon": -77.04189333333333, "is_reserved": 0, "fusion_lat": 0.0, "type": "electric_scooter"}, {"fusion_lon": 0.0, "name": "591962aa49f728918739f9cce12d983e", "rental_uris": {"android": "https://dc.lft.to/lastmile_qr_scan", "ios": "https://dc.lft.to/lastmile_qr_scan"}, "lat": 38.92309483333333, "bike_id": "591962aa49f728918739f9cce12d983e", "is_disabled": 0, "lon": -77.019532, "is_reserved": 0, "fusion_lat": 0.0, "type": "electric_scooter"}, {"fusion_lon": 0.0, "name": "13204aee5b9e5e7b702530b9225a1c21", "rental_uris": {"android": "https://dc.lft.to/lastmile_qr_scan", "ios": "https://dc.lft.to/lastmile_qr_scan"}, "lat": 38.92243933333334, "bike_id": "13204aee5b9e5e7b702530b9225a1c21", "is_disabled": 0, "lon": -77.0307095, "is_reserved": 0, "fusion_lat": 0.0, "type": "electric_scooter"}, {"fusion_lon": 0.0, "name": "7346cd8a52f011c6206ecd5e52b7ead0", "rental_uris": {"android": "https://dc.lft.to/lastmile_qr_scan", "ios": "https://dc.lft.to/lastmile_qr_scan"}, "lat": 38.9032495, "bike_id": "7346cd8a52f011c6206ecd5e52b7ead0", "is_disabled": 0, "lon": -77.02475283333334, "is_reserved": 0, "fusion_lat": 0.0, "type": "electric_scooter"}, {"fusion_lon": 0.0, "name": "909415d61198e347da10a422e3ad7eb7", "rental_uris": {"android": "https://dc.lft.to/lastmile_qr_scan", "ios": "https://dc.lft.to/lastmile_qr_scan"}, "lat": 38.936414, "bike_id": "909415d61198e347da10a422e3ad7eb7", "is_disabled": 0, "lon": -76.95450883333334, "is_reserved": 0, "fusion_lat": 0.0, "type": "electric_bike"}, {"fusion_lon": 0.0, "name": "65e9c2c67e5027a9d89beafe103fe208", "rental_uris": {"android": "https://dc.lft.to/lastmile_qr_scan", "ios": "https://dc.lft.to/lastmile_qr_scan"}, "lat": 38.86251683333333, "bike_id": "65e9c2c67e5027a9d89beafe103fe208", "is_disabled": 0, "lon": -76.9955515, "is_reserved": 0, "fusion_lat": 0.0, "type": "electric_scooter"}, {"fusion_lon": 0.0, "name": "2d92e3478a7c103329bc53554f028d57", "rental_uris": {"android": "https://dc.lft.to/lastmile_qr_scan", "ios": "https://dc.lft.to/lastmile_qr_scan"}, "lat": 38.9339975, "bike_id": "2d92e3478a7c103329bc53554f028d57", "is_disabled": 0, "lon": -77.038297, "is_reserved": 0, "fusion_lat": 0.0, "type": "electric_scooter"}, {"fusion_lon": 0.0, "name": "134cb110db25ed857a24180e31439421", "rental_uris": {"android": "https://dc.lft.to/lastmile_qr_scan", "ios": "https://dc.lft.to/lastmile_qr_scan"}, "lat": 38.90359483333334, "bike_id": "134cb110db25ed857a24180e31439421", "is_disabled": 0, "lon": -77.0321835, "is_reserved": 0, "fusion_lat": 0.0, "type": "electric_scooter"}, {"fusion_lon": 0.0, "name": "b2af59b44733f7069894c91147cc55b0", "rental_uris": {"android": "https://dc.lft.to/lastmile_qr_scan", "ios": "https://dc.lft.to/lastmile_qr_scan"}, "lat": 38.90506383333334, "bike_id": "b2af59b44733f7069894c91147cc55b0", "is_disabled": 0, "lon": -76.984859, "is_reserved": 0, "fusion_lat": 0.0, "type": "electric_scooter"}, {"fusion_lon": 0.0, "name": "6360b41b0148b7c201c860f9bf498f36", "rental_uris": {"android": "https://dc.lft.to/lastmile_qr_scan", "ios": "https://dc.lft.to/lastmile_qr_scan"}, "lat": 38.95109133333333, "bike_id": "6360b41b0148b7c201c860f9bf498f36", "is_disabled": 0, "lon": -77.08870716666667, "is_reserved": 0, "fusion_lat": 0.0, "type": "electric_bike"}, {"fusion_lon": 0.0, "name": "19dda532396516b677d39cd2e43a904f", "rental_uris": {"android": "https://dc.lft.to/lastmile_qr_scan", "ios": "https://dc.lft.to/lastmile_qr_scan"}, "lat": 38.92419066666667, "bike_id": "19dda532396516b677d39cd2e43a904f", "is_disabled": 0, "lon": -77.02090566666666, "is_reserved": 0, "fusion_lat": 0.0, "type": "electric_scooter"}, {"fusion_lon": 0.0, "name": "1c9285da51f470d2a3acd1747be2095b", "rental_uris": {"android": "https://dc.lft.to/lastmile_qr_scan", "ios": "https://dc.lft.to/lastmile_qr_scan"}, "lat": 38.8949075, "bike_id": "1c9285da51f470d2a3acd1747be2095b", "is_disabled": 0, "lon": -76.94890416666667, "is_reserved": 0, "fusion_lat": 0.0, "type": "electric_scooter"}, {"fusion_lon": 0.0, "name": "157fc42c6300cd65b5381453da9c5553", "rental_uris": {"android": "https://dc.lft.to/lastmile_qr_scan", "ios": "https://dc.lft.to/lastmile_qr_scan"}, "lat": 38.93697566666667, "bike_id": "157fc42c6300cd65b5381453da9c5553", "is_disabled": 0, "lon": -77.05600683333333, "is_reserved": 0, "fusion_lat": 0.0, "type": "electric_scooter"}, {"fusion_lon": 0.0, "name": "7e4368e0384493c87b349706961535c2", "rental_uris": {"android": "https://dc.lft.to/lastmile_qr_scan", "ios": "https://dc.lft.to/lastmile_qr_scan"}, "lat": 38.93463, "bike_id": "7e4368e0384493c87b349706961535c2", "is_disabled": 0, "lon": -77.05806316666667, "is_reserved": 0, "fusion_lat": 0.0, "type": "electric_scooter"}, {"fusion_lon": 0.0, "name": "c4b556de592b651e0fded3028d1fdd55", "rental_uris": {"android": "https://dc.lft.to/lastmile_qr_scan", "ios": "https://dc.lft.to/lastmile_qr_scan"}, "lat": 38.92367083333333, "bike_id": "c4b556de592b651e0fded3028d1fdd55", "is_disabled": 0, "lon": -77.0206835, "is_reserved": 0, "fusion_lat": 0.0, "type": "electric_scooter"}, {"fusion_lon": 0.0, "name": "0796614837f67bb331a6b46e23efabfe", "rental_uris": {"android": "https://dc.lft.to/lastmile_qr_scan", "ios": "https://dc.lft.to/lastmile_qr_scan"}, "lat": 38.92428966666667, "bike_id": "0796614837f67bb331a6b46e23efabfe", "is_disabled": 0, "lon": -77.04047966666667, "is_reserved": 0, "fusion_lat": 0.0, "type": "electric_scooter"}, {"fusion_lon": 0.0, "name": "d30dd9500cc86ff793e02fea8a82b0a4", "rental_uris": {"android": "https://dc.lft.to/lastmile_qr_scan", "ios": "https://dc.lft.to/lastmile_qr_scan"}, "lat": 38.909468833333335, "bike_id": "d30dd9500cc86ff793e02fea8a82b0a4", "is_disabled": 0, "lon": -77.03179666666666, "is_reserved": 0, "fusion_lat": 0.0, "type": "electric_scooter"}, {"fusion_lon": 0.0, "name": "ec2efc057215ff8f9db4a18a5b67c01f", "rental_uris": {"android": "https://dc.lft.to/lastmile_qr_scan", "ios": "https://dc.lft.to/lastmile_qr_scan"}, "lat": 38.88653866666667, "bike_id": "ec2efc057215ff8f9db4a18a5b67c01f", "is_disabled": 0, "lon": -77.0338725, "is_reserved": 0, "fusion_lat": 0.0, "type": "electric_scooter"}, {"fusion_lon": 0.0, "name": "889410aabaf7fe822ae7a066f9651bb6", "rental_uris": {"android": "https://dc.lft.to/lastmile_qr_scan", "ios": "https://dc.lft.to/lastmile_qr_scan"}, "lat": 38.9235855, "bike_id": "889410aabaf7fe822ae7a066f9651bb6", "is_disabled": 0, "lon": -77.0281, "is_reserved": 0, "fusion_lat": 0.0, "type": "electric_scooter"}, {"fusion_lon": 0.0, "name": "63911685c45f226acc1fc5188665f516", "rental_uris": {"android": "https://dc.lft.to/lastmile_qr_scan", "ios": "https://dc.lft.to/lastmile_qr_scan"}, "lat": 38.9083715, "bike_id": "63911685c45f226acc1fc5188665f516", "is_disabled": 0, "lon": -77.073018, "is_reserved": 0, "fusion_lat": 0.0, "type": "electric_scooter"}, {"fusion_lon": 0.0, "name": "0d6baeee739170dae677bf3ad6bb2e25", "rental_uris": {"android": "https://dc.lft.to/lastmile_qr_scan", "ios": "https://dc.lft.to/lastmile_qr_scan"}, "lat": 38.91982933333333, "bike_id": "0d6baeee739170dae677bf3ad6bb2e25", "is_disabled": 0, "lon": -77.032668, "is_reserved": 0, "fusion_lat": 0.0, "type": "electric_scooter"}, {"fusion_lon": 0.0, "name": "7410c607448390061ab926e6708966de", "rental_uris": {"android": "https://dc.lft.to/lastmile_qr_scan", "ios": "https://dc.lft.to/lastmile_qr_scan"}, "lat": 38.900125, "bike_id": "7410c607448390061ab926e6708966de", "is_disabled": 0, "lon": -76.97841566666666, "is_reserved": 0, "fusion_lat": 0.0, "type": "electric_scooter"}, {"fusion_lon": 0.0, "name": "530c5e762ca5680b477a5246b93bfa59", "rental_uris": {"android": "https://dc.lft.to/lastmile_qr_scan", "ios": "https://dc.lft.to/lastmile_qr_scan"}, "lat": 38.89194416666667, "bike_id": "530c5e762ca5680b477a5246b93bfa59", "is_disabled": 0, "lon": -76.95809933333334, "is_reserved": 0, "fusion_lat": 0.0, "type": "electric_scooter"}, {"fusion_lon": 0.0, "name": "2cd824cf5fc1ae205b30cc0eacebd321", "rental_uris": {"android": "https://dc.lft.to/lastmile_qr_scan", "ios": "https://dc.lft.to/lastmile_qr_scan"}, "lat": 38.889557, "bike_id": "2cd824cf5fc1ae205b30cc0eacebd321", "is_disabled": 0, "lon": -76.98817283333334, "is_reserved": 0, "fusion_lat": 0.0, "type": "electric_scooter"}, {"fusion_lon": 0.0, "name": "2a4e69fa65a469f1ed1c73c7fd0ccfba", "rental_uris": {"android": "https://dc.lft.to/lastmile_qr_scan", "ios": "https://dc.lft.to/lastmile_qr_scan"}, "lat": 38.92619066666666, "bike_id": "2a4e69fa65a469f1ed1c73c7fd0ccfba", "is_disabled": 0, "lon": -77.0730465, "is_reserved": 0, "fusion_lat": 0.0, "type": "electric_scooter"}, {"fusion_lon": 0.0, "name": "ac5fa16cc7277d020585bff7da79f6af", "rental_uris": {"android": "https://dc.lft.to/lastmile_qr_scan", "ios": "https://dc.lft.to/lastmile_qr_scan"}, "lat": 38.9196735, "bike_id": "ac5fa16cc7277d020585bff7da79f6af", "is_disabled": 0, "lon": -77.02771916666667, "is_reserved": 0, "fusion_lat": 0.0, "type": "electric_scooter"}, {"fusion_lon": 0.0, "name": "0997afce518f3f30535d2c55803c9d49", "rental_uris": {"android": "https://dc.lft.to/lastmile_qr_scan", "ios": "https://dc.lft.to/lastmile_qr_scan"}, "lat": 38.8923695, "bike_id": "0997afce518f3f30535d2c55803c9d49", "is_disabled": 0, "lon": -77.0334495, "is_reserved": 0, "fusion_lat": 0.0, "type": "electric_scooter"}, {"fusion_lon": 0.0, "name": "402d5ab840cbfa798bb37f04a150fb49", "rental_uris": {"android": "https://dc.lft.to/lastmile_qr_scan", "ios": "https://dc.lft.to/lastmile_qr_scan"}, "lat": 38.90128883333333, "bike_id": "402d5ab840cbfa798bb37f04a150fb49", "is_disabled": 0, "lon": -77.0369435, "is_reserved": 0, "fusion_lat": 0.0, "type": "electric_scooter"}, {"fusion_lon": 0.0, "name": "b49246d32c06705a7d9c93a65baa3180", "rental_uris": {"android": "https://dc.lft.to/lastmile_qr_scan", "ios": "https://dc.lft.to/lastmile_qr_scan"}, "lat": 38.9094675, "bike_id": "b49246d32c06705a7d9c93a65baa3180", "is_disabled": 0, "lon": -77.02392116666667, "is_reserved": 0, "fusion_lat": 0.0, "type": "electric_scooter"}, {"fusion_lon": 0.0, "name": "088b383a5af7f46cfa54ed2ca3da7f14", "rental_uris": {"android": "https://dc.lft.to/lastmile_qr_scan", "ios": "https://dc.lft.to/lastmile_qr_scan"}, "lat": 38.928390666666665, "bike_id": "088b383a5af7f46cfa54ed2ca3da7f14", "is_disabled": 0, "lon": -77.027473, "is_reserved": 0, "fusion_lat": 0.0, "type": "electric_scooter"}, {"fusion_lon": 0.0, "name": "5813aeb4bbceeefb974d4d2bbff95f52", "rental_uris": {"android": "https://dc.lft.to/lastmile_qr_scan", "ios": "https://dc.lft.to/lastmile_qr_scan"}, "lat": 38.914660833333336, "bike_id": "5813aeb4bbceeefb974d4d2bbff95f52", "is_disabled": 0, "lon": -77.03207533333334, "is_reserved": 0, "fusion_lat": 0.0, "type": "electric_scooter"}, {"fusion_lon": 0.0, "name": "7302ddd366b0082a2dfbdf7e7681c8be", "rental_uris": {"android": "https://dc.lft.to/lastmile_qr_scan", "ios": "https://dc.lft.to/lastmile_qr_scan"}, "lat": 38.89905983333333, "bike_id": "7302ddd366b0082a2dfbdf7e7681c8be", "is_disabled": 0, "lon": -76.988269, "is_reserved": 0, "fusion_lat": 0.0, "type": "electric_scooter"}, {"fusion_lon": 0.0, "name": "61bb98fe7ed7778e836ea7420436a6b8", "rental_uris": {"android": "https://dc.lft.to/lastmile_qr_scan", "ios": "https://dc.lft.to/lastmile_qr_scan"}, "lat": 38.9124395, "bike_id": "61bb98fe7ed7778e836ea7420436a6b8", "is_disabled": 0, "lon": -77.00112333333334, "is_reserved": 0, "fusion_lat": 0.0, "type": "electric_scooter"}, {"fusion_lon": 0.0, "name": "15aac2f161fed6233890913928dc4350", "rental_uris": {"android": "https://dc.lft.to/lastmile_qr_scan", "ios": "https://dc.lft.to/lastmile_qr_scan"}, "lat": 38.89157, "bike_id": "15aac2f161fed6233890913928dc4350", "is_disabled": 0, "lon": -76.9914695, "is_reserved": 0, "fusion_lat": 0.0, "type": "electric_scooter"}, {"fusion_lon": 0.0, "name": "32a23d188b90c5a8e0f09d0d1d38a3c7", "rental_uris": {"android": "https://dc.lft.to/lastmile_qr_scan", "ios": "https://dc.lft.to/lastmile_qr_scan"}, "lat": 38.917931333333335, "bike_id": "32a23d188b90c5a8e0f09d0d1d38a3c7", "is_disabled": 0, "lon": -77.044407, "is_reserved": 0, "fusion_lat": 0.0, "type": "electric_scooter"}, {"fusion_lon": 0.0, "name": "bccdc5366a1867bffe245994f362f5a6", "rental_uris": {"android": "https://dc.lft.to/lastmile_qr_scan", "ios": "https://dc.lft.to/lastmile_qr_scan"}, "lat": 38.84468016666667, "bike_id": "bccdc5366a1867bffe245994f362f5a6", "is_disabled": 0, "lon": -76.9875065, "is_reserved": 0, "fusion_lat": 0.0, "type": "electric_bike"}, {"fusion_lon": 0.0, "name": "a976b03adf6995f6ffaf52bc6d11498a", "rental_uris": {"android": "https://dc.lft.to/lastmile_qr_scan", "ios": "https://dc.lft.to/lastmile_qr_scan"}, "lat": 38.88604733333333, "bike_id": "a976b03adf6995f6ffaf52bc6d11498a", "is_disabled": 0, "lon": -76.99567566666667, "is_reserved": 0, "fusion_lat": 0.0, "type": "electric_scooter"}, {"fusion_lon": 0.0, "name": "e6f268116529264233aabdf3b681ad8a", "rental_uris": {"android": "https://dc.lft.to/lastmile_qr_scan", "ios": "https://dc.lft.to/lastmile_qr_scan"}, "lat": 38.9155235, "bike_id": "e6f268116529264233aabdf3b681ad8a", "is_disabled": 0, "lon": -77.0325005, "is_reserved": 0, "fusion_lat": 0.0, "type": "electric_scooter"}, {"fusion_lon": 0.0, "name": "44d25cebdf0d3a2736cdd1de090396b7", "rental_uris": {"android": "https://dc.lft.to/lastmile_qr_scan", "ios": "https://dc.lft.to/lastmile_qr_scan"}, "lat": 38.90293783333333, "bike_id": "44d25cebdf0d3a2736cdd1de090396b7", "is_disabled": 0, "lon": -77.05166383333334, "is_reserved": 0, "fusion_lat": 0.0, "type": "electric_scooter"}, {"fusion_lon": 0.0, "name": "4edd409893b74330098afc02377e2c50", "rental_uris": {"android": "https://dc.lft.to/lastmile_qr_scan", "ios": "https://dc.lft.to/lastmile_qr_scan"}, "lat": 38.9246475, "bike_id": "4edd409893b74330098afc02377e2c50", "is_disabled": 0, "lon": -77.02712516666666, "is_reserved": 0, "fusion_lat": 0.0, "type": "electric_scooter"}, {"fusion_lon": 0.0, "name": "1e27fcab01a52ade99da52bd34f187f6", "rental_uris": {"android": "https://dc.lft.to/lastmile_qr_scan", "ios": "https://dc.lft.to/lastmile_qr_scan"}, "lat": 38.87466783333333, "bike_id": "1e27fcab01a52ade99da52bd34f187f6", "is_disabled": 0, "lon": -77.00409433333333, "is_reserved": 0, "fusion_lat": 0.0, "type": "electric_scooter"}, {"fusion_lon": 0.0, "name": "756d03fa2e58d588ccb4de074aa523ab", "rental_uris": {"android": "https://dc.lft.to/lastmile_qr_scan", "ios": "https://dc.lft.to/lastmile_qr_scan"}, "lat": 38.922265333333335, "bike_id": "756d03fa2e58d588ccb4de074aa523ab", "is_disabled": 0, "lon": -77.042996, "is_reserved": 0, "fusion_lat": 0.0, "type": "electric_scooter"}, {"fusion_lon": 0.0, "name": "6648dc0961b25a78ec17dab7e27db496", "rental_uris": {"android": "https://dc.lft.to/lastmile_qr_scan", "ios": "https://dc.lft.to/lastmile_qr_scan"}, "lat": 38.907767166666666, "bike_id": "6648dc0961b25a78ec17dab7e27db496", "is_disabled": 0, "lon": -77.01825466666666, "is_reserved": 0, "fusion_lat": 0.0, "type": "electric_scooter"}, {"fusion_lon": 0.0, "name": "e010c09cf50ba5b9352a8035f5c872ee", "rental_uris": {"android": "https://dc.lft.to/lastmile_qr_scan", "ios": "https://dc.lft.to/lastmile_qr_scan"}, "lat": 38.916584, "bike_id": "e010c09cf50ba5b9352a8035f5c872ee", "is_disabled": 0, "lon": -77.04387383333334, "is_reserved": 0, "fusion_lat": 0.0, "type": "electric_scooter"}, {"fusion_lon": 0.0, "name": "d9250ac3b0aaeff394d8a8ce545af0fd", "rental_uris": {"android": "https://dc.lft.to/lastmile_qr_scan", "ios": "https://dc.lft.to/lastmile_qr_scan"}, "lat": 38.918261666666666, "bike_id": "d9250ac3b0aaeff394d8a8ce545af0fd", "is_disabled": 0, "lon": -77.0531685, "is_reserved": 0, "fusion_lat": 0.0, "type": "electric_scooter"}, {"fusion_lon": 0.0, "name": "4d84b5222ebe80c188afb7b3d911efd7", "rental_uris": {"android": "https://dc.lft.to/lastmile_qr_scan", "ios": "https://dc.lft.to/lastmile_qr_scan"}, "lat": 38.9098635, "bike_id": "4d84b5222ebe80c188afb7b3d911efd7", "is_disabled": 0, "lon": -77.00891666666666, "is_reserved": 0, "fusion_lat": 0.0, "type": "electric_scooter"}, {"fusion_lon": 0.0, "name": "9bf191085ab606d4c397404e1f181865", "rental_uris": {"android": "https://dc.lft.to/lastmile_qr_scan", "ios": "https://dc.lft.to/lastmile_qr_scan"}, "lat": 38.921118166666666, "bike_id": "9bf191085ab606d4c397404e1f181865", "is_disabled": 0, "lon": -77.0458465, "is_reserved": 0, "fusion_lat": 0.0, "type": "electric_scooter"}, {"fusion_lon": 0.0, "name": "288b33c3153d7fd740aac326ad4360e9", "rental_uris": {"android": "https://dc.lft.to/lastmile_qr_scan", "ios": "https://dc.lft.to/lastmile_qr_scan"}, "lat": 38.89243366666667, "bike_id": "288b33c3153d7fd740aac326ad4360e9", "is_disabled": 0, "lon": -77.03955883333333, "is_reserved": 0, "fusion_lat": 0.0, "type": "electric_scooter"}, {"fusion_lon": 0.0, "name": "0a3c5c1643b0ab6c3fea7bedf81d4f92", "rental_uris": {"android": "https://dc.lft.to/lastmile_qr_scan", "ios": "https://dc.lft.to/lastmile_qr_scan"}, "lat": 38.892317166666665, "bike_id": "0a3c5c1643b0ab6c3fea7bedf81d4f92", "is_disabled": 0, "lon": -77.05005416666667, "is_reserved": 0, "fusion_lat": 0.0, "type": "electric_scooter"}, {"fusion_lon": 0.0, "name": "b2346273e93dbaa937f36b8a965a37ca", "rental_uris": {"android": "https://dc.lft.to/lastmile_qr_scan", "ios": "https://dc.lft.to/lastmile_qr_scan"}, "lat": 38.898835, "bike_id": "b2346273e93dbaa937f36b8a965a37ca", "is_disabled": 0, "lon": -76.98672033333334, "is_reserved": 0, "fusion_lat": 0.0, "type": "electric_scooter"}, {"fusion_lon": 0.0, "name": "36a864c294daebf579c6bde3c8fc8a52", "rental_uris": {"android": "https://dc.lft.to/lastmile_qr_scan", "ios": "https://dc.lft.to/lastmile_qr_scan"}, "lat": 38.944511, "bike_id": "36a864c294daebf579c6bde3c8fc8a52", "is_disabled": 0, "lon": -77.01160316666666, "is_reserved": 0, "fusion_lat": 0.0, "type": "electric_scooter"}, {"fusion_lon": 0.0, "name": "12d3b2718a45f297d46251892a1feec3", "rental_uris": {"android": "https://dc.lft.to/lastmile_qr_scan", "ios": "https://dc.lft.to/lastmile_qr_scan"}, "lat": 38.8963335, "bike_id": "12d3b2718a45f297d46251892a1feec3", "is_disabled": 0, "lon": -77.04039616666667, "is_reserved": 0, "fusion_lat": 0.0, "type": "electric_scooter"}, {"fusion_lon": 0.0, "name": "38ff9df1981f40ae09f307ce8e8f1f3d", "rental_uris": {"android": "https://dc.lft.to/lastmile_qr_scan", "ios": "https://dc.lft.to/lastmile_qr_scan"}, "lat": 38.95896233333333, "bike_id": "38ff9df1981f40ae09f307ce8e8f1f3d", "is_disabled": 0, "lon": -77.000301, "is_reserved": 0, "fusion_lat": 0.0, "type": "electric_scooter"},