{"data": {"bikes": [{"fusion_lat": 0.0, "name": "836d1fa7383386da864b7b33d39fc030", "is_disabled": 0, "rental_uris": {"android": "https://dc.lft.to/lastmile_qr_scan", "ios": "https://dc.lft.to/lastmile_qr_scan"}, "fusion_lon": 0.0, "lat": 38.908743666666666, "bike_id": "836d1fa7383386da864b7b33d39fc030", "type": "electric_scooter", "is_reserved": 0, "lon": -77.038619}, {"fusion_lat": 0.0, "name": "e1285a9f61a98c17730770875f249e71", "is_disabled": 0, "rental_uris": {"android": "https://dc.lft.to/lastmile_qr_scan", "ios": "https://dc.lft.to/lastmile_qr_scan"}, "fusion_lon": 0.0, "lat": 38.91559933333333, "bike_id": "e1285a9f61a98c17730770875f249e71", "type": "electric_scooter", "is_reserved": 0, "lon": -77.06750433333333}, {"fusion_lat": 0.0, "name": "9d2678c3f2b66c6e0446ac4c92cec308", "is_disabled": 0, "rental_uris": {"android": "https://dc.lft.to/lastmile_qr_scan", "ios": "https://dc.lft.to/lastmile_qr_scan"}, "fusion_lon": 0.0, "lat": 38.944055, "bike_id": "9d2678c3f2b66c6e0446ac4c92cec308", "type": "electric_scooter", "is_reserved": 0, "lon": -77.032064}, {"fusion_lat": 0.0, "name": "c42c63f5c10e264a21b8acbdb08ec04f", "is_disabled": 0, "rental_uris": {"android": "https://dc.lft.to/lastmile_qr_scan", "ios": "https://dc.lft.to/lastmile_qr_scan"}, "fusion_lon": 0.0, "lat": 38.8789595, "bike_id": "c42c63f5c10e264a21b8acbdb08ec04f", "type": "electric_scooter", "is_reserved": 0, "lon": -77.01361733333333}, {"fusion_lat": 0.0, "name": "8c892cbb0e3143f7a019344eed887cac", "is_disabled": 0, "rental_uris": {"android": "https://dc.lft.to/lastmile_qr_scan", "ios": "https://dc.lft.to/lastmile_qr_scan"}, "fusion_lon": 0.0, "lat": 38.897356, "bike_id": "8c892cbb0e3143f7a019344eed887cac", "type": "electric_scooter", "is_reserved": 0, "lon": -76.94719716666667}, {"fusion_lat": 0.0, "name": "e6633d463502a8c662eba51fddda5889", "is_disabled": 0, "rental_uris": {"android": "https://dc.lft.to/lastmile_qr_scan", "ios": "https://dc.lft.to/lastmile_qr_scan"}, "fusion_lon": 0.0, "lat": 38.912660333333335, "bike_id": "e6633d463502a8c662eba51fddda5889", "type": "electric_scooter", "is_reserved": 0, "lon": -77.032099}, {"fusion_lat": 0.0, "name": "769d99153f0451ea66f706cdf215283d", "is_disabled": 0, "rental_uris": {"android": "https://dc.lft.to/lastmile_qr_scan", "ios": "https://dc.lft.to/lastmile_qr_scan"}, "fusion_lon": 0.0, "lat": 38.92764533333333, "bike_id": "769d99153f0451ea66f706cdf215283d", "type": "electric_scooter", "is_reserved": 0, "lon": -77.0161885}, {"fusion_lat": 0.0, "name": "10686ca92fdb55b362a0030c56a41887", "is_disabled": 0, "rental_uris": {"android": "https://dc.lft.to/lastmile_qr_scan", "ios": "https://dc.lft.to/lastmile_qr_scan"}, "fusion_lon": 0.0, "lat": 38.91334, "bike_id": "10686ca92fdb55b362a0030c56a41887", "type": "electric_scooter", "is_reserved": 0, "lon": -77.05041216666666}, {"fusion_lat": 0.0, "name": "7b21ee35e6beb7f597de69ce99caf4e1", "is_disabled": 0, "rental_uris": {"android": "https://dc.lft.to/lastmile_qr_scan", "ios": "https://dc.lft.to/lastmile_qr_scan"}, "fusion_lon": 0.0, "lat": 38.926026, "bike_id": "7b21ee35e6beb7f597de69ce99caf4e1", "type": "electric_scooter", "is_reserved": 0, "lon": -77.02154833333333}, {"fusion_lat": 0.0, "name": "de10e0810c40a94124a395acae041592", "is_disabled": 0, "rental_uris": {"android": "https://dc.lft.to/lastmile_qr_scan", "ios": "https://dc.lft.to/lastmile_qr_scan"}, "fusion_lon": 0.0, "lat": 38.88965816666666, "bike_id": "de10e0810c40a94124a395acae041592", "type": "electric_scooter", "is_reserved": 0, "lon": -76.9797045}, {"fusion_lat": 0.0, "name": "9251d67c1477e9fed8fc6bbd92a6dabc", "is_disabled": 0, "rental_uris": {"android": "https://dc.lft.to/lastmile_qr_scan", "ios": "https://dc.lft.to/lastmile_qr_scan"}, "fusion_lon": 0.0, "lat": 38.892272166666665, "bike_id": "9251d67c1477e9fed8fc6bbd92a6dabc", "type": "electric_scooter", "is_reserved": 0, "lon": -77.00302533333333}, {"fusion_lat": 0.0, "name": "4e7ab255259d06b70557fa4b43adedc3", "is_disabled": 0, "rental_uris": {"android": "https://dc.lft.to/lastmile_qr_scan", "ios": "https://dc.lft.to/lastmile_qr_scan"}, "fusion_lon": 0.0, "lat": 38.933968166666666, "bike_id": "4e7ab255259d06b70557fa4b43adedc3", "type": "electric_scooter", "is_reserved": 0, "lon": -77.02846583333333}, {"fusion_lat": 0.0, "name": "3dc3d2aa318162646be38baab34f53f0", "is_disabled": 0, "rental_uris": {"android": "https://dc.lft.to/lastmile_qr_scan", "ios": "https://dc.lft.to/lastmile_qr_scan"}, "fusion_lon": 0.0, "lat": 38.9527945, "bike_id": "3dc3d2aa318162646be38baab34f53f0", "type": "electric_bike", "is_reserved": 0, "lon": -76.99994716666667}, {"fusion_lat": 0.0, "name": "f6ec954c717a42d816a441f849c1118c", "is_disabled": 0, "rental_uris": {"android": "https://dc.lft.to/lastmile_qr_scan", "ios": "https://dc.lft.to/lastmile_qr_scan"}, "fusion_lon": 0.0, "lat": 38.923918, "bike_id": "f6ec954c717a42d816a441f849c1118c", "type": "electric_scooter", "is_reserved": 0, "lon": -77.043052}, {"fusion_lat": 0.0, "name": "d41ad5952682b31c2267aca9833f2581", "is_disabled": 0, "rental_uris": {"android": "https://dc.lft.to/lastmile_qr_scan", "ios": "https://dc.lft.to/lastmile_qr_scan"}, "fusion_lon": 0.0, "lat": 38.90062283333334, "bike_id": "d41ad5952682b31c2267aca9833f2581", "type": "electric_scooter", "is_reserved": 0, "lon": -77.04528383333333}, {"fusion_lat": 0.0, "name": "bcbed2103cd2f1f68a59bac799aa0f44", "is_disabled": 0, "rental_uris": {"android": "https://dc.lft.to/lastmile_qr_scan", "ios": "https://dc.lft.to/lastmile_qr_scan"}, "fusion_lon": 0.0, "lat": 38.8842015, "bike_id": "bcbed2103cd2f1f68a59bac799aa0f44", "type": "electric_scooter", "is_reserved": 0, "lon": -77.019231}, {"fusion_lat": 0.0, "name": "2d73121a50a6a49ddaaaea7cd4a1025f", "is_disabled": 0, "rental_uris": {"android": "https://dc.lft.to/lastmile_qr_scan", "ios": "https://dc.lft.to/lastmile_qr_scan"}, "fusion_lon": 0.0, "lat": 38.89654433333333, "bike_id": "2d73121a50a6a49ddaaaea7cd4a1025f", "type": "electric_scooter", "is_reserved": 0, "lon": -77.02493666666666}, {"fusion_lat": 0.0, "name": "0a0d0a7fe344e924542f48ba68bae040", "is_disabled": 0, "rental_uris": {"android": "https://dc.lft.to/lastmile_qr_scan", "ios": "https://dc.lft.to/lastmile_qr_scan"}, "fusion_lon": 0.0, "lat": 38.841272000000004, "bike_id": "0a0d0a7fe344e924542f48ba68bae040", "type": "electric_bike", "is_reserved": 0, "lon": -77.063058}, {"fusion_lat": 0.0, "name": "ed6e605cd8a165195c749dbb7f37b182", "is_disabled": 0, "rental_uris": {"android": "https://dc.lft.to/lastmile_qr_scan", "ios": "https://dc.lft.to/lastmile_qr_scan"}, "fusion_lon": 0.0, "lat": 38.900103333333334, "bike_id": "ed6e605cd8a165195c749dbb7f37b182", "type": "electric_scooter", "is_reserved": 0, "lon": -77.011173}, {"fusion_lat": 0.0, "name": "67bf0806756ace5c3369cf09ca39b856", "is_disabled": 0, "rental_uris": {"android": "https://dc.lft.to/lastmile_qr_scan", "ios": "https://dc.lft.to/lastmile_qr_scan"}, "fusion_lon": 0.0, "lat": 38.90955916666667, "bike_id": "67bf0806756ace5c3369cf09ca39b856", "type": "electric_scooter", "is_reserved": 0, "lon": -76.98533916666666}, {"fusion_lat": 0.0, "name": "78e502cf0916e118b259b27cea5d2ffa", "is_disabled": 0, "rental_uris": {"android": "https://dc.lft.to/lastmile_qr_scan", "ios": "https://dc.lft.to/lastmile_qr_scan"}, "fusion_lon": 0.0, "lat": 38.81936, "bike_id": "78e502cf0916e118b259b27cea5d2ffa", "type": "electric_bike", "is_reserved": 0, "lon": -77.00200533333333}, {"fusion_lat": 0.0, "name": "6d3962951cf1f18645174313d7f34ea6", "is_disabled": 0, "rental_uris": {"android": "https://dc.lft.to/lastmile_qr_scan", "ios": "https://dc.lft.to/lastmile_qr_scan"}, "fusion_lon": 0.0, "lat": 38.9374895, "bike_id": "6d3962951cf1f18645174313d7f34ea6", "type": "electric_scooter", "is_reserved": 0, "lon": -77.02525233333333}, {"fusion_lat": 0.0, "name": "b0b3a33d5639e110b9171a1003e38f2f", "is_disabled": 0, "rental_uris": {"android": "https://dc.lft.to/lastmile_qr_scan", "ios": "https://dc.lft.to/lastmile_qr_scan"}, "fusion_lon": 0.0, "lat": 38.94287333333333, "bike_id": "b0b3a33d5639e110b9171a1003e38f2f", "type": "electric_scooter", "is_reserved": 0, "lon": -77.02177133333333}, {"fusion_lat": 0.0, "name": "56fb728c66d868f5ed851a644555367e", "is_disabled": 0, "rental_uris": {"android": "https://dc.lft.to/lastmile_qr_scan", "ios": "https://dc.lft.to/lastmile_qr_scan"}, "fusion_lon": 0.0, "lat": 38.881341666666664, "bike_id": "56fb728c66d868f5ed851a644555367e", "type": "electric_scooter", "is_reserved": 0, "lon": -77.02708933333334}, {"fusion_lat": 0.0, "name": "c46ae8d1f70205757d46b9c52b91ae93", "is_disabled": 0, "rental_uris": {"android": "https://dc.lft.to/lastmile_qr_scan", "ios": "https://dc.lft.to/lastmile_qr_scan"}, "fusion_lon": 0.0, "lat": 38.863527833333336, "bike_id": "c46ae8d1f70205757d46b9c52b91ae93", "type": "electric_bike", "is_reserved": 0, "lon": -77.07724333333333}, {"fusion_lat": 0.0, "name": "5e157d96f25b54ed7ccae6b105b23b44", "is_disabled": 0, "rental_uris": {"android": "https://dc.lft.to/lastmile_qr_scan", "ios": "https://dc.lft.to/lastmile_qr_scan"}, "fusion_lon": 0.0, "lat": 38.89612133333333, "bike_id": "5e157d96f25b54ed7ccae6b105b23b44", "type": "electric_bike", "is_reserved": 0, "lon": -76.90745066666666}, {"fusion_lat": 0.0, "name": "e3ed55883c840eec513bba6f106cb9b7", "is_disabled": 0, "rental_uris": {"android": "https://dc.lft.to/lastmile_qr_scan", "ios": "https://dc.lft.to/lastmile_qr_scan"}, "fusion_lon": 0.0, "lat": 38.92896616666667, "bike_id": "e3ed55883c840eec513bba6f106cb9b7", "type": "electric_scooter", "is_reserved": 0, "lon": -77.03303}, {"fusion_lat": 0.0, "name": "f099c8d2d624ebe2006965bbf54c7802", "is_disabled": 0, "rental_uris": {"android": "https://dc.lft.to/lastmile_qr_scan", "ios": "https://dc.lft.to/lastmile_qr_scan"}, "fusion_lon": 0.0, "lat": 38.878772, "bike_id": "f099c8d2d624ebe2006965bbf54c7802", "type": "electric_scooter", "is_reserved": 0, "lon": -77.022574}, {"fusion_lat": 0.0, "name": "adaeffb2ae07aee1b19921f8adee4405", "is_disabled": 0, "rental_uris": {"android": "https://dc.lft.to/lastmile_qr_scan", "ios": "https://dc.lft.to/lastmile_qr_scan"}, "fusion_lon": 0.0, "lat": 38.92340033333333, "bike_id": "adaeffb2ae07aee1b19921f8adee4405", "type": "electric_scooter", "is_reserved": 0, "lon": -77.0530325}, {"fusion_lat": 0.0, "name": "a83217fcbfcf6409690e99ab0b6d2429", "is_disabled": 0, "rental_uris": {"android": "https://dc.lft.to/lastmile_qr_scan", "ios": "https://dc.lft.to/lastmile_qr_scan"}, "fusion_lon": 0.0, "lat": 38.90533583333333, "bike_id": "a83217fcbfcf6409690e99ab0b6d2429", "type": "electric_scooter", "is_reserved": 0, "lon": -77.02207066666666}, {"fusion_lat": 0.0, "name": "f4d851eb2f69fc6642f0a449a96a3e62", "is_disabled": 0, "rental_uris": {"android": "https://dc.lft.to/lastmile_qr_scan", "ios": "https://dc.lft.to/lastmile_qr_scan"}, "fusion_lon": 0.0, "lat": 38.91415166666667, "bike_id": "f4d851eb2f69fc6642f0a449a96a3e62", "type": "electric_scooter", "is_reserved": 0, "lon": -77.03177433333333}, {"fusion_lat": 0.0, "name": "7764a650cf1306025996636329f24c02", "is_disabled": 0, "rental_uris": {"android": "https://dc.lft.to/lastmile_qr_scan", "ios": "https://dc.lft.to/lastmile_qr_scan"}, "fusion_lon": 0.0, "lat": 38.916585833333336, "bike_id": "7764a650cf1306025996636329f24c02", "type": "electric_scooter", "is_reserved": 0, "lon": -77.02824083333333}, {"fusion_lat": 0.0, "name": "f3d50274583832b379b0f767be4b2783", "is_disabled": 0, "rental_uris": {"android": "https://dc.lft.to/lastmile_qr_scan", "ios": "https://dc.lft.to/lastmile_qr_scan"}, "fusion_lon": 0.0, "lat": 38.921344500000004, "bike_id": "f3d50274583832b379b0f767be4b2783", "type": "electric_scooter", "is_reserved": 0, "lon": -77.01798983333333}, {"fusion_lat": 0.0, "name": "fe5cd5967a731c67caacd52ea3eeab73", "is_disabled": 0, "rental_uris": {"android": "https://dc.lft.to/lastmile_qr_scan", "ios": "https://dc.lft.to/lastmile_qr_scan"}, "fusion_lon": 0.0, "lat": 38.9199315, "bike_id": "fe5cd5967a731c67caacd52ea3eeab73", "type": "electric_scooter", "is_reserved": 0, "lon": -77.02387}, {"fusion_lat": 0.0, "name": "e107004d92bf86194fc52cefcc99565c", "is_disabled": 0, "rental_uris": {"android": "https://dc.lft.to/lastmile_qr_scan", "ios": "https://dc.lft.to/lastmile_qr_scan"}, "fusion_lon": 0.0, "lat": 38.91701316666666, "bike_id": "e107004d92bf86194fc52cefcc99565c", "type": "electric_scooter", "is_reserved": 0, "lon": -77.03240633333333}, {"fusion_lat": 0.0, "name": "0ebe26dd09c2428a4200ef580d669735", "is_disabled": 0, "rental_uris": {"android": "https://dc.lft.to/lastmile_qr_scan", "ios": "https://dc.lft.to/lastmile_qr_scan"}, "fusion_lon": 0.0, "lat": 38.91677933333333, "bike_id": "0ebe26dd09c2428a4200ef580d669735", "type": "electric_scooter", "is_reserved": 0, "lon": -77.0230475}, {"fusion_lat": 0.0, "name": "c5d9ab652c0107817c59b776d013c5c0", "is_disabled": 0, "rental_uris": {"android": "https://dc.lft.to/lastmile_qr_scan", "ios": "https://dc.lft.to/lastmile_qr_scan"}, "fusion_lon": 0.0, "lat": 38.899105166666665, "bike_id": "c5d9ab652c0107817c59b776d013c5c0", "type": "electric_scooter", "is_reserved": 0, "lon": -76.93352666666667}, {"fusion_lat": 0.0, "name": "2325bb3265773a7d8be9f5d4192abad9", "is_disabled": 0, "rental_uris": {"android": "https://dc.lft.to/lastmile_qr_scan", "ios": "https://dc.lft.to/lastmile_qr_scan"}, "fusion_lon": 0.0, "lat": 38.8919555, "bike_id": "2325bb3265773a7d8be9f5d4192abad9", "type": "electric_scooter", "is_reserved": 0, "lon": -76.99816266666667}, {"fusion_lat": 0.0, "name": "2b2a41952ec740b07da93719ac1c062e", "is_disabled": 0, "rental_uris": {"android": "https://dc.lft.to/lastmile_qr_scan", "ios": "https://dc.lft.to/lastmile_qr_scan"}, "fusion_lon": 0.0, "lat": 38.906564333333336, "bike_id": "2b2a41952ec740b07da93719ac1c062e", "type": "electric_scooter", "is_reserved": 0, "lon": -77.0058295}, {"fusion_lat": 0.0, "name": "fac2245d45fd9cd94d816afe4853ae87", "is_disabled": 0, "rental_uris": {"android": "https://dc.lft.to/lastmile_qr_scan", "ios": "https://dc.lft.to/lastmile_qr_scan"}, "fusion_lon": 0.0, "lat": 38.87575966666667, "bike_id": "fac2245d45fd9cd94d816afe4853ae87", "type": "electric_bike", "is_reserved": 0, "lon": -77.23413383333333}, {"fusion_lat": 0.0, "name": "cedc42d3505c6c768bceaad9f0996a01", "is_disabled": 0, "rental_uris": {"android": "https://dc.lft.to/lastmile_qr_scan", "ios": "https://dc.lft.to/lastmile_qr_scan"}, "fusion_lon": 0.0, "lat": 38.95054433333333, "bike_id": "cedc42d3505c6c768bceaad9f0996a01", "type": "electric_scooter", "is_reserved": 0, "lon": -77.08027866666667}, {"fusion_lat": 0.0, "name": "ccbbb197ba36ac1bb68395fd948a3e6b", "is_disabled": 0, "rental_uris": {"android": "https://dc.lft.to/lastmile_qr_scan", "ios": "https://dc.lft.to/lastmile_qr_scan"}, "fusion_lon": 0.0, "lat": 38.900892999999996, "bike_id": "ccbbb197ba36ac1bb68395fd948a3e6b", "type": "electric_scooter", "is_reserved": 0, "lon": -77.04752333333333}, {"fusion_lat": 0.0, "name": "15531d4cc70a3af2f78338fe2f855f81", "is_disabled": 0, "rental_uris": {"android": "https://dc.lft.to/lastmile_qr_scan", "ios": "https://dc.lft.to/lastmile_qr_scan"}, "fusion_lon": 0.0, "lat": 38.904633, "bike_id": "15531d4cc70a3af2f78338fe2f855f81", "type": "electric_scooter", "is_reserved": 0, "lon": -77.02949533333333}, {"fusion_lat": 0.0, "name": "a3b5512abe6f96a059ee398beae4b695", "is_disabled": 0, "rental_uris": {"android": "https://dc.lft.to/lastmile_qr_scan", "ios": "https://dc.lft.to/lastmile_qr_scan"}, "fusion_lon": 0.0, "lat": 38.88525833333333, "bike_id": "a3b5512abe6f96a059ee398beae4b695", "type": "electric_scooter", "is_reserved": 0, "lon": -76.92917166666666}, {"fusion_lat": 0.0, "name": "d3de29fc14348b124e0b711b7be81fa2", "is_disabled": 0, "rental_uris": {"android": "https://dc.lft.to/lastmile_qr_scan", "ios": "https://dc.lft.to/lastmile_qr_scan"}, "fusion_lon": 0.0, "lat": 38.91952216666667, "bike_id": "d3de29fc14348b124e0b711b7be81fa2", "type": "electric_scooter", "is_reserved": 0, "lon": -77.02487833333333}, {"fusion_lat": 0.0, "name": "ce384e48437aa409d1ee3e8e42682ff5", "is_disabled": 0, "rental_uris": {"android": "https://dc.lft.to/lastmile_qr_scan", "ios": "https://dc.lft.to/lastmile_qr_scan"}, "fusion_lon": 0.0, "lat": 38.8990925, "bike_id": "ce384e48437aa409d1ee3e8e42682ff5", "type": "electric_scooter", "is_reserved": 0, "lon": -76.945845}, {"fusion_lat": 0.0, "name": "41007c98e313f62bd9755eded6eef0d6", "is_disabled": 0, "rental_uris": {"android": "https://dc.lft.to/lastmile_qr_scan", "ios": "https://dc.lft.to/lastmile_qr_scan"}, "fusion_lon": 0.0, "lat": 38.90392516666667, "bike_id": "41007c98e313f62bd9755eded6eef0d6", "type": "electric_scooter", "is_reserved": 0, "lon": -77.04496933333333}, {"fusion_lat": 0.0, "name": "f88128056ba9405d650f669bb436dcdb", "is_disabled": 0, "rental_uris": {"android": "https://dc.lft.to/lastmile_qr_scan", "ios": "https://dc.lft.to/lastmile_qr_scan"}, "fusion_lon": 0.0, "lat": 38.90963833333333, "bike_id": "f88128056ba9405d650f669bb436dcdb", "type": "electric_scooter", "is_reserved": 0, "lon": -77.03227066666666}, {"fusion_lat": 0.0, "name": "f5bde62beb1cc9052449840ba290412f", "is_disabled": 0, "rental_uris": {"android": "https://dc.lft.to/lastmile_qr_scan", "ios": "https://dc.lft.to/lastmile_qr_scan"}, "fusion_lon": 0.0, "lat": 38.92248716666667, "bike_id": "f5bde62beb1cc9052449840ba290412f", "type": "electric_scooter", "is_reserved": 0, "lon": -76.98408433333333}, {"fusion_lat": 0.0, "name": "81657afd970b8c0fa95da067e70c7004", "is_disabled": 0, "rental_uris": {"android": "https://dc.lft.to/lastmile_qr_scan", "ios": "https://dc.lft.to/lastmile_qr_scan"}, "fusion_lon": 0.0, "lat": 38.9049715, "bike_id": "81657afd970b8c0fa95da067e70c7004", "type": "electric_scooter", "is_reserved": 0, "lon": -77.02962833333333}, {"fusion_lat": 0.0, "name": "df1a37c62446b436a682fef02fa86199", "is_disabled": 0, "rental_uris": {"android": "https://dc.lft.to/lastmile_qr_scan", "ios": "https://dc.lft.to/lastmile_qr_scan"}, "fusion_lon": 0.0, "lat": 38.906560999999996, "bike_id": "df1a37c62446b436a682fef02fa86199", "type": "electric_scooter", "is_reserved": 0, "lon": -77.01421633333334}, {"fusion_lat": 0.0, "name": "bca7b0bc86e2bb24f2d314ef7107cc8f", "is_disabled": 0, "rental_uris": {"android": "https://dc.lft.to/lastmile_qr_scan", "ios": "https://dc.lft.to/lastmile_qr_scan"}, "fusion_lon": 0.0, "lat": 38.908702166666664, "bike_id": "bca7b0bc86e2bb24f2d314ef7107cc8f", "type": "electric_scooter", "is_reserved": 0, "lon": -77.00936716666666}, {"fusion_lat": 0.0, "name": "f0620b1f549366150d9cdf248c663b17", "is_disabled": 0, "rental_uris": {"android": "https://dc.lft.to/lastmile_qr_scan", "ios": "https://dc.lft.to/lastmile_qr_scan"}, "fusion_lon": 0.0, "lat": 38.8763085, "bike_id": "f0620b1f549366150d9cdf248c663b17", "type": "electric_scooter", "is_reserved": 0, "lon": -77.00112966666667}, {"fusion_lat": 0.0, "name": "6daab5e6358b86148b22c50222b3ba79", "is_disabled": 0, "rental_uris": {"android": "https://dc.lft.to/lastmile_qr_scan", "ios": "https://dc.lft.to/lastmile_qr_scan"}, "fusion_lon": 0.0, "lat": 38.911571333333335, "bike_id": "6daab5e6358b86148b22c50222b3ba79", "type": "electric_scooter", "is_reserved": 0, "lon": -77.04152216666667}, {"fusion_lat": 0.0, "name": "64dd1246e98ff713306615c831500a9e", "is_disabled": 0, "rental_uris": {"android": "https://dc.lft.to/lastmile_qr_scan", "ios": "https://dc.lft.to/lastmile_qr_scan"}, "fusion_lon": 0.0, "lat": 38.91955466666667, "bike_id": "64dd1246e98ff713306615c831500a9e", "type": "electric_bike", "is_reserved": 0, "lon": -77.101067}, {"fusion_lat": 0.0, "name": "91bd20c1f511232afb53fd594b2e82cd", "is_disabled": 0, "rental_uris": {"android": "https://dc.lft.to/lastmile_qr_scan", "ios": "https://dc.lft.to/lastmile_qr_scan"}, "fusion_lon": 0.0, "lat": 38.91362683333333, "bike_id": "91bd20c1f511232afb53fd594b2e82cd", "type": "electric_scooter", "is_reserved": 0, "lon": -77.045537}, {"fusion_lat": 0.0, "name": "10986eabe9058303f13b1828d7e528e8", "is_disabled": 0, "rental_uris": {"android": "https://dc.lft.to/lastmile_qr_scan", "ios": "https://dc.lft.to/lastmile_qr_scan"}, "fusion_lon": 0.0, "lat": 38.8245815, "bike_id": "10986eabe9058303f13b1828d7e528e8", "type": "electric_bike", "is_reserved": 0, "lon": -77.0079955}, {"fusion_lat": 0.0, "name": "748445d5b4bc006d39d0c8866ffcc516", "is_disabled": 0, "rental_uris": {"android": "https://dc.lft.to/lastmile_qr_scan", "ios": "https://dc.lft.to/lastmile_qr_scan"}, "fusion_lon": 0.0, "lat": 38.91548616666667, "bike_id": "748445d5b4bc006d39d0c8866ffcc516", "type": "electric_scooter", "is_reserved": 0, "lon": -77.04173133333333}, {"fusion_lat": 0.0, "name": "ba94d7a2edfae1e6c14443702ae047b1", "is_disabled": 0, "rental_uris": {"android": "https://dc.lft.to/lastmile_qr_scan", "ios": "https://dc.lft.to/lastmile_qr_scan"}, "fusion_lon": 0.0, "lat": 38.92506366666667, "bike_id": "ba94d7a2edfae1e6c14443702ae047b1", "type": "electric_scooter", "is_reserved": 0, "lon": -77.05221316666666}, {"fusion_lat": 0.0, "name": "635bd1e748dab0f3061afde5ebbe80f8", "is_disabled": 0, "rental_uris": {"android": "https://dc.lft.to/lastmile_qr_scan", "ios": "https://dc.lft.to/lastmile_qr_scan"}, "fusion_lon": 0.0, "lat": 38.903816166666665, "bike_id": "635bd1e748dab0f3061afde5ebbe80f8", "type": "electric_scooter", "is_reserved": 0, "lon": -77.03647616666667}, {"fusion_lat": 0.0, "name": "b00047fd3af768ae2e06918cfa0b5648", "is_disabled": 0, "rental_uris": {"android": "https://dc.lft.to/lastmile_qr_scan", "ios": "https://dc.lft.to/lastmile_qr_scan"}, "fusion_lon": 0.0, "lat": 38.899049, "bike_id": "b00047fd3af768ae2e06918cfa0b5648", "type": "electric_scooter", "is_reserved": 0, "lon": -76.94547933333334}, {"fusion_lat": 0.0, "name": "28687700cb64d392e2724e21d6c3a8d7", "is_disabled": 0, "rental_uris": {"android": "https://dc.lft.to/lastmile_qr_scan", "ios": "https://dc.lft.to/lastmile_qr_scan"}, "fusion_lon": 0.0, "lat": 38.89982833333333, "bike_id": "28687700cb64d392e2724e21d6c3a8d7", "type": "electric_scooter", "is_reserved": 0, "lon": -77.006654}, {"fusion_lat": 0.0, "name": "64473e4d9a9933890105b6f015050f22", "is_disabled": 0, "rental_uris": {"android": "https://dc.lft.to/lastmile_qr_scan", "ios": "https://dc.lft.to/lastmile_qr_scan"}, "fusion_lon": 0.0, "lat": 38.881366666666665, "bike_id": "64473e4d9a9933890105b6f015050f22", "type": "electric_scooter", "is_reserved": 0, "lon": -77.02710983333333}, {"fusion_lat": 0.0, "name": "15b359e8bb2ca7ce16fa2a0c4f9f2cb6", "is_disabled": 0, "rental_uris": {"android": "https://dc.lft.to/lastmile_qr_scan", "ios": "https://dc.lft.to/lastmile_qr_scan"}, "fusion_lon": 0.0, "lat": 38.909683333333334, "bike_id": "15b359e8bb2ca7ce16fa2a0c4f9f2cb6", "type": "electric_scooter", "is_reserved": 0, "lon": -77.0110735}, {"fusion_lat": 0.0, "name": "57303034af1fe10f8842f4c14b69d46c", "is_disabled": 0, "rental_uris": {"android": "https://dc.lft.to/lastmile_qr_scan", "ios": "https://dc.lft.to/lastmile_qr_scan"}, "fusion_lon": 0.0, "lat": 38.887680333333336, "bike_id": "57303034af1fe10f8842f4c14b69d46c", "type": "electric_scooter", "is_reserved": 0, "lon": -76.97753166666666}, {"fusion_lat": 0.0, "name": "7a786a518f9e4c6d2241926e3c239203", "is_disabled": 0, "rental_uris": {"android": "https://dc.lft.to/lastmile_qr_scan", "ios": "https://dc.lft.to/lastmile_qr_scan"}, "fusion_lon": 0.0, "lat": 38.909507833333336, "bike_id": "7a786a518f9e4c6d2241926e3c239203", "type": "electric_scooter", "is_reserved": 0, "lon": -76.98549983333334}, {"fusion_lat": 0.0, "name": "fd09e2dfab2339681f1696694081564c", "is_disabled": 0, "rental_uris": {"android": "https://dc.lft.to/lastmile_qr_scan", "ios": "https://dc.lft.to/lastmile_qr_scan"}, "fusion_lon": 0.0, "lat": 38.95631183333333, "bike_id": "fd09e2dfab2339681f1696694081564c", "type": "electric_scooter", "is_reserved": 0, "lon": -77.03280183333334}, {"fusion_lat": 0.0, "name": "de3b93998a68428b1b40a5d9dc25f436", "is_disabled": 0, "rental_uris": {"android": "https://dc.lft.to/lastmile_qr_scan", "ios": "https://dc.lft.to/lastmile_qr_scan"}, "fusion_lon": 0.0, "lat": 38.921551, "bike_id": "de3b93998a68428b1b40a5d9dc25f436", "type": "electric_scooter", "is_reserved": 0, "lon": -77.03672316666666}, {"fusion_lat": 0.0, "name": "b134789ed8f074c36e598aa064074278", "is_disabled": 0, "rental_uris": {"android": "https://dc.lft.to/lastmile_qr_scan", "ios": "https://dc.lft.to/lastmile_qr_scan"}, "fusion_lon": 0.0, "lat": 38.95112833333334, "bike_id": "b134789ed8f074c36e598aa064074278", "type": "electric_scooter", "is_reserved": 0, "lon": -77.058601}, {"fusion_lat": 0.0, "name": "6013ecda0b4d92c565468776dea8e40c", "is_disabled": 0, "rental_uris": {"android": "https://dc.lft.to/lastmile_qr_scan", "ios": "https://dc.lft.to/lastmile_qr_scan"}, "fusion_lon": 0.0, "lat": 38.91553416666667, "bike_id": "6013ecda0b4d92c565468776dea8e40c", "type": "electric_scooter", "is_reserved": 0, "lon": -77.03475666666667}, {"fusion_lat": 0.0, "name": "5327ccf846af64482922b5dd8cd4fd82", "is_disabled": 0, "rental_uris": {"android": "https://dc.lft.to/lastmile_qr_scan", "ios": "https://dc.lft.to/lastmile_qr_scan"}, "fusion_lon": 0.0, "lat": 38.81985, "bike_id": "5327ccf846af64482922b5dd8cd4fd82", "type": "electric_bike", "is_reserved": 0, "lon": -76.99776416666667}, {"fusion_lat": 0.0, "name": "00aa5d9155979f8bded6a90254854897", "is_disabled": 0, "rental_uris": {"android": "https://dc.lft.to/lastmile_qr_scan", "ios": "https://dc.lft.to/lastmile_qr_scan"}, "fusion_lon": 0.0, "lat": 38.911023666666665, "bike_id": "00aa5d9155979f8bded6a90254854897", "type": "electric_scooter", "is_reserved": 0, "lon": -77.0448715}, {"fusion_lat": 0.0, "name": "af5f84f663f6e6a0abd23cd4a5f30552", "is_disabled": 0, "rental_uris": {"android": "https://dc.lft.to/lastmile_qr_scan", "ios": "https://dc.lft.to/lastmile_qr_scan"}, "fusion_lon": 0.0, "lat": 38.866268, "bike_id": "af5f84f663f6e6a0abd23cd4a5f30552", "type": "electric_scooter", "is_reserved": 0, "lon": -76.98716066666667}, {"fusion_lat": 0.0, "name": "6d1d1b10f8511c792f7e882756e41a25", "is_disabled": 0, "rental_uris": {"android": "https://dc.lft.to/lastmile_qr_scan", "ios": "https://dc.lft.to/lastmile_qr_scan"}, "fusion_lon": 0.0, "lat": 38.902393333333336, "bike_id": "6d1d1b10f8511c792f7e882756e41a25", "type": "electric_scooter", "is_reserved": 0, "lon": -77.00199216666667}, {"fusion_lat": 0.0, "name": "977909647c14a2ec11d5a30c7581b524", "is_disabled": 0, "rental_uris": {"android": "https://dc.lft.to/lastmile_qr_scan", "ios": "https://dc.lft.to/lastmile_qr_scan"}, "fusion_lon": 0.0, "lat": 38.950569, "bike_id": "977909647c14a2ec11d5a30c7581b524", "type": "electric_scooter", "is_reserved": 0, "lon": -77.0802485}, {"fusion_lat": 0.0, "name": "fcf64bde76fe3cbc9d0490f6e8db2eed", "is_disabled": 0, "rental_uris": {"android": "https://dc.lft.to/lastmile_qr_scan", "ios": "https://dc.lft.to/lastmile_qr_scan"}, "fusion_lon": 0.0, "lat": 38.90181966666667, "bike_id": "fcf64bde76fe3cbc9d0490f6e8db2eed", "type": "electric_scooter", "is_reserved": 0, "lon": -77.05927216666667}, {"fusion_lat": 0.0, "name": "7a91aa4595fe63a3e47516ddf5062ae2", "is_disabled": 0, "rental_uris": {"android": "https://dc.lft.to/lastmile_qr_scan", "ios": "https://dc.lft.to/lastmile_qr_scan"}, "fusion_lon": 0.0, "lat": 38.884770333333336, "bike_id": "7a91aa4595fe63a3e47516ddf5062ae2", "type": "electric_scooter", "is_reserved": 0, "lon": -77.02435216666667}, {"fusion_lat": 0.0, "name": "f5d21a901d6d83d6f8a6ea1e09c9f28a", "is_disabled": 0, "rental_uris": {"android": "https://dc.lft.to/lastmile_qr_scan", "ios": "https://dc.lft.to/lastmile_qr_scan"}, "fusion_lon": 0.0, "lat": 38.91417666666667, "bike_id": "f5d21a901d6d83d6f8a6ea1e09c9f28a", "type": "electric_scooter", "is_reserved": 0, "lon": -77.03172066666667}, {"fusion_lat": 0.0, "name": "a6c0ac787cc96628657039ce6a3906bf", "is_disabled": 0, "rental_uris": {"android": "https://dc.lft.to/lastmile_qr_scan", "ios": "https://dc.lft.to/lastmile_qr_scan"}, "fusion_lon": 0.0, "lat": 38.934601666666666, "bike_id": "a6c0ac787cc96628657039ce6a3906bf", "type": "electric_scooter", "is_reserved": 0, "lon": -77.05781283333333}, {"fusion_lat": 0.0, "name": "aa7a0a0eb020254101e4902dabee3fcc", "is_disabled": 0, "rental_uris": {"android": "https://dc.lft.to/lastmile_qr_scan", "ios": "https://dc.lft.to/lastmile_qr_scan"}, "fusion_lon": 0.0, "lat": 38.92067816666667, "bike_id": "aa7a0a0eb020254101e4902dabee3fcc", "type": "electric_scooter", "is_reserved": 0, "lon": -77.0285445}, {"fusion_lat": 0.0, "name": "213f93ab49068d58c86974e477e71bfe", "is_disabled": 0, "rental_uris": {"android": "https://dc.lft.to/lastmile_qr_scan", "ios": "https://dc.lft.to/lastmile_qr_scan"}, "fusion_lon": 0.0, "lat": 38.9154735, "bike_id": "213f93ab49068d58c86974e477e71bfe", "type": "electric_scooter", "is_reserved": 0, "lon": -77.032415}, {"fusion_lat": 0.0, "name": "64265e9495a2d7ca9a0feb5b71c74ead", "is_disabled": 0, "rental_uris": {"android": "https://dc.lft.to/lastmile_qr_scan", "ios": "https://dc.lft.to/lastmile_qr_scan"}, "fusion_lon": 0.0, "lat": 38.92025233333333, "bike_id": "64265e9495a2d7ca9a0feb5b71c74ead", "type": "electric_scooter", "is_reserved": 0, "lon": -77.03071566666667}, {"fusion_lat": 0.0, "name": "df7cce821f37d5a52d47526489b52682", "is_disabled": 0, "rental_uris": {"android": "https://dc.lft.to/lastmile_qr_scan", "ios": "https://dc.lft.to/lastmile_qr_scan"}, "fusion_lon": 0.0, "lat": 38.9675455, "bike_id": "df7cce821f37d5a52d47526489b52682", "type": "electric_bike", "is_reserved": 0, "lon": -77.027977}, {"fusion_lat": 0.0, "name": "6b1fab9bec3e425a4c682ea46819aaf6", "is_disabled": 0, "rental_uris": {"android": "https://dc.lft.to/lastmile_qr_scan", "ios": "https://dc.lft.to/lastmile_qr_scan"}, "fusion_lon": 0.0, "lat": 38.908514333333336, "bike_id": "6b1fab9bec3e425a4c682ea46819aaf6", "type": "electric_scooter", "is_reserved": 0, "lon": -76.999167}, {"fusion_lat": 0.0, "name": "448f119a1f603f9caed1363da80f80df", "is_disabled": 0, "rental_uris": {"android": "https://dc.lft.to/lastmile_qr_scan", "ios": "https://dc.lft.to/lastmile_qr_scan"}, "fusion_lon": 0.0, "lat": 38.9073115, "bike_id": "448f119a1f603f9caed1363da80f80df", "type": "electric_scooter", "is_reserved": 0, "lon": -77.04512733333334}, {"fusion_lat": 0.0, "name": "b2b48e0e023f82f8283d02628a95ca7d", "is_disabled": 0, "rental_uris": {"android": "https://dc.lft.to/lastmile_qr_scan", "ios": "https://dc.lft.to/lastmile_qr_scan"}, "fusion_lon": 0.0, "lat": 38.890085166666665, "bike_id": "b2b48e0e023f82f8283d02628a95ca7d", "type": "electric_scooter", "is_reserved": 0, "lon": -76.93741633333333}, {"fusion_lat": 0.0, "name": "394ccaaef02acf1f4a60fe53c7bd1e4d", "is_disabled": 0, "rental_uris": {"android": "https://dc.lft.to/lastmile_qr_scan", "ios": "https://dc.lft.to/lastmile_qr_scan"}, "fusion_lon": 0.0, "lat": 38.922598, "bike_id": "394ccaaef02acf1f4a60fe53c7bd1e4d", "type": "electric_bike", "is_reserved": 0, "lon": -77.07029166666666}, {"fusion_lat": 0.0, "name": "006485952e1c9fe1b9211478b4131eb4", "is_disabled": 0, "rental_uris": {"android": "https://dc.lft.to/lastmile_qr_scan", "ios": "https://dc.lft.to/lastmile_qr_scan"}, "fusion_lon": 0.0, "lat": 38.924574166666666, "bike_id": "006485952e1c9fe1b9211478b4131eb4", "type": "electric_scooter", "is_reserved": 0, "lon": -77.02410783333333}, {"fusion_lat": 0.0, "name": "26f2a99db3f584e5810b663e3bebc867", "is_disabled": 0, "rental_uris": {"android": "https://dc.lft.to/lastmile_qr_scan", "ios": "https://dc.lft.to/lastmile_qr_scan"}, "fusion_lon": 0.0, "lat": 38.90223733333333, "bike_id": "26f2a99db3f584e5810b663e3bebc867", "type": "electric_scooter", "is_reserved": 0, "lon": -77.02359733333333}, {"fusion_lat": 0.0, "name": "a5f1dc96aa1996e379eb16766d20d29e", "is_disabled": 0, "rental_uris": {"android": "https://dc.lft.to/lastmile_qr_scan", "ios": "https://dc.lft.to/lastmile_qr_scan"}, "fusion_lon": 0.0, "lat": 38.88964583333333, "bike_id": "a5f1dc96aa1996e379eb16766d20d29e", "type": "electric_scooter", "is_reserved": 0, "lon": -77.01504933333334}, {"fusion_lat": 0.0, "name": "06982f9dc4ed0ae6d03cddcb5a47f767", "is_disabled": 0, "rental_uris": {"android": "https://dc.lft.to/lastmile_qr_scan", "ios": "https://dc.lft.to/lastmile_qr_scan"}, "fusion_lon": 0.0, "lat": 39.01413766666667, "bike_id": "06982f9dc4ed0ae6d03cddcb5a47f767", "type": "electric_bike", "is_reserved": 0, "lon": -77.0449975}, {"fusion_lat": 0.0, "name": "bfa19c8c0e4c2c662a8f4fa9b3ac1cf3", "is_disabled": 0, "rental_uris": {"android": "https://dc.lft.to/lastmile_qr_scan", "ios": "https://dc.lft.to/lastmile_qr_scan"}, "fusion_lon": 0.0, "lat": 38.9070495, "bike_id": "bfa19c8c0e4c2c662a8f4fa9b3ac1cf3", "type": "electric_scooter", "is_reserved": 0, "lon": -77.04188016666667}, {"fusion_lat": 0.0, "name": "3165ac80abd0322c075ae46d37dcc63c", "is_disabled": 0, "rental_uris": {"android": "https://dc.lft.to/lastmile_qr_scan", "ios": "https://dc.lft.to/lastmile_qr_scan"}, "fusion_lon": 0.0, "lat": 38.8161125, "bike_id": "3165ac80abd0322c075ae46d37dcc63c", "type": "electric_bike", "is_reserved": 0, "lon": -76.9965795}, {"fusion_lat": 0.0, "name": "24797cb26fcd20e8a13f036dd403e810", "is_disabled": 0, "rental_uris": {"android": "https://dc.lft.to/lastmile_qr_scan", "ios": "https://dc.lft.to/lastmile_qr_scan"}, "fusion_lon": 0.0, "lat": 38.885048166666664, "bike_id": "24797cb26fcd20e8a13f036dd403e810", "type": "electric_scooter", "is_reserved": 0, "lon": -76.99754866666666}, {"fusion_lat": 0.0, "name": "ede19d1410864f14d46c515e38042b52", "is_disabled": 0, "rental_uris": {"android": "https://dc.lft.to/lastmile_qr_scan", "ios": "https://dc.lft.to/lastmile_qr_scan"}, "fusion_lon": 0.0, "lat": 38.909759, "bike_id": "ede19d1410864f14d46c515e38042b52", "type": "electric_scooter", "is_reserved": 0, "lon": -77.033346}, {"fusion_lat": 0.0, "name": "e68e0643ba8507250dc62f0c1e150336", "is_disabled": 0, "rental_uris": {"android": "https://dc.lft.to/lastmile_qr_scan", "ios": "https://dc.lft.to/lastmile_qr_scan"}, "fusion_lon": 0.0, "lat": 38.9215665, "bike_id": "e68e0643ba8507250dc62f0c1e150336", "type": "electric_scooter", "is_reserved": 0, "lon": -77.02092633333334}, {"fusion_lat": 0.0, "name": "71d58f4277b70ca1be42e1cef370b4f7", "is_disabled": 0, "rental_uris": {"android": "https://dc.lft.to/lastmile_qr_scan", "ios": "https://dc.lft.to/lastmile_qr_scan"}, "fusion_lon": 0.0, "lat": 38.873629666666666, "bike_id": "71d58f4277b70ca1be42e1cef370b4f7", "type": "electric_scooter", "is_reserved": 0, "lon": -77.00913416666667}, {"fusion_lat": 0.0, "name": "7babe46f6a3247e82eaf955d4a48b882", "is_disabled": 0, "rental_uris": {"android": "https://dc.lft.to/lastmile_qr_scan", "ios": "https://dc.lft.to/lastmile_qr_scan"}, "fusion_lon": 0.0, "lat": 38.9163165, "bike_id": "7babe46f6a3247e82eaf955d4a48b882", "type": "electric_scooter", "is_reserved": 0, "lon": -77.02961033333334}, {"fusion_lat": 0.0, "name": "2f028621c1fe3c1791624f7f895af0b1", "is_disabled": 0, "rental_uris": {"android": "https://dc.lft.to/lastmile_qr_scan", "ios": "https://dc.lft.to/lastmile_qr_scan"}, "fusion_lon": 0.0, "lat": 38.849137166666665, "bike_id": "2f028621c1fe3c1791624f7f895af0b1", "type": "electric_bike", "is_reserved": 0, "lon": -77.079313}, {"fusion_lat": 0.0, "name": "5ef3eef2fd5fceee8be7749d62b693a0", "is_disabled": 0, "rental_uris": {"android": "https://dc.lft.to/lastmile_qr_scan", "ios": "https://dc.lft.to/lastmile_qr_scan"}, "fusion_lon": 0.0, "lat": 38.90055566666667, "bike_id": "5ef3eef2fd5fceee8be7749d62b693a0", "type": "electric_scooter", "is_reserved": 0, "lon": -76.98692416666667}, {"fusion_lat": 0.0, "name": "59dc0e7e18051befbf0fbd71806d31c1", "is_disabled": 0, "rental_uris": {"android": "https://dc.lft.to/lastmile_qr_scan", "ios": "https://dc.lft.to/lastmile_qr_scan"}, "fusion_lon": 0.0, "lat": 38.9072875, "bike_id": "59dc0e7e18051befbf0fbd71806d31c1", "type": "electric_scooter", "is_reserved": 0, "lon": -77.04544433333334}, {"fusion_lat": 0.0, "name": "857bd3ef2cb586b37ab9ec4ba32b0d16", "is_disabled": 0, "rental_uris": {"android": "https://dc.lft.to/lastmile_qr_scan", "ios": "https://dc.lft.to/lastmile_qr_scan"}, "fusion_lon": 0.0, "lat": 38.921516833333335, "bike_id": "857bd3ef2cb586b37ab9ec4ba32b0d16", "type": "electric_scooter", "is_reserved": 0, "lon": -77.04350966666667}, {"fusion_lat": 0.0, "name": "3c94b918e9644550b66e2bbfebd4bb72", "is_disabled": 0, "rental_uris": {"android": "https://dc.lft.to/lastmile_qr_scan", "ios": "https://dc.lft.to/lastmile_qr_scan"}, "fusion_lon": 0.0, "lat": 38.946339333333334, "bike_id": "3c94b918e9644550b66e2bbfebd4bb72", "type": "electric_scooter", "is_reserved": 0, "lon": -77.0954245}, {"fusion_lat": 0.0, "name": "3573d5ad6b752762ee15aaa436017b62", "is_disabled": 0, "rental_uris": {"android": "https://dc.lft.to/lastmile_qr_scan", "ios": "https://dc.lft.to/lastmile_qr_scan"}, "fusion_lon": 0.0, "lat": 38.873705666666666, "bike_id": "3573d5ad6b752762ee15aaa436017b62", "type": "electric_scooter", "is_reserved": 0, "lon": -77.00086866666666}, {"fusion_lat": 0.0, "name": "e7f1ef6c95679d294a39405bc82a4d0c", "is_disabled": 0, "rental_uris": {"android": "https://dc.lft.to/lastmile_qr_scan", "ios": "https://dc.lft.to/lastmile_qr_scan"}, "fusion_lon": 0.0, "lat": 38.914049, "bike_id": "e7f1ef6c95679d294a39405bc82a4d0c", "type": "electric_scooter", "is_reserved": 0, "lon": -77.032252}, {"fusion_lat": 0.0, "name": "bd70270d48465d21421d36b746a95054", "is_disabled": 0, "rental_uris": {"android": "https://dc.lft.to/lastmile_qr_scan", "ios": "https://dc.lft.to/lastmile_qr_scan"}, "fusion_lon": 0.0, "lat": 38.884590333333335, "bike_id": "bd70270d48465d21421d36b746a95054", "type": "electric_scooter", "is_reserved": 0, "lon": -76.92942416666666}, {"fusion_lat": 0.0, "name": "8126e762f841d2f1e13c654288b4916a", "is_disabled": 0, "rental_uris": {"android": "https://dc.lft.to/lastmile_qr_scan", "ios": "https://dc.lft.to/lastmile_qr_scan"}, "fusion_lon": 0.0, "lat": 38.900403833333336, "bike_id": "8126e762f841d2f1e13c654288b4916a", "type": "electric_scooter", "is_reserved": 0, "lon": -77.01231766666666}, {"fusion_lat": 0.0, "name": "bfa529a3dd43506f3c01f0e0f65ab284", "is_disabled": 0, "rental_uris": {"android": "https://dc.lft.to/lastmile_qr_scan", "ios": "https://dc.lft.to/lastmile_qr_scan"}, "fusion_lon": 0.0, "lat": 38.884721166666665, "bike_id": "bfa529a3dd43506f3c01f0e0f65ab284", "type": "electric_scooter", "is_reserved": 0, "lon": -76.949779}, {"fusion_lat": 0.0, "name": "7f720cb7a2c702b07711b46b69a2e7e5", "is_disabled": 0, "rental_uris": {"android": "https://dc.lft.to/lastmile_qr_scan", "ios": "https://dc.lft.to/lastmile_qr_scan"}, "fusion_lon": 0.0, "lat": 38.916341833333334, "bike_id": "7f720cb7a2c702b07711b46b69a2e7e5", "type": "electric_scooter", "is_reserved": 0, "lon": -77.02966516666666}, {"fusion_lat": 0.0, "name": "f5bc948b69fc1980c8ce93eb157322f1", "is_disabled": 0, "rental_uris": {"android": "https://dc.lft.to/lastmile_qr_scan", "ios": "https://dc.lft.to/lastmile_qr_scan"}, "fusion_lon": 0.0, "lat": 38.9612425, "bike_id": "f5bc948b69fc1980c8ce93eb157322f1", "type": "electric_bike", "is_reserved": 0, "lon": -77.03280066666666}, {"fusion_lat": 0.0, "name": "49c6fd576e69a5c529c56969c74bfc0d", "is_disabled": 0, "rental_uris": {"android": "https://dc.lft.to/lastmile_qr_scan", "ios": "https://dc.lft.to/lastmile_qr_scan"}, "fusion_lon": 0.0, "lat": 38.8989705, "bike_id": "49c6fd576e69a5c529c56969c74bfc0d", "type": "electric_scooter", "is_reserved": 0, "lon": -77.03283583333334}, {"fusion_lat": 0.0, "name": "7f60aa0de703f46fbebc6f8474344d8c", "is_disabled": 0, "rental_uris": {"android": "https://dc.lft.to/lastmile_qr_scan", "ios": "https://dc.lft.to/lastmile_qr_scan"}, "fusion_lon": 0.0, "lat": 38.9098395, "bike_id": "7f60aa0de703f46fbebc6f8474344d8c", "type": "electric_scooter", "is_reserved": 0, "lon": -77.04802133333334}, {"fusion_lat": 0.0, "name": "1628bbbd47bf25dd8df59f0953c1ced7", "is_disabled": 0, "rental_uris": {"android": "https://dc.lft.to/lastmile_qr_scan", "ios": "https://dc.lft.to/lastmile_qr_scan"}, "fusion_lon": 0.0, "lat": 38.901019, "bike_id": "1628bbbd47bf25dd8df59f0953c1ced7", "type": "electric_scooter", "is_reserved": 0, "lon": -77.05808783333333}, {"fusion_lat": 0.0, "name": "0b95dd35fc69b26fea5ed6c5fda95983", "is_disabled": 0, "rental_uris": {"android": "https://dc.lft.to/lastmile_qr_scan", "ios": "https://dc.lft.to/lastmile_qr_scan"}, "fusion_lon": 0.0, "lat": 38.897938333333336, "bike_id": "0b95dd35fc69b26fea5ed6c5fda95983", "type": "electric_scooter", "is_reserved": 0, "lon": -77.01201333333333}, {"fusion_lat": 0.0, "name": "d264259633b7282c7204970f91128150", "is_disabled": 0, "rental_uris": {"android": "https://dc.lft.to/lastmile_qr_scan", "ios": "https://dc.lft.to/lastmile_qr_scan"}, "fusion_lon": 0.0, "lat": 38.90783366666667, "bike_id": "d264259633b7282c7204970f91128150", "type": "electric_scooter", "is_reserved": 0, "lon": -77.035518}, {"fusion_lat": 0.0, "name": "568d82ac6ce769459adea449bc107158", "is_disabled": 0, "rental_uris": {"android": "https://dc.lft.to/lastmile_qr_scan", "ios": "https://dc.lft.to/lastmile_qr_scan"}, "fusion_lon": 0.0, "lat": 38.95279033333333, "bike_id": "568d82ac6ce769459adea449bc107158", "type": "electric_scooter", "is_reserved": 0, "lon": -77.068523}, {"fusion_lat": 0.0, "name": "de0908e6427fc409abd073bd88a00869", "is_disabled": 0, "rental_uris": {"android": "https://dc.lft.to/lastmile_qr_scan", "ios": "https://dc.lft.to/lastmile_qr_scan"}, "fusion_lon": 0.0, "lat": 38.89995483333333, "bike_id": "de0908e6427fc409abd073bd88a00869", "type": "electric_scooter", "is_reserved": 0, "lon": -76.99402783333333}, {"fusion_lat": 0.0, "name": "55859605d2aefd3003a8f8ad1a6c9966", "is_disabled": 0, "rental_uris": {"android": "https://dc.lft.to/lastmile_qr_scan", "ios": "https://dc.lft.to/lastmile_qr_scan"}, "fusion_lon": 0.0, "lat": 38.8975585, "bike_id": "55859605d2aefd3003a8f8ad1a6c9966", "type": "electric_scooter", "is_reserved": 0, "lon": -77.020167}, {"fusion_lat": 0.0, "name": "d6bf181d19dfd45bbc805ae47bbaf9b3", "is_disabled": 0, "rental_uris": {"android": "https://dc.lft.to/lastmile_qr_scan", "ios": "https://dc.lft.to/lastmile_qr_scan"}, "fusion_lon": 0.0, "lat": 38.928937166666664, "bike_id": "d6bf181d19dfd45bbc805ae47bbaf9b3", "type": "electric_bike", "is_reserved": 0, "lon": -77.23179383333333}, {"fusion_lat": 0.0, "name": "3b05e0dc02a2f21d201dfe305bc35106", "is_disabled": 0, "rental_uris": {"android": "https://dc.lft.to/lastmile_qr_scan", "ios": "https://dc.lft.to/lastmile_qr_scan"}, "fusion_lon": 0.0, "lat": 38.91038533333333, "bike_id": "3b05e0dc02a2f21d201dfe305bc35106", "type": "electric_scooter", "is_reserved": 0, "lon": -77.00827133333334}, {"fusion_lat": 0.0, "name": "0f9f2171d340aa7eb9e9f060ee023335", "is_disabled": 0, "rental_uris": {"android": "https://dc.lft.to/lastmile_qr_scan", "ios": "https://dc.lft.to/lastmile_qr_scan"}, "fusion_lon": 0.0, "lat": 38.841341666666665, "bike_id": "0f9f2171d340aa7eb9e9f060ee023335", "type": "electric_bike", "is_reserved": 0, "lon": -76.947623}, {"fusion_lat": 0.0, "name": "06e26a7eb18ea7b643c488b688632241", "is_disabled": 0, "rental_uris": {"android": "https://dc.lft.to/lastmile_qr_scan", "ios": "https://dc.lft.to/lastmile_qr_scan"}, "fusion_lon": 0.0, "lat": 38.911164166666666, "bike_id": "06e26a7eb18ea7b643c488b688632241", "type": "electric_scooter", "is_reserved": 0, "lon": -77.031712}, {"fusion_lat": 0.0, "name": "d435a213f3db24800c76373ce05d371c", "is_disabled": 0, "rental_uris": {"android": "https://dc.lft.to/lastmile_qr_scan", "ios": "https://dc.lft.to/lastmile_qr_scan"}, "fusion_lon": 0.0, "lat": 38.885116, "bike_id": "d435a213f3db24800c76373ce05d371c", "type": "electric_scooter", "is_reserved": 0, "lon": -77.021009}, {"fusion_lat": 0.0, "name": "329a7e82c97ba13acb5492bb3d5d4b64", "is_disabled": 0, "rental_uris": {"android": "https://dc.lft.to/lastmile_qr_scan", "ios": "https://dc.lft.to/lastmile_qr_scan"}, "fusion_lon": 0.0, "lat": 38.90554983333333, "bike_id": "329a7e82c97ba13acb5492bb3d5d4b64", "type": "electric_scooter", "is_reserved": 0, "lon": -77.06265166666667}, {"fusion_lat": 0.0, "name": "c3a21adfde7cb73561e6075a312b9196", "is_disabled": 0, "rental_uris": {"android": "https://dc.lft.to/lastmile_qr_scan", "ios": "https://dc.lft.to/lastmile_qr_scan"}, "fusion_lon": 0.0, "lat": 38.876390666666666, "bike_id": "c3a21adfde7cb73561e6075a312b9196", "type": "electric_scooter", "is_reserved": 0, "lon": -77.00910766666667}, {"fusion_lat": 0.0, "name": "64dc7f5bcd0ebccafd46603e7c55abe2", "is_disabled": 0, "rental_uris": {"android": "https://dc.lft.to/lastmile_qr_scan", "ios": "https://dc.lft.to/lastmile_qr_scan"}, "fusion_lon": 0.0, "lat": 38.93192633333334, "bike_id": "64dc7f5bcd0ebccafd46603e7c55abe2", "type": "electric_scooter", "is_reserved": 0, "lon": -77.04299716666667}, {"fusion_lat": 0.0, "name": "1767ed99e9d6c580f7ec2eb94ac983c2", "is_disabled": 0, "rental_uris": {"android": "https://dc.lft.to/lastmile_qr_scan", "ios": "https://dc.lft.to/lastmile_qr_scan"}, "fusion_lon": 0.0, "lat": 38.90396716666667, "bike_id": "1767ed99e9d6c580f7ec2eb94ac983c2", "type": "electric_scooter", "is_reserved": 0, "lon": -76.98092816666667}, {"fusion_lat": 0.0, "name": "7913b31486d10fe0b1ecc286407778b8", "is_disabled": 0, "rental_uris": {"android": "https://dc.lft.to/lastmile_qr_scan", "ios": "https://dc.lft.to/lastmile_qr_scan"}, "fusion_lon": 0.0, "lat": 38.8875795, "bike_id": "7913b31486d10fe0b1ecc286407778b8", "type": "electric_scooter", "is_reserved": 0, "lon": -77.002576}, {"fusion_lat": 0.0, "name": "4c56eac3cf34f3365e3a57b7165930ec", "is_disabled": 0, "rental_uris": {"android": "https://dc.lft.to/lastmile_qr_scan", "ios": "https://dc.lft.to/lastmile_qr_scan"}, "fusion_lon": 0.0, "lat": 38.9101895, "bike_id": "4c56eac3cf34f3365e3a57b7165930ec", "type": "electric_scooter", "is_reserved": 0, "lon": -77.03866966666666}, {"fusion_lat": 0.0, "name": "6b1c18d93c496ac0286497992c39fe81", "is_disabled": 0, "rental_uris": {"android": "https://dc.lft.to/lastmile_qr_scan", "ios": "https://dc.lft.to/lastmile_qr_scan"}, "fusion_lon": 0.0, "lat": 38.922524, "bike_id": "6b1c18d93c496ac0286497992c39fe81", "type": "electric_scooter", "is_reserved": 0, "lon": -77.050814}, {"fusion_lat": 0.0, "name": "f55f19e2811eef82eed1b0fc3bcbc42f", "is_disabled": 0, "rental_uris": {"android": "https://dc.lft.to/lastmile_qr_scan", "ios": "https://dc.lft.to/lastmile_qr_scan"}, "fusion_lon": 0.0, "lat": 38.92439866666667, "bike_id": "f55f19e2811eef82eed1b0fc3bcbc42f", "type": "electric_scooter", "is_reserved": 0, "lon": -77.0006645}, {"fusion_lat": 0.0, "name": "dee6d2d723fa04c2dc05b596d356609e", "is_disabled": 0, "rental_uris": {"android": "https://dc.lft.to/lastmile_qr_scan", "ios": "https://dc.lft.to/lastmile_qr_scan"}, "fusion_lon": 0.0, "lat": 38.91340483333333, "bike_id": "dee6d2d723fa04c2dc05b596d356609e", "type": "electric_scooter", "is_reserved": 0, "lon": -77.0319755}, {"fusion_lat": 0.0, "name": "0b5e7fe2ba27a2962b2831583c5a8320", "is_disabled": 0, "rental_uris": {"android": "https://dc.lft.to/lastmile_qr_scan", "ios": "https://dc.lft.to/lastmile_qr_scan"}, "fusion_lon": 0.0, "lat": 38.88403233333333, "bike_id": "0b5e7fe2ba27a2962b2831583c5a8320", "type": "electric_scooter", "is_reserved": 0, "lon": -76.930452}, {"fusion_lat": 0.0, "name": "a5777f4d3f1200f718060fa49c73cc73", "is_disabled": 0, "rental_uris": {"android": "https://dc.lft.to/lastmile_qr_scan", "ios": "https://dc.lft.to/lastmile_qr_scan"}, "fusion_lon": 0.0, "lat": 38.897127166666664, "bike_id": "a5777f4d3f1200f718060fa49c73cc73", "type": "electric_scooter", "is_reserved": 0, "lon": -77.0288625}, {"fusion_lat": 0.0, "name": "3bd0eebf3ca4f76ddc76109677efedf4", "is_disabled": 0, "rental_uris": {"android": "https://dc.lft.to/lastmile_qr_scan", "ios": "https://dc.lft.to/lastmile_qr_scan"}, "fusion_lon": 0.0, "lat": 38.933945666666666, "bike_id": "3bd0eebf3ca4f76ddc76109677efedf4", "type": "electric_scooter", "is_reserved": 0, "lon": -77.02852683333333}, {"fusion_lat": 0.0, "name": "eceaf777d612ef511e1b999675120e01", "is_disabled": 0, "rental_uris": {"android": "https://dc.lft.to/lastmile_qr_scan", "ios": "https://dc.lft.to/lastmile_qr_scan"}, "fusion_lon": 0.0, "lat": 38.933598833333335, "bike_id": "eceaf777d612ef511e1b999675120e01", "type": "electric_scooter", "is_reserved": 0, "lon": -77.0343575}, {"fusion_lat": 0.0, "name": "2d283003a3a604e2f95f8255d5cdab14", "is_disabled": 0, "rental_uris": {"android": "https://dc.lft.to/lastmile_qr_scan", "ios": "https://dc.lft.to/lastmile_qr_scan"}, "fusion_lon": 0.0, "lat": 38.940837, "bike_id": "2d283003a3a604e2f95f8255d5cdab14", "type": "electric_scooter", "is_reserved": 0, "lon": -77.06180516666667}, {"fusion_lat": 0.0, "name": "c69490a12963fd1dfe6e458fdd4ac193", "is_disabled": 0, "rental_uris": {"android": "https://dc.lft.to/lastmile_qr_scan", "ios": "https://dc.lft.to/lastmile_qr_scan"}, "fusion_lon": 0.0, "lat": 38.900952333333336, "bike_id": "c69490a12963fd1dfe6e458fdd4ac193", "type": "electric_scooter", "is_reserved": 0, "lon": -77.03489483333334}, {"fusion_lat": 0.0, "name": "bae1ed6b5279c0a8b85cacb3f06f586e", "is_disabled": 0, "rental_uris": {"android": "https://dc.lft.to/lastmile_qr_scan", "ios": "https://dc.lft.to/lastmile_qr_scan"}, "fusion_lon": 0.0, "lat": 38.85770733333333, "bike_id": "bae1ed6b5279c0a8b85cacb3f06f586e", "type": "electric_bike", "is_reserved": 0, "lon": -76.98763533333333}, {"fusion_lat": 0.0, "name": "48ed3bbb85eca0b55ca35a658615c5ac", "is_disabled": 0, "rental_uris": {"android": "https://dc.lft.to/lastmile_qr_scan", "ios": "https://dc.lft.to/lastmile_qr_scan"}, "fusion_lon": 0.0, "lat": 38.923362, "bike_id": "48ed3bbb85eca0b55ca35a658615c5ac", "type": "electric_scooter", "is_reserved": 0, "lon": -77.0353865}, {"fusion_lat": 0.0, "name": "6f7edeb2c5bb485b1b8b56fe9ee9e07c", "is_disabled": 0, "rental_uris": {"android": "https://dc.lft.to/lastmile_qr_scan", "ios": "https://dc.lft.to/lastmile_qr_scan"}, "fusion_lon": 0.0, "lat": 38.9103705, "bike_id": "6f7edeb2c5bb485b1b8b56fe9ee9e07c", "type": "electric_scooter", "is_reserved": 0, "lon": -77.03830233333333}, {"fusion_lat": 0.0, "name": "dc4394cd7c1f3b08a13444ee8577ffe5", "is_disabled": 0, "rental_uris": {"android": "https://dc.lft.to/lastmile_qr_scan", "ios": "https://dc.lft.to/lastmile_qr_scan"}, "fusion_lon": 0.0, "lat": 38.90525133333333, "bike_id": "dc4394cd7c1f3b08a13444ee8577ffe5", "type": "electric_scooter", "is_reserved": 0, "lon": -77.059289}, {"fusion_lat": 0.0, "name": "62e6cbd84eb5cb1433f049eff25f9a9b", "is_disabled": 0, "rental_uris": {"android": "https://dc.lft.to/lastmile_qr_scan", "ios": "https://dc.lft.to/lastmile_qr_scan"}, "fusion_lon": 0.0, "lat": 38.90012383333333, "bike_id": "62e6cbd84eb5cb1433f049eff25f9a9b", "type": "electric_scooter", "is_reserved": 0, "lon": -77.00179816666666}, {"fusion_lat": 0.0, "name": "25a55247129937bcbaf565398f6fd04e", "is_disabled": 0, "rental_uris": {"android": "https://dc.lft.to/lastmile_qr_scan", "ios": "https://dc.lft.to/lastmile_qr_scan"}, "fusion_lon": 0.0, "lat": 38.9297825, "bike_id": "25a55247129937bcbaf565398f6fd04e", "type": "electric_scooter", "is_reserved": 0, "lon": -77.0252755}, {"fusion_lat": 0.0, "name": "4ead5073e9d6e2ef50f3152d48585c19", "is_disabled": 0, "rental_uris": {"android": "https://dc.lft.to/lastmile_qr_scan", "ios": "https://dc.lft.to/lastmile_qr_scan"}, "fusion_lon": 0.0, "lat": 38.92353966666667, "bike_id": "4ead5073e9d6e2ef50f3152d48585c19", "type": "electric_scooter", "is_reserved": 0, "lon": -77.04324133333333}, {"fusion_lat": 0.0, "name": "bcdd6d40f8de7f916371e020e2bb0ec7", "is_disabled": 0, "rental_uris": {"android": "https://dc.lft.to/lastmile_qr_scan", "ios": "https://dc.lft.to/lastmile_qr_scan"}, "fusion_lon": 0.0, "lat": 38.912582666666665, "bike_id": "bcdd6d40f8de7f916371e020e2bb0ec7", "type": "electric_scooter", "is_reserved": 0, "lon": -77.04447683333333}, {"fusion_lat": 0.0, "name": "d061f1cbeb213d90fc92846ce806c0eb", "is_disabled": 0, "rental_uris": {"android": "https://dc.lft.to/lastmile_qr_scan", "ios": "https://dc.lft.to/lastmile_qr_scan"}, "fusion_lon": 0.0, "lat": 38.9163975, "bike_id": "d061f1cbeb213d90fc92846ce806c0eb", "type": "electric_scooter", "is_reserved": 0, "lon": -77.04803666666666}, {"fusion_lat": 0.0, "name": "33c6909fa03715e6bf62c78bd304efb7", "is_disabled": 0, "rental_uris": {"android": "https://dc.lft.to/lastmile_qr_scan", "ios": "https://dc.lft.to/lastmile_qr_scan"}, "fusion_lon": 0.0, "lat": 39.036060166666665, "bike_id": "33c6909fa03715e6bf62c78bd304efb7", "type": "electric_bike", "is_reserved": 0, "lon": -77.05550316666667}, {"fusion_lat": 0.0, "name": "9634f233d523513c25276223949d5d8a", "is_disabled": 0, "rental_uris": {"android": "https://dc.lft.to/lastmile_qr_scan", "ios": "https://dc.lft.to/lastmile_qr_scan"}, "fusion_lon": 0.0, "lat": 38.89988016666667, "bike_id": "9634f233d523513c25276223949d5d8a", "type": "electric_scooter", "is_reserved": 0, "lon": -76.98438233333333}, {"fusion_lat": 0.0, "name": "8e9fa6480cc2919ba34b5f3d3d342b5d", "is_disabled": 0, "rental_uris": {"android": "https://dc.lft.to/lastmile_qr_scan", "ios": "https://dc.lft.to/lastmile_qr_scan"}, "fusion_lon": 0.0, "lat": 38.91648516666667, "bike_id": "8e9fa6480cc2919ba34b5f3d3d342b5d", "type": "electric_scooter", "is_reserved": 0, "lon": -77.03149383333333}, {"fusion_lat": 0.0, "name": "f308d5637c55ae1a92a8da7bf1592240", "is_disabled": 0, "rental_uris": {"android": "https://dc.lft.to/lastmile_qr_scan", "ios": "https://dc.lft.to/lastmile_qr_scan"}, "fusion_lon": 0.0, "lat": 38.9029125, "bike_id": "f308d5637c55ae1a92a8da7bf1592240", "type": "electric_scooter", "is_reserved": 0, "lon": -76.97634783333334}, {"fusion_lat": 0.0, "name": "cfc9518daf7d63274b934e604e6c82dc", "is_disabled": 0, "rental_uris": {"android": "https://dc.lft.to/lastmile_qr_scan", "ios": "https://dc.lft.to/lastmile_qr_scan"}, "fusion_lon": 0.0, "lat": 38.92228733333334, "bike_id": "cfc9518daf7d63274b934e604e6c82dc", "type": "electric_scooter", "is_reserved": 0, "lon": -77.01825566666666}, {"fusion_lat": 0.0, "name": "d6dae88bab3a891babd19e0bcdfa18a6", "is_disabled": 0, "rental_uris": {"android": "https://dc.lft.to/lastmile_qr_scan", "ios": "https://dc.lft.to/lastmile_qr_scan"}, "fusion_lon": 0.0, "lat": 38.90938583333333, "bike_id": "d6dae88bab3a891babd19e0bcdfa18a6", "type": "electric_scooter", "is_reserved": 0, "lon": -76.99755566666667}, {"fusion_lat": 0.0, "name": "9af3b100a4289b0c5d35956370e3612f", "is_disabled": 0, "rental_uris": {"android": "https://dc.lft.to/lastmile_qr_scan", "ios": "https://dc.lft.to/lastmile_qr_scan"}, "fusion_lon": 0.0, "lat": 38.893693999999996, "bike_id": "9af3b100a4289b0c5d35956370e3612f", "type": "electric_scooter", "is_reserved": 0, "lon": -77.01969416666667}, {"fusion_lat": 0.0, "name": "b5137fda0f0a59f3cf95db73754d418e", "is_disabled": 0, "rental_uris": {"android": "https://dc.lft.to/lastmile_qr_scan", "ios": "https://dc.lft.to/lastmile_qr_scan"}, "fusion_lon": 0.0, "lat": 38.911037666666665, "bike_id": "b5137fda0f0a59f3cf95db73754d418e", "type": "electric_scooter", "is_reserved": 0, "lon": -77.0422495}, {"fusion_lat": 0.0, "name": "eb1a6f828b9de54363ec4e4b3eabf130", "is_disabled": 0, "rental_uris": {"android": "https://dc.lft.to/lastmile_qr_scan", "ios": "https://dc.lft.to/lastmile_qr_scan"}, "fusion_lon": 0.0, "lat": 38.99775783333333, "bike_id": "eb1a6f828b9de54363ec4e4b3eabf130", "type": "electric_bike", "is_reserved": 0, "lon": -77.0471665}, {"fusion_lat": 0.0, "name": "0a18bccf0e30c31d5e4b2f72ecb84b53", "is_disabled": 0, "rental_uris": {"android": "https://dc.lft.to/lastmile_qr_scan", "ios": "https://dc.lft.to/lastmile_qr_scan"}, "fusion_lon": 0.0, "lat": 38.906371666666665, "bike_id": "0a18bccf0e30c31d5e4b2f72ecb84b53", "type": "electric_scooter", "is_reserved": 0, "lon": -77.031424}, {"fusion_lat": 0.0, "name": "49cb318241847f4a0026eeb7c32fb0a3", "is_disabled": 0, "rental_uris": {"android": "https://dc.lft.to/lastmile_qr_scan", "ios": "https://dc.lft.to/lastmile_qr_scan"}, "fusion_lon": 0.0, "lat": 38.94126583333333, "bike_id": "49cb318241847f4a0026eeb7c32fb0a3", "type": "electric_scooter", "is_reserved": 0, "lon": -77.0264975}, {"fusion_lat": 0.0, "name": "80cbdb2fae03c350b148d91216657d54", "is_disabled": 0, "rental_uris": {"android": "https://dc.lft.to/lastmile_qr_scan", "ios": "https://dc.lft.to/lastmile_qr_scan"}, "fusion_lon": 0.0, "lat": 38.9008785, "bike_id": "80cbdb2fae03c350b148d91216657d54", "type": "electric_scooter", "is_reserved": 0, "lon": -77.058333}, {"fusion_lat": 0.0, "name": "acc53a5636eb5150427c4db5d589d2be", "is_disabled": 0, "rental_uris": {"android": "https://dc.lft.to/lastmile_qr_scan", "ios": "https://dc.lft.to/lastmile_qr_scan"}, "fusion_lon": 0.0, "lat": 38.86624466666667, "bike_id": "acc53a5636eb5150427c4db5d589d2be", "type": "electric_scooter", "is_reserved": 0, "lon": -76.987153}, {"fusion_lat": 0.0, "name": "5ceb2d4818b3bfb716bea34e78dd7534", "is_disabled": 0, "rental_uris": {"android": "https://dc.lft.to/lastmile_qr_scan", "ios": "https://dc.lft.to/lastmile_qr_scan"}, "fusion_lon": 0.0, "lat": 38.92413283333333, "bike_id": "5ceb2d4818b3bfb716bea34e78dd7534", "type": "electric_scooter", "is_reserved": 0, "lon": -77.02012166666667}, {"fusion_lat": 0.0, "name": "12c9acd692622e8cfaef40dc5c5bda9a", "is_disabled": 0, "rental_uris": {"android": "https://dc.lft.to/lastmile_qr_scan", "ios": "https://dc.lft.to/lastmile_qr_scan"}, "fusion_lon": 0.0, "lat": 38.880842, "bike_id": "12c9acd692622e8cfaef40dc5c5bda9a", "type": "electric_scooter", "is_reserved": 0, "lon": -76.99503783333333}, {"fusion_lat": 0.0, "name": "fb7468c6f72649c0582563a2354cb2ef", "is_disabled": 0, "rental_uris": {"android": "https://dc.lft.to/lastmile_qr_scan", "ios": "https://dc.lft.to/lastmile_qr_scan"}, "fusion_lon": 0.0, "lat": 38.9111785, "bike_id": "fb7468c6f72649c0582563a2354cb2ef", "type": "electric_scooter", "is_reserved": 0, "lon": -77.022375}, {"fusion_lat": 0.0, "name": "aa9be0036ab3eafc964845d69b3a2a27", "is_disabled": 0, "rental_uris": {"android": "https://dc.lft.to/lastmile_qr_scan", "ios": "https://dc.lft.to/lastmile_qr_scan"}, "fusion_lon": 0.0, "lat": 38.9444965, "bike_id": "aa9be0036ab3eafc964845d69b3a2a27", "type": "electric_scooter", "is_reserved": 0, "lon": -77.023429}, {"fusion_lat": 0.0, "name": "810b11833942fddebac7e8c3c8b99095", "is_disabled": 0, "rental_uris": {"android": "https://dc.lft.to/lastmile_qr_scan", "ios": "https://dc.lft.to/lastmile_qr_scan"}, "fusion_lon": 0.0, "lat": 38.91105183333333, "bike_id": "810b11833942fddebac7e8c3c8b99095", "type": "electric_scooter", "is_reserved": 0, "lon": -77.01755033333333}, {"fusion_lat": 0.0, "name": "587b30e8b3ce6e96e36a4a96b131895e", "is_disabled": 0, "rental_uris": {"android": "https://dc.lft.to/lastmile_qr_scan", "ios": "https://dc.lft.to/lastmile_qr_scan"}, "fusion_lon": 0.0, "lat": 38.931413, "bike_id": "587b30e8b3ce6e96e36a4a96b131895e", "type": "electric_scooter", "is_reserved": 0, "lon": -77.07850116666667}, {"fusion_lat": 0.0, "name": "65311ec4471b9e15c32532d8dcbd56aa", "is_disabled": 0, "rental_uris": {"android": "https://dc.lft.to/lastmile_qr_scan", "ios": "https://dc.lft.to/lastmile_qr_scan"}, "fusion_lon": 0.0, "lat": 38.902706, "bike_id": "65311ec4471b9e15c32532d8dcbd56aa", "type": "electric_scooter", "is_reserved": 0, "lon": -77.04373233333334}, {"fusion_lat": 0.0, "name": "25765e3c5c2ff9a6a81e028833c1c839", "is_disabled": 0, "rental_uris": {"android": "https://dc.lft.to/lastmile_qr_scan", "ios": "https://dc.lft.to/lastmile_qr_scan"}, "fusion_lon": 0.0, "lat": 38.862636, "bike_id": "25765e3c5c2ff9a6a81e028833c1c839", "type": "electric_bike", "is_reserved": 0, "lon": -76.98350333333333}, {"fusion_lat": 0.0, "name": "e483a02a6fdbbb38461bdb168a38a4c7", "is_disabled": 0, "rental_uris": {"android": "https://dc.lft.to/lastmile_qr_scan", "ios": "https://dc.lft.to/lastmile_qr_scan"}, "fusion_lon": 0.0, "lat": 38.892543, "bike_id": "e483a02a6fdbbb38461bdb168a38a4c7", "type": "electric_scooter", "is_reserved": 0, "lon": -77.04661483333334}, {"fusion_lat": 0.0, "name": "96e41ab0529c08b729a74e1ab8e2bbe0", "is_disabled": 0, "rental_uris": {"android": "https://dc.lft.to/lastmile_qr_scan", "ios": "https://dc.lft.to/lastmile_qr_scan"}, "fusion_lon": 0.0, "lat": 38.92341233333333, "bike_id": "96e41ab0529c08b729a74e1ab8e2bbe0", "type": "electric_scooter", "is_reserved": 0, "lon": -77.03542783333333}, {"fusion_lat": 0.0, "name": "a0ee92de48d1d7314b5bed2383660ff6", "is_disabled": 0, "rental_uris": {"android": "https://dc.lft.to/lastmile_qr_scan", "ios": "https://dc.lft.to/lastmile_qr_scan"}, "fusion_lon": 0.0, "lat": 38.90787366666667, "bike_id": "a0ee92de48d1d7314b5bed2383660ff6", "type": "electric_scooter", "is_reserved": 0, "lon": -77.03193283333333}, {"fusion_lat": 0.0, "name": "75171dcd1ffca5aa41d184d8c2e3b5e1", "is_disabled": 0, "rental_uris": {"android": "https://dc.lft.to/lastmile_qr_scan", "ios": "https://dc.lft.to/lastmile_qr_scan"}, "fusion_lon": 0.0, "lat": 38.94655383333333, "bike_id": "75171dcd1ffca5aa41d184d8c2e3b5e1", "type": "electric_bike", "is_reserved": 0, "lon": -77.00703483333334}, {"fusion_lat": 0.0, "name": "06b2fe903e5fb30a9228c72a8632b67a", "is_disabled": 0, "rental_uris": {"android": "https://dc.lft.to/lastmile_qr_scan", "ios": "https://dc.lft.to/lastmile_qr_scan"}, "fusion_lon": 0.0, "lat": 38.92784833333333, "bike_id": "06b2fe903e5fb30a9228c72a8632b67a", "type": "electric_scooter", "is_reserved": 0, "lon": -76.97969616666667}, {"fusion_lat": 0.0, "name": "e0398422bd3eb51748ee43332c2af253", "is_disabled": 0, "rental_uris": {"android": "https://dc.lft.to/lastmile_qr_scan", "ios": "https://dc.lft.to/lastmile_qr_scan"}, "fusion_lon": 0.0, "lat": 38.9068295, "bike_id": "e0398422bd3eb51748ee43332c2af253", "type": "electric_scooter", "is_reserved": 0, "lon": -77.0237585}, {"fusion_lat": 0.0, "name": "ef2257296f0c3156d8c71878d7f52240", "is_disabled": 0, "rental_uris": {"android": "https://dc.lft.to/lastmile_qr_scan", "ios": "https://dc.lft.to/lastmile_qr_scan"}, "fusion_lon": 0.0, "lat": 38.90060116666667, "bike_id": "ef2257296f0c3156d8c71878d7f52240", "type": "electric_scooter", "is_reserved": 0, "lon": -77.0173435}, {"fusion_lat": 0.0, "name": "2d2c2364e09ac52aea9c237109c6354d", "is_disabled": 0, "rental_uris": {"android": "https://dc.lft.to/lastmile_qr_scan", "ios": "https://dc.lft.to/lastmile_qr_scan"}, "fusion_lon": 0.0, "lat": 38.88620216666666, "bike_id": "2d2c2364e09ac52aea9c237109c6354d", "type": "electric_scooter", "is_reserved": 0, "lon": -77.01996783333334}, {"fusion_lat": 0.0, "name": "f18414c9f33990232ccfa4b726cd9b88", "is_disabled": 0, "rental_uris": {"android": "https://dc.lft.to/lastmile_qr_scan", "ios": "https://dc.lft.to/lastmile_qr_scan"}, "fusion_lon": 0.0, "lat": 38.995250166666665, "bike_id": "f18414c9f33990232ccfa4b726cd9b88", "type": "electric_bike", "is_reserved": 0, "lon": -77.07468333333334}, {"fusion_lat": 0.0, "name": "369a4c6d606db473ed53e9e5f15a6e37", "is_disabled": 0, "rental_uris": {"android": "https://dc.lft.to/lastmile_qr_scan", "ios": "https://dc.lft.to/lastmile_qr_scan"}, "fusion_lon": 0.0, "lat": 38.88386466666667, "bike_id": "369a4c6d606db473ed53e9e5f15a6e37", "type": "electric_scooter", "is_reserved": 0, "lon": -76.996121}, {"fusion_lat": 0.0, "name": "6b7dfb7bfe11cdc5be34bb5315930f04", "is_disabled": 0, "rental_uris": {"android": "https://dc.lft.to/lastmile_qr_scan", "ios": "https://dc.lft.to/lastmile_qr_scan"}, "fusion_lon": 0.0, "lat": 38.92359233333333, "bike_id": "6b7dfb7bfe11cdc5be34bb5315930f04", "type": "electric_scooter", "is_reserved": 0, "lon": -77.0423265}, {"fusion_lat": 0.0, "name": "5c9b2589167485b1f32d1a18987af224", "is_disabled": 0, "rental_uris": {"android": "https://dc.lft.to/lastmile_qr_scan", "ios": "https://dc.lft.to/lastmile_qr_scan"}, "fusion_lon": 0.0, "lat": 38.90695083333333, "bike_id": "5c9b2589167485b1f32d1a18987af224", "type": "electric_scooter", "is_reserved": 0, "lon": -77.04199616666666}, {"fusion_lat": 0.0, "name": "66bdf4ee67e53bbfb6ed22bd2d836e44", "is_disabled": 0, "rental_uris": {"android": "https://dc.lft.to/lastmile_qr_scan", "ios": "https://dc.lft.to/lastmile_qr_scan"}, "fusion_lon": 0.0, "lat": 38.916569, "bike_id": "66bdf4ee67e53bbfb6ed22bd2d836e44", "type": "electric_scooter", "is_reserved": 0, "lon": -77.02822}, {"fusion_lat": 0.0, "name": "f549584f323dd8baf921ad94392a7103", "is_disabled": 0, "rental_uris": {"android": "https://dc.lft.to/lastmile_qr_scan", "ios": "https://dc.lft.to/lastmile_qr_scan"}, "fusion_lon": 0.0, "lat": 38.915573333333334, "bike_id": "f549584f323dd8baf921ad94392a7103", "type": "electric_scooter", "is_reserved": 0, "lon": -77.03241116666666}, {"fusion_lat": 0.0, "name": "b103eaa4ea513dd51818a5c26a9e6de2", "is_disabled": 0, "rental_uris": {"android": "https://dc.lft.to/lastmile_qr_scan", "ios": "https://dc.lft.to/lastmile_qr_scan"}, "fusion_lon": 0.0, "lat": 38.901487, "bike_id": "b103eaa4ea513dd51818a5c26a9e6de2", "type": "electric_scooter", "is_reserved": 0, "lon": -77.0323145}, {"fusion_lat": 0.0, "name": "c0452e9a70fdac1f9116dc3daf8d443d", "is_disabled": 0, "rental_uris": {"android": "https://dc.lft.to/lastmile_qr_scan", "ios": "https://dc.lft.to/lastmile_qr_scan"}, "fusion_lon": 0.0, "lat": 38.904079333333335, "bike_id": "c0452e9a70fdac1f9116dc3daf8d443d", "type": "electric_scooter", "is_reserved": 0, "lon": -76.9733075}, {"fusion_lat": 0.0, "name": "7774e6ea9b32ba664d1bdd36f87d73b9", "is_disabled": 0, "rental_uris": {"android": "https://dc.lft.to/lastmile_qr_scan", "ios": "https://dc.lft.to/lastmile_qr_scan"}, "fusion_lon": 0.0, "lat": 38.901469666666664, "bike_id": "7774e6ea9b32ba664d1bdd36f87d73b9", "type": "electric_scooter", "is_reserved": 0, "lon": -77.03327733333333}, {"fusion_lat": 0.0, "name": "df4b125752fd6fc55496b2d0ba9b93a0", "is_disabled": 0, "rental_uris": {"android": "https://dc.lft.to/lastmile_qr_scan", "ios": "https://dc.lft.to/lastmile_qr_scan"}, "fusion_lon": 0.0, "lat": 38.90562083333333, "bike_id": "df4b125752fd6fc55496b2d0ba9b93a0", "type": "electric_scooter", "is_reserved": 0, "lon": -77.0346165}, {"fusion_lat": 0.0, "name": "e4c8799ac77477beec68ec278530fb2f", "is_disabled": 0, "rental_uris": {"android": "https://dc.lft.to/lastmile_qr_scan", "ios": "https://dc.lft.to/lastmile_qr_scan"}, "fusion_lon": 0.0, "lat": 38.9072775, "bike_id": "e4c8799ac77477beec68ec278530fb2f", "type": "electric_scooter", "is_reserved": 0, "lon": -77.0122525}, {"fusion_lat": 0.0, "name": "c4e825c215fdbc3cf0961428abdf2bb3", "is_disabled": 0, "rental_uris": {"android": "https://dc.lft.to/lastmile_qr_scan", "ios": "https://dc.lft.to/lastmile_qr_scan"}, "fusion_lon": 0.0, "lat": 38.902541166666666, "bike_id": "c4e825c215fdbc3cf0961428abdf2bb3", "type": "electric_scooter", "is_reserved": 0, "lon": -76.97455}, {"fusion_lat": 0.0, "name": "fed1e5296efc8a2d6b95c2361f363f68", "is_disabled": 0, "rental_uris": {"android": "https://dc.lft.to/lastmile_qr_scan", "ios": "https://dc.lft.to/lastmile_qr_scan"}, "fusion_lon": 0.0, "lat": 38.860141666666664, "bike_id": "fed1e5296efc8a2d6b95c2361f363f68", "type": "electric_bike", "is_reserved": 0, "lon": -77.12807266666667}, {"fusion_lat": 0.0, "name": "5f3be4998cd908e18c28a1d8d1d09857", "is_disabled": 0, "rental_uris": {"android": "https://dc.lft.to/lastmile_qr_scan", "ios": "https://dc.lft.to/lastmile_qr_scan"}, "fusion_lon": 0.0, "lat": 38.90394833333333, "bike_id": "5f3be4998cd908e18c28a1d8d1d09857", "type": "electric_scooter", "is_reserved": 0, "lon": -77.02071033333333}, {"fusion_lat": 0.0, "name": "e8835421fc26eb7bdcd49234bac3215b", "is_disabled": 0, "rental_uris": {"android": "https://dc.lft.to/lastmile_qr_scan", "ios": "https://dc.lft.to/lastmile_qr_scan"}, "fusion_lon": 0.0, "lat": 38.95231833333333, "bike_id": "e8835421fc26eb7bdcd49234bac3215b", "type": "electric_scooter", "is_reserved": 0, "lon": -76.990091}, {"fusion_lat": 0.0, "name": "5437091b0bb1704021194fb55ed98c97", "is_disabled": 0, "rental_uris": {"android": "https://dc.lft.to/lastmile_qr_scan", "ios": "https://dc.lft.to/lastmile_qr_scan"}, "fusion_lon": 0.0, "lat": 38.93075866666667, "bike_id": "5437091b0bb1704021194fb55ed98c97", "type": "electric_scooter", "is_reserved": 0, "lon": -77.07769516666667}, {"fusion_lat": 0.0, "name": "66e8104ed14a3aaadb10a173823df970", "is_disabled": 0, "rental_uris": {"android": "https://dc.lft.to/lastmile_qr_scan", "ios": "https://dc.lft.to/lastmile_qr_scan"}, "fusion_lon": 0.0, "lat": 38.922562666666664, "bike_id": "66e8104ed14a3aaadb10a173823df970", "type": "electric_scooter", "is_reserved": 0, "lon": -77.01843266666667}, {"fusion_lat": 0.0, "name": "b51bf7f241c79f29dd36e4a4a21715d8", "is_disabled": 0, "rental_uris": {"android": "https://dc.lft.to/lastmile_qr_scan", "ios": "https://dc.lft.to/lastmile_qr_scan"}, "fusion_lon": 0.0, "lat": 38.93322966666667, "bike_id": "b51bf7f241c79f29dd36e4a4a21715d8", "type": "electric_scooter", "is_reserved": 0, "lon": -77.02761433333333}, {"fusion_lat": 0.0, "name": "0d2d96a1e22953dc101e902051285799", "is_disabled": 0, "rental_uris": {"android": "https://dc.lft.to/lastmile_qr_scan", "ios": "https://dc.lft.to/lastmile_qr_scan"}, "fusion_lon": 0.0, "lat": 38.90029033333333, "bike_id": "0d2d96a1e22953dc101e902051285799", "type": "electric_scooter", "is_reserved": 0, "lon": -77.00027916666667}, {"fusion_lat": 0.0, "name": "faac2d3d230658438716097b575e9c8f", "is_disabled": 0, "rental_uris": {"android": "https://dc.lft.to/lastmile_qr_scan", "ios": "https://dc.lft.to/lastmile_qr_scan"}, "fusion_lon": 0.0, "lat": 38.9160665, "bike_id": "faac2d3d230658438716097b575e9c8f", "type": "electric_scooter", "is_reserved": 0, "lon": -77.03214583333333}, {"fusion_lat": 0.0, "name": "b96e584318ae9069169f66f5d31adcd8", "is_disabled": 0, "rental_uris": {"android": "https://dc.lft.to/lastmile_qr_scan", "ios": "https://dc.lft.to/lastmile_qr_scan"}, "fusion_lon": 0.0, "lat": 38.92870816666667, "bike_id": "b96e584318ae9069169f66f5d31adcd8", "type": "electric_scooter", "is_reserved": 0, "lon": -77.0348165}, {"fusion_lat": 0.0, "name": "0b318f0077c5fb0b763758a9c0cc4376", "is_disabled": 0, "rental_uris": {"android": "https://dc.lft.to/lastmile_qr_scan", "ios": "https://dc.lft.to/lastmile_qr_scan"}, "fusion_lon": 0.0, "lat": 38.920171333333336, "bike_id": "0b318f0077c5fb0b763758a9c0cc4376", "type": "electric_scooter", "is_reserved": 0, "lon": -76.995658}, {"fusion_lat": 0.0, "name": "ef3ec0ad38b704de9916da52ce9d401e", "is_disabled": 0, "rental_uris": {"android": "https://dc.lft.to/lastmile_qr_scan", "ios": "https://dc.lft.to/lastmile_qr_scan"}, "fusion_lon": 0.0, "lat": 38.92089416666666, "bike_id": "ef3ec0ad38b704de9916da52ce9d401e", "type": "electric_scooter", "is_reserved": 0, "lon": -77.025011}, {"fusion_lat": 0.0, "name": "242cbdf4ebe113c4b2777c8ee0ab19c6", "is_disabled": 0, "rental_uris": {"android": "https://dc.lft.to/lastmile_qr_scan", "ios": "https://dc.lft.to/lastmile_qr_scan"}, "fusion_lon": 0.0, "lat": 38.900255666666666, "bike_id": "242cbdf4ebe113c4b2777c8ee0ab19c6", "type": "electric_scooter", "is_reserved": 0, "lon": -76.99558866666666}, {"fusion_lat": 0.0, "name": "28dab5578887c54eac2628fc1a7247e3", "is_disabled": 0, "rental_uris": {"android": "https://dc.lft.to/lastmile_qr_scan", "ios": "https://dc.lft.to/lastmile_qr_scan"}, "fusion_lon": 0.0, "lat": 38.905079, "bike_id": "28dab5578887c54eac2628fc1a7247e3", "type": "electric_scooter", "is_reserved": 0, "lon": -77.02947233333333}, {"fusion_lat": 0.0, "name": "67505d6a1e1a06a9514730829024fd5d", "is_disabled": 0, "rental_uris": {"android": "https://dc.lft.to/lastmile_qr_scan", "ios": "https://dc.lft.to/lastmile_qr_scan"}, "fusion_lon": 0.0, "lat": 38.92871, "bike_id": "67505d6a1e1a06a9514730829024fd5d", "type": "electric_scooter", "is_reserved": 0, "lon": -77.03793316666666}, {"fusion_lat": 0.0, "name": "6c4f128cea96b8bfd079c0952779627a", "is_disabled": 0, "rental_uris": {"android": "https://dc.lft.to/lastmile_qr_scan", "ios": "https://dc.lft.to/lastmile_qr_scan"}, "fusion_lon": 0.0, "lat": 38.9210405, "bike_id": "6c4f128cea96b8bfd079c0952779627a", "type": "electric_scooter", "is_reserved": 0, "lon": -77.0747635}, {"fusion_lat": 0.0, "name": "515cc089f62072d930940a964d312c86", "is_disabled": 0, "rental_uris": {"android": "https://dc.lft.to/lastmile_qr_scan", "ios": "https://dc.lft.to/lastmile_qr_scan"}, "fusion_lon": 0.0, "lat": 38.87386866666667, "bike_id": "515cc089f62072d930940a964d312c86", "type": "electric_scooter", "is_reserved": 0, "lon": -77.000281}, {"fusion_lat": 0.0, "name": "d12b0ccaf845489a031ca2686a7a06d6", "is_disabled": 0, "rental_uris": {"android": "https://dc.lft.to/lastmile_qr_scan", "ios": "https://dc.lft.to/lastmile_qr_scan"}, "fusion_lon": 0.0, "lat": 38.94404466666667, "bike_id": "d12b0ccaf845489a031ca2686a7a06d6", "type": "electric_scooter", "is_reserved": 0, "lon": -77.03625816666667}, {"fusion_lat": 0.0, "name": "3efe664c4bfd7d8f74f90c5eb9af47ef", "is_disabled": 0, "rental_uris": {"android": "https://dc.lft.to/lastmile_qr_scan", "ios": "https://dc.lft.to/lastmile_qr_scan"}, "fusion_lon": 0.0, "lat": 38.91707233333333, "bike_id": "3efe664c4bfd7d8f74f90c5eb9af47ef", "type": "electric_scooter", "is_reserved": 0, "lon": -77.00113366666666}, {"fusion_lat": 0.0, "name": "41c66fbdb5e3dcc96a0caaeb0e9d3aec", "is_disabled": 0, "rental_uris": {"android": "https://dc.lft.to/lastmile_qr_scan", "ios": "https://dc.lft.to/lastmile_qr_scan"}, "fusion_lon": 0.0, "lat": 38.8861155, "bike_id": "41c66fbdb5e3dcc96a0caaeb0e9d3aec", "type": "electric_scooter", "is_reserved": 0, "lon": -77.01559916666666}, {"fusion_lat": 0.0, "name": "4023f8b96235e2ff74d30a61c2141641", "is_disabled": 0, "rental_uris": {"android": "https://dc.lft.to/lastmile_qr_scan", "ios": "https://dc.lft.to/lastmile_qr_scan"}, "fusion_lon": 0.0, "lat": 38.887348, "bike_id": "4023f8b96235e2ff74d30a61c2141641", "type": "electric_scooter", "is_reserved": 0, "lon": -76.99487516666667}, {"fusion_lat": 0.0, "name": "6fd267a43891c5dafa7aa3762481d9bb", "is_disabled": 0, "rental_uris": {"android": "https://dc.lft.to/lastmile_qr_scan", "ios": "https://dc.lft.to/lastmile_qr_scan"}, "fusion_lon": 0.0, "lat": 38.92342266666667, "bike_id": "6fd267a43891c5dafa7aa3762481d9bb", "type": "electric_scooter", "is_reserved": 0, "lon": -77.03540683333334}, {"fusion_lat": 0.0, "name": "0c3d7bb94186f94724bb8dac189ebd3b", "is_disabled": 0, "rental_uris": {"android": "https://dc.lft.to/lastmile_qr_scan", "ios": "https://dc.lft.to/lastmile_qr_scan"}, "fusion_lon": 0.0, "lat": 38.881430333333334, "bike_id": "0c3d7bb94186f94724bb8dac189ebd3b", "type": "electric_scooter", "is_reserved": 0, "lon": -77.02708466666667}, {"fusion_lat": 0.0, "name": "43a8e88822eb4834bff4dc023f7e6dc4", "is_disabled": 0, "rental_uris": {"android": "https://dc.lft.to/lastmile_qr_scan", "ios": "https://dc.lft.to/lastmile_qr_scan"}, "fusion_lon": 0.0, "lat": 38.92848716666666, "bike_id": "43a8e88822eb4834bff4dc023f7e6dc4", "type": "electric_scooter", "is_reserved": 0, "lon": -77.02439116666666}, {"fusion_lat": 0.0, "name": "f4530ed6dba4e532bb7b9f9dde58f8af", "is_disabled": 0, "rental_uris": {"android": "https://dc.lft.to/lastmile_qr_scan", "ios": "https://dc.lft.to/lastmile_qr_scan"}, "fusion_lon": 0.0, "lat": 38.921329166666666, "bike_id": "f4530ed6dba4e532bb7b9f9dde58f8af", "type": "electric_scooter", "is_reserved": 0, "lon": -77.00959816666666}, {"fusion_lat": 0.0, "name": "bfd377ef4c4a17913c39a3787a29594e", "is_disabled": 0, "rental_uris": {"android": "https://dc.lft.to/lastmile_qr_scan", "ios": "https://dc.lft.to/lastmile_qr_scan"}, "fusion_lon": 0.0, "lat": 38.90072716666667, "bike_id": "bfd377ef4c4a17913c39a3787a29594e", "type": "electric_scooter", "is_reserved": 0, "lon": -77.026164}, {"fusion_lat": 0.0, "name": "27d9f74c803e0acaf34f6354b2999a0a", "is_disabled": 0, "rental_uris": {"android": "https://dc.lft.to/lastmile_qr_scan", "ios": "https://dc.lft.to/lastmile_qr_scan"}, "fusion_lon": 0.0, "lat": 38.887678666666666, "bike_id": "27d9f74c803e0acaf34f6354b2999a0a", "type": "electric_scooter", "is_reserved": 0, "lon": -76.977503}, {"fusion_lat": 0.0, "name": "c915c8be782ac00974545c5be11e13ff", "is_disabled": 0, "rental_uris": {"android": "https://dc.lft.to/lastmile_qr_scan", "ios": "https://dc.lft.to/lastmile_qr_scan"}, "fusion_lon": 0.0, "lat": 38.910134666666664, "bike_id": "c915c8be782ac00974545c5be11e13ff", "type": "electric_scooter", "is_reserved": 0, "lon": -77.03854633333333}, {"fusion_lat": 0.0, "name": "b8b1e7d1f75adec1a6a1f43c9e4f4015", "is_disabled": 0, "rental_uris": {"android": "https://dc.lft.to/lastmile_qr_scan", "ios": "https://dc.lft.to/lastmile_qr_scan"}, "fusion_lon": 0.0, "lat": 38.873710333333335, "bike_id": "b8b1e7d1f75adec1a6a1f43c9e4f4015", "type": "electric_scooter", "is_reserved": 0, "lon": -77.000881}, {"fusion_lat": 0.0, "name": "4eea36cac525e56f3b8ef25f2d2893a1", "is_disabled": 0, "rental_uris": {"android": "https://dc.lft.to/lastmile_qr_scan", "ios": "https://dc.lft.to/lastmile_qr_scan"}, "fusion_lon": 0.0, "lat": 38.924664666666665, "bike_id": "4eea36cac525e56f3b8ef25f2d2893a1", "type": "electric_scooter", "is_reserved": 0, "lon": -77.0311395}, {"fusion_lat": 0.0, "name": "80ad15c1f4a2dd0ee7b1751d52e6ac4e", "is_disabled": 0, "rental_uris": {"android": "https://dc.lft.to/lastmile_qr_scan", "ios": "https://dc.lft.to/lastmile_qr_scan"}, "fusion_lon": 0.0, "lat": 38.8546385, "bike_id": "80ad15c1f4a2dd0ee7b1751d52e6ac4e", "type": "electric_scooter", "is_reserved": 0, "lon": -76.97223633333333}, {"fusion_lat": 0.0, "name": "84869da8a5ef1e1df089bd50abc0ff27", "is_disabled": 0, "rental_uris": {"android": "https://dc.lft.to/lastmile_qr_scan", "ios": "https://dc.lft.to/lastmile_qr_scan"}, "fusion_lon": 0.0, "lat": 38.90972766666667, "bike_id": "84869da8a5ef1e1df089bd50abc0ff27", "type": "electric_scooter", "is_reserved": 0, "lon": -77.00896966666667}, {"fusion_lat": 0.0, "name": "015cea5d63c5dc121e5c375868ce04fe", "is_disabled": 0, "rental_uris": {"android": "https://dc.lft.to/lastmile_qr_scan", "ios": "https://dc.lft.to/lastmile_qr_scan"}, "fusion_lon": 0.0, "lat": 38.892316666666666, "bike_id": "015cea5d63c5dc121e5c375868ce04fe", "type": "electric_scooter", "is_reserved": 0, "lon": -77.01713016666666}, {"fusion_lat": 0.0, "name": "c43af0ca207b97718c21c3ad41316740", "is_disabled": 0, "rental_uris": {"android": "https://dc.lft.to/lastmile_qr_scan", "ios": "https://dc.lft.to/lastmile_qr_scan"}, "fusion_lon": 0.0, "lat": 38.908627, "bike_id": "c43af0ca207b97718c21c3ad41316740", "type": "electric_scooter", "is_reserved": 0, "lon": -77.00397866666667}, {"fusion_lat": 0.0, "name": "ab81de137dc1940f3718dfe692b26fc9", "is_disabled": 0, "rental_uris": {"android": "https://dc.lft.to/lastmile_qr_scan", "ios": "https://dc.lft.to/lastmile_qr_scan"}, "fusion_lon": 0.0, "lat": 38.831569, "bike_id": "ab81de137dc1940f3718dfe692b26fc9", "type": "electric_bike", "is_reserved": 0, "lon": -76.995785}, {"fusion_lat": 0.0, "name": "87fa00a0f8518c1b098d51d1de208dbf", "is_disabled": 0, "rental_uris": {"android": "https://dc.lft.to/lastmile_qr_scan", "ios": "https://dc.lft.to/lastmile_qr_scan"}, "fusion_lon": 0.0, "lat": 38.92257166666667, "bike_id": "87fa00a0f8518c1b098d51d1de208dbf", "type": "electric_scooter", "is_reserved": 0, "lon": -77.00914233333333}, {"fusion_lat": 0.0, "name": "b85c2c85988a20f92c5a5bb893257e63", "is_disabled": 0, "rental_uris": {"android": "https://dc.lft.to/lastmile_qr_scan", "ios": "https://dc.lft.to/lastmile_qr_scan"}, "fusion_lon": 0.0, "lat": 38.93309683333333, "bike_id": "b85c2c85988a20f92c5a5bb893257e63", "type": "electric_scooter", "is_reserved": 0, "lon": -77.03259783333333}, {"fusion_lat": 0.0, "name": "329d3b7a083be9d0d1f211dce65a1282", "is_disabled": 0, "rental_uris": {"android": "https://dc.lft.to/lastmile_qr_scan", "ios": "https://dc.lft.to/lastmile_qr_scan"}, "fusion_lon": 0.0, "lat": 38.876970666666665, "bike_id": "329d3b7a083be9d0d1f211dce65a1282", "type": "electric_scooter", "is_reserved": 0, "lon": -77.0041855}, {"fusion_lat": 0.0, "name": "369b9247e709f82a62695e7f667db41c", "is_disabled": 0, "rental_uris": {"android": "https://dc.lft.to/lastmile_qr_scan", "ios": "https://dc.lft.to/lastmile_qr_scan"}, "fusion_lon": 0.0, "lat": 38.9317255, "bike_id": "369b9247e709f82a62695e7f667db41c", "type": "electric_scooter", "is_reserved": 0, "lon": -77.03786183333334}, {"fusion_lat": 0.0, "name": "fd4ee814a0087af172b1a0bae0d5347f", "is_disabled": 0, "rental_uris": {"android": "https://dc.lft.to/lastmile_qr_scan", "ios": "https://dc.lft.to/lastmile_qr_scan"}, "fusion_lon": 0.0, "lat": 38.916938333333334, "bike_id": "fd4ee814a0087af172b1a0bae0d5347f", "type": "electric_scooter", "is_reserved": 0, "lon": -77.03123316666667}, {"fusion_lat": 0.0, "name": "7cfd35506f866ab454193972632761d9", "is_disabled": 0, "rental_uris": {"android": "https://dc.lft.to/lastmile_qr_scan", "ios": "https://dc.lft.to/lastmile_qr_scan"}, "fusion_lon": 0.0, "lat": 38.96677583333334, "bike_id": "7cfd35506f866ab454193972632761d9", "type": "electric_bike", "is_reserved": 0, "lon": -77.02306666666667}, {"fusion_lat": 0.0, "name": "5d906df24247363269572c0ba821a724", "is_disabled": 0, "rental_uris": {"android": "https://dc.lft.to/lastmile_qr_scan", "ios": "https://dc.lft.to/lastmile_qr_scan"}, "fusion_lon": 0.0, "lat": 38.9098615, "bike_id": "5d906df24247363269572c0ba821a724", "type": "electric_scooter", "is_reserved": 0, "lon": -77.0337515}, {"fusion_lat": 0.0, "name": "24f8de1d5a4d30e5c85e20d35174bca8", "is_disabled": 0, "rental_uris": {"android": "https://dc.lft.to/lastmile_qr_scan", "ios": "https://dc.lft.to/lastmile_qr_scan"}, "fusion_lon": 0.0, "lat": 38.91691866666667, "bike_id": "24f8de1d5a4d30e5c85e20d35174bca8", "type": "electric_scooter", "is_reserved": 0, "lon": -77.035083}, {"fusion_lat": 0.0, "name": "b95fc0038bc418d4b39c8e86bff7dd80", "is_disabled": 0, "rental_uris": {"android": "https://dc.lft.to/lastmile_qr_scan", "ios": "https://dc.lft.to/lastmile_qr_scan"}, "fusion_lon": 0.0, "lat": 38.92009083333333, "bike_id": "b95fc0038bc418d4b39c8e86bff7dd80", "type": "electric_scooter", "is_reserved": 0, "lon": -77.02197666666666}, {"fusion_lat": 0.0, "name": "ebaa4e209d871bb3d4e42908a81d29f6", "is_disabled": 0, "rental_uris": {"android": "https://dc.lft.to/lastmile_qr_scan", "ios": "https://dc.lft.to/lastmile_qr_scan"}, "fusion_lon": 0.0, "lat": 38.90523266666667, "bike_id": "ebaa4e209d871bb3d4e42908a81d29f6", "type": "electric_scooter", "is_reserved": 0, "lon": -77.04672183333334}, {"fusion_lat": 0.0, "name": "2b3d265bcbc0268bb435fcefeb4ee670", "is_disabled": 0, "rental_uris": {"android": "https://dc.lft.to/lastmile_qr_scan", "ios": "https://dc.lft.to/lastmile_qr_scan"}, "fusion_lon": 0.0, "lat": 38.88512266666667, "bike_id": "2b3d265bcbc0268bb435fcefeb4ee670", "type": "electric_scooter", "is_reserved": 0, "lon": -77.01116033333334}, {"fusion_lat": 0.0, "name": "74a871c4c94fa683e9aa876a1cd95c79", "is_disabled": 0, "rental_uris": {"android": "https://dc.lft.to/lastmile_qr_scan", "ios": "https://dc.lft.to/lastmile_qr_scan"}, "fusion_lon": 0.0, "lat": 38.904344, "bike_id": "74a871c4c94fa683e9aa876a1cd95c79", "type": "electric_scooter", "is_reserved": 0, "lon": -77.0251215}, {"fusion_lat": 0.0, "name": "c631137832389096683d9ce339428c9c", "is_disabled": 0, "rental_uris": {"android": "https://dc.lft.to/lastmile_qr_scan", "ios": "https://dc.lft.to/lastmile_qr_scan"}, "fusion_lon": 0.0, "lat": 38.914356, "bike_id": "c631137832389096683d9ce339428c9c", "type": "electric_scooter", "is_reserved": 0, "lon": -76.9935585}, {"fusion_lat": 0.0, "name": "74691d2b2946a957648d60d91ecd1340", "is_disabled": 0, "rental_uris": {"android": "https://dc.lft.to/lastmile_qr_scan", "ios": "https://dc.lft.to/lastmile_qr_scan"}, "fusion_lon": 0.0, "lat": 38.929574833333334, "bike_id": "74691d2b2946a957648d60d91ecd1340", "type": "electric_scooter", "is_reserved": 0, "lon": -76.991749}, {"fusion_lat": 0.0, "name": "cf796537cce88f60e9901f4cf4b9b6a7", "is_disabled": 0, "rental_uris": {"android": "https://dc.lft.to/lastmile_qr_scan", "ios": "https://dc.lft.to/lastmile_qr_scan"}, "fusion_lon": 0.0, "lat": 38.900628166666664, "bike_id": "cf796537cce88f60e9901f4cf4b9b6a7", "type": "electric_scooter", "is_reserved": 0, "lon": -77.0350865}, {"fusion_lat": 0.0, "name": "6a94677092db9f6e6e69767a4d90d45d", "is_disabled": 0, "rental_uris": {"android": "https://dc.lft.to/lastmile_qr_scan", "ios": "https://dc.lft.to/lastmile_qr_scan"}, "fusion_lon": 0.0, "lat": 38.91419533333333, "bike_id": "6a94677092db9f6e6e69767a4d90d45d", "type": "electric_scooter", "is_reserved": 0, "lon": -77.03171533333334}, {"fusion_lat": 0.0, "name": "42ecfac294de21601df7f01f74d50fc5", "is_disabled": 0, "rental_uris": {"android": "https://dc.lft.to/lastmile_qr_scan", "ios": "https://dc.lft.to/lastmile_qr_scan"}, "fusion_lon": 0.0, "lat": 38.88230816666667, "bike_id": "42ecfac294de21601df7f01f74d50fc5", "type": "electric_scooter", "is_reserved": 0, "lon": -77.02617716666667}, {"fusion_lat": 0.0, "name": "768e1e6d7d60f124dddc07207b8f535f", "is_disabled": 0, "rental_uris": {"android": "https://dc.lft.to/lastmile_qr_scan", "ios": "https://dc.lft.to/lastmile_qr_scan"}, "fusion_lon": 0.0, "lat": 38.92057166666667, "bike_id": "768e1e6d7d60f124dddc07207b8f535f", "type": "electric_scooter", "is_reserved": 0, "lon": -77.02351116666667}, {"fusion_lat": 0.0, "name": "6f2087385d0cafc2e9d93a41fe22f0e7", "is_disabled": 0, "rental_uris": {"android": "https://dc.lft.to/lastmile_qr_scan", "ios": "https://dc.lft.to/lastmile_qr_scan"}, "fusion_lon": 0.0, "lat": 38.93474483333333, "bike_id": "6f2087385d0cafc2e9d93a41fe22f0e7", "type": "electric_scooter", "is_reserved": 0, "lon": -77.0285735}, {"fusion_lat": 0.0, "name": "74f8fdcafd038669c75b79777afdab54", "is_disabled": 0, "rental_uris": {"android": "https://dc.lft.to/lastmile_qr_scan", "ios": "https://dc.lft.to/lastmile_qr_scan"}, "fusion_lon": 0.0, "lat": 38.874588333333335, "bike_id": "74f8fdcafd038669c75b79777afdab54", "type": "electric_scooter", "is_reserved": 0, "lon": -77.009628}, {"fusion_lat": 0.0, "name": "31d4df98bb2c12846a6eaeac2650e552", "is_disabled": 0, "rental_uris": {"android": "https://dc.lft.to/lastmile_qr_scan", "ios": "https://dc.lft.to/lastmile_qr_scan"}, "fusion_lon": 0.0, "lat": 38.914236, "bike_id": "31d4df98bb2c12846a6eaeac2650e552", "type": "electric_scooter", "is_reserved": 0, "lon": -77.06422633333334}, {"fusion_lat": 0.0, "name": "7561873c3b34769973b4ea994f8b7470", "is_disabled": 0, "rental_uris": {"android": "https://dc.lft.to/lastmile_qr_scan", "ios": "https://dc.lft.to/lastmile_qr_scan"}, "fusion_lon": 0.0, "lat": 38.90953916666667, "bike_id": "7561873c3b34769973b4ea994f8b7470", "type": "electric_scooter", "is_reserved": 0, "lon": -77.04108483333333}, {"fusion_lat": 0.0, "name": "e976f03e92464875f66b047c3e725df7", "is_disabled": 0, "rental_uris": {"android": "https://dc.lft.to/lastmile_qr_scan", "ios": "https://dc.lft.to/lastmile_qr_scan"}, "fusion_lon": 0.0, "lat": 38.919424166666666, "bike_id": "e976f03e92464875f66b047c3e725df7", "type": "electric_scooter", "is_reserved": 0, "lon": -77.02495066666667}, {"fusion_lat": 0.0, "name": "63b5a1f8a490d8715474dca9aec57793", "is_disabled": 0, "rental_uris": {"android": "https://dc.lft.to/lastmile_qr_scan", "ios": "https://dc.lft.to/lastmile_qr_scan"}, "fusion_lon": 0.0, "lat": 38.89875883333333, "bike_id": "63b5a1f8a490d8715474dca9aec57793", "type": "electric_scooter", "is_reserved": 0, "lon": -76.93183266666666}, {"fusion_lat": 0.0, "name": "05bd71e67d1cdf98782340d381da3e90", "is_disabled": 0, "rental_uris": {"android": "https://dc.lft.to/lastmile_qr_scan", "ios": "https://dc.lft.to/lastmile_qr_scan"}, "fusion_lon": 0.0, "lat": 38.905839, "bike_id": "05bd71e67d1cdf98782340d381da3e90", "type": "electric_scooter", "is_reserved": 0, "lon": -77.04382516666666}, {"fusion_lat": 0.0, "name": "6127696019e264ae3c450f4ff6e531dc", "is_disabled": 0, "rental_uris": {"android": "https://dc.lft.to/lastmile_qr_scan", "ios": "https://dc.lft.to/lastmile_qr_scan"}, "fusion_lon": 0.0, "lat": 39.05632833333333, "bike_id": "6127696019e264ae3c450f4ff6e531dc", "type": "electric_bike", "is_reserved": 0, "lon": -77.12525833333333}, {"fusion_lat": 0.0, "name": "794627094473283a003f6c1e0cf1eb8b", "is_disabled": 0, "rental_uris": {"android": "https://dc.lft.to/lastmile_qr_scan", "ios": "https://dc.lft.to/lastmile_qr_scan"}, "fusion_lon": 0.0, "lat": 38.905016833333335, "bike_id": "794627094473283a003f6c1e0cf1eb8b", "type": "electric_scooter", "is_reserved": 0, "lon": -77.02957283333333}, {"fusion_lat": 0.0, "name": "0837434f452ebef7dd0fdc7972109d2e", "is_disabled": 0, "rental_uris": {"android": "https://dc.lft.to/lastmile_qr_scan", "ios": "https://dc.lft.to/lastmile_qr_scan"}, "fusion_lon": 0.0, "lat": 38.91950416666667, "bike_id": "0837434f452ebef7dd0fdc7972109d2e", "type": "electric_scooter", "is_reserved": 0, "lon": -77.01778283333333}, {"fusion_lat": 0.0, "name": "95c6f09bb21e0180bd19c0bd519ba677", "is_disabled": 0, "rental_uris": {"android": "https://dc.lft.to/lastmile_qr_scan", "ios": "https://dc.lft.to/lastmile_qr_scan"}, "fusion_lon": 0.0, "lat": 38.890023666666664, "bike_id": "95c6f09bb21e0180bd19c0bd519ba677", "type": "electric_scooter", "is_reserved": 0, "lon": -76.93743216666667}, {"fusion_lat": 0.0, "name": "e8601a553a137bc23aaeb780a3159ca1", "is_disabled": 0, "rental_uris": {"android": "https://dc.lft.to/lastmile_qr_scan", "ios": "https://dc.lft.to/lastmile_qr_scan"}, "fusion_lon": 0.0, "lat": 38.923986666666664, "bike_id": "e8601a553a137bc23aaeb780a3159ca1", "type": "electric_scooter", "is_reserved": 0, "lon": -77.02413433333334}, {"fusion_lat": 0.0, "name": "5c5d9d26e9f4e213b319994e55da5e1a", "is_disabled": 0, "rental_uris": {"android": "https://dc.lft.to/lastmile_qr_scan", "ios": "https://dc.lft.to/lastmile_qr_scan"}, "fusion_lon": 0.0, "lat": 38.91658016666667, "bike_id": "5c5d9d26e9f4e213b319994e55da5e1a", "type": "electric_scooter", "is_reserved": 0, "lon": -77.04383683333333}, {"fusion_lat": 0.0, "name": "cd34286406d022fe69ecbc2daa3b5477", "is_disabled": 0, "rental_uris": {"android": "https://dc.lft.to/lastmile_qr_scan", "ios": "https://dc.lft.to/lastmile_qr_scan"}, "fusion_lon": 0.0, "lat": 38.930594, "bike_id": "cd34286406d022fe69ecbc2daa3b5477", "type": "electric_scooter", "is_reserved": 0, "lon": -77.03162366666666}, {"fusion_lat": 0.0, "name": "8190779debb2e6b572993005d77d6cef", "is_disabled": 0, "rental_uris": {"android": "https://dc.lft.to/lastmile_qr_scan", "ios": "https://dc.lft.to/lastmile_qr_scan"}, "fusion_lon": 0.0, "lat": 38.9169475, "bike_id": "8190779debb2e6b572993005d77d6cef", "type": "electric_scooter", "is_reserved": 0, "lon": -77.0359235}, {"fusion_lat": 0.0, "name": "e9c9a73df728bcb1d155ad6e12aa70e1", "is_disabled": 0, "rental_uris": {"android": "https://dc.lft.to/lastmile_qr_scan", "ios": "https://dc.lft.to/lastmile_qr_scan"}, "fusion_lon": 0.0, "lat": 38.914048, "bike_id": "e9c9a73df728bcb1d155ad6e12aa70e1", "type": "electric_scooter", "is_reserved": 0, "lon": -77.03229216666666}, {"fusion_lat": 0.0, "name": "d4e660035cfa30c80bd9090a2685589a", "is_disabled": 0, "rental_uris": {"android": "https://dc.lft.to/lastmile_qr_scan", "ios": "https://dc.lft.to/lastmile_qr_scan"}, "fusion_lon": 0.0, "lat": 38.91614383333334, "bike_id": "d4e660035cfa30c80bd9090a2685589a", "type": "electric_scooter", "is_reserved": 0, "lon": -77.02959816666667}, {"fusion_lat": 0.0, "name": "139ce8a1f736fcac018286cd14b50277", "is_disabled": 0, "rental_uris": {"android": "https://dc.lft.to/lastmile_qr_scan", "ios": "https://dc.lft.to/lastmile_qr_scan"}, "fusion_lon": 0.0, "lat": 38.898519666666665, "bike_id": "139ce8a1f736fcac018286cd14b50277", "type": "electric_scooter", "is_reserved": 0, "lon": -77.0301225}, {"fusion_lat": 0.0, "name": "24cc5f31686b53ddd78b6fdfc397caec", "is_disabled": 0, "rental_uris": {"android": "https://dc.lft.to/lastmile_qr_scan", "ios": "https://dc.lft.to/lastmile_qr_scan"}, "fusion_lon": 0.0, "lat": 38.9045295, "bike_id": "24cc5f31686b53ddd78b6fdfc397caec", "type": "electric_scooter", "is_reserved": 0, "lon": -77.03364716666667}, {"fusion_lat": 0.0, "name": "bc9f68699ee8f1b051342ccaa6fa48c3", "is_disabled": 0, "rental_uris": {"android": "https://dc.lft.to/lastmile_qr_scan", "ios": "https://dc.lft.to/lastmile_qr_scan"}, "fusion_lon": 0.0, "lat": 38.91363616666667, "bike_id": "bc9f68699ee8f1b051342ccaa6fa48c3", "type": "electric_scooter", "is_reserved": 0, "lon": -77.0487645}, {"fusion_lat": 0.0, "name": "a1040f52b0f2dd4eafdae52a58742e8e", "is_disabled": 0, "rental_uris": {"android": "https://dc.lft.to/lastmile_qr_scan", "ios": "https://dc.lft.to/lastmile_qr_scan"}, "fusion_lon": 0.0, "lat": 38.912526, "bike_id": "a1040f52b0f2dd4eafdae52a58742e8e", "type": "electric_scooter", "is_reserved": 0, "lon": -77.04924166666666}, {"fusion_lat": 0.0, "name": "f362f888a11d64421ff36e21726cf520", "is_disabled": 0, "rental_uris": {"android": "https://dc.lft.to/lastmile_qr_scan", "ios": "https://dc.lft.to/lastmile_qr_scan"}, "fusion_lon": 0.0, "lat": 38.956375, "bike_id": "f362f888a11d64421ff36e21726cf520", "type": "electric_scooter", "is_reserved": 0, "lon": -77.03305433333334}, {"fusion_lat": 0.0, "name": "4b1364eda33013e427f404ccc716ce6e", "is_disabled": 0, "rental_uris": {"android": "https://dc.lft.to/lastmile_qr_scan", "ios": "https://dc.lft.to/lastmile_qr_scan"}, "fusion_lon": 0.0, "lat": 38.91527166666667, "bike_id": "4b1364eda33013e427f404ccc716ce6e", "type": "electric_scooter", "is_reserved": 0, "lon": -77.04157866666667}, {"fusion_lat": 0.0, "name": "f2379716218e6f6a753645d5d9b35194", "is_disabled": 0, "rental_uris": {"android": "https://dc.lft.to/lastmile_qr_scan", "ios": "https://dc.lft.to/lastmile_qr_scan"}, "fusion_lon": 0.0, "lat": 38.91459366666667, "bike_id": "f2379716218e6f6a753645d5d9b35194", "type": "electric_scooter", "is_reserved": 0, "lon": -77.00211283333333}, {"fusion_lat": 0.0, "name": "50e4f5621c7d86f47add5797bc945df4", "is_disabled": 0, "rental_uris": {"android": "https://dc.lft.to/lastmile_qr_scan", "ios": "https://dc.lft.to/lastmile_qr_scan"}, "fusion_lon": 0.0, "lat": 38.9307835, "bike_id": "50e4f5621c7d86f47add5797bc945df4", "type": "electric_scooter", "is_reserved": 0, "lon": -77.03162633333334}, {"fusion_lat": 0.0, "name": "8c2001536b4a87a303ff56ccde458975", "is_disabled": 0, "rental_uris": {"android": "https://dc.lft.to/lastmile_qr_scan", "ios": "https://dc.lft.to/lastmile_qr_scan"}, "fusion_lon": 0.0, "lat": 38.90230916666667, "bike_id": "8c2001536b4a87a303ff56ccde458975", "type": "electric_scooter", "is_reserved": 0, "lon": -77.02356466666667}, {"fusion_lat": 0.0, "name": "fe837da398aec06c552b19cbac629ba6", "is_disabled": 0, "rental_uris": {"android": "https://dc.lft.to/lastmile_qr_scan", "ios": "https://dc.lft.to/lastmile_qr_scan"}, "fusion_lon": 0.0, "lat": 38.91009416666667, "bike_id": "fe837da398aec06c552b19cbac629ba6", "type": "electric_scooter", "is_reserved": 0, "lon": -77.038567}, {"fusion_lat": 0.0, "name": "29dec022292e1c3a7d536cc1a52a2fa4", "is_disabled": 0, "rental_uris": {"android": "https://dc.lft.to/lastmile_qr_scan", "ios": "https://dc.lft.to/lastmile_qr_scan"}, "fusion_lon": 0.0, "lat": 38.938994666666666, "bike_id": "29dec022292e1c3a7d536cc1a52a2fa4", "type": "electric_scooter", "is_reserved": 0, "lon": -77.03326933333334}, {"fusion_lat": 0.0, "name": "3bc8669869be71de2447d2625aa6d68b", "is_disabled": 0, "rental_uris": {"android": "https://dc.lft.to/lastmile_qr_scan", "ios": "https://dc.lft.to/lastmile_qr_scan"}, "fusion_lon": 0.0, "lat": 38.925023833333334, "bike_id": "3bc8669869be71de2447d2625aa6d68b", "type": "electric_scooter", "is_reserved": 0, "lon": -77.02167783333333}, {"fusion_lat": 0.0, "name": "d1227316f1470f5933130a9f65feea59", "is_disabled": 0, "rental_uris": {"android": "https://dc.lft.to/lastmile_qr_scan", "ios": "https://dc.lft.to/lastmile_qr_scan"}, "fusion_lon": 0.0, "lat": 38.909138666666664, "bike_id": "d1227316f1470f5933130a9f65feea59", "type": "electric_scooter", "is_reserved": 0, "lon": -77.03844433333333}, {"fusion_lat": 0.0, "name": "34e0af0568d3739e6187a742e72d46d1", "is_disabled": 0, "rental_uris": {"android": "https://dc.lft.to/lastmile_qr_scan", "ios": "https://dc.lft.to/lastmile_qr_scan"}, "fusion_lon": 0.0, "lat": 38.8765685, "bike_id": "34e0af0568d3739e6187a742e72d46d1", "type": "electric_scooter", "is_reserved": 0, "lon": -77.00920883333333}, {"fusion_lat": 0.0, "name": "0c6c3964117d57c2db6901489c419234", "is_disabled": 0, "rental_uris": {"android": "https://dc.lft.to/lastmile_qr_scan", "ios": "https://dc.lft.to/lastmile_qr_scan"}, "fusion_lon": 0.0, "lat": 38.901390166666665, "bike_id": "0c6c3964117d57c2db6901489c419234", "type": "electric_scooter", "is_reserved": 0, "lon": -77.00071966666667}, {"fusion_lat": 0.0, "name": "bb36013843fb64585873c5d099d7b182", "is_disabled": 0, "rental_uris": {"android": "https://dc.lft.to/lastmile_qr_scan", "ios": "https://dc.lft.to/lastmile_qr_scan"}, "fusion_lon": 0.0, "lat": 38.911922, "bike_id": "bb36013843fb64585873c5d099d7b182", "type": "electric_scooter", "is_reserved": 0, "lon": -77.03856216666667}, {"fusion_lat": 0.0, "name": "216f184be053e2e3786e5d28d01e7b32", "is_disabled": 0, "rental_uris": {"android": "https://dc.lft.to/lastmile_qr_scan", "ios": "https://dc.lft.to/lastmile_qr_scan"}, "fusion_lon": 0.0, "lat": 38.914190833333336, "bike_id": "216f184be053e2e3786e5d28d01e7b32", "type": "electric_scooter", "is_reserved": 0, "lon": -77.03208566666666}, {"fusion_lat": 0.0, "name": "01cb83e6df138627d42bab2eeed0779b", "is_disabled": 0, "rental_uris": {"android": "https://dc.lft.to/lastmile_qr_scan", "ios": "https://dc.lft.to/lastmile_qr_scan"}, "fusion_lon": 0.0, "lat": 38.9165165, "bike_id": "01cb83e6df138627d42bab2eeed0779b", "type": "electric_scooter", "is_reserved": 0, "lon": -77.0229605}, {"fusion_lat": 0.0, "name": "e5526a342216dc2b4324c13034ab6680", "is_disabled": 0, "rental_uris": {"android": "https://dc.lft.to/lastmile_qr_scan", "ios": "https://dc.lft.to/lastmile_qr_scan"}, "fusion_lon": 0.0, "lat": 38.915677, "bike_id": "e5526a342216dc2b4324c13034ab6680", "type": "electric_scooter", "is_reserved": 0, "lon": -77.02201433333333}, {"fusion_lat": 0.0, "name": "b7b62985e905e5bc80c538d99fd07f82", "is_disabled": 0, "rental_uris": {"android": "https://dc.lft.to/lastmile_qr_scan", "ios": "https://dc.lft.to/lastmile_qr_scan"}, "fusion_lon": 0.0, "lat": 38.958861, "bike_id": "b7b62985e905e5bc80c538d99fd07f82", "type": "electric_scooter", "is_reserved": 0, "lon": -77.011712}, {"fusion_lat": 0.0, "name": "8e83fcfb4872aa52bdbb2e1b96cb43a4", "is_disabled": 0, "rental_uris": {"android": "https://dc.lft.to/lastmile_qr_scan", "ios": "https://dc.lft.to/lastmile_qr_scan"}, "fusion_lon": 0.0, "lat": 38.89651033333333, "bike_id": "8e83fcfb4872aa52bdbb2e1b96cb43a4", "type": "electric_scooter", "is_reserved": 0, "lon": -77.03220616666667}, {"fusion_lat": 0.0, "name": "47386637ae6dcac82c8eb889b1f4747a", "is_disabled": 0, "rental_uris": {"android": "https://dc.lft.to/lastmile_qr_scan", "ios": "https://dc.lft.to/lastmile_qr_scan"}, "fusion_lon": 0.0, "lat": 38.91993316666667, "bike_id": "47386637ae6dcac82c8eb889b1f4747a", "type": "electric_scooter", "is_reserved": 0, "lon": -77.023926}, {"fusion_lat": 0.0, "name": "b2cb775996f82227e971fbf88b702f56", "is_disabled": 0, "rental_uris": {"android": "https://dc.lft.to/lastmile_qr_scan", "ios": "https://dc.lft.to/lastmile_qr_scan"}, "fusion_lon": 0.0, "lat": 38.917142166666665, "bike_id": "b2cb775996f82227e971fbf88b702f56", "type": "electric_scooter", "is_reserved": 0, "lon": -77.02377466666667}, {"fusion_lat": 0.0, "name": "39b4447250e1f4bbf0f14d02adbe4ada", "is_disabled": 0, "rental_uris": {"android": "https://dc.lft.to/lastmile_qr_scan", "ios": "https://dc.lft.to/lastmile_qr_scan"}, "fusion_lon": 0.0, "lat": 38.9171275, "bike_id": "39b4447250e1f4bbf0f14d02adbe4ada", "type": "electric_scooter", "is_reserved": 0, "lon": -77.02960316666666}, {"fusion_lat": 0.0, "name": "9910f4499244f3a00575107b18709fae", "is_disabled": 0, "rental_uris": {"android": "https://dc.lft.to/lastmile_qr_scan", "ios": "https://dc.lft.to/lastmile_qr_scan"}, "fusion_lon": 0.0, "lat": 38.9151905, "bike_id": "9910f4499244f3a00575107b18709fae", "type": "electric_scooter", "is_reserved": 0, "lon": -77.013266},