{"data": {"bikes": [{"is_disabled": 0, "fusion_lon": 0.0, "fusion_lat": 0.0, "lat": 38.90002066666667, "type": "electric_scooter", "lon": -77.03353966666667, "bike_id": "dff920d0046d120d3a11e52e6a5aa25c", "rental_uris": {"android": "https://dc.lft.to/lastmile_qr_scan", "ios": "https://dc.lft.to/lastmile_qr_scan"}, "name": "dff920d0046d120d3a11e52e6a5aa25c", "is_reserved": 0}, {"is_disabled": 0, "fusion_lon": 0.0, "fusion_lat": 0.0, "lat": 38.852811833333334, "type": "electric_bike", "lon": -76.98151983333334, "bike_id": "18c0afd0122325da50ceb0a49d2b3b52", "rental_uris": {"android": "https://dc.lft.to/lastmile_qr_scan", "ios": "https://dc.lft.to/lastmile_qr_scan"}, "name": "18c0afd0122325da50ceb0a49d2b3b52", "is_reserved": 0}, {"is_disabled": 0, "fusion_lon": 0.0, "fusion_lat": 0.0, "lat": 38.916155, "type": "electric_scooter", "lon": -77.03192783333333, "bike_id": "f9d29135a8fd7b822348d78664901001", "rental_uris": {"android": "https://dc.lft.to/lastmile_qr_scan", "ios": "https://dc.lft.to/lastmile_qr_scan"}, "name": "f9d29135a8fd7b822348d78664901001", "is_reserved": 0}, {"is_disabled": 0, "fusion_lon": 0.0, "fusion_lat": 0.0, "lat": 38.85783933333333, "type": "electric_bike", "lon": -76.9875735, "bike_id": "d4ba272767b859d88dc8f3cc64e70aac", "rental_uris": {"android": "https://dc.lft.to/lastmile_qr_scan", "ios": "https://dc.lft.to/lastmile_qr_scan"}, "name": "d4ba272767b859d88dc8f3cc64e70aac", "is_reserved": 0}, {"is_disabled": 0, "fusion_lon": 0.0, "fusion_lat": 0.0, "lat": 38.88433666666667, "type": "electric_scooter", "lon": -77.02959116666666, "bike_id": "5abffefa56bb805a9b1790eb55e9f50f", "rental_uris": {"android": "https://dc.lft.to/lastmile_qr_scan", "ios": "https://dc.lft.to/lastmile_qr_scan"}, "name": "5abffefa56bb805a9b1790eb55e9f50f", "is_reserved": 0}, {"is_disabled": 0, "fusion_lon": 0.0, "fusion_lat": 0.0, "lat": 38.89481116666666, "type": "electric_scooter", "lon": -76.94873916666667, "bike_id": "98e9b440f5bb7aa571fd265facad853d", "rental_uris": {"android": "https://dc.lft.to/lastmile_qr_scan", "ios": "https://dc.lft.to/lastmile_qr_scan"}, "name": "98e9b440f5bb7aa571fd265facad853d", "is_reserved": 0}, {"is_disabled": 0, "fusion_lon": 0.0, "fusion_lat": 0.0, "lat": 38.91400683333333, "type": "electric_scooter", "lon": -77.031697, "bike_id": "61f651de296177acc476095b4b55eff3", "rental_uris": {"android": "https://dc.lft.to/lastmile_qr_scan", "ios": "https://dc.lft.to/lastmile_qr_scan"}, "name": "61f651de296177acc476095b4b55eff3", "is_reserved": 0}, {"is_disabled": 0, "fusion_lon": 0.0, "fusion_lat": 0.0, "lat": 38.921296166666664, "type": "electric_scooter", "lon": -77.04433816666666, "bike_id": "a98bad617bc6012bf24c99e35148d323", "rental_uris": {"android": "https://dc.lft.to/lastmile_qr_scan", "ios": "https://dc.lft.to/lastmile_qr_scan"}, "name": "a98bad617bc6012bf24c99e35148d323", "is_reserved": 0}, {"is_disabled": 0, "fusion_lon": 0.0, "fusion_lat": 0.0, "lat": 38.9180225, "type": "electric_scooter", "lon": -76.99966983333333, "bike_id": "0d5ffed9f7b4019e73a22806b141e7fa", "rental_uris": {"android": "https://dc.lft.to/lastmile_qr_scan", "ios": "https://dc.lft.to/lastmile_qr_scan"}, "name": "0d5ffed9f7b4019e73a22806b141e7fa", "is_reserved": 0}, {"is_disabled": 0, "fusion_lon": 0.0, "fusion_lat": 0.0, "lat": 38.89532716666667, "type": "electric_scooter", "lon": -77.01562966666667, "bike_id": "35bd362e974483cf2d5b1a397833785f", "rental_uris": {"android": "https://dc.lft.to/lastmile_qr_scan", "ios": "https://dc.lft.to/lastmile_qr_scan"}, "name": "35bd362e974483cf2d5b1a397833785f", "is_reserved": 0}, {"is_disabled": 0, "fusion_lon": 0.0, "fusion_lat": 0.0, "lat": 38.9079125, "type": "electric_scooter", "lon": -77.02384133333334, "bike_id": "077c998e87313bbf553dda4280b858f6", "rental_uris": {"android": "https://dc.lft.to/lastmile_qr_scan", "ios": "https://dc.lft.to/lastmile_qr_scan"}, "name": "077c998e87313bbf553dda4280b858f6", "is_reserved": 0}, {"is_disabled": 0, "fusion_lon": 0.0, "fusion_lat": 0.0, "lat": 38.94330083333333, "type": "electric_bike", "lon": -77.0148005, "bike_id": "4f2cbf7c397415fc560a9ff0476c835d", "rental_uris": {"android": "https://dc.lft.to/lastmile_qr_scan", "ios": "https://dc.lft.to/lastmile_qr_scan"}, "name": "4f2cbf7c397415fc560a9ff0476c835d", "is_reserved": 0}, {"is_disabled": 0, "fusion_lon": 0.0, "fusion_lat": 0.0, "lat": 38.908157833333334, "type": "electric_scooter", "lon": -77.0014485, "bike_id": "ee769de53bd67a981090908852751cd1", "rental_uris": {"android": "https://dc.lft.to/lastmile_qr_scan", "ios": "https://dc.lft.to/lastmile_qr_scan"}, "name": "ee769de53bd67a981090908852751cd1", "is_reserved": 0}, {"is_disabled": 0, "fusion_lon": 0.0, "fusion_lat": 0.0, "lat": 38.87401116666667, "type": "electric_scooter", "lon": -77.00190533333334, "bike_id": "fedcd20ac6180935c9d5561b8a7ea752", "rental_uris": {"android": "https://dc.lft.to/lastmile_qr_scan", "ios": "https://dc.lft.to/lastmile_qr_scan"}, "name": "fedcd20ac6180935c9d5561b8a7ea752", "is_reserved": 0}, {"is_disabled": 0, "fusion_lon": 0.0, "fusion_lat": 0.0, "lat": 38.936393, "type": "electric_bike", "lon": -76.95458183333334, "bike_id": "d82df1899b2002a9a3a5467a938a423f", "rental_uris": {"android": "https://dc.lft.to/lastmile_qr_scan", "ios": "https://dc.lft.to/lastmile_qr_scan"}, "name": "d82df1899b2002a9a3a5467a938a423f", "is_reserved": 0}, {"is_disabled": 0, "fusion_lon": 0.0, "fusion_lat": 0.0, "lat": 38.904483, "type": "electric_scooter", "lon": -77.034536, "bike_id": "bb8a3fded5dbe03a39d42e20972f804a", "rental_uris": {"android": "https://dc.lft.to/lastmile_qr_scan", "ios": "https://dc.lft.to/lastmile_qr_scan"}, "name": "bb8a3fded5dbe03a39d42e20972f804a", "is_reserved": 0}, {"is_disabled": 0, "fusion_lon": 0.0, "fusion_lat": 0.0, "lat": 38.923547, "type": "electric_scooter", "lon": -77.03231916666667, "bike_id": "5e3ea5a87aad38ce9e61757b1fff0859", "rental_uris": {"android": "https://dc.lft.to/lastmile_qr_scan", "ios": "https://dc.lft.to/lastmile_qr_scan"}, "name": "5e3ea5a87aad38ce9e61757b1fff0859", "is_reserved": 0}, {"is_disabled": 0, "fusion_lon": 0.0, "fusion_lat": 0.0, "lat": 38.9141335, "type": "electric_scooter", "lon": -77.0449815, "bike_id": "76ab60285fbc045924b66e1cd2faed1d", "rental_uris": {"android": "https://dc.lft.to/lastmile_qr_scan", "ios": "https://dc.lft.to/lastmile_qr_scan"}, "name": "76ab60285fbc045924b66e1cd2faed1d", "is_reserved": 0}, {"is_disabled": 0, "fusion_lon": 0.0, "fusion_lat": 0.0, "lat": 38.904716666666666, "type": "electric_scooter", "lon": -77.035759, "bike_id": "d462aaf130c87a38e952344a8ad3886f", "rental_uris": {"android": "https://dc.lft.to/lastmile_qr_scan", "ios": "https://dc.lft.to/lastmile_qr_scan"}, "name": "d462aaf130c87a38e952344a8ad3886f", "is_reserved": 0}, {"is_disabled": 0, "fusion_lon": 0.0, "fusion_lat": 0.0, "lat": 38.945753333333336, "type": "electric_bike", "lon": -76.98778516666667, "bike_id": "5f72eee1148d778a0178da50e1e06a8a", "rental_uris": {"android": "https://dc.lft.to/lastmile_qr_scan", "ios": "https://dc.lft.to/lastmile_qr_scan"}, "name": "5f72eee1148d778a0178da50e1e06a8a", "is_reserved": 0}, {"is_disabled": 0, "fusion_lon": 0.0, "fusion_lat": 0.0, "lat": 38.904139666666666, "type": "electric_scooter", "lon": -77.02879233333333, "bike_id": "122de3837dad34c7eb668fde0d3e8c17", "rental_uris": {"android": "https://dc.lft.to/lastmile_qr_scan", "ios": "https://dc.lft.to/lastmile_qr_scan"}, "name": "122de3837dad34c7eb668fde0d3e8c17", "is_reserved": 0}, {"is_disabled": 0, "fusion_lon": 0.0, "fusion_lat": 0.0, "lat": 38.93084016666667, "type": "electric_scooter", "lon": -77.0311245, "bike_id": "20c1bb87a99360bca08698df6a496b72", "rental_uris": {"android": "https://dc.lft.to/lastmile_qr_scan", "ios": "https://dc.lft.to/lastmile_qr_scan"}, "name": "20c1bb87a99360bca08698df6a496b72", "is_reserved": 0}, {"is_disabled": 0, "fusion_lon": 0.0, "fusion_lat": 0.0, "lat": 38.94749016666667, "type": "electric_scooter", "lon": -77.0180405, "bike_id": "e221bd76c4204ee88f6a1bc6b6d9403c", "rental_uris": {"android": "https://dc.lft.to/lastmile_qr_scan", "ios": "https://dc.lft.to/lastmile_qr_scan"}, "name": "e221bd76c4204ee88f6a1bc6b6d9403c", "is_reserved": 0}, {"is_disabled": 0, "fusion_lon": 0.0, "fusion_lat": 0.0, "lat": 38.91046816666667, "type": "electric_scooter", "lon": -77.0645465, "bike_id": "e31f5e5b4528254ea1bfb2d6837a7919", "rental_uris": {"android": "https://dc.lft.to/lastmile_qr_scan", "ios": "https://dc.lft.to/lastmile_qr_scan"}, "name": "e31f5e5b4528254ea1bfb2d6837a7919", "is_reserved": 0}, {"is_disabled": 0, "fusion_lon": 0.0, "fusion_lat": 0.0, "lat": 38.897355, "type": "electric_scooter", "lon": -77.0101355, "bike_id": "cc9b5fc9637c7da5919ef52f4aa0d7b0", "rental_uris": {"android": "https://dc.lft.to/lastmile_qr_scan", "ios": "https://dc.lft.to/lastmile_qr_scan"}, "name": "cc9b5fc9637c7da5919ef52f4aa0d7b0", "is_reserved": 0}, {"is_disabled": 0, "fusion_lon": 0.0, "fusion_lat": 0.0, "lat": 38.91792, "type": "electric_scooter", "lon": -77.034344, "bike_id": "6e336e5eb4d1b3a8a84c06d736954c9a", "rental_uris": {"android": "https://dc.lft.to/lastmile_qr_scan", "ios": "https://dc.lft.to/lastmile_qr_scan"}, "name": "6e336e5eb4d1b3a8a84c06d736954c9a", "is_reserved": 0}, {"is_disabled": 0, "fusion_lon": 0.0, "fusion_lat": 0.0, "lat": 38.93227566666667, "type": "electric_scooter", "lon": -76.99489616666666, "bike_id": "9e7f48d8399051ef702d35e669523ae6", "rental_uris": {"android": "https://dc.lft.to/lastmile_qr_scan", "ios": "https://dc.lft.to/lastmile_qr_scan"}, "name": "9e7f48d8399051ef702d35e669523ae6", "is_reserved": 0}, {"is_disabled": 0, "fusion_lon": 0.0, "fusion_lat": 0.0, "lat": 38.9725695, "type": "electric_bike", "lon": -76.991687, "bike_id": "6de93f6e26037be7f29a0898e06233e5", "rental_uris": {"android": "https://dc.lft.to/lastmile_qr_scan", "ios": "https://dc.lft.to/lastmile_qr_scan"}, "name": "6de93f6e26037be7f29a0898e06233e5", "is_reserved": 0}, {"is_disabled": 0, "fusion_lon": 0.0, "fusion_lat": 0.0, "lat": 38.9039535, "type": "electric_scooter", "lon": -77.04057183333333, "bike_id": "d0acca4207adaa7999fb33407bc04074", "rental_uris": {"android": "https://dc.lft.to/lastmile_qr_scan", "ios": "https://dc.lft.to/lastmile_qr_scan"}, "name": "d0acca4207adaa7999fb33407bc04074", "is_reserved": 0}, {"is_disabled": 0, "fusion_lon": 0.0, "fusion_lat": 0.0, "lat": 38.905477833333336, "type": "electric_scooter", "lon": -77.04559433333333, "bike_id": "6e603477255484ecbb19d4e0b4047b04", "rental_uris": {"android": "https://dc.lft.to/lastmile_qr_scan", "ios": "https://dc.lft.to/lastmile_qr_scan"}, "name": "6e603477255484ecbb19d4e0b4047b04", "is_reserved": 0}, {"is_disabled": 0, "fusion_lon": 0.0, "fusion_lat": 0.0, "lat": 38.83934933333333, "type": "electric_bike", "lon": -77.07904466666666, "bike_id": "ee1154fbc42cdfd7f8466515ac5502cd", "rental_uris": {"android": "https://dc.lft.to/lastmile_qr_scan", "ios": "https://dc.lft.to/lastmile_qr_scan"}, "name": "ee1154fbc42cdfd7f8466515ac5502cd", "is_reserved": 0}, {"is_disabled": 0, "fusion_lon": 0.0, "fusion_lat": 0.0, "lat": 38.91754433333333, "type": "electric_scooter", "lon": -77.02802216666667, "bike_id": "91de423604d49a0289d82cff2b314fe8", "rental_uris": {"android": "https://dc.lft.to/lastmile_qr_scan", "ios": "https://dc.lft.to/lastmile_qr_scan"}, "name": "91de423604d49a0289d82cff2b314fe8", "is_reserved": 0}, {"is_disabled": 0, "fusion_lon": 0.0, "fusion_lat": 0.0, "lat": 38.81270583333333, "type": "electric_bike", "lon": -77.06174766666666, "bike_id": "68004383bbd3af7973f7f8ee0fdfda48", "rental_uris": {"android": "https://dc.lft.to/lastmile_qr_scan", "ios": "https://dc.lft.to/lastmile_qr_scan"}, "name": "68004383bbd3af7973f7f8ee0fdfda48", "is_reserved": 0}, {"is_disabled": 0, "fusion_lon": 0.0, "fusion_lat": 0.0, "lat": 38.934651, "type": "electric_scooter", "lon": -77.06870516666666, "bike_id": "1d325abee3d4d70e8163f1ca893fb908", "rental_uris": {"android": "https://dc.lft.to/lastmile_qr_scan", "ios": "https://dc.lft.to/lastmile_qr_scan"}, "name": "1d325abee3d4d70e8163f1ca893fb908", "is_reserved": 0}, {"is_disabled": 0, "fusion_lon": 0.0, "fusion_lat": 0.0, "lat": 38.83321, "type": "electric_scooter", "lon": -77.00006783333333, "bike_id": "4a702e6f5414b9f37e891763b4e94222", "rental_uris": {"android": "https://dc.lft.to/lastmile_qr_scan", "ios": "https://dc.lft.to/lastmile_qr_scan"}, "name": "4a702e6f5414b9f37e891763b4e94222", "is_reserved": 0}, {"is_disabled": 0, "fusion_lon": 0.0, "fusion_lat": 0.0, "lat": 38.92817566666667, "type": "electric_scooter", "lon": -77.03722466666666, "bike_id": "1542fcd5030de7831c8a67d1153b4cc7", "rental_uris": {"android": "https://dc.lft.to/lastmile_qr_scan", "ios": "https://dc.lft.to/lastmile_qr_scan"}, "name": "1542fcd5030de7831c8a67d1153b4cc7", "is_reserved": 0}, {"is_disabled": 0, "fusion_lon": 0.0, "fusion_lat": 0.0, "lat": 38.87032416666667, "type": "electric_scooter", "lon": -77.01076216666667, "bike_id": "255a618250580d52aae1479e87866546", "rental_uris": {"android": "https://dc.lft.to/lastmile_qr_scan", "ios": "https://dc.lft.to/lastmile_qr_scan"}, "name": "255a618250580d52aae1479e87866546", "is_reserved": 0}, {"is_disabled": 0, "fusion_lon": 0.0, "fusion_lat": 0.0, "lat": 38.91701716666667, "type": "electric_scooter", "lon": -77.02435166666666, "bike_id": "d842921f511c224e4090786f50c6fdfe", "rental_uris": {"android": "https://dc.lft.to/lastmile_qr_scan", "ios": "https://dc.lft.to/lastmile_qr_scan"}, "name": "d842921f511c224e4090786f50c6fdfe", "is_reserved": 0}, {"is_disabled": 0, "fusion_lon": 0.0, "fusion_lat": 0.0, "lat": 38.925906, "type": "electric_scooter", "lon": -77.05539616666667, "bike_id": "a1534f1518880d1182e8f7888ee02a61", "rental_uris": {"android": "https://dc.lft.to/lastmile_qr_scan", "ios": "https://dc.lft.to/lastmile_qr_scan"}, "name": "a1534f1518880d1182e8f7888ee02a61", "is_reserved": 0}, {"is_disabled": 0, "fusion_lon": 0.0, "fusion_lat": 0.0, "lat": 38.831940333333336, "type": "electric_bike", "lon": -77.0768645, "bike_id": "7539e0ed3dc3a65c38b02328211eb668", "rental_uris": {"android": "https://dc.lft.to/lastmile_qr_scan", "ios": "https://dc.lft.to/lastmile_qr_scan"}, "name": "7539e0ed3dc3a65c38b02328211eb668", "is_reserved": 0}, {"is_disabled": 0, "fusion_lon": 0.0, "fusion_lat": 0.0, "lat": 38.95546266666667, "type": "electric_bike", "lon": -76.93532566666667, "bike_id": "74db25c7d0c5db9b4b2757ca84ecf769", "rental_uris": {"android": "https://dc.lft.to/lastmile_qr_scan", "ios": "https://dc.lft.to/lastmile_qr_scan"}, "name": "74db25c7d0c5db9b4b2757ca84ecf769", "is_reserved": 0}, {"is_disabled": 0, "fusion_lon": 0.0, "fusion_lat": 0.0, "lat": 38.9517485, "type": "electric_scooter", "lon": -77.05654766666666, "bike_id": "0176c27629a02b02808e6ea467ef5d7f", "rental_uris": {"android": "https://dc.lft.to/lastmile_qr_scan", "ios": "https://dc.lft.to/lastmile_qr_scan"}, "name": "0176c27629a02b02808e6ea467ef5d7f", "is_reserved": 0}, {"is_disabled": 0, "fusion_lon": 0.0, "fusion_lat": 0.0, "lat": 38.82870466666667, "type": "electric_bike", "lon": -77.11226733333334, "bike_id": "a86b6f42c78dfad745eb73f7cdf7646f", "rental_uris": {"android": "https://dc.lft.to/lastmile_qr_scan", "ios": "https://dc.lft.to/lastmile_qr_scan"}, "name": "a86b6f42c78dfad745eb73f7cdf7646f", "is_reserved": 0}, {"is_disabled": 0, "fusion_lon": 0.0, "fusion_lat": 0.0, "lat": 38.913409, "type": "electric_scooter", "lon": -77.04864883333333, "bike_id": "f99af0f2630fdebf5da224f630a10db2", "rental_uris": {"android": "https://dc.lft.to/lastmile_qr_scan", "ios": "https://dc.lft.to/lastmile_qr_scan"}, "name": "f99af0f2630fdebf5da224f630a10db2", "is_reserved": 0}, {"is_disabled": 0, "fusion_lon": 0.0, "fusion_lat": 0.0, "lat": 38.920209, "type": "electric_scooter", "lon": -77.03179233333333, "bike_id": "84cfb5c62f9ec0283dceae235b15f818", "rental_uris": {"android": "https://dc.lft.to/lastmile_qr_scan", "ios": "https://dc.lft.to/lastmile_qr_scan"}, "name": "84cfb5c62f9ec0283dceae235b15f818", "is_reserved": 0}, {"is_disabled": 0, "fusion_lon": 0.0, "fusion_lat": 0.0, "lat": 38.897234, "type": "electric_scooter", "lon": -77.0250185, "bike_id": "e08c885349743b4df37d49cec9bebc73", "rental_uris": {"android": "https://dc.lft.to/lastmile_qr_scan", "ios": "https://dc.lft.to/lastmile_qr_scan"}, "name": "e08c885349743b4df37d49cec9bebc73", "is_reserved": 0}, {"is_disabled": 0, "fusion_lon": 0.0, "fusion_lat": 0.0, "lat": 38.916794833333334, "type": "electric_scooter", "lon": -77.02972983333333, "bike_id": "82bc58c831a2b33dae20a19c035018b8", "rental_uris": {"android": "https://dc.lft.to/lastmile_qr_scan", "ios": "https://dc.lft.to/lastmile_qr_scan"}, "name": "82bc58c831a2b33dae20a19c035018b8", "is_reserved": 0}, {"is_disabled": 0, "fusion_lon": 0.0, "fusion_lat": 0.0, "lat": 38.98024633333333, "type": "electric_bike", "lon": -76.92919866666666, "bike_id": "4a1c5acf47df7d19c852b3bf8c95d99a", "rental_uris": {"android": "https://dc.lft.to/lastmile_qr_scan", "ios": "https://dc.lft.to/lastmile_qr_scan"}, "name": "4a1c5acf47df7d19c852b3bf8c95d99a", "is_reserved": 0}, {"is_disabled": 0, "fusion_lon": 0.0, "fusion_lat": 0.0, "lat": 38.898764166666666, "type": "electric_scooter", "lon": -76.931874, "bike_id": "a5358dd4698895306262fa779d3b69fe", "rental_uris": {"android": "https://dc.lft.to/lastmile_qr_scan", "ios": "https://dc.lft.to/lastmile_qr_scan"}, "name": "a5358dd4698895306262fa779d3b69fe", "is_reserved": 0}, {"is_disabled": 0, "fusion_lon": 0.0, "fusion_lat": 0.0, "lat": 38.90950816666667, "type": "electric_scooter", "lon": -77.04755483333334, "bike_id": "348126d75cf3a10effe971bd8c5b60db", "rental_uris": {"android": "https://dc.lft.to/lastmile_qr_scan", "ios": "https://dc.lft.to/lastmile_qr_scan"}, "name": "348126d75cf3a10effe971bd8c5b60db", "is_reserved": 0}, {"is_disabled": 0, "fusion_lon": 0.0, "fusion_lat": 0.0, "lat": 38.90698283333333, "type": "electric_scooter", "lon": -77.06325716666667, "bike_id": "22e16e39709ac66a6f2d962301522de8", "rental_uris": {"android": "https://dc.lft.to/lastmile_qr_scan", "ios": "https://dc.lft.to/lastmile_qr_scan"}, "name": "22e16e39709ac66a6f2d962301522de8", "is_reserved": 0}, {"is_disabled": 0, "fusion_lon": 0.0, "fusion_lat": 0.0, "lat": 38.9028115, "type": "electric_scooter", "lon": -77.02433433333333, "bike_id": "ad027c572f495c0b1cc119e08520db9e", "rental_uris": {"android": "https://dc.lft.to/lastmile_qr_scan", "ios": "https://dc.lft.to/lastmile_qr_scan"}, "name": "ad027c572f495c0b1cc119e08520db9e", "is_reserved": 0}, {"is_disabled": 0, "fusion_lon": 0.0, "fusion_lat": 0.0, "lat": 38.893080499999996, "type": "electric_scooter", "lon": -77.0220505, "bike_id": "6158dac5e4f4a5b7808fe6cde7ed107f", "rental_uris": {"android": "https://dc.lft.to/lastmile_qr_scan", "ios": "https://dc.lft.to/lastmile_qr_scan"}, "name": "6158dac5e4f4a5b7808fe6cde7ed107f", "is_reserved": 0}, {"is_disabled": 0, "fusion_lon": 0.0, "fusion_lat": 0.0, "lat": 38.858794333333336, "type": "electric_scooter", "lon": -76.99032166666667, "bike_id": "01cc1a093d97d85aaffd52eff9101240", "rental_uris": {"android": "https://dc.lft.to/lastmile_qr_scan", "ios": "https://dc.lft.to/lastmile_qr_scan"}, "name": "01cc1a093d97d85aaffd52eff9101240", "is_reserved": 0}, {"is_disabled": 0, "fusion_lon": 0.0, "fusion_lat": 0.0, "lat": 38.9173975, "type": "electric_scooter", "lon": -77.03199333333333, "bike_id": "86b89d8a586b4f55c6f87f4bf9f49c80", "rental_uris": {"android": "https://dc.lft.to/lastmile_qr_scan", "ios": "https://dc.lft.to/lastmile_qr_scan"}, "name": "86b89d8a586b4f55c6f87f4bf9f49c80", "is_reserved": 0}, {"is_disabled": 0, "fusion_lon": 0.0, "fusion_lat": 0.0, "lat": 38.91559316666667, "type": "electric_scooter", "lon": -77.01204383333334, "bike_id": "798dd337a7381ebd988c5ccec0e2466a", "rental_uris": {"android": "https://dc.lft.to/lastmile_qr_scan", "ios": "https://dc.lft.to/lastmile_qr_scan"}, "name": "798dd337a7381ebd988c5ccec0e2466a", "is_reserved": 0}, {"is_disabled": 0, "fusion_lon": 0.0, "fusion_lat": 0.0, "lat": 38.89370666666667, "type": "electric_scooter", "lon": -76.9781765, "bike_id": "127e19e1d49acc48a4562951131171ef", "rental_uris": {"android": "https://dc.lft.to/lastmile_qr_scan", "ios": "https://dc.lft.to/lastmile_qr_scan"}, "name": "127e19e1d49acc48a4562951131171ef", "is_reserved": 0}, {"is_disabled": 0, "fusion_lon": 0.0, "fusion_lat": 0.0, "lat": 38.92425566666667, "type": "electric_scooter", "lon": -77.04480616666666, "bike_id": "9d2ac7b0042ce2e03300c8f2e6c1c2fb", "rental_uris": {"android": "https://dc.lft.to/lastmile_qr_scan", "ios": "https://dc.lft.to/lastmile_qr_scan"}, "name": "9d2ac7b0042ce2e03300c8f2e6c1c2fb", "is_reserved": 0}, {"is_disabled": 0, "fusion_lon": 0.0, "fusion_lat": 0.0, "lat": 38.895717166666664, "type": "electric_scooter", "lon": -77.0231095, "bike_id": "7ed8a17be790f98c44ba33a31d962751", "rental_uris": {"android": "https://dc.lft.to/lastmile_qr_scan", "ios": "https://dc.lft.to/lastmile_qr_scan"}, "name": "7ed8a17be790f98c44ba33a31d962751", "is_reserved": 0}, {"is_disabled": 0, "fusion_lon": 0.0, "fusion_lat": 0.0, "lat": 38.894917, "type": "electric_scooter", "lon": -77.02275716666666, "bike_id": "7057439088841abc87899b9619e80470", "rental_uris": {"android": "https://dc.lft.to/lastmile_qr_scan", "ios": "https://dc.lft.to/lastmile_qr_scan"}, "name": "7057439088841abc87899b9619e80470", "is_reserved": 0}, {"is_disabled": 0, "fusion_lon": 0.0, "fusion_lat": 0.0, "lat": 38.91181233333333, "type": "electric_scooter", "lon": -77.026869, "bike_id": "9dd4a7c20b58cf9cf3db7bc5b4703f77", "rental_uris": {"android": "https://dc.lft.to/lastmile_qr_scan", "ios": "https://dc.lft.to/lastmile_qr_scan"}, "name": "9dd4a7c20b58cf9cf3db7bc5b4703f77", "is_reserved": 0}, {"is_disabled": 0, "fusion_lon": 0.0, "fusion_lat": 0.0, "lat": 38.91922316666667, "type": "electric_scooter", "lon": -77.0252515, "bike_id": "adef96e4d1debc2b5f6ea457cfb30a16", "rental_uris": {"android": "https://dc.lft.to/lastmile_qr_scan", "ios": "https://dc.lft.to/lastmile_qr_scan"}, "name": "adef96e4d1debc2b5f6ea457cfb30a16", "is_reserved": 0}, {"is_disabled": 0, "fusion_lon": 0.0, "fusion_lat": 0.0, "lat": 38.935469499999996, "type": "electric_scooter", "lon": -77.05809433333333, "bike_id": "c0d59490467a08abb6c1606e874c0eed", "rental_uris": {"android": "https://dc.lft.to/lastmile_qr_scan", "ios": "https://dc.lft.to/lastmile_qr_scan"}, "name": "c0d59490467a08abb6c1606e874c0eed", "is_reserved": 0}, {"is_disabled": 0, "fusion_lon": 0.0, "fusion_lat": 0.0, "lat": 38.94489566666667, "type": "electric_bike", "lon": -76.98661716666666, "bike_id": "0c42dd4e2a67dfd5783172f95a2e828e", "rental_uris": {"android": "https://dc.lft.to/lastmile_qr_scan", "ios": "https://dc.lft.to/lastmile_qr_scan"}, "name": "0c42dd4e2a67dfd5783172f95a2e828e", "is_reserved": 0}, {"is_disabled": 0, "fusion_lon": 0.0, "fusion_lat": 0.0, "lat": 38.92635033333333, "type": "electric_scooter", "lon": -77.03868816666666, "bike_id": "bbff0cedab4d47e7bffd65d2d5aa54ad", "rental_uris": {"android": "https://dc.lft.to/lastmile_qr_scan", "ios": "https://dc.lft.to/lastmile_qr_scan"}, "name": "bbff0cedab4d47e7bffd65d2d5aa54ad", "is_reserved": 0}, {"is_disabled": 0, "fusion_lon": 0.0, "fusion_lat": 0.0, "lat": 38.93252283333333, "type": "electric_scooter", "lon": -77.032853, "bike_id": "96c726ca11278c4c7074f6e2f86a6ce4", "rental_uris": {"android": "https://dc.lft.to/lastmile_qr_scan", "ios": "https://dc.lft.to/lastmile_qr_scan"}, "name": "96c726ca11278c4c7074f6e2f86a6ce4", "is_reserved": 0}, {"is_disabled": 0, "fusion_lon": 0.0, "fusion_lat": 0.0, "lat": 38.90963516666667, "type": "electric_scooter", "lon": -77.0405775, "bike_id": "af05cfedbd0d9ec21eada82651dae6c0", "rental_uris": {"android": "https://dc.lft.to/lastmile_qr_scan", "ios": "https://dc.lft.to/lastmile_qr_scan"}, "name": "af05cfedbd0d9ec21eada82651dae6c0", "is_reserved": 0}, {"is_disabled": 0, "fusion_lon": 0.0, "fusion_lat": 0.0, "lat": 38.91160216666667, "type": "electric_scooter", "lon": -77.0485635, "bike_id": "d57176c5640c2c686d16c71611a977d6", "rental_uris": {"android": "https://dc.lft.to/lastmile_qr_scan", "ios": "https://dc.lft.to/lastmile_qr_scan"}, "name": "d57176c5640c2c686d16c71611a977d6", "is_reserved": 0}, {"is_disabled": 0, "fusion_lon": 0.0, "fusion_lat": 0.0, "lat": 38.91565716666667, "type": "electric_scooter", "lon": -77.032109, "bike_id": "c419ca1ad8c97f22f252cf243752df9e", "rental_uris": {"android": "https://dc.lft.to/lastmile_qr_scan", "ios": "https://dc.lft.to/lastmile_qr_scan"}, "name": "c419ca1ad8c97f22f252cf243752df9e", "is_reserved": 0}, {"is_disabled": 0, "fusion_lon": 0.0, "fusion_lat": 0.0, "lat": 38.9475025, "type": "electric_scooter", "lon": -77.02978933333333, "bike_id": "761dc629e7a9ff0844a9ef28feb7b53a", "rental_uris": {"android": "https://dc.lft.to/lastmile_qr_scan", "ios": "https://dc.lft.to/lastmile_qr_scan"}, "name": "761dc629e7a9ff0844a9ef28feb7b53a", "is_reserved": 0}, {"is_disabled": 0, "fusion_lon": 0.0, "fusion_lat": 0.0, "lat": 38.931095166666665, "type": "electric_scooter", "lon": -77.01246, "bike_id": "f48131796111ec668c83628c89ce5587", "rental_uris": {"android": "https://dc.lft.to/lastmile_qr_scan", "ios": "https://dc.lft.to/lastmile_qr_scan"}, "name": "f48131796111ec668c83628c89ce5587", "is_reserved": 0}, {"is_disabled": 0, "fusion_lon": 0.0, "fusion_lat": 0.0, "lat": 38.927453666666665, "type": "electric_scooter", "lon": -77.02481916666666, "bike_id": "2ddd22cbcf2f32877660261ffba6192b", "rental_uris": {"android": "https://dc.lft.to/lastmile_qr_scan", "ios": "https://dc.lft.to/lastmile_qr_scan"}, "name": "2ddd22cbcf2f32877660261ffba6192b", "is_reserved": 0}, {"is_disabled": 0, "fusion_lon": 0.0, "fusion_lat": 0.0, "lat": 38.8983585, "type": "electric_scooter", "lon": -77.03171783333333, "bike_id": "a1fa653259fbb6e54936297fb2133a6e", "rental_uris": {"android": "https://dc.lft.to/lastmile_qr_scan", "ios": "https://dc.lft.to/lastmile_qr_scan"}, "name": "a1fa653259fbb6e54936297fb2133a6e", "is_reserved": 0}, {"is_disabled": 0, "fusion_lon": 0.0, "fusion_lat": 0.0, "lat": 38.905969166666665, "type": "electric_scooter", "lon": -77.06299366666667, "bike_id": "21aefac94e6986c963ffbb30d8dc78ea", "rental_uris": {"android": "https://dc.lft.to/lastmile_qr_scan", "ios": "https://dc.lft.to/lastmile_qr_scan"}, "name": "21aefac94e6986c963ffbb30d8dc78ea", "is_reserved": 0}, {"is_disabled": 0, "fusion_lon": 0.0, "fusion_lat": 0.0, "lat": 38.9017935, "type": "electric_scooter", "lon": -77.018287, "bike_id": "b7df643c9cc30d46fa52f156756cb2f0", "rental_uris": {"android": "https://dc.lft.to/lastmile_qr_scan", "ios": "https://dc.lft.to/lastmile_qr_scan"}, "name": "b7df643c9cc30d46fa52f156756cb2f0", "is_reserved": 0}, {"is_disabled": 0, "fusion_lon": 0.0, "fusion_lat": 0.0, "lat": 38.85711916666666, "type": "electric_bike", "lon": -76.981169, "bike_id": "7dfd3a36d2af1e24b885dd9a8c96b9cb", "rental_uris": {"android": "https://dc.lft.to/lastmile_qr_scan", "ios": "https://dc.lft.to/lastmile_qr_scan"}, "name": "7dfd3a36d2af1e24b885dd9a8c96b9cb", "is_reserved": 0}, {"is_disabled": 0, "fusion_lon": 0.0, "fusion_lat": 0.0, "lat": 38.915583833333336, "type": "electric_scooter", "lon": -77.0387275, "bike_id": "12664fc1f3f13eacb559562402e26b62", "rental_uris": {"android": "https://dc.lft.to/lastmile_qr_scan", "ios": "https://dc.lft.to/lastmile_qr_scan"}, "name": "12664fc1f3f13eacb559562402e26b62", "is_reserved": 0}, {"is_disabled": 0, "fusion_lon": 0.0, "fusion_lat": 0.0, "lat": 38.9430185, "type": "electric_scooter", "lon": -77.02356366666666, "bike_id": "ed4d9759b1276b52b631ceb4c49d029a", "rental_uris": {"android": "https://dc.lft.to/lastmile_qr_scan", "ios": "https://dc.lft.to/lastmile_qr_scan"}, "name": "ed4d9759b1276b52b631ceb4c49d029a", "is_reserved": 0}, {"is_disabled": 0, "fusion_lon": 0.0, "fusion_lat": 0.0, "lat": 38.838102666666664, "type": "electric_scooter", "lon": -77.0043335, "bike_id": "de92bc87634b55028b57dfc61db2cbab", "rental_uris": {"android": "https://dc.lft.to/lastmile_qr_scan", "ios": "https://dc.lft.to/lastmile_qr_scan"}, "name": "de92bc87634b55028b57dfc61db2cbab", "is_reserved": 0}, {"is_disabled": 0, "fusion_lon": 0.0, "fusion_lat": 0.0, "lat": 39.1150885, "type": "electric_bike", "lon": -77.19545516666666, "bike_id": "f65ab97edda24c256b600d12a4af8a0c", "rental_uris": {"android": "https://dc.lft.to/lastmile_qr_scan", "ios": "https://dc.lft.to/lastmile_qr_scan"}, "name": "f65ab97edda24c256b600d12a4af8a0c", "is_reserved": 0}, {"is_disabled": 0, "fusion_lon": 0.0, "fusion_lat": 0.0, "lat": 38.93045933333333, "type": "electric_scooter", "lon": -77.00414866666667, "bike_id": "a5a09ca63aeb1c8079c7297d46f4cb8c", "rental_uris": {"android": "https://dc.lft.to/lastmile_qr_scan", "ios": "https://dc.lft.to/lastmile_qr_scan"}, "name": "a5a09ca63aeb1c8079c7297d46f4cb8c", "is_reserved": 0}, {"is_disabled": 0, "fusion_lon": 0.0, "fusion_lat": 0.0, "lat": 38.9023685, "type": "electric_scooter", "lon": -77.06161633333333, "bike_id": "d13bc966d1ebe29baf90ff9febfaf9b6", "rental_uris": {"android": "https://dc.lft.to/lastmile_qr_scan", "ios": "https://dc.lft.to/lastmile_qr_scan"}, "name": "d13bc966d1ebe29baf90ff9febfaf9b6", "is_reserved": 0}, {"is_disabled": 0, "fusion_lon": 0.0, "fusion_lat": 0.0, "lat": 38.92972366666667, "type": "electric_scooter", "lon": -77.02074816666666, "bike_id": "59061d935e9b09e45e325826b52f68cc", "rental_uris": {"android": "https://dc.lft.to/lastmile_qr_scan", "ios": "https://dc.lft.to/lastmile_qr_scan"}, "name": "59061d935e9b09e45e325826b52f68cc", "is_reserved": 0}, {"is_disabled": 0, "fusion_lon": 0.0, "fusion_lat": 0.0, "lat": 38.94198866666667, "type": "electric_scooter", "lon": -77.0259175, "bike_id": "d04cc5562ab353043a0397fc9f106671", "rental_uris": {"android": "https://dc.lft.to/lastmile_qr_scan", "ios": "https://dc.lft.to/lastmile_qr_scan"}, "name": "d04cc5562ab353043a0397fc9f106671", "is_reserved": 0}, {"is_disabled": 0, "fusion_lon": 0.0, "fusion_lat": 0.0, "lat": 38.96417183333333, "type": "electric_scooter", "lon": -77.0752725, "bike_id": "7284c009fada431750d061cc76b55138", "rental_uris": {"android": "https://dc.lft.to/lastmile_qr_scan", "ios": "https://dc.lft.to/lastmile_qr_scan"}, "name": "7284c009fada431750d061cc76b55138", "is_reserved": 0}, {"is_disabled": 0, "fusion_lon": 0.0, "fusion_lat": 0.0, "lat": 38.92197516666667, "type": "electric_scooter", "lon": -76.99705216666666, "bike_id": "4bb95b382321ded10b6048a77d8abea0", "rental_uris": {"android": "https://dc.lft.to/lastmile_qr_scan", "ios": "https://dc.lft.to/lastmile_qr_scan"}, "name": "4bb95b382321ded10b6048a77d8abea0", "is_reserved": 0}, {"is_disabled": 0, "fusion_lon": 0.0, "fusion_lat": 0.0, "lat": 38.90404316666667, "type": "electric_scooter", "lon": -77.00579816666666, "bike_id": "d5ea04eb5d272ec130fe8751af68bfba", "rental_uris": {"android": "https://dc.lft.to/lastmile_qr_scan", "ios": "https://dc.lft.to/lastmile_qr_scan"}, "name": "d5ea04eb5d272ec130fe8751af68bfba", "is_reserved": 0}, {"is_disabled": 0, "fusion_lon": 0.0, "fusion_lat": 0.0, "lat": 38.91034633333334, "type": "electric_scooter", "lon": -77.0401425, "bike_id": "2e35021401e69cfd525d61f55aa24b35", "rental_uris": {"android": "https://dc.lft.to/lastmile_qr_scan", "ios": "https://dc.lft.to/lastmile_qr_scan"}, "name": "2e35021401e69cfd525d61f55aa24b35", "is_reserved": 0}, {"is_disabled": 0, "fusion_lon": 0.0, "fusion_lat": 0.0, "lat": 38.90679766666667, "type": "electric_scooter", "lon": -76.98000483333334, "bike_id": "e861a499b7987d350ad8b7fb322cfae5", "rental_uris": {"android": "https://dc.lft.to/lastmile_qr_scan", "ios": "https://dc.lft.to/lastmile_qr_scan"}, "name": "e861a499b7987d350ad8b7fb322cfae5", "is_reserved": 0}, {"is_disabled": 0, "fusion_lon": 0.0, "fusion_lat": 0.0, "lat": 38.858078166666665, "type": "electric_scooter", "lon": -76.986542, "bike_id": "5b53f895baa288bd1d277bc30f70d4ed", "rental_uris": {"android": "https://dc.lft.to/lastmile_qr_scan", "ios": "https://dc.lft.to/lastmile_qr_scan"}, "name": "5b53f895baa288bd1d277bc30f70d4ed", "is_reserved": 0}, {"is_disabled": 0, "fusion_lon": 0.0, "fusion_lat": 0.0, "lat": 38.92751066666667, "type": "electric_scooter", "lon": -77.01620783333334, "bike_id": "24cc4ecd27c55a04d54dcafddd04629f", "rental_uris": {"android": "https://dc.lft.to/lastmile_qr_scan", "ios": "https://dc.lft.to/lastmile_qr_scan"}, "name": "24cc4ecd27c55a04d54dcafddd04629f", "is_reserved": 0}, {"is_disabled": 0, "fusion_lon": 0.0, "fusion_lat": 0.0, "lat": 38.911854, "type": "electric_scooter", "lon": -77.0351025, "bike_id": "7c618c18c4eb19fb24a049c6c1b8431f", "rental_uris": {"android": "https://dc.lft.to/lastmile_qr_scan", "ios": "https://dc.lft.to/lastmile_qr_scan"}, "name": "7c618c18c4eb19fb24a049c6c1b8431f", "is_reserved": 0}, {"is_disabled": 0, "fusion_lon": 0.0, "fusion_lat": 0.0, "lat": 38.900741, "type": "electric_scooter", "lon": -77.018285, "bike_id": "01005f3362e0351644009cd0b84adc8c", "rental_uris": {"android": "https://dc.lft.to/lastmile_qr_scan", "ios": "https://dc.lft.to/lastmile_qr_scan"}, "name": "01005f3362e0351644009cd0b84adc8c", "is_reserved": 0}, {"is_disabled": 0, "fusion_lon": 0.0, "fusion_lat": 0.0, "lat": 38.948934, "type": "electric_bike", "lon": -76.9636595, "bike_id": "5a0c70ad091d2cadeef16b68d98714ae", "rental_uris": {"android": "https://dc.lft.to/lastmile_qr_scan", "ios": "https://dc.lft.to/lastmile_qr_scan"}, "name": "5a0c70ad091d2cadeef16b68d98714ae", "is_reserved": 0}, {"is_disabled": 0, "fusion_lon": 0.0, "fusion_lat": 0.0, "lat": 38.90956216666667, "type": "electric_scooter", "lon": -77.0394795, "bike_id": "bef84850ac8fd9e80a6d39a2e33657e6", "rental_uris": {"android": "https://dc.lft.to/lastmile_qr_scan", "ios": "https://dc.lft.to/lastmile_qr_scan"}, "name": "bef84850ac8fd9e80a6d39a2e33657e6", "is_reserved": 0}, {"is_disabled": 0, "fusion_lon": 0.0, "fusion_lat": 0.0, "lat": 38.928107, "type": "electric_scooter", "lon": -77.02346116666666, "bike_id": "aefac419014d3f593f16918fabaa38d8", "rental_uris": {"android": "https://dc.lft.to/lastmile_qr_scan", "ios": "https://dc.lft.to/lastmile_qr_scan"}, "name": "aefac419014d3f593f16918fabaa38d8", "is_reserved": 0}, {"is_disabled": 0, "fusion_lon": 0.0, "fusion_lat": 0.0, "lat": 38.91703583333334, "type": "electric_scooter", "lon": -77.00116033333333, "bike_id": "55b4d796564eebc04e5824a46e834ece", "rental_uris": {"android": "https://dc.lft.to/lastmile_qr_scan", "ios": "https://dc.lft.to/lastmile_qr_scan"}, "name": "55b4d796564eebc04e5824a46e834ece", "is_reserved": 0}, {"is_disabled": 0, "fusion_lon": 0.0, "fusion_lat": 0.0, "lat": 38.922297, "type": "electric_scooter", "lon": -77.04340633333334, "bike_id": "5886fad333d564143c9efb99268c23d1", "rental_uris": {"android": "https://dc.lft.to/lastmile_qr_scan", "ios": "https://dc.lft.to/lastmile_qr_scan"}, "name": "5886fad333d564143c9efb99268c23d1", "is_reserved": 0}, {"is_disabled": 0, "fusion_lon": 0.0, "fusion_lat": 0.0, "lat": 38.91815866666666, "type": "electric_scooter", "lon": -77.02588733333333, "bike_id": "82a9d18254b5c4fff02c3c7fa6416911", "rental_uris": {"android": "https://dc.lft.to/lastmile_qr_scan", "ios": "https://dc.lft.to/lastmile_qr_scan"}, "name": "82a9d18254b5c4fff02c3c7fa6416911", "is_reserved": 0}, {"is_disabled": 0, "fusion_lon": 0.0, "fusion_lat": 0.0, "lat": 38.934099833333335, "type": "electric_scooter", "lon": -77.01964066666666, "bike_id": "9589406b213567f2d91b64e75b7ba873", "rental_uris": {"android": "https://dc.lft.to/lastmile_qr_scan", "ios": "https://dc.lft.to/lastmile_qr_scan"}, "name": "9589406b213567f2d91b64e75b7ba873", "is_reserved": 0}, {"is_disabled": 0, "fusion_lon": 0.0, "fusion_lat": 0.0, "lat": 38.9170005, "type": "electric_bike", "lon": -77.09567333333334, "bike_id": "58a34a543fe891786134df016062416e", "rental_uris": {"android": "https://dc.lft.to/lastmile_qr_scan", "ios": "https://dc.lft.to/lastmile_qr_scan"}, "name": "58a34a543fe891786134df016062416e", "is_reserved": 0}, {"is_disabled": 0, "fusion_lon": 0.0, "fusion_lat": 0.0, "lat": 38.933646333333336, "type": "electric_scooter", "lon": -77.05746116666667, "bike_id": "b6125a4d3f55500c61ca0772af6c9716", "rental_uris": {"android": "https://dc.lft.to/lastmile_qr_scan", "ios": "https://dc.lft.to/lastmile_qr_scan"}, "name": "b6125a4d3f55500c61ca0772af6c9716", "is_reserved": 0}, {"is_disabled": 0, "fusion_lon": 0.0, "fusion_lat": 0.0, "lat": 38.90257733333333, "type": "electric_scooter", "lon": -77.02008166666667, "bike_id": "2ff88eaed783075b4382ad1d0cb3f149", "rental_uris": {"android": "https://dc.lft.to/lastmile_qr_scan", "ios": "https://dc.lft.to/lastmile_qr_scan"}, "name": "2ff88eaed783075b4382ad1d0cb3f149", "is_reserved": 0}, {"is_disabled": 0, "fusion_lon": 0.0, "fusion_lat": 0.0, "lat": 39.0526525, "type": "electric_bike", "lon": -77.04385166666667, "bike_id": "6656f3b2779262fe81abc6116edfca22", "rental_uris": {"android": "https://dc.lft.to/lastmile_qr_scan", "ios": "https://dc.lft.to/lastmile_qr_scan"}, "name": "6656f3b2779262fe81abc6116edfca22", "is_reserved": 0}, {"is_disabled": 0, "fusion_lon": 0.0, "fusion_lat": 0.0, "lat": 39.05455233333333, "type": "electric_bike", "lon": -77.14327033333333, "bike_id": "868119e188dc2ed4ebd121e54f6c65f6", "rental_uris": {"android": "https://dc.lft.to/lastmile_qr_scan", "ios": "https://dc.lft.to/lastmile_qr_scan"}, "name": "868119e188dc2ed4ebd121e54f6c65f6", "is_reserved": 0}, {"is_disabled": 0, "fusion_lon": 0.0, "fusion_lat": 0.0, "lat": 38.77619466666667, "type": "electric_bike", "lon": -77.08354416666667, "bike_id": "90a9b67ca65dd01e2714ccd8b822c611", "rental_uris": {"android": "https://dc.lft.to/lastmile_qr_scan", "ios": "https://dc.lft.to/lastmile_qr_scan"}, "name": "90a9b67ca65dd01e2714ccd8b822c611", "is_reserved": 0}, {"is_disabled": 0, "fusion_lon": 0.0, "fusion_lat": 0.0, "lat": 38.90847466666666, "type": "electric_scooter", "lon": -77.05508016666667, "bike_id": "7b34a18e288e90dd7a753e5acbab9bc0", "rental_uris": {"android": "https://dc.lft.to/lastmile_qr_scan", "ios": "https://dc.lft.to/lastmile_qr_scan"}, "name": "7b34a18e288e90dd7a753e5acbab9bc0", "is_reserved": 0}, {"is_disabled": 0, "fusion_lon": 0.0, "fusion_lat": 0.0, "lat": 38.90509616666667, "type": "electric_scooter", "lon": -76.9823995, "bike_id": "26da654368d8aa24aee289d969cc2e11", "rental_uris": {"android": "https://dc.lft.to/lastmile_qr_scan", "ios": "https://dc.lft.to/lastmile_qr_scan"}, "name": "26da654368d8aa24aee289d969cc2e11", "is_reserved": 0}, {"is_disabled": 0, "fusion_lon": 0.0, "fusion_lat": 0.0, "lat": 38.88742366666666, "type": "electric_scooter", "lon": -77.0143425, "bike_id": "e9d87e1549f9bbb7ad2b65c228508ed0", "rental_uris": {"android": "https://dc.lft.to/lastmile_qr_scan", "ios": "https://dc.lft.to/lastmile_qr_scan"}, "name": "e9d87e1549f9bbb7ad2b65c228508ed0", "is_reserved": 0}, {"is_disabled": 0, "fusion_lon": 0.0, "fusion_lat": 0.0, "lat": 38.8961255, "type": "electric_scooter", "lon": -77.00917916666667, "bike_id": "1b839e554feac2db1b0f481c80f62ddf", "rental_uris": {"android": "https://dc.lft.to/lastmile_qr_scan", "ios": "https://dc.lft.to/lastmile_qr_scan"}, "name": "1b839e554feac2db1b0f481c80f62ddf", "is_reserved": 0}, {"is_disabled": 0, "fusion_lon": 0.0, "fusion_lat": 0.0, "lat": 38.8938315, "type": "electric_scooter", "lon": -76.94990916666667, "bike_id": "f462715f157989076ec6b2c38ae688df", "rental_uris": {"android": "https://dc.lft.to/lastmile_qr_scan", "ios": "https://dc.lft.to/lastmile_qr_scan"}, "name": "f462715f157989076ec6b2c38ae688df", "is_reserved": 0}, {"is_disabled": 0, "fusion_lon": 0.0, "fusion_lat": 0.0, "lat": 38.889555666666666, "type": "electric_scooter", "lon": -76.991392, "bike_id": "3b2cc4a4edb51880928b7856de7708f7", "rental_uris": {"android": "https://dc.lft.to/lastmile_qr_scan", "ios": "https://dc.lft.to/lastmile_qr_scan"}, "name": "3b2cc4a4edb51880928b7856de7708f7", "is_reserved": 0}, {"is_disabled": 0, "fusion_lon": 0.0, "fusion_lat": 0.0, "lat": 38.92837883333333, "type": "electric_scooter", "lon": -77.0554085, "bike_id": "227310c593d3ca571b6abbacf4b75bf6", "rental_uris": {"android": "https://dc.lft.to/lastmile_qr_scan", "ios": "https://dc.lft.to/lastmile_qr_scan"}, "name": "227310c593d3ca571b6abbacf4b75bf6", "is_reserved": 0}, {"is_disabled": 0, "fusion_lon": 0.0, "fusion_lat": 0.0, "lat": 38.91034833333333, "type": "electric_scooter", "lon": -77.03801516666667, "bike_id": "01f97bc6a2511215a73de9f3b85edefb", "rental_uris": {"android": "https://dc.lft.to/lastmile_qr_scan", "ios": "https://dc.lft.to/lastmile_qr_scan"}, "name": "01f97bc6a2511215a73de9f3b85edefb", "is_reserved": 0}, {"is_disabled": 0, "fusion_lon": 0.0, "fusion_lat": 0.0, "lat": 38.88851283333333, "type": "electric_bike", "lon": -76.97704316666666, "bike_id": "7669b6e74e84dfe42f54c60e2439dbbd", "rental_uris": {"android": "https://dc.lft.to/lastmile_qr_scan", "ios": "https://dc.lft.to/lastmile_qr_scan"}, "name": "7669b6e74e84dfe42f54c60e2439dbbd", "is_reserved": 0}, {"is_disabled": 0, "fusion_lon": 0.0, "fusion_lat": 0.0, "lat": 38.8680735, "type": "electric_scooter", "lon": -77.01171466666666, "bike_id": "90c285154d6318062e20f542dd66c3ce", "rental_uris": {"android": "https://dc.lft.to/lastmile_qr_scan", "ios": "https://dc.lft.to/lastmile_qr_scan"}, "name": "90c285154d6318062e20f542dd66c3ce", "is_reserved": 0}, {"is_disabled": 0, "fusion_lon": 0.0, "fusion_lat": 0.0, "lat": 38.91879333333333, "type": "electric_scooter", "lon": -77.04723683333333, "bike_id": "384a7804fce62ee597b7365ec8d36027", "rental_uris": {"android": "https://dc.lft.to/lastmile_qr_scan", "ios": "https://dc.lft.to/lastmile_qr_scan"}, "name": "384a7804fce62ee597b7365ec8d36027", "is_reserved": 0}, {"is_disabled": 0, "fusion_lon": 0.0, "fusion_lat": 0.0, "lat": 38.8994785, "type": "electric_scooter", "lon": -77.04616116666666, "bike_id": "0c416377449d4389baeea7742014d58b", "rental_uris": {"android": "https://dc.lft.to/lastmile_qr_scan", "ios": "https://dc.lft.to/lastmile_qr_scan"}, "name": "0c416377449d4389baeea7742014d58b", "is_reserved": 0}, {"is_disabled": 0, "fusion_lon": 0.0, "fusion_lat": 0.0, "lat": 38.9156045, "type": "electric_scooter", "lon": -77.032718, "bike_id": "1b5e7fba2c2131b8f8b31211f4648246", "rental_uris": {"android": "https://dc.lft.to/lastmile_qr_scan", "ios": "https://dc.lft.to/lastmile_qr_scan"}, "name": "1b5e7fba2c2131b8f8b31211f4648246", "is_reserved": 0}, {"is_disabled": 0, "fusion_lon": 0.0, "fusion_lat": 0.0, "lat": 38.896137833333334, "type": "electric_scooter", "lon": -76.99635216666667, "bike_id": "556862741a371319c427c1373a1eb3f9", "rental_uris": {"android": "https://dc.lft.to/lastmile_qr_scan", "ios": "https://dc.lft.to/lastmile_qr_scan"}, "name": "556862741a371319c427c1373a1eb3f9", "is_reserved": 0}, {"is_disabled": 0, "fusion_lon": 0.0, "fusion_lat": 0.0, "lat": 38.91870433333333, "type": "electric_bike", "lon": -76.96123333333334, "bike_id": "9dece90b118ba8a7f61aa3692e59d28a", "rental_uris": {"android": "https://dc.lft.to/lastmile_qr_scan", "ios": "https://dc.lft.to/lastmile_qr_scan"}, "name": "9dece90b118ba8a7f61aa3692e59d28a", "is_reserved": 0}, {"is_disabled": 0, "fusion_lon": 0.0, "fusion_lat": 0.0, "lat": 38.91260616666667, "type": "electric_scooter", "lon": -77.03264716666666, "bike_id": "5e53c52238a8aa29703997329585cc6a", "rental_uris": {"android": "https://dc.lft.to/lastmile_qr_scan", "ios": "https://dc.lft.to/lastmile_qr_scan"}, "name": "5e53c52238a8aa29703997329585cc6a", "is_reserved": 0}, {"is_disabled": 0, "fusion_lon": 0.0, "fusion_lat": 0.0, "lat": 38.93186683333333, "type": "electric_scooter", "lon": -77.02827266666667, "bike_id": "d77deda693821f6f420491f02ba7912a", "rental_uris": {"android": "https://dc.lft.to/lastmile_qr_scan", "ios": "https://dc.lft.to/lastmile_qr_scan"}, "name": "d77deda693821f6f420491f02ba7912a", "is_reserved": 0}, {"is_disabled": 0, "fusion_lon": 0.0, "fusion_lat": 0.0, "lat": 38.901768833333335, "type": "electric_scooter", "lon": -76.92823883333334, "bike_id": "43de1c3fd96e90ecd9450ee52cec9ca5", "rental_uris": {"android": "https://dc.lft.to/lastmile_qr_scan", "ios": "https://dc.lft.to/lastmile_qr_scan"}, "name": "43de1c3fd96e90ecd9450ee52cec9ca5", "is_reserved": 0}, {"is_disabled": 0, "fusion_lon": 0.0, "fusion_lat": 0.0, "lat": 38.917044833333335, "type": "electric_scooter", "lon": -77.03231516666666, "bike_id": "03095b6b841c6a7c88d14e067641723f", "rental_uris": {"android": "https://dc.lft.to/lastmile_qr_scan", "ios": "https://dc.lft.to/lastmile_qr_scan"}, "name": "03095b6b841c6a7c88d14e067641723f", "is_reserved": 0}, {"is_disabled": 0, "fusion_lon": 0.0, "fusion_lat": 0.0, "lat": 38.910922, "type": "electric_scooter", "lon": -77.03853583333333, "bike_id": "4e71b4cefe3a079ef336f48f37a61c17", "rental_uris": {"android": "https://dc.lft.to/lastmile_qr_scan", "ios": "https://dc.lft.to/lastmile_qr_scan"}, "name": "4e71b4cefe3a079ef336f48f37a61c17", "is_reserved": 0}, {"is_disabled": 0, "fusion_lon": 0.0, "fusion_lat": 0.0, "lat": 38.9478775, "type": "electric_scooter", "lon": -77.09276483333333, "bike_id": "84decd2834863dbea0c0d7dd280361e8", "rental_uris": {"android": "https://dc.lft.to/lastmile_qr_scan", "ios": "https://dc.lft.to/lastmile_qr_scan"}, "name": "84decd2834863dbea0c0d7dd280361e8", "is_reserved": 0}, {"is_disabled": 0, "fusion_lon": 0.0, "fusion_lat": 0.0, "lat": 38.90538383333333, "type": "electric_scooter", "lon": -77.02981333333334, "bike_id": "e21765375ea36afd2e45ef77e96f6790", "rental_uris": {"android": "https://dc.lft.to/lastmile_qr_scan", "ios": "https://dc.lft.to/lastmile_qr_scan"}, "name": "e21765375ea36afd2e45ef77e96f6790", "is_reserved": 0}, {"is_disabled": 0, "fusion_lon": 0.0, "fusion_lat": 0.0, "lat": 38.865843166666664, "type": "electric_scooter", "lon": -76.9903375, "bike_id": "5c07186f9c8edab3c225947a59afc704", "rental_uris": {"android": "https://dc.lft.to/lastmile_qr_scan", "ios": "https://dc.lft.to/lastmile_qr_scan"}, "name": "5c07186f9c8edab3c225947a59afc704", "is_reserved": 0}, {"is_disabled": 0, "fusion_lon": 0.0, "fusion_lat": 0.0, "lat": 38.911011333333335, "type": "electric_scooter", "lon": -77.03720733333333, "bike_id": "ce8352755085aa2707560d5e1f34c1d1", "rental_uris": {"android": "https://dc.lft.to/lastmile_qr_scan", "ios": "https://dc.lft.to/lastmile_qr_scan"}, "name": "ce8352755085aa2707560d5e1f34c1d1", "is_reserved": 0}, {"is_disabled": 0, "fusion_lon": 0.0, "fusion_lat": 0.0, "lat": 38.9083325, "type": "electric_scooter", "lon": -77.02345933333334, "bike_id": "061c0b9f55255669d18a418e22691ddb", "rental_uris": {"android": "https://dc.lft.to/lastmile_qr_scan", "ios": "https://dc.lft.to/lastmile_qr_scan"}, "name": "061c0b9f55255669d18a418e22691ddb", "is_reserved": 0}, {"is_disabled": 0, "fusion_lon": 0.0, "fusion_lat": 0.0, "lat": 38.932385, "type": "electric_scooter", "lon": -77.028518, "bike_id": "d856d390594b7efb684a85baf84fceba", "rental_uris": {"android": "https://dc.lft.to/lastmile_qr_scan", "ios": "https://dc.lft.to/lastmile_qr_scan"}, "name": "d856d390594b7efb684a85baf84fceba", "is_reserved": 0}, {"is_disabled": 0, "fusion_lon": 0.0, "fusion_lat": 0.0, "lat": 38.932322666666664, "type": "electric_scooter", "lon": -76.99933616666667, "bike_id": "2ed3c54b9a9d4550bf8427ea9395733e", "rental_uris": {"android": "https://dc.lft.to/lastmile_qr_scan", "ios": "https://dc.lft.to/lastmile_qr_scan"}, "name": "2ed3c54b9a9d4550bf8427ea9395733e", "is_reserved": 0}, {"is_disabled": 0, "fusion_lon": 0.0, "fusion_lat": 0.0, "lat": 38.912539833333334, "type": "electric_scooter", "lon": -77.0374785, "bike_id": "e10b207894d0a9c7ea3200a63516539a", "rental_uris": {"android": "https://dc.lft.to/lastmile_qr_scan", "ios": "https://dc.lft.to/lastmile_qr_scan"}, "name": "e10b207894d0a9c7ea3200a63516539a", "is_reserved": 0}, {"is_disabled": 0, "fusion_lon": 0.0, "fusion_lat": 0.0, "lat": 38.888349166666664, "type": "electric_scooter", "lon": -76.917729, "bike_id": "bfd8281c2007646154772a5ab3d7f9bc", "rental_uris": {"android": "https://dc.lft.to/lastmile_qr_scan", "ios": "https://dc.lft.to/lastmile_qr_scan"}, "name": "bfd8281c2007646154772a5ab3d7f9bc", "is_reserved": 0}, {"is_disabled": 0, "fusion_lon": 0.0, "fusion_lat": 0.0, "lat": 38.88503516666667, "type": "electric_scooter", "lon": -77.02512633333333, "bike_id": "d5d92aab32c76089d89969f9b7d1e703", "rental_uris": {"android": "https://dc.lft.to/lastmile_qr_scan", "ios": "https://dc.lft.to/lastmile_qr_scan"}, "name": "d5d92aab32c76089d89969f9b7d1e703", "is_reserved": 0}, {"is_disabled": 0, "fusion_lon": 0.0, "fusion_lat": 0.0, "lat": 38.938554, "type": "electric_scooter", "lon": -77.02470916666667, "bike_id": "d9f0b2131918554d02dc7f22ad445bab", "rental_uris": {"android": "https://dc.lft.to/lastmile_qr_scan", "ios": "https://dc.lft.to/lastmile_qr_scan"}, "name": "d9f0b2131918554d02dc7f22ad445bab", "is_reserved": 0}, {"is_disabled": 0, "fusion_lon": 0.0, "fusion_lat": 0.0, "lat": 38.90714966666667, "type": "electric_scooter", "lon": -77.023935, "bike_id": "09f37fea9891978b11e3877627a08926", "rental_uris": {"android": "https://dc.lft.to/lastmile_qr_scan", "ios": "https://dc.lft.to/lastmile_qr_scan"}, "name": "09f37fea9891978b11e3877627a08926", "is_reserved": 0}, {"is_disabled": 0, "fusion_lon": 0.0, "fusion_lat": 0.0, "lat": 38.9317465, "type": "electric_scooter", "lon": -77.02819716666667, "bike_id": "84b35ee3da22ea04eccdebdeaad195a9", "rental_uris": {"android": "https://dc.lft.to/lastmile_qr_scan", "ios": "https://dc.lft.to/lastmile_qr_scan"}, "name": "84b35ee3da22ea04eccdebdeaad195a9", "is_reserved": 0}, {"is_disabled": 0, "fusion_lon": 0.0, "fusion_lat": 0.0, "lat": 38.912627666666666, "type": "electric_scooter", "lon": -77.03145316666667, "bike_id": "bbb245ad4c443aa57b40e5ecdcaa0b48", "rental_uris": {"android": "https://dc.lft.to/lastmile_qr_scan", "ios": "https://dc.lft.to/lastmile_qr_scan"}, "name": "bbb245ad4c443aa57b40e5ecdcaa0b48", "is_reserved": 0}, {"is_disabled": 0, "fusion_lon": 0.0, "fusion_lat": 0.0, "lat": 38.93601233333333, "type": "electric_scooter", "lon": -77.058681, "bike_id": "fa56c9de9f59a7033dc991d5da28ef2b", "rental_uris": {"android": "https://dc.lft.to/lastmile_qr_scan", "ios": "https://dc.lft.to/lastmile_qr_scan"}, "name": "fa56c9de9f59a7033dc991d5da28ef2b", "is_reserved": 0}, {"is_disabled": 0, "fusion_lon": 0.0, "fusion_lat": 0.0, "lat": 38.90529466666667, "type": "electric_scooter", "lon": -76.9879275, "bike_id": "561d8bf747698b32a3606d520e91f017", "rental_uris": {"android": "https://dc.lft.to/lastmile_qr_scan", "ios": "https://dc.lft.to/lastmile_qr_scan"}, "name": "561d8bf747698b32a3606d520e91f017", "is_reserved": 0}, {"is_disabled": 0, "fusion_lon": 0.0, "fusion_lat": 0.0, "lat": 38.910410666666664, "type": "electric_scooter", "lon": -77.04054766666667, "bike_id": "e41d1228c228e28030116d8c2be20ec0", "rental_uris": {"android": "https://dc.lft.to/lastmile_qr_scan", "ios": "https://dc.lft.to/lastmile_qr_scan"}, "name": "e41d1228c228e28030116d8c2be20ec0", "is_reserved": 0}, {"is_disabled": 0, "fusion_lon": 0.0, "fusion_lat": 0.0, "lat": 38.898747666666665, "type": "electric_scooter", "lon": -76.9318525, "bike_id": "85c6a4bbf4a0318cb59bf91892910432", "rental_uris": {"android": "https://dc.lft.to/lastmile_qr_scan", "ios": "https://dc.lft.to/lastmile_qr_scan"}, "name": "85c6a4bbf4a0318cb59bf91892910432", "is_reserved": 0}, {"is_disabled": 0, "fusion_lon": 0.0, "fusion_lat": 0.0, "lat": 38.905018, "type": "electric_scooter", "lon": -76.9885215, "bike_id": "7a806d9251bfb6ffc4f182d6f648e0f4", "rental_uris": {"android": "https://dc.lft.to/lastmile_qr_scan", "ios": "https://dc.lft.to/lastmile_qr_scan"}, "name": "7a806d9251bfb6ffc4f182d6f648e0f4", "is_reserved": 0}, {"is_disabled": 0, "fusion_lon": 0.0, "fusion_lat": 0.0, "lat": 38.88762966666667, "type": "electric_scooter", "lon": -76.95669483333333, "bike_id": "f6d9d709d5af98b74524e588af5f585b", "rental_uris": {"android": "https://dc.lft.to/lastmile_qr_scan", "ios": "https://dc.lft.to/lastmile_qr_scan"}, "name": "f6d9d709d5af98b74524e588af5f585b", "is_reserved": 0}, {"is_disabled": 0, "fusion_lon": 0.0, "fusion_lat": 0.0, "lat": 38.8983865, "type": "electric_scooter", "lon": -77.03190316666667, "bike_id": "941da652b3cb2afa94341080fccb65c8", "rental_uris": {"android": "https://dc.lft.to/lastmile_qr_scan", "ios": "https://dc.lft.to/lastmile_qr_scan"}, "name": "941da652b3cb2afa94341080fccb65c8", "is_reserved": 0}, {"is_disabled": 0, "fusion_lon": 0.0, "fusion_lat": 0.0, "lat": 38.92624083333333, "type": "electric_scooter", "lon": -77.057059, "bike_id": "190ca0306145582857058205f9233888", "rental_uris": {"android": "https://dc.lft.to/lastmile_qr_scan", "ios": "https://dc.lft.to/lastmile_qr_scan"}, "name": "190ca0306145582857058205f9233888", "is_reserved": 0}, {"is_disabled": 0, "fusion_lon": 0.0, "fusion_lat": 0.0, "lat": 38.90380066666667, "type": "electric_bike", "lon": -76.99551366666667, "bike_id": "6528300414bdf6d41f941f71847de51a", "rental_uris": {"android": "https://dc.lft.to/lastmile_qr_scan", "ios": "https://dc.lft.to/lastmile_qr_scan"}, "name": "6528300414bdf6d41f941f71847de51a", "is_reserved": 0}, {"is_disabled": 0, "fusion_lon": 0.0, "fusion_lat": 0.0, "lat": 38.89602816666667, "type": "electric_scooter", "lon": -77.00920983333333, "bike_id": "f2ca5b42170ae47209cc30be01bbaf7d", "rental_uris": {"android": "https://dc.lft.to/lastmile_qr_scan", "ios": "https://dc.lft.to/lastmile_qr_scan"}, "name": "f2ca5b42170ae47209cc30be01bbaf7d", "is_reserved": 0}, {"is_disabled": 0, "fusion_lon": 0.0, "fusion_lat": 0.0, "lat": 38.875268, "type": "electric_scooter", "lon": -77.00072816666666, "bike_id": "3af654243f31b156f24f038f26f200bd", "rental_uris": {"android": "https://dc.lft.to/lastmile_qr_scan", "ios": "https://dc.lft.to/lastmile_qr_scan"}, "name": "3af654243f31b156f24f038f26f200bd", "is_reserved": 0}, {"is_disabled": 0, "fusion_lon": 0.0, "fusion_lat": 0.0, "lat": 38.91516766666667, "type": "electric_scooter", "lon": -77.01981433333333, "bike_id": "df9da3d8e238ddad82b6f798b8e3284c", "rental_uris": {"android": "https://dc.lft.to/lastmile_qr_scan", "ios": "https://dc.lft.to/lastmile_qr_scan"}, "name": "df9da3d8e238ddad82b6f798b8e3284c", "is_reserved": 0}, {"is_disabled": 0, "fusion_lon": 0.0, "fusion_lat": 0.0, "lat": 38.9312885, "type": "electric_scooter", "lon": -77.07849683333333, "bike_id": "74d641ade13f94136ca8e068dd7d27ce", "rental_uris": {"android": "https://dc.lft.to/lastmile_qr_scan", "ios": "https://dc.lft.to/lastmile_qr_scan"}, "name": "74d641ade13f94136ca8e068dd7d27ce", "is_reserved": 0}, {"is_disabled": 0, "fusion_lon": 0.0, "fusion_lat": 0.0, "lat": 38.913815666666665, "type": "electric_scooter", "lon": -77.01703583333334, "bike_id": "a50b10662cfa1b161a34eac7bed38769", "rental_uris": {"android": "https://dc.lft.to/lastmile_qr_scan", "ios": "https://dc.lft.to/lastmile_qr_scan"}, "name": "a50b10662cfa1b161a34eac7bed38769", "is_reserved": 0}, {"is_disabled": 0, "fusion_lon": 0.0, "fusion_lat": 0.0, "lat": 38.899809, "type": "electric_scooter", "lon": -77.03332733333333, "bike_id": "be32b3a99b54c4adc87a8f0e7d40eb1d", "rental_uris": {"android": "https://dc.lft.to/lastmile_qr_scan", "ios": "https://dc.lft.to/lastmile_qr_scan"}, "name": "be32b3a99b54c4adc87a8f0e7d40eb1d", "is_reserved": 0}, {"is_disabled": 0, "fusion_lon": 0.0, "fusion_lat": 0.0, "lat": 38.945088, "type": "electric_bike", "lon": -77.00668983333334, "bike_id": "23d3f9ad25e6368f9c786039df89abf9", "rental_uris": {"android": "https://dc.lft.to/lastmile_qr_scan", "ios": "https://dc.lft.to/lastmile_qr_scan"}, "name": "23d3f9ad25e6368f9c786039df89abf9", "is_reserved": 0}, {"is_disabled": 0, "fusion_lon": 0.0, "fusion_lat": 0.0, "lat": 38.9109, "type": "electric_scooter", "lon": -77.02178016666667, "bike_id": "9f6a6ed6c6fa3f74133160abb96b0cda", "rental_uris": {"android": "https://dc.lft.to/lastmile_qr_scan", "ios": "https://dc.lft.to/lastmile_qr_scan"}, "name": "9f6a6ed6c6fa3f74133160abb96b0cda", "is_reserved": 0}, {"is_disabled": 0, "fusion_lon": 0.0, "fusion_lat": 0.0, "lat": 38.91850183333333, "type": "electric_scooter", "lon": -77.02291283333334, "bike_id": "adbef24a7791ff9364eca829e7c7a51f", "rental_uris": {"android": "https://dc.lft.to/lastmile_qr_scan", "ios": "https://dc.lft.to/lastmile_qr_scan"}, "name": "adbef24a7791ff9364eca829e7c7a51f", "is_reserved": 0}, {"is_disabled": 0, "fusion_lon": 0.0, "fusion_lat": 0.0, "lat": 38.9076755, "type": "electric_scooter", "lon": -77.0326945, "bike_id": "1d61235ebeb5c9c24537a64bc3d32c18", "rental_uris": {"android": "https://dc.lft.to/lastmile_qr_scan", "ios": "https://dc.lft.to/lastmile_qr_scan"}, "name": "1d61235ebeb5c9c24537a64bc3d32c18", "is_reserved": 0}, {"is_disabled": 0, "fusion_lon": 0.0, "fusion_lat": 0.0, "lat": 38.9757375, "type": "electric_bike", "lon": -76.96407566666667, "bike_id": "ce781a755d6054020c722c6118851345", "rental_uris": {"android": "https://dc.lft.to/lastmile_qr_scan", "ios": "https://dc.lft.to/lastmile_qr_scan"}, "name": "ce781a755d6054020c722c6118851345", "is_reserved": 0}, {"is_disabled": 0, "fusion_lon": 0.0, "fusion_lat": 0.0, "lat": 38.9922515, "type": "electric_bike", "lon": -76.87773816666666, "bike_id": "5d21930a83aa221e358f55219585883c", "rental_uris": {"android": "https://dc.lft.to/lastmile_qr_scan", "ios": "https://dc.lft.to/lastmile_qr_scan"}, "name": "5d21930a83aa221e358f55219585883c", "is_reserved": 0}, {"is_disabled": 0, "fusion_lon": 0.0, "fusion_lat": 0.0, "lat": 38.932906333333335, "type": "electric_scooter", "lon": -77.02393416666666, "bike_id": "d9473ff84ea675c5b2f0fec330b8851b", "rental_uris": {"android": "https://dc.lft.to/lastmile_qr_scan", "ios": "https://dc.lft.to/lastmile_qr_scan"}, "name": "d9473ff84ea675c5b2f0fec330b8851b", "is_reserved": 0}, {"is_disabled": 0, "fusion_lon": 0.0, "fusion_lat": 0.0, "lat": 38.908275833333335, "type": "electric_bike", "lon": -76.94156416666667, "bike_id": "466db89e8a67797d1462f929232308be", "rental_uris": {"android": "https://dc.lft.to/lastmile_qr_scan", "ios": "https://dc.lft.to/lastmile_qr_scan"}, "name": "466db89e8a67797d1462f929232308be", "is_reserved": 0}, {"is_disabled": 0, "fusion_lon": 0.0, "fusion_lat": 0.0, "lat": 38.887372666666664, "type": "electric_scooter", "lon": -77.022741, "bike_id": "b0bff5b46defbaa5e2110c52d51f6592", "rental_uris": {"android": "https://dc.lft.to/lastmile_qr_scan", "ios": "https://dc.lft.to/lastmile_qr_scan"}, "name": "b0bff5b46defbaa5e2110c52d51f6592", "is_reserved": 0}, {"is_disabled": 0, "fusion_lon": 0.0, "fusion_lat": 0.0, "lat": 38.889654666666665, "type": "electric_bike", "lon": -76.94865516666667, "bike_id": "c490161231e03cad2848606cc111b19f", "rental_uris": {"android": "https://dc.lft.to/lastmile_qr_scan", "ios": "https://dc.lft.to/lastmile_qr_scan"}, "name": "c490161231e03cad2848606cc111b19f", "is_reserved": 0}, {"is_disabled": 0, "fusion_lon": 0.0, "fusion_lat": 0.0, "lat": 38.88819316666667, "type": "electric_bike", "lon": -77.1273685, "bike_id": "8173a11cb2eb05d88079b00821ea743b", "rental_uris": {"android": "https://dc.lft.to/lastmile_qr_scan", "ios": "https://dc.lft.to/lastmile_qr_scan"}, "name": "8173a11cb2eb05d88079b00821ea743b", "is_reserved": 0}, {"is_disabled": 0, "fusion_lon": 0.0, "fusion_lat": 0.0, "lat": 38.89806733333333, "type": "electric_scooter", "lon": -77.02945083333333, "bike_id": "64b30c3ab264d419d6bdc4d2aaf84703", "rental_uris": {"android": "https://dc.lft.to/lastmile_qr_scan", "ios": "https://dc.lft.to/lastmile_qr_scan"}, "name": "64b30c3ab264d419d6bdc4d2aaf84703", "is_reserved": 0}, {"is_disabled": 0, "fusion_lon": 0.0, "fusion_lat": 0.0, "lat": 38.910224666666664, "type": "electric_scooter", "lon": -77.00758166666667, "bike_id": "efc9bf702f4ac6f0f2b90a7d8561732b", "rental_uris": {"android": "https://dc.lft.to/lastmile_qr_scan", "ios": "https://dc.lft.to/lastmile_qr_scan"}, "name": "efc9bf702f4ac6f0f2b90a7d8561732b", "is_reserved": 0}, {"is_disabled": 0, "fusion_lon": 0.0, "fusion_lat": 0.0, "lat": 38.89832, "type": "electric_scooter", "lon": -76.94633933333333, "bike_id": "6128a3a83100af4d568f7ce02475c24c", "rental_uris": {"android": "https://dc.lft.to/lastmile_qr_scan", "ios": "https://dc.lft.to/lastmile_qr_scan"}, "name": "6128a3a83100af4d568f7ce02475c24c", "is_reserved": 0}, {"is_disabled": 0, "fusion_lon": 0.0, "fusion_lat": 0.0, "lat": 38.902840166666664, "type": "electric_scooter", "lon": -77.03345233333333, "bike_id": "6309f1cb3b5d470a5a538a4be157fed8", "rental_uris": {"android": "https://dc.lft.to/lastmile_qr_scan", "ios": "https://dc.lft.to/lastmile_qr_scan"}, "name": "6309f1cb3b5d470a5a538a4be157fed8", "is_reserved": 0}, {"is_disabled": 0, "fusion_lon": 0.0, "fusion_lat": 0.0, "lat": 38.898499666666666, "type": "electric_scooter", "lon": -77.03364083333334, "bike_id": "28726ee850285febf7507172484f2886", "rental_uris": {"android": "https://dc.lft.to/lastmile_qr_scan", "ios": "https://dc.lft.to/lastmile_qr_scan"}, "name": "28726ee850285febf7507172484f2886", "is_reserved": 0}, {"is_disabled": 0, "fusion_lon": 0.0, "fusion_lat": 0.0, "lat": 38.8957345, "type": "electric_scooter", "lon": -77.023035, "bike_id": "baa0fb157dc93b7a6f15c51aa5b73fec", "rental_uris": {"android": "https://dc.lft.to/lastmile_qr_scan", "ios": "https://dc.lft.to/lastmile_qr_scan"}, "name": "baa0fb157dc93b7a6f15c51aa5b73fec", "is_reserved": 0}, {"is_disabled": 0, "fusion_lon": 0.0, "fusion_lat": 0.0, "lat": 38.902359833333335, "type": "electric_scooter", "lon": -77.03448116666667, "bike_id": "5c9ffb0a5952991c8bdb721d84df085a", "rental_uris": {"android": "https://dc.lft.to/lastmile_qr_scan", "ios": "https://dc.lft.to/lastmile_qr_scan"}, "name": "5c9ffb0a5952991c8bdb721d84df085a", "is_reserved": 0}, {"is_disabled": 0, "fusion_lon": 0.0, "fusion_lat": 0.0, "lat": 38.899428666666665, "type": "electric_scooter", "lon": -77.029418, "bike_id": "bb5f080f7b07fa54be950a9ba31c523c", "rental_uris": {"android": "https://dc.lft.to/lastmile_qr_scan", "ios": "https://dc.lft.to/lastmile_qr_scan"}, "name": "bb5f080f7b07fa54be950a9ba31c523c", "is_reserved": 0}, {"is_disabled": 0, "fusion_lon": 0.0, "fusion_lat": 0.0, "lat": 38.915866333333334, "type": "electric_bike", "lon": -76.97150516666666, "bike_id": "a597eba95b98eeb89537d851b0ba8830", "rental_uris": {"android": "https://dc.lft.to/lastmile_qr_scan", "ios": "https://dc.lft.to/lastmile_qr_scan"}, "name": "a597eba95b98eeb89537d851b0ba8830", "is_reserved": 0}, {"is_disabled": 0, "fusion_lon": 0.0, "fusion_lat": 0.0, "lat": 38.97539166666667, "type": "electric_bike", "lon": -76.9953005, "bike_id": "5a3ebf800dbb2daa2ec8678c6a941a77", "rental_uris": {"android": "https://dc.lft.to/lastmile_qr_scan", "ios": "https://dc.lft.to/lastmile_qr_scan"}, "name": "5a3ebf800dbb2daa2ec8678c6a941a77", "is_reserved": 0}, {"is_disabled": 0, "fusion_lon": 0.0, "fusion_lat": 0.0, "lat": 38.908424, "type": "electric_scooter", "lon": -77.00982366666666, "bike_id": "d9ca16a1b9e35bd6710613dfe04b63c4", "rental_uris": {"android": "https://dc.lft.to/lastmile_qr_scan", "ios": "https://dc.lft.to/lastmile_qr_scan"}, "name": "d9ca16a1b9e35bd6710613dfe04b63c4", "is_reserved": 0}, {"is_disabled": 0, "fusion_lon": 0.0, "fusion_lat": 0.0, "lat": 38.92459366666667, "type": "electric_scooter", "lon": -77.029632, "bike_id": "911166eb7eb022dac1f37e060c4d35d2", "rental_uris": {"android": "https://dc.lft.to/lastmile_qr_scan", "ios": "https://dc.lft.to/lastmile_qr_scan"}, "name": "911166eb7eb022dac1f37e060c4d35d2", "is_reserved": 0}, {"is_disabled": 0, "fusion_lon": 0.0, "fusion_lat": 0.0, "lat": 38.88166116666667, "type": "electric_scooter", "lon": -77.01297683333334, "bike_id": "6c65dc861ab76ab76e7c30bfab05f255", "rental_uris": {"android": "https://dc.lft.to/lastmile_qr_scan", "ios": "https://dc.lft.to/lastmile_qr_scan"}, "name": "6c65dc861ab76ab76e7c30bfab05f255", "is_reserved": 0}, {"is_disabled": 0, "fusion_lon": 0.0, "fusion_lat": 0.0, "lat": 38.911162166666664, "type": "electric_scooter", "lon": -77.02234133333333, "bike_id": "de3ac6033e2f895764391a5521e39dad", "rental_uris": {"android": "https://dc.lft.to/lastmile_qr_scan", "ios": "https://dc.lft.to/lastmile_qr_scan"}, "name": "de3ac6033e2f895764391a5521e39dad", "is_reserved": 0}, {"is_disabled": 0, "fusion_lon": 0.0, "fusion_lat": 0.0, "lat": 38.9232595, "type": "electric_scooter", "lon": -77.04315183333334, "bike_id": "da46e13fa334231651b3380528d73e7d", "rental_uris": {"android": "https://dc.lft.to/lastmile_qr_scan", "ios": "https://dc.lft.to/lastmile_qr_scan"}, "name": "da46e13fa334231651b3380528d73e7d", "is_reserved": 0}, {"is_disabled": 0, "fusion_lon": 0.0, "fusion_lat": 0.0, "lat": 38.90824633333333, "type": "electric_scooter", "lon": -76.99688916666666, "bike_id": "786f07f1777ff74b5cd38e85611140dc", "rental_uris": {"android": "https://dc.lft.to/lastmile_qr_scan", "ios": "https://dc.lft.to/lastmile_qr_scan"}, "name": "786f07f1777ff74b5cd38e85611140dc", "is_reserved": 0}, {"is_disabled": 0, "fusion_lon": 0.0, "fusion_lat": 0.0, "lat": 38.9170425, "type": "electric_scooter", "lon": -77.024635, "bike_id": "895d7d5a9a18b98a936b60955902a6b1", "rental_uris": {"android": "https://dc.lft.to/lastmile_qr_scan", "ios": "https://dc.lft.to/lastmile_qr_scan"}, "name": "895d7d5a9a18b98a936b60955902a6b1", "is_reserved": 0}, {"is_disabled": 0, "fusion_lon": 0.0, "fusion_lat": 0.0, "lat": 38.947851, "type": "electric_bike", "lon": -77.08068766666666, "bike_id": "f8d7812b57a67d1f84ebd22928ab0632", "rental_uris": {"android": "https://dc.lft.to/lastmile_qr_scan", "ios": "https://dc.lft.to/lastmile_qr_scan"}, "name": "f8d7812b57a67d1f84ebd22928ab0632", "is_reserved": 0}, {"is_disabled": 0, "fusion_lon": 0.0, "fusion_lat": 0.0, "lat": 38.8690625, "type": "electric_bike", "lon": -77.1317795, "bike_id": "49410eeed7d5e138eeba5450a01c2a04", "rental_uris": {"android": "https://dc.lft.to/lastmile_qr_scan", "ios": "https://dc.lft.to/lastmile_qr_scan"}, "name": "49410eeed7d5e138eeba5450a01c2a04", "is_reserved": 0}, {"is_disabled": 0, "fusion_lon": 0.0, "fusion_lat": 0.0, "lat": 38.93004033333333, "type": "electric_scooter", "lon": -77.02210933333333, "bike_id": "d51a198598bc139a404993b3d1e54f81", "rental_uris": {"android": "https://dc.lft.to/lastmile_qr_scan", "ios": "https://dc.lft.to/lastmile_qr_scan"}, "name": "d51a198598bc139a404993b3d1e54f81", "is_reserved": 0}, {"is_disabled": 0, "fusion_lon": 0.0, "fusion_lat": 0.0, "lat": 38.919842333333335, "type": "electric_bike", "lon": -76.973118, "bike_id": "5b88474eef219b6df8ad173ea81f6d21", "rental_uris": {"android": "https://dc.lft.to/lastmile_qr_scan", "ios": "https://dc.lft.to/lastmile_qr_scan"}, "name": "5b88474eef219b6df8ad173ea81f6d21", "is_reserved": 0}, {"is_disabled": 0, "fusion_lon": 0.0, "fusion_lat": 0.0, "lat": 38.887606166666664, "type": "electric_bike", "lon": -76.90082133333334, "bike_id": "3bbdebd9859318b446fa5e3e2f4e3e39", "rental_uris": {"android": "https://dc.lft.to/lastmile_qr_scan", "ios": "https://dc.lft.to/lastmile_qr_scan"}, "name": "3bbdebd9859318b446fa5e3e2f4e3e39", "is_reserved": 0}, {"is_disabled": 0, "fusion_lon": 0.0, "fusion_lat": 0.0, "lat": 38.913320166666665, "type": "electric_scooter", "lon": -77.03035966666667, "bike_id": "0ec11c22ea4a41b5e569dcc468bf431a", "rental_uris": {"android": "https://dc.lft.to/lastmile_qr_scan", "ios": "https://dc.lft.to/lastmile_qr_scan"}, "name": "0ec11c22ea4a41b5e569dcc468bf431a", "is_reserved": 0}, {"is_disabled": 0, "fusion_lon": 0.0, "fusion_lat": 0.0, "lat": 38.929765333333336, "type": "electric_scooter", "lon": -77.03273383333334, "bike_id": "4b11782d2c6afab6c57521fc04f2e3a3", "rental_uris": {"android": "https://dc.lft.to/lastmile_qr_scan", "ios": "https://dc.lft.to/lastmile_qr_scan"}, "name": "4b11782d2c6afab6c57521fc04f2e3a3", "is_reserved": 0}, {"is_disabled": 0, "fusion_lon": 0.0, "fusion_lat": 0.0, "lat": 38.920931333333336, "type": "electric_scooter", "lon": -76.99419833333333, "bike_id": "1c4edbf332da8b609a60224b6279bd21", "rental_uris": {"android": "https://dc.lft.to/lastmile_qr_scan", "ios": "https://dc.lft.to/lastmile_qr_scan"}, "name": "1c4edbf332da8b609a60224b6279bd21", "is_reserved": 0}, {"is_disabled": 0, "fusion_lon": 0.0, "fusion_lat": 0.0, "lat": 38.92446433333333, "type": "electric_bike", "lon": -76.9683305, "bike_id": "a6fe355613f7a07cc8ceccb76423130d", "rental_uris": {"android": "https://dc.lft.to/lastmile_qr_scan", "ios": "https://dc.lft.to/lastmile_qr_scan"}, "name": "a6fe355613f7a07cc8ceccb76423130d", "is_reserved": 0}, {"is_disabled": 0, "fusion_lon": 0.0, "fusion_lat": 0.0, "lat": 38.902838333333335, "type": "electric_scooter", "lon": -77.04274883333333, "bike_id": "0281e86c958124e8e541b8cac08bf78a", "rental_uris": {"android": "https://dc.lft.to/lastmile_qr_scan", "ios": "https://dc.lft.to/lastmile_qr_scan"}, "name": "0281e86c958124e8e541b8cac08bf78a", "is_reserved": 0}, {"is_disabled": 0, "fusion_lon": 0.0, "fusion_lat": 0.0, "lat": 38.94533716666667, "type": "electric_bike", "lon": -77.02709466666667, "bike_id": "cd05a59401a29fa509ca057d216e8146", "rental_uris": {"android": "https://dc.lft.to/lastmile_qr_scan", "ios": "https://dc.lft.to/lastmile_qr_scan"}, "name": "cd05a59401a29fa509ca057d216e8146", "is_reserved": 0}, {"is_disabled": 0, "fusion_lon": 0.0, "fusion_lat": 0.0, "lat": 39.105641166666665, "type": "electric_bike", "lon": -77.1526875, "bike_id": "ff187398ae4f30fe2c8bf4fbd22c5ea4", "rental_uris": {"android": "https://dc.lft.to/lastmile_qr_scan", "ios": "https://dc.lft.to/lastmile_qr_scan"}, "name": "ff187398ae4f30fe2c8bf4fbd22c5ea4", "is_reserved": 0}, {"is_disabled": 0, "fusion_lon": 0.0, "fusion_lat": 0.0, "lat": 38.893690666666664, "type": "electric_scooter", "lon": -76.94997116666667, "bike_id": "2566fa6b89bf00f4c04a2b02f382b28e", "rental_uris": {"android": "https://dc.lft.to/lastmile_qr_scan", "ios": "https://dc.lft.to/lastmile_qr_scan"}, "name": "2566fa6b89bf00f4c04a2b02f382b28e", "is_reserved": 0}, {"is_disabled": 0, "fusion_lon": 0.0, "fusion_lat": 0.0, "lat": 38.91974583333333, "type": "electric_scooter", "lon": -77.0001955, "bike_id": "225f35a79aef0b4b4eceadcbbe237692", "rental_uris": {"android": "https://dc.lft.to/lastmile_qr_scan", "ios": "https://dc.lft.to/lastmile_qr_scan"}, "name": "225f35a79aef0b4b4eceadcbbe237692", "is_reserved": 0}, {"is_disabled": 0, "fusion_lon": 0.0, "fusion_lat": 0.0, "lat": 38.9004205, "type": "electric_scooter", "lon": -77.01237716666667, "bike_id": "c3be5c913639cf19f6091a692a824850", "rental_uris": {"android": "https://dc.lft.to/lastmile_qr_scan", "ios": "https://dc.lft.to/lastmile_qr_scan"}, "name": "c3be5c913639cf19f6091a692a824850", "is_reserved": 0}, {"is_disabled": 0, "fusion_lon": 0.0, "fusion_lat": 0.0, "lat": 38.917268666666665, "type": "electric_scooter", "lon": -77.041774, "bike_id": "9f541bbd85555f494636b8510a8f14cd", "rental_uris": {"android": "https://dc.lft.to/lastmile_qr_scan", "ios": "https://dc.lft.to/lastmile_qr_scan"}, "name": "9f541bbd85555f494636b8510a8f14cd", "is_reserved": 0}, {"is_disabled": 0, "fusion_lon": 0.0, "fusion_lat": 0.0, "lat": 38.933972, "type": "electric_scooter", "lon": -77.02730666666666, "bike_id": "957e077b41c9a758d79370ba67623bc3", "rental_uris": {"android": "https://dc.lft.to/lastmile_qr_scan", "ios": "https://dc.lft.to/lastmile_qr_scan"}, "name": "957e077b41c9a758d79370ba67623bc3", "is_reserved": 0}, {"is_disabled": 0, "fusion_lon": 0.0, "fusion_lat": 0.0, "lat": 38.90059333333333, "type": "electric_scooter", "lon": -77.03442183333334, "bike_id": "26ce09c5a6485ed3964dd93ecef2da51", "rental_uris": {"android": "https://dc.lft.to/lastmile_qr_scan", "ios": "https://dc.lft.to/lastmile_qr_scan"}, "name": "26ce09c5a6485ed3964dd93ecef2da51", "is_reserved": 0}, {"is_disabled": 0, "fusion_lon": 0.0, "fusion_lat": 0.0, "lat": 38.89516183333333, "type": "electric_scooter", "lon": -77.02809216666667, "bike_id": "94b523ffa658540b03da0ec560155148", "rental_uris": {"android": "https://dc.lft.to/lastmile_qr_scan", "ios": "https://dc.lft.to/lastmile_qr_scan"}, "name": "94b523ffa658540b03da0ec560155148", "is_reserved": 0}, {"is_disabled": 0, "fusion_lon": 0.0, "fusion_lat": 0.0, "lat": 38.966013333333336, "type": "electric_bike", "lon": -76.98334716666666, "bike_id": "766f3c4513aa52736c7f72733be3af05", "rental_uris": {"android": "https://dc.lft.to/lastmile_qr_scan", "ios": "https://dc.lft.to/lastmile_qr_scan"}, "name": "766f3c4513aa52736c7f72733be3af05", "is_reserved": 0}, {"is_disabled": 0, "fusion_lon": 0.0, "fusion_lat": 0.0, "lat": 38.8484205, "type": "electric_bike", "lon": -77.08053483333333, "bike_id": "300865710ca3ad3372bd3d5d84f16198", "rental_uris": {"android": "https://dc.lft.to/lastmile_qr_scan", "ios": "https://dc.lft.to/lastmile_qr_scan"}, "name": "300865710ca3ad3372bd3d5d84f16198", "is_reserved": 0}, {"is_disabled": 0, "fusion_lon": 0.0, "fusion_lat": 0.0, "lat": 38.913356, "type": "electric_scooter", "lon": -77.0253045, "bike_id": "9409d5eac647b77bbaa281cab4813742", "rental_uris": {"android": "https://dc.lft.to/lastmile_qr_scan", "ios": "https://dc.lft.to/lastmile_qr_scan"}, "name": "9409d5eac647b77bbaa281cab4813742", "is_reserved": 0}, {"is_disabled": 0, "fusion_lon": 0.0, "fusion_lat": 0.0, "lat": 38.9039175, "type": "electric_scooter", "lon": -77.017454, "bike_id": "0c4675cb2d14c74c370e0eabac6ca814", "rental_uris": {"android": "https://dc.lft.to/lastmile_qr_scan", "ios": "https://dc.lft.to/lastmile_qr_scan"}, "name": "0c4675cb2d14c74c370e0eabac6ca814", "is_reserved": 0}, {"is_disabled": 0, "fusion_lon": 0.0, "fusion_lat": 0.0, "lat": 38.93559966666667, "type": "electric_scooter", "lon": -77.0733615, "bike_id": "f0b12902eb0909332d3d7c439d80408c", "rental_uris": {"android": "https://dc.lft.to/lastmile_qr_scan", "ios": "https://dc.lft.to/lastmile_qr_scan"}, "name": "f0b12902eb0909332d3d7c439d80408c", "is_reserved": 0}, {"is_disabled": 0, "fusion_lon": 0.0, "fusion_lat": 0.0, "lat": 38.901899, "type": "electric_scooter", "lon": -77.021106, "bike_id": "8a62dc1312db80ff8afc6fa27e2632f0", "rental_uris": {"android": "https://dc.lft.to/lastmile_qr_scan", "ios": "https://dc.lft.to/lastmile_qr_scan"}, "name": "8a62dc1312db80ff8afc6fa27e2632f0", "is_reserved": 0}, {"is_disabled": 0, "fusion_lon": 0.0, "fusion_lat": 0.0, "lat": 38.917878, "type": "electric_scooter", "lon": -77.03656066666667, "bike_id": "37e8be91eca061cea75f63bbe22b5e65", "rental_uris": {"android": "https://dc.lft.to/lastmile_qr_scan", "ios": "https://dc.lft.to/lastmile_qr_scan"}, "name": "37e8be91eca061cea75f63bbe22b5e65", "is_reserved": 0}, {"is_disabled": 0, "fusion_lon": 0.0, "fusion_lat": 0.0, "lat": 38.87572333333333, "type": "electric_scooter", "lon": -77.01990066666667, "bike_id": "7e0a3fe6bbca09a05c8fd93f944594ee", "rental_uris": {"android": "https://dc.lft.to/lastmile_qr_scan", "ios": "https://dc.lft.to/lastmile_qr_scan"}, "name": "7e0a3fe6bbca09a05c8fd93f944594ee", "is_reserved": 0}, {"is_disabled": 0, "fusion_lon": 0.0, "fusion_lat": 0.0, "lat": 38.917086, "type": "electric_scooter", "lon": -77.03231083333333, "bike_id": "a4f4118ed36fedcf4f9600d04940437f", "rental_uris": {"android": "https://dc.lft.to/lastmile_qr_scan", "ios": "https://dc.lft.to/lastmile_qr_scan"}, "name": "a4f4118ed36fedcf4f9600d04940437f", "is_reserved": 0}, {"is_disabled": 0, "fusion_lon": 0.0, "fusion_lat": 0.0, "lat": 38.89202233333334, "type": "electric_scooter", "lon": -77.04226883333334, "bike_id": "d2b2ce9a8ddf91b1a71ea1765a77a39d", "rental_uris": {"android": "https://dc.lft.to/lastmile_qr_scan", "ios": "https://dc.lft.to/lastmile_qr_scan"}, "name": "d2b2ce9a8ddf91b1a71ea1765a77a39d", "is_reserved": 0}, {"is_disabled": 0, "fusion_lon": 0.0, "fusion_lat": 0.0, "lat": 38.896751333333334, "type": "electric_scooter", "lon": -76.94719333333333, "bike_id": "bc9ec424557f073bb0e19ba3c68aceb7", "rental_uris": {"android": "https://dc.lft.to/lastmile_qr_scan", "ios": "https://dc.lft.to/lastmile_qr_scan"}, "name": "bc9ec424557f073bb0e19ba3c68aceb7", "is_reserved": 0}, {"is_disabled": 0, "fusion_lon": 0.0, "fusion_lat": 0.0, "lat": 38.915393333333334, "type": "electric_scooter", "lon": -77.01969633333333, "bike_id": "49a99b335f06733b7cb7833a82c80e15", "rental_uris": {"android": "https://dc.lft.to/lastmile_qr_scan", "ios": "https://dc.lft.to/lastmile_qr_scan"}, "name": "49a99b335f06733b7cb7833a82c80e15", "is_reserved": 0}, {"is_disabled": 0, "fusion_lon": 0.0, "fusion_lat": 0.0, "lat": 38.892668, "type": "electric_scooter", "lon": -77.0319345, "bike_id": "62910039264fd4974cff528a168ab202", "rental_uris": {"android": "https://dc.lft.to/lastmile_qr_scan", "ios": "https://dc.lft.to/lastmile_qr_scan"}, "name": "62910039264fd4974cff528a168ab202", "is_reserved": 0}, {"is_disabled": 0, "fusion_lon": 0.0, "fusion_lat": 0.0, "lat": 38.90702233333333, "type": "electric_scooter", "lon": -77.06314333333333, "bike_id": "c513e5b01fad533fbd981b8af716bc22", "rental_uris": {"android": "https://dc.lft.to/lastmile_qr_scan", "ios": "https://dc.lft.to/lastmile_qr_scan"}, "name": "c513e5b01fad533fbd981b8af716bc22", "is_reserved": 0}, {"is_disabled": 0, "fusion_lon": 0.0, "fusion_lat": 0.0, "lat": 38.9168245, "type": "electric_scooter", "lon": -77.04141866666667, "bike_id": "5af8e52ba2f17c88f9eb866a829624e3", "rental_uris": {"android": "https://dc.lft.to/lastmile_qr_scan", "ios": "https://dc.lft.to/lastmile_qr_scan"}, "name": "5af8e52ba2f17c88f9eb866a829624e3", "is_reserved": 0}, {"is_disabled": 0, "fusion_lon": 0.0, "fusion_lat": 0.0, "lat": 38.91963883333333, "type": "electric_scooter", "lon": -77.04162216666667, "bike_id": "2f0e97f044ec767fa5e1263c899937ce", "rental_uris": {"android": "https://dc.lft.to/lastmile_qr_scan", "ios": "https://dc.lft.to/lastmile_qr_scan"}, "name": "2f0e97f044ec767fa5e1263c899937ce", "is_reserved": 0}, {"is_disabled": 0, "fusion_lon": 0.0, "fusion_lat": 0.0, "lat": 38.919672, "type": "electric_scooter", "lon": -77.04180516666666, "bike_id": "2fded278ed2844ef954d61c94db74adc", "rental_uris": {"android": "https://dc.lft.to/lastmile_qr_scan", "ios": "https://dc.lft.to/lastmile_qr_scan"}, "name": "2fded278ed2844ef954d61c94db74adc", "is_reserved": 0}, {"is_disabled": 0, "fusion_lon": 0.0, "fusion_lat": 0.0, "lat": 38.956077, "type": "electric_scooter", "lon": -77.02759883333333, "bike_id": "9ca9e4b49aac827581431b94c488ae96", "rental_uris": {"android": "https://dc.lft.to/lastmile_qr_scan", "ios": "https://dc.lft.to/lastmile_qr_scan"}, "name": "9ca9e4b49aac827581431b94c488ae96", "is_reserved": 0}, {"is_disabled": 0, "fusion_lon": 0.0, "fusion_lat": 0.0, "lat": 38.889152, "type": "electric_scooter", "lon": -76.980134, "bike_id": "979e43b4b677b488cdebb7280ade376b", "rental_uris": {"android": "https://dc.lft.to/lastmile_qr_scan", "ios": "https://dc.lft.to/lastmile_qr_scan"}, "name": "979e43b4b677b488cdebb7280ade376b", "is_reserved": 0}, {"is_disabled": 0, "fusion_lon": 0.0, "fusion_lat": 0.0, "lat": 38.905848166666665, "type": "electric_scooter", "lon": -77.0691435, "bike_id": "d69bc3dddba04e0cfebf913521184f8c", "rental_uris": {"android": "https://dc.lft.to/lastmile_qr_scan", "ios": "https://dc.lft.to/lastmile_qr_scan"}, "name": "d69bc3dddba04e0cfebf913521184f8c", "is_reserved": 0}, {"is_disabled": 0, "fusion_lon": 0.0, "fusion_lat": 0.0, "lat": 38.91711183333334, "type": "electric_scooter", "lon": -77.02617466666666, "bike_id": "da109bcc4dd49552e948040c17fb4a31", "rental_uris": {"android": "https://dc.lft.to/lastmile_qr_scan", "ios": "https://dc.lft.to/lastmile_qr_scan"}, "name": "da109bcc4dd49552e948040c17fb4a31", "is_reserved": 0}, {"is_disabled": 0, "fusion_lon": 0.0, "fusion_lat": 0.0, "lat": 38.92435183333333, "type": "electric_bike", "lon": -76.90759366666667, "bike_id": "e08ae00799f27b76673fb9fb92993732", "rental_uris": {"android": "https://dc.lft.to/lastmile_qr_scan", "ios": "https://dc.lft.to/lastmile_qr_scan"}, "name": "e08ae00799f27b76673fb9fb92993732", "is_reserved": 0}, {"is_disabled": 0, "fusion_lon": 0.0, "fusion_lat": 0.0, "lat": 38.9081385, "type": "electric_scooter", "lon": -77.0014865, "bike_id": "7e2750941d30cc444f20262b4f6de61d", "rental_uris": {"android": "https://dc.lft.to/lastmile_qr_scan", "ios": "https://dc.lft.to/lastmile_qr_scan"}, "name": "7e2750941d30cc444f20262b4f6de61d", "is_reserved": 0}, {"is_disabled": 0, "fusion_lon": 0.0, "fusion_lat": 0.0, "lat": 38.92511233333333, "type": "electric_scooter", "lon": -77.03901383333333, "bike_id": "6d3dfd8d179c87e5c2f03d4e7458cfd3", "rental_uris": {"android": "https://dc.lft.to/lastmile_qr_scan", "ios": "https://dc.lft.to/lastmile_qr_scan"}, "name": "6d3dfd8d179c87e5c2f03d4e7458cfd3", "is_reserved": 0}, {"is_disabled": 0, "fusion_lon": 0.0, "fusion_lat": 0.0, "lat": 38.9234905, "type": "electric_bike", "lon": -76.992441, "bike_id": "18141d3cf88eaf23935e1b4287cafce9", "rental_uris": {"android": "https://dc.lft.to/lastmile_qr_scan", "ios": "https://dc.lft.to/lastmile_qr_scan"}, "name": "18141d3cf88eaf23935e1b4287cafce9", "is_reserved": 0}, {"is_disabled": 0, "fusion_lon": 0.0, "fusion_lat": 0.0, "lat": 38.89651466666667, "type": "electric_scooter", "lon": -77.0118745, "bike_id": "34f372597658236675515a5d8590bc43", "rental_uris": {"android": "https://dc.lft.to/lastmile_qr_scan", "ios": "https://dc.lft.to/lastmile_qr_scan"}, "name": "34f372597658236675515a5d8590bc43", "is_reserved": 0}, {"is_disabled": 0, "fusion_lon": 0.0, "fusion_lat": 0.0, "lat": 38.90361383333333, "type": "electric_scooter", "lon": -77.02209416666666, "bike_id": "824e20457f139825bf8d27b972a50bcc", "rental_uris": {"android": "https://dc.lft.to/lastmile_qr_scan", "ios": "https://dc.lft.to/lastmile_qr_scan"}, "name": "824e20457f139825bf8d27b972a50bcc", "is_reserved": 0}, {"is_disabled": 0, "fusion_lon": 0.0, "fusion_lat": 0.0, "lat": 38.88410916666667, "type": "electric_scooter", "lon": -77.0330085, "bike_id": "e3b9886b55b70a6a586887e38eef6efa", "rental_uris": {"android": "https://dc.lft.to/lastmile_qr_scan", "ios": "https://dc.lft.to/lastmile_qr_scan"}, "name": "e3b9886b55b70a6a586887e38eef6efa", "is_reserved": 0}, {"is_disabled": 0, "fusion_lon": 0.0, "fusion_lat": 0.0, "lat": 38.99071033333333, "type": "electric_bike", "lon": -77.02381316666667, "bike_id": "3151e1625818f95724f477ac81d79f61", "rental_uris": {"android": "https://dc.lft.to/lastmile_qr_scan", "ios": "https://dc.lft.to/lastmile_qr_scan"}, "name": "3151e1625818f95724f477ac81d79f61", "is_reserved": 0}, {"is_disabled": 0, "fusion_lon": 0.0, "fusion_lat": 0.0, "lat": 38.91784766666667, "type": "electric_scooter", "lon": -77.04359733333334, "bike_id": "2694dbd283845db051be09e164ba9f9b", "rental_uris": {"android": "https://dc.lft.to/lastmile_qr_scan", "ios": "https://dc.lft.to/lastmile_qr_scan"}, "name": "2694dbd283845db051be09e164ba9f9b", "is_reserved": 0}, {"is_disabled": 0, "fusion_lon": 0.0, "fusion_lat": 0.0, "lat": 38.90506666666667, "type": "electric_scooter", "lon": -77.04742283333333, "bike_id": "38c412455ddd858d90dc7c1571f0d49d", "rental_uris": {"android": "https://dc.lft.to/lastmile_qr_scan", "ios": "https://dc.lft.to/lastmile_qr_scan"}, "name": "38c412455ddd858d90dc7c1571f0d49d", "is_reserved": 0}, {"is_disabled": 0, "fusion_lon": 0.0, "fusion_lat": 0.0, "lat": 38.9097285, "type": "electric_bike", "lon": -77.0883115, "bike_id": "2a52480e4fc7b27916240b6c53dfc566", "rental_uris": {"android": "https://dc.lft.to/lastmile_qr_scan", "ios": "https://dc.lft.to/lastmile_qr_scan"}, "name": "2a52480e4fc7b27916240b6c53dfc566", "is_reserved": 0}, {"is_disabled": 0, "fusion_lon": 0.0, "fusion_lat": 0.0, "lat": 38.881286, "type": "electric_scooter", "lon": -77.02079283333333, "bike_id": "7fe95f2eaf18fc6f1fd23e3327517aaa", "rental_uris": {"android": "https://dc.lft.to/lastmile_qr_scan", "ios": "https://dc.lft.to/lastmile_qr_scan"}, "name": "7fe95f2eaf18fc6f1fd23e3327517aaa", "is_reserved": 0}, {"is_disabled": 0, "fusion_lon": 0.0, "fusion_lat": 0.0, "lat": 38.9052965, "type": "electric_scooter", "lon": -77.065302, "bike_id": "2faaa80f8257723cfbb90c54281ab8dd", "rental_uris": {"android": "https://dc.lft.to/lastmile_qr_scan", "ios": "https://dc.lft.to/lastmile_qr_scan"}, "name": "2faaa80f8257723cfbb90c54281ab8dd", "is_reserved": 0}, {"is_disabled": 0, "fusion_lon": 0.0, "fusion_lat": 0.0, "lat": 38.95599133333333, "type": "electric_scooter", "lon": -77.00981166666666, "bike_id": "51e22ab80cbb63ba34e710a690c27843", "rental_uris": {"android": "https://dc.lft.to/lastmile_qr_scan", "ios": "https://dc.lft.to/lastmile_qr_scan"}, "name": "51e22ab80cbb63ba34e710a690c27843", "is_reserved": 0}, {"is_disabled": 0, "fusion_lon": 0.0, "fusion_lat": 0.0, "lat": 38.90720916666667, "type": "electric_scooter", "lon": -77.040877, "bike_id": "2f1f615177e0619799a0dd2a8d2b4043", "rental_uris": {"android": "https://dc.lft.to/lastmile_qr_scan", "ios": "https://dc.lft.to/lastmile_qr_scan"}, "name": "2f1f615177e0619799a0dd2a8d2b4043", "is_reserved": 0}, {"is_disabled": 0, "fusion_lon": 0.0, "fusion_lat": 0.0, "lat": 38.93299716666667, "type": "electric_scooter", "lon": -77.02141683333333, "bike_id": "b866141915d55c2708f96544964127dc", "rental_uris": {"android": "https://dc.lft.to/lastmile_qr_scan", "ios": "https://dc.lft.to/lastmile_qr_scan"}, "name": "b866141915d55c2708f96544964127dc", "is_reserved": 0}, {"is_disabled": 0, "fusion_lon": 0.0, "fusion_lat": 0.0, "lat": 38.874919166666665, "type": "electric_bike", "lon": -77.0490255, "bike_id": "0b5630eaab5985fe0829d0623b1148f6", "rental_uris": {"android": "https://dc.lft.to/lastmile_qr_scan", "ios": "https://dc.lft.to/lastmile_qr_scan"}, "name": "0b5630eaab5985fe0829d0623b1148f6", "is_reserved": 0}, {"is_disabled": 0, "fusion_lon": 0.0, "fusion_lat": 0.0, "lat": 38.962144333333335, "type": "electric_scooter", "lon": -77.02806616666666, "bike_id": "948b4ee5d1cc2a1b5e7e7a12d25e91da", "rental_uris": {"android": "https://dc.lft.to/lastmile_qr_scan", "ios": "https://dc.lft.to/lastmile_qr_scan"}, "name": "948b4ee5d1cc2a1b5e7e7a12d25e91da", "is_reserved": 0}, {"is_disabled": 0, "fusion_lon": 0.0, "fusion_lat": 0.0, "lat": 38.9283185, "type": "electric_scooter", "lon": -77.01411183333333, "bike_id": "3889e37fa38ed101d7e6e160faa52a81", "rental_uris": {"android": "https://dc.lft.to/lastmile_qr_scan", "ios": "https://dc.lft.to/lastmile_qr_scan"}, "name": "3889e37fa38ed101d7e6e160faa52a81", "is_reserved": 0}, {"is_disabled": 0, "fusion_lon": 0.0, "fusion_lat": 0.0, "lat": 38.8635095, "type": "electric_scooter", "lon": -76.9906665, "bike_id": "dbaf4c166499eb2e103ebeb24f61b31c", "rental_uris": {"android": "https://dc.lft.to/lastmile_qr_scan", "ios": "https://dc.lft.to/lastmile_qr_scan"}, "name": "dbaf4c166499eb2e103ebeb24f61b31c", "is_reserved": 0}, {"is_disabled": 0, "fusion_lon": 0.0, "fusion_lat": 0.0, "lat": 38.896010833333335, "type": "electric_scooter", "lon": -77.02686583333333, "bike_id": "b0298d65de32ae1ad9fdf06a5e7b4edd", "rental_uris": {"android": "https://dc.lft.to/lastmile_qr_scan", "ios": "https://dc.lft.to/lastmile_qr_scan"}, "name": "b0298d65de32ae1ad9fdf06a5e7b4edd", "is_reserved": 0}, {"is_disabled": 0, "fusion_lon": 0.0, "fusion_lat": 0.0, "lat": 38.990573, "type": "electric_bike", "lon": -77.10026116666667, "bike_id": "dd08d7c6e2ae7b069e12176799f1bf2e", "rental_uris": {"android": "https://dc.lft.to/lastmile_qr_scan", "ios": "https://dc.lft.to/lastmile_qr_scan"}, "name": "dd08d7c6e2ae7b069e12176799f1bf2e", "is_reserved": 0}, {"is_disabled": 0, "fusion_lon": 0.0, "fusion_lat": 0.0, "lat": 38.990888, "type": "electric_bike", "lon": -76.874963, "bike_id": "ceeff6ef70d447c2da7bcd0fbef10edc", "rental_uris": {"android": "https://dc.lft.to/lastmile_qr_scan", "ios": "https://dc.lft.to/lastmile_qr_scan"}, "name": "ceeff6ef70d447c2da7bcd0fbef10edc", "is_reserved": 0}, {"is_disabled": 0, "fusion_lon": 0.0, "fusion_lat": 0.0, "lat": 38.94572633333333, "type": "electric_bike", "lon": -76.9602965, "bike_id": "bea6cc445e9a9d518478f75667f93130", "rental_uris": {"android": "https://dc.lft.to/lastmile_qr_scan", "ios": "https://dc.lft.to/lastmile_qr_scan"}, "name": "bea6cc445e9a9d518478f75667f93130", "is_reserved": 0}, {"is_disabled": 0, "fusion_lon": 0.0, "fusion_lat": 0.0, "lat": 38.90570983333333, "type": "electric_scooter", "lon": -77.0057915, "bike_id": "4ab3a147579be52e077fbad2b3c43d34", "rental_uris": {"android": "https://dc.lft.to/lastmile_qr_scan", "ios": "https://dc.lft.to/lastmile_qr_scan"}, "name": "4ab3a147579be52e077fbad2b3c43d34", "is_reserved": 0}, {"is_disabled": 0, "fusion_lon": 0.0, "fusion_lat": 0.0, "lat": 38.90037866666667, "type": "electric_scooter", "lon": -77.00185533333334, "bike_id": "9a4b3dd0661644b776c7f5fe0186646c", "rental_uris": {"android": "https://dc.lft.to/lastmile_qr_scan", "ios": "https://dc.lft.to/lastmile_qr_scan"}, "name": "9a4b3dd0661644b776c7f5fe0186646c", "is_reserved": 0}, {"is_disabled": 0, "fusion_lon": 0.0, "fusion_lat": 0.0, "lat": 38.908499166666665, "type": "electric_bike", "lon": -77.040158, "bike_id": "1682e9e5cb7560e8ea575a93cd1f6170", "rental_uris": {"android": "https://dc.lft.to/lastmile_qr_scan", "ios": "https://dc.lft.to/lastmile_qr_scan"}, "name": "1682e9e5cb7560e8ea575a93cd1f6170", "is_reserved": 0}, {"is_disabled": 0, "fusion_lon": 0.0, "fusion_lat": 0.0, "lat": 38.91799833333334, "type": "electric_scooter", "lon": -77.04029516666667, "bike_id": "b4e750b60a7ea09915e23e6ba4e49285", "rental_uris": {"android": "https://dc.lft.to/lastmile_qr_scan", "ios": "https://dc.lft.to/lastmile_qr_scan"}, "name": "b4e750b60a7ea09915e23e6ba4e49285", "is_reserved": 0}, {"is_disabled": 0, "fusion_lon": 0.0, "fusion_lat": 0.0, "lat": 38.91562833333333, "type": "electric_scooter", "lon": -77.03275033333334, "bike_id": "eac9c21c9baa4a3f85e74ad92379b319", "rental_uris": {"android": "https://dc.lft.to/lastmile_qr_scan", "ios": "https://dc.lft.to/lastmile_qr_scan"}, "name": "eac9c21c9baa4a3f85e74ad92379b319", "is_reserved": 0}, {"is_disabled": 0, "fusion_lon": 0.0, "fusion_lat": 0.0, "lat": 38.85507366666667, "type": "electric_bike", "lon": -76.9583885, "bike_id": "75403d24534278d28f601f89f5a0d2c9", "rental_uris": {"android": "https://dc.lft.to/lastmile_qr_scan", "ios": "https://dc.lft.to/lastmile_qr_scan"}, "name": "75403d24534278d28f601f89f5a0d2c9", "is_reserved": 0}, {"is_disabled": 0, "fusion_lon": 0.0, "fusion_lat": 0.0, "lat": 38.92755666666667, "type": "electric_scooter", "lon": -77.005894, "bike_id": "6507d296ef49fdf67e9b103938157184", "rental_uris": {"android": "https://dc.lft.to/lastmile_qr_scan", "ios": "https://dc.lft.to/lastmile_qr_scan"}, "name": "6507d296ef49fdf67e9b103938157184", "is_reserved": 0}, {"is_disabled": 0, "fusion_lon": 0.0, "fusion_lat": 0.0, "lat": 38.944445333333334, "type": "electric_scooter", "lon": -77.063605, "bike_id": "fcf9908470f30d91d07b70fdf8350b86", "rental_uris": {"android": "https://dc.lft.to/lastmile_qr_scan", "ios": "https://dc.lft.to/lastmile_qr_scan"}, "name": "fcf9908470f30d91d07b70fdf8350b86", "is_reserved": 0}, {"is_disabled": 0, "fusion_lon": 0.0, "fusion_lat": 0.0, "lat": 38.919334, "type": "electric_scooter", "lon": -76.9807615, "bike_id": "a818bb4c812deb9ec576a9cf3347a298", "rental_uris": {"android": "https://dc.lft.to/lastmile_qr_scan", "ios": "https://dc.lft.to/lastmile_qr_scan"}, "name": "a818bb4c812deb9ec576a9cf3347a298", "is_reserved": 0}, {"is_disabled": 0, "fusion_lon": 0.0, "fusion_lat": 0.0, "lat": 38.87640183333333, "type": "electric_scooter", "lon": -77.0059035, "bike_id": "03345fce80f5e6961071c01d39a34137", "rental_uris": {"android": "https://dc.lft.to/lastmile_qr_scan", "ios": "https://dc.lft.to/lastmile_qr_scan"}, "name": "03345fce80f5e6961071c01d39a34137", "is_reserved": 0}, {"is_disabled": 0, "fusion_lon": 0.0, "fusion_lat": 0.0, "lat": 38.94075516666667, "type": "electric_scooter", "lon": -77.02115583333334, "bike_id": "b498925c396089d441f3f4424a84d2b8", "rental_uris": {"android": "https://dc.lft.to/lastmile_qr_scan", "ios": "https://dc.lft.to/lastmile_qr_scan"}, "name": "b498925c396089d441f3f4424a84d2b8", "is_reserved": 0}, {"is_disabled": 0, "fusion_lon": 0.0, "fusion_lat": 0.0, "lat": 38.909623833333335, "type": "electric_scooter", "lon": -77.015672, "bike_id": "a495177642d798de0bb2ef86c3e8dde5", "rental_uris": {"android": "https://dc.lft.to/lastmile_qr_scan", "ios": "https://dc.lft.to/lastmile_qr_scan"}, "name": "a495177642d798de0bb2ef86c3e8dde5", "is_reserved": 0}, {"is_disabled": 0, "fusion_lon": 0.0, "fusion_lat": 0.0, "lat": 38.94982, "type": "electric_scooter", "lon": -77.02703233333334, "bike_id": "e510c26a8c777b0ec9e91b1b1918e588", "rental_uris": {"android": "https://dc.lft.to/lastmile_qr_scan", "ios": "https://dc.lft.to/lastmile_qr_scan"}, "name": "e510c26a8c777b0ec9e91b1b1918e588", "is_reserved": 0}, {"is_disabled": 0, "fusion_lon": 0.0, "fusion_lat": 0.0, "lat": 38.865208, "type": "electric_scooter", "lon": -76.97335116666666, "bike_id": "25aa668d0e5e6814cdbf8a775b584a04", "rental_uris": {"android": "https://dc.lft.to/lastmile_qr_scan", "ios": "https://dc.lft.to/lastmile_qr_scan"}, "name": "25aa668d0e5e6814cdbf8a775b584a04", "is_reserved": 0}, {"is_disabled": 0, "fusion_lon": 0.0, "fusion_lat": 0.0, "lat": 38.9428025, "type": "electric_scooter", "lon": -77.03631883333334, "bike_id": "ff216c35da66ec4d9f05bb8f928a06c9", "rental_uris": {"android": "https://dc.lft.to/lastmile_qr_scan", "ios": "https://dc.lft.to/lastmile_qr_scan"}, "name": "ff216c35da66ec4d9f05bb8f928a06c9", "is_reserved": 0}, {"is_disabled": 0, "fusion_lon": 0.0, "fusion_lat": 0.0, "lat": 38.9560715, "type": "electric_scooter", "lon": -77.0276095, "bike_id": "6e009fa1e4a3b3cdecf93fcf0b7b5b85", "rental_uris": {"android": "https://dc.lft.to/lastmile_qr_scan", "ios": "https://dc.lft.to/lastmile_qr_scan"}, "name": "6e009fa1e4a3b3cdecf93fcf0b7b5b85", "is_reserved": 0}, {"is_disabled": 0, "fusion_lon": 0.0, "fusion_lat": 0.0, "lat": 38.894750333333334, "type": "electric_scooter", "lon": -76.99527633333334, "bike_id": "9baafd130fd2c0c2eee37c16f8ab88da", "rental_uris": {"android": "https://dc.lft.to/lastmile_qr_scan", "ios": "https://dc.lft.to/lastmile_qr_scan"}, "name": "9baafd130fd2c0c2eee37c16f8ab88da", "is_reserved": 0}, {"is_disabled": 0, "fusion_lon": 0.0, "fusion_lat": 0.0, "lat": 38.916940833333335, "type": "electric_scooter", "lon": -77.02859233333334, "bike_id": "bee83c49efffad160fcd26747da968dd", "rental_uris": {"android": "https://dc.lft.to/lastmile_qr_scan", "ios": "https://dc.lft.to/lastmile_qr_scan"}, "name": "bee83c49efffad160fcd26747da968dd", "is_reserved": 0}, {"is_disabled": 0, "fusion_lon": 0.0, "fusion_lat": 0.0, "lat": 38.9422535, "type": "electric_scooter", "lon": -77.02152683333334, "bike_id": "29267d6e6921130bff77c82a2abff4f0", "rental_uris": {"android": "https://dc.lft.to/lastmile_qr_scan", "ios": "https://dc.lft.to/lastmile_qr_scan"}, "name": "29267d6e6921130bff77c82a2abff4f0", "is_reserved": 0}, {"is_disabled": 0, "fusion_lon": 0.0, "fusion_lat": 0.0, "lat": 38.92130516666667, "type": "electric_scooter", "lon": -77.025225, "bike_id": "3c66648f204aad12c7bc5a1ac5d64ce7", "rental_uris": {"android": "https://dc.lft.to/lastmile_qr_scan", "ios": "https://dc.lft.to/lastmile_qr_scan"}, "name": "3c66648f204aad12c7bc5a1ac5d64ce7", "is_reserved": 0}, {"is_disabled": 0, "fusion_lon": 0.0, "fusion_lat": 0.0, "lat": 38.96213733333333, "type": "electric_scooter", "lon": -77.0280315, "bike_id": "5c4bcb2f76697d07e7433136ba57a139", "rental_uris": {"android": "https://dc.lft.to/lastmile_qr_scan", "ios": "https://dc.lft.to/lastmile_qr_scan"}, "name": "5c4bcb2f76697d07e7433136ba57a139", "is_reserved": 0}, {"is_disabled": 0, "fusion_lon": 0.0, "fusion_lat": 0.0, "lat": 38.920989666666664, "type": "electric_scooter", "lon": -77.01775083333334, "bike_id": "f9d3730a170ba871cfce7f09c8b85204", "rental_uris": {"android": "https://dc.lft.to/lastmile_qr_scan", "ios": "https://dc.lft.to/lastmile_qr_scan"}, "name": "f9d3730a170ba871cfce7f09c8b85204", "is_reserved": 0}, {"is_disabled": 0, "fusion_lon": 0.0, "fusion_lat": 0.0, "lat": 38.8874285, "type": "electric_scooter", "lon": -77.0174075, "bike_id": "21c50bb3ea889b79e368e87651f035ae", "rental_uris": {"android": "https://dc.lft.to/lastmile_qr_scan", "ios": "https://dc.lft.to/lastmile_qr_scan"}, "name": "21c50bb3ea889b79e368e87651f035ae", "is_reserved": 0}, {"is_disabled": 0, "fusion_lon": 0.0, "fusion_lat": 0.0, "lat": 38.893237, "type": "electric_scooter", "lon": -77.021186, "bike_id": "b8263486162cf4221fc3ec896a9ac389", "rental_uris": {"android": "https://dc.lft.to/lastmile_qr_scan", "ios": "https://dc.lft.to/lastmile_qr_scan"}, "name": "b8263486162cf4221fc3ec896a9ac389", "is_reserved": 0}, {"is_disabled": 0, "fusion_lon": 0.0, "fusion_lat": 0.0, "lat": 38.858089666666665, "type": "electric_scooter", "lon": -76.989617, "bike_id": "e57e0f4611e0da03545b18be95c46a8b", "rental_uris": {"android": "https://dc.lft.to/lastmile_qr_scan", "ios": "https://dc.lft.to/lastmile_qr_scan"}, "name": "e57e0f4611e0da03545b18be95c46a8b", "is_reserved": 0}, {"is_disabled": 0, "fusion_lon": 0.0, "fusion_lat": 0.0, "lat": 38.903032833333334, "type": "electric_scooter", "lon": -77.02373616666667, "bike_id": "f545e63025d805d93900f154a4185a93", "rental_uris": {"android": "https://dc.lft.to/lastmile_qr_scan", "ios": "https://dc.lft.to/lastmile_qr_scan"}, "name": "f545e63025d805d93900f154a4185a93", "is_reserved": 0}, {"is_disabled": 0, "fusion_lon": 0.0, "fusion_lat": 0.0, "lat": 38.924559, "type": "electric_scooter", "lon": -77.02962433333333, "bike_id": "cb9e8c097f3ac0c23030df2016637bb4", "rental_uris": {"android": "https://dc.lft.to/lastmile_qr_scan", "ios": "https://dc.lft.to/lastmile_qr_scan"}, "name": "cb9e8c097f3ac0c23030df2016637bb4", "is_reserved": 0}, {"is_disabled": 0, "fusion_lon": 0.0, "fusion_lat": 0.0, "lat": 38.92971566666667, "type": "electric_scooter", "lon": -77.03262, "bike_id": "4714962225011747bd5233dca9af8135", "rental_uris": {"android": "https://dc.lft.to/lastmile_qr_scan", "ios": "https://dc.lft.to/lastmile_qr_scan"}, "name": "4714962225011747bd5233dca9af8135", "is_reserved": 0}, {"is_disabled": 0, "fusion_lon": 0.0, "fusion_lat": 0.0, "lat": 38.946241, "type": "electric_bike", "lon": -76.93412816666667, "bike_id": "0256c761378c30a83c69ebbc47ccdc5a", "rental_uris": {"android": "https://dc.lft.to/lastmile_qr_scan", "ios": "https://dc.lft.to/lastmile_qr_scan"}, "name": "0256c761378c30a83c69ebbc47ccdc5a", "is_reserved": 0}, {"is_disabled": 0, "fusion_lon": 0.0, "fusion_lat": 0.0, "lat": 38.917070333333335, "type": "electric_scooter", "lon": -77.02500116666667, "bike_id": "97b62775efaac57f2cabeefed5dc76ce", "rental_uris": {"android": "https://dc.lft.to/lastmile_qr_scan", "ios": "https://dc.lft.to/lastmile_qr_scan"}, "name": "97b62775efaac57f2cabeefed5dc76ce", "is_reserved": 0}, {"is_disabled": 0, "fusion_lon": 0.0, "fusion_lat": 0.0, "lat": 38.937129, "type": "electric_scooter", "lon": -77.02369283333333, "bike_id": "2af0238c90c7534108425eb53b43f38b", "rental_uris": {"android": "https://dc.lft.to/lastmile_qr_scan", "ios": "https://dc.lft.to/lastmile_qr_scan"}, "name": "2af0238c90c7534108425eb53b43f38b", "is_reserved": 0}, {"is_disabled": 0, "fusion_lon": 0.0, "fusion_lat": 0.0, "lat": 38.91048116666666, "type": "electric_scooter", "lon": -77.022906, "bike_id": "fbd8236ae95866eaf3557c3390e4e702", "rental_uris": {"android": "https://dc.lft.to/lastmile_qr_scan", "ios": "https://dc.lft.to/lastmile_qr_scan"}, "name": "fbd8236ae95866eaf3557c3390e4e702", "is_reserved": 0}, {"is_disabled": 0, "fusion_lon": 0.0, "fusion_lat": 0.0, "lat": 38.923110333333334, "type": "electric_scooter", "lon": -77.040334, "bike_id": "702f202c82f2e9593dc1ac901c8d453c", "rental_uris": {"android": "https://dc.lft.to/lastmile_qr_scan", "ios": "https://dc.lft.to/lastmile_qr_scan"}, "name": "702f202c82f2e9593dc1ac901c8d453c", "is_reserved": 0}, {"is_disabled": 0, "fusion_lon": 0.0, "fusion_lat": 0.0, "lat": 38.876290166666664, "type": "electric_scooter", "lon": -77.01260716666667, "bike_id": "908b3b02478644196078034e664ec12b", "rental_uris": {"android": "https://dc.lft.to/lastmile_qr_scan", "ios": "https://dc.lft.to/lastmile_qr_scan"}, "name": "908b3b02478644196078034e664ec12b", "is_reserved": 0}, {"is_disabled": 0, "fusion_lon": 0.0, "fusion_lat": 0.0, "lat": 38.903837833333334, "type": "electric_scooter", "lon": -76.990033, "bike_id": "e580fdc520e761e886011bd47f050267", "rental_uris": {"android": "https://dc.lft.to/lastmile_qr_scan", "ios": "https://dc.lft.to/lastmile_qr_scan"}, "name": "e580fdc520e761e886011bd47f050267", "is_reserved": 0}, {"is_disabled": 0, "fusion_lon": 0.0, "fusion_lat": 0.0, "lat": 38.87048166666667, "type": "electric_scooter", "lon": -76.98079733333333, "bike_id": "e3013e4a0b568548aeff0d045f51ae59", "rental_uris": {"android": "https://dc.lft.to/lastmile_qr_scan", "ios": "https://dc.lft.to/lastmile_qr_scan"},