{"data": {"bikes": [{"rental_uris": {"ios": "https://dc.lft.to/lastmile_qr_scan", "android": "https://dc.lft.to/lastmile_qr_scan"}, "type": "electric_scooter", "name": "57fad7fce6454031998f53f9ab1d984e", "is_reserved": 0, "lon": -76.9263395, "is_disabled": 0, "fusion_lat": 0.0, "lat": 38.901917166666664, "bike_id": "57fad7fce6454031998f53f9ab1d984e", "fusion_lon": 0.0}, {"rental_uris": {"ios": "https://dc.lft.to/lastmile_qr_scan", "android": "https://dc.lft.to/lastmile_qr_scan"}, "type": "electric_scooter", "name": "e0943dfb7c815017b8b6f16b54c78ef6", "is_reserved": 0, "lon": -77.018844, "is_disabled": 0, "fusion_lat": 0.0, "lat": 38.89745333333333, "bike_id": "e0943dfb7c815017b8b6f16b54c78ef6", "fusion_lon": 0.0}, {"rental_uris": {"ios": "https://dc.lft.to/lastmile_qr_scan", "android": "https://dc.lft.to/lastmile_qr_scan"}, "type": "electric_bike", "name": "63e3fb961792b027e39fcd3f79cca640", "is_reserved": 0, "lon": -77.001545, "is_disabled": 0, "fusion_lat": 0.0, "lat": 38.941637, "bike_id": "63e3fb961792b027e39fcd3f79cca640", "fusion_lon": 0.0}, {"rental_uris": {"ios": "https://dc.lft.to/lastmile_qr_scan", "android": "https://dc.lft.to/lastmile_qr_scan"}, "type": "electric_scooter", "name": "e69eb0ec2949d0ee090d48095a21579a", "is_reserved": 0, "lon": -77.0338515, "is_disabled": 0, "fusion_lat": 0.0, "lat": 38.8997465, "bike_id": "e69eb0ec2949d0ee090d48095a21579a", "fusion_lon": 0.0}, {"rental_uris": {"ios": "https://dc.lft.to/lastmile_qr_scan", "android": "https://dc.lft.to/lastmile_qr_scan"}, "type": "electric_scooter", "name": "e3a0a903e3b88a170e19451e5903fb1c", "is_reserved": 0, "lon": -76.98336366666666, "is_disabled": 0, "fusion_lat": 0.0, "lat": 38.900861166666665, "bike_id": "e3a0a903e3b88a170e19451e5903fb1c", "fusion_lon": 0.0}, {"rental_uris": {"ios": "https://dc.lft.to/lastmile_qr_scan", "android": "https://dc.lft.to/lastmile_qr_scan"}, "type": "electric_scooter", "name": "355e83758627c0c27efa85980d157dea", "is_reserved": 0, "lon": -77.02336116666666, "is_disabled": 0, "fusion_lat": 0.0, "lat": 38.929392, "bike_id": "355e83758627c0c27efa85980d157dea", "fusion_lon": 0.0}, {"rental_uris": {"ios": "https://dc.lft.to/lastmile_qr_scan", "android": "https://dc.lft.to/lastmile_qr_scan"}, "type": "electric_scooter", "name": "a004709c18d5f58328f9a66b25224624", "is_reserved": 0, "lon": -77.032769, "is_disabled": 0, "fusion_lat": 0.0, "lat": 38.9198755, "bike_id": "a004709c18d5f58328f9a66b25224624", "fusion_lon": 0.0}, {"rental_uris": {"ios": "https://dc.lft.to/lastmile_qr_scan", "android": "https://dc.lft.to/lastmile_qr_scan"}, "type": "electric_scooter", "name": "99829430b0704e9ccac4a1e920e5354d", "is_reserved": 0, "lon": -77.04383566666667, "is_disabled": 0, "fusion_lat": 0.0, "lat": 38.93421133333333, "bike_id": "99829430b0704e9ccac4a1e920e5354d", "fusion_lon": 0.0}, {"rental_uris": {"ios": "https://dc.lft.to/lastmile_qr_scan", "android": "https://dc.lft.to/lastmile_qr_scan"}, "type": "electric_scooter", "name": "32426aedb9ea6a84657ba6bad4668744", "is_reserved": 0, "lon": -77.03161283333333, "is_disabled": 0, "fusion_lat": 0.0, "lat": 38.959309, "bike_id": "32426aedb9ea6a84657ba6bad4668744", "fusion_lon": 0.0}, {"rental_uris": {"ios": "https://dc.lft.to/lastmile_qr_scan", "android": "https://dc.lft.to/lastmile_qr_scan"}, "type": "electric_scooter", "name": "9a4d2d18fefe80f47b61074711b84e8b", "is_reserved": 0, "lon": -77.033512, "is_disabled": 0, "fusion_lat": 0.0, "lat": 38.89531983333333, "bike_id": "9a4d2d18fefe80f47b61074711b84e8b", "fusion_lon": 0.0}, {"rental_uris": {"ios": "https://dc.lft.to/lastmile_qr_scan", "android": "https://dc.lft.to/lastmile_qr_scan"}, "type": "electric_scooter", "name": "8a249235e255710d1e3083af396c6cf4", "is_reserved": 0, "lon": -77.03297466666666, "is_disabled": 0, "fusion_lat": 0.0, "lat": 38.917025, "bike_id": "8a249235e255710d1e3083af396c6cf4", "fusion_lon": 0.0}, {"rental_uris": {"ios": "https://dc.lft.to/lastmile_qr_scan", "android": "https://dc.lft.to/lastmile_qr_scan"}, "type": "electric_scooter", "name": "7829da695a0537c1280a1bd2410e2b63", "is_reserved": 0, "lon": -76.990684, "is_disabled": 0, "fusion_lat": 0.0, "lat": 38.90421716666667, "bike_id": "7829da695a0537c1280a1bd2410e2b63", "fusion_lon": 0.0}, {"rental_uris": {"ios": "https://dc.lft.to/lastmile_qr_scan", "android": "https://dc.lft.to/lastmile_qr_scan"}, "type": "electric_scooter", "name": "57e5c91a441265d0049eb6dc8d8e4b88", "is_reserved": 0, "lon": -77.01540666666666, "is_disabled": 0, "fusion_lat": 0.0, "lat": 38.90265483333334, "bike_id": "57e5c91a441265d0049eb6dc8d8e4b88", "fusion_lon": 0.0}, {"rental_uris": {"ios": "https://dc.lft.to/lastmile_qr_scan", "android": "https://dc.lft.to/lastmile_qr_scan"}, "type": "electric_scooter", "name": "6552f62e989203c5e2927fd040761941", "is_reserved": 0, "lon": -77.0122995, "is_disabled": 0, "fusion_lat": 0.0, "lat": 38.915786833333335, "bike_id": "6552f62e989203c5e2927fd040761941", "fusion_lon": 0.0}, {"rental_uris": {"ios": "https://dc.lft.to/lastmile_qr_scan", "android": "https://dc.lft.to/lastmile_qr_scan"}, "type": "electric_scooter", "name": "ee698750cc88b95da6a1a472bea0a373", "is_reserved": 0, "lon": -77.03660233333333, "is_disabled": 0, "fusion_lat": 0.0, "lat": 38.92379416666667, "bike_id": "ee698750cc88b95da6a1a472bea0a373", "fusion_lon": 0.0}, {"rental_uris": {"ios": "https://dc.lft.to/lastmile_qr_scan", "android": "https://dc.lft.to/lastmile_qr_scan"}, "type": "electric_scooter", "name": "1954a7bd985dd5c291de3ff667b42723", "is_reserved": 0, "lon": -77.05124066666667, "is_disabled": 0, "fusion_lat": 0.0, "lat": 38.92345433333333, "bike_id": "1954a7bd985dd5c291de3ff667b42723", "fusion_lon": 0.0}, {"rental_uris": {"ios": "https://dc.lft.to/lastmile_qr_scan", "android": "https://dc.lft.to/lastmile_qr_scan"}, "type": "electric_bike", "name": "7767065de44ed6e48a5a76baba71776c", "is_reserved": 0, "lon": -77.00760833333334, "is_disabled": 0, "fusion_lat": 0.0, "lat": 38.98133583333333, "bike_id": "7767065de44ed6e48a5a76baba71776c", "fusion_lon": 0.0}, {"rental_uris": {"ios": "https://dc.lft.to/lastmile_qr_scan", "android": "https://dc.lft.to/lastmile_qr_scan"}, "type": "electric_scooter", "name": "6cb864aa70ac309e029f232b64e03e3d", "is_reserved": 0, "lon": -77.02705316666666, "is_disabled": 0, "fusion_lat": 0.0, "lat": 38.902666333333336, "bike_id": "6cb864aa70ac309e029f232b64e03e3d", "fusion_lon": 0.0}, {"rental_uris": {"ios": "https://dc.lft.to/lastmile_qr_scan", "android": "https://dc.lft.to/lastmile_qr_scan"}, "type": "electric_scooter", "name": "5d8b6461922d54f5af59b581f2d3da4a", "is_reserved": 0, "lon": -77.02813516666667, "is_disabled": 0, "fusion_lat": 0.0, "lat": 38.8923055, "bike_id": "5d8b6461922d54f5af59b581f2d3da4a", "fusion_lon": 0.0}, {"rental_uris": {"ios": "https://dc.lft.to/lastmile_qr_scan", "android": "https://dc.lft.to/lastmile_qr_scan"}, "type": "electric_scooter", "name": "55f47575f47866acabef21014eaddf08", "is_reserved": 0, "lon": -77.032352, "is_disabled": 0, "fusion_lat": 0.0, "lat": 38.910442833333335, "bike_id": "55f47575f47866acabef21014eaddf08", "fusion_lon": 0.0}, {"rental_uris": {"ios": "https://dc.lft.to/lastmile_qr_scan", "android": "https://dc.lft.to/lastmile_qr_scan"}, "type": "electric_scooter", "name": "cc4ec10d4a239ce7d7d7e332c7cb7bfe", "is_reserved": 0, "lon": -77.05382066666667, "is_disabled": 0, "fusion_lat": 0.0, "lat": 38.898357833333336, "bike_id": "cc4ec10d4a239ce7d7d7e332c7cb7bfe", "fusion_lon": 0.0}, {"rental_uris": {"ios": "https://dc.lft.to/lastmile_qr_scan", "android": "https://dc.lft.to/lastmile_qr_scan"}, "type": "electric_scooter", "name": "308c27981df6cde92ea455c594577937", "is_reserved": 0, "lon": -77.047621, "is_disabled": 0, "fusion_lat": 0.0, "lat": 38.91244316666667, "bike_id": "308c27981df6cde92ea455c594577937", "fusion_lon": 0.0}, {"rental_uris": {"ios": "https://dc.lft.to/lastmile_qr_scan", "android": "https://dc.lft.to/lastmile_qr_scan"}, "type": "electric_bike", "name": "f46180027e621341444b52eeba0533ab", "is_reserved": 0, "lon": -76.990743, "is_disabled": 0, "fusion_lat": 0.0, "lat": 38.93056266666667, "bike_id": "f46180027e621341444b52eeba0533ab", "fusion_lon": 0.0}, {"rental_uris": {"ios": "https://dc.lft.to/lastmile_qr_scan", "android": "https://dc.lft.to/lastmile_qr_scan"}, "type": "electric_scooter", "name": "21b8633d46c5a7a0ddffa261353eff58", "is_reserved": 0, "lon": -77.03485316666666, "is_disabled": 0, "fusion_lat": 0.0, "lat": 38.92483416666666, "bike_id": "21b8633d46c5a7a0ddffa261353eff58", "fusion_lon": 0.0}, {"rental_uris": {"ios": "https://dc.lft.to/lastmile_qr_scan", "android": "https://dc.lft.to/lastmile_qr_scan"}, "type": "electric_scooter", "name": "846c2aa3cf956ba6eb09933ee3a40295", "is_reserved": 0, "lon": -77.03147433333334, "is_disabled": 0, "fusion_lat": 0.0, "lat": 38.8875095, "bike_id": "846c2aa3cf956ba6eb09933ee3a40295", "fusion_lon": 0.0}, {"rental_uris": {"ios": "https://dc.lft.to/lastmile_qr_scan", "android": "https://dc.lft.to/lastmile_qr_scan"}, "type": "electric_scooter", "name": "648dbcf4bf1a5e22fec410ddabbe5e97", "is_reserved": 0, "lon": -77.017594, "is_disabled": 0, "fusion_lat": 0.0, "lat": 38.9026535, "bike_id": "648dbcf4bf1a5e22fec410ddabbe5e97", "fusion_lon": 0.0}, {"rental_uris": {"ios": "https://dc.lft.to/lastmile_qr_scan", "android": "https://dc.lft.to/lastmile_qr_scan"}, "type": "electric_scooter", "name": "1745d7ea5798727d63aaf4d84c7a6b87", "is_reserved": 0, "lon": -77.01609683333334, "is_disabled": 0, "fusion_lat": 0.0, "lat": 38.9107385, "bike_id": "1745d7ea5798727d63aaf4d84c7a6b87", "fusion_lon": 0.0}, {"rental_uris": {"ios": "https://dc.lft.to/lastmile_qr_scan", "android": "https://dc.lft.to/lastmile_qr_scan"}, "type": "electric_scooter", "name": "ca5c0d525fb077ca34286fa9541c4b28", "is_reserved": 0, "lon": -77.03866083333334, "is_disabled": 0, "fusion_lat": 0.0, "lat": 38.911937333333334, "bike_id": "ca5c0d525fb077ca34286fa9541c4b28", "fusion_lon": 0.0}, {"rental_uris": {"ios": "https://dc.lft.to/lastmile_qr_scan", "android": "https://dc.lft.to/lastmile_qr_scan"}, "type": "electric_bike", "name": "e47565ac116affedefed66ed418d8b90", "is_reserved": 0, "lon": -77.04492283333333, "is_disabled": 0, "fusion_lat": 0.0, "lat": 38.897092666666666, "bike_id": "e47565ac116affedefed66ed418d8b90", "fusion_lon": 0.0}, {"rental_uris": {"ios": "https://dc.lft.to/lastmile_qr_scan", "android": "https://dc.lft.to/lastmile_qr_scan"}, "type": "electric_scooter", "name": "922f81aa88bbcff6cab4ac4f291c20ea", "is_reserved": 0, "lon": -77.04646483333333, "is_disabled": 0, "fusion_lat": 0.0, "lat": 38.90070166666667, "bike_id": "922f81aa88bbcff6cab4ac4f291c20ea", "fusion_lon": 0.0}, {"rental_uris": {"ios": "https://dc.lft.to/lastmile_qr_scan", "android": "https://dc.lft.to/lastmile_qr_scan"}, "type": "electric_scooter", "name": "4ee02a07b34479f7a3729ab27eeb69ce", "is_reserved": 0, "lon": -77.00209766666667, "is_disabled": 0, "fusion_lat": 0.0, "lat": 38.901608, "bike_id": "4ee02a07b34479f7a3729ab27eeb69ce", "fusion_lon": 0.0}, {"rental_uris": {"ios": "https://dc.lft.to/lastmile_qr_scan", "android": "https://dc.lft.to/lastmile_qr_scan"}, "type": "electric_scooter", "name": "a36e69ae25e031eb00a26c1505919ba5", "is_reserved": 0, "lon": -77.039923, "is_disabled": 0, "fusion_lat": 0.0, "lat": 38.90966616666667, "bike_id": "a36e69ae25e031eb00a26c1505919ba5", "fusion_lon": 0.0}, {"rental_uris": {"ios": "https://dc.lft.to/lastmile_qr_scan", "android": "https://dc.lft.to/lastmile_qr_scan"}, "type": "electric_scooter", "name": "cb35174298fd2b62f646f9bc4e903f36", "is_reserved": 0, "lon": -77.06805983333334, "is_disabled": 0, "fusion_lat": 0.0, "lat": 38.95221816666667, "bike_id": "cb35174298fd2b62f646f9bc4e903f36", "fusion_lon": 0.0}, {"rental_uris": {"ios": "https://dc.lft.to/lastmile_qr_scan", "android": "https://dc.lft.to/lastmile_qr_scan"}, "type": "electric_scooter", "name": "52cb361f3114c557f1cb600024f71c35", "is_reserved": 0, "lon": -77.03502416666667, "is_disabled": 0, "fusion_lat": 0.0, "lat": 38.91878, "bike_id": "52cb361f3114c557f1cb600024f71c35", "fusion_lon": 0.0}, {"rental_uris": {"ios": "https://dc.lft.to/lastmile_qr_scan", "android": "https://dc.lft.to/lastmile_qr_scan"}, "type": "electric_scooter", "name": "1785dd555e2610da7230deb621afc426", "is_reserved": 0, "lon": -77.0206955, "is_disabled": 0, "fusion_lat": 0.0, "lat": 38.91251483333333, "bike_id": "1785dd555e2610da7230deb621afc426", "fusion_lon": 0.0}, {"rental_uris": {"ios": "https://dc.lft.to/lastmile_qr_scan", "android": "https://dc.lft.to/lastmile_qr_scan"}, "type": "electric_scooter", "name": "ce08de478cc801e8dd0f287da5dc6a4b", "is_reserved": 0, "lon": -77.00758366666666, "is_disabled": 0, "fusion_lat": 0.0, "lat": 38.8784195, "bike_id": "ce08de478cc801e8dd0f287da5dc6a4b", "fusion_lon": 0.0}, {"rental_uris": {"ios": "https://dc.lft.to/lastmile_qr_scan", "android": "https://dc.lft.to/lastmile_qr_scan"}, "type": "electric_scooter", "name": "a7a49736f37b3a39f5c9d0edaf758a7f", "is_reserved": 0, "lon": -77.01101983333334, "is_disabled": 0, "fusion_lat": 0.0, "lat": 38.885413166666666, "bike_id": "a7a49736f37b3a39f5c9d0edaf758a7f", "fusion_lon": 0.0}, {"rental_uris": {"ios": "https://dc.lft.to/lastmile_qr_scan", "android": "https://dc.lft.to/lastmile_qr_scan"}, "type": "electric_scooter", "name": "24aa24af0a022a2b18d7864bb2459e39", "is_reserved": 0, "lon": -77.05853366666666, "is_disabled": 0, "fusion_lat": 0.0, "lat": 38.90430166666667, "bike_id": "24aa24af0a022a2b18d7864bb2459e39", "fusion_lon": 0.0}, {"rental_uris": {"ios": "https://dc.lft.to/lastmile_qr_scan", "android": "https://dc.lft.to/lastmile_qr_scan"}, "type": "electric_scooter", "name": "c25f51639fa6854eabd87a05089b308a", "is_reserved": 0, "lon": -76.99035883333333, "is_disabled": 0, "fusion_lat": 0.0, "lat": 38.90277416666667, "bike_id": "c25f51639fa6854eabd87a05089b308a", "fusion_lon": 0.0}, {"rental_uris": {"ios": "https://dc.lft.to/lastmile_qr_scan", "android": "https://dc.lft.to/lastmile_qr_scan"}, "type": "electric_bike", "name": "c2180489057292a0e525891fd1c6a591", "is_reserved": 0, "lon": -76.9610185, "is_disabled": 0, "fusion_lat": 0.0, "lat": 38.9496655, "bike_id": "c2180489057292a0e525891fd1c6a591", "fusion_lon": 0.0}, {"rental_uris": {"ios": "https://dc.lft.to/lastmile_qr_scan", "android": "https://dc.lft.to/lastmile_qr_scan"}, "type": "electric_scooter", "name": "b0490cb816fc6a9c0d226ea0842793e5", "is_reserved": 0, "lon": -77.0449015, "is_disabled": 0, "fusion_lat": 0.0, "lat": 38.90564366666667, "bike_id": "b0490cb816fc6a9c0d226ea0842793e5", "fusion_lon": 0.0}, {"rental_uris": {"ios": "https://dc.lft.to/lastmile_qr_scan", "android": "https://dc.lft.to/lastmile_qr_scan"}, "type": "electric_scooter", "name": "7c7b9ee45636c2fc1e5095d746c5a7b9", "is_reserved": 0, "lon": -76.99046366666667, "is_disabled": 0, "fusion_lat": 0.0, "lat": 38.92477816666667, "bike_id": "7c7b9ee45636c2fc1e5095d746c5a7b9", "fusion_lon": 0.0}, {"rental_uris": {"ios": "https://dc.lft.to/lastmile_qr_scan", "android": "https://dc.lft.to/lastmile_qr_scan"}, "type": "electric_scooter", "name": "c3c40c5725f79d39c0ea9a1e1d37c178", "is_reserved": 0, "lon": -77.04124816666666, "is_disabled": 0, "fusion_lat": 0.0, "lat": 38.91416516666666, "bike_id": "c3c40c5725f79d39c0ea9a1e1d37c178", "fusion_lon": 0.0}, {"rental_uris": {"ios": "https://dc.lft.to/lastmile_qr_scan", "android": "https://dc.lft.to/lastmile_qr_scan"}, "type": "electric_scooter", "name": "86a0f1df9971ee1c4e7b07fe7d6ff5a3", "is_reserved": 0, "lon": -77.028306, "is_disabled": 0, "fusion_lat": 0.0, "lat": 38.91117, "bike_id": "86a0f1df9971ee1c4e7b07fe7d6ff5a3", "fusion_lon": 0.0}, {"rental_uris": {"ios": "https://dc.lft.to/lastmile_qr_scan", "android": "https://dc.lft.to/lastmile_qr_scan"}, "type": "electric_scooter", "name": "6502a69b36d4e0d03c6c0df8e5f7ca18", "is_reserved": 0, "lon": -77.03468616666666, "is_disabled": 0, "fusion_lat": 0.0, "lat": 38.91264316666667, "bike_id": "6502a69b36d4e0d03c6c0df8e5f7ca18", "fusion_lon": 0.0}, {"rental_uris": {"ios": "https://dc.lft.to/lastmile_qr_scan", "android": "https://dc.lft.to/lastmile_qr_scan"}, "type": "electric_bike", "name": "d9aaa0e2216ff70fd22eac7ace8338a8", "is_reserved": 0, "lon": -77.07649183333334, "is_disabled": 0, "fusion_lat": 0.0, "lat": 38.888499333333336, "bike_id": "d9aaa0e2216ff70fd22eac7ace8338a8", "fusion_lon": 0.0}, {"rental_uris": {"ios": "https://dc.lft.to/lastmile_qr_scan", "android": "https://dc.lft.to/lastmile_qr_scan"}, "type": "electric_scooter", "name": "f654dda431691deb79dfc3930bdea835", "is_reserved": 0, "lon": -77.0211415, "is_disabled": 0, "fusion_lat": 0.0, "lat": 38.914161, "bike_id": "f654dda431691deb79dfc3930bdea835", "fusion_lon": 0.0}, {"rental_uris": {"ios": "https://dc.lft.to/lastmile_qr_scan", "android": "https://dc.lft.to/lastmile_qr_scan"}, "type": "electric_scooter", "name": "61a4121bdd353e6165bef7c5f934e9a8", "is_reserved": 0, "lon": -77.018687, "is_disabled": 0, "fusion_lat": 0.0, "lat": 38.951563666666665, "bike_id": "61a4121bdd353e6165bef7c5f934e9a8", "fusion_lon": 0.0}, {"rental_uris": {"ios": "https://dc.lft.to/lastmile_qr_scan", "android": "https://dc.lft.to/lastmile_qr_scan"}, "type": "electric_scooter", "name": "d3e899b54d43039e03523ba00a8208bc", "is_reserved": 0, "lon": -77.01432566666666, "is_disabled": 0, "fusion_lat": 0.0, "lat": 38.887467666666666, "bike_id": "d3e899b54d43039e03523ba00a8208bc", "fusion_lon": 0.0}, {"rental_uris": {"ios": "https://dc.lft.to/lastmile_qr_scan", "android": "https://dc.lft.to/lastmile_qr_scan"}, "type": "electric_scooter", "name": "1e50f37dc93840ef9cc92a6ec7e1a469", "is_reserved": 0, "lon": -77.00687933333333, "is_disabled": 0, "fusion_lat": 0.0, "lat": 38.884307666666665, "bike_id": "1e50f37dc93840ef9cc92a6ec7e1a469", "fusion_lon": 0.0}, {"rental_uris": {"ios": "https://dc.lft.to/lastmile_qr_scan", "android": "https://dc.lft.to/lastmile_qr_scan"}, "type": "electric_scooter", "name": "dbe843921f19d1407df3a3c9fca6af31", "is_reserved": 0, "lon": -77.06646483333333, "is_disabled": 0, "fusion_lat": 0.0, "lat": 38.937294333333334, "bike_id": "dbe843921f19d1407df3a3c9fca6af31", "fusion_lon": 0.0}, {"rental_uris": {"ios": "https://dc.lft.to/lastmile_qr_scan", "android": "https://dc.lft.to/lastmile_qr_scan"}, "type": "electric_scooter", "name": "95e3c13bfdef831c14c2d81beaad533e", "is_reserved": 0, "lon": -77.02807816666666, "is_disabled": 0, "fusion_lat": 0.0, "lat": 38.8923355, "bike_id": "95e3c13bfdef831c14c2d81beaad533e", "fusion_lon": 0.0}, {"rental_uris": {"ios": "https://dc.lft.to/lastmile_qr_scan", "android": "https://dc.lft.to/lastmile_qr_scan"}, "type": "electric_scooter", "name": "94bddddb8f76446aac28f7c62b2a471b", "is_reserved": 0, "lon": -77.03269666666667, "is_disabled": 0, "fusion_lat": 0.0, "lat": 38.919938333333334, "bike_id": "94bddddb8f76446aac28f7c62b2a471b", "fusion_lon": 0.0}, {"rental_uris": {"ios": "https://dc.lft.to/lastmile_qr_scan", "android": "https://dc.lft.to/lastmile_qr_scan"}, "type": "electric_scooter", "name": "a44a5b38b172c8290278e63d8e719e31", "is_reserved": 0, "lon": -77.03262866666667, "is_disabled": 0, "fusion_lat": 0.0, "lat": 38.9104515, "bike_id": "a44a5b38b172c8290278e63d8e719e31", "fusion_lon": 0.0}, {"rental_uris": {"ios": "https://dc.lft.to/lastmile_qr_scan", "android": "https://dc.lft.to/lastmile_qr_scan"}, "type": "electric_scooter", "name": "1d7d60b53eb595490760207006885b49", "is_reserved": 0, "lon": -77.03179016666667, "is_disabled": 0, "fusion_lat": 0.0, "lat": 38.9182385, "bike_id": "1d7d60b53eb595490760207006885b49", "fusion_lon": 0.0}, {"rental_uris": {"ios": "https://dc.lft.to/lastmile_qr_scan", "android": "https://dc.lft.to/lastmile_qr_scan"}, "type": "electric_scooter", "name": "54c1558bd2f25b4378612d7edda9c9d6", "is_reserved": 0, "lon": -77.03627533333334, "is_disabled": 0, "fusion_lat": 0.0, "lat": 38.925949833333334, "bike_id": "54c1558bd2f25b4378612d7edda9c9d6", "fusion_lon": 0.0}, {"rental_uris": {"ios": "https://dc.lft.to/lastmile_qr_scan", "android": "https://dc.lft.to/lastmile_qr_scan"}, "type": "electric_scooter", "name": "8afa1b928ea83d0b5c9d0dd1dd51d37d", "is_reserved": 0, "lon": -77.043642, "is_disabled": 0, "fusion_lat": 0.0, "lat": 38.931453, "bike_id": "8afa1b928ea83d0b5c9d0dd1dd51d37d", "fusion_lon": 0.0}, {"rental_uris": {"ios": "https://dc.lft.to/lastmile_qr_scan", "android": "https://dc.lft.to/lastmile_qr_scan"}, "type": "electric_scooter", "name": "c0aa80a0d03566be360d45ed9923b929", "is_reserved": 0, "lon": -77.0417785, "is_disabled": 0, "fusion_lat": 0.0, "lat": 38.903851833333334, "bike_id": "c0aa80a0d03566be360d45ed9923b929", "fusion_lon": 0.0}, {"rental_uris": {"ios": "https://dc.lft.to/lastmile_qr_scan", "android": "https://dc.lft.to/lastmile_qr_scan"}, "type": "electric_scooter", "name": "8c3e9e29ed3713c908cc0d7333fce146", "is_reserved": 0, "lon": -77.056389, "is_disabled": 0, "fusion_lat": 0.0, "lat": 38.93597366666667, "bike_id": "8c3e9e29ed3713c908cc0d7333fce146", "fusion_lon": 0.0}, {"rental_uris": {"ios": "https://dc.lft.to/lastmile_qr_scan", "android": "https://dc.lft.to/lastmile_qr_scan"}, "type": "electric_scooter", "name": "1f5b067a931c4b007fd4047f33f363de", "is_reserved": 0, "lon": -77.00819716666666, "is_disabled": 0, "fusion_lat": 0.0, "lat": 38.915646833333334, "bike_id": "1f5b067a931c4b007fd4047f33f363de", "fusion_lon": 0.0}, {"rental_uris": {"ios": "https://dc.lft.to/lastmile_qr_scan", "android": "https://dc.lft.to/lastmile_qr_scan"}, "type": "electric_scooter", "name": "76115e0a0b4eb8c988dbeb6438bd7f29", "is_reserved": 0, "lon": -77.063251, "is_disabled": 0, "fusion_lat": 0.0, "lat": 38.913373166666666, "bike_id": "76115e0a0b4eb8c988dbeb6438bd7f29", "fusion_lon": 0.0}, {"rental_uris": {"ios": "https://dc.lft.to/lastmile_qr_scan", "android": "https://dc.lft.to/lastmile_qr_scan"}, "type": "electric_scooter", "name": "77d3862ac9a330cf4c62e7b0d3f353d0", "is_reserved": 0, "lon": -76.98698716666667, "is_disabled": 0, "fusion_lat": 0.0, "lat": 38.907011833333335, "bike_id": "77d3862ac9a330cf4c62e7b0d3f353d0", "fusion_lon": 0.0}, {"rental_uris": {"ios": "https://dc.lft.to/lastmile_qr_scan", "android": "https://dc.lft.to/lastmile_qr_scan"}, "type": "electric_bike", "name": "10656720df777f780403c83d7ab11b49", "is_reserved": 0, "lon": -77.02307766666667, "is_disabled": 0, "fusion_lat": 0.0, "lat": 38.926894, "bike_id": "10656720df777f780403c83d7ab11b49", "fusion_lon": 0.0}, {"rental_uris": {"ios": "https://dc.lft.to/lastmile_qr_scan", "android": "https://dc.lft.to/lastmile_qr_scan"}, "type": "electric_scooter", "name": "5f67a482d59fda47d3786ef72e11e574", "is_reserved": 0, "lon": -77.02185, "is_disabled": 0, "fusion_lat": 0.0, "lat": 38.929181666666665, "bike_id": "5f67a482d59fda47d3786ef72e11e574", "fusion_lon": 0.0}, {"rental_uris": {"ios": "https://dc.lft.to/lastmile_qr_scan", "android": "https://dc.lft.to/lastmile_qr_scan"}, "type": "electric_scooter", "name": "bc6ce6774084be7e2f2ca2ac0ed7286d", "is_reserved": 0, "lon": -77.04038666666666, "is_disabled": 0, "fusion_lat": 0.0, "lat": 38.921645833333336, "bike_id": "bc6ce6774084be7e2f2ca2ac0ed7286d", "fusion_lon": 0.0}, {"rental_uris": {"ios": "https://dc.lft.to/lastmile_qr_scan", "android": "https://dc.lft.to/lastmile_qr_scan"}, "type": "electric_scooter", "name": "8ca868049c094cab4398a3ee837dd1d5", "is_reserved": 0, "lon": -77.0307155, "is_disabled": 0, "fusion_lat": 0.0, "lat": 38.92375716666667, "bike_id": "8ca868049c094cab4398a3ee837dd1d5", "fusion_lon": 0.0}, {"rental_uris": {"ios": "https://dc.lft.to/lastmile_qr_scan", "android": "https://dc.lft.to/lastmile_qr_scan"}, "type": "electric_scooter", "name": "25ff1b77e9afed831864c905b2c206db", "is_reserved": 0, "lon": -77.00223983333333, "is_disabled": 0, "fusion_lat": 0.0, "lat": 38.90033233333333, "bike_id": "25ff1b77e9afed831864c905b2c206db", "fusion_lon": 0.0}, {"rental_uris": {"ios": "https://dc.lft.to/lastmile_qr_scan", "android": "https://dc.lft.to/lastmile_qr_scan"}, "type": "electric_scooter", "name": "36f545ccd865373fee22e8b4d48d5396", "is_reserved": 0, "lon": -77.08782516666666, "is_disabled": 0, "fusion_lat": 0.0, "lat": 38.935632, "bike_id": "36f545ccd865373fee22e8b4d48d5396", "fusion_lon": 0.0}, {"rental_uris": {"ios": "https://dc.lft.to/lastmile_qr_scan", "android": "https://dc.lft.to/lastmile_qr_scan"}, "type": "electric_bike", "name": "1206f3ce4d44ca2c5806270bc62777c3", "is_reserved": 0, "lon": -77.11285133333334, "is_disabled": 0, "fusion_lat": 0.0, "lat": 38.831031833333334, "bike_id": "1206f3ce4d44ca2c5806270bc62777c3", "fusion_lon": 0.0}, {"rental_uris": {"ios": "https://dc.lft.to/lastmile_qr_scan", "android": "https://dc.lft.to/lastmile_qr_scan"}, "type": "electric_scooter", "name": "ec2901c1561098cdca89c37bc8b45da5", "is_reserved": 0, "lon": -77.02262183333333, "is_disabled": 0, "fusion_lat": 0.0, "lat": 38.924085166666664, "bike_id": "ec2901c1561098cdca89c37bc8b45da5", "fusion_lon": 0.0}, {"rental_uris": {"ios": "https://dc.lft.to/lastmile_qr_scan", "android": "https://dc.lft.to/lastmile_qr_scan"}, "type": "electric_scooter", "name": "b828b0f465ddcac1bfa1bef51f263f89", "is_reserved": 0, "lon": -77.02793166666666, "is_disabled": 0, "fusion_lat": 0.0, "lat": 38.95609066666667, "bike_id": "b828b0f465ddcac1bfa1bef51f263f89", "fusion_lon": 0.0}, {"rental_uris": {"ios": "https://dc.lft.to/lastmile_qr_scan", "android": "https://dc.lft.to/lastmile_qr_scan"}, "type": "electric_scooter", "name": "58806d8b14d5654c029c8c52df08954c", "is_reserved": 0, "lon": -77.00776766666667, "is_disabled": 0, "fusion_lat": 0.0, "lat": 38.87841683333333, "bike_id": "58806d8b14d5654c029c8c52df08954c", "fusion_lon": 0.0}, {"rental_uris": {"ios": "https://dc.lft.to/lastmile_qr_scan", "android": "https://dc.lft.to/lastmile_qr_scan"}, "type": "electric_scooter", "name": "513f07fc3a128a438cab339bfb668a4e", "is_reserved": 0, "lon": -77.03472833333333, "is_disabled": 0, "fusion_lat": 0.0, "lat": 38.91119333333333, "bike_id": "513f07fc3a128a438cab339bfb668a4e", "fusion_lon": 0.0}, {"rental_uris": {"ios": "https://dc.lft.to/lastmile_qr_scan", "android": "https://dc.lft.to/lastmile_qr_scan"}, "type": "electric_scooter", "name": "627bb729bb775583b3f19c0785dbeabc", "is_reserved": 0, "lon": -76.970441, "is_disabled": 0, "fusion_lat": 0.0, "lat": 38.873219666666664, "bike_id": "627bb729bb775583b3f19c0785dbeabc", "fusion_lon": 0.0}, {"rental_uris": {"ios": "https://dc.lft.to/lastmile_qr_scan", "android": "https://dc.lft.to/lastmile_qr_scan"}, "type": "electric_scooter", "name": "328637af3924e483546d89a4324fe038", "is_reserved": 0, "lon": -77.0272505, "is_disabled": 0, "fusion_lat": 0.0, "lat": 38.910083666666665, "bike_id": "328637af3924e483546d89a4324fe038", "fusion_lon": 0.0}, {"rental_uris": {"ios": "https://dc.lft.to/lastmile_qr_scan", "android": "https://dc.lft.to/lastmile_qr_scan"}, "type": "electric_scooter", "name": "1e6f037829dfb87dbed336894f420e91", "is_reserved": 0, "lon": -77.03234266666666, "is_disabled": 0, "fusion_lat": 0.0, "lat": 38.91048033333333, "bike_id": "1e6f037829dfb87dbed336894f420e91", "fusion_lon": 0.0}, {"rental_uris": {"ios": "https://dc.lft.to/lastmile_qr_scan", "android": "https://dc.lft.to/lastmile_qr_scan"}, "type": "electric_scooter", "name": "ddceeb9dde3f04dc5abfb85c220792f8", "is_reserved": 0, "lon": -77.03846266666666, "is_disabled": 0, "fusion_lat": 0.0, "lat": 38.908777, "bike_id": "ddceeb9dde3f04dc5abfb85c220792f8", "fusion_lon": 0.0}, {"rental_uris": {"ios": "https://dc.lft.to/lastmile_qr_scan", "android": "https://dc.lft.to/lastmile_qr_scan"}, "type": "electric_scooter", "name": "0fb5ccca7260990e285689b121b838ec", "is_reserved": 0, "lon": -77.00875966666666, "is_disabled": 0, "fusion_lat": 0.0, "lat": 38.9154915, "bike_id": "0fb5ccca7260990e285689b121b838ec", "fusion_lon": 0.0}, {"rental_uris": {"ios": "https://dc.lft.to/lastmile_qr_scan", "android": "https://dc.lft.to/lastmile_qr_scan"}, "type": "electric_scooter", "name": "b536affb54a99ea674fc43a5611708ab", "is_reserved": 0, "lon": -77.02910333333334, "is_disabled": 0, "fusion_lat": 0.0, "lat": 38.940387333333334, "bike_id": "b536affb54a99ea674fc43a5611708ab", "fusion_lon": 0.0}, {"rental_uris": {"ios": "https://dc.lft.to/lastmile_qr_scan", "android": "https://dc.lft.to/lastmile_qr_scan"}, "type": "electric_scooter", "name": "6aa18e3b69fa2894db7a8a7f6b9e3667", "is_reserved": 0, "lon": -77.03532133333333, "is_disabled": 0, "fusion_lat": 0.0, "lat": 38.923896, "bike_id": "6aa18e3b69fa2894db7a8a7f6b9e3667", "fusion_lon": 0.0}, {"rental_uris": {"ios": "https://dc.lft.to/lastmile_qr_scan", "android": "https://dc.lft.to/lastmile_qr_scan"}, "type": "electric_scooter", "name": "669eae7e9fba62aa3f818f9ea7153909", "is_reserved": 0, "lon": -77.048622, "is_disabled": 0, "fusion_lat": 0.0, "lat": 38.89223416666667, "bike_id": "669eae7e9fba62aa3f818f9ea7153909", "fusion_lon": 0.0}, {"rental_uris": {"ios": "https://dc.lft.to/lastmile_qr_scan", "android": "https://dc.lft.to/lastmile_qr_scan"}, "type": "electric_scooter", "name": "741f5b002a8cc64c67c0fa42fe4172dc", "is_reserved": 0, "lon": -77.03197, "is_disabled": 0, "fusion_lat": 0.0, "lat": 38.918195833333336, "bike_id": "741f5b002a8cc64c67c0fa42fe4172dc", "fusion_lon": 0.0}, {"rental_uris": {"ios": "https://dc.lft.to/lastmile_qr_scan", "android": "https://dc.lft.to/lastmile_qr_scan"}, "type": "electric_bike", "name": "f089ee6fae501ebdbe43137ec145d53d", "is_reserved": 0, "lon": -77.0669775, "is_disabled": 0, "fusion_lat": 0.0, "lat": 38.83171816666667, "bike_id": "f089ee6fae501ebdbe43137ec145d53d", "fusion_lon": 0.0}, {"rental_uris": {"ios": "https://dc.lft.to/lastmile_qr_scan", "android": "https://dc.lft.to/lastmile_qr_scan"}, "type": "electric_scooter", "name": "84ae27afd9100579cf0b08b7afb8a6bb", "is_reserved": 0, "lon": -77.01866566666666, "is_disabled": 0, "fusion_lat": 0.0, "lat": 38.93058966666667, "bike_id": "84ae27afd9100579cf0b08b7afb8a6bb", "fusion_lon": 0.0}, {"rental_uris": {"ios": "https://dc.lft.to/lastmile_qr_scan", "android": "https://dc.lft.to/lastmile_qr_scan"}, "type": "electric_scooter", "name": "291806ba5a67d6532dae343ab6779963", "is_reserved": 0, "lon": -77.05334116666667, "is_disabled": 0, "fusion_lat": 0.0, "lat": 38.90233, "bike_id": "291806ba5a67d6532dae343ab6779963", "fusion_lon": 0.0}, {"rental_uris": {"ios": "https://dc.lft.to/lastmile_qr_scan", "android": "https://dc.lft.to/lastmile_qr_scan"}, "type": "electric_scooter", "name": "a535363dd9ede24f1db96b8c8a4afe4b", "is_reserved": 0, "lon": -77.017525, "is_disabled": 0, "fusion_lat": 0.0, "lat": 38.876890833333334, "bike_id": "a535363dd9ede24f1db96b8c8a4afe4b", "fusion_lon": 0.0}, {"rental_uris": {"ios": "https://dc.lft.to/lastmile_qr_scan", "android": "https://dc.lft.to/lastmile_qr_scan"}, "type": "electric_scooter", "name": "7714f2dc213593383196578238a9d9cd", "is_reserved": 0, "lon": -77.03287533333334, "is_disabled": 0, "fusion_lat": 0.0, "lat": 38.93667533333333, "bike_id": "7714f2dc213593383196578238a9d9cd", "fusion_lon": 0.0}, {"rental_uris": {"ios": "https://dc.lft.to/lastmile_qr_scan", "android": "https://dc.lft.to/lastmile_qr_scan"}, "type": "electric_scooter", "name": "78dd30c58964750e47d803b95e6f6fca", "is_reserved": 0, "lon": -77.0318465, "is_disabled": 0, "fusion_lat": 0.0, "lat": 38.913948833333336, "bike_id": "78dd30c58964750e47d803b95e6f6fca", "fusion_lon": 0.0}, {"rental_uris": {"ios": "https://dc.lft.to/lastmile_qr_scan", "android": "https://dc.lft.to/lastmile_qr_scan"}, "type": "electric_scooter", "name": "c6c2e825581f7a72bdc745e755dbb19a", "is_reserved": 0, "lon": -76.997061, "is_disabled": 0, "fusion_lat": 0.0, "lat": 38.887688833333335, "bike_id": "c6c2e825581f7a72bdc745e755dbb19a", "fusion_lon": 0.0}, {"rental_uris": {"ios": "https://dc.lft.to/lastmile_qr_scan", "android": "https://dc.lft.to/lastmile_qr_scan"}, "type": "electric_scooter", "name": "17f886f094acbe8bd15fa643e32a251f", "is_reserved": 0, "lon": -77.01984333333333, "is_disabled": 0, "fusion_lat": 0.0, "lat": 38.899657166666664, "bike_id": "17f886f094acbe8bd15fa643e32a251f", "fusion_lon": 0.0}, {"rental_uris": {"ios": "https://dc.lft.to/lastmile_qr_scan", "android": "https://dc.lft.to/lastmile_qr_scan"}, "type": "electric_scooter", "name": "a6d24a66da805b1ee1f2ed91bfdfab6c", "is_reserved": 0, "lon": -77.02602783333333, "is_disabled": 0, "fusion_lat": 0.0, "lat": 38.908149333333334, "bike_id": "a6d24a66da805b1ee1f2ed91bfdfab6c", "fusion_lon": 0.0}, {"rental_uris": {"ios": "https://dc.lft.to/lastmile_qr_scan", "android": "https://dc.lft.to/lastmile_qr_scan"}, "type": "electric_bike", "name": "ce502c02aa44fd3302ebe44aa2111882", "is_reserved": 0, "lon": -77.01093116666667, "is_disabled": 0, "fusion_lat": 0.0, "lat": 38.87308016666667, "bike_id": "ce502c02aa44fd3302ebe44aa2111882", "fusion_lon": 0.0}, {"rental_uris": {"ios": "https://dc.lft.to/lastmile_qr_scan", "android": "https://dc.lft.to/lastmile_qr_scan"}, "type": "electric_scooter", "name": "e35e44e7c3b8080599a239282b5cf3c5", "is_reserved": 0, "lon": -77.07448316666667, "is_disabled": 0, "fusion_lat": 0.0, "lat": 38.93784383333333, "bike_id": "e35e44e7c3b8080599a239282b5cf3c5", "fusion_lon": 0.0}, {"rental_uris": {"ios": "https://dc.lft.to/lastmile_qr_scan", "android": "https://dc.lft.to/lastmile_qr_scan"}, "type": "electric_scooter", "name": "32a8838a06ba049dd1a865680ac94f6b", "is_reserved": 0, "lon": -77.05909466666667, "is_disabled": 0, "fusion_lat": 0.0, "lat": 38.905406, "bike_id": "32a8838a06ba049dd1a865680ac94f6b", "fusion_lon": 0.0}, {"rental_uris": {"ios": "https://dc.lft.to/lastmile_qr_scan", "android": "https://dc.lft.to/lastmile_qr_scan"}, "type": "electric_scooter", "name": "68980ed107fa9308472f5f81ba0105de", "is_reserved": 0, "lon": -77.03637833333333, "is_disabled": 0, "fusion_lat": 0.0, "lat": 38.918549, "bike_id": "68980ed107fa9308472f5f81ba0105de", "fusion_lon": 0.0}, {"rental_uris": {"ios": "https://dc.lft.to/lastmile_qr_scan", "android": "https://dc.lft.to/lastmile_qr_scan"}, "type": "electric_scooter", "name": "ba3a333519e78cd6ba5e35edd39b70f4", "is_reserved": 0, "lon": -77.0290555, "is_disabled": 0, "fusion_lat": 0.0, "lat": 38.952993166666666, "bike_id": "ba3a333519e78cd6ba5e35edd39b70f4", "fusion_lon": 0.0}, {"rental_uris": {"ios": "https://dc.lft.to/lastmile_qr_scan", "android": "https://dc.lft.to/lastmile_qr_scan"}, "type": "electric_scooter", "name": "2550e93487933c589665d6cc8b4e530c", "is_reserved": 0, "lon": -77.036433, "is_disabled": 0, "fusion_lat": 0.0, "lat": 38.918591166666666, "bike_id": "2550e93487933c589665d6cc8b4e530c", "fusion_lon": 0.0}, {"rental_uris": {"ios": "https://dc.lft.to/lastmile_qr_scan", "android": "https://dc.lft.to/lastmile_qr_scan"}, "type": "electric_scooter", "name": "ba33bbce2f2681f62e60bf47eeaef454", "is_reserved": 0, "lon": -77.0381735, "is_disabled": 0, "fusion_lat": 0.0, "lat": 38.92553316666667, "bike_id": "ba33bbce2f2681f62e60bf47eeaef454", "fusion_lon": 0.0}, {"rental_uris": {"ios": "https://dc.lft.to/lastmile_qr_scan", "android": "https://dc.lft.to/lastmile_qr_scan"}, "type": "electric_scooter", "name": "402ffc6a3158896511602b7a80d71a65", "is_reserved": 0, "lon": -77.02189833333334, "is_disabled": 0, "fusion_lat": 0.0, "lat": 38.87899816666667, "bike_id": "402ffc6a3158896511602b7a80d71a65", "fusion_lon": 0.0}, {"rental_uris": {"ios": "https://dc.lft.to/lastmile_qr_scan", "android": "https://dc.lft.to/lastmile_qr_scan"}, "type": "electric_scooter", "name": "eb59a7b2a4eaf2f300443fc8ed99d424", "is_reserved": 0, "lon": -77.0216855, "is_disabled": 0, "fusion_lat": 0.0, "lat": 38.925001333333334, "bike_id": "eb59a7b2a4eaf2f300443fc8ed99d424", "fusion_lon": 0.0}, {"rental_uris": {"ios": "https://dc.lft.to/lastmile_qr_scan", "android": "https://dc.lft.to/lastmile_qr_scan"}, "type": "electric_scooter", "name": "ac5ab84391db6e2db2e5c471febfcac2", "is_reserved": 0, "lon": -77.0070255, "is_disabled": 0, "fusion_lat": 0.0, "lat": 38.878493166666665, "bike_id": "ac5ab84391db6e2db2e5c471febfcac2", "fusion_lon": 0.0}, {"rental_uris": {"ios": "https://dc.lft.to/lastmile_qr_scan", "android": "https://dc.lft.to/lastmile_qr_scan"}, "type": "electric_scooter", "name": "88478b2800047ebc9b5ce17d30cdc4d3", "is_reserved": 0, "lon": -76.94854483333333, "is_disabled": 0, "fusion_lat": 0.0, "lat": 38.8830025, "bike_id": "88478b2800047ebc9b5ce17d30cdc4d3", "fusion_lon": 0.0}, {"rental_uris": {"ios": "https://dc.lft.to/lastmile_qr_scan", "android": "https://dc.lft.to/lastmile_qr_scan"}, "type": "electric_scooter", "name": "af0773bd6be6b9c6df864e9da1bf80b3", "is_reserved": 0, "lon": -77.02725333333333, "is_disabled": 0, "fusion_lat": 0.0, "lat": 38.9248695, "bike_id": "af0773bd6be6b9c6df864e9da1bf80b3", "fusion_lon": 0.0}, {"rental_uris": {"ios": "https://dc.lft.to/lastmile_qr_scan", "android": "https://dc.lft.to/lastmile_qr_scan"}, "type": "electric_scooter", "name": "cc54c76226f379f6743079dcf8cdaea1", "is_reserved": 0, "lon": -77.03383683333334, "is_disabled": 0, "fusion_lat": 0.0, "lat": 38.93847933333333, "bike_id": "cc54c76226f379f6743079dcf8cdaea1", "fusion_lon": 0.0}, {"rental_uris": {"ios": "https://dc.lft.to/lastmile_qr_scan", "android": "https://dc.lft.to/lastmile_qr_scan"}, "type": "electric_scooter", "name": "8fa89dd4fa3847346aab3ccfa4aefdff", "is_reserved": 0, "lon": -77.0207025, "is_disabled": 0, "fusion_lat": 0.0, "lat": 38.92399833333333, "bike_id": "8fa89dd4fa3847346aab3ccfa4aefdff", "fusion_lon": 0.0}, {"rental_uris": {"ios": "https://dc.lft.to/lastmile_qr_scan", "android": "https://dc.lft.to/lastmile_qr_scan"}, "type": "electric_scooter", "name": "be071715162ba2f95b5c3f612264e6a7", "is_reserved": 0, "lon": -77.02463916666666, "is_disabled": 0, "fusion_lat": 0.0, "lat": 38.917653, "bike_id": "be071715162ba2f95b5c3f612264e6a7", "fusion_lon": 0.0}, {"rental_uris": {"ios": "https://dc.lft.to/lastmile_qr_scan", "android": "https://dc.lft.to/lastmile_qr_scan"}, "type": "electric_scooter", "name": "e9698f3aa7bde7a5ec34fe519b62826a", "is_reserved": 0, "lon": -76.98084233333333, "is_disabled": 0, "fusion_lat": 0.0, "lat": 38.90414633333333, "bike_id": "e9698f3aa7bde7a5ec34fe519b62826a", "fusion_lon": 0.0}, {"rental_uris": {"ios": "https://dc.lft.to/lastmile_qr_scan", "android": "https://dc.lft.to/lastmile_qr_scan"}, "type": "electric_scooter", "name": "c87e2bb73badfc8c4e80d8253da60f75", "is_reserved": 0, "lon": -77.04245166666666, "is_disabled": 0, "fusion_lat": 0.0, "lat": 38.924421, "bike_id": "c87e2bb73badfc8c4e80d8253da60f75", "fusion_lon": 0.0}, {"rental_uris": {"ios": "https://dc.lft.to/lastmile_qr_scan", "android": "https://dc.lft.to/lastmile_qr_scan"}, "type": "electric_scooter", "name": "e1eaa244cba3493917f1ff7340819808", "is_reserved": 0, "lon": -77.01530033333333, "is_disabled": 0, "fusion_lat": 0.0, "lat": 38.88731283333333, "bike_id": "e1eaa244cba3493917f1ff7340819808", "fusion_lon": 0.0}, {"rental_uris": {"ios": "https://dc.lft.to/lastmile_qr_scan", "android": "https://dc.lft.to/lastmile_qr_scan"}, "type": "electric_scooter", "name": "2b63f2976dd199154a382699bdd1fbdf", "is_reserved": 0, "lon": -77.05412383333334, "is_disabled": 0, "fusion_lat": 0.0, "lat": 38.92834033333333, "bike_id": "2b63f2976dd199154a382699bdd1fbdf", "fusion_lon": 0.0}, {"rental_uris": {"ios": "https://dc.lft.to/lastmile_qr_scan", "android": "https://dc.lft.to/lastmile_qr_scan"}, "type": "electric_scooter", "name": "8b595d3e5a015347ca6f6b3c0a7a06aa", "is_reserved": 0, "lon": -77.03473416666667, "is_disabled": 0, "fusion_lat": 0.0, "lat": 38.930330833333336, "bike_id": "8b595d3e5a015347ca6f6b3c0a7a06aa", "fusion_lon": 0.0}, {"rental_uris": {"ios": "https://dc.lft.to/lastmile_qr_scan", "android": "https://dc.lft.to/lastmile_qr_scan"}, "type": "electric_bike", "name": "0892819a877ad5d5079ca3f6ced22b28", "is_reserved": 0, "lon": -77.04357783333333, "is_disabled": 0, "fusion_lat": 0.0, "lat": 38.897259, "bike_id": "0892819a877ad5d5079ca3f6ced22b28", "fusion_lon": 0.0}, {"rental_uris": {"ios": "https://dc.lft.to/lastmile_qr_scan", "android": "https://dc.lft.to/lastmile_qr_scan"}, "type": "electric_scooter", "name": "ff52737114053c0b6171ac29ff550b84", "is_reserved": 0, "lon": -77.02284983333334, "is_disabled": 0, "fusion_lat": 0.0, "lat": 38.9266255, "bike_id": "ff52737114053c0b6171ac29ff550b84", "fusion_lon": 0.0}, {"rental_uris": {"ios": "https://dc.lft.to/lastmile_qr_scan", "android": "https://dc.lft.to/lastmile_qr_scan"}, "type": "electric_scooter", "name": "8311aa5277e38928a6418fd23309d0e0", "is_reserved": 0, "lon": -77.0514775, "is_disabled": 0, "fusion_lat": 0.0, "lat": 38.905244333333336, "bike_id": "8311aa5277e38928a6418fd23309d0e0", "fusion_lon": 0.0}, {"rental_uris": {"ios": "https://dc.lft.to/lastmile_qr_scan", "android": "https://dc.lft.to/lastmile_qr_scan"}, "type": "electric_scooter", "name": "4b4bbdf75a1853fa5068148b7cddd086", "is_reserved": 0, "lon": -77.05320966666666, "is_disabled": 0, "fusion_lat": 0.0, "lat": 38.92348883333333, "bike_id": "4b4bbdf75a1853fa5068148b7cddd086", "fusion_lon": 0.0}, {"rental_uris": {"ios": "https://dc.lft.to/lastmile_qr_scan", "android": "https://dc.lft.to/lastmile_qr_scan"}, "type": "electric_scooter", "name": "28e495fe33d1c09f8e52f350b403d827", "is_reserved": 0, "lon": -77.0352215, "is_disabled": 0, "fusion_lat": 0.0, "lat": 38.93399866666667, "bike_id": "28e495fe33d1c09f8e52f350b403d827", "fusion_lon": 0.0}, {"rental_uris": {"ios": "https://dc.lft.to/lastmile_qr_scan", "android": "https://dc.lft.to/lastmile_qr_scan"}, "type": "electric_scooter", "name": "56193656dc6057139bb39bda23c00976", "is_reserved": 0, "lon": -77.02894166666667, "is_disabled": 0, "fusion_lat": 0.0, "lat": 38.925695833333336, "bike_id": "56193656dc6057139bb39bda23c00976", "fusion_lon": 0.0}, {"rental_uris": {"ios": "https://dc.lft.to/lastmile_qr_scan", "android": "https://dc.lft.to/lastmile_qr_scan"}, "type": "electric_scooter", "name": "7045f261635c14580101d591eb3807c0", "is_reserved": 0, "lon": -77.03443216666666, "is_disabled": 0, "fusion_lat": 0.0, "lat": 38.907341, "bike_id": "7045f261635c14580101d591eb3807c0", "fusion_lon": 0.0}, {"rental_uris": {"ios": "https://dc.lft.to/lastmile_qr_scan", "android": "https://dc.lft.to/lastmile_qr_scan"}, "type": "electric_bike", "name": "f64bb1594996f4221ee6e9e4169e2b5e", "is_reserved": 0, "lon": -76.973239, "is_disabled": 0, "fusion_lat": 0.0, "lat": 38.85785816666667, "bike_id": "f64bb1594996f4221ee6e9e4169e2b5e", "fusion_lon": 0.0}, {"rental_uris": {"ios": "https://dc.lft.to/lastmile_qr_scan", "android": "https://dc.lft.to/lastmile_qr_scan"}, "type": "electric_scooter", "name": "4ecfe21b539a07e56354c5af30c7c331", "is_reserved": 0, "lon": -77.01096833333334, "is_disabled": 0, "fusion_lat": 0.0, "lat": 38.90679816666667, "bike_id": "4ecfe21b539a07e56354c5af30c7c331", "fusion_lon": 0.0}, {"rental_uris": {"ios": "https://dc.lft.to/lastmile_qr_scan", "android": "https://dc.lft.to/lastmile_qr_scan"}, "type": "electric_scooter", "name": "4702e120635da9cb78bf602a74f93c39", "is_reserved": 0, "lon": -77.04188116666667, "is_disabled": 0, "fusion_lat": 0.0, "lat": 38.92051816666667, "bike_id": "4702e120635da9cb78bf602a74f93c39", "fusion_lon": 0.0}, {"rental_uris": {"ios": "https://dc.lft.to/lastmile_qr_scan", "android": "https://dc.lft.to/lastmile_qr_scan"}, "type": "electric_scooter", "name": "d80e8e21a6338462e0670f336d6efef1", "is_reserved": 0, "lon": -77.04473833333333, "is_disabled": 0, "fusion_lat": 0.0, "lat": 38.91537983333333, "bike_id": "d80e8e21a6338462e0670f336d6efef1", "fusion_lon": 0.0}, {"rental_uris": {"ios": "https://dc.lft.to/lastmile_qr_scan", "android": "https://dc.lft.to/lastmile_qr_scan"}, "type": "electric_scooter", "name": "067525ef4986d4292b41a921d448b33b", "is_reserved": 0, "lon": -77.017037, "is_disabled": 0, "fusion_lat": 0.0, "lat": 38.904755, "bike_id": "067525ef4986d4292b41a921d448b33b", "fusion_lon": 0.0}, {"rental_uris": {"ios": "https://dc.lft.to/lastmile_qr_scan", "android": "https://dc.lft.to/lastmile_qr_scan"}, "type": "electric_scooter", "name": "e1292bf38f490a947451675090ebfa6d", "is_reserved": 0, "lon": -77.02184066666666, "is_disabled": 0, "fusion_lat": 0.0, "lat": 38.911226, "bike_id": "e1292bf38f490a947451675090ebfa6d", "fusion_lon": 0.0}, {"rental_uris": {"ios": "https://dc.lft.to/lastmile_qr_scan", "android": "https://dc.lft.to/lastmile_qr_scan"}, "type": "electric_scooter", "name": "6c8ddf3fc530bfbac19a3da7de6121dc", "is_reserved": 0, "lon": -77.0347615, "is_disabled": 0, "fusion_lat": 0.0, "lat": 38.925351166666665, "bike_id": "6c8ddf3fc530bfbac19a3da7de6121dc", "fusion_lon": 0.0}, {"rental_uris": {"ios": "https://dc.lft.to/lastmile_qr_scan", "android": "https://dc.lft.to/lastmile_qr_scan"}, "type": "electric_scooter", "name": "9487161e6b3ebe4c692a5f5010c54935", "is_reserved": 0, "lon": -77.02650583333333, "is_disabled": 0, "fusion_lat": 0.0, "lat": 38.9191715, "bike_id": "9487161e6b3ebe4c692a5f5010c54935", "fusion_lon": 0.0}, {"rental_uris": {"ios": "https://dc.lft.to/lastmile_qr_scan", "android": "https://dc.lft.to/lastmile_qr_scan"}, "type": "electric_scooter", "name": "4bef15df5476f9c544d65c6d5c897918", "is_reserved": 0, "lon": -76.99034483333334, "is_disabled": 0, "fusion_lat": 0.0, "lat": 38.88884783333334, "bike_id": "4bef15df5476f9c544d65c6d5c897918", "fusion_lon": 0.0}, {"rental_uris": {"ios": "https://dc.lft.to/lastmile_qr_scan", "android": "https://dc.lft.to/lastmile_qr_scan"}, "type": "electric_scooter", "name": "a6226c7f2f1f7d8227890bf64ebc1ad8", "is_reserved": 0, "lon": -77.017031, "is_disabled": 0, "fusion_lat": 0.0, "lat": 38.9138365, "bike_id": "a6226c7f2f1f7d8227890bf64ebc1ad8", "fusion_lon": 0.0}, {"rental_uris": {"ios": "https://dc.lft.to/lastmile_qr_scan", "android": "https://dc.lft.to/lastmile_qr_scan"}, "type": "electric_bike", "name": "504f6b7ea4b1c4e3fe9713c6f02579f4", "is_reserved": 0, "lon": -76.91721033333333, "is_disabled": 0, "fusion_lat": 0.0, "lat": 38.88025733333333, "bike_id": "504f6b7ea4b1c4e3fe9713c6f02579f4", "fusion_lon": 0.0}, {"rental_uris": {"ios": "https://dc.lft.to/lastmile_qr_scan", "android": "https://dc.lft.to/lastmile_qr_scan"}, "type": "electric_scooter", "name": "a2354c220eb78af2a5b3c78e5dc0074e", "is_reserved": 0, "lon": -77.02695366666667, "is_disabled": 0, "fusion_lat": 0.0, "lat": 38.92594283333333, "bike_id": "a2354c220eb78af2a5b3c78e5dc0074e", "fusion_lon": 0.0}, {"rental_uris": {"ios": "https://dc.lft.to/lastmile_qr_scan", "android": "https://dc.lft.to/lastmile_qr_scan"}, "type": "electric_scooter", "name": "71eac3d9c6b8e22c039cbe9e4735b589", "is_reserved": 0, "lon": -77.03269683333333, "is_disabled": 0, "fusion_lat": 0.0, "lat": 38.928538, "bike_id": "71eac3d9c6b8e22c039cbe9e4735b589", "fusion_lon": 0.0}, {"rental_uris": {"ios": "https://dc.lft.to/lastmile_qr_scan", "android": "https://dc.lft.to/lastmile_qr_scan"}, "type": "electric_scooter", "name": "147a4f29f164c0ee2deb149d82498f66", "is_reserved": 0, "lon": -77.04130233333333, "is_disabled": 0, "fusion_lat": 0.0, "lat": 38.905673666666665, "bike_id": "147a4f29f164c0ee2deb149d82498f66", "fusion_lon": 0.0}, {"rental_uris": {"ios": "https://dc.lft.to/lastmile_qr_scan", "android": "https://dc.lft.to/lastmile_qr_scan"}, "type": "electric_scooter", "name": "774232b4992dcba37957e98f6bde8450", "is_reserved": 0, "lon": -77.0542375, "is_disabled": 0, "fusion_lat": 0.0, "lat": 38.92848816666667, "bike_id": "774232b4992dcba37957e98f6bde8450", "fusion_lon": 0.0}, {"rental_uris": {"ios": "https://dc.lft.to/lastmile_qr_scan", "android": "https://dc.lft.to/lastmile_qr_scan"}, "type": "electric_scooter", "name": "427b1178f9f5e76329c4787b8f510712", "is_reserved": 0, "lon": -77.04053966666666, "is_disabled": 0, "fusion_lat": 0.0, "lat": 38.9301635, "bike_id": "427b1178f9f5e76329c4787b8f510712", "fusion_lon": 0.0}, {"rental_uris": {"ios": "https://dc.lft.to/lastmile_qr_scan", "android": "https://dc.lft.to/lastmile_qr_scan"}, "type": "electric_scooter", "name": "b3faaf2cbfb22874f1a04fa9cc9406cc", "is_reserved": 0, "lon": -77.07167233333334, "is_disabled": 0, "fusion_lat": 0.0, "lat": 38.907776, "bike_id": "b3faaf2cbfb22874f1a04fa9cc9406cc", "fusion_lon": 0.0}, {"rental_uris": {"ios": "https://dc.lft.to/lastmile_qr_scan", "android": "https://dc.lft.to/lastmile_qr_scan"}, "type": "electric_scooter", "name": "f0e77c83b372fecc5ed43bfdcb81ff53", "is_reserved": 0, "lon": -77.0268065, "is_disabled": 0, "fusion_lat": 0.0, "lat": 38.92477066666667, "bike_id": "f0e77c83b372fecc5ed43bfdcb81ff53", "fusion_lon": 0.0}, {"rental_uris": {"ios": "https://dc.lft.to/lastmile_qr_scan", "android": "https://dc.lft.to/lastmile_qr_scan"}, "type": "electric_scooter", "name": "8881417da6bbeed423ecbec55ec219d8", "is_reserved": 0, "lon": -77.02660716666666, "is_disabled": 0, "fusion_lat": 0.0, "lat": 38.92486233333333, "bike_id": "8881417da6bbeed423ecbec55ec219d8", "fusion_lon": 0.0}, {"rental_uris": {"ios": "https://dc.lft.to/lastmile_qr_scan", "android": "https://dc.lft.to/lastmile_qr_scan"}, "type": "electric_scooter", "name": "68dee7168d8027999c82c8d32fd24bfe", "is_reserved": 0, "lon": -77.017687, "is_disabled": 0, "fusion_lat": 0.0, "lat": 38.9204775, "bike_id": "68dee7168d8027999c82c8d32fd24bfe", "fusion_lon": 0.0}, {"rental_uris": {"ios": "https://dc.lft.to/lastmile_qr_scan", "android": "https://dc.lft.to/lastmile_qr_scan"}, "type": "electric_scooter", "name": "370aec43e75121024a9fd28a29829484", "is_reserved": 0, "lon": -77.0298405, "is_disabled": 0, "fusion_lat": 0.0, "lat": 38.921984, "bike_id": "370aec43e75121024a9fd28a29829484", "fusion_lon": 0.0}, {"rental_uris": {"ios": "https://dc.lft.to/lastmile_qr_scan", "android": "https://dc.lft.to/lastmile_qr_scan"}, "type": "electric_scooter", "name": "4a816f2736b423619cff3b04210000bf", "is_reserved": 0, "lon": -77.04902633333333, "is_disabled": 0, "fusion_lat": 0.0, "lat": 38.919382666666664, "bike_id": "4a816f2736b423619cff3b04210000bf", "fusion_lon": 0.0}, {"rental_uris": {"ios": "https://dc.lft.to/lastmile_qr_scan", "android": "https://dc.lft.to/lastmile_qr_scan"}, "type": "electric_scooter", "name": "c2f9181e85c363ef40c7a7104a892c7a", "is_reserved": 0, "lon": -77.028031, "is_disabled": 0, "fusion_lat": 0.0, "lat": 38.90672033333333, "bike_id": "c2f9181e85c363ef40c7a7104a892c7a", "fusion_lon": 0.0}, {"rental_uris": {"ios": "https://dc.lft.to/lastmile_qr_scan", "android": "https://dc.lft.to/lastmile_qr_scan"}, "type": "electric_scooter", "name": "e2955b911b8b20d9b508a9f2ae298e2e", "is_reserved": 0, "lon": -77.009584, "is_disabled": 0, "fusion_lat": 0.0, "lat": 38.9213625, "bike_id": "e2955b911b8b20d9b508a9f2ae298e2e", "fusion_lon": 0.0}, {"rental_uris": {"ios": "https://dc.lft.to/lastmile_qr_scan", "android": "https://dc.lft.to/lastmile_qr_scan"}, "type": "electric_scooter", "name": "865bf31ebdeeb74b5b91b03b69756f8b", "is_reserved": 0, "lon": -77.0408115, "is_disabled": 0, "fusion_lat": 0.0, "lat": 38.9202495, "bike_id": "865bf31ebdeeb74b5b91b03b69756f8b", "fusion_lon": 0.0}, {"rental_uris": {"ios": "https://dc.lft.to/lastmile_qr_scan", "android": "https://dc.lft.to/lastmile_qr_scan"}, "type": "electric_scooter", "name": "7ec8b966b392a674660c2a7ba3c117d7", "is_reserved": 0, "lon": -77.02895233333334, "is_disabled": 0, "fusion_lat": 0.0, "lat": 38.9168875, "bike_id": "7ec8b966b392a674660c2a7ba3c117d7", "fusion_lon": 0.0}, {"rental_uris": {"ios": "https://dc.lft.to/lastmile_qr_scan", "android": "https://dc.lft.to/lastmile_qr_scan"}, "type": "electric_scooter", "name": "58602042951193d59de02900bf2c9828", "is_reserved": 0, "lon": -77.041304, "is_disabled": 0, "fusion_lat": 0.0, "lat": 38.925367333333334, "bike_id": "58602042951193d59de02900bf2c9828", "fusion_lon": 0.0}, {"rental_uris": {"ios": "https://dc.lft.to/lastmile_qr_scan", "android": "https://dc.lft.to/lastmile_qr_scan"}, "type": "electric_scooter", "name": "40606460713a8eb90ab214f599e32a9e", "is_reserved": 0, "lon": -76.99833483333333, "is_disabled": 0, "fusion_lat": 0.0, "lat": 38.907321833333334, "bike_id": "40606460713a8eb90ab214f599e32a9e", "fusion_lon": 0.0}, {"rental_uris": {"ios": "https://dc.lft.to/lastmile_qr_scan", "android": "https://dc.lft.to/lastmile_qr_scan"}, "type": "electric_scooter", "name": "007471045eee981e627e77bf25429524", "is_reserved": 0, "lon": -77.0522915, "is_disabled": 0, "fusion_lat": 0.0, "lat": 38.92465583333333, "bike_id": "007471045eee981e627e77bf25429524", "fusion_lon": 0.0}, {"rental_uris": {"ios": "https://dc.lft.to/lastmile_qr_scan", "android": "https://dc.lft.to/lastmile_qr_scan"}, "type": "electric_scooter", "name": "16bc142da20e3893b474202d1345db33", "is_reserved": 0, "lon": -77.0159425, "is_disabled": 0, "fusion_lat": 0.0, "lat": 38.899945333333335, "bike_id": "16bc142da20e3893b474202d1345db33", "fusion_lon": 0.0}, {"rental_uris": {"ios": "https://dc.lft.to/lastmile_qr_scan", "android": "https://dc.lft.to/lastmile_qr_scan"}, "type": "electric_scooter", "name": "0e09db4f0d5abb1823497029d9c5d7fc", "is_reserved": 0, "lon": -77.0348505, "is_disabled": 0, "fusion_lat": 0.0, "lat": 38.9042995, "bike_id": "0e09db4f0d5abb1823497029d9c5d7fc", "fusion_lon": 0.0}, {"rental_uris": {"ios": "https://dc.lft.to/lastmile_qr_scan", "android": "https://dc.lft.to/lastmile_qr_scan"}, "type": "electric_scooter", "name": "c8268caa3ef666cb78498d5624ab2e8e", "is_reserved": 0, "lon": -77.04915533333333, "is_disabled": 0, "fusion_lat": 0.0, "lat": 38.910412, "bike_id": "c8268caa3ef666cb78498d5624ab2e8e", "fusion_lon": 0.0}, {"rental_uris": {"ios": "https://dc.lft.to/lastmile_qr_scan", "android": "https://dc.lft.to/lastmile_qr_scan"}, "type": "electric_scooter", "name": "ec982ac4f8031140e7983a5d9df69c34", "is_reserved": 0, "lon": -77.0324965, "is_disabled": 0, "fusion_lat": 0.0, "lat": 38.90722916666667, "bike_id": "ec982ac4f8031140e7983a5d9df69c34", "fusion_lon": 0.0}, {"rental_uris": {"ios": "https://dc.lft.to/lastmile_qr_scan", "android": "https://dc.lft.to/lastmile_qr_scan"}, "type": "electric_scooter", "name": "fa1333f0a6ea4b7fc23201d6870ecc46", "is_reserved": 0, "lon": -77.041271, "is_disabled": 0, "fusion_lat": 0.0, "lat": 38.90635133333333, "bike_id": "fa1333f0a6ea4b7fc23201d6870ecc46", "fusion_lon": 0.0}, {"rental_uris": {"ios": "https://dc.lft.to/lastmile_qr_scan", "android": "https://dc.lft.to/lastmile_qr_scan"}, "type": "electric_scooter", "name": "8512b80f781cad1c9a9e31fff390b8a1", "is_reserved": 0, "lon": -77.040326, "is_disabled": 0, "fusion_lat": 0.0, "lat": 38.90576816666667, "bike_id": "8512b80f781cad1c9a9e31fff390b8a1", "fusion_lon": 0.0}, {"rental_uris": {"ios": "https://dc.lft.to/lastmile_qr_scan", "android": "https://dc.lft.to/lastmile_qr_scan"}, "type": "electric_scooter", "name": "cb18266c25ad4df8bffc13366880c637", "is_reserved": 0, "lon": -77.04503616666666, "is_disabled": 0, "fusion_lat": 0.0, "lat": 38.897291, "bike_id": "cb18266c25ad4df8bffc13366880c637", "fusion_lon": 0.0}, {"rental_uris": {"ios": "https://dc.lft.to/lastmile_qr_scan", "android": "https://dc.lft.to/lastmile_qr_scan"}, "type": "electric_scooter", "name": "68d4ef75f58462b1d3caacb9333e5ac9", "is_reserved": 0, "lon": -77.01707333333333, "is_disabled": 0, "fusion_lat": 0.0, "lat": 38.904723, "bike_id": "68d4ef75f58462b1d3caacb9333e5ac9", "fusion_lon": 0.0}, {"rental_uris": {"ios": "https://dc.lft.to/lastmile_qr_scan", "android": "https://dc.lft.to/lastmile_qr_scan"}, "type": "electric_scooter", "name": "b08447ff672280a2bf84e037ab6d444e", "is_reserved": 0, "lon": -77.0259295, "is_disabled": 0, "fusion_lat": 0.0, "lat": 38.913998, "bike_id": "b08447ff672280a2bf84e037ab6d444e", "fusion_lon": 0.0}, {"rental_uris": {"ios": "https://dc.lft.to/lastmile_qr_scan", "android": "https://dc.lft.to/lastmile_qr_scan"}, "type": "electric_scooter", "name": "c947a15d67306124d759b8bdde304ba8", "is_reserved": 0, "lon": -77.01765516666667, "is_disabled": 0, "fusion_lat": 0.0, "lat": 38.8862465, "bike_id": "c947a15d67306124d759b8bdde304ba8", "fusion_lon": 0.0}, {"rental_uris": {"ios": "https://dc.lft.to/lastmile_qr_scan", "android": "https://dc.lft.to/lastmile_qr_scan"}, "type": "electric_bike", "name": "091870b168981d02653a032f49d50c03", "is_reserved": 0, "lon": -76.98820883333333, "is_disabled": 0, "fusion_lat": 0.0, "lat": 38.84267116666667, "bike_id": "091870b168981d02653a032f49d50c03", "fusion_lon": 0.0}, {"rental_uris": {"ios": "https://dc.lft.to/lastmile_qr_scan", "android": "https://dc.lft.to/lastmile_qr_scan"}, "type": "electric_scooter", "name": "c6d88bc02e3707b0ac6dd90b89c27543", "is_reserved": 0, "lon": -77.03408733333333, "is_disabled": 0, "fusion_lat": 0.0, "lat": 38.9072505, "bike_id": "c6d88bc02e3707b0ac6dd90b89c27543", "fusion_lon": 0.0}, {"rental_uris": {"ios": "https://dc.lft.to/lastmile_qr_scan", "android": "https://dc.lft.to/lastmile_qr_scan"}, "type": "electric_scooter", "name": "0b05ce1a0e05ad27e8700928dff1fadf", "is_reserved": 0, "lon": -76.98337166666667, "is_disabled": 0, "fusion_lat": 0.0, "lat": 38.90094533333333, "bike_id": "0b05ce1a0e05ad27e8700928dff1fadf", "fusion_lon": 0.0}, {"rental_uris": {"ios": "https://dc.lft.to/lastmile_qr_scan", "android": "https://dc.lft.to/lastmile_qr_scan"}, "type": "electric_scooter", "name": "d27efcf00eb51f6c785010904cf119b3", "is_reserved": 0, "lon": -77.04648416666667, "is_disabled": 0, "fusion_lat": 0.0, "lat": 38.89731366666667, "bike_id": "d27efcf00eb51f6c785010904cf119b3", "fusion_lon": 0.0}, {"rental_uris": {"ios": "https://dc.lft.to/lastmile_qr_scan", "android": "https://dc.lft.to/lastmile_qr_scan"}, "type": "electric_scooter", "name": "0f9e7eebb7448dfd4a0b385621ce3f47", "is_reserved": 0, "lon": -77.02814166666667, "is_disabled": 0, "fusion_lat": 0.0, "lat": 38.9237175, "bike_id": "0f9e7eebb7448dfd4a0b385621ce3f47", "fusion_lon": 0.0}, {"rental_uris": {"ios": "https://dc.lft.to/lastmile_qr_scan", "android": "https://dc.lft.to/lastmile_qr_scan"}, "type": "electric_scooter", "name": "d7d223b86aa59d27c017520ed067bafe", "is_reserved": 0, "lon": -77.05508166666667, "is_disabled": 0, "fusion_lat": 0.0, "lat": 38.928322666666666, "bike_id": "d7d223b86aa59d27c017520ed067bafe", "fusion_lon": 0.0}, {"rental_uris": {"ios": "https://dc.lft.to/lastmile_qr_scan", "android": "https://dc.lft.to/lastmile_qr_scan"}, "type": "electric_bike", "name": "c3e75a0969f29acc7fbfbd1a432afef9", "is_reserved": 0, "lon": -76.99250766666667, "is_disabled": 0, "fusion_lat": 0.0, "lat": 38.960757, "bike_id": "c3e75a0969f29acc7fbfbd1a432afef9", "fusion_lon": 0.0}, {"rental_uris": {"ios": "https://dc.lft.to/lastmile_qr_scan", "android": "https://dc.lft.to/lastmile_qr_scan"}, "type": "electric_scooter", "name": "056bf14cc0834af9e53fac41317c1542", "is_reserved": 0, "lon": -76.99792533333333, "is_disabled": 0, "fusion_lat": 0.0, "lat": 38.876366166666664, "bike_id": "056bf14cc0834af9e53fac41317c1542", "fusion_lon": 0.0}, {"rental_uris": {"ios": "https://dc.lft.to/lastmile_qr_scan", "android": "https://dc.lft.to/lastmile_qr_scan"}, "type": "electric_bike", "name": "869b91818ba93a77d2f3d0b9f9c460f6", "is_reserved": 0, "lon": -77.00137083333334, "is_disabled": 0, "fusion_lat": 0.0, "lat": 38.994998333333335, "bike_id": "869b91818ba93a77d2f3d0b9f9c460f6", "fusion_lon": 0.0}, {"rental_uris": {"ios": "https://dc.lft.to/lastmile_qr_scan", "android": "https://dc.lft.to/lastmile_qr_scan"}, "type": "electric_scooter", "name": "89d1a8a47ce037e40375e1e7cb5b58b9", "is_reserved": 0, "lon": -77.06092466666666, "is_disabled": 0, "fusion_lat": 0.0, "lat": 38.939909666666665, "bike_id": "89d1a8a47ce037e40375e1e7cb5b58b9", "fusion_lon": 0.0}, {"rental_uris": {"ios": "https://dc.lft.to/lastmile_qr_scan", "android": "https://dc.lft.to/lastmile_qr_scan"}, "type": "electric_bike", "name": "a029161b1a3b0f2505bc79343d6d6edb", "is_reserved": 0, "lon": -76.95796466666667, "is_disabled": 0, "fusion_lat": 0.0, "lat": 38.980465833333334, "bike_id": "a029161b1a3b0f2505bc79343d6d6edb", "fusion_lon": 0.0}, {"rental_uris": {"ios": "https://dc.lft.to/lastmile_qr_scan", "android": "https://dc.lft.to/lastmile_qr_scan"}, "type": "electric_scooter", "name": "abe92e5fb133601aae07149bd6bd575a", "is_reserved": 0, "lon": -77.0566975, "is_disabled": 0, "fusion_lat": 0.0, "lat": 38.90608566666667, "bike_id": "abe92e5fb133601aae07149bd6bd575a", "fusion_lon": 0.0}, {"rental_uris": {"ios": "https://dc.lft.to/lastmile_qr_scan", "android": "https://dc.lft.to/lastmile_qr_scan"}, "type": "electric_bike", "name": "daf00fdf4a20514f184cc724e063fb1f", "is_reserved": 0, "lon": -77.040106, "is_disabled": 0, "fusion_lat": 0.0, "lat": 38.901353666666665, "bike_id": "daf00fdf4a20514f184cc724e063fb1f", "fusion_lon": 0.0}, {"rental_uris": {"ios": "https://dc.lft.to/lastmile_qr_scan", "android": "https://dc.lft.to/lastmile_qr_scan"}, "type": "electric_scooter", "name": "3e0f5d559ab58187e986a4c5a2ebc487", "is_reserved": 0, "lon": -77.07333133333333, "is_disabled": 0, "fusion_lat": 0.0, "lat": 38.96094816666667, "bike_id": "3e0f5d559ab58187e986a4c5a2ebc487", "fusion_lon": 0.0}, {"rental_uris": {"ios": "https://dc.lft.to/lastmile_qr_scan", "android": "https://dc.lft.to/lastmile_qr_scan"}, "type": "electric_scooter", "name": "cea11881de3c1d511b0fdbdc728165cc", "is_reserved": 0, "lon": -77.0237535, "is_disabled": 0, "fusion_lat": 0.0, "lat": 38.93512883333333, "bike_id": "cea11881de3c1d511b0fdbdc728165cc", "fusion_lon": 0.0}, {"rental_uris": {"ios": "https://dc.lft.to/lastmile_qr_scan", "android": "https://dc.lft.to/lastmile_qr_scan"}, "type": "electric_scooter", "name": "0a19f0585cc12e9b7538c379b70cb265", "is_reserved": 0, "lon": -76.9756855, "is_disabled": 0, "fusion_lat": 0.0, "lat": 38.94423483333333, "bike_id": "0a19f0585cc12e9b7538c379b70cb265", "fusion_lon": 0.0}, {"rental_uris": {"ios": "https://dc.lft.to/lastmile_qr_scan", "android": "https://dc.lft.to/lastmile_qr_scan"}, "type": "electric_scooter", "name": "76ca6f9dbb00f0cedc12e446c22dae10", "is_reserved": 0, "lon": -77.06116333333334, "is_disabled": 0, "fusion_lat": 0.0, "lat": 38.912899333333336, "bike_id": "76ca6f9dbb00f0cedc12e446c22dae10", "fusion_lon": 0.0}, {"rental_uris": {"ios": "https://dc.lft.to/lastmile_qr_scan", "android": "https://dc.lft.to/lastmile_qr_scan"}, "type": "electric_scooter", "name": "88a48ffd2a83b1146e92da83ea93a862", "is_reserved": 0, "lon": -77.04473583333333, "is_disabled": 0, "fusion_lat": 0.0, "lat": 38.9056515, "bike_id": "88a48ffd2a83b1146e92da83ea93a862", "fusion_lon": 0.0}, {"rental_uris": {"ios": "https://dc.lft.to/lastmile_qr_scan", "android": "https://dc.lft.to/lastmile_qr_scan"}, "type": "electric_scooter", "name": "4089ec8580fd7a6d00740c640391a8e3", "is_reserved": 0, "lon": -77.00253716666667, "is_disabled": 0, "fusion_lat": 0.0, "lat": 38.9025525, "bike_id": "4089ec8580fd7a6d00740c640391a8e3", "fusion_lon": 0.0}, {"rental_uris": {"ios": "https://dc.lft.to/lastmile_qr_scan", "android": "https://dc.lft.to/lastmile_qr_scan"}, "type": "electric_scooter", "name": "1832d8bca9d0e0c513abd2424ec133e0", "is_reserved": 0, "lon": -77.01238216666667, "is_disabled": 0, "fusion_lat": 0.0, "lat": 38.88106333333333, "bike_id": "1832d8bca9d0e0c513abd2424ec133e0", "fusion_lon": 0.0}, {"rental_uris": {"ios": "https://dc.lft.to/lastmile_qr_scan", "android": "https://dc.lft.to/lastmile_qr_scan"}, "type": "electric_scooter", "name": "3740003fd361266cfe2b52b9124a6064", "is_reserved": 0, "lon": -77.02968333333334, "is_disabled": 0, "fusion_lat": 0.0, "lat": 38.923254666666665, "bike_id": "3740003fd361266cfe2b52b9124a6064", "fusion_lon": 0.0}, {"rental_uris": {"ios": "https://dc.lft.to/lastmile_qr_scan", "android": "https://dc.lft.to/lastmile_qr_scan"}, "type": "electric_scooter", "name": "bfb2f753f801be62cb48460a6b03e20c", "is_reserved": 0, "lon": -77.0270595, "is_disabled": 0, "fusion_lat": 0.0, "lat": 38.918055833333334, "bike_id": "bfb2f753f801be62cb48460a6b03e20c", "fusion_lon": 0.0}, {"rental_uris": {"ios": "https://dc.lft.to/lastmile_qr_scan", "android": "https://dc.lft.to/lastmile_qr_scan"}, "type": "electric_scooter", "name": "c90d66572647acdaf3bef637ae12f437", "is_reserved": 0, "lon": -77.01744366666667, "is_disabled": 0, "fusion_lat": 0.0, "lat": 38.90252266666667, "bike_id": "c90d66572647acdaf3bef637ae12f437", "fusion_lon": 0.0}, {"rental_uris": {"ios": "https://dc.lft.to/lastmile_qr_scan", "android": "https://dc.lft.to/lastmile_qr_scan"}, "type": "electric_scooter", "name": "77889a17eebd16fc43c0c3f75d0c76fb", "is_reserved": 0, "lon": -76.98699316666666, "is_disabled": 0, "fusion_lat": 0.0, "lat": 38.8883525, "bike_id": "77889a17eebd16fc43c0c3f75d0c76fb", "fusion_lon": 0.0}, {"rental_uris": {"ios": "https://dc.lft.to/lastmile_qr_scan", "android": "https://dc.lft.to/lastmile_qr_scan"}, "type": "electric_bike", "name": "c24846b193e28c37fc0269385a05f142", "is_reserved": 0, "lon": -76.97858116666667, "is_disabled": 0, "fusion_lat": 0.0, "lat": 38.98379583333333, "bike_id": "c24846b193e28c37fc0269385a05f142", "fusion_lon": 0.0}, {"rental_uris": {"ios": "https://dc.lft.to/lastmile_qr_scan", "android": "https://dc.lft.to/lastmile_qr_scan"}, "type": "electric_bike", "name": "c5c0bcad5a3132f1208fed82052f1310", "is_reserved": 0, "lon": -77.08877466666667, "is_disabled": 0, "fusion_lat": 0.0, "lat": 38.938745, "bike_id": "c5c0bcad5a3132f1208fed82052f1310", "fusion_lon": 0.0}, {"rental_uris": {"ios": "https://dc.lft.to/lastmile_qr_scan", "android": "https://dc.lft.to/lastmile_qr_scan"}, "type": "electric_scooter", "name": "ed93dc183ef3946144f17e2c71e7d435", "is_reserved": 0, "lon": -77.01842566666667, "is_disabled": 0, "fusion_lat": 0.0, "lat": 38.949974166666664, "bike_id": "ed93dc183ef3946144f17e2c71e7d435", "fusion_lon": 0.0}, {"rental_uris": {"ios": "https://dc.lft.to/lastmile_qr_scan", "android": "https://dc.lft.to/lastmile_qr_scan"}, "type": "electric_scooter", "name": "091b67b26aa90c5080d50a5f9dc27078", "is_reserved": 0, "lon": -77.005695, "is_disabled": 0, "fusion_lat": 0.0, "lat": 38.874526, "bike_id": "091b67b26aa90c5080d50a5f9dc27078", "fusion_lon": 0.0}, {"rental_uris": {"ios": "https://dc.lft.to/lastmile_qr_scan", "android": "https://dc.lft.to/lastmile_qr_scan"}, "type": "electric_bike", "name": "822e54a69ea2f9d82712c2969e40a8f7", "is_reserved": 0, "lon": -77.09955, "is_disabled": 0, "fusion_lat": 0.0, "lat": 38.85790016666667, "bike_id": "822e54a69ea2f9d82712c2969e40a8f7", "fusion_lon": 0.0}, {"rental_uris": {"ios": "https://dc.lft.to/lastmile_qr_scan", "android": "https://dc.lft.to/lastmile_qr_scan"}, "type": "electric_scooter", "name": "48a6674e935e3a395ae7704bbd6ec237", "is_reserved": 0, "lon": -76.97942316666666, "is_disabled": 0, "fusion_lat": 0.0, "lat": 38.91601416666666, "bike_id": "48a6674e935e3a395ae7704bbd6ec237", "fusion_lon": 0.0}, {"rental_uris": {"ios": "https://dc.lft.to/lastmile_qr_scan", "android": "https://dc.lft.to/lastmile_qr_scan"}, "type": "electric_scooter", "name": "e2c92a9d59d09e1befd47b876ef87a4b", "is_reserved": 0, "lon": -77.03278033333333, "is_disabled": 0, "fusion_lat": 0.0, "lat": 38.9199405, "bike_id": "e2c92a9d59d09e1befd47b876ef87a4b", "fusion_lon": 0.0}, {"rental_uris": {"ios": "https://dc.lft.to/lastmile_qr_scan", "android": "https://dc.lft.to/lastmile_qr_scan"}, "type": "electric_scooter", "name": "aef8239bf2aa226734554750d506359f", "is_reserved": 0, "lon": -77.0165605, "is_disabled": 0, "fusion_lat": 0.0, "lat": 38.91332516666667, "bike_id": "aef8239bf2aa226734554750d506359f", "fusion_lon": 0.0}, {"rental_uris": {"ios": "https://dc.lft.to/lastmile_qr_scan", "android": "https://dc.lft.to/lastmile_qr_scan"}, "type": "electric_scooter", "name": "c390ba572012d483118222039744950e", "is_reserved": 0, "lon": -77.01341866666667, "is_disabled": 0, "fusion_lat": 0.0, "lat": 38.919123166666665, "bike_id": "c390ba572012d483118222039744950e", "fusion_lon": 0.0}, {"rental_uris": {"ios": "https://dc.lft.to/lastmile_qr_scan", "android": "https://dc.lft.to/lastmile_qr_scan"}, "type": "electric_scooter", "name": "588db0d7f0a3871b6e4005409a4dc01b", "is_reserved": 0, "lon": -77.01207183333334, "is_disabled": 0, "fusion_lat": 0.0, "lat": 38.9182265, "bike_id": "588db0d7f0a3871b6e4005409a4dc01b", "fusion_lon": 0.0}, {"rental_uris": {"ios": "https://dc.lft.to/lastmile_qr_scan", "android": "https://dc.lft.to/lastmile_qr_scan"}, "type": "electric_scooter", "name": "2565cf5293bc0508b6c58a392dc8d76f", "is_reserved": 0, "lon": -77.009429, "is_disabled": 0, "fusion_lat": 0.0, "lat": 38.91263683333333, "bike_id": "2565cf5293bc0508b6c58a392dc8d76f", "fusion_lon": 0.0}, {"rental_uris": {"ios": "https://dc.lft.to/lastmile_qr_scan", "android": "https://dc.lft.to/lastmile_qr_scan"}, "type": "electric_scooter", "name": "bc0578bfbdd1ec71fddae8d1872d903f", "is_reserved": 0, "lon": -76.973302, "is_disabled": 0, "fusion_lat": 0.0, "lat": 38.9041055, "bike_id": "bc0578bfbdd1ec71fddae8d1872d903f", "fusion_lon": 0.0}, {"rental_uris": {"ios": "https://dc.lft.to/lastmile_qr_scan", "android": "https://dc.lft.to/lastmile_qr_scan"}, "type": "electric_scooter", "name": "868e1c27e4ec0e14723bbfe2d13b7b6a", "is_reserved": 0, "lon": -77.044076, "is_disabled": 0, "fusion_lat": 0.0, "lat": 38.89597883333333, "bike_id": "868e1c27e4ec0e14723bbfe2d13b7b6a", "fusion_lon": 0.0}, {"rental_uris": {"ios": "https://dc.lft.to/lastmile_qr_scan", "android": "https://dc.lft.to/lastmile_qr_scan"}, "type": "electric_scooter", "name": "f1062036e122c7c4880730eae290d930", "is_reserved": 0, "lon": -77.02202216666667, "is_disabled": 0, "fusion_lat": 0.0, "lat": 38.951537333333334, "bike_id": "f1062036e122c7c4880730eae290d930", "fusion_lon": 0.0}, {"rental_uris": {"ios": "https://dc.lft.to/lastmile_qr_scan", "android": "https://dc.lft.to/lastmile_qr_scan"}, "type": "electric_scooter", "name": "56edca6c28c3cc1cfeb864cf0729a9d6", "is_reserved": 0, "lon": -77.03849783333334, "is_disabled": 0, "fusion_lat": 0.0, "lat": 38.916559666666664, "bike_id": "56edca6c28c3cc1cfeb864cf0729a9d6", "fusion_lon": 0.0}, {"rental_uris": {"ios": "https://dc.lft.to/lastmile_qr_scan", "android": "https://dc.lft.to/lastmile_qr_scan"}, "type": "electric_scooter", "name": "dcc3fdfc2eb4ab7a18cbb34231fb73bd", "is_reserved": 0, "lon": -77.03857366666666, "is_disabled": 0, "fusion_lat": 0.0, "lat": 38.932326833333335, "bike_id": "dcc3fdfc2eb4ab7a18cbb34231fb73bd", "fusion_lon": 0.0}, {"rental_uris": {"ios": "https://dc.lft.to/lastmile_qr_scan", "android": "https://dc.lft.to/lastmile_qr_scan"}, "type": "electric_scooter", "name": "f6bf64b8b59d95d7f7e777cedfbd22f9", "is_reserved": 0, "lon": -77.02109483333334, "is_disabled": 0, "fusion_lat": 0.0, "lat": 38.90939183333333, "bike_id": "f6bf64b8b59d95d7f7e777cedfbd22f9", "fusion_lon": 0.0}, {"rental_uris": {"ios": "https://dc.lft.to/lastmile_qr_scan", "android": "https://dc.lft.to/lastmile_qr_scan"}, "type": "electric_scooter", "name": "dbbe30ce6aba222a818966c55261686b", "is_reserved": 0, "lon": -77.02425783333334, "is_disabled": 0, "fusion_lat": 0.0, "lat": 38.91555616666667, "bike_id": "dbbe30ce6aba222a818966c55261686b", "fusion_lon": 0.0}, {"rental_uris": {"ios": "https://dc.lft.to/lastmile_qr_scan", "android": "https://dc.lft.to/lastmile_qr_scan"}, "type": "electric_scooter", "name": "77a4506b57de7bf5b7caf61e7c84ffe1", "is_reserved": 0, "lon": -76.9851095, "is_disabled": 0, "fusion_lat": 0.0, "lat": 38.900373, "bike_id": "77a4506b57de7bf5b7caf61e7c84ffe1", "fusion_lon": 0.0}, {"rental_uris": {"ios": "https://dc.lft.to/lastmile_qr_scan", "android": "https://dc.lft.to/lastmile_qr_scan"}, "type": "electric_scooter", "name": "1ddd138c3ea86c0a09fb585bb0815e30", "is_reserved": 0, "lon": -77.0863485, "is_disabled": 0, "fusion_lat": 0.0, "lat": 38.938272166666664, "bike_id": "1ddd138c3ea86c0a09fb585bb0815e30", "fusion_lon": 0.0}, {"rental_uris": {"ios": "https://dc.lft.to/lastmile_qr_scan", "android": "https://dc.lft.to/lastmile_qr_scan"}, "type": "electric_scooter", "name": "ce20a2661b60e8f99189e107a616d250", "is_reserved": 0, "lon": -77.0146655, "is_disabled": 0, "fusion_lat": 0.0, "lat": 38.87940716666667, "bike_id": "ce20a2661b60e8f99189e107a616d250", "fusion_lon": 0.0}, {"rental_uris": {"ios": "https://dc.lft.to/lastmile_qr_scan", "android": "https://dc.lft.to/lastmile_qr_scan"}, "type": "electric_bike", "name": "912716a12f67a5c88af5ba7c565986a8", "is_reserved": 0, "lon": -77.09451533333333, "is_disabled": 0, "fusion_lat": 0.0, "lat": 38.80756733333333, "bike_id": "912716a12f67a5c88af5ba7c565986a8", "fusion_lon": 0.0}, {"rental_uris": {"ios": "https://dc.lft.to/lastmile_qr_scan", "android": "https://dc.lft.to/lastmile_qr_scan"}, "type": "electric_bike", "name": "9be0776b40164e5043e23613ff6f95c9", "is_reserved": 0, "lon": -77.0856495, "is_disabled": 0, "fusion_lat": 0.0, "lat": 38.8742045, "bike_id": "9be0776b40164e5043e23613ff6f95c9", "fusion_lon": 0.0}, {"rental_uris": {"ios": "https://dc.lft.to/lastmile_qr_scan", "android": "https://dc.lft.to/lastmile_qr_scan"}, "type": "electric_scooter", "name": "484a903da3204f2a702ecfba44d4eb42", "is_reserved": 0, "lon": -76.948685, "is_disabled": 0, "fusion_lat": 0.0, "lat": 38.8948375, "bike_id": "484a903da3204f2a702ecfba44d4eb42", "fusion_lon": 0.0}, {"rental_uris": {"ios": "https://dc.lft.to/lastmile_qr_scan", "android": "https://dc.lft.to/lastmile_qr_scan"}, "type": "electric_scooter", "name": "879c477f99c63a74c72c894968c8d053", "is_reserved": 0, "lon": -77.04229683333334, "is_disabled": 0, "fusion_lat": 0.0, "lat": 38.9228645, "bike_id": "879c477f99c63a74c72c894968c8d053", "fusion_lon": 0.0}, {"rental_uris": {"ios": "https://dc.lft.to/lastmile_qr_scan", "android": "https://dc.lft.to/lastmile_qr_scan"}, "type": "electric_scooter", "name": "7591d75fb2408b174c8d56ea48341b2d", "is_reserved": 0, "lon": -77.04226966666667, "is_disabled": 0, "fusion_lat": 0.0, "lat": 38.921663, "bike_id": "7591d75fb2408b174c8d56ea48341b2d", "fusion_lon": 0.0}, {"rental_uris": {"ios": "https://dc.lft.to/lastmile_qr_scan", "android": "https://dc.lft.to/lastmile_qr_scan"}, "type": "electric_scooter", "name": "8a2ba97aacbe7098adcc2d825e586ccb", "is_reserved": 0, "lon": -77.02585316666666, "is_disabled": 0, "fusion_lat": 0.0, "lat": 38.901155, "bike_id": "8a2ba97aacbe7098adcc2d825e586ccb", "fusion_lon": 0.0}, {"rental_uris": {"ios": "https://dc.lft.to/lastmile_qr_scan", "android": "https://dc.lft.to/lastmile_qr_scan"}, "type": "electric_scooter", "name": "e3f9e249b68f9da560566cdc579533f6", "is_reserved": 0, "lon": -77.01838316666667, "is_disabled": 0, "fusion_lat": 0.0, "lat": 38.92250683333333, "bike_id": "e3f9e249b68f9da560566cdc579533f6", "fusion_lon": 0.0}, {"rental_uris": {"ios": "https://dc.lft.to/lastmile_qr_scan", "android": "https://dc.lft.to/lastmile_qr_scan"}, "type": "electric_scooter", "name": "f040ea73fe21432abf509f21b9fbfd0d", "is_reserved": 0, "lon": -77.03259816666667, "is_disabled": 0, "fusion_lat": 0.0, "lat": 38.925502333333334, "bike_id": "f040ea73fe21432abf509f21b9fbfd0d", "fusion_lon": 0.0}, {"rental_uris": {"ios": "https://dc.lft.to/lastmile_qr_scan", "android": "https://dc.lft.to/lastmile_qr_scan"}, "type": "electric_scooter", "name": "d123891c3b777fa04389fd8015d3878e", "is_reserved": 0, "lon": -77.06029016666666, "is_disabled": 0, "fusion_lat": 0.0, "lat": 38.93881916666667, "bike_id": "d123891c3b777fa04389fd8015d3878e", "fusion_lon": 0.0}, {"rental_uris": {"ios": "https://dc.lft.to/lastmile_qr_scan", "android": "https://dc.lft.to/lastmile_qr_scan"}, "type": "electric_bike", "name": "fe399ba664a6d3278bb54a69d4e5923f", "is_reserved": 0, "lon": -77.01912933333334, "is_disabled": 0, "fusion_lat": 0.0, "lat": 38.97670933333333, "bike_id": "fe399ba664a6d3278bb54a69d4e5923f", "fusion_lon": 0.0}, {"rental_uris": {"ios": "https://dc.lft.to/lastmile_qr_scan", "android": "https://dc.lft.to/lastmile_qr_scan"}, "type": "electric_scooter", "name": "df22b084ca0392bdd0c2a3f08769ba3f", "is_reserved": 0, "lon": -76.97716066666666, "is_disabled": 0, "fusion_lat": 0.0, "lat": 38.900575, "bike_id": "df22b084ca0392bdd0c2a3f08769ba3f", "fusion_lon": 0.0}, {"rental_uris": {"ios": "https://dc.lft.to/lastmile_qr_scan", "android": "https://dc.lft.to/lastmile_qr_scan"}, "type": "electric_scooter", "name": "68170c576e9f786ec9346fcbe54f6f41", "is_reserved": 0, "lon": -76.985369, "is_disabled": 0, "fusion_lat": 0.0, "lat": 38.91452, "bike_id": "68170c576e9f786ec9346fcbe54f6f41", "fusion_lon": 0.0}, {"rental_uris": {"ios": "https://dc.lft.to/lastmile_qr_scan", "android": "https://dc.lft.to/lastmile_qr_scan"}, "type": "electric_scooter", "name": "ab770c6ba9d284590f32e38c1d599d0f", "is_reserved": 0, "lon": -77.006041, "is_disabled": 0, "fusion_lat": 0.0, "lat": 38.905913, "bike_id": "ab770c6ba9d284590f32e38c1d599d0f", "fusion_lon": 0.0}, {"rental_uris": {"ios": "https://dc.lft.to/lastmile_qr_scan", "android": "https://dc.lft.to/lastmile_qr_scan"}, "type": "electric_scooter", "name": "d9da90f7007cfa4c27fcbabd718376c7", "is_reserved": 0, "lon": -77.0609055, "is_disabled": 0, "fusion_lat": 0.0, "lat": 38.93990816666667, "bike_id": "d9da90f7007cfa4c27fcbabd718376c7", "fusion_lon": 0.0}, {"rental_uris": {"ios": "https://dc.lft.to/lastmile_qr_scan", "android": "https://dc.lft.to/lastmile_qr_scan"}, "type": "electric_scooter", "name": "28bf626924b9116e329ca097e8c7719b", "is_reserved": 0, "lon": -77.02101916666666, "is_disabled": 0, "fusion_lat": 0.0, "lat": 38.966716166666664, "bike_id": "28bf626924b9116e329ca097e8c7719b", "fusion_lon": 0.0}, {"rental_uris": {"ios": "https://dc.lft.to/lastmile_qr_scan", "android": "https://dc.lft.to/lastmile_qr_scan"}, "type": "electric_bike", "name": "ee8cfaa6c48aac04f03abd674addb470", "is_reserved": 0, "lon": -77.07657916666666, "is_disabled": 0, "fusion_lat": 0.0, "lat": 38.80981533333333, "bike_id": "ee8cfaa6c48aac04f03abd674addb470", "fusion_lon": 0.0}, {"rental_uris": {"ios": "https://dc.lft.to/lastmile_qr_scan", "android": "https://dc.lft.to/lastmile_qr_scan"}, "type": "electric_scooter", "name": "bdfb0f1c7595e4e199842e53469b6e2a", "is_reserved": 0, "lon": -77.046645, "is_disabled": 0, "fusion_lat": 0.0, "lat": 38.91249833333333, "bike_id": "bdfb0f1c7595e4e199842e53469b6e2a", "fusion_lon": 0.0}, {"rental_uris": {"ios": "https://dc.lft.to/lastmile_qr_scan", "android": "https://dc.lft.to/lastmile_qr_scan"}, "type": "electric_bike", "name": "e0f26df967dfda6a31653dcfc56b6c0b", "is_reserved": 0, "lon": -77.02069433333334, "is_disabled": 0, "fusion_lat": 0.0, "lat": 38.96440533333333, "bike_id": "e0f26df967dfda6a31653dcfc56b6c0b", "fusion_lon": 0.0}, {"rental_uris": {"ios": "https://dc.lft.to/lastmile_qr_scan", "android": "https://dc.lft.to/lastmile_qr_scan"}, "type": "electric_scooter", "name": "7f4ec95143a672397a510431bb17b216", "is_reserved": 0, "lon": -76.9996105, "is_disabled": 0, "fusion_lat": 0.0, "lat": 38.90852866666667, "bike_id": "7f4ec95143a672397a510431bb17b216", "fusion_lon": 0.0}, {"rental_uris": {"ios": "https://dc.lft.to/lastmile_qr_scan", "android": "https://dc.lft.to/lastmile_qr_scan"}, "type": "electric_scooter", "name": "580346d9a619c5d8945e57004e2aa377", "is_reserved": 0, "lon": -76.99029833333333, "is_disabled": 0, "fusion_lat": 0.0, "lat": 38.88880016666667, "bike_id": "580346d9a619c5d8945e57004e2aa377", "fusion_lon": 0.0}, {"rental_uris": {"ios": "https://dc.lft.to/lastmile_qr_scan", "android": "https://dc.lft.to/lastmile_qr_scan"}, "type": "electric_scooter", "name": "147372b8c2196b895b865889c4d1e63a", "is_reserved": 0, "lon": -77.00204666666667, "is_disabled": 0, "fusion_lat": 0.0, "lat": 38.889188, "bike_id": "147372b8c2196b895b865889c4d1e63a", "fusion_lon": 0.0}, {"rental_uris": {"ios": "https://dc.lft.to/lastmile_qr_scan", "android": "https://dc.lft.to/lastmile_qr_scan"}, "type": "electric_scooter", "name": "e3ae19d4ec3705e3ea721eecdd5650a7", "is_reserved": 0, "lon": -76.998657, "is_disabled": 0, "fusion_lat": 0.0, "lat": 38.900363166666665, "bike_id": "e3ae19d4ec3705e3ea721eecdd5650a7", "fusion_lon": 0.0}, {"rental_uris": {"ios": "https://dc.lft.to/lastmile_qr_scan", "android": "https://dc.lft.to/lastmile_qr_scan"}, "type": "electric_scooter", "name": "b7faa696dcc4f8d7fbd3fe6f8e003f3d", "is_reserved": 0, "lon": -77.0387125, "is_disabled": 0, "fusion_lat": 0.0, "lat": 38.921531333333334, "bike_id": "b7faa696dcc4f8d7fbd3fe6f8e003f3d", "fusion_lon": 0.0}, {"rental_uris": {"ios": "https://dc.lft.to/lastmile_qr_scan", "android": "https://dc.lft.to/lastmile_qr_scan"}, "type": "electric_bike", "name": "cf790f717991706ab2ffee3e763d6f3a", "is_reserved": 0, "lon": -76.9999795, "is_disabled": 0, "fusion_lat": 0.0, "lat": 38.923883000000004, "bike_id": "cf790f717991706ab2ffee3e763d6f3a", "fusion_lon": 0.0}, {"rental_uris": {"ios": "https://dc.lft.to/lastmile_qr_scan", "android": "https://dc.lft.to/lastmile_qr_scan"}, "type": "electric_scooter", "name": "a363c1880169ce4eb67eb024ef5320d2", "is_reserved": 0, "lon": -77.02833533333333, "is_disabled": 0, "fusion_lat": 0.0, "lat": 38.90253966666667, "bike_id": "a363c1880169ce4eb67eb024ef5320d2", "fusion_lon": 0.0}, {"rental_uris": {"ios": "https://dc.lft.to/lastmile_qr_scan", "android": "https://dc.lft.to/lastmile_qr_scan"}, "type": "electric_scooter", "name": "41a9d75d435de7d2d8b7408cead35f1f", "is_reserved": 0, "lon": -77.02353233333334, "is_disabled": 0, "fusion_lat": 0.0, "lat": 38.945247333333334, "bike_id": "41a9d75d435de7d2d8b7408cead35f1f", "fusion_lon": 0.0}, {"rental_uris": {"ios": "https://dc.lft.to/lastmile_qr_scan", "android": "https://dc.lft.to/lastmile_qr_scan"}, "type": "electric_scooter", "name": "dea800155829a14faa14850a0d1f7c83", "is_reserved": 0, "lon": -76.98575233333334, "is_disabled": 0, "fusion_lat": 0.0, "lat": 38.854508333333335, "bike_id": "dea800155829a14faa14850a0d1f7c83", "fusion_lon": 0.0}, {"rental_uris": {"ios": "https://dc.lft.to/lastmile_qr_scan", "android": "https://dc.lft.to/lastmile_qr_scan"}, "type": "electric_scooter", "name": "ce8a99017963423bf4dc5311a1aa737e", "is_reserved": 0, "lon": -77.04120066666667, "is_disabled": 0, "fusion_lat": 0.0, "lat": 38.930991, "bike_id": "ce8a99017963423bf4dc5311a1aa737e", "fusion_lon": 0.0}, {"rental_uris": {"ios": "https://dc.lft.to/lastmile_qr_scan", "android": "https://dc.lft.to/lastmile_qr_scan"}, "type": "electric_scooter", "name": "fb6cc634be28ffae51beec71caa0f71d", "is_reserved": 0, "lon": -77.02405766666666, "is_disabled": 0, "fusion_lat": 0.0, "lat": 38.905716166666664, "bike_id": "fb6cc634be28ffae51beec71caa0f71d", "fusion_lon": 0.0}, {"rental_uris": {"ios": "https://dc.lft.to/lastmile_qr_scan", "android": "https://dc.lft.to/lastmile_qr_scan"}, "type": "electric_scooter", "name": "88ceaaad6265773741b9a6a57fe6c920", "is_reserved": 0, "lon": -77.03021483333333, "is_disabled": 0, "fusion_lat": 0.0, "lat": 38.9224685, "bike_id": "88ceaaad6265773741b9a6a57fe6c920", "fusion_lon": 0.0}, {"rental_uris": {"ios": "https://dc.lft.to/lastmile_qr_scan", "android": "https://dc.lft.to/lastmile_qr_scan"}, "type": "electric_bike", "name": "5272da667ab0e2543e7ac0606e3190a2", "is_reserved": 0, "lon": -77.01226816666667, "is_disabled": 0, "fusion_lat": 0.0, "lat": 38.95086966666667, "bike_id": "5272da667ab0e2543e7ac0606e3190a2", "fusion_lon": 0.0}, {"rental_uris": {"ios": "https://dc.lft.to/lastmile_qr_scan", "android": "https://dc.lft.to/lastmile_qr_scan"}, "type": "electric_scooter", "name": "e0dbc151512fd2a685365da703194abf", "is_reserved": 0, "lon": -77.027156, "is_disabled": 0, "fusion_lat": 0.0, "lat": 38.905976833333334, "bike_id": "e0dbc151512fd2a685365da703194abf", "fusion_lon": 0.0}, {"rental_uris": {"ios": "https://dc.lft.to/lastmile_qr_scan", "android": "https://dc.lft.to/lastmile_qr_scan"}, "type": "electric_scooter", "name": "56af6336e2d3588be337b4b7c912c4d2", "is_reserved": 0, "lon": -76.97133783333334, "is_disabled": 0, "fusion_lat": 0.0, "lat": 38.878643333333336, "bike_id": "56af6336e2d3588be337b4b7c912c4d2", "fusion_lon": 0.0}, {"rental_uris": {"ios": "https://dc.lft.to/lastmile_qr_scan", "android": "https://dc.lft.to/lastmile_qr_scan"}, "type": "electric_scooter", "name": "e7c5b09b35532e86d3e1f84041832add", "is_reserved": 0, "lon": -77.07286666666667, "is_disabled": 0, "fusion_lat": 0.0, "lat": 38.914499666666664, "bike_id": "e7c5b09b35532e86d3e1f84041832add", "fusion_lon": 0.0}, {"rental_uris": {"ios": "https://dc.lft.to/lastmile_qr_scan", "android": "https://dc.lft.to/lastmile_qr_scan"}, "type": "electric_scooter", "name": "9aac0a61a86fc5c74e5cf14084d58760", "is_reserved": 0, "lon": -77.02213933333333, "is_disabled": 0, "fusion_lat": 0.0, "lat": 38.92471416666667, "bike_id": "9aac0a61a86fc5c74e5cf14084d58760", "fusion_lon": 0.0}, {"rental_uris": {"ios": "https://dc.lft.to/lastmile_qr_scan", "android": "https://dc.lft.to/lastmile_qr_scan"}, "type": "electric_scooter", "name": "71173d5a48adc488218cc20027e6fc74", "is_reserved": 0, "lon": -77.03652066666666, "is_disabled": 0, "fusion_lat": 0.0, "lat": 38.95462283333333, "bike_id": "71173d5a48adc488218cc20027e6fc74", "fusion_lon": 0.0}, {"rental_uris": {"ios": "https://dc.lft.to/lastmile_qr_scan", "android": "https://dc.lft.to/lastmile_qr_scan"}, "type": "electric_scooter", "name": "e3da85ea379f8edea1c2711aadb8fd33", "is_reserved": 0, "lon": -77.04185783333334, "is_disabled": 0, "fusion_lat": 0.0, "lat": 38.922025833333336, "bike_id": "e3da85ea379f8edea1c2711aadb8fd33", "fusion_lon": 0.0}, {"rental_uris": {"ios": "https://dc.lft.to/lastmile_qr_scan", "android": "https://dc.lft.to/lastmile_qr_scan"}, "type": "electric_scooter", "name": "6e5e98b23ce71c1e98bbbb8c95c6ded4", "is_reserved": 0, "lon": -77.0709345, "is_disabled": 0, "fusion_lat": 0.0, "lat": 38.95328216666667, "bike_id": "6e5e98b23ce71c1e98bbbb8c95c6ded4", "fusion_lon": 0.0}, {"rental_uris": {"ios": "https://dc.lft.to/lastmile_qr_scan", "android": "https://dc.lft.to/lastmile_qr_scan"}, "type": "electric_scooter", "name": "66fb84e889664625f91243df5c240baa", "is_reserved": 0, "lon": -77.01993966666667, "is_disabled": 0, "fusion_lat": 0.0, "lat": 38.876085833333335, "bike_id": "66fb84e889664625f91243df5c240baa", "fusion_lon": 0.0}, {"rental_uris": {"ios": "https://dc.lft.to/lastmile_qr_scan", "android": "https://dc.lft.to/lastmile_qr_scan"}, "type": "electric_scooter", "name": "96edbd47c04c9dfdb9bdafe3760467c9", "is_reserved": 0, "lon": -76.99558866666666, "is_disabled": 0, "fusion_lat": 0.0, "lat": 38.9268575, "bike_id": "96edbd47c04c9dfdb9bdafe3760467c9", "fusion_lon": 0.0}, {"rental_uris": {"ios": "https://dc.lft.to/lastmile_qr_scan", "android": "https://dc.lft.to/lastmile_qr_scan"}, "type": "electric_scooter", "name": "f49c1a690a8dccd7f5d02a5b5827626e", "is_reserved": 0, "lon": -77.043402, "is_disabled": 0, "fusion_lat": 0.0, "lat": 38.92239883333333, "bike_id": "f49c1a690a8dccd7f5d02a5b5827626e", "fusion_lon": 0.0}, {"rental_uris": {"ios": "https://dc.lft.to/lastmile_qr_scan", "android": "https://dc.lft.to/lastmile_qr_scan"}, "type": "electric_scooter", "name": "371541ee25366ff6f7b486e5b87edb49", "is_reserved": 0, "lon": -76.98735766666667, "is_disabled": 0, "fusion_lat": 0.0, "lat": 38.842225666666664, "bike_id": "371541ee25366ff6f7b486e5b87edb49", "fusion_lon": 0.0}, {"rental_uris": {"ios": "https://dc.lft.to/lastmile_qr_scan", "android": "https://dc.lft.to/lastmile_qr_scan"}, "type": "electric_scooter", "name": "d0f36b36096657c704daa0de55695e30", "is_reserved": 0, "lon": -77.0552075, "is_disabled": 0, "fusion_lat": 0.0, "lat": 38.90767783333333, "bike_id": "d0f36b36096657c704daa0de55695e30", "fusion_lon": 0.0}, {"rental_uris": {"ios": "https://dc.lft.to/lastmile_qr_scan", "android": "https://dc.lft.to/lastmile_qr_scan"}, "type": "electric_scooter", "name": "aa53b8f3a93b6700fd220ef314bc73e2", "is_reserved": 0, "lon": -76.929236, "is_disabled": 0, "fusion_lat": 0.0, "lat": 38.88654866666667, "bike_id": "aa53b8f3a93b6700fd220ef314bc73e2", "fusion_lon": 0.0}, {"rental_uris": {"ios": "https://dc.lft.to/lastmile_qr_scan", "android": "https://dc.lft.to/lastmile_qr_scan"}, "type": "electric_scooter", "name": "b338fe2aaca73457e79d02aa092e64d3", "is_reserved": 0, "lon": -77.01209983333334, "is_disabled": 0, "fusion_lat": 0.0, "lat": 38.92122166666667, "bike_id": "b338fe2aaca73457e79d02aa092e64d3", "fusion_lon": 0.0}, {"rental_uris": {"ios": "https://dc.lft.to/lastmile_qr_scan", "android": "https://dc.lft.to/lastmile_qr_scan"}, "type": "electric_scooter", "name": "d231cb388a0e16c7f63787914279b6ba", "is_reserved": 0, "lon": -77.02081433333333, "is_disabled": 0, "fusion_lat": 0.0, "lat": 38.92695, "bike_id": "d231cb388a0e16c7f63787914279b6ba", "fusion_lon": 0.0}, {"rental_uris": {"ios": "https://dc.lft.to/lastmile_qr_scan", "android": "https://dc.lft.to/lastmile_qr_scan"}, "type": "electric_scooter", "name": "b1ef9dbc68c4402c6a1ad6d8b3c15892", "is_reserved": 0, "lon": -77.0394375, "is_disabled": 0, "fusion_lat": 0.0, "lat": 38.90377566666667, "bike_id": "b1ef9dbc68c4402c6a1ad6d8b3c15892", "fusion_lon": 0.0}, {"rental_uris": {"ios": "https://dc.lft.to/lastmile_qr_scan", "android": "https://dc.lft.to/lastmile_qr_scan"}, "type": "electric_scooter", "name": "e0a635a6cf19ecb71e19b5c7c0992c2a", "is_reserved": 0, "lon": -77.05786466666666, "is_disabled": 0, "fusion_lat": 0.0, "lat": 38.900971166666665, "bike_id": "e0a635a6cf19ecb71e19b5c7c0992c2a", "fusion_lon": 0.0}, {"rental_uris": {"ios": "https://dc.lft.to/lastmile_qr_scan", "android": "https://dc.lft.to/lastmile_qr_scan"}, "type": "electric_scooter", "name": "318b8eb9a255426e74ef43af5be6464d", "is_reserved": 0, "lon": -77.0209025, "is_disabled": 0, "fusion_lat": 0.0, "lat": 38.881866, "bike_id": "318b8eb9a255426e74ef43af5be6464d", "fusion_lon": 0.0}, {"rental_uris": {"ios": "https://dc.lft.to/lastmile_qr_scan", "android": "https://dc.lft.to/lastmile_qr_scan"}, "type": "electric_scooter", "name": "7eb01569b4abf21a8914358829c16af3", "is_reserved": 0, "lon": -77.0033095, "is_disabled": 0, "fusion_lat": 0.0, "lat": 38.9134035, "bike_id": "7eb01569b4abf21a8914358829c16af3", "fusion_lon": 0.0}, {"rental_uris": {"ios": "https://dc.lft.to/lastmile_qr_scan", "android": "https://dc.lft.to/lastmile_qr_scan"}, "type": "electric_scooter", "name": "276dc587a557725cb9d11a335f802f26", "is_reserved": 0, "lon": -77.00918933333334, "is_disabled": 0, "fusion_lat": 0.0, "lat": 38.88180666666667, "bike_id": "276dc587a557725cb9d11a335f802f26", "fusion_lon": 0.0}, {"rental_uris": {"ios": "https://dc.lft.to/lastmile_qr_scan", "android": "https://dc.lft.to/lastmile_qr_scan"}, "type": "electric_scooter", "name": "4573452fb12571cf8768065351acda47", "is_reserved": 0, "lon": -77.022535, "is_disabled": 0, "fusion_lat": 0.0, "lat": 38.928239833333336, "bike_id": "4573452fb12571cf8768065351acda47", "fusion_lon": 0.0}, {"rental_uris": {"ios": "https://dc.lft.to/lastmile_qr_scan", "android": "https://dc.lft.to/lastmile_qr_scan"}, "type": "electric_scooter", "name": "e2f832bd4360f31e8fac1c14df89f70a", "is_reserved": 0, "lon": -77.03271533333333, "is_disabled": 0, "fusion_lat": 0.0, "lat": 38.92841833333333, "bike_id": "e2f832bd4360f31e8fac1c14df89f70a", "fusion_lon": 0.0}, {"rental_uris": {"ios": "https://dc.lft.to/lastmile_qr_scan", "android": "https://dc.lft.to/lastmile_qr_scan"}, "type": "electric_scooter", "name": "f150607b5b30fa72f5402e8b21ce72e5", "is_reserved": 0, "lon": -76.9963145, "is_disabled": 0, "fusion_lat": 0.0, "lat": 38.877356666666664, "bike_id": "f150607b5b30fa72f5402e8b21ce72e5", "fusion_lon": 0.0}, {"rental_uris": {"ios": "https://dc.lft.to/lastmile_qr_scan", "android": "https://dc.lft.to/lastmile_qr_scan"}, "type": "electric_scooter", "name": "11c95cd0e993aa3f69a192f5e628829d", "is_reserved": 0, "lon": -77.0211195, "is_disabled": 0, "fusion_lat": 0.0, "lat": 38.90603133333333, "bike_id": "11c95cd0e993aa3f69a192f5e628829d", "fusion_lon": 0.0}, {"rental_uris": {"ios": "https://dc.lft.to/lastmile_qr_scan", "android": "https://dc.lft.to/lastmile_qr_scan"}, "type": "electric_scooter", "name": "659da3e7ef779868de89b193873ba893", "is_reserved": 0, "lon": -77.02123633333333, "is_disabled": 0, "fusion_lat": 0.0, "lat": 38.92406916666667, "bike_id": "659da3e7ef779868de89b193873ba893", "fusion_lon": 0.0}, {"rental_uris": {"ios": "https://dc.lft.to/lastmile_qr_scan", "android": "https://dc.lft.to/lastmile_qr_scan"}, "type": "electric_scooter", "name": "4e80b70891ff99889feabd2b824a76f0", "is_reserved": 0, "lon": -77.02683283333333, "is_disabled": 0, "fusion_lat": 0.0, "lat": 38.9257195, "bike_id": "4e80b70891ff99889feabd2b824a76f0", "fusion_lon": 0.0}, {"rental_uris": {"ios": "https://dc.lft.to/lastmile_qr_scan", "android": "https://dc.lft.to/lastmile_qr_scan"}, "type": "electric_scooter", "name": "adcf104bda83fad8bd130ec2e7b58b69", "is_reserved": 0, "lon": -77.06126933333333, "is_disabled": 0, "fusion_lat": 0.0, "lat": 38.904372, "bike_id": "adcf104bda83fad8bd130ec2e7b58b69", "fusion_lon": 0.0}, {"rental_uris": {"ios": "https://dc.lft.to/lastmile_qr_scan", "android": "https://dc.lft.to/lastmile_qr_scan"}, "type": "electric_scooter", "name": "70f0787ed2eccfc5c18e57d1fb1a6184", "is_reserved": 0, "lon": -77.0241915, "is_disabled": 0, "fusion_lat": 0.0, "lat": 38.93556566666667, "bike_id": "70f0787ed2eccfc5c18e57d1fb1a6184", "fusion_lon": 0.0}, {"rental_uris": {"ios": "https://dc.lft.to/lastmile_qr_scan", "android": "https://dc.lft.to/lastmile_qr_scan"}, "type": "electric_scooter", "name": "720511d6e651343db3359ff365735f7d", "is_reserved": 0, "lon": -76.99032333333334, "is_disabled": 0, "fusion_lat": 0.0, "lat": 38.89854033333334, "bike_id": "720511d6e651343db3359ff365735f7d", "fusion_lon": 0.0}, {"rental_uris": {"ios": "https://dc.lft.to/lastmile_qr_scan", "android": "https://dc.lft.to/lastmile_qr_scan"}, "type": "electric_scooter", "name": "45c0bcd36bffd51013e0131f22b1b1fe", "is_reserved": 0, "lon": -77.032452, "is_disabled": 0, "fusion_lat": 0.0, "lat": 38.90488916666666, "bike_id": "45c0bcd36bffd51013e0131f22b1b1fe", "fusion_lon": 0.0}, {"rental_uris": {"ios": "https://dc.lft.to/lastmile_qr_scan", "android": "https://dc.lft.to/lastmile_qr_scan"}, "type": "electric_scooter", "name": "83830fe009dece7bc94a36023e97de3d", "is_reserved": 0, "lon": -76.98373766666667, "is_disabled": 0, "fusion_lat": 0.0, "lat": 38.86034816666667, "bike_id": "83830fe009dece7bc94a36023e97de3d", "fusion_lon": 0.0}, {"rental_uris": {"ios": "https://dc.lft.to/lastmile_qr_scan", "android": "https://dc.lft.to/lastmile_qr_scan"}, "type": "electric_scooter", "name": "90a62c2ac4773fac1de63c632521107d", "is_reserved": 0, "lon": -77.03222283333334, "is_disabled": 0, "fusion_lat": 0.0, "lat": 38.8921565, "bike_id": "90a62c2ac4773fac1de63c632521107d", "fusion_lon": 0.0}, {"rental_uris": {"ios": "https://dc.lft.to/lastmile_qr_scan", "android": "https://dc.lft.to/lastmile_qr_scan"}, "type": "electric_scooter", "name": "6030e131544d0bab71ff0fa90ed6ac09", "is_reserved": 0, "lon": -77.02153166666666, "is_disabled": 0, "fusion_lat": 0.0, "lat": 38.887428166666666, "bike_id": "6030e131544d0bab71ff0fa90ed6ac09", "fusion_lon": 0.0}, {"rental_uris": {"ios": "https://dc.lft.to/lastmile_qr_scan", "android": "https://dc.lft.to/lastmile_qr_scan"}, "type": "electric_scooter", "name": "f8d9dd1525cf38d356bcf320b02fd19a", "is_reserved": 0, "lon": -77.011117, "is_disabled": 0, "fusion_lat": 0.0, "lat": 38.900113833333336, "bike_id": "f8d9dd1525cf38d356bcf320b02fd19a", "fusion_lon": 0.0}, {"rental_uris": {"ios": "https://dc.lft.to/lastmile_qr_scan", "android": "https://dc.lft.to/lastmile_qr_scan"}, "type": "electric_bike", "name": "c4b9ad0c5991404d4f615f6a196b2f61", "is_reserved": 0, "lon": -77.089821, "is_disabled": 0, "fusion_lat": 0.0, "lat": 38.91176133333333, "bike_id": "c4b9ad0c5991404d4f615f6a196b2f61", "fusion_lon": 0.0}, {"rental_uris": {"ios": "https://dc.lft.to/lastmile_qr_scan", "android": "https://dc.lft.to/lastmile_qr_scan"}, "type": "electric_scooter", "name": "f81654e2c32c06e577ec36d6f2397cdd", "is_reserved": 0, "lon": -77.02816766666666, "is_disabled": 0, "fusion_lat": 0.0, "lat": 38.9093705, "bike_id": "f81654e2c32c06e577ec36d6f2397cdd", "fusion_lon": 0.0}, {"rental_uris": {"ios": "https://dc.lft.to/lastmile_qr_scan", "android": "https://dc.lft.to/lastmile_qr_scan"}, "type": "electric_scooter", "name": "5bc2d8d1dda14b9cb485364726cebe52", "is_reserved": 0, "lon": -77.03642416666666, "is_disabled": 0, "fusion_lat": 0.0, "lat": 38.918972333333336, "bike_id": "5bc2d8d1dda14b9cb485364726cebe52", "fusion_lon": 0.0}, {"rental_uris": {"ios": "https://dc.lft.to/lastmile_qr_scan", "android": "https://dc.lft.to/lastmile_qr_scan"}, "type": "electric_scooter", "name": "71c31ac8634242b7cbb8bce508570ab2", "is_reserved": 0, "lon": -77.011603, "is_disabled": 0, "fusion_lat": 0.0, "lat": 38.91114, "bike_id": "71c31ac8634242b7cbb8bce508570ab2", "fusion_lon": 0.0}, {"rental_uris": {"ios": "https://dc.lft.to/lastmile_qr_scan", "android": "https://dc.lft.to/lastmile_qr_scan"}, "type": "electric_scooter", "name": "83dbf624d65e1e75e1c20aface9215d6", "is_reserved": 0, "lon": -77.02678566666667, "is_disabled": 0, "fusion_lat": 0.0, "lat": 38.900536333333335, "bike_id": "83dbf624d65e1e75e1c20aface9215d6", "fusion_lon": 0.0}, {"rental_uris": {"ios": "https://dc.lft.to/lastmile_qr_scan", "android": "https://dc.lft.to/lastmile_qr_scan"}, "type": "electric_scooter", "name": "bcd8dcc9a64bb8fafaac4ada5cc8e0de", "is_reserved": 0, "lon": -77.00148366666667, "is_disabled": 0, "fusion_lat": 0.0, "lat": 38.8750185, "bike_id": "bcd8dcc9a64bb8fafaac4ada5cc8e0de", "fusion_lon": 0.0}, {"rental_uris": {"ios": "https://dc.lft.to/lastmile_qr_scan", "android": "https://dc.lft.to/lastmile_qr_scan"}, "type": "electric_scooter", "name": "7e5bff8a250e4bb175d41f82a4ea5e8a", "is_reserved": 0, "lon": -77.02772516666667, "is_disabled": 0, "fusion_lat": 0.0, "lat": 38.90480266666667, "bike_id": "7e5bff8a250e4bb175d41f82a4ea5e8a", "fusion_lon": 0.0}, {"rental_uris": {"ios": "https://dc.lft.to/lastmile_qr_scan", "android": "https://dc.lft.to/lastmile_qr_scan"}, "type": "electric_scooter", "name": "3f8bdc417a2bf6469a23d52e03273263", "is_reserved": 0, "lon": -77.02217066666667, "is_disabled": 0, "fusion_lat": 0.0, "lat": 38.92470433333333, "bike_id": "3f8bdc417a2bf6469a23d52e03273263", "fusion_lon": 0.0}, {"rental_uris": {"ios": "https://dc.lft.to/lastmile_qr_scan", "android": "https://dc.lft.to/lastmile_qr_scan"}, "type": "electric_scooter", "name": "2d38ed2a2d742ac0d4cb32e2c7be7ab0", "is_reserved": 0, "lon": -77.0067915, "is_disabled": 0, "fusion_lat": 0.0, "lat": 38.9001325, "bike_id": "2d38ed2a2d742ac0d4cb32e2c7be7ab0", "fusion_lon": 0.0}, {"rental_uris": {"ios": "https://dc.lft.to/lastmile_qr_scan", "android": "https://dc.lft.to/lastmile_qr_scan"}, "type": "electric_scooter", "name": "72846f3a5807519149d1fcadf7183f62", "is_reserved": 0, "lon": -77.048014, "is_disabled": 0, "fusion_lat": 0.0, "lat": 38.892217, "bike_id": "72846f3a5807519149d1fcadf7183f62", "fusion_lon": 0.0}, {"rental_uris": {"ios": "https://dc.lft.to/lastmile_qr_scan", "android": "https://dc.lft.to/lastmile_qr_scan"}, "type": "electric_scooter", "name": "e27efe5e67ae30afa0ee643491ba78ef", "is_reserved": 0, "lon": -77.01746316666667, "is_disabled": 0, "fusion_lat": 0.0, "lat": 38.902564, "bike_id": "e27efe5e67ae30afa0ee643491ba78ef", "fusion_lon": 0.0}, {"rental_uris": {"ios": "https://dc.lft.to/lastmile_qr_scan", "android": "https://dc.lft.to/lastmile_qr_scan"}, "type": "electric_scooter", "name": "5f1a39d5916cb3d5349a2e5539e7427d", "is_reserved": 0, "lon": -77.02395416666667, "is_disabled": 0, "fusion_lat": 0.0, "lat": 38.92599833333333, "bike_id": "5f1a39d5916cb3d5349a2e5539e7427d", "fusion_lon": 0.0}, {"rental_uris": {"ios": "https://dc.lft.to/lastmile_qr_scan", "android": "https://dc.lft.to/lastmile_qr_scan"}, "type": "electric_scooter", "name": "98fdf8d0d1d81f7cfbb439faec122b23", "is_reserved": 0, "lon": -77.03271616666666, "is_disabled": 0, "fusion_lat": 0.0, "lat": 38.914063166666665, "bike_id": "98fdf8d0d1d81f7cfbb439faec122b23", "fusion_lon": 0.0}, {"rental_uris": {"ios": "https://dc.lft.to/lastmile_qr_scan", "android": "https://dc.lft.to/lastmile_qr_scan"}, "type": "electric_scooter", "name": "b6f2a958e654a083d8d04502055920c4", "is_reserved": 0, "lon": -77.00060883333333, "is_disabled": 0, "fusion_lat": 0.0, "lat": 38.876783, "bike_id": "b6f2a958e654a083d8d04502055920c4", "fusion_lon": 0.0}, {"rental_uris": {"ios": "https://dc.lft.to/lastmile_qr_scan", "android": "https://dc.lft.to/lastmile_qr_scan"}, "type": "electric_scooter", "name": "77592f46b63392318e70d8e3fd531ce8", "is_reserved": 0, "lon": -77.0269565, "is_disabled": 0, "fusion_lat": 0.0, "lat": 38.89995916666667, "bike_id": "77592f46b63392318e70d8e3fd531ce8", "fusion_lon": 0.0}, {"rental_uris": {"ios": "https://dc.lft.to/lastmile_qr_scan", "android": "https://dc.lft.to/lastmile_qr_scan"},