{"data": {"bikes": [{"lat": 38.924782, "fusion_lat": 0.0, "is_disabled": 0, "fusion_lon": 0.0, "type": "electric_scooter", "bike_id": "27684e6039807a6603f7ab6930877ae0", "is_reserved": 0, "rental_uris": {"ios": "https://dc.lft.to/lastmile_qr_scan", "android": "https://dc.lft.to/lastmile_qr_scan"}, "name": "27684e6039807a6603f7ab6930877ae0", "lon": -77.00891366666667}, {"lat": 38.921200166666665, "fusion_lat": 0.0, "is_disabled": 0, "fusion_lon": 0.0, "type": "electric_scooter", "bike_id": "5d38166848c4d43af399ecf86f3c9e5b", "is_reserved": 0, "rental_uris": {"ios": "https://dc.lft.to/lastmile_qr_scan", "android": "https://dc.lft.to/lastmile_qr_scan"}, "name": "5d38166848c4d43af399ecf86f3c9e5b", "lon": -77.01211766666667}, {"lat": 38.92139233333333, "fusion_lat": 0.0, "is_disabled": 0, "fusion_lon": 0.0, "type": "electric_scooter", "bike_id": "5fce2f18574ef98427bf08b5abb71f8b", "is_reserved": 0, "rental_uris": {"ios": "https://dc.lft.to/lastmile_qr_scan", "android": "https://dc.lft.to/lastmile_qr_scan"}, "name": "5fce2f18574ef98427bf08b5abb71f8b", "lon": -77.01789166666667}, {"lat": 38.939582, "fusion_lat": 0.0, "is_disabled": 0, "fusion_lon": 0.0, "type": "electric_scooter", "bike_id": "36fc89d57c152026d564adad77d8fb91", "is_reserved": 0, "rental_uris": {"ios": "https://dc.lft.to/lastmile_qr_scan", "android": "https://dc.lft.to/lastmile_qr_scan"}, "name": "36fc89d57c152026d564adad77d8fb91", "lon": -77.07249066666667}, {"lat": 38.9104895, "fusion_lat": 0.0, "is_disabled": 0, "fusion_lon": 0.0, "type": "electric_scooter", "bike_id": "9f711d957170bb90aed19a2cea0fccdb", "is_reserved": 0, "rental_uris": {"ios": "https://dc.lft.to/lastmile_qr_scan", "android": "https://dc.lft.to/lastmile_qr_scan"}, "name": "9f711d957170bb90aed19a2cea0fccdb", "lon": -77.02756666666667}, {"lat": 38.8994125, "fusion_lat": 0.0, "is_disabled": 0, "fusion_lon": 0.0, "type": "electric_scooter", "bike_id": "671c44cd5aa109594b63daa33db37bc2", "is_reserved": 0, "rental_uris": {"ios": "https://dc.lft.to/lastmile_qr_scan", "android": "https://dc.lft.to/lastmile_qr_scan"}, "name": "671c44cd5aa109594b63daa33db37bc2", "lon": -77.02578583333333}, {"lat": 38.90217616666666, "fusion_lat": 0.0, "is_disabled": 0, "fusion_lon": 0.0, "type": "electric_scooter", "bike_id": "6bb7c46a562ea95776f53db0aef9d84a", "is_reserved": 0, "rental_uris": {"ios": "https://dc.lft.to/lastmile_qr_scan", "android": "https://dc.lft.to/lastmile_qr_scan"}, "name": "6bb7c46a562ea95776f53db0aef9d84a", "lon": -77.04827416666667}, {"lat": 38.9170815, "fusion_lat": 0.0, "is_disabled": 0, "fusion_lon": 0.0, "type": "electric_scooter", "bike_id": "aeffbc27e24f42b49837a88d92ceeb07", "is_reserved": 0, "rental_uris": {"ios": "https://dc.lft.to/lastmile_qr_scan", "android": "https://dc.lft.to/lastmile_qr_scan"}, "name": "aeffbc27e24f42b49837a88d92ceeb07", "lon": -77.03863683333333}, {"lat": 38.920641333333336, "fusion_lat": 0.0, "is_disabled": 0, "fusion_lon": 0.0, "type": "electric_scooter", "bike_id": "0cb7d3998817d728ae1dd9d22f9ed59c", "is_reserved": 0, "rental_uris": {"ios": "https://dc.lft.to/lastmile_qr_scan", "android": "https://dc.lft.to/lastmile_qr_scan"}, "name": "0cb7d3998817d728ae1dd9d22f9ed59c", "lon": -77.02819716666667}, {"lat": 38.92095483333333, "fusion_lat": 0.0, "is_disabled": 0, "fusion_lon": 0.0, "type": "electric_scooter", "bike_id": "9f2a57be1fd04b6005d1c8462447fbfe", "is_reserved": 0, "rental_uris": {"ios": "https://dc.lft.to/lastmile_qr_scan", "android": "https://dc.lft.to/lastmile_qr_scan"}, "name": "9f2a57be1fd04b6005d1c8462447fbfe", "lon": -76.9990845}, {"lat": 38.89626483333333, "fusion_lat": 0.0, "is_disabled": 0, "fusion_lon": 0.0, "type": "electric_scooter", "bike_id": "4d0b085f54873255b6919221fe264bda", "is_reserved": 0, "rental_uris": {"ios": "https://dc.lft.to/lastmile_qr_scan", "android": "https://dc.lft.to/lastmile_qr_scan"}, "name": "4d0b085f54873255b6919221fe264bda", "lon": -77.02199283333333}, {"lat": 38.90280116666667, "fusion_lat": 0.0, "is_disabled": 0, "fusion_lon": 0.0, "type": "electric_scooter", "bike_id": "79772b21cb8c30d766870e4db41afe8d", "is_reserved": 0, "rental_uris": {"ios": "https://dc.lft.to/lastmile_qr_scan", "android": "https://dc.lft.to/lastmile_qr_scan"}, "name": "79772b21cb8c30d766870e4db41afe8d", "lon": -77.0387375}, {"lat": 38.90501583333333, "fusion_lat": 0.0, "is_disabled": 0, "fusion_lon": 0.0, "type": "electric_scooter", "bike_id": "035b97eb1d1612ff68ee6efc11107de1", "is_reserved": 0, "rental_uris": {"ios": "https://dc.lft.to/lastmile_qr_scan", "android": "https://dc.lft.to/lastmile_qr_scan"}, "name": "035b97eb1d1612ff68ee6efc11107de1", "lon": -77.01995016666666}, {"lat": 38.91327783333333, "fusion_lat": 0.0, "is_disabled": 0, "fusion_lon": 0.0, "type": "electric_scooter", "bike_id": "679243fc8018b955f655ef4009ca3ab0", "is_reserved": 0, "rental_uris": {"ios": "https://dc.lft.to/lastmile_qr_scan", "android": "https://dc.lft.to/lastmile_qr_scan"}, "name": "679243fc8018b955f655ef4009ca3ab0", "lon": -77.01475633333334}, {"lat": 38.920912, "fusion_lat": 0.0, "is_disabled": 0, "fusion_lon": 0.0, "type": "electric_scooter", "bike_id": "2fb07bc14577085000e869c282814eaf", "is_reserved": 0, "rental_uris": {"ios": "https://dc.lft.to/lastmile_qr_scan", "android": "https://dc.lft.to/lastmile_qr_scan"}, "name": "2fb07bc14577085000e869c282814eaf", "lon": -77.022325}, {"lat": 38.89357733333333, "fusion_lat": 0.0, "is_disabled": 0, "fusion_lon": 0.0, "type": "electric_scooter", "bike_id": "6cf1806bb37e868976e7219d9758a696", "is_reserved": 0, "rental_uris": {"ios": "https://dc.lft.to/lastmile_qr_scan", "android": "https://dc.lft.to/lastmile_qr_scan"}, "name": "6cf1806bb37e868976e7219d9758a696", "lon": -77.00338766666667}, {"lat": 38.901582, "fusion_lat": 0.0, "is_disabled": 0, "fusion_lon": 0.0, "type": "electric_scooter", "bike_id": "2b8b68320a72f7ce799b1727a41b9d50", "is_reserved": 0, "rental_uris": {"ios": "https://dc.lft.to/lastmile_qr_scan", "android": "https://dc.lft.to/lastmile_qr_scan"}, "name": "2b8b68320a72f7ce799b1727a41b9d50", "lon": -77.0532165}, {"lat": 38.91692333333334, "fusion_lat": 0.0, "is_disabled": 0, "fusion_lon": 0.0, "type": "electric_scooter", "bike_id": "d02c83486dfbf5487478ef109b2fe58a", "is_reserved": 0, "rental_uris": {"ios": "https://dc.lft.to/lastmile_qr_scan", "android": "https://dc.lft.to/lastmile_qr_scan"}, "name": "d02c83486dfbf5487478ef109b2fe58a", "lon": -77.017534}, {"lat": 38.922399, "fusion_lat": 0.0, "is_disabled": 0, "fusion_lon": 0.0, "type": "electric_scooter", "bike_id": "a2b1ec65c83ccf02ddd7b4783c86f475", "is_reserved": 0, "rental_uris": {"ios": "https://dc.lft.to/lastmile_qr_scan", "android": "https://dc.lft.to/lastmile_qr_scan"}, "name": "a2b1ec65c83ccf02ddd7b4783c86f475", "lon": -77.02819883333333}, {"lat": 38.930715666666664, "fusion_lat": 0.0, "is_disabled": 0, "fusion_lon": 0.0, "type": "electric_scooter", "bike_id": "12cc072819029ef00b2ebd933234bb6b", "is_reserved": 0, "rental_uris": {"ios": "https://dc.lft.to/lastmile_qr_scan", "android": "https://dc.lft.to/lastmile_qr_scan"}, "name": "12cc072819029ef00b2ebd933234bb6b", "lon": -77.02164883333333}, {"lat": 38.89591016666667, "fusion_lat": 0.0, "is_disabled": 0, "fusion_lon": 0.0, "type": "electric_scooter", "bike_id": "5794365b52f2c121b17a2919ad8fd84b", "is_reserved": 0, "rental_uris": {"ios": "https://dc.lft.to/lastmile_qr_scan", "android": "https://dc.lft.to/lastmile_qr_scan"}, "name": "5794365b52f2c121b17a2919ad8fd84b", "lon": -77.02212016666667}, {"lat": 38.92104616666667, "fusion_lat": 0.0, "is_disabled": 0, "fusion_lon": 0.0, "type": "electric_scooter", "bike_id": "188b69dc018eed6b7cd12a14ef66fa98", "is_reserved": 0, "rental_uris": {"ios": "https://dc.lft.to/lastmile_qr_scan", "android": "https://dc.lft.to/lastmile_qr_scan"}, "name": "188b69dc018eed6b7cd12a14ef66fa98", "lon": -77.08202183333333}, {"lat": 38.9102565, "fusion_lat": 0.0, "is_disabled": 0, "fusion_lon": 0.0, "type": "electric_scooter", "bike_id": "19dad06752e2e8f65f40dc182ec54989", "is_reserved": 0, "rental_uris": {"ios": "https://dc.lft.to/lastmile_qr_scan", "android": "https://dc.lft.to/lastmile_qr_scan"}, "name": "19dad06752e2e8f65f40dc182ec54989", "lon": -77.02941583333333}, {"lat": 38.924262, "fusion_lat": 0.0, "is_disabled": 0, "fusion_lon": 0.0, "type": "electric_scooter", "bike_id": "3ae7ab518202f3817aa5c0e587182fb8", "is_reserved": 0, "rental_uris": {"ios": "https://dc.lft.to/lastmile_qr_scan", "android": "https://dc.lft.to/lastmile_qr_scan"}, "name": "3ae7ab518202f3817aa5c0e587182fb8", "lon": -77.04041383333333}, {"lat": 38.89907433333333, "fusion_lat": 0.0, "is_disabled": 0, "fusion_lon": 0.0, "type": "electric_scooter", "bike_id": "b6b40ea7f3a0f4d0aa10241c411cc982", "is_reserved": 0, "rental_uris": {"ios": "https://dc.lft.to/lastmile_qr_scan", "android": "https://dc.lft.to/lastmile_qr_scan"}, "name": "b6b40ea7f3a0f4d0aa10241c411cc982", "lon": -77.00360883333333}, {"lat": 38.917768, "fusion_lat": 0.0, "is_disabled": 0, "fusion_lon": 0.0, "type": "electric_scooter", "bike_id": "7f8c66c33c62c3a5870ac8bb24a2467a", "is_reserved": 0, "rental_uris": {"ios": "https://dc.lft.to/lastmile_qr_scan", "android": "https://dc.lft.to/lastmile_qr_scan"}, "name": "7f8c66c33c62c3a5870ac8bb24a2467a", "lon": -77.0230315}, {"lat": 38.921495666666665, "fusion_lat": 0.0, "is_disabled": 0, "fusion_lon": 0.0, "type": "electric_scooter", "bike_id": "9e25e3f1fa06a1540e10aa61946d5023", "is_reserved": 0, "rental_uris": {"ios": "https://dc.lft.to/lastmile_qr_scan", "android": "https://dc.lft.to/lastmile_qr_scan"}, "name": "9e25e3f1fa06a1540e10aa61946d5023", "lon": -77.02424883333333}, {"lat": 38.927825166666665, "fusion_lat": 0.0, "is_disabled": 0, "fusion_lon": 0.0, "type": "electric_scooter", "bike_id": "e0db9d24cdee930c3f03ae11ce8235d0", "is_reserved": 0, "rental_uris": {"ios": "https://dc.lft.to/lastmile_qr_scan", "android": "https://dc.lft.to/lastmile_qr_scan"}, "name": "e0db9d24cdee930c3f03ae11ce8235d0", "lon": -77.02723733333333}, {"lat": 38.91538116666667, "fusion_lat": 0.0, "is_disabled": 0, "fusion_lon": 0.0, "type": "electric_scooter", "bike_id": "67beeb29e040d5114e05352ab9232b04", "is_reserved": 0, "rental_uris": {"ios": "https://dc.lft.to/lastmile_qr_scan", "android": "https://dc.lft.to/lastmile_qr_scan"}, "name": "67beeb29e040d5114e05352ab9232b04", "lon": -77.04458283333334}, {"lat": 38.913143833333336, "fusion_lat": 0.0, "is_disabled": 0, "fusion_lon": 0.0, "type": "electric_scooter", "bike_id": "7fa56111a4db54c2a4a883d2a7fcfeac", "is_reserved": 0, "rental_uris": {"ios": "https://dc.lft.to/lastmile_qr_scan", "android": "https://dc.lft.to/lastmile_qr_scan"}, "name": "7fa56111a4db54c2a4a883d2a7fcfeac", "lon": -77.03470233333333}, {"lat": 38.92120233333333, "fusion_lat": 0.0, "is_disabled": 0, "fusion_lon": 0.0, "type": "electric_scooter", "bike_id": "26e38f8da743af03adbb3faaaf79504e", "is_reserved": 0, "rental_uris": {"ios": "https://dc.lft.to/lastmile_qr_scan", "android": "https://dc.lft.to/lastmile_qr_scan"}, "name": "26e38f8da743af03adbb3faaaf79504e", "lon": -77.02131116666666}, {"lat": 38.917609666666664, "fusion_lat": 0.0, "is_disabled": 0, "fusion_lon": 0.0, "type": "electric_scooter", "bike_id": "03e0175b08f027751eb3d73ba35d4caa", "is_reserved": 0, "rental_uris": {"ios": "https://dc.lft.to/lastmile_qr_scan", "android": "https://dc.lft.to/lastmile_qr_scan"}, "name": "03e0175b08f027751eb3d73ba35d4caa", "lon": -77.0400455}, {"lat": 38.9187905, "fusion_lat": 0.0, "is_disabled": 0, "fusion_lon": 0.0, "type": "electric_scooter", "bike_id": "5ced210bbe85c98874903c61fdc0dd92", "is_reserved": 0, "rental_uris": {"ios": "https://dc.lft.to/lastmile_qr_scan", "android": "https://dc.lft.to/lastmile_qr_scan"}, "name": "5ced210bbe85c98874903c61fdc0dd92", "lon": -77.0350705}, {"lat": 38.9524815, "fusion_lat": 0.0, "is_disabled": 0, "fusion_lon": 0.0, "type": "electric_bike", "bike_id": "d597f478369d9b0cc9a40d01eb9ad2c9", "is_reserved": 0, "rental_uris": {"ios": "https://dc.lft.to/lastmile_qr_scan", "android": "https://dc.lft.to/lastmile_qr_scan"}, "name": "d597f478369d9b0cc9a40d01eb9ad2c9", "lon": -77.0962585}, {"lat": 38.93223916666667, "fusion_lat": 0.0, "is_disabled": 0, "fusion_lon": 0.0, "type": "electric_bike", "bike_id": "ed1fa5da7e79d71114063fcd8ed96b96", "is_reserved": 0, "rental_uris": {"ios": "https://dc.lft.to/lastmile_qr_scan", "android": "https://dc.lft.to/lastmile_qr_scan"}, "name": "ed1fa5da7e79d71114063fcd8ed96b96", "lon": -76.99879633333333}, {"lat": 38.87664483333333, "fusion_lat": 0.0, "is_disabled": 0, "fusion_lon": 0.0, "type": "electric_scooter", "bike_id": "35f475cbadd2d182ffbaf9504d004038", "is_reserved": 0, "rental_uris": {"ios": "https://dc.lft.to/lastmile_qr_scan", "android": "https://dc.lft.to/lastmile_qr_scan"}, "name": "35f475cbadd2d182ffbaf9504d004038", "lon": -77.00335383333334}, {"lat": 38.91368933333333, "fusion_lat": 0.0, "is_disabled": 0, "fusion_lon": 0.0, "type": "electric_scooter", "bike_id": "f0d1e514a6243e2c29f0eb13f1f63a48", "is_reserved": 0, "rental_uris": {"ios": "https://dc.lft.to/lastmile_qr_scan", "android": "https://dc.lft.to/lastmile_qr_scan"}, "name": "f0d1e514a6243e2c29f0eb13f1f63a48", "lon": -77.02200533333334}, {"lat": 38.92109033333333, "fusion_lat": 0.0, "is_disabled": 0, "fusion_lon": 0.0, "type": "electric_scooter", "bike_id": "993977c47d75ae8cde4f015e2948b5c9", "is_reserved": 0, "rental_uris": {"ios": "https://dc.lft.to/lastmile_qr_scan", "android": "https://dc.lft.to/lastmile_qr_scan"}, "name": "993977c47d75ae8cde4f015e2948b5c9", "lon": -77.0420865}, {"lat": 38.943726, "fusion_lat": 0.0, "is_disabled": 0, "fusion_lon": 0.0, "type": "electric_bike", "bike_id": "93e2c51c6a55ccc075393c55d612e2a7", "is_reserved": 0, "rental_uris": {"ios": "https://dc.lft.to/lastmile_qr_scan", "android": "https://dc.lft.to/lastmile_qr_scan"}, "name": "93e2c51c6a55ccc075393c55d612e2a7", "lon": -77.07751283333333}, {"lat": 38.8428655, "fusion_lat": 0.0, "is_disabled": 0, "fusion_lon": 0.0, "type": "electric_bike", "bike_id": "c771f308cc791aa9fd210b199322e902", "is_reserved": 0, "rental_uris": {"ios": "https://dc.lft.to/lastmile_qr_scan", "android": "https://dc.lft.to/lastmile_qr_scan"}, "name": "c771f308cc791aa9fd210b199322e902", "lon": -77.06358383333334}, {"lat": 38.92035816666667, "fusion_lat": 0.0, "is_disabled": 0, "fusion_lon": 0.0, "type": "electric_bike", "bike_id": "4c719fe6c4c9387123dad1d17f7a4a18", "is_reserved": 0, "rental_uris": {"ios": "https://dc.lft.to/lastmile_qr_scan", "android": "https://dc.lft.to/lastmile_qr_scan"}, "name": "4c719fe6c4c9387123dad1d17f7a4a18", "lon": -76.97951183333333}, {"lat": 38.90563483333333, "fusion_lat": 0.0, "is_disabled": 0, "fusion_lon": 0.0, "type": "electric_scooter", "bike_id": "493e84f857b66019779a7707a14bbd86", "is_reserved": 0, "rental_uris": {"ios": "https://dc.lft.to/lastmile_qr_scan", "android": "https://dc.lft.to/lastmile_qr_scan"}, "name": "493e84f857b66019779a7707a14bbd86", "lon": -77.0348635}, {"lat": 38.91701783333333, "fusion_lat": 0.0, "is_disabled": 0, "fusion_lon": 0.0, "type": "electric_scooter", "bike_id": "0a34db40d9caab743e191d92eaca7342", "is_reserved": 0, "rental_uris": {"ios": "https://dc.lft.to/lastmile_qr_scan", "android": "https://dc.lft.to/lastmile_qr_scan"}, "name": "0a34db40d9caab743e191d92eaca7342", "lon": -77.02722983333334}, {"lat": 38.90287466666667, "fusion_lat": 0.0, "is_disabled": 0, "fusion_lon": 0.0, "type": "electric_scooter", "bike_id": "7509ccbebf96dc6e516805fe677f3436", "is_reserved": 0, "rental_uris": {"ios": "https://dc.lft.to/lastmile_qr_scan", "android": "https://dc.lft.to/lastmile_qr_scan"}, "name": "7509ccbebf96dc6e516805fe677f3436", "lon": -77.03664766666667}, {"lat": 38.916982833333336, "fusion_lat": 0.0, "is_disabled": 0, "fusion_lon": 0.0, "type": "electric_scooter", "bike_id": "a8063adb0a13ed99ba791d4c6e47400b", "is_reserved": 0, "rental_uris": {"ios": "https://dc.lft.to/lastmile_qr_scan", "android": "https://dc.lft.to/lastmile_qr_scan"}, "name": "a8063adb0a13ed99ba791d4c6e47400b", "lon": -77.027269}, {"lat": 38.90264633333334, "fusion_lat": 0.0, "is_disabled": 0, "fusion_lon": 0.0, "type": "electric_scooter", "bike_id": "91b61e29b323d7f9c4b942c78c9d8394", "is_reserved": 0, "rental_uris": {"ios": "https://dc.lft.to/lastmile_qr_scan", "android": "https://dc.lft.to/lastmile_qr_scan"}, "name": "91b61e29b323d7f9c4b942c78c9d8394", "lon": -77.03040716666666}, {"lat": 38.893226166666665, "fusion_lat": 0.0, "is_disabled": 0, "fusion_lon": 0.0, "type": "electric_scooter", "bike_id": "9f3607146cd7c1eb58a46c2c52d71277", "is_reserved": 0, "rental_uris": {"ios": "https://dc.lft.to/lastmile_qr_scan", "android": "https://dc.lft.to/lastmile_qr_scan"}, "name": "9f3607146cd7c1eb58a46c2c52d71277", "lon": -77.03370166666667}, {"lat": 38.92173233333333, "fusion_lat": 0.0, "is_disabled": 0, "fusion_lon": 0.0, "type": "electric_scooter", "bike_id": "21863053adeac4cf06be4f2991693454", "is_reserved": 0, "rental_uris": {"ios": "https://dc.lft.to/lastmile_qr_scan", "android": "https://dc.lft.to/lastmile_qr_scan"}, "name": "21863053adeac4cf06be4f2991693454", "lon": -77.02102}, {"lat": 38.88728533333333, "fusion_lat": 0.0, "is_disabled": 0, "fusion_lon": 0.0, "type": "electric_scooter", "bike_id": "e2693a5cb45aad7220db9278d678260d", "is_reserved": 0, "rental_uris": {"ios": "https://dc.lft.to/lastmile_qr_scan", "android": "https://dc.lft.to/lastmile_qr_scan"}, "name": "e2693a5cb45aad7220db9278d678260d", "lon": -76.98377666666667}, {"lat": 38.919842833333334, "fusion_lat": 0.0, "is_disabled": 0, "fusion_lon": 0.0, "type": "electric_scooter", "bike_id": "92b3124d654dbfd3c4ec411f1957bde7", "is_reserved": 0, "rental_uris": {"ios": "https://dc.lft.to/lastmile_qr_scan", "android": "https://dc.lft.to/lastmile_qr_scan"}, "name": "92b3124d654dbfd3c4ec411f1957bde7", "lon": -77.03246216666666}, {"lat": 38.92333133333333, "fusion_lat": 0.0, "is_disabled": 0, "fusion_lon": 0.0, "type": "electric_scooter", "bike_id": "26164c2fb77ff076664f7a20b3e6d228", "is_reserved": 0, "rental_uris": {"ios": "https://dc.lft.to/lastmile_qr_scan", "android": "https://dc.lft.to/lastmile_qr_scan"}, "name": "26164c2fb77ff076664f7a20b3e6d228", "lon": -77.00895433333334}, {"lat": 38.92638133333333, "fusion_lat": 0.0, "is_disabled": 0, "fusion_lon": 0.0, "type": "electric_scooter", "bike_id": "2057d36c7f965554a87389a567a13f1e", "is_reserved": 0, "rental_uris": {"ios": "https://dc.lft.to/lastmile_qr_scan", "android": "https://dc.lft.to/lastmile_qr_scan"}, "name": "2057d36c7f965554a87389a567a13f1e", "lon": -77.0370165}, {"lat": 38.90061933333333, "fusion_lat": 0.0, "is_disabled": 0, "fusion_lon": 0.0, "type": "electric_scooter", "bike_id": "5dc0b4eaa2ab17ec50dbb8a7e68fd06e", "is_reserved": 0, "rental_uris": {"ios": "https://dc.lft.to/lastmile_qr_scan", "android": "https://dc.lft.to/lastmile_qr_scan"}, "name": "5dc0b4eaa2ab17ec50dbb8a7e68fd06e", "lon": -77.04591066666667}, {"lat": 38.9199675, "fusion_lat": 0.0, "is_disabled": 0, "fusion_lon": 0.0, "type": "electric_scooter", "bike_id": "2e5c8a9c080981c2723df6457e5039f1", "is_reserved": 0, "rental_uris": {"ios": "https://dc.lft.to/lastmile_qr_scan", "android": "https://dc.lft.to/lastmile_qr_scan"}, "name": "2e5c8a9c080981c2723df6457e5039f1", "lon": -77.02170733333334}, {"lat": 38.92040766666667, "fusion_lat": 0.0, "is_disabled": 0, "fusion_lon": 0.0, "type": "electric_bike", "bike_id": "25e30f4569e6bfed9927531f48e56268", "is_reserved": 0, "rental_uris": {"ios": "https://dc.lft.to/lastmile_qr_scan", "android": "https://dc.lft.to/lastmile_qr_scan"}, "name": "25e30f4569e6bfed9927531f48e56268", "lon": -77.06351433333333}, {"lat": 38.881888000000004, "fusion_lat": 0.0, "is_disabled": 0, "fusion_lon": 0.0, "type": "electric_scooter", "bike_id": "7cad2aa194efa07806af325fe7220870", "is_reserved": 0, "rental_uris": {"ios": "https://dc.lft.to/lastmile_qr_scan", "android": "https://dc.lft.to/lastmile_qr_scan"}, "name": "7cad2aa194efa07806af325fe7220870", "lon": -77.02095116666666}, {"lat": 38.9170135, "fusion_lat": 0.0, "is_disabled": 0, "fusion_lon": 0.0, "type": "electric_scooter", "bike_id": "e6461871b4be842acfdbe06bf9e26e0e", "is_reserved": 0, "rental_uris": {"ios": "https://dc.lft.to/lastmile_qr_scan", "android": "https://dc.lft.to/lastmile_qr_scan"}, "name": "e6461871b4be842acfdbe06bf9e26e0e", "lon": -77.09205866666667}, {"lat": 38.9023105, "fusion_lat": 0.0, "is_disabled": 0, "fusion_lon": 0.0, "type": "electric_scooter", "bike_id": "b292867269a1a0f298c71c57a0e21ca0", "is_reserved": 0, "rental_uris": {"ios": "https://dc.lft.to/lastmile_qr_scan", "android": "https://dc.lft.to/lastmile_qr_scan"}, "name": "b292867269a1a0f298c71c57a0e21ca0", "lon": -77.04570733333334}, {"lat": 38.92244766666666, "fusion_lat": 0.0, "is_disabled": 0, "fusion_lon": 0.0, "type": "electric_scooter", "bike_id": "97e85217f6b76719723b48cf87811f57", "is_reserved": 0, "rental_uris": {"ios": "https://dc.lft.to/lastmile_qr_scan", "android": "https://dc.lft.to/lastmile_qr_scan"}, "name": "97e85217f6b76719723b48cf87811f57", "lon": -77.00832633333333}, {"lat": 38.902888833333336, "fusion_lat": 0.0, "is_disabled": 0, "fusion_lon": 0.0, "type": "electric_scooter", "bike_id": "e4cde444cee9d828b87608ea8832ad2a", "is_reserved": 0, "rental_uris": {"ios": "https://dc.lft.to/lastmile_qr_scan", "android": "https://dc.lft.to/lastmile_qr_scan"}, "name": "e4cde444cee9d828b87608ea8832ad2a", "lon": -77.04673016666666}, {"lat": 38.881492, "fusion_lat": 0.0, "is_disabled": 0, "fusion_lon": 0.0, "type": "electric_bike", "bike_id": "7abae6459d2c8230d5ba1cbaba98e058", "is_reserved": 0, "rental_uris": {"ios": "https://dc.lft.to/lastmile_qr_scan", "android": "https://dc.lft.to/lastmile_qr_scan"}, "name": "7abae6459d2c8230d5ba1cbaba98e058", "lon": -77.013043}, {"lat": 38.90863483333333, "fusion_lat": 0.0, "is_disabled": 0, "fusion_lon": 0.0, "type": "electric_scooter", "bike_id": "26af47d7bb22febc4263d35cffd13bd5", "is_reserved": 0, "rental_uris": {"ios": "https://dc.lft.to/lastmile_qr_scan", "android": "https://dc.lft.to/lastmile_qr_scan"}, "name": "26af47d7bb22febc4263d35cffd13bd5", "lon": -77.01839033333333}, {"lat": 38.894917166666666, "fusion_lat": 0.0, "is_disabled": 0, "fusion_lon": 0.0, "type": "electric_scooter", "bike_id": "ce77c5d6630b8dd8a95c4b8b3e0a7dd6", "is_reserved": 0, "rental_uris": {"ios": "https://dc.lft.to/lastmile_qr_scan", "android": "https://dc.lft.to/lastmile_qr_scan"}, "name": "ce77c5d6630b8dd8a95c4b8b3e0a7dd6", "lon": -77.0550675}, {"lat": 38.891633666666664, "fusion_lat": 0.0, "is_disabled": 0, "fusion_lon": 0.0, "type": "electric_scooter", "bike_id": "a9cc1dc708cc2d27b18fa126ad7deaa5", "is_reserved": 0, "rental_uris": {"ios": "https://dc.lft.to/lastmile_qr_scan", "android": "https://dc.lft.to/lastmile_qr_scan"}, "name": "a9cc1dc708cc2d27b18fa126ad7deaa5", "lon": -76.99154416666667}, {"lat": 38.892354, "fusion_lat": 0.0, "is_disabled": 0, "fusion_lon": 0.0, "type": "electric_scooter", "bike_id": "cc899594f7093704e7ba36adceef5203", "is_reserved": 0, "rental_uris": {"ios": "https://dc.lft.to/lastmile_qr_scan", "android": "https://dc.lft.to/lastmile_qr_scan"}, "name": "cc899594f7093704e7ba36adceef5203", "lon": -77.03186683333334}, {"lat": 38.953555, "fusion_lat": 0.0, "is_disabled": 0, "fusion_lon": 0.0, "type": "electric_bike", "bike_id": "21496739c62f5265d76d14cc04c019e2", "is_reserved": 0, "rental_uris": {"ios": "https://dc.lft.to/lastmile_qr_scan", "android": "https://dc.lft.to/lastmile_qr_scan"}, "name": "21496739c62f5265d76d14cc04c019e2", "lon": -76.98093566666667}, {"lat": 38.906724, "fusion_lat": 0.0, "is_disabled": 0, "fusion_lon": 0.0, "type": "electric_scooter", "bike_id": "a4571f1538603fe90bf7062220992a63", "is_reserved": 0, "rental_uris": {"ios": "https://dc.lft.to/lastmile_qr_scan", "android": "https://dc.lft.to/lastmile_qr_scan"}, "name": "a4571f1538603fe90bf7062220992a63", "lon": -77.02716633333333}, {"lat": 38.915754166666666, "fusion_lat": 0.0, "is_disabled": 0, "fusion_lon": 0.0, "type": "electric_scooter", "bike_id": "552630259ebaad7d2c1ffd9a27b86459", "is_reserved": 0, "rental_uris": {"ios": "https://dc.lft.to/lastmile_qr_scan", "android": "https://dc.lft.to/lastmile_qr_scan"}, "name": "552630259ebaad7d2c1ffd9a27b86459", "lon": -77.03180966666666}, {"lat": 38.92241666666666, "fusion_lat": 0.0, "is_disabled": 0, "fusion_lon": 0.0, "type": "electric_scooter", "bike_id": "0c307da366eb0f7c768f6e068b538c2b", "is_reserved": 0, "rental_uris": {"ios": "https://dc.lft.to/lastmile_qr_scan", "android": "https://dc.lft.to/lastmile_qr_scan"}, "name": "0c307da366eb0f7c768f6e068b538c2b", "lon": -77.03664933333333}, {"lat": 38.90251033333333, "fusion_lat": 0.0, "is_disabled": 0, "fusion_lon": 0.0, "type": "electric_scooter", "bike_id": "87c50913378274c44f7e12ee11c7cc6e", "is_reserved": 0, "rental_uris": {"ios": "https://dc.lft.to/lastmile_qr_scan", "android": "https://dc.lft.to/lastmile_qr_scan"}, "name": "87c50913378274c44f7e12ee11c7cc6e", "lon": -77.01763333333334}, {"lat": 38.90058633333334, "fusion_lat": 0.0, "is_disabled": 0, "fusion_lon": 0.0, "type": "electric_scooter", "bike_id": "6bec0488de7d7c9161097f242618a504", "is_reserved": 0, "rental_uris": {"ios": "https://dc.lft.to/lastmile_qr_scan", "android": "https://dc.lft.to/lastmile_qr_scan"}, "name": "6bec0488de7d7c9161097f242618a504", "lon": -77.04546666666667}, {"lat": 38.83299266666667, "fusion_lat": 0.0, "is_disabled": 0, "fusion_lon": 0.0, "type": "electric_bike", "bike_id": "4188d678d922e0a999025c0096925f2d", "is_reserved": 0, "rental_uris": {"ios": "https://dc.lft.to/lastmile_qr_scan", "android": "https://dc.lft.to/lastmile_qr_scan"}, "name": "4188d678d922e0a999025c0096925f2d", "lon": -77.08410066666667}, {"lat": 38.929618166666664, "fusion_lat": 0.0, "is_disabled": 0, "fusion_lon": 0.0, "type": "electric_scooter", "bike_id": "6f9d751da05c9b92908ce171aa4c43ea", "is_reserved": 0, "rental_uris": {"ios": "https://dc.lft.to/lastmile_qr_scan", "android": "https://dc.lft.to/lastmile_qr_scan"}, "name": "6f9d751da05c9b92908ce171aa4c43ea", "lon": -77.03146416666667}, {"lat": 38.92248216666667, "fusion_lat": 0.0, "is_disabled": 0, "fusion_lon": 0.0, "type": "electric_scooter", "bike_id": "55316e22eac5f7eb9fdeb4ea66a24e97", "is_reserved": 0, "rental_uris": {"ios": "https://dc.lft.to/lastmile_qr_scan", "android": "https://dc.lft.to/lastmile_qr_scan"}, "name": "55316e22eac5f7eb9fdeb4ea66a24e97", "lon": -77.019721}, {"lat": 38.896919, "fusion_lat": 0.0, "is_disabled": 0, "fusion_lon": 0.0, "type": "electric_scooter", "bike_id": "9d7464cdac8787aab18a64ed1d002aca", "is_reserved": 0, "rental_uris": {"ios": "https://dc.lft.to/lastmile_qr_scan", "android": "https://dc.lft.to/lastmile_qr_scan"}, "name": "9d7464cdac8787aab18a64ed1d002aca", "lon": -77.04880916666667}, {"lat": 38.898427833333336, "fusion_lat": 0.0, "is_disabled": 0, "fusion_lon": 0.0, "type": "electric_scooter", "bike_id": "7c1ac87bb99981c72b83d7de435faa20", "is_reserved": 0, "rental_uris": {"ios": "https://dc.lft.to/lastmile_qr_scan", "android": "https://dc.lft.to/lastmile_qr_scan"}, "name": "7c1ac87bb99981c72b83d7de435faa20", "lon": -76.92747016666667}, {"lat": 38.90437083333333, "fusion_lat": 0.0, "is_disabled": 0, "fusion_lon": 0.0, "type": "electric_bike", "bike_id": "b8b8f068a6182881ca2685904413c5bf", "is_reserved": 0, "rental_uris": {"ios": "https://dc.lft.to/lastmile_qr_scan", "android": "https://dc.lft.to/lastmile_qr_scan"}, "name": "b8b8f068a6182881ca2685904413c5bf", "lon": -76.9722555}, {"lat": 38.90111733333333, "fusion_lat": 0.0, "is_disabled": 0, "fusion_lon": 0.0, "type": "electric_scooter", "bike_id": "1947c487404480b31754aaeb8267cb78", "is_reserved": 0, "rental_uris": {"ios": "https://dc.lft.to/lastmile_qr_scan", "android": "https://dc.lft.to/lastmile_qr_scan"}, "name": "1947c487404480b31754aaeb8267cb78", "lon": -77.04991683333333}, {"lat": 38.878400166666665, "fusion_lat": 0.0, "is_disabled": 0, "fusion_lon": 0.0, "type": "electric_scooter", "bike_id": "3da0aea652850eaa501d7047d27e1685", "is_reserved": 0, "rental_uris": {"ios": "https://dc.lft.to/lastmile_qr_scan", "android": "https://dc.lft.to/lastmile_qr_scan"}, "name": "3da0aea652850eaa501d7047d27e1685", "lon": -77.022806}, {"lat": 38.9215875, "fusion_lat": 0.0, "is_disabled": 0, "fusion_lon": 0.0, "type": "electric_bike", "bike_id": "17699ea2f737edeb500a093d013d0ea6", "is_reserved": 0, "rental_uris": {"ios": "https://dc.lft.to/lastmile_qr_scan", "android": "https://dc.lft.to/lastmile_qr_scan"}, "name": "17699ea2f737edeb500a093d013d0ea6", "lon": -77.07891866666667}, {"lat": 38.921493, "fusion_lat": 0.0, "is_disabled": 0, "fusion_lon": 0.0, "type": "electric_scooter", "bike_id": "d7a85a12eb52ed24091ad4117cfd1590", "is_reserved": 0, "rental_uris": {"ios": "https://dc.lft.to/lastmile_qr_scan", "android": "https://dc.lft.to/lastmile_qr_scan"}, "name": "d7a85a12eb52ed24091ad4117cfd1590", "lon": -77.04240716666666}, {"lat": 38.83693916666667, "fusion_lat": 0.0, "is_disabled": 0, "fusion_lon": 0.0, "type": "electric_bike", "bike_id": "354a69462b4663f92412373dcc0bb7c0", "is_reserved": 0, "rental_uris": {"ios": "https://dc.lft.to/lastmile_qr_scan", "android": "https://dc.lft.to/lastmile_qr_scan"}, "name": "354a69462b4663f92412373dcc0bb7c0", "lon": -77.05721733333333}, {"lat": 38.9128545, "fusion_lat": 0.0, "is_disabled": 0, "fusion_lon": 0.0, "type": "electric_scooter", "bike_id": "68e5879ed083b8b1eed8cb118b013644", "is_reserved": 0, "rental_uris": {"ios": "https://dc.lft.to/lastmile_qr_scan", "android": "https://dc.lft.to/lastmile_qr_scan"}, "name": "68e5879ed083b8b1eed8cb118b013644", "lon": -77.034453}, {"lat": 38.9072405, "fusion_lat": 0.0, "is_disabled": 0, "fusion_lon": 0.0, "type": "electric_scooter", "bike_id": "47b6de5cdd4d713460e5dca26502b4b2", "is_reserved": 0, "rental_uris": {"ios": "https://dc.lft.to/lastmile_qr_scan", "android": "https://dc.lft.to/lastmile_qr_scan"}, "name": "47b6de5cdd4d713460e5dca26502b4b2", "lon": -77.043852}, {"lat": 38.9278255, "fusion_lat": 0.0, "is_disabled": 0, "fusion_lon": 0.0, "type": "electric_scooter", "bike_id": "7ac12a9e539057c854cfbaa00146261c", "is_reserved": 0, "rental_uris": {"ios": "https://dc.lft.to/lastmile_qr_scan", "android": "https://dc.lft.to/lastmile_qr_scan"}, "name": "7ac12a9e539057c854cfbaa00146261c", "lon": -77.021212}, {"lat": 38.921959333333334, "fusion_lat": 0.0, "is_disabled": 0, "fusion_lon": 0.0, "type": "electric_scooter", "bike_id": "4f27f6eba0f99bce3be8bc09b2f24948", "is_reserved": 0, "rental_uris": {"ios": "https://dc.lft.to/lastmile_qr_scan", "android": "https://dc.lft.to/lastmile_qr_scan"}, "name": "4f27f6eba0f99bce3be8bc09b2f24948", "lon": -77.0432345}, {"lat": 38.93120316666667, "fusion_lat": 0.0, "is_disabled": 0, "fusion_lon": 0.0, "type": "electric_scooter", "bike_id": "6715ef981449b41e31d32d670842d130", "is_reserved": 0, "rental_uris": {"ios": "https://dc.lft.to/lastmile_qr_scan", "android": "https://dc.lft.to/lastmile_qr_scan"}, "name": "6715ef981449b41e31d32d670842d130", "lon": -77.02048316666666}, {"lat": 38.918100333333335, "fusion_lat": 0.0, "is_disabled": 0, "fusion_lon": 0.0, "type": "electric_scooter", "bike_id": "fc8b61966b874b7815b1c0579a1deb9b", "is_reserved": 0, "rental_uris": {"ios": "https://dc.lft.to/lastmile_qr_scan", "android": "https://dc.lft.to/lastmile_qr_scan"}, "name": "fc8b61966b874b7815b1c0579a1deb9b", "lon": -77.04000883333333}, {"lat": 38.8921185, "fusion_lat": 0.0, "is_disabled": 0, "fusion_lon": 0.0, "type": "electric_scooter", "bike_id": "4737afaaf9909957a42977e69797dd96", "is_reserved": 0, "rental_uris": {"ios": "https://dc.lft.to/lastmile_qr_scan", "android": "https://dc.lft.to/lastmile_qr_scan"}, "name": "4737afaaf9909957a42977e69797dd96", "lon": -76.961193}, {"lat": 38.935758, "fusion_lat": 0.0, "is_disabled": 0, "fusion_lon": 0.0, "type": "electric_scooter", "bike_id": "5e98e78ed53733f65c51f6213d5306f0", "is_reserved": 0, "rental_uris": {"ios": "https://dc.lft.to/lastmile_qr_scan", "android": "https://dc.lft.to/lastmile_qr_scan"}, "name": "5e98e78ed53733f65c51f6213d5306f0", "lon": -77.02247833333334}, {"lat": 38.895639333333335, "fusion_lat": 0.0, "is_disabled": 0, "fusion_lon": 0.0, "type": "electric_bike", "bike_id": "4e00fac1140766ceff8d8d2f776f356c", "is_reserved": 0, "rental_uris": {"ios": "https://dc.lft.to/lastmile_qr_scan", "android": "https://dc.lft.to/lastmile_qr_scan"}, "name": "4e00fac1140766ceff8d8d2f776f356c", "lon": -77.127418}, {"lat": 38.99804533333333, "fusion_lat": 0.0, "is_disabled": 0, "fusion_lon": 0.0, "type": "electric_bike", "bike_id": "e3687b8ce41d43e7949e0ed42c960489", "is_reserved": 0, "rental_uris": {"ios": "https://dc.lft.to/lastmile_qr_scan", "android": "https://dc.lft.to/lastmile_qr_scan"}, "name": "e3687b8ce41d43e7949e0ed42c960489", "lon": -76.99793483333333}, {"lat": 38.90701133333334, "fusion_lat": 0.0, "is_disabled": 0, "fusion_lon": 0.0, "type": "electric_scooter", "bike_id": "38fbe99e13570ab4efdb48bb86f0a7d3", "is_reserved": 0, "rental_uris": {"ios": "https://dc.lft.to/lastmile_qr_scan", "android": "https://dc.lft.to/lastmile_qr_scan"}, "name": "38fbe99e13570ab4efdb48bb86f0a7d3", "lon": -77.0282125}, {"lat": 38.92176383333333, "fusion_lat": 0.0, "is_disabled": 0, "fusion_lon": 0.0, "type": "electric_scooter", "bike_id": "e58be324b4f54694423c0226ad309032", "is_reserved": 0, "rental_uris": {"ios": "https://dc.lft.to/lastmile_qr_scan", "android": "https://dc.lft.to/lastmile_qr_scan"}, "name": "e58be324b4f54694423c0226ad309032", "lon": -77.02543866666667}, {"lat": 38.856265, "fusion_lat": 0.0, "is_disabled": 0, "fusion_lon": 0.0, "type": "electric_scooter", "bike_id": "3f864d915b50b83a731402df1a4febea", "is_reserved": 0, "rental_uris": {"ios": "https://dc.lft.to/lastmile_qr_scan", "android": "https://dc.lft.to/lastmile_qr_scan"}, "name": "3f864d915b50b83a731402df1a4febea", "lon": -76.99070516666667}, {"lat": 38.91808, "fusion_lat": 0.0, "is_disabled": 0, "fusion_lon": 0.0, "type": "electric_scooter", "bike_id": "2f9dc57c3cfead4b637de5786c87366b", "is_reserved": 0, "rental_uris": {"ios": "https://dc.lft.to/lastmile_qr_scan", "android": "https://dc.lft.to/lastmile_qr_scan"}, "name": "2f9dc57c3cfead4b637de5786c87366b", "lon": -77.02491633333334}, {"lat": 38.92051883333333, "fusion_lat": 0.0, "is_disabled": 0, "fusion_lon": 0.0, "type": "electric_scooter", "bike_id": "1bfc1c9bd1bc712e21f670fbac575585", "is_reserved": 0, "rental_uris": {"ios": "https://dc.lft.to/lastmile_qr_scan", "android": "https://dc.lft.to/lastmile_qr_scan"}, "name": "1bfc1c9bd1bc712e21f670fbac575585", "lon": -77.01673683333334}, {"lat": 38.930323666666666, "fusion_lat": 0.0, "is_disabled": 0, "fusion_lon": 0.0, "type": "electric_scooter", "bike_id": "a92a721968a46763bf478b0cc8d711bc", "is_reserved": 0, "rental_uris": {"ios": "https://dc.lft.to/lastmile_qr_scan", "android": "https://dc.lft.to/lastmile_qr_scan"}, "name": "a92a721968a46763bf478b0cc8d711bc", "lon": -77.03815666666667}, {"lat": 38.9150125, "fusion_lat": 0.0, "is_disabled": 0, "fusion_lon": 0.0, "type": "electric_scooter", "bike_id": "53ebae7a61a5febcfd5cb28ddd5b16dc", "is_reserved": 0, "rental_uris": {"ios": "https://dc.lft.to/lastmile_qr_scan", "android": "https://dc.lft.to/lastmile_qr_scan"}, "name": "53ebae7a61a5febcfd5cb28ddd5b16dc", "lon": -77.03209866666667}, {"lat": 38.901650333333336, "fusion_lat": 0.0, "is_disabled": 0, "fusion_lon": 0.0, "type": "electric_scooter", "bike_id": "913f3de12502e3195f9f1272cc0e39b2", "is_reserved": 0, "rental_uris": {"ios": "https://dc.lft.to/lastmile_qr_scan", "android": "https://dc.lft.to/lastmile_qr_scan"}, "name": "913f3de12502e3195f9f1272cc0e39b2", "lon": -76.98456383333334}, {"lat": 38.875310999999996, "fusion_lat": 0.0, "is_disabled": 0, "fusion_lon": 0.0, "type": "electric_scooter", "bike_id": "d14d149da0c9adac1de894d0b657731d", "is_reserved": 0, "rental_uris": {"ios": "https://dc.lft.to/lastmile_qr_scan", "android": "https://dc.lft.to/lastmile_qr_scan"}, "name": "d14d149da0c9adac1de894d0b657731d", "lon": -77.00890466666667}, {"lat": 38.90677916666667, "fusion_lat": 0.0, "is_disabled": 0, "fusion_lon": 0.0, "type": "electric_scooter", "bike_id": "13eb46f54adceddc263a4293b55e6fb2", "is_reserved": 0, "rental_uris": {"ios": "https://dc.lft.to/lastmile_qr_scan", "android": "https://dc.lft.to/lastmile_qr_scan"}, "name": "13eb46f54adceddc263a4293b55e6fb2", "lon": -77.03632033333334}, {"lat": 38.9210275, "fusion_lat": 0.0, "is_disabled": 0, "fusion_lon": 0.0, "type": "electric_scooter", "bike_id": "202be3fd7b25cd671728ca8ac6c595bd", "is_reserved": 0, "rental_uris": {"ios": "https://dc.lft.to/lastmile_qr_scan", "android": "https://dc.lft.to/lastmile_qr_scan"}, "name": "202be3fd7b25cd671728ca8ac6c595bd", "lon": -77.03927416666667}, {"lat": 38.92440283333333, "fusion_lat": 0.0, "is_disabled": 0, "fusion_lon": 0.0, "type": "electric_scooter", "bike_id": "058d60f6db523912c696af75fb211a4d", "is_reserved": 0, "rental_uris": {"ios": "https://dc.lft.to/lastmile_qr_scan", "android": "https://dc.lft.to/lastmile_qr_scan"}, "name": "058d60f6db523912c696af75fb211a4d", "lon": -77.02035433333333}, {"lat": 38.908652833333335, "fusion_lat": 0.0, "is_disabled": 0, "fusion_lon": 0.0, "type": "electric_scooter", "bike_id": "40a0a465be7efb96a8a8c41b2333fc24", "is_reserved": 0, "rental_uris": {"ios": "https://dc.lft.to/lastmile_qr_scan", "android": "https://dc.lft.to/lastmile_qr_scan"}, "name": "40a0a465be7efb96a8a8c41b2333fc24", "lon": -77.03224133333333}, {"lat": 38.911242666666666, "fusion_lat": 0.0, "is_disabled": 0, "fusion_lon": 0.0, "type": "electric_scooter", "bike_id": "bef06c6f0708e6ffa601a9b47a1e3e55", "is_reserved": 0, "rental_uris": {"ios": "https://dc.lft.to/lastmile_qr_scan", "android": "https://dc.lft.to/lastmile_qr_scan"}, "name": "bef06c6f0708e6ffa601a9b47a1e3e55", "lon": -77.02197533333333}, {"lat": 38.924685333333336, "fusion_lat": 0.0, "is_disabled": 0, "fusion_lon": 0.0, "type": "electric_scooter", "bike_id": "24017b8b81630a64211b3dec8f580472", "is_reserved": 0, "rental_uris": {"ios": "https://dc.lft.to/lastmile_qr_scan", "android": "https://dc.lft.to/lastmile_qr_scan"}, "name": "24017b8b81630a64211b3dec8f580472", "lon": -77.02197883333334}, {"lat": 38.94071983333333, "fusion_lat": 0.0, "is_disabled": 0, "fusion_lon": 0.0, "type": "electric_scooter", "bike_id": "2dc4891acecc2703104fe4aff84a082f", "is_reserved": 0, "rental_uris": {"ios": "https://dc.lft.to/lastmile_qr_scan", "android": "https://dc.lft.to/lastmile_qr_scan"}, "name": "2dc4891acecc2703104fe4aff84a082f", "lon": -77.07812}, {"lat": 38.832719166666664, "fusion_lat": 0.0, "is_disabled": 0, "fusion_lon": 0.0, "type": "electric_bike", "bike_id": "4a678344a1664316d7f9f29fc6a4dee5", "is_reserved": 0, "rental_uris": {"ios": "https://dc.lft.to/lastmile_qr_scan", "android": "https://dc.lft.to/lastmile_qr_scan"}, "name": "4a678344a1664316d7f9f29fc6a4dee5", "lon": -77.08367916666667}, {"lat": 38.87167066666667, "fusion_lat": 0.0, "is_disabled": 0, "fusion_lon": 0.0, "type": "electric_scooter", "bike_id": "e6ef7e7a0900501847e08049ad7bf050", "is_reserved": 0, "rental_uris": {"ios": "https://dc.lft.to/lastmile_qr_scan", "android": "https://dc.lft.to/lastmile_qr_scan"}, "name": "e6ef7e7a0900501847e08049ad7bf050", "lon": -77.006347}, {"lat": 38.91559933333333, "fusion_lat": 0.0, "is_disabled": 0, "fusion_lon": 0.0, "type": "electric_scooter", "bike_id": "607043d72cf627c352fea51e2517bae2", "is_reserved": 0, "rental_uris": {"ios": "https://dc.lft.to/lastmile_qr_scan", "android": "https://dc.lft.to/lastmile_qr_scan"}, "name": "607043d72cf627c352fea51e2517bae2", "lon": -77.00700216666667}, {"lat": 38.9155945, "fusion_lat": 0.0, "is_disabled": 0, "fusion_lon": 0.0, "type": "electric_scooter", "bike_id": "d03bb395250f5a9d0a3d96403dee8b46", "is_reserved": 0, "rental_uris": {"ios": "https://dc.lft.to/lastmile_qr_scan", "android": "https://dc.lft.to/lastmile_qr_scan"}, "name": "d03bb395250f5a9d0a3d96403dee8b46", "lon": -77.033444}, {"lat": 38.872661, "fusion_lat": 0.0, "is_disabled": 0, "fusion_lon": 0.0, "type": "electric_bike", "bike_id": "c730b6cd1a27905c7ec2097c94e0909d", "is_reserved": 0, "rental_uris": {"ios": "https://dc.lft.to/lastmile_qr_scan", "android": "https://dc.lft.to/lastmile_qr_scan"}, "name": "c730b6cd1a27905c7ec2097c94e0909d", "lon": -76.97559533333333}, {"lat": 38.915707, "fusion_lat": 0.0, "is_disabled": 0, "fusion_lon": 0.0, "type": "electric_scooter", "bike_id": "4564a0ec9fffae7893f7ca145c034043", "is_reserved": 0, "rental_uris": {"ios": "https://dc.lft.to/lastmile_qr_scan", "android": "https://dc.lft.to/lastmile_qr_scan"}, "name": "4564a0ec9fffae7893f7ca145c034043", "lon": -77.01994166666667}, {"lat": 38.926411, "fusion_lat": 0.0, "is_disabled": 0, "fusion_lon": 0.0, "type": "electric_bike", "bike_id": "5fdead9b37dcf8e959a21b536abfcc60", "is_reserved": 0, "rental_uris": {"ios": "https://dc.lft.to/lastmile_qr_scan", "android": "https://dc.lft.to/lastmile_qr_scan"}, "name": "5fdead9b37dcf8e959a21b536abfcc60", "lon": -77.0284215}, {"lat": 38.9489075, "fusion_lat": 0.0, "is_disabled": 0, "fusion_lon": 0.0, "type": "electric_scooter", "bike_id": "4cf37f6e822626729e4dc8ba488e27ad", "is_reserved": 0, "rental_uris": {"ios": "https://dc.lft.to/lastmile_qr_scan", "android": "https://dc.lft.to/lastmile_qr_scan"}, "name": "4cf37f6e822626729e4dc8ba488e27ad", "lon": -77.01849083333333}, {"lat": 38.903885, "fusion_lat": 0.0, "is_disabled": 0, "fusion_lon": 0.0, "type": "electric_scooter", "bike_id": "78ed45b10d2854f729def67db0fd9d81", "is_reserved": 0, "rental_uris": {"ios": "https://dc.lft.to/lastmile_qr_scan", "android": "https://dc.lft.to/lastmile_qr_scan"}, "name": "78ed45b10d2854f729def67db0fd9d81", "lon": -77.03846116666666}, {"lat": 38.86332566666667, "fusion_lat": 0.0, "is_disabled": 0, "fusion_lon": 0.0, "type": "electric_bike", "bike_id": "b8efa83fdf10fb0922f9a348637b0161", "is_reserved": 0, "rental_uris": {"ios": "https://dc.lft.to/lastmile_qr_scan", "android": "https://dc.lft.to/lastmile_qr_scan"}, "name": "b8efa83fdf10fb0922f9a348637b0161", "lon": -76.98725516666667}, {"lat": 38.917688166666665, "fusion_lat": 0.0, "is_disabled": 0, "fusion_lon": 0.0, "type": "electric_scooter", "bike_id": "f161233d7190c0cb85aaf307243043e8", "is_reserved": 0, "rental_uris": {"ios": "https://dc.lft.to/lastmile_qr_scan", "android": "https://dc.lft.to/lastmile_qr_scan"}, "name": "f161233d7190c0cb85aaf307243043e8", "lon": -77.0317115}, {"lat": 38.909273166666665, "fusion_lat": 0.0, "is_disabled": 0, "fusion_lon": 0.0, "type": "electric_scooter", "bike_id": "8e261b2029fe468d36d7ce1ec8eb9f4f", "is_reserved": 0, "rental_uris": {"ios": "https://dc.lft.to/lastmile_qr_scan", "android": "https://dc.lft.to/lastmile_qr_scan"}, "name": "8e261b2029fe468d36d7ce1ec8eb9f4f", "lon": -77.0421265}, {"lat": 38.917696166666666, "fusion_lat": 0.0, "is_disabled": 0, "fusion_lon": 0.0, "type": "electric_scooter", "bike_id": "be5592cb3bfec05634f544a743a4c0c5", "is_reserved": 0, "rental_uris": {"ios": "https://dc.lft.to/lastmile_qr_scan", "android": "https://dc.lft.to/lastmile_qr_scan"}, "name": "be5592cb3bfec05634f544a743a4c0c5", "lon": -77.00363183333333}, {"lat": 38.80478983333333, "fusion_lat": 0.0, "is_disabled": 0, "fusion_lon": 0.0, "type": "electric_bike", "bike_id": "faf39aeaa106460cc2a2d7b64b911b28", "is_reserved": 0, "rental_uris": {"ios": "https://dc.lft.to/lastmile_qr_scan", "android": "https://dc.lft.to/lastmile_qr_scan"}, "name": "faf39aeaa106460cc2a2d7b64b911b28", "lon": -76.99104483333333}, {"lat": 38.9033495, "fusion_lat": 0.0, "is_disabled": 0, "fusion_lon": 0.0, "type": "electric_scooter", "bike_id": "7bd1de550e3afb4d739f6856a6e8af32", "is_reserved": 0, "rental_uris": {"ios": "https://dc.lft.to/lastmile_qr_scan", "android": "https://dc.lft.to/lastmile_qr_scan"}, "name": "7bd1de550e3afb4d739f6856a6e8af32", "lon": -77.0386905}, {"lat": 38.91673883333333, "fusion_lat": 0.0, "is_disabled": 0, "fusion_lon": 0.0, "type": "electric_scooter", "bike_id": "4fdf85eb097b06253f67a2c811c43b02", "is_reserved": 0, "rental_uris": {"ios": "https://dc.lft.to/lastmile_qr_scan", "android": "https://dc.lft.to/lastmile_qr_scan"}, "name": "4fdf85eb097b06253f67a2c811c43b02", "lon": -77.034627}, {"lat": 38.906937, "fusion_lat": 0.0, "is_disabled": 0, "fusion_lon": 0.0, "type": "electric_scooter", "bike_id": "f231a08a2a8a4aeda70d7de3a967389e", "is_reserved": 0, "rental_uris": {"ios": "https://dc.lft.to/lastmile_qr_scan", "android": "https://dc.lft.to/lastmile_qr_scan"}, "name": "f231a08a2a8a4aeda70d7de3a967389e", "lon": -77.027151}, {"lat": 38.922295, "fusion_lat": 0.0, "is_disabled": 0, "fusion_lon": 0.0, "type": "electric_scooter", "bike_id": "689fa8f9092ed3bc599de2453fce38a6", "is_reserved": 0, "rental_uris": {"ios": "https://dc.lft.to/lastmile_qr_scan", "android": "https://dc.lft.to/lastmile_qr_scan"}, "name": "689fa8f9092ed3bc599de2453fce38a6", "lon": -77.04250683333333}, {"lat": 38.9306025, "fusion_lat": 0.0, "is_disabled": 0, "fusion_lon": 0.0, "type": "electric_scooter", "bike_id": "9e7d1444be99969f4c27b3c1db2e3254", "is_reserved": 0, "rental_uris": {"ios": "https://dc.lft.to/lastmile_qr_scan", "android": "https://dc.lft.to/lastmile_qr_scan"}, "name": "9e7d1444be99969f4c27b3c1db2e3254", "lon": -77.03941883333333}, {"lat": 38.952535, "fusion_lat": 0.0, "is_disabled": 0, "fusion_lon": 0.0, "type": "electric_scooter", "bike_id": "e6a063e5764ec8d70d30701062500aa4", "is_reserved": 0, "rental_uris": {"ios": "https://dc.lft.to/lastmile_qr_scan", "android": "https://dc.lft.to/lastmile_qr_scan"}, "name": "e6a063e5764ec8d70d30701062500aa4", "lon": -77.0207595}, {"lat": 38.912505833333334, "fusion_lat": 0.0, "is_disabled": 0, "fusion_lon": 0.0, "type": "electric_scooter", "bike_id": "8c1ef3ffd03d36e4d95b4488ae37c951", "is_reserved": 0, "rental_uris": {"ios": "https://dc.lft.to/lastmile_qr_scan", "android": "https://dc.lft.to/lastmile_qr_scan"}, "name": "8c1ef3ffd03d36e4d95b4488ae37c951", "lon": -77.028094}, {"lat": 38.91752666666667, "fusion_lat": 0.0, "is_disabled": 0, "fusion_lon": 0.0, "type": "electric_scooter", "bike_id": "e5c295caed2d3cdd181d5f9e5c3a829c", "is_reserved": 0, "rental_uris": {"ios": "https://dc.lft.to/lastmile_qr_scan", "android": "https://dc.lft.to/lastmile_qr_scan"}, "name": "e5c295caed2d3cdd181d5f9e5c3a829c", "lon": -77.0212255}, {"lat": 38.905112833333334, "fusion_lat": 0.0, "is_disabled": 0, "fusion_lon": 0.0, "type": "electric_scooter", "bike_id": "efa456cdb71711ec1edd422b21ef5bbe", "is_reserved": 0, "rental_uris": {"ios": "https://dc.lft.to/lastmile_qr_scan", "android": "https://dc.lft.to/lastmile_qr_scan"}, "name": "efa456cdb71711ec1edd422b21ef5bbe", "lon": -77.0652375}, {"lat": 38.8990905, "fusion_lat": 0.0, "is_disabled": 0, "fusion_lon": 0.0, "type": "electric_scooter", "bike_id": "29556688e818ff01d963fade1e62e78a", "is_reserved": 0, "rental_uris": {"ios": "https://dc.lft.to/lastmile_qr_scan", "android": "https://dc.lft.to/lastmile_qr_scan"}, "name": "29556688e818ff01d963fade1e62e78a", "lon": -77.0230305}, {"lat": 38.898242333333336, "fusion_lat": 0.0, "is_disabled": 0, "fusion_lon": 0.0, "type": "electric_scooter", "bike_id": "bedb3c4d0b3bfc442ea956cea952c52e", "is_reserved": 0, "rental_uris": {"ios": "https://dc.lft.to/lastmile_qr_scan", "android": "https://dc.lft.to/lastmile_qr_scan"}, "name": "bedb3c4d0b3bfc442ea956cea952c52e", "lon": -77.04612533333334}, {"lat": 38.890064833333334, "fusion_lat": 0.0, "is_disabled": 0, "fusion_lon": 0.0, "type": "electric_scooter", "bike_id": "dfdf2759d9e5c6f09bc734f880aa17fe", "is_reserved": 0, "rental_uris": {"ios": "https://dc.lft.to/lastmile_qr_scan", "android": "https://dc.lft.to/lastmile_qr_scan"}, "name": "dfdf2759d9e5c6f09bc734f880aa17fe", "lon": -76.9374655}, {"lat": 38.91042566666667, "fusion_lat": 0.0, "is_disabled": 0, "fusion_lon": 0.0, "type": "electric_scooter", "bike_id": "488daa55ce1c464236100b9f31b237f2", "is_reserved": 0, "rental_uris": {"ios": "https://dc.lft.to/lastmile_qr_scan", "android": "https://dc.lft.to/lastmile_qr_scan"}, "name": "488daa55ce1c464236100b9f31b237f2", "lon": -77.0409135}, {"lat": 38.87436266666667, "fusion_lat": 0.0, "is_disabled": 0, "fusion_lon": 0.0, "type": "electric_scooter", "bike_id": "6b75e5c7aef6c26801844a2e8f1f1fe8", "is_reserved": 0, "rental_uris": {"ios": "https://dc.lft.to/lastmile_qr_scan", "android": "https://dc.lft.to/lastmile_qr_scan"}, "name": "6b75e5c7aef6c26801844a2e8f1f1fe8", "lon": -77.00037983333333}, {"lat": 38.924085, "fusion_lat": 0.0, "is_disabled": 0, "fusion_lon": 0.0, "type": "electric_scooter", "bike_id": "ba1da8569b0ef6f6c6a74fbf773756fa", "is_reserved": 0, "rental_uris": {"ios": "https://dc.lft.to/lastmile_qr_scan", "android": "https://dc.lft.to/lastmile_qr_scan"}, "name": "ba1da8569b0ef6f6c6a74fbf773756fa", "lon": -77.02262016666667}, {"lat": 38.87925583333333, "fusion_lat": 0.0, "is_disabled": 0, "fusion_lon": 0.0, "type": "electric_bike", "bike_id": "2c7bf3c4566232b3caa80d9985b5188c", "is_reserved": 0, "rental_uris": {"ios": "https://dc.lft.to/lastmile_qr_scan", "android": "https://dc.lft.to/lastmile_qr_scan"}, "name": "2c7bf3c4566232b3caa80d9985b5188c", "lon": -77.01379466666667}, {"lat": 38.883572666666666, "fusion_lat": 0.0, "is_disabled": 0, "fusion_lon": 0.0, "type": "electric_scooter", "bike_id": "4e9f6b82644cc880e9e5a8b8e0c0f094", "is_reserved": 0, "rental_uris": {"ios": "https://dc.lft.to/lastmile_qr_scan", "android": "https://dc.lft.to/lastmile_qr_scan"}, "name": "4e9f6b82644cc880e9e5a8b8e0c0f094", "lon": -76.95769633333333}, {"lat": 38.89847366666667, "fusion_lat": 0.0, "is_disabled": 0, "fusion_lon": 0.0, "type": "electric_scooter", "bike_id": "472d102a2c55bc3b271c3504454680bf", "is_reserved": 0, "rental_uris": {"ios": "https://dc.lft.to/lastmile_qr_scan", "android": "https://dc.lft.to/lastmile_qr_scan"}, "name": "472d102a2c55bc3b271c3504454680bf", "lon": -76.938152}, {"lat": 38.89898483333333, "fusion_lat": 0.0, "is_disabled": 0, "fusion_lon": 0.0, "type": "electric_scooter", "bike_id": "ddd7e6ee8cbc4b3fbb6b0d3793022bf1", "is_reserved": 0, "rental_uris": {"ios": "https://dc.lft.to/lastmile_qr_scan", "android": "https://dc.lft.to/lastmile_qr_scan"}, "name": "ddd7e6ee8cbc4b3fbb6b0d3793022bf1", "lon": -77.00321283333334}, {"lat": 38.924169, "fusion_lat": 0.0, "is_disabled": 0, "fusion_lon": 0.0, "type": "electric_scooter", "bike_id": "f9365e8c3f1c6cbc9e6fcd3429187d63", "is_reserved": 0, "rental_uris": {"ios": "https://dc.lft.to/lastmile_qr_scan", "android": "https://dc.lft.to/lastmile_qr_scan"}, "name": "f9365e8c3f1c6cbc9e6fcd3429187d63", "lon": -77.01950866666667}, {"lat": 38.926134166666664, "fusion_lat": 0.0, "is_disabled": 0, "fusion_lon": 0.0, "type": "electric_scooter", "bike_id": "d19d5cda167840cfb0f53f9ea7e8b3a0", "is_reserved": 0, "rental_uris": {"ios": "https://dc.lft.to/lastmile_qr_scan", "android": "https://dc.lft.to/lastmile_qr_scan"}, "name": "d19d5cda167840cfb0f53f9ea7e8b3a0", "lon": -77.02160816666667}, {"lat": 38.89728433333333, "fusion_lat": 0.0, "is_disabled": 0, "fusion_lon": 0.0, "type": "electric_scooter", "bike_id": "49c1837b6087a602df13d025797f03f1", "is_reserved": 0, "rental_uris": {"ios": "https://dc.lft.to/lastmile_qr_scan", "android": "https://dc.lft.to/lastmile_qr_scan"}, "name": "49c1837b6087a602df13d025797f03f1", "lon": -77.01917166666667}, {"lat": 38.907677, "fusion_lat": 0.0, "is_disabled": 0, "fusion_lon": 0.0, "type": "electric_scooter", "bike_id": "6b2a04fe93f073395b7292fdf153205b", "is_reserved": 0, "rental_uris": {"ios": "https://dc.lft.to/lastmile_qr_scan", "android": "https://dc.lft.to/lastmile_qr_scan"}, "name": "6b2a04fe93f073395b7292fdf153205b", "lon": -77.0351615}, {"lat": 38.931279833333335, "fusion_lat": 0.0, "is_disabled": 0, "fusion_lon": 0.0, "type": "electric_scooter", "bike_id": "5c4e70cf507178dd688995c9569d5212", "is_reserved": 0, "rental_uris": {"ios": "https://dc.lft.to/lastmile_qr_scan", "android": "https://dc.lft.to/lastmile_qr_scan"}, "name": "5c4e70cf507178dd688995c9569d5212", "lon": -77.02270416666667}, {"lat": 38.898286166666665, "fusion_lat": 0.0, "is_disabled": 0, "fusion_lon": 0.0, "type": "electric_scooter", "bike_id": "0abc3daa5c94da5e17295a9d09c20297", "is_reserved": 0, "rental_uris": {"ios": "https://dc.lft.to/lastmile_qr_scan", "android": "https://dc.lft.to/lastmile_qr_scan"}, "name": "0abc3daa5c94da5e17295a9d09c20297", "lon": -76.9465385}, {"lat": 38.926426666666664, "fusion_lat": 0.0, "is_disabled": 0, "fusion_lon": 0.0, "type": "electric_scooter", "bike_id": "bd3e51741d459c1f9ac22caf3e06b956", "is_reserved": 0, "rental_uris": {"ios": "https://dc.lft.to/lastmile_qr_scan", "android": "https://dc.lft.to/lastmile_qr_scan"}, "name": "bd3e51741d459c1f9ac22caf3e06b956", "lon": -77.03301966666666}, {"lat": 38.927487166666666, "fusion_lat": 0.0, "is_disabled": 0, "fusion_lon": 0.0, "type": "electric_scooter", "bike_id": "d997a46971fa2649c222ef3b43e4fad6", "is_reserved": 0, "rental_uris": {"ios": "https://dc.lft.to/lastmile_qr_scan", "android": "https://dc.lft.to/lastmile_qr_scan"}, "name": "d997a46971fa2649c222ef3b43e4fad6", "lon": -77.03356666666667}, {"lat": 38.90010983333333, "fusion_lat": 0.0, "is_disabled": 0, "fusion_lon": 0.0, "type": "electric_scooter", "bike_id": "1c959d1d4ee8aa8eeec77605cb4745f0", "is_reserved": 0, "rental_uris": {"ios": "https://dc.lft.to/lastmile_qr_scan", "android": "https://dc.lft.to/lastmile_qr_scan"}, "name": "1c959d1d4ee8aa8eeec77605cb4745f0", "lon": -77.01161433333333}, {"lat": 38.8898825, "fusion_lat": 0.0, "is_disabled": 0, "fusion_lon": 0.0, "type": "electric_scooter", "bike_id": "6979fb0863b001e6206544b1ee327d37", "is_reserved": 0, "rental_uris": {"ios": "https://dc.lft.to/lastmile_qr_scan", "android": "https://dc.lft.to/lastmile_qr_scan"}, "name": "6979fb0863b001e6206544b1ee327d37", "lon": -76.98814766666666}, {"lat": 38.9199815, "fusion_lat": 0.0, "is_disabled": 0, "fusion_lon": 0.0, "type": "electric_scooter", "bike_id": "8fbb1db461e917e4571e4b5a77b31a0c", "is_reserved": 0, "rental_uris": {"ios": "https://dc.lft.to/lastmile_qr_scan", "android": "https://dc.lft.to/lastmile_qr_scan"}, "name": "8fbb1db461e917e4571e4b5a77b31a0c", "lon": -77.03281783333334}, {"lat": 38.98010083333333, "fusion_lat": 0.0, "is_disabled": 0, "fusion_lon": 0.0, "type": "electric_bike", "bike_id": "de5a82d8d4deb10696802e8741086aa2", "is_reserved": 0, "rental_uris": {"ios": "https://dc.lft.to/lastmile_qr_scan", "android": "https://dc.lft.to/lastmile_qr_scan"}, "name": "de5a82d8d4deb10696802e8741086aa2", "lon": -77.06407216666666}, {"lat": 38.896447, "fusion_lat": 0.0, "is_disabled": 0, "fusion_lon": 0.0, "type": "electric_scooter", "bike_id": "3c8935b77b6cbae5459051ede6d939ce", "is_reserved": 0, "rental_uris": {"ios": "https://dc.lft.to/lastmile_qr_scan", "android": "https://dc.lft.to/lastmile_qr_scan"}, "name": "3c8935b77b6cbae5459051ede6d939ce", "lon": -77.00912766666667}, {"lat": 38.857839, "fusion_lat": 0.0, "is_disabled": 0, "fusion_lon": 0.0, "type": "electric_bike", "bike_id": "21885fb0cecaef5503be0e5d84c6523f", "is_reserved": 0, "rental_uris": {"ios": "https://dc.lft.to/lastmile_qr_scan", "android": "https://dc.lft.to/lastmile_qr_scan"}, "name": "21885fb0cecaef5503be0e5d84c6523f", "lon": -76.9875995}, {"lat": 38.9263115, "fusion_lat": 0.0, "is_disabled": 0, "fusion_lon": 0.0, "type": "electric_scooter", "bike_id": "52ccb341e31fc4ab53d679bdaff56585", "is_reserved": 0, "rental_uris": {"ios": "https://dc.lft.to/lastmile_qr_scan", "android": "https://dc.lft.to/lastmile_qr_scan"}, "name": "52ccb341e31fc4ab53d679bdaff56585", "lon": -77.02711}, {"lat": 38.90378616666667, "fusion_lat": 0.0, "is_disabled": 0, "fusion_lon": 0.0, "type": "electric_scooter", "bike_id": "8df92ccc68a188cc3cc938e69570a386", "is_reserved": 0, "rental_uris": {"ios": "https://dc.lft.to/lastmile_qr_scan", "android": "https://dc.lft.to/lastmile_qr_scan"}, "name": "8df92ccc68a188cc3cc938e69570a386", "lon": -77.034485}, {"lat": 38.947192333333334, "fusion_lat": 0.0, "is_disabled": 0, "fusion_lon": 0.0, "type": "electric_bike", "bike_id": "b1765552abade5d590295c12654fb40c", "is_reserved": 0, "rental_uris": {"ios": "https://dc.lft.to/lastmile_qr_scan", "android": "https://dc.lft.to/lastmile_qr_scan"}, "name": "b1765552abade5d590295c12654fb40c", "lon": -77.09876033333333}, {"lat": 38.9087855, "fusion_lat": 0.0, "is_disabled": 0, "fusion_lon": 0.0, "type": "electric_scooter", "bike_id": "46180d473c2044ab925f1653d15bbeab", "is_reserved": 0, "rental_uris": {"ios": "https://dc.lft.to/lastmile_qr_scan", "android": "https://dc.lft.to/lastmile_qr_scan"}, "name": "46180d473c2044ab925f1653d15bbeab", "lon": -77.02295016666666}, {"lat": 38.884719, "fusion_lat": 0.0, "is_disabled": 0, "fusion_lon": 0.0, "type": "electric_scooter", "bike_id": "4a26a3c9b5945f6381216113e12139c3", "is_reserved": 0, "rental_uris": {"ios": "https://dc.lft.to/lastmile_qr_scan", "android": "https://dc.lft.to/lastmile_qr_scan"}, "name": "4a26a3c9b5945f6381216113e12139c3", "lon": -77.02368366666667}, {"lat": 38.935381, "fusion_lat": 0.0, "is_disabled": 0, "fusion_lon": 0.0, "type": "electric_scooter", "bike_id": "560f507bdb3a4c18f95d1789f86401f0", "is_reserved": 0, "rental_uris": {"ios": "https://dc.lft.to/lastmile_qr_scan", "android": "https://dc.lft.to/lastmile_qr_scan"}, "name": "560f507bdb3a4c18f95d1789f86401f0", "lon": -77.02351133333333}, {"lat": 38.925017, "fusion_lat": 0.0, "is_disabled": 0, "fusion_lon": 0.0, "type": "electric_scooter", "bike_id": "6e32c68e670e277db2d1860b796bb83c", "is_reserved": 0, "rental_uris": {"ios": "https://dc.lft.to/lastmile_qr_scan", "android": "https://dc.lft.to/lastmile_qr_scan"}, "name": "6e32c68e670e277db2d1860b796bb83c", "lon": -77.021662}, {"lat": 38.897913, "fusion_lat": 0.0, "is_disabled": 0, "fusion_lon": 0.0, "type": "electric_scooter", "bike_id": "7cffc8c972d8259e26f4e354da628648", "is_reserved": 0, "rental_uris": {"ios": "https://dc.lft.to/lastmile_qr_scan", "android": "https://dc.lft.to/lastmile_qr_scan"}, "name": "7cffc8c972d8259e26f4e354da628648", "lon": -77.0118915}, {"lat": 38.92026666666667, "fusion_lat": 0.0, "is_disabled": 0, "fusion_lon": 0.0, "type": "electric_scooter", "bike_id": "be5ba2439f03895b11d03d335fc306ef", "is_reserved": 0, "rental_uris": {"ios": "https://dc.lft.to/lastmile_qr_scan", "android": "https://dc.lft.to/lastmile_qr_scan"}, "name": "be5ba2439f03895b11d03d335fc306ef", "lon": -77.0419585}, {"lat": 38.909521, "fusion_lat": 0.0, "is_disabled": 0, "fusion_lon": 0.0, "type": "electric_scooter", "bike_id": "45bdb0356473e48bccc3df4a63de95f3", "is_reserved": 0, "rental_uris": {"ios": "https://dc.lft.to/lastmile_qr_scan", "android": "https://dc.lft.to/lastmile_qr_scan"}, "name": "45bdb0356473e48bccc3df4a63de95f3", "lon": -76.98538583333334}, {"lat": 38.900150333333336, "fusion_lat": 0.0, "is_disabled": 0, "fusion_lon": 0.0, "type": "electric_scooter", "bike_id": "cbb2f48549618152b4e23d5b28b86a2b", "is_reserved": 0, "rental_uris": {"ios": "https://dc.lft.to/lastmile_qr_scan", "android": "https://dc.lft.to/lastmile_qr_scan"}, "name": "cbb2f48549618152b4e23d5b28b86a2b", "lon": -77.01164116666666}, {"lat": 38.89838733333333, "fusion_lat": 0.0, "is_disabled": 0, "fusion_lon": 0.0, "type": "electric_scooter", "bike_id": "6128d385fd84128222a5d696e12f3e74", "is_reserved": 0, "rental_uris": {"ios": "https://dc.lft.to/lastmile_qr_scan", "android": "https://dc.lft.to/lastmile_qr_scan"}, "name": "6128d385fd84128222a5d696e12f3e74", "lon": -77.02280566666667}, {"lat": 38.92366716666667, "fusion_lat": 0.0, "is_disabled": 0, "fusion_lon": 0.0, "type": "electric_scooter", "bike_id": "bca7adc412cd0d561f651c463d9f0f79", "is_reserved": 0, "rental_uris": {"ios": "https://dc.lft.to/lastmile_qr_scan", "android": "https://dc.lft.to/lastmile_qr_scan"}, "name": "bca7adc412cd0d561f651c463d9f0f79", "lon": -77.03162683333333}, {"lat": 38.943222166666665, "fusion_lat": 0.0, "is_disabled": 0, "fusion_lon": 0.0, "type": "electric_scooter", "bike_id": "2275d5d7be4a1fcdf6f802aead46ca60", "is_reserved": 0, "rental_uris": {"ios": "https://dc.lft.to/lastmile_qr_scan", "android": "https://dc.lft.to/lastmile_qr_scan"}, "name": "2275d5d7be4a1fcdf6f802aead46ca60", "lon": -77.07320733333333}, {"lat": 38.915636166666665, "fusion_lat": 0.0, "is_disabled": 0, "fusion_lon": 0.0, "type": "electric_scooter", "bike_id": "813af60f2f67eefe5d5458d4110bfc45", "is_reserved": 0, "rental_uris": {"ios": "https://dc.lft.to/lastmile_qr_scan", "android": "https://dc.lft.to/lastmile_qr_scan"}, "name": "813af60f2f67eefe5d5458d4110bfc45", "lon": -77.04643083333333}, {"lat": 38.902402, "fusion_lat": 0.0, "is_disabled": 0, "fusion_lon": 0.0, "type": "electric_scooter", "bike_id": "d142c8aa8ef6d7e82bdc395d351fa570", "is_reserved": 0, "rental_uris": {"ios": "https://dc.lft.to/lastmile_qr_scan", "android": "https://dc.lft.to/lastmile_qr_scan"}, "name": "d142c8aa8ef6d7e82bdc395d351fa570", "lon": -77.02689416666666}, {"lat": 38.91708083333333, "fusion_lat": 0.0, "is_disabled": 0, "fusion_lon": 0.0, "type": "electric_scooter", "bike_id": "b72915cc3fdca3835fe56f095dc93c99", "is_reserved": 0, "rental_uris": {"ios": "https://dc.lft.to/lastmile_qr_scan", "android": "https://dc.lft.to/lastmile_qr_scan"}, "name": "b72915cc3fdca3835fe56f095dc93c99", "lon": -77.02651533333334}, {"lat": 38.8792185, "fusion_lat": 0.0, "is_disabled": 0, "fusion_lon": 0.0, "type": "electric_scooter", "bike_id": "d495e04e06aa9a4d84eff2fcc775de92", "is_reserved": 0, "rental_uris": {"ios": "https://dc.lft.to/lastmile_qr_scan", "android": "https://dc.lft.to/lastmile_qr_scan"}, "name": "d495e04e06aa9a4d84eff2fcc775de92", "lon": -77.0133055}, {"lat": 38.854579666666666, "fusion_lat": 0.0, "is_disabled": 0, "fusion_lon": 0.0, "type": "electric_scooter", "bike_id": "cf916944f0b7f721205b47a98de0d045", "is_reserved": 0, "rental_uris": {"ios": "https://dc.lft.to/lastmile_qr_scan", "android": "https://dc.lft.to/lastmile_qr_scan"}, "name": "cf916944f0b7f721205b47a98de0d045", "lon": -76.98609466666667}, {"lat": 38.92407016666667, "fusion_lat": 0.0, "is_disabled": 0, "fusion_lon": 0.0, "type": "electric_scooter", "bike_id": "791168f80ec583f42b32b78c7f12c09c", "is_reserved": 0, "rental_uris": {"ios": "https://dc.lft.to/lastmile_qr_scan", "android": "https://dc.lft.to/lastmile_qr_scan"}, "name": "791168f80ec583f42b32b78c7f12c09c", "lon": -77.02004266666667}, {"lat": 38.90221566666666, "fusion_lat": 0.0, "is_disabled": 0, "fusion_lon": 0.0, "type": "electric_scooter", "bike_id": "8c507debbe4658d5de4cad809017b20d", "is_reserved": 0, "rental_uris": {"ios": "https://dc.lft.to/lastmile_qr_scan", "android": "https://dc.lft.to/lastmile_qr_scan"}, "name": "8c507debbe4658d5de4cad809017b20d", "lon": -77.02363816666667}, {"lat": 38.93290066666667, "fusion_lat": 0.0, "is_disabled": 0, "fusion_lon": 0.0, "type": "electric_scooter", "bike_id": "eb9318705cf3e0a6f1b75b545bc7bcc4", "is_reserved": 0, "rental_uris": {"ios": "https://dc.lft.to/lastmile_qr_scan", "android": "https://dc.lft.to/lastmile_qr_scan"}, "name": "eb9318705cf3e0a6f1b75b545bc7bcc4", "lon": -76.98649333333333}, {"lat": 38.91922816666667, "fusion_lat": 0.0, "is_disabled": 0, "fusion_lon": 0.0, "type": "electric_scooter", "bike_id": "a1ec558df1544cc3cd78f4fd2f6c3ea4", "is_reserved": 0, "rental_uris": {"ios": "https://dc.lft.to/lastmile_qr_scan", "android": "https://dc.lft.to/lastmile_qr_scan"}, "name": "a1ec558df1544cc3cd78f4fd2f6c3ea4", "lon": -77.0342035}, {"lat": 38.97439133333334, "fusion_lat": 0.0, "is_disabled": 0, "fusion_lon": 0.0, "type": "electric_bike", "bike_id": "46760df0aaddf8f25cbe45f9ee311a20", "is_reserved": 0, "rental_uris": {"ios": "https://dc.lft.to/lastmile_qr_scan", "android": "https://dc.lft.to/lastmile_qr_scan"}, "name": "46760df0aaddf8f25cbe45f9ee311a20", "lon": -77.09615933333333}, {"lat": 38.91107233333334, "fusion_lat": 0.0, "is_disabled": 0, "fusion_lon": 0.0, "type": "electric_scooter", "bike_id": "8698341d98705831024f69f3150a1280", "is_reserved": 0, "rental_uris": {"ios": "https://dc.lft.to/lastmile_qr_scan", "android": "https://dc.lft.to/lastmile_qr_scan"}, "name": "8698341d98705831024f69f3150a1280", "lon": -77.0114985}, {"lat": 38.96780866666667, "fusion_lat": 0.0, "is_disabled": 0, "fusion_lon": 0.0, "type": "electric_bike", "bike_id": "90e890b8e07409be1575bd4b15cd5e8b", "is_reserved": 0, "rental_uris": {"ios": "https://dc.lft.to/lastmile_qr_scan", "android": "https://dc.lft.to/lastmile_qr_scan"}, "name": "90e890b8e07409be1575bd4b15cd5e8b", "lon": -76.99646683333333}, {"lat": 38.899727166666665, "fusion_lat": 0.0, "is_disabled": 0, "fusion_lon": 0.0, "type": "electric_scooter", "bike_id": "1bc72109c3fea7cb2570deee82526aa4", "is_reserved": 0, "rental_uris": {"ios": "https://dc.lft.to/lastmile_qr_scan", "android": "https://dc.lft.to/lastmile_qr_scan"}, "name": "1bc72109c3fea7cb2570deee82526aa4", "lon": -76.99487316666666}, {"lat": 38.928514166666666, "fusion_lat": 0.0, "is_disabled": 0, "fusion_lon": 0.0, "type": "electric_scooter", "bike_id": "37a29aa2f694ebfb5a00fcfeaf6f8a28", "is_reserved": 0, "rental_uris": {"ios": "https://dc.lft.to/lastmile_qr_scan", "android": "https://dc.lft.to/lastmile_qr_scan"}, "name": "37a29aa2f694ebfb5a00fcfeaf6f8a28", "lon": -77.05440866666666}, {"lat": 38.877605333333335, "fusion_lat": 0.0, "is_disabled": 0, "fusion_lon": 0.0, "type": "electric_scooter", "bike_id": "9882a1994ef339e6711d50aad54ac026", "is_reserved": 0, "rental_uris": {"ios": "https://dc.lft.to/lastmile_qr_scan", "android": "https://dc.lft.to/lastmile_qr_scan"}, "name": "9882a1994ef339e6711d50aad54ac026", "lon": -77.01892783333334}, {"lat": 38.9668165, "fusion_lat": 0.0, "is_disabled": 0, "fusion_lon": 0.0, "type": "electric_scooter", "bike_id": "72268a9da31372827d029e06aa6554f4", "is_reserved": 0, "rental_uris": {"ios": "https://dc.lft.to/lastmile_qr_scan", "android": "https://dc.lft.to/lastmile_qr_scan"}, "name": "72268a9da31372827d029e06aa6554f4", "lon": -77.03400533333334}, {"lat": 38.881817833333336, "fusion_lat": 0.0, "is_disabled": 0, "fusion_lon": 0.0, "type": "electric_scooter", "bike_id": "83db0c2fa232dd3d6eb603cb443994ff", "is_reserved": 0, "rental_uris": {"ios": "https://dc.lft.to/lastmile_qr_scan", "android": "https://dc.lft.to/lastmile_qr_scan"}, "name": "83db0c2fa232dd3d6eb603cb443994ff", "lon": -77.0174315}, {"lat": 38.90169066666667, "fusion_lat": 0.0, "is_disabled": 0, "fusion_lon": 0.0, "type": "electric_scooter", "bike_id": "3f587889789ca63fadac1a1e0727ebb1", "is_reserved": 0, "rental_uris": {"ios": "https://dc.lft.to/lastmile_qr_scan", "android": "https://dc.lft.to/lastmile_qr_scan"}, "name": "3f587889789ca63fadac1a1e0727ebb1", "lon": -77.05126433333334}, {"lat": 38.91957266666667, "fusion_lat": 0.0, "is_disabled": 0, "fusion_lon": 0.0, "type": "electric_scooter", "bike_id": "20b101195d355909aaa853414deb3385", "is_reserved": 0, "rental_uris": {"ios": "https://dc.lft.to/lastmile_qr_scan", "android": "https://dc.lft.to/lastmile_qr_scan"}, "name": "20b101195d355909aaa853414deb3385", "lon": -77.02515483333333}, {"lat": 38.906921833333335, "fusion_lat": 0.0, "is_disabled": 0, "fusion_lon": 0.0, "type": "electric_scooter", "bike_id": "932d925a6c1521bf0bbca3805f30c5b6", "is_reserved": 0, "rental_uris": {"ios": "https://dc.lft.to/lastmile_qr_scan", "android": "https://dc.lft.to/lastmile_qr_scan"}, "name": "932d925a6c1521bf0bbca3805f30c5b6", "lon": -77.02722333333334}, {"lat": 38.91983, "fusion_lat": 0.0, "is_disabled": 0, "fusion_lon": 0.0, "type": "electric_scooter", "bike_id": "a7bd37f9ec3ac63df664250f670f002c", "is_reserved": 0, "rental_uris": {"ios": "https://dc.lft.to/lastmile_qr_scan", "android": "https://dc.lft.to/lastmile_qr_scan"}, "name": "a7bd37f9ec3ac63df664250f670f002c", "lon": -77.04168583333333}, {"lat": 38.924636166666666, "fusion_lat": 0.0, "is_disabled": 0, "fusion_lon": 0.0, "type": "electric_scooter", "bike_id": "6f5351ddaaec4ae5079966558a0239bf", "is_reserved": 0, "rental_uris": {"ios": "https://dc.lft.to/lastmile_qr_scan", "android": "https://dc.lft.to/lastmile_qr_scan"}, "name": "6f5351ddaaec4ae5079966558a0239bf", "lon": -77.022417}, {"lat": 38.88580833333333, "fusion_lat": 0.0, "is_disabled": 0, "fusion_lon": 0.0, "type": "electric_scooter", "bike_id": "a9627bb7fdb78c98fdce11e8e5658b68", "is_reserved": 0, "rental_uris": {"ios": "https://dc.lft.to/lastmile_qr_scan", "android": "https://dc.lft.to/lastmile_qr_scan"}, "name": "a9627bb7fdb78c98fdce11e8e5658b68", "lon": -76.9543485}, {"lat": 38.9161785, "fusion_lat": 0.0, "is_disabled": 0, "fusion_lon": 0.0, "type": "electric_scooter", "bike_id": "fe107c024605b2222a1f280c0149bc1c", "is_reserved": 0, "rental_uris": {"ios": "https://dc.lft.to/lastmile_qr_scan", "android": "https://dc.lft.to/lastmile_qr_scan"}, "name": "fe107c024605b2222a1f280c0149bc1c", "lon": -77.02792133333334}, {"lat": 38.88850583333333, "fusion_lat": 0.0, "is_disabled": 0, "fusion_lon": 0.0, "type": "electric_scooter", "bike_id": "bdc8d686d22bad65d8d1655d01266470", "is_reserved": 0, "rental_uris": {"ios": "https://dc.lft.to/lastmile_qr_scan", "android": "https://dc.lft.to/lastmile_qr_scan"}, "name": "bdc8d686d22bad65d8d1655d01266470", "lon": -76.977328}, {"lat": 38.917102, "fusion_lat": 0.0, "is_disabled": 0, "fusion_lon": 0.0, "type": "electric_scooter", "bike_id": "3cfc5a023f4dac26592058fb286132e1", "is_reserved": 0, "rental_uris": {"ios": "https://dc.lft.to/lastmile_qr_scan", "android": "https://dc.lft.to/lastmile_qr_scan"}, "name": "3cfc5a023f4dac26592058fb286132e1", "lon": -77.02293733333333}, {"lat": 38.899777666666665, "fusion_lat": 0.0, "is_disabled": 0, "fusion_lon": 0.0, "type": "electric_scooter", "bike_id": "b6216125cd1cef4ba82aee4db06a6923", "is_reserved": 0, "rental_uris": {"ios": "https://dc.lft.to/lastmile_qr_scan", "android": "https://dc.lft.to/lastmile_qr_scan"}, "name": "b6216125cd1cef4ba82aee4db06a6923", "lon": -77.04199533333333}, {"lat": 38.87791466666667, "fusion_lat": 0.0, "is_disabled": 0, "fusion_lon": 0.0, "type": "electric_scooter", "bike_id": "7add40060bdcea4e101080a6e53e0027", "is_reserved": 0, "rental_uris": {"ios": "https://dc.lft.to/lastmile_qr_scan", "android": "https://dc.lft.to/lastmile_qr_scan"}, "name": "7add40060bdcea4e101080a6e53e0027", "lon": -76.9961}, {"lat": 38.924037, "fusion_lat": 0.0, "is_disabled": 0, "fusion_lon": 0.0, "type": "electric_scooter", "bike_id": "80b800f0f19dbfb60ca69f16c0caa8bd", "is_reserved": 0, "rental_uris": {"ios": "https://dc.lft.to/lastmile_qr_scan", "android": "https://dc.lft.to/lastmile_qr_scan"}, "name": "80b800f0f19dbfb60ca69f16c0caa8bd", "lon": -77.0404825}, {"lat": 38.91893266666666, "fusion_lat": 0.0, "is_disabled": 0, "fusion_lon": 0.0, "type": "electric_scooter", "bike_id": "b3b6097cde9b06ad9ee7e9d2ac97ef57", "is_reserved": 0, "rental_uris": {"ios": "https://dc.lft.to/lastmile_qr_scan", "android": "https://dc.lft.to/lastmile_qr_scan"}, "name": "b3b6097cde9b06ad9ee7e9d2ac97ef57", "lon": -76.96897766666666}, {"lat": 38.902440666666664, "fusion_lat": 0.0, "is_disabled": 0, "fusion_lon": 0.0, "type": "electric_scooter", "bike_id": "3f4793f27bc1db355c5e8cd737f8f1f6", "is_reserved": 0, "rental_uris": {"ios": "https://dc.lft.to/lastmile_qr_scan", "android": "https://dc.lft.to/lastmile_qr_scan"}, "name": "3f4793f27bc1db355c5e8cd737f8f1f6", "lon": -77.00182116666667}, {"lat": 38.90172733333333, "fusion_lat": 0.0, "is_disabled": 0, "fusion_lon": 0.0, "type": "electric_scooter", "bike_id": "d5004eb0f8c4ee1e64152b79df4435c9", "is_reserved": 0, "rental_uris": {"ios": "https://dc.lft.to/lastmile_qr_scan", "android": "https://dc.lft.to/lastmile_qr_scan"}, "name": "d5004eb0f8c4ee1e64152b79df4435c9", "lon": -76.92949966666667}, {"lat": 38.885592, "fusion_lat": 0.0, "is_disabled": 0, "fusion_lon": 0.0, "type": "electric_scooter", "bike_id": "f5c655ad727372229f08e432c306875c", "is_reserved": 0, "rental_uris": {"ios": "https://dc.lft.to/lastmile_qr_scan", "android": "https://dc.lft.to/lastmile_qr_scan"}, "name": "f5c655ad727372229f08e432c306875c", "lon": -77.02007483333334}, {"lat": 38.88690283333333, "fusion_lat": 0.0, "is_disabled": 0, "fusion_lon": 0.0, "type": "electric_scooter", "bike_id": "98c4c56213d7587a2ca0fe597cf89727", "is_reserved": 0, "rental_uris": {"ios": "https://dc.lft.to/lastmile_qr_scan", "android": "https://dc.lft.to/lastmile_qr_scan"}, "name": "98c4c56213d7587a2ca0fe597cf89727", "lon": -76.97642016666667}, {"lat": 38.87735933333333, "fusion_lat": 0.0, "is_disabled": 0, "fusion_lon": 0.0, "type": "electric_scooter", "bike_id": "66d85d756da7171c0b2c57706a94f718", "is_reserved": 0, "rental_uris": {"ios": "https://dc.lft.to/lastmile_qr_scan", "android": "https://dc.lft.to/lastmile_qr_scan"}, "name": "66d85d756da7171c0b2c57706a94f718", "lon": -77.0106155}, {"lat": 38.91947533333333, "fusion_lat": 0.0, "is_disabled": 0, "fusion_lon": 0.0, "type": "electric_scooter", "bike_id": "58d4b4ece186b744407042d69e4035a4", "is_reserved": 0, "rental_uris": {"ios": "https://dc.lft.to/lastmile_qr_scan", "android": "https://dc.lft.to/lastmile_qr_scan"}, "name": "58d4b4ece186b744407042d69e4035a4", "lon": -77.023393}, {"lat": 38.927589, "fusion_lat": 0.0, "is_disabled": 0, "fusion_lon": 0.0, "type": "electric_scooter", "bike_id": "eda3a17eaaa7ecfb2a5da5b41f002fae", "is_reserved": 0, "rental_uris": {"ios": "https://dc.lft.to/lastmile_qr_scan", "android": "https://dc.lft.to/lastmile_qr_scan"}, "name": "eda3a17eaaa7ecfb2a5da5b41f002fae", "lon": -77.0330535}, {"lat": 38.920365333333336, "fusion_lat": 0.0, "is_disabled": 0, "fusion_lon": 0.0, "type": "electric_scooter", "bike_id": "7647eb05be78912aa172b13189914027", "is_reserved": 0, "rental_uris": {"ios": "https://dc.lft.to/lastmile_qr_scan", "android": "https://dc.lft.to/lastmile_qr_scan"}, "name": "7647eb05be78912aa172b13189914027", "lon": -77.03402883333334}, {"lat": 38.91938283333333, "fusion_lat": 0.0, "is_disabled": 0, "fusion_lon": 0.0, "type": "electric_scooter", "bike_id": "81a76766f2f8b34fe55a89fab8fba02b", "is_reserved": 0, "rental_uris": {"ios": "https://dc.lft.to/lastmile_qr_scan", "android": "https://dc.lft.to/lastmile_qr_scan"}, "name": "81a76766f2f8b34fe55a89fab8fba02b", "lon": -77.01352716666666}, {"lat": 38.90166416666667, "fusion_lat": 0.0, "is_disabled": 0, "fusion_lon": 0.0, "type": "electric_scooter", "bike_id": "b0ea4d088b90319731b9c6a60698031e", "is_reserved": 0, "rental_uris": {"ios": "https://dc.lft.to/lastmile_qr_scan", "android": "https://dc.lft.to/lastmile_qr_scan"}, "name": "b0ea4d088b90319731b9c6a60698031e", "lon": -77.05132583333334}, {"lat": 38.926244833333335, "fusion_lat": 0.0, "is_disabled": 0, "fusion_lon": 0.0, "type": "electric_scooter", "bike_id": "42281ba528e22ee188693206ea91308a", "is_reserved": 0, "rental_uris": {"ios": "https://dc.lft.to/lastmile_qr_scan", "android": "https://dc.lft.to/lastmile_qr_scan"}, "name": "42281ba528e22ee188693206ea91308a", "lon": -77.07716316666667}, {"lat": 38.92199433333333, "fusion_lat": 0.0, "is_disabled": 0, "fusion_lon": 0.0, "type": "electric_scooter", "bike_id": "416e6dd7d1ea6fcdd1dbeec040b3bdcb", "is_reserved": 0, "rental_uris": {"ios": "https://dc.lft.to/lastmile_qr_scan", "android": "https://dc.lft.to/lastmile_qr_scan"}, "name": "416e6dd7d1ea6fcdd1dbeec040b3bdcb", "lon": -77.020541}, {"lat": 38.8765105, "fusion_lat": 0.0, "is_disabled": 0, "fusion_lon": 0.0, "type": "electric_scooter", "bike_id": "186d8add55d1808680dfe820fa58678e", "is_reserved": 0, "rental_uris": {"ios": "https://dc.lft.to/lastmile_qr_scan", "android": "https://dc.lft.to/lastmile_qr_scan"}, "name": "186d8add55d1808680dfe820fa58678e", "lon": -77.000599}, {"lat": 38.909565666666666, "fusion_lat": 0.0, "is_disabled": 0, "fusion_lon": 0.0, "type": "electric_scooter", "bike_id": "eb0e2e61a448395cf49df1f5086d6610", "is_reserved": 0, "rental_uris": {"ios": "https://dc.lft.to/lastmile_qr_scan", "android": "https://dc.lft.to/lastmile_qr_scan"}, "name": "eb0e2e61a448395cf49df1f5086d6610", "lon": -77.011853}, {"lat": 38.899278833333334, "fusion_lat": 0.0, "is_disabled": 0, "fusion_lon": 0.0, "type": "electric_scooter", "bike_id": "4be465f24375f7d96d187fcd0fe7e48b", "is_reserved": 0, "rental_uris": {"ios": "https://dc.lft.to/lastmile_qr_scan", "android": "https://dc.lft.to/lastmile_qr_scan"}, "name": "4be465f24375f7d96d187fcd0fe7e48b", "lon": -77.0400215}, {"lat": 38.924781, "fusion_lat": 0.0, "is_disabled": 0, "fusion_lon": 0.0, "type": "electric_scooter", "bike_id": "ee652b9c96e0fa187297566e809f8f0d", "is_reserved": 0, "rental_uris": {"ios": "https://dc.lft.to/lastmile_qr_scan", "android": "https://dc.lft.to/lastmile_qr_scan"}, "name": "ee652b9c96e0fa187297566e809f8f0d", "lon": -77.03541783333333}, {"lat": 38.91833483333333, "fusion_lat": 0.0, "is_disabled": 0, "fusion_lon": 0.0, "type": "electric_scooter", "bike_id": "f2ce197f246dfa80e84b6c91881857f9", "is_reserved": 0, "rental_uris": {"ios": "https://dc.lft.to/lastmile_qr_scan", "android": "https://dc.lft.to/lastmile_qr_scan"}, "name": "f2ce197f246dfa80e84b6c91881857f9", "lon": -77.04517333333334}, {"lat": 38.902448166666666, "fusion_lat": 0.0, "is_disabled": 0, "fusion_lon": 0.0, "type": "electric_scooter", "bike_id": "8dc49d9819a02a9c5e7c492d07bf9064", "is_reserved": 0, "rental_uris": {"ios": "https://dc.lft.to/lastmile_qr_scan", "android": "https://dc.lft.to/lastmile_qr_scan"}, "name": "8dc49d9819a02a9c5e7c492d07bf9064", "lon": -77.05163383333333}, {"lat": 38.914146, "fusion_lat": 0.0, "is_disabled": 0, "fusion_lon": 0.0, "type": "electric_scooter", "bike_id": "4ff72c7768310050c30e6f81b3e66733", "is_reserved": 0, "rental_uris": {"ios": "https://dc.lft.to/lastmile_qr_scan", "android": "https://dc.lft.to/lastmile_qr_scan"}, "name": "4ff72c7768310050c30e6f81b3e66733", "lon": -77.02218683333334}, {"lat": 38.92355933333333, "fusion_lat": 0.0, "is_disabled": 0, "fusion_lon": 0.0, "type": "electric_scooter", "bike_id": "625ed42a4da922668c44a369be332700", "is_reserved": 0, "rental_uris": {"ios": "https://dc.lft.to/lastmile_qr_scan", "android": "https://dc.lft.to/lastmile_qr_scan"}, "name": "625ed42a4da922668c44a369be332700", "lon": -77.020597}, {"lat": 38.925063, "fusion_lat": 0.0, "is_disabled": 0, "fusion_lon": 0.0, "type": "electric_scooter", "bike_id": "59dd96cecfd8550b4a3d781b6efe297f", "is_reserved": 0, "rental_uris": {"ios": "https://dc.lft.to/lastmile_qr_scan", "android": "https://dc.lft.to/lastmile_qr_scan"}, "name": "59dd96cecfd8550b4a3d781b6efe297f", "lon": -77.0366035}, {"lat": 38.822111666666665, "fusion_lat": 0.0, "is_disabled": 0, "fusion_lon": 0.0, "type": "electric_bike", "bike_id": "85c573e0660551441055251c3aa7d897", "is_reserved": 0, "rental_uris": {"ios": "https://dc.lft.to/lastmile_qr_scan", "android": "https://dc.lft.to/lastmile_qr_scan"}, "name": "85c573e0660551441055251c3aa7d897", "lon": -76.97708583333333}, {"lat": 38.90115016666667, "fusion_lat": 0.0, "is_disabled": 0, "fusion_lon": 0.0, "type": "electric_scooter", "bike_id": "700e0da66abee32a100854e7054c8ea3", "is_reserved": 0, "rental_uris": {"ios": "https://dc.lft.to/lastmile_qr_scan", "android": "https://dc.lft.to/lastmile_qr_scan"}, "name": "700e0da66abee32a100854e7054c8ea3", "lon": -77.02188066666666}, {"lat": 38.917535, "fusion_lat": 0.0, "is_disabled": 0, "fusion_lon": 0.0, "type": "electric_scooter", "bike_id": "9da04337fb41e337016bec6ee8c4beec", "is_reserved": 0, "rental_uris": {"ios": "https://dc.lft.to/lastmile_qr_scan", "android": "https://dc.lft.to/lastmile_qr_scan"}, "name": "9da04337fb41e337016bec6ee8c4beec", "lon": -77.02385983333333}, {"lat": 38.95847066666666, "fusion_lat": 0.0, "is_disabled": 0, "fusion_lon": 0.0, "type": "electric_scooter", "bike_id": "63860586f35eda8244a78f387822e541", "is_reserved": 0, "rental_uris": {"ios": "https://dc.lft.to/lastmile_qr_scan", "android": "https://dc.lft.to/lastmile_qr_scan"}, "name": "63860586f35eda8244a78f387822e541", "lon": -77.071676}, {"lat": 38.905038833333336, "fusion_lat": 0.0, "is_disabled": 0, "fusion_lon": 0.0, "type": "electric_scooter", "bike_id": "fa8b65ace93c02afafd29acd5fda63eb", "is_reserved": 0, "rental_uris": {"ios": "https://dc.lft.to/lastmile_qr_scan", "android": "https://dc.lft.to/lastmile_qr_scan"}, "name": "fa8b65ace93c02afafd29acd5fda63eb", "lon": -77.02957216666667}, {"lat": 38.907626666666665, "fusion_lat": 0.0, "is_disabled": 0, "fusion_lon": 0.0, "type": "electric_scooter", "bike_id": "ecb1d2d8a2bc729ff216b626b01d7500", "is_reserved": 0, "rental_uris": {"ios": "https://dc.lft.to/lastmile_qr_scan", "android": "https://dc.lft.to/lastmile_qr_scan"}, "name": "ecb1d2d8a2bc729ff216b626b01d7500", "lon": -77.04536083333333}, {"lat": 38.9051365, "fusion_lat": 0.0, "is_disabled": 0, "fusion_lon": 0.0, "type": "electric_scooter", "bike_id": "f33dcaaea1b706cb542c24a056c826f8", "is_reserved": 0, "rental_uris": {"ios": "https://dc.lft.to/lastmile_qr_scan", "android": "https://dc.lft.to/lastmile_qr_scan"}, "name": "f33dcaaea1b706cb542c24a056c826f8", "lon": -76.983939}, {"lat": 38.91351233333334, "fusion_lat": 0.0, "is_disabled": 0, "fusion_lon": 0.0, "type": "electric_scooter", "bike_id": "f35f6a2a938c0d1de60d6b983a9e609a", "is_reserved": 0, "rental_uris": {"ios": "https://dc.lft.to/lastmile_qr_scan", "android": "https://dc.lft.to/lastmile_qr_scan"}, "name": "f35f6a2a938c0d1de60d6b983a9e609a", "lon": -77.03185883333333}, {"lat": 38.92496033333333, "fusion_lat": 0.0, "is_disabled": 0, "fusion_lon": 0.0, "type": "electric_scooter", "bike_id": "f73a2beab23cb07a31a95dee3eed83ef", "is_reserved": 0, "rental_uris": {"ios": "https://dc.lft.to/lastmile_qr_scan", "android": "https://dc.lft.to/lastmile_qr_scan"}, "name": "f73a2beab23cb07a31a95dee3eed83ef", "lon": -77.03930833333334}, {"lat": 38.8973865, "fusion_lat": 0.0, "is_disabled": 0, "fusion_lon": 0.0, "type": "electric_scooter", "bike_id": "7646661185834ab994ee144055a1d4d4", "is_reserved": 0, "rental_uris": {"ios": "https://dc.lft.to/lastmile_qr_scan", "android": "https://dc.lft.to/lastmile_qr_scan"}, "name": "7646661185834ab994ee144055a1d4d4", "lon": -76.99215366666667}, {"lat": 38.914144, "fusion_lat": 0.0, "is_disabled": 0, "fusion_lon": 0.0, "type": "electric_scooter", "bike_id": "6c152bca6b4405ca29ebf425b5a80b6c", "is_reserved": 0, "rental_uris": {"ios": "https://dc.lft.to/lastmile_qr_scan", "android": "https://dc.lft.to/lastmile_qr_scan"}, "name": "6c152bca6b4405ca29ebf425b5a80b6c", "lon": -77.02216566666667}, {"lat": 38.89510083333333, "fusion_lat": 0.0, "is_disabled": 0, "fusion_lon": 0.0, "type": "electric_scooter", "bike_id": "a765e750cb66f53834b764326a51e579", "is_reserved": 0, "rental_uris": {"ios": "https://dc.lft.to/lastmile_qr_scan", "android": "https://dc.lft.to/lastmile_qr_scan"}, "name": "a765e750cb66f53834b764326a51e579", "lon": -77.0468205}, {"lat": 38.915709166666666, "fusion_lat": 0.0, "is_disabled": 0, "fusion_lon": 0.0, "type": "electric_scooter", "bike_id": "41c76e79269a2cc97753fd80b46108f4", "is_reserved": 0, "rental_uris": {"ios": "https://dc.lft.to/lastmile_qr_scan", "android": "https://dc.lft.to/lastmile_qr_scan"}, "name": "41c76e79269a2cc97753fd80b46108f4", "lon": -77.0198845}, {"lat": 38.89906166666667, "fusion_lat": 0.0, "is_disabled": 0, "fusion_lon": 0.0, "type": "electric_scooter", "bike_id": "29f1dcc6d98a18e5e8077ac08eeaf622", "is_reserved": 0, "rental_uris": {"ios": "https://dc.lft.to/lastmile_qr_scan", "android": "https://dc.lft.to/lastmile_qr_scan"}, "name": "29f1dcc6d98a18e5e8077ac08eeaf622", "lon": -77.0327745}, {"lat": 38.914735666666665, "fusion_lat": 0.0, "is_disabled": 0, "fusion_lon": 0.0, "type": "electric_scooter", "bike_id": "f302b89444229ef2ceec59a17496385f", "is_reserved": 0, "rental_uris": {"ios": "https://dc.lft.to/lastmile_qr_scan", "android": "https://dc.lft.to/lastmile_qr_scan"}, "name": "f302b89444229ef2ceec59a17496385f", "lon": -77.00884616666667}, {"lat": 38.900959, "fusion_lat": 0.0, "is_disabled": 0, "fusion_lon": 0.0, "type": "electric_scooter", "bike_id": "cac4c3419cac37b911453f5e0d211631", "is_reserved": 0, "rental_uris": {"ios": "https://dc.lft.to/lastmile_qr_scan", "android": "https://dc.lft.to/lastmile_qr_scan"}, "name": "cac4c3419cac37b911453f5e0d211631", "lon": -77.025221}, {"lat": 38.8973935, "fusion_lat": 0.0, "is_disabled": 0, "fusion_lon": 0.0, "type": "electric_scooter", "bike_id": "dab5866e1dee8fe6a0640e209d38652e", "is_reserved": 0, "rental_uris": {"ios": "https://dc.lft.to/lastmile_qr_scan", "android": "https://dc.lft.to/lastmile_qr_scan"}, "name": "dab5866e1dee8fe6a0640e209d38652e", "lon": -77.02454433333334}, {"lat": 38.899247, "fusion_lat": 0.0, "is_disabled": 0, "fusion_lon": 0.0, "type": "electric_scooter", "bike_id": "36883f77a66e8b7995533d1f0011d3b7", "is_reserved": 0, "rental_uris": {"ios": "https://dc.lft.to/lastmile_qr_scan", "android": "https://dc.lft.to/lastmile_qr_scan"}, "name": "36883f77a66e8b7995533d1f0011d3b7", "lon": -77.02809333333333}, {"lat": 38.89222133333333, "fusion_lat": 0.0, "is_disabled": 0, "fusion_lon": 0.0, "type": "electric_scooter", "bike_id": "7bc67e67c8860d193ac3adc25eb187a4", "is_reserved": 0, "rental_uris": {"ios": "https://dc.lft.to/lastmile_qr_scan", "android": "https://dc.lft.to/lastmile_qr_scan"}, "name": "7bc67e67c8860d193ac3adc25eb187a4", "lon": -77.02413883333334}, {"lat": 38.92286766666667, "fusion_lat": 0.0, "is_disabled": 0, "fusion_lon": 0.0, "type": "electric_scooter", "bike_id": "65e86506bb597f710ad68daeb2db38e7", "is_reserved": 0, "rental_uris": {"ios": "https://dc.lft.to/lastmile_qr_scan", "android": "https://dc.lft.to/lastmile_qr_scan"}, "name": "65e86506bb597f710ad68daeb2db38e7", "lon": -77.03665883333333}, {"lat": 38.9247255, "fusion_lat": 0.0, "is_disabled": 0, "fusion_lon": 0.0, "type": "electric_scooter", "bike_id": "1f0d277ef1c06bc4af0c19cfbe34a281", "is_reserved": 0, "rental_uris": {"ios": "https://dc.lft.to/lastmile_qr_scan", "android": "https://dc.lft.to/lastmile_qr_scan"}, "name": "1f0d277ef1c06bc4af0c19cfbe34a281", "lon": -77.02081683333333}, {"lat": 38.892536166666666, "fusion_lat": 0.0, "is_disabled": 0, "fusion_lon": 0.0, "type": "electric_scooter", "bike_id": "6b63666b0c7f550f3c1491124e7eb0eb", "is_reserved": 0, "rental_uris": {"ios": "https://dc.lft.to/lastmile_qr_scan", "android": "https://dc.lft.to/lastmile_qr_scan"}, "name": "6b63666b0c7f550f3c1491124e7eb0eb", "lon": -77.04501133333333}, {"lat": 38.89955583333333, "fusion_lat": 0.0, "is_disabled": 0, "fusion_lon": 0.0, "type": "electric_scooter", "bike_id": "0d10502755734832846890d0712b18d5", "is_reserved": 0, "rental_uris": {"ios": "https://dc.lft.to/lastmile_qr_scan", "android": "https://dc.lft.to/lastmile_qr_scan"}, "name": "0d10502755734832846890d0712b18d5", "lon": -77.04513733333333}, {"lat": 38.913649166666666, "fusion_lat": 0.0, "is_disabled": 0, "fusion_lon": 0.0, "type": "electric_scooter", "bike_id": "a954a14c69fb8d55cadc8a51e6815340", "is_reserved": 0, "rental_uris": {"ios": "https://dc.lft.to/lastmile_qr_scan", "android": "https://dc.lft.to/lastmile_qr_scan"}, "name": "a954a14c69fb8d55cadc8a51e6815340", "lon": -77.02052033333334}, {"lat": 38.9067575, "fusion_lat": 0.0, "is_disabled": 0, "fusion_lon": 0.0, "type": "electric_scooter", "bike_id": "256fd68c81ebdc8d01141335531a19de", "is_reserved": 0, "rental_uris": {"ios": "https://dc.lft.to/lastmile_qr_scan", "android": "https://dc.lft.to/lastmile_qr_scan"}, "name": "256fd68c81ebdc8d01141335531a19de", "lon": -77.0270815}, {"lat": 38.91764666666667, "fusion_lat": 0.0, "is_disabled": 0, "fusion_lon": 0.0, "type": "electric_scooter", "bike_id": "ef1d92e37ccd6520a62dd37543dfe42d", "is_reserved": 0, "rental_uris": {"ios": "https://dc.lft.to/lastmile_qr_scan", "android": "https://dc.lft.to/lastmile_qr_scan"}, "name": "ef1d92e37ccd6520a62dd37543dfe42d", "lon": -77.047522}, {"lat": 38.923668666666664, "fusion_lat": 0.0, "is_disabled": 0, "fusion_lon": 0.0, "type": "electric_scooter", "bike_id": "bdae2986a75512a30a5d8877d25396b3", "is_reserved": 0, "rental_uris": {"ios": "https://dc.lft.to/lastmile_qr_scan", "android": "https://dc.lft.to/lastmile_qr_scan"}, "name": "bdae2986a75512a30a5d8877d25396b3", "lon": -77.0195625}, {"lat": 38.91106083333333, "fusion_lat": 0.0, "is_disabled": 0, "fusion_lon": 0.0, "type": "electric_scooter", "bike_id": "1d6d5da4c9772291d4130c56f2c73c6a", "is_reserved": 0, "rental_uris": {"ios": "https://dc.lft.to/lastmile_qr_scan", "android": "https://dc.lft.to/lastmile_qr_scan"}, "name": "1d6d5da4c9772291d4130c56f2c73c6a", "lon": -77.02232733333334}, {"lat": 38.91924683333333, "fusion_lat": 0.0, "is_disabled": 0, "fusion_lon": 0.0, "type": "electric_scooter", "bike_id": "41f52bacbe3f7b36da335c0ee2fd4bf1", "is_reserved": 0, "rental_uris": {"ios": "https://dc.lft.to/lastmile_qr_scan", "android": "https://dc.lft.to/lastmile_qr_scan"}, "name": "41f52bacbe3f7b36da335c0ee2fd4bf1", "lon": -77.03425283333333}, {"lat": 38.8046255, "fusion_lat": 0.0, "is_disabled": 0, "fusion_lon": 0.0, "type": "electric_bike", "bike_id": "e0b26183bc2007f8077655d94c0c58b9", "is_reserved": 0, "rental_uris": {"ios": "https://dc.lft.to/lastmile_qr_scan", "android": "https://dc.lft.to/lastmile_qr_scan"}, "name": "e0b26183bc2007f8077655d94c0c58b9", "lon": -77.060793}, {"lat": 38.92337833333333, "fusion_lat": 0.0, "is_disabled": 0, "fusion_lon": 0.0, "type": "electric_scooter", "bike_id": "b342baa343df313688169df5fd6b70cd", "is_reserved": 0, "rental_uris": {"ios": "https://dc.lft.to/lastmile_qr_scan", "android": "https://dc.lft.to/lastmile_qr_scan"}, "name": "b342baa343df313688169df5fd6b70cd", "lon": -77.021376}, {"lat": 38.90039766666666, "fusion_lat": 0.0, "is_disabled": 0, "fusion_lon": 0.0, "type": "electric_scooter", "bike_id": "c2a83aa78642456fd9a8d989780fd185", "is_reserved": 0, "rental_uris": {"ios": "https://dc.lft.to/lastmile_qr_scan", "android": "https://dc.lft.to/lastmile_qr_scan"}, "name": "c2a83aa78642456fd9a8d989780fd185", "lon": -77.00211666666667}, {"lat": 38.906086333333334, "fusion_lat": 0.0, "is_disabled": 0, "fusion_lon": 0.0, "type": "electric_bike", "bike_id": "024c37c030ee54af6675ea6b89bb9512", "is_reserved": 0, "rental_uris": {"ios": "https://dc.lft.to/lastmile_qr_scan", "android": "https://dc.lft.to/lastmile_qr_scan"}, "name": "024c37c030ee54af6675ea6b89bb9512", "lon": -77.12890416666667}, {"lat": 38.9069785, "fusion_lat": 0.0, "is_disabled": 0, "fusion_lon": 0.0, "type": "electric_scooter", "bike_id": "dee4e08c505c4df03a2fa13b89498e43", "is_reserved": 0, "rental_uris": {"ios": "https://dc.lft.to/lastmile_qr_scan", "android": "https://dc.lft.to/lastmile_qr_scan"}, "name": "dee4e08c505c4df03a2fa13b89498e43", "lon": -77.02714433333334}, {"lat": 38.927214166666666, "fusion_lat": 0.0, "is_disabled": 0, "fusion_lon": 0.0, "type": "electric_scooter", "bike_id": "6cd38b7159b18737d1f4d1b47b63c645", "is_reserved": 0, "rental_uris": {"ios": "https://dc.lft.to/lastmile_qr_scan", "android": "https://dc.lft.to/lastmile_qr_scan"}, "name": "6cd38b7159b18737d1f4d1b47b63c645", "lon": -77.02301783333333}, {"lat": 38.860073666666665, "fusion_lat": 0.0, "is_disabled": 0, "fusion_lon": 0.0, "type": "electric_scooter", "bike_id": "e93d9920ee35436bbb529d53708ba5f7", "is_reserved": 0, "rental_uris": {"ios": "https://dc.lft.to/lastmile_qr_scan", "android": "https://dc.lft.to/lastmile_qr_scan"}, "name": "e93d9920ee35436bbb529d53708ba5f7", "lon": -76.98520566666667}, {"lat": 38.9260175, "fusion_lat": 0.0, "is_disabled": 0, "fusion_lon": 0.0, "type": "electric_scooter", "bike_id": "0035c372826577402da467f84d9d1e65", "is_reserved": 0, "rental_uris": {"ios": "https://dc.lft.to/lastmile_qr_scan", "android": "https://dc.lft.to/lastmile_qr_scan"}, "name": "0035c372826577402da467f84d9d1e65", "lon": -77.0215815}, {"lat": 38.92352616666667, "fusion_lat": 0.0, "is_disabled": 0, "fusion_lon": 0.0, "type": "electric_scooter", "bike_id": "e1b6cacf705406994dc48fa303b2f747", "is_reserved": 0, "rental_uris": {"ios": "https://dc.lft.to/lastmile_qr_scan", "android": "https://dc.lft.to/lastmile_qr_scan"}, "name": "e1b6cacf705406994dc48fa303b2f747", "lon": -77.024479}, {"lat": 38.91849766666667, "fusion_lat": 0.0, "is_disabled": 0, "fusion_lon": 0.0, "type": "electric_scooter", "bike_id": "f07129ae0938dad21b5b118fdb953e3e", "is_reserved": 0, "rental_uris": {"ios": "https://dc.lft.to/lastmile_qr_scan", "android": "https://dc.lft.to/lastmile_qr_scan"}, "name": "f07129ae0938dad21b5b118fdb953e3e", "lon": -77.031782}, {"lat": 38.873798, "fusion_lat": 0.0, "is_disabled": 0, "fusion_lon": 0.0, "type": "electric_scooter", "bike_id": "8a7666cd36ed0fc74ac6cd964ee2030b", "is_reserved": 0, "rental_uris": {"ios": "https://dc.lft.to/lastmile_qr_scan", "android": "https://dc.lft.to/lastmile_qr_scan"}, "name": "8a7666cd36ed0fc74ac6cd964ee2030b", "lon": -77.00129733333333}, {"lat": 38.90242, "fusion_lat": 0.0, "is_disabled": 0, "fusion_lon": 0.0, "type": "electric_scooter", "bike_id": "c01796c799ae0e5b466bc0de90cd9fd5", "is_reserved": 0, "rental_uris": {"ios": "https://dc.lft.to/lastmile_qr_scan", "android": "https://dc.lft.to/lastmile_qr_scan"}, "name": "c01796c799ae0e5b466bc0de90cd9fd5", "lon": -77.014488}, {"lat": 38.8984645, "fusion_lat": 0.0, "is_disabled": 0, "fusion_lon": 0.0, "type": "electric_scooter", "bike_id": "fafda0efebbffb365103976cede7eb78", "is_reserved": 0, "rental_uris": {"ios": "https://dc.lft.to/lastmile_qr_scan", "android": "https://dc.lft.to/lastmile_qr_scan"}, "name": "fafda0efebbffb365103976cede7eb78", "lon": -77.0221405}, {"lat": 38.924824666666666, "fusion_lat": 0.0, "is_disabled": 0, "fusion_lon": 0.0, "type": "electric_scooter", "bike_id": "446901618ef6dd4b3bc41f6a1f414e8e", "is_reserved": 0, "rental_uris": {"ios": "https://dc.lft.to/lastmile_qr_scan", "android": "https://dc.lft.to/lastmile_qr_scan"}, "name": "446901618ef6dd4b3bc41f6a1f414e8e", "lon": -76.9957855}, {"lat": 38.91025833333333, "fusion_lat": 0.0, "is_disabled": 0, "fusion_lon": 0.0, "type": "electric_scooter", "bike_id": "dd335dfbd9709e59ad8c365411d125fa", "is_reserved": 0, "rental_uris": {"ios": "https://dc.lft.to/lastmile_qr_scan", "android": "https://dc.lft.to/lastmile_qr_scan"}, "name": "dd335dfbd9709e59ad8c365411d125fa", "lon": -77.0344025}, {"lat": 38.923181166666666, "fusion_lat": 0.0, "is_disabled": 0, "fusion_lon": 0.0, "type": "electric_scooter", "bike_id": "3e87722e7c7bad9df673eae1cbc51040", "is_reserved": 0, "rental_uris": {"ios": "https://dc.lft.to/lastmile_qr_scan", "android": "https://dc.lft.to/lastmile_qr_scan"}, "name": "3e87722e7c7bad9df673eae1cbc51040", "lon": -77.043777}, {"lat": 38.893583, "fusion_lat": 0.0, "is_disabled": 0, "fusion_lon": 0.0, "type": "electric_scooter", "bike_id": "58579f70194bd7b05d7d7cedf214cc67", "is_reserved": 0, "rental_uris": {"ios": "https://dc.lft.to/lastmile_qr_scan", "android": "https://dc.lft.to/lastmile_qr_scan"}, "name": "58579f70194bd7b05d7d7cedf214cc67", "lon": -77.0033755}, {"lat": 38.927861, "fusion_lat": 0.0, "is_disabled": 0, "fusion_lon": 0.0, "type": "electric_scooter", "bike_id": "95e0b5a9a70189200f133603430493e9", "is_reserved": 0, "rental_uris": {"ios": "https://dc.lft.to/lastmile_qr_scan", "android": "https://dc.lft.to/lastmile_qr_scan"}, "name": "95e0b5a9a70189200f133603430493e9", "lon": -77.03151883333334}, {"lat": 38.89875166666667, "fusion_lat": 0.0, "is_disabled": 0, "fusion_lon": 0.0, "type": "electric_scooter", "bike_id": "baae539bb1da7a15246ad1b3986b8d3b", "is_reserved": 0, "rental_uris": {"ios": "https://dc.lft.to/lastmile_qr_scan", "android": "https://dc.lft.to/lastmile_qr_scan"}, "name": "baae539bb1da7a15246ad1b3986b8d3b", "lon": -77.04657966666667}, {"lat": 38.91619983333333, "fusion_lat": 0.0, "is_disabled": 0, "fusion_lon": 0.0, "type": "electric_scooter", "bike_id": "3e83f1d9aa766b58c68a104b967f0219", "is_reserved": 0, "rental_uris": {"ios": "https://dc.lft.to/lastmile_qr_scan", "android": "https://dc.lft.to/lastmile_qr_scan"}, "name": "3e83f1d9aa766b58c68a104b967f0219", "lon": -77.01855033333334}, {"lat": 38.900299833333335, "fusion_lat": 0.0, "is_disabled": 0, "fusion_lon": 0.0, "type": "electric_scooter", "bike_id": "7b444ca9b2085175a74905219e32af02", "is_reserved": 0, "rental_uris": {"ios": "https://dc.lft.to/lastmile_qr_scan", "android": "https://dc.lft.to/lastmile_qr_scan"}, "name": "7b444ca9b2085175a74905219e32af02", "lon": -77.002239}, {"lat": 38.91661, "fusion_lat": 0.0, "is_disabled": 0, "fusion_lon": 0.0, "type": "electric_scooter", "bike_id": "bf65f5d8901b3c9920652a228dbecc2e", "is_reserved": 0, "rental_uris": {"ios": "https://dc.lft.to/lastmile_qr_scan", "android": "https://dc.lft.to/lastmile_qr_scan"}, "name": "bf65f5d8901b3c9920652a228dbecc2e", "lon": -77.0385305}, {"lat": 38.92612716666667, "fusion_lat": 0.0, "is_disabled": 0, "fusion_lon": 0.0, "type": "electric_scooter", "bike_id": "b663e9dae42bb34fc6b81b43326521cc", "is_reserved": 0, "rental_uris": {"ios": "https://dc.lft.to/lastmile_qr_scan", "android": "https://dc.lft.to/lastmile_qr_scan"}, "name": "b663e9dae42bb34fc6b81b43326521cc", "lon": -77.0393}, {"lat": 38.92426366666667, "fusion_lat": 0.0, "is_disabled": 0, "fusion_lon": 0.0, "type": "electric_scooter", "bike_id": "8d646db633adf12976b64a107402e376", "is_reserved": 0, "rental_uris": {"ios": "https://dc.lft.to/lastmile_qr_scan", "android": "https://dc.lft.to/lastmile_qr_scan"}, "name": "8d646db633adf12976b64a107402e376", "lon": -77.04020033333333}, {"lat": 38.894272, "fusion_lat": 0.0, "is_disabled": 0, "fusion_lon": 0.0, "type": "electric_scooter", "bike_id": "678ecd35c6142e11cdd0cd14f0f7e700", "is_reserved": 0, "rental_uris": {"ios": "https://dc.lft.to/lastmile_qr_scan", "android": "https://dc.lft.to/lastmile_qr_scan"}, "name": "678ecd35c6142e11cdd0cd14f0f7e700", "lon": -77.044746}, {"lat": 38.893429833333336, "fusion_lat": 0.0, "is_disabled": 0, "fusion_lon": 0.0, "type": "electric_scooter", "bike_id": "b63bdd6ead93fdec3cc2b95ceb1d2007", "is_reserved": 0, "rental_uris": {"ios": "https://dc.lft.to/lastmile_qr_scan", "android": "https://dc.lft.to/lastmile_qr_scan"}, "name": "b63bdd6ead93fdec3cc2b95ceb1d2007", "lon": -77.04193}, {"lat": 38.9071425, "fusion_lat": 0.0, "is_disabled": 0, "fusion_lon": 0.0, "type": "electric_scooter", "bike_id": "38bc8d3ce152e46fead9f0ef5ab4bcbe", "is_reserved": 0, "rental_uris": {"ios": "https://dc.lft.to/lastmile_qr_scan", "android": "https://dc.lft.to/lastmile_qr_scan"}, "name": "38bc8d3ce152e46fead9f0ef5ab4bcbe", "lon": -77.02802533333333}, {"lat": 38.941952666666666, "fusion_lat": 0.0, "is_disabled": 0, "fusion_lon": 0.0, "type": "electric_scooter", "bike_id": "1372157d7069e5841bcabce1f15f3be2", "is_reserved": 0, "rental_uris": {"ios": "https://dc.lft.to/lastmile_qr_scan", "android": "https://dc.lft.to/lastmile_qr_scan"}, "name": "1372157d7069e5841bcabce1f15f3be2", "lon": -77.028521}, {"lat": 38.899443166666664, "fusion_lat": 0.0, "is_disabled": 0, "fusion_lon": 0.0, "type": "electric_scooter", "bike_id": "ea65302265de8b6cf44ba6d70dd10922", "is_reserved": 0, "rental_uris": {"ios": "https://dc.lft.to/lastmile_qr_scan", "android": "https://dc.lft.to/lastmile_qr_scan"}, "name": "ea65302265de8b6cf44ba6d70dd10922", "lon": -77.04505266666666}, {"lat": 38.8768755, "fusion_lat": 0.0, "is_disabled": 0, "fusion_lon": 0.0, "type": "electric_scooter", "bike_id": "956e172fe2646d19a88079a3fc076b38", "is_reserved": 0, "rental_uris": {"ios": "https://dc.lft.to/lastmile_qr_scan", "android": "https://dc.lft.to/lastmile_qr_scan"}, "name": "956e172fe2646d19a88079a3fc076b38", "lon": -77.0073425}, {"lat": 38.879433166666665, "fusion_lat": 0.0, "is_disabled": 0, "fusion_lon": 0.0, "type": "electric_scooter", "bike_id": "2cff1919410a485f0a1607ea2bc7a833", "is_reserved": 0, "rental_uris": {"ios": "https://dc.lft.to/lastmile_qr_scan", "android": "https://dc.lft.to/lastmile_qr_scan"}, "name": "2cff1919410a485f0a1607ea2bc7a833", "lon": -77.01004183333333}, {"lat": 38.885229333333335, "fusion_lat": 0.0, "is_disabled": 0, "fusion_lon": 0.0, "type": "electric_scooter", "bike_id": "22e08c8e8a5b15396dcfe43e5cd91d71", "is_reserved": 0, "rental_uris": {"ios": "https://dc.lft.to/lastmile_qr_scan", "android": "https://dc.lft.to/lastmile_qr_scan"}, "name": "22e08c8e8a5b15396dcfe43e5cd91d71", "lon": -76.97712533333333}, {"lat": 38.89964883333333, "fusion_lat": 0.0, "is_disabled": 0, "fusion_lon": 0.0, "type": "electric_scooter", "bike_id": "16ac989c090630c1218f48b9f12a8045", "is_reserved": 0, "rental_uris": {"ios": "https://dc.lft.to/lastmile_qr_scan", "android": "https://dc.lft.to/lastmile_qr_scan"}, "name": "16ac989c090630c1218f48b9f12a8045", "lon": -77.01610916666667},