{"data": {"bikes": [{"lon": -76.9990295, "bike_id": "0de8b1278dd3718e71e1022634bb65e9", "lat": 38.909585166666666, "fusion_lon": 0.0, "fusion_lat": 0.0, "type": "electric_scooter", "name": "0de8b1278dd3718e71e1022634bb65e9", "is_disabled": 0, "rental_uris": {"ios": "https://dc.lft.to/lastmile_qr_scan", "android": "https://dc.lft.to/lastmile_qr_scan"}, "is_reserved": 0}, {"lon": -76.99226033333333, "bike_id": "9257ce1d441056ce958521efbf9fd6a4", "lat": 38.9221565, "fusion_lon": 0.0, "fusion_lat": 0.0, "type": "electric_scooter", "name": "9257ce1d441056ce958521efbf9fd6a4", "is_disabled": 0, "rental_uris": {"ios": "https://dc.lft.to/lastmile_qr_scan", "android": "https://dc.lft.to/lastmile_qr_scan"}, "is_reserved": 0}, {"lon": -77.04869833333333, "bike_id": "5eb51be6ed13372871c46b41fd85f297", "lat": 38.8923115, "fusion_lon": 0.0, "fusion_lat": 0.0, "type": "electric_scooter", "name": "5eb51be6ed13372871c46b41fd85f297", "is_disabled": 0, "rental_uris": {"ios": "https://dc.lft.to/lastmile_qr_scan", "android": "https://dc.lft.to/lastmile_qr_scan"}, "is_reserved": 0}, {"lon": -77.04762133333334, "bike_id": "cd79d4f03ebcd654540d204d2df11823", "lat": 38.917832833333335, "fusion_lon": 0.0, "fusion_lat": 0.0, "type": "electric_scooter", "name": "cd79d4f03ebcd654540d204d2df11823", "is_disabled": 0, "rental_uris": {"ios": "https://dc.lft.to/lastmile_qr_scan", "android": "https://dc.lft.to/lastmile_qr_scan"}, "is_reserved": 0}, {"lon": -77.02234866666667, "bike_id": "003d13cd64b5cc925e93acd195c7c918", "lat": 38.96200233333333, "fusion_lon": 0.0, "fusion_lat": 0.0, "type": "electric_scooter", "name": "003d13cd64b5cc925e93acd195c7c918", "is_disabled": 0, "rental_uris": {"ios": "https://dc.lft.to/lastmile_qr_scan", "android": "https://dc.lft.to/lastmile_qr_scan"}, "is_reserved": 0}, {"lon": -76.98226516666666, "bike_id": "c435aef9d09572ec5ac71f4f4a86c5d7", "lat": 38.916454333333334, "fusion_lon": 0.0, "fusion_lat": 0.0, "type": "electric_scooter", "name": "c435aef9d09572ec5ac71f4f4a86c5d7", "is_disabled": 0, "rental_uris": {"ios": "https://dc.lft.to/lastmile_qr_scan", "android": "https://dc.lft.to/lastmile_qr_scan"}, "is_reserved": 0}, {"lon": -77.02936183333334, "bike_id": "5b68f6b3ca28382e22bd681df5f83eef", "lat": 38.906347, "fusion_lon": 0.0, "fusion_lat": 0.0, "type": "electric_scooter", "name": "5b68f6b3ca28382e22bd681df5f83eef", "is_disabled": 0, "rental_uris": {"ios": "https://dc.lft.to/lastmile_qr_scan", "android": "https://dc.lft.to/lastmile_qr_scan"}, "is_reserved": 0}, {"lon": -77.02823516666666, "bike_id": "1f63053150119de34ad400c75bd54601", "lat": 38.895290333333335, "fusion_lon": 0.0, "fusion_lat": 0.0, "type": "electric_scooter", "name": "1f63053150119de34ad400c75bd54601", "is_disabled": 0, "rental_uris": {"ios": "https://dc.lft.to/lastmile_qr_scan", "android": "https://dc.lft.to/lastmile_qr_scan"}, "is_reserved": 0}, {"lon": -77.03822816666667, "bike_id": "4bf8de0be709437df5c8ba1fbbed8844", "lat": 38.90335266666666, "fusion_lon": 0.0, "fusion_lat": 0.0, "type": "electric_scooter", "name": "4bf8de0be709437df5c8ba1fbbed8844", "is_disabled": 0, "rental_uris": {"ios": "https://dc.lft.to/lastmile_qr_scan", "android": "https://dc.lft.to/lastmile_qr_scan"}, "is_reserved": 0}, {"lon": -77.0543445, "bike_id": "77d6fb11b84be1967715358b0f68994f", "lat": 38.928365, "fusion_lon": 0.0, "fusion_lat": 0.0, "type": "electric_scooter", "name": "77d6fb11b84be1967715358b0f68994f", "is_disabled": 0, "rental_uris": {"ios": "https://dc.lft.to/lastmile_qr_scan", "android": "https://dc.lft.to/lastmile_qr_scan"}, "is_reserved": 0}, {"lon": -77.01928566666666, "bike_id": "46000ae49b831754a13f20401c105048", "lat": 38.92219516666667, "fusion_lon": 0.0, "fusion_lat": 0.0, "type": "electric_scooter", "name": "46000ae49b831754a13f20401c105048", "is_disabled": 0, "rental_uris": {"ios": "https://dc.lft.to/lastmile_qr_scan", "android": "https://dc.lft.to/lastmile_qr_scan"}, "is_reserved": 0}, {"lon": -77.13104533333333, "bike_id": "2fdc254a75f3628dc96588fececffd26", "lat": 39.024453333333334, "fusion_lon": 0.0, "fusion_lat": 0.0, "type": "electric_bike", "name": "2fdc254a75f3628dc96588fececffd26", "is_disabled": 0, "rental_uris": {"ios": "https://dc.lft.to/lastmile_qr_scan", "android": "https://dc.lft.to/lastmile_qr_scan"}, "is_reserved": 0}, {"lon": -77.0206835, "bike_id": "990fea6204b2a9b5899721021baf7bf5", "lat": 38.932649, "fusion_lon": 0.0, "fusion_lat": 0.0, "type": "electric_bike", "name": "990fea6204b2a9b5899721021baf7bf5", "is_disabled": 0, "rental_uris": {"ios": "https://dc.lft.to/lastmile_qr_scan", "android": "https://dc.lft.to/lastmile_qr_scan"}, "is_reserved": 0}, {"lon": -77.03468766666667, "bike_id": "bfe326626a49a7d2aaae74467be4bc2b", "lat": 38.92155566666667, "fusion_lon": 0.0, "fusion_lat": 0.0, "type": "electric_scooter", "name": "bfe326626a49a7d2aaae74467be4bc2b", "is_disabled": 0, "rental_uris": {"ios": "https://dc.lft.to/lastmile_qr_scan", "android": "https://dc.lft.to/lastmile_qr_scan"}, "is_reserved": 0}, {"lon": -77.00347966666666, "bike_id": "8e2cc20cbf4a77c8014b2b0a5953419f", "lat": 38.887176, "fusion_lon": 0.0, "fusion_lat": 0.0, "type": "electric_scooter", "name": "8e2cc20cbf4a77c8014b2b0a5953419f", "is_disabled": 0, "rental_uris": {"ios": "https://dc.lft.to/lastmile_qr_scan", "android": "https://dc.lft.to/lastmile_qr_scan"}, "is_reserved": 0}, {"lon": -77.0506835, "bike_id": "d9613a9c64ca6cfb41039b311dee92fb", "lat": 38.900863666666666, "fusion_lon": 0.0, "fusion_lat": 0.0, "type": "electric_scooter", "name": "d9613a9c64ca6cfb41039b311dee92fb", "is_disabled": 0, "rental_uris": {"ios": "https://dc.lft.to/lastmile_qr_scan", "android": "https://dc.lft.to/lastmile_qr_scan"}, "is_reserved": 0}, {"lon": -77.02933433333334, "bike_id": "4305fd7eeda03a116d5ead6c9cff573f", "lat": 38.90644183333333, "fusion_lon": 0.0, "fusion_lat": 0.0, "type": "electric_scooter", "name": "4305fd7eeda03a116d5ead6c9cff573f", "is_disabled": 0, "rental_uris": {"ios": "https://dc.lft.to/lastmile_qr_scan", "android": "https://dc.lft.to/lastmile_qr_scan"}, "is_reserved": 0}, {"lon": -77.03292633333334, "bike_id": "6513caff41bb9e3e08b48a8ee295b8d9", "lat": 38.909859166666664, "fusion_lon": 0.0, "fusion_lat": 0.0, "type": "electric_scooter", "name": "6513caff41bb9e3e08b48a8ee295b8d9", "is_disabled": 0, "rental_uris": {"ios": "https://dc.lft.to/lastmile_qr_scan", "android": "https://dc.lft.to/lastmile_qr_scan"}, "is_reserved": 0}, {"lon": -77.00374433333333, "bike_id": "535239f9e051b534d5d9ed3411473919", "lat": 38.89734966666666, "fusion_lon": 0.0, "fusion_lat": 0.0, "type": "electric_scooter", "name": "535239f9e051b534d5d9ed3411473919", "is_disabled": 0, "rental_uris": {"ios": "https://dc.lft.to/lastmile_qr_scan", "android": "https://dc.lft.to/lastmile_qr_scan"}, "is_reserved": 0}, {"lon": -76.98016633333333, "bike_id": "68d1b24d50004bc9d19c8ae7d826f6ce", "lat": 38.903331333333334, "fusion_lon": 0.0, "fusion_lat": 0.0, "type": "electric_scooter", "name": "68d1b24d50004bc9d19c8ae7d826f6ce", "is_disabled": 0, "rental_uris": {"ios": "https://dc.lft.to/lastmile_qr_scan", "android": "https://dc.lft.to/lastmile_qr_scan"}, "is_reserved": 0}, {"lon": -77.03968216666667, "bike_id": "ee27d75a4ace248be672f12cf5bdbf10", "lat": 38.91187583333333, "fusion_lon": 0.0, "fusion_lat": 0.0, "type": "electric_scooter", "name": "ee27d75a4ace248be672f12cf5bdbf10", "is_disabled": 0, "rental_uris": {"ios": "https://dc.lft.to/lastmile_qr_scan", "android": "https://dc.lft.to/lastmile_qr_scan"}, "is_reserved": 0}, {"lon": -77.027137, "bike_id": "5393c97f9e5c0dd8abf142527dcc82ed", "lat": 38.92470016666667, "fusion_lon": 0.0, "fusion_lat": 0.0, "type": "electric_scooter", "name": "5393c97f9e5c0dd8abf142527dcc82ed", "is_disabled": 0, "rental_uris": {"ios": "https://dc.lft.to/lastmile_qr_scan", "android": "https://dc.lft.to/lastmile_qr_scan"}, "is_reserved": 0}, {"lon": -76.96148516666666, "bike_id": "2d735204365a9e602c925c5dc117e53f", "lat": 38.88358766666666, "fusion_lon": 0.0, "fusion_lat": 0.0, "type": "electric_scooter", "name": "2d735204365a9e602c925c5dc117e53f", "is_disabled": 0, "rental_uris": {"ios": "https://dc.lft.to/lastmile_qr_scan", "android": "https://dc.lft.to/lastmile_qr_scan"}, "is_reserved": 0}, {"lon": -77.031891, "bike_id": "d0b3c2112de22b312c65bd05ad941468", "lat": 38.91923116666667, "fusion_lon": 0.0, "fusion_lat": 0.0, "type": "electric_scooter", "name": "d0b3c2112de22b312c65bd05ad941468", "is_disabled": 0, "rental_uris": {"ios": "https://dc.lft.to/lastmile_qr_scan", "android": "https://dc.lft.to/lastmile_qr_scan"}, "is_reserved": 0}, {"lon": -76.99052233333333, "bike_id": "d175475649c37f5d8929c305735aa137", "lat": 38.88759066666667, "fusion_lon": 0.0, "fusion_lat": 0.0, "type": "electric_scooter", "name": "d175475649c37f5d8929c305735aa137", "is_disabled": 0, "rental_uris": {"ios": "https://dc.lft.to/lastmile_qr_scan", "android": "https://dc.lft.to/lastmile_qr_scan"}, "is_reserved": 0}, {"lon": -76.96782683333333, "bike_id": "1bf781daf9f38591efbd508d88639c1d", "lat": 38.86841066666667, "fusion_lon": 0.0, "fusion_lat": 0.0, "type": "electric_scooter", "name": "1bf781daf9f38591efbd508d88639c1d", "is_disabled": 0, "rental_uris": {"ios": "https://dc.lft.to/lastmile_qr_scan", "android": "https://dc.lft.to/lastmile_qr_scan"}, "is_reserved": 0}, {"lon": -77.00832816666667, "bike_id": "8161882261764e2b370b807b7768b8d7", "lat": 38.905704166666666, "fusion_lon": 0.0, "fusion_lat": 0.0, "type": "electric_scooter", "name": "8161882261764e2b370b807b7768b8d7", "is_disabled": 0, "rental_uris": {"ios": "https://dc.lft.to/lastmile_qr_scan", "android": "https://dc.lft.to/lastmile_qr_scan"}, "is_reserved": 0}, {"lon": -77.03893816666667, "bike_id": "15f093bddf7b0b78c09e35bf1dbe3cac", "lat": 38.910075666666664, "fusion_lon": 0.0, "fusion_lat": 0.0, "type": "electric_scooter", "name": "15f093bddf7b0b78c09e35bf1dbe3cac", "is_disabled": 0, "rental_uris": {"ios": "https://dc.lft.to/lastmile_qr_scan", "android": "https://dc.lft.to/lastmile_qr_scan"}, "is_reserved": 0}, {"lon": -77.0386685, "bike_id": "20bef3d51aa5f38e05cbd3f1f90bb22a", "lat": 38.945051166666666, "fusion_lon": 0.0, "fusion_lat": 0.0, "type": "electric_scooter", "name": "20bef3d51aa5f38e05cbd3f1f90bb22a", "is_disabled": 0, "rental_uris": {"ios": "https://dc.lft.to/lastmile_qr_scan", "android": "https://dc.lft.to/lastmile_qr_scan"}, "is_reserved": 0}, {"lon": -77.034205, "bike_id": "f1f7960304fadcdedcb7257ded2c0623", "lat": 38.90249133333333, "fusion_lon": 0.0, "fusion_lat": 0.0, "type": "electric_scooter", "name": "f1f7960304fadcdedcb7257ded2c0623", "is_disabled": 0, "rental_uris": {"ios": "https://dc.lft.to/lastmile_qr_scan", "android": "https://dc.lft.to/lastmile_qr_scan"}, "is_reserved": 0}, {"lon": -76.935333, "bike_id": "d12e64e7895c12a165a059eaad5293bb", "lat": 38.8968035, "fusion_lon": 0.0, "fusion_lat": 0.0, "type": "electric_scooter", "name": "d12e64e7895c12a165a059eaad5293bb", "is_disabled": 0, "rental_uris": {"ios": "https://dc.lft.to/lastmile_qr_scan", "android": "https://dc.lft.to/lastmile_qr_scan"}, "is_reserved": 0}, {"lon": -76.98098733333333, "bike_id": "7693801891326de21dccf89d885a09ff", "lat": 38.895549, "fusion_lon": 0.0, "fusion_lat": 0.0, "type": "electric_scooter", "name": "7693801891326de21dccf89d885a09ff", "is_disabled": 0, "rental_uris": {"ios": "https://dc.lft.to/lastmile_qr_scan", "android": "https://dc.lft.to/lastmile_qr_scan"}, "is_reserved": 0}, {"lon": -77.0234495, "bike_id": "aeddf4f9bfca4e835d6ff2028e52a964", "lat": 38.922479, "fusion_lon": 0.0, "fusion_lat": 0.0, "type": "electric_scooter", "name": "aeddf4f9bfca4e835d6ff2028e52a964", "is_disabled": 0, "rental_uris": {"ios": "https://dc.lft.to/lastmile_qr_scan", "android": "https://dc.lft.to/lastmile_qr_scan"}, "is_reserved": 0}, {"lon": -76.98684566666667, "bike_id": "3c0792387d2d041388205febb4c91814", "lat": 38.91219316666667, "fusion_lon": 0.0, "fusion_lat": 0.0, "type": "electric_scooter", "name": "3c0792387d2d041388205febb4c91814", "is_disabled": 0, "rental_uris": {"ios": "https://dc.lft.to/lastmile_qr_scan", "android": "https://dc.lft.to/lastmile_qr_scan"}, "is_reserved": 0}, {"lon": -77.00497266666666, "bike_id": "3abc722909a5e5b997dd06fb771ee052", "lat": 38.905591, "fusion_lon": 0.0, "fusion_lat": 0.0, "type": "electric_scooter", "name": "3abc722909a5e5b997dd06fb771ee052", "is_disabled": 0, "rental_uris": {"ios": "https://dc.lft.to/lastmile_qr_scan", "android": "https://dc.lft.to/lastmile_qr_scan"}, "is_reserved": 0}, {"lon": -77.02513566666667, "bike_id": "b7b3befd9f9c629cb7c7736c4b5020ae", "lat": 38.9206645, "fusion_lon": 0.0, "fusion_lat": 0.0, "type": "electric_scooter", "name": "b7b3befd9f9c629cb7c7736c4b5020ae", "is_disabled": 0, "rental_uris": {"ios": "https://dc.lft.to/lastmile_qr_scan", "android": "https://dc.lft.to/lastmile_qr_scan"}, "is_reserved": 0}, {"lon": -77.0152075, "bike_id": "767394bd46ce53a53b2a122a6b9dbaf4", "lat": 38.90026966666667, "fusion_lon": 0.0, "fusion_lat": 0.0, "type": "electric_scooter", "name": "767394bd46ce53a53b2a122a6b9dbaf4", "is_disabled": 0, "rental_uris": {"ios": "https://dc.lft.to/lastmile_qr_scan", "android": "https://dc.lft.to/lastmile_qr_scan"}, "is_reserved": 0}, {"lon": -77.03040683333333, "bike_id": "0ba29db513207ec7131e843ff4ce94b1", "lat": 38.878358166666665, "fusion_lon": 0.0, "fusion_lat": 0.0, "type": "electric_scooter", "name": "0ba29db513207ec7131e843ff4ce94b1", "is_disabled": 0, "rental_uris": {"ios": "https://dc.lft.to/lastmile_qr_scan", "android": "https://dc.lft.to/lastmile_qr_scan"}, "is_reserved": 0}, {"lon": -77.020791, "bike_id": "acbce0260c7bcb1084be3c09631727a5", "lat": 38.926861333333335, "fusion_lon": 0.0, "fusion_lat": 0.0, "type": "electric_scooter", "name": "acbce0260c7bcb1084be3c09631727a5", "is_disabled": 0, "rental_uris": {"ios": "https://dc.lft.to/lastmile_qr_scan", "android": "https://dc.lft.to/lastmile_qr_scan"}, "is_reserved": 0}, {"lon": -77.02581733333334, "bike_id": "cecb6c2e83ef7ee0402e531499810605", "lat": 38.88737283333333, "fusion_lon": 0.0, "fusion_lat": 0.0, "type": "electric_scooter", "name": "cecb6c2e83ef7ee0402e531499810605", "is_disabled": 0, "rental_uris": {"ios": "https://dc.lft.to/lastmile_qr_scan", "android": "https://dc.lft.to/lastmile_qr_scan"}, "is_reserved": 0}, {"lon": -77.02007233333333, "bike_id": "4cba4b00e8cfacd2f7e08fa8a0391cca", "lat": 38.92418283333333, "fusion_lon": 0.0, "fusion_lat": 0.0, "type": "electric_scooter", "name": "4cba4b00e8cfacd2f7e08fa8a0391cca", "is_disabled": 0, "rental_uris": {"ios": "https://dc.lft.to/lastmile_qr_scan", "android": "https://dc.lft.to/lastmile_qr_scan"}, "is_reserved": 0}, {"lon": -76.98998616666667, "bike_id": "3d9b99086f758feccb64e44b34c13bf1", "lat": 38.86505, "fusion_lon": 0.0, "fusion_lat": 0.0, "type": "electric_scooter", "name": "3d9b99086f758feccb64e44b34c13bf1", "is_disabled": 0, "rental_uris": {"ios": "https://dc.lft.to/lastmile_qr_scan", "android": "https://dc.lft.to/lastmile_qr_scan"}, "is_reserved": 0}, {"lon": -76.937272, "bike_id": "79af22bfc84c1814b68630363584c559", "lat": 38.890112, "fusion_lon": 0.0, "fusion_lat": 0.0, "type": "electric_scooter", "name": "79af22bfc84c1814b68630363584c559", "is_disabled": 0, "rental_uris": {"ios": "https://dc.lft.to/lastmile_qr_scan", "android": "https://dc.lft.to/lastmile_qr_scan"}, "is_reserved": 0}, {"lon": -76.98943016666666, "bike_id": "25115e635904bc74ed628fcef1f87342", "lat": 38.9019215, "fusion_lon": 0.0, "fusion_lat": 0.0, "type": "electric_scooter", "name": "25115e635904bc74ed628fcef1f87342", "is_disabled": 0, "rental_uris": {"ios": "https://dc.lft.to/lastmile_qr_scan", "android": "https://dc.lft.to/lastmile_qr_scan"}, "is_reserved": 0}, {"lon": -77.02688916666666, "bike_id": "b3e1a850bcf703e03e78543417646312", "lat": 38.897637333333336, "fusion_lon": 0.0, "fusion_lat": 0.0, "type": "electric_scooter", "name": "b3e1a850bcf703e03e78543417646312", "is_disabled": 0, "rental_uris": {"ios": "https://dc.lft.to/lastmile_qr_scan", "android": "https://dc.lft.to/lastmile_qr_scan"}, "is_reserved": 0}, {"lon": -77.02186316666666, "bike_id": "bf856de76e92fa0a227dbd69af64ab5b", "lat": 38.89741933333333, "fusion_lon": 0.0, "fusion_lat": 0.0, "type": "electric_scooter", "name": "bf856de76e92fa0a227dbd69af64ab5b", "is_disabled": 0, "rental_uris": {"ios": "https://dc.lft.to/lastmile_qr_scan", "android": "https://dc.lft.to/lastmile_qr_scan"}, "is_reserved": 0}, {"lon": -77.02584133333333, "bike_id": "54cf97da95c4d38d79477c0c3dacf4c2", "lat": 38.905691833333336, "fusion_lon": 0.0, "fusion_lat": 0.0, "type": "electric_scooter", "name": "54cf97da95c4d38d79477c0c3dacf4c2", "is_disabled": 0, "rental_uris": {"ios": "https://dc.lft.to/lastmile_qr_scan", "android": "https://dc.lft.to/lastmile_qr_scan"}, "is_reserved": 0}, {"lon": -77.052602, "bike_id": "f9c5c550a324aee79ec8e2e9bfa423b2", "lat": 38.92565416666667, "fusion_lon": 0.0, "fusion_lat": 0.0, "type": "electric_scooter", "name": "f9c5c550a324aee79ec8e2e9bfa423b2", "is_disabled": 0, "rental_uris": {"ios": "https://dc.lft.to/lastmile_qr_scan", "android": "https://dc.lft.to/lastmile_qr_scan"}, "is_reserved": 0}, {"lon": -77.02211066666666, "bike_id": "022e412ec7d93a1659bfa991681bad1d", "lat": 38.89352733333333, "fusion_lon": 0.0, "fusion_lat": 0.0, "type": "electric_scooter", "name": "022e412ec7d93a1659bfa991681bad1d", "is_disabled": 0, "rental_uris": {"ios": "https://dc.lft.to/lastmile_qr_scan", "android": "https://dc.lft.to/lastmile_qr_scan"}, "is_reserved": 0}, {"lon": -77.05023183333333, "bike_id": "47869b6956ad4b8c01268fde9b44c1db", "lat": 38.90166033333333, "fusion_lon": 0.0, "fusion_lat": 0.0, "type": "electric_scooter", "name": "47869b6956ad4b8c01268fde9b44c1db", "is_disabled": 0, "rental_uris": {"ios": "https://dc.lft.to/lastmile_qr_scan", "android": "https://dc.lft.to/lastmile_qr_scan"}, "is_reserved": 0}, {"lon": -76.95744966666666, "bike_id": "e1d0efef46683b03bd25fa4fd61bee2f", "lat": 38.88423483333333, "fusion_lon": 0.0, "fusion_lat": 0.0, "type": "electric_scooter", "name": "e1d0efef46683b03bd25fa4fd61bee2f", "is_disabled": 0, "rental_uris": {"ios": "https://dc.lft.to/lastmile_qr_scan", "android": "https://dc.lft.to/lastmile_qr_scan"}, "is_reserved": 0}, {"lon": -76.98554183333333, "bike_id": "59544b77853030405e808b6ddd173480", "lat": 38.89618516666667, "fusion_lon": 0.0, "fusion_lat": 0.0, "type": "electric_scooter", "name": "59544b77853030405e808b6ddd173480", "is_disabled": 0, "rental_uris": {"ios": "https://dc.lft.to/lastmile_qr_scan", "android": "https://dc.lft.to/lastmile_qr_scan"}, "is_reserved": 0}, {"lon": -77.01970483333334, "bike_id": "ebc0d18f03813fa41baf4fcb74b6cf62", "lat": 38.9358165, "fusion_lon": 0.0, "fusion_lat": 0.0, "type": "electric_scooter", "name": "ebc0d18f03813fa41baf4fcb74b6cf62", "is_disabled": 0, "rental_uris": {"ios": "https://dc.lft.to/lastmile_qr_scan", "android": "https://dc.lft.to/lastmile_qr_scan"}, "is_reserved": 0}, {"lon": -77.04652183333333, "bike_id": "08bba79b33e0e7eaa69ceabf25ac7dff", "lat": 39.055023166666665, "fusion_lon": 0.0, "fusion_lat": 0.0, "type": "electric_bike", "name": "08bba79b33e0e7eaa69ceabf25ac7dff", "is_disabled": 0, "rental_uris": {"ios": "https://dc.lft.to/lastmile_qr_scan", "android": "https://dc.lft.to/lastmile_qr_scan"}, "is_reserved": 0}, {"lon": -77.03453666666667, "bike_id": "2cfdb13bddb74b823bd90edf3b6a37e4", "lat": 38.907222166666664, "fusion_lon": 0.0, "fusion_lat": 0.0, "type": "electric_scooter", "name": "2cfdb13bddb74b823bd90edf3b6a37e4", "is_disabled": 0, "rental_uris": {"ios": "https://dc.lft.to/lastmile_qr_scan", "android": "https://dc.lft.to/lastmile_qr_scan"}, "is_reserved": 0}, {"lon": -77.03885766666667, "bike_id": "f5748f67b32e018edcaeeace1fa8406b", "lat": 38.94869466666667, "fusion_lon": 0.0, "fusion_lat": 0.0, "type": "electric_scooter", "name": "f5748f67b32e018edcaeeace1fa8406b", "is_disabled": 0, "rental_uris": {"ios": "https://dc.lft.to/lastmile_qr_scan", "android": "https://dc.lft.to/lastmile_qr_scan"}, "is_reserved": 0}, {"lon": -77.05584116666667, "bike_id": "504a6363414f53b47a0eab19b681b365", "lat": 38.933560666666665, "fusion_lon": 0.0, "fusion_lat": 0.0, "type": "electric_scooter", "name": "504a6363414f53b47a0eab19b681b365", "is_disabled": 0, "rental_uris": {"ios": "https://dc.lft.to/lastmile_qr_scan", "android": "https://dc.lft.to/lastmile_qr_scan"}, "is_reserved": 0}, {"lon": -76.88396516666667, "bike_id": "c783ad9ccdf6b1d5c9acaafba6c8c3e1", "lat": 38.93167566666666, "fusion_lon": 0.0, "fusion_lat": 0.0, "type": "electric_bike", "name": "c783ad9ccdf6b1d5c9acaafba6c8c3e1", "is_disabled": 0, "rental_uris": {"ios": "https://dc.lft.to/lastmile_qr_scan", "android": "https://dc.lft.to/lastmile_qr_scan"}, "is_reserved": 0}, {"lon": -77.01769166666666, "bike_id": "6c9aae29b2c805365075d69bdd6e9c41", "lat": 38.887399333333335, "fusion_lon": 0.0, "fusion_lat": 0.0, "type": "electric_scooter", "name": "6c9aae29b2c805365075d69bdd6e9c41", "is_disabled": 0, "rental_uris": {"ios": "https://dc.lft.to/lastmile_qr_scan", "android": "https://dc.lft.to/lastmile_qr_scan"}, "is_reserved": 0}, {"lon": -77.1273985, "bike_id": "d0eb6b352d833d164c88a2f58566e840", "lat": 38.8956605, "fusion_lon": 0.0, "fusion_lat": 0.0, "type": "electric_bike", "name": "d0eb6b352d833d164c88a2f58566e840", "is_disabled": 0, "rental_uris": {"ios": "https://dc.lft.to/lastmile_qr_scan", "android": "https://dc.lft.to/lastmile_qr_scan"}, "is_reserved": 0}, {"lon": -76.974326, "bike_id": "5d5f27112c47e8b31a847b41766f5084", "lat": 38.93240516666667, "fusion_lon": 0.0, "fusion_lat": 0.0, "type": "electric_bike", "name": "5d5f27112c47e8b31a847b41766f5084", "is_disabled": 0, "rental_uris": {"ios": "https://dc.lft.to/lastmile_qr_scan", "android": "https://dc.lft.to/lastmile_qr_scan"}, "is_reserved": 0}, {"lon": -77.03149833333333, "bike_id": "db449a0f28981b7f467ffa08d6d348d2", "lat": 38.928571166666664, "fusion_lon": 0.0, "fusion_lat": 0.0, "type": "electric_scooter", "name": "db449a0f28981b7f467ffa08d6d348d2", "is_disabled": 0, "rental_uris": {"ios": "https://dc.lft.to/lastmile_qr_scan", "android": "https://dc.lft.to/lastmile_qr_scan"}, "is_reserved": 0}, {"lon": -77.06035533333333, "bike_id": "5440096e7e1a4e9ed1d344be1a84268b", "lat": 38.933606833333336, "fusion_lon": 0.0, "fusion_lat": 0.0, "type": "electric_scooter", "name": "5440096e7e1a4e9ed1d344be1a84268b", "is_disabled": 0, "rental_uris": {"ios": "https://dc.lft.to/lastmile_qr_scan", "android": "https://dc.lft.to/lastmile_qr_scan"}, "is_reserved": 0}, {"lon": -76.95654466666667, "bike_id": "95c488a383784ff91688d455eec72082", "lat": 38.896216, "fusion_lon": 0.0, "fusion_lat": 0.0, "type": "electric_scooter", "name": "95c488a383784ff91688d455eec72082", "is_disabled": 0, "rental_uris": {"ios": "https://dc.lft.to/lastmile_qr_scan", "android": "https://dc.lft.to/lastmile_qr_scan"}, "is_reserved": 0}, {"lon": -77.02756666666667, "bike_id": "e1eaacbf600c9e88657e06b7b8e7702f", "lat": 38.9656655, "fusion_lon": 0.0, "fusion_lat": 0.0, "type": "electric_bike", "name": "e1eaacbf600c9e88657e06b7b8e7702f", "is_disabled": 0, "rental_uris": {"ios": "https://dc.lft.to/lastmile_qr_scan", "android": "https://dc.lft.to/lastmile_qr_scan"}, "is_reserved": 0}, {"lon": -77.05228983333333, "bike_id": "5cffac20d6f774b1191458a5b603a352", "lat": 38.92467833333333, "fusion_lon": 0.0, "fusion_lat": 0.0, "type": "electric_scooter", "name": "5cffac20d6f774b1191458a5b603a352", "is_disabled": 0, "rental_uris": {"ios": "https://dc.lft.to/lastmile_qr_scan", "android": "https://dc.lft.to/lastmile_qr_scan"}, "is_reserved": 0}, {"lon": -77.036672, "bike_id": "73cb38b5156fa468ea4e51276b87e6a3", "lat": 38.9320465, "fusion_lon": 0.0, "fusion_lat": 0.0, "type": "electric_scooter", "name": "73cb38b5156fa468ea4e51276b87e6a3", "is_disabled": 0, "rental_uris": {"ios": "https://dc.lft.to/lastmile_qr_scan", "android": "https://dc.lft.to/lastmile_qr_scan"}, "is_reserved": 0}, {"lon": -76.96131116666666, "bike_id": "4162bc7526e4747d9726f7050888bf72", "lat": 38.94210416666667, "fusion_lon": 0.0, "fusion_lat": 0.0, "type": "electric_bike", "name": "4162bc7526e4747d9726f7050888bf72", "is_disabled": 0, "rental_uris": {"ios": "https://dc.lft.to/lastmile_qr_scan", "android": "https://dc.lft.to/lastmile_qr_scan"}, "is_reserved": 0}, {"lon": -77.01810233333333, "bike_id": "eb295ab410146689210c79f3a0095dea", "lat": 38.9648475, "fusion_lon": 0.0, "fusion_lat": 0.0, "type": "electric_scooter", "name": "eb295ab410146689210c79f3a0095dea", "is_disabled": 0, "rental_uris": {"ios": "https://dc.lft.to/lastmile_qr_scan", "android": "https://dc.lft.to/lastmile_qr_scan"}, "is_reserved": 0}, {"lon": -77.03261383333333, "bike_id": "b580cdccd2d05d93d5806c8a287bfb2b", "lat": 38.93775216666667, "fusion_lon": 0.0, "fusion_lat": 0.0, "type": "electric_scooter", "name": "b580cdccd2d05d93d5806c8a287bfb2b", "is_disabled": 0, "rental_uris": {"ios": "https://dc.lft.to/lastmile_qr_scan", "android": "https://dc.lft.to/lastmile_qr_scan"}, "is_reserved": 0}, {"lon": -76.984858, "bike_id": "5658b4d2942d8b7cd1f6ed29f15e59a1", "lat": 38.878302, "fusion_lon": 0.0, "fusion_lat": 0.0, "type": "electric_scooter", "name": "5658b4d2942d8b7cd1f6ed29f15e59a1", "is_disabled": 0, "rental_uris": {"ios": "https://dc.lft.to/lastmile_qr_scan", "android": "https://dc.lft.to/lastmile_qr_scan"}, "is_reserved": 0}, {"lon": -77.0309885, "bike_id": "aec35bd942182d2c29b85b789a1881a9", "lat": 38.934545666666665, "fusion_lon": 0.0, "fusion_lat": 0.0, "type": "electric_scooter", "name": "aec35bd942182d2c29b85b789a1881a9", "is_disabled": 0, "rental_uris": {"ios": "https://dc.lft.to/lastmile_qr_scan", "android": "https://dc.lft.to/lastmile_qr_scan"}, "is_reserved": 0}, {"lon": -77.05213466666666, "bike_id": "93291decd66d61ab276c060abc661dec", "lat": 38.9156805, "fusion_lon": 0.0, "fusion_lat": 0.0, "type": "electric_scooter", "name": "93291decd66d61ab276c060abc661dec", "is_disabled": 0, "rental_uris": {"ios": "https://dc.lft.to/lastmile_qr_scan", "android": "https://dc.lft.to/lastmile_qr_scan"}, "is_reserved": 0}, {"lon": -76.96527066666667, "bike_id": "921eb60645755f42d7f193dadf6953a3", "lat": 38.87629583333333, "fusion_lon": 0.0, "fusion_lat": 0.0, "type": "electric_scooter", "name": "921eb60645755f42d7f193dadf6953a3", "is_disabled": 0, "rental_uris": {"ios": "https://dc.lft.to/lastmile_qr_scan", "android": "https://dc.lft.to/lastmile_qr_scan"}, "is_reserved": 0}, {"lon": -77.05705733333333, "bike_id": "525f4f8af6971793da4c8a7905da7f89", "lat": 38.905446, "fusion_lon": 0.0, "fusion_lat": 0.0, "type": "electric_scooter", "name": "525f4f8af6971793da4c8a7905da7f89", "is_disabled": 0, "rental_uris": {"ios": "https://dc.lft.to/lastmile_qr_scan", "android": "https://dc.lft.to/lastmile_qr_scan"}, "is_reserved": 0}, {"lon": -77.0367535, "bike_id": "6ec62fd41c1364f70bf11ebe19e14396", "lat": 38.921040166666664, "fusion_lon": 0.0, "fusion_lat": 0.0, "type": "electric_scooter", "name": "6ec62fd41c1364f70bf11ebe19e14396", "is_disabled": 0, "rental_uris": {"ios": "https://dc.lft.to/lastmile_qr_scan", "android": "https://dc.lft.to/lastmile_qr_scan"}, "is_reserved": 0}, {"lon": -77.04732933333334, "bike_id": "b04b8f7cad21c7c632c5e1b1f107705f", "lat": 38.907249166666666, "fusion_lon": 0.0, "fusion_lat": 0.0, "type": "electric_scooter", "name": "b04b8f7cad21c7c632c5e1b1f107705f", "is_disabled": 0, "rental_uris": {"ios": "https://dc.lft.to/lastmile_qr_scan", "android": "https://dc.lft.to/lastmile_qr_scan"}, "is_reserved": 0}, {"lon": -76.94113716666666, "bike_id": "7ce0cbb3f859b368234df58649659ee2", "lat": 38.886471, "fusion_lon": 0.0, "fusion_lat": 0.0, "type": "electric_scooter", "name": "7ce0cbb3f859b368234df58649659ee2", "is_disabled": 0, "rental_uris": {"ios": "https://dc.lft.to/lastmile_qr_scan", "android": "https://dc.lft.to/lastmile_qr_scan"}, "is_reserved": 0}, {"lon": -77.02791466666666, "bike_id": "edb62efe398fc4ae10b837236b36d9a9", "lat": 38.930816, "fusion_lon": 0.0, "fusion_lat": 0.0, "type": "electric_scooter", "name": "edb62efe398fc4ae10b837236b36d9a9", "is_disabled": 0, "rental_uris": {"ios": "https://dc.lft.to/lastmile_qr_scan", "android": "https://dc.lft.to/lastmile_qr_scan"}, "is_reserved": 0}, {"lon": -77.016377, "bike_id": "39231f9891e275dde4f3147e3586d8fd", "lat": 38.902212, "fusion_lon": 0.0, "fusion_lat": 0.0, "type": "electric_scooter", "name": "39231f9891e275dde4f3147e3586d8fd", "is_disabled": 0, "rental_uris": {"ios": "https://dc.lft.to/lastmile_qr_scan", "android": "https://dc.lft.to/lastmile_qr_scan"}, "is_reserved": 0}, {"lon": -77.04836033333333, "bike_id": "aca8d9105f386b472f846d122e20401b", "lat": 38.90416866666666, "fusion_lon": 0.0, "fusion_lat": 0.0, "type": "electric_scooter", "name": "aca8d9105f386b472f846d122e20401b", "is_disabled": 0, "rental_uris": {"ios": "https://dc.lft.to/lastmile_qr_scan", "android": "https://dc.lft.to/lastmile_qr_scan"}, "is_reserved": 0}, {"lon": -77.044579, "bike_id": "bd1aabb8293b83e23354f8d8b8e2f95d", "lat": 38.923911333333336, "fusion_lon": 0.0, "fusion_lat": 0.0, "type": "electric_scooter", "name": "bd1aabb8293b83e23354f8d8b8e2f95d", "is_disabled": 0, "rental_uris": {"ios": "https://dc.lft.to/lastmile_qr_scan", "android": "https://dc.lft.to/lastmile_qr_scan"}, "is_reserved": 0}, {"lon": -77.0481795, "bike_id": "ff68ead873260c5f96a1fdb24a848c0d", "lat": 38.91113633333333, "fusion_lon": 0.0, "fusion_lat": 0.0, "type": "electric_scooter", "name": "ff68ead873260c5f96a1fdb24a848c0d", "is_disabled": 0, "rental_uris": {"ios": "https://dc.lft.to/lastmile_qr_scan", "android": "https://dc.lft.to/lastmile_qr_scan"}, "is_reserved": 0}, {"lon": -76.90736583333333, "bike_id": "5bffcb9d8c5a02ff93c7dc869499a62c", "lat": 38.89615516666667, "fusion_lon": 0.0, "fusion_lat": 0.0, "type": "electric_bike", "name": "5bffcb9d8c5a02ff93c7dc869499a62c", "is_disabled": 0, "rental_uris": {"ios": "https://dc.lft.to/lastmile_qr_scan", "android": "https://dc.lft.to/lastmile_qr_scan"}, "is_reserved": 0}, {"lon": -77.019049, "bike_id": "c80c74cef98678255da56cea1c82ea08", "lat": 38.899728333333336, "fusion_lon": 0.0, "fusion_lat": 0.0, "type": "electric_scooter", "name": "c80c74cef98678255da56cea1c82ea08", "is_disabled": 0, "rental_uris": {"ios": "https://dc.lft.to/lastmile_qr_scan", "android": "https://dc.lft.to/lastmile_qr_scan"}, "is_reserved": 0}, {"lon": -77.00555833333334, "bike_id": "e2f6e086ce9d4b3f5a699a73cd2ca837", "lat": 38.87467516666667, "fusion_lon": 0.0, "fusion_lat": 0.0, "type": "electric_scooter", "name": "e2f6e086ce9d4b3f5a699a73cd2ca837", "is_disabled": 0, "rental_uris": {"ios": "https://dc.lft.to/lastmile_qr_scan", "android": "https://dc.lft.to/lastmile_qr_scan"}, "is_reserved": 0}, {"lon": -76.97426233333333, "bike_id": "c09838cad16f46a9ceac2d7935feb6ba", "lat": 38.904007, "fusion_lon": 0.0, "fusion_lat": 0.0, "type": "electric_scooter", "name": "c09838cad16f46a9ceac2d7935feb6ba", "is_disabled": 0, "rental_uris": {"ios": "https://dc.lft.to/lastmile_qr_scan", "android": "https://dc.lft.to/lastmile_qr_scan"}, "is_reserved": 0}, {"lon": -77.04229466666666, "bike_id": "46c0c2f6961f8307089037bfc72e85f4", "lat": 38.914144666666665, "fusion_lon": 0.0, "fusion_lat": 0.0, "type": "electric_scooter", "name": "46c0c2f6961f8307089037bfc72e85f4", "is_disabled": 0, "rental_uris": {"ios": "https://dc.lft.to/lastmile_qr_scan", "android": "https://dc.lft.to/lastmile_qr_scan"}, "is_reserved": 0}, {"lon": -77.032713, "bike_id": "874e224c56eb5fa50858080cfbf10f82", "lat": 38.91994583333334, "fusion_lon": 0.0, "fusion_lat": 0.0, "type": "electric_scooter", "name": "874e224c56eb5fa50858080cfbf10f82", "is_disabled": 0, "rental_uris": {"ios": "https://dc.lft.to/lastmile_qr_scan", "android": "https://dc.lft.to/lastmile_qr_scan"}, "is_reserved": 0}, {"lon": -77.02292116666666, "bike_id": "78b56583762d56eb01f4b5ffb081a944", "lat": 38.92229866666667, "fusion_lon": 0.0, "fusion_lat": 0.0, "type": "electric_scooter", "name": "78b56583762d56eb01f4b5ffb081a944", "is_disabled": 0, "rental_uris": {"ios": "https://dc.lft.to/lastmile_qr_scan", "android": "https://dc.lft.to/lastmile_qr_scan"}, "is_reserved": 0}, {"lon": -77.00498616666667, "bike_id": "6795b685b606793dab304cf7dc158244", "lat": 38.90582, "fusion_lon": 0.0, "fusion_lat": 0.0, "type": "electric_scooter", "name": "6795b685b606793dab304cf7dc158244", "is_disabled": 0, "rental_uris": {"ios": "https://dc.lft.to/lastmile_qr_scan", "android": "https://dc.lft.to/lastmile_qr_scan"}, "is_reserved": 0}, {"lon": -76.98525683333334, "bike_id": "b0a1a539ae9daa3c2b0e31b04bdbb4b1", "lat": 38.8668685, "fusion_lon": 0.0, "fusion_lat": 0.0, "type": "electric_scooter", "name": "b0a1a539ae9daa3c2b0e31b04bdbb4b1", "is_disabled": 0, "rental_uris": {"ios": "https://dc.lft.to/lastmile_qr_scan", "android": "https://dc.lft.to/lastmile_qr_scan"}, "is_reserved": 0}, {"lon": -77.03819733333333, "bike_id": "35fac2275e46029007acf1947d2325de", "lat": 38.931, "fusion_lon": 0.0, "fusion_lat": 0.0, "type": "electric_scooter", "name": "35fac2275e46029007acf1947d2325de", "is_disabled": 0, "rental_uris": {"ios": "https://dc.lft.to/lastmile_qr_scan", "android": "https://dc.lft.to/lastmile_qr_scan"}, "is_reserved": 0}, {"lon": -77.048274, "bike_id": "2d18283540b82f5b9ad07dbb8a6acc09", "lat": 38.89740466666667, "fusion_lon": 0.0, "fusion_lat": 0.0, "type": "electric_scooter", "name": "2d18283540b82f5b9ad07dbb8a6acc09", "is_disabled": 0, "rental_uris": {"ios": "https://dc.lft.to/lastmile_qr_scan", "android": "https://dc.lft.to/lastmile_qr_scan"}, "is_reserved": 0}, {"lon": -77.02046133333333, "bike_id": "63e9f45dd5a74dbd942ecfc38fbe11bd", "lat": 38.9057525, "fusion_lon": 0.0, "fusion_lat": 0.0, "type": "electric_scooter", "name": "63e9f45dd5a74dbd942ecfc38fbe11bd", "is_disabled": 0, "rental_uris": {"ios": "https://dc.lft.to/lastmile_qr_scan", "android": "https://dc.lft.to/lastmile_qr_scan"}, "is_reserved": 0}, {"lon": -77.02766033333333, "bike_id": "dcfa9104a3bb83413def3bc51c82e969", "lat": 38.954272833333334, "fusion_lon": 0.0, "fusion_lat": 0.0, "type": "electric_scooter", "name": "dcfa9104a3bb83413def3bc51c82e969", "is_disabled": 0, "rental_uris": {"ios": "https://dc.lft.to/lastmile_qr_scan", "android": "https://dc.lft.to/lastmile_qr_scan"}, "is_reserved": 0}, {"lon": -77.05574283333333, "bike_id": "7f9954e7cb371a260f53b0607a292ded", "lat": 38.89996516666667, "fusion_lon": 0.0, "fusion_lat": 0.0, "type": "electric_scooter", "name": "7f9954e7cb371a260f53b0607a292ded", "is_disabled": 0, "rental_uris": {"ios": "https://dc.lft.to/lastmile_qr_scan", "android": "https://dc.lft.to/lastmile_qr_scan"}, "is_reserved": 0}, {"lon": -77.00113583333334, "bike_id": "460db3d09d7c67fb7f0809f1788357c8", "lat": 38.9124875, "fusion_lon": 0.0, "fusion_lat": 0.0, "type": "electric_scooter", "name": "460db3d09d7c67fb7f0809f1788357c8", "is_disabled": 0, "rental_uris": {"ios": "https://dc.lft.to/lastmile_qr_scan", "android": "https://dc.lft.to/lastmile_qr_scan"}, "is_reserved": 0}, {"lon": -77.038532, "bike_id": "7127f4293398ff5afdb8482f56f3624f", "lat": 38.916819833333335, "fusion_lon": 0.0, "fusion_lat": 0.0, "type": "electric_scooter", "name": "7127f4293398ff5afdb8482f56f3624f", "is_disabled": 0, "rental_uris": {"ios": "https://dc.lft.to/lastmile_qr_scan", "android": "https://dc.lft.to/lastmile_qr_scan"}, "is_reserved": 0}, {"lon": -77.0317315, "bike_id": "343842543ad99ffb4fe60ccc06267dc3", "lat": 38.90362566666667, "fusion_lon": 0.0, "fusion_lat": 0.0, "type": "electric_scooter", "name": "343842543ad99ffb4fe60ccc06267dc3", "is_disabled": 0, "rental_uris": {"ios": "https://dc.lft.to/lastmile_qr_scan", "android": "https://dc.lft.to/lastmile_qr_scan"}, "is_reserved": 0}, {"lon": -77.2332025, "bike_id": "cc29f87de7ef08947ccd835c0d31c21e", "lat": 38.87285766666667, "fusion_lon": 0.0, "fusion_lat": 0.0, "type": "electric_bike", "name": "cc29f87de7ef08947ccd835c0d31c21e", "is_disabled": 0, "rental_uris": {"ios": "https://dc.lft.to/lastmile_qr_scan", "android": "https://dc.lft.to/lastmile_qr_scan"}, "is_reserved": 0}, {"lon": -76.95004616666667, "bike_id": "46ff1d4e475e47c8a530b4c79471e457", "lat": 38.8938485, "fusion_lon": 0.0, "fusion_lat": 0.0, "type": "electric_scooter", "name": "46ff1d4e475e47c8a530b4c79471e457", "is_disabled": 0, "rental_uris": {"ios": "https://dc.lft.to/lastmile_qr_scan", "android": "https://dc.lft.to/lastmile_qr_scan"}, "is_reserved": 0}, {"lon": -76.99439466666666, "bike_id": "9514279083636a267c5df10daef7714c", "lat": 38.86278933333333, "fusion_lon": 0.0, "fusion_lat": 0.0, "type": "electric_scooter", "name": "9514279083636a267c5df10daef7714c", "is_disabled": 0, "rental_uris": {"ios": "https://dc.lft.to/lastmile_qr_scan", "android": "https://dc.lft.to/lastmile_qr_scan"}, "is_reserved": 0}, {"lon": -77.03070133333334, "bike_id": "c8213e62053cd50b2213adb8bd8ed184", "lat": 38.883712333333335, "fusion_lon": 0.0, "fusion_lat": 0.0, "type": "electric_scooter", "name": "c8213e62053cd50b2213adb8bd8ed184", "is_disabled": 0, "rental_uris": {"ios": "https://dc.lft.to/lastmile_qr_scan", "android": "https://dc.lft.to/lastmile_qr_scan"}, "is_reserved": 0}, {"lon": -77.00892533333334, "bike_id": "9a821c6a3ce79c1be5c668b8b144743f", "lat": 38.922781, "fusion_lon": 0.0, "fusion_lat": 0.0, "type": "electric_scooter", "name": "9a821c6a3ce79c1be5c668b8b144743f", "is_disabled": 0, "rental_uris": {"ios": "https://dc.lft.to/lastmile_qr_scan", "android": "https://dc.lft.to/lastmile_qr_scan"}, "is_reserved": 0}, {"lon": -76.96541566666667, "bike_id": "c66c021c7fd83262ae593cc1c36b0318", "lat": 38.918420166666664, "fusion_lon": 0.0, "fusion_lat": 0.0, "type": "electric_scooter", "name": "c66c021c7fd83262ae593cc1c36b0318", "is_disabled": 0, "rental_uris": {"ios": "https://dc.lft.to/lastmile_qr_scan", "android": "https://dc.lft.to/lastmile_qr_scan"}, "is_reserved": 0}, {"lon": -76.98231583333333, "bike_id": "e8ca58b334920440f1896bfa9b269db0", "lat": 38.91655633333333, "fusion_lon": 0.0, "fusion_lat": 0.0, "type": "electric_scooter", "name": "e8ca58b334920440f1896bfa9b269db0", "is_disabled": 0, "rental_uris": {"ios": "https://dc.lft.to/lastmile_qr_scan", "android": "https://dc.lft.to/lastmile_qr_scan"}, "is_reserved": 0}, {"lon": -77.04036716666667, "bike_id": "c3ad750a1a6da05d22720a920cac3360", "lat": 38.908768333333335, "fusion_lon": 0.0, "fusion_lat": 0.0, "type": "electric_bike", "name": "c3ad750a1a6da05d22720a920cac3360", "is_disabled": 0, "rental_uris": {"ios": "https://dc.lft.to/lastmile_qr_scan", "android": "https://dc.lft.to/lastmile_qr_scan"}, "is_reserved": 0}, {"lon": -77.23326816666666, "bike_id": "876520e1e244e72e90c9ec288a343c56", "lat": 38.87276766666667, "fusion_lon": 0.0, "fusion_lat": 0.0, "type": "electric_bike", "name": "876520e1e244e72e90c9ec288a343c56", "is_disabled": 0, "rental_uris": {"ios": "https://dc.lft.to/lastmile_qr_scan", "android": "https://dc.lft.to/lastmile_qr_scan"}, "is_reserved": 0}, {"lon": -76.98878, "bike_id": "8141639e76c5b013e0d99bf7d6a433e5", "lat": 38.86649716666667, "fusion_lon": 0.0, "fusion_lat": 0.0, "type": "electric_scooter", "name": "8141639e76c5b013e0d99bf7d6a433e5", "is_disabled": 0, "rental_uris": {"ios": "https://dc.lft.to/lastmile_qr_scan", "android": "https://dc.lft.to/lastmile_qr_scan"}, "is_reserved": 0}, {"lon": -77.02791816666667, "bike_id": "607947b306a63eea1b662fac1fa78780", "lat": 38.929616833333334, "fusion_lon": 0.0, "fusion_lat": 0.0, "type": "electric_scooter", "name": "607947b306a63eea1b662fac1fa78780", "is_disabled": 0, "rental_uris": {"ios": "https://dc.lft.to/lastmile_qr_scan", "android": "https://dc.lft.to/lastmile_qr_scan"}, "is_reserved": 0}, {"lon": -77.0397345, "bike_id": "8386c817c6613171d4dca0a388a76c92", "lat": 38.92804616666667, "fusion_lon": 0.0, "fusion_lat": 0.0, "type": "electric_scooter", "name": "8386c817c6613171d4dca0a388a76c92", "is_disabled": 0, "rental_uris": {"ios": "https://dc.lft.to/lastmile_qr_scan", "android": "https://dc.lft.to/lastmile_qr_scan"}, "is_reserved": 0}, {"lon": -77.0254445, "bike_id": "4650b60b9ae22b23a962f77bf09e435d", "lat": 38.907191166666664, "fusion_lon": 0.0, "fusion_lat": 0.0, "type": "electric_scooter", "name": "4650b60b9ae22b23a962f77bf09e435d", "is_disabled": 0, "rental_uris": {"ios": "https://dc.lft.to/lastmile_qr_scan", "android": "https://dc.lft.to/lastmile_qr_scan"}, "is_reserved": 0}, {"lon": -76.98525633333334, "bike_id": "dac9854dbee6b40250480198bb8e1d0d", "lat": 38.866831833333336, "fusion_lon": 0.0, "fusion_lat": 0.0, "type": "electric_scooter", "name": "dac9854dbee6b40250480198bb8e1d0d", "is_disabled": 0, "rental_uris": {"ios": "https://dc.lft.to/lastmile_qr_scan", "android": "https://dc.lft.to/lastmile_qr_scan"}, "is_reserved": 0}, {"lon": -77.0385205, "bike_id": "953fffbea3ec15755e0efa81b08c9557", "lat": 38.9165955, "fusion_lon": 0.0, "fusion_lat": 0.0, "type": "electric_scooter", "name": "953fffbea3ec15755e0efa81b08c9557", "is_disabled": 0, "rental_uris": {"ios": "https://dc.lft.to/lastmile_qr_scan", "android": "https://dc.lft.to/lastmile_qr_scan"}, "is_reserved": 0}, {"lon": -77.07452133333334, "bike_id": "de3c485acad28237f970ac3c44606bda", "lat": 38.9451265, "fusion_lon": 0.0, "fusion_lat": 0.0, "type": "electric_scooter", "name": "de3c485acad28237f970ac3c44606bda", "is_disabled": 0, "rental_uris": {"ios": "https://dc.lft.to/lastmile_qr_scan", "android": "https://dc.lft.to/lastmile_qr_scan"}, "is_reserved": 0}, {"lon": -77.12526583333333, "bike_id": "08edbc8a6aa43c6f844e44e70dea3ee2", "lat": 39.05632966666667, "fusion_lon": 0.0, "fusion_lat": 0.0, "type": "electric_bike", "name": "08edbc8a6aa43c6f844e44e70dea3ee2", "is_disabled": 0, "rental_uris": {"ios": "https://dc.lft.to/lastmile_qr_scan", "android": "https://dc.lft.to/lastmile_qr_scan"}, "is_reserved": 0}, {"lon": -76.99932333333334, "bike_id": "73f5805a33dfc8c91b5c6e55b524f855", "lat": 38.843144333333335, "fusion_lon": 0.0, "fusion_lat": 0.0, "type": "electric_scooter", "name": "73f5805a33dfc8c91b5c6e55b524f855", "is_disabled": 0, "rental_uris": {"ios": "https://dc.lft.to/lastmile_qr_scan", "android": "https://dc.lft.to/lastmile_qr_scan"}, "is_reserved": 0}, {"lon": -77.02703266666667, "bike_id": "f2b72309a6c49533eb97de80f9ae30ab", "lat": 38.90667583333333, "fusion_lon": 0.0, "fusion_lat": 0.0, "type": "electric_scooter", "name": "f2b72309a6c49533eb97de80f9ae30ab", "is_disabled": 0, "rental_uris": {"ios": "https://dc.lft.to/lastmile_qr_scan", "android": "https://dc.lft.to/lastmile_qr_scan"}, "is_reserved": 0}, {"lon": -77.03445283333333, "bike_id": "6ed5e410ab9551a0257ccd56f4d2390b", "lat": 38.909743166666665, "fusion_lon": 0.0, "fusion_lat": 0.0, "type": "electric_scooter", "name": "6ed5e410ab9551a0257ccd56f4d2390b", "is_disabled": 0, "rental_uris": {"ios": "https://dc.lft.to/lastmile_qr_scan", "android": "https://dc.lft.to/lastmile_qr_scan"}, "is_reserved": 0}, {"lon": -77.04186116666666, "bike_id": "feff01ed69e409cc79f17ab56f7c3ceb", "lat": 38.92056633333333, "fusion_lon": 0.0, "fusion_lat": 0.0, "type": "electric_scooter", "name": "feff01ed69e409cc79f17ab56f7c3ceb", "is_disabled": 0, "rental_uris": {"ios": "https://dc.lft.to/lastmile_qr_scan", "android": "https://dc.lft.to/lastmile_qr_scan"}, "is_reserved": 0}, {"lon": -77.03663483333334, "bike_id": "c34148db7e0c58a7a728f576654fc082", "lat": 38.9175305, "fusion_lon": 0.0, "fusion_lat": 0.0, "type": "electric_scooter", "name": "c34148db7e0c58a7a728f576654fc082", "is_disabled": 0, "rental_uris": {"ios": "https://dc.lft.to/lastmile_qr_scan", "android": "https://dc.lft.to/lastmile_qr_scan"}, "is_reserved": 0}, {"lon": -77.03619066666667, "bike_id": "ea96d10bd67c2a8d9013e21796680c60", "lat": 38.9329185, "fusion_lon": 0.0, "fusion_lat": 0.0, "type": "electric_scooter", "name": "ea96d10bd67c2a8d9013e21796680c60", "is_disabled": 0, "rental_uris": {"ios": "https://dc.lft.to/lastmile_qr_scan", "android": "https://dc.lft.to/lastmile_qr_scan"}, "is_reserved": 0}, {"lon": -77.02852583333333, "bike_id": "eb40d60f0884d72152ffe99ed90c9e74", "lat": 38.88750483333333, "fusion_lon": 0.0, "fusion_lat": 0.0, "type": "electric_scooter", "name": "eb40d60f0884d72152ffe99ed90c9e74", "is_disabled": 0, "rental_uris": {"ios": "https://dc.lft.to/lastmile_qr_scan", "android": "https://dc.lft.to/lastmile_qr_scan"}, "is_reserved": 0}, {"lon": -76.9762875, "bike_id": "63f1306fb4d97c08061fbb375612fafb", "lat": 38.90570966666667, "fusion_lon": 0.0, "fusion_lat": 0.0, "type": "electric_scooter", "name": "63f1306fb4d97c08061fbb375612fafb", "is_disabled": 0, "rental_uris": {"ios": "https://dc.lft.to/lastmile_qr_scan", "android": "https://dc.lft.to/lastmile_qr_scan"}, "is_reserved": 0}, {"lon": -77.02496333333333, "bike_id": "94d18eeac96772ad8b34668f7a3729b4", "lat": 38.939757, "fusion_lon": 0.0, "fusion_lat": 0.0, "type": "electric_scooter", "name": "94d18eeac96772ad8b34668f7a3729b4", "is_disabled": 0, "rental_uris": {"ios": "https://dc.lft.to/lastmile_qr_scan", "android": "https://dc.lft.to/lastmile_qr_scan"}, "is_reserved": 0}, {"lon": -77.02478083333334, "bike_id": "c670693b689689ebefeda0e3ef8d864b", "lat": 38.92593983333333, "fusion_lon": 0.0, "fusion_lat": 0.0, "type": "electric_scooter", "name": "c670693b689689ebefeda0e3ef8d864b", "is_disabled": 0, "rental_uris": {"ios": "https://dc.lft.to/lastmile_qr_scan", "android": "https://dc.lft.to/lastmile_qr_scan"}, "is_reserved": 0}, {"lon": -77.024398, "bike_id": "290817f298a36fb97e82d4f284cc30ef", "lat": 38.936011, "fusion_lon": 0.0, "fusion_lat": 0.0, "type": "electric_scooter", "name": "290817f298a36fb97e82d4f284cc30ef", "is_disabled": 0, "rental_uris": {"ios": "https://dc.lft.to/lastmile_qr_scan", "android": "https://dc.lft.to/lastmile_qr_scan"}, "is_reserved": 0}, {"lon": -77.03896833333333, "bike_id": "1199b87fe8a9c5eec5c32628fd522846", "lat": 38.92334533333333, "fusion_lon": 0.0, "fusion_lat": 0.0, "type": "electric_scooter", "name": "1199b87fe8a9c5eec5c32628fd522846", "is_disabled": 0, "rental_uris": {"ios": "https://dc.lft.to/lastmile_qr_scan", "android": "https://dc.lft.to/lastmile_qr_scan"}, "is_reserved": 0}, {"lon": -77.0280455, "bike_id": "a90ee022278206647a3bd767b5c05d7d", "lat": 38.94194266666667, "fusion_lon": 0.0, "fusion_lat": 0.0, "type": "electric_scooter", "name": "a90ee022278206647a3bd767b5c05d7d", "is_disabled": 0, "rental_uris": {"ios": "https://dc.lft.to/lastmile_qr_scan", "android": "https://dc.lft.to/lastmile_qr_scan"}, "is_reserved": 0}, {"lon": -77.02830716666666, "bike_id": "7ecee79d6a5000f65c58545f824dcf63", "lat": 38.89521583333333, "fusion_lon": 0.0, "fusion_lat": 0.0, "type": "electric_scooter", "name": "7ecee79d6a5000f65c58545f824dcf63", "is_disabled": 0, "rental_uris": {"ios": "https://dc.lft.to/lastmile_qr_scan", "android": "https://dc.lft.to/lastmile_qr_scan"}, "is_reserved": 0}, {"lon": -77.0272895, "bike_id": "e100aa2af508c848ae9716e1c53eabfa", "lat": 38.89747783333333, "fusion_lon": 0.0, "fusion_lat": 0.0, "type": "electric_scooter", "name": "e100aa2af508c848ae9716e1c53eabfa", "is_disabled": 0, "rental_uris": {"ios": "https://dc.lft.to/lastmile_qr_scan", "android": "https://dc.lft.to/lastmile_qr_scan"}, "is_reserved": 0}, {"lon": -77.03598483333333, "bike_id": "4da82047806b6bc09a43589666d4c49d", "lat": 38.91778433333333, "fusion_lon": 0.0, "fusion_lat": 0.0, "type": "electric_scooter", "name": "4da82047806b6bc09a43589666d4c49d", "is_disabled": 0, "rental_uris": {"ios": "https://dc.lft.to/lastmile_qr_scan", "android": "https://dc.lft.to/lastmile_qr_scan"}, "is_reserved": 0}, {"lon": -76.97009566666667, "bike_id": "a6590adac50fa2080ce412e501621f1d", "lat": 38.86372883333333, "fusion_lon": 0.0, "fusion_lat": 0.0, "type": "electric_bike", "name": "a6590adac50fa2080ce412e501621f1d", "is_disabled": 0, "rental_uris": {"ios": "https://dc.lft.to/lastmile_qr_scan", "android": "https://dc.lft.to/lastmile_qr_scan"}, "is_reserved": 0}, {"lon": -77.02379516666667, "bike_id": "ef63e712e7ddce8385827ab295ace95c", "lat": 38.9073015, "fusion_lon": 0.0, "fusion_lat": 0.0, "type": "electric_scooter", "name": "ef63e712e7ddce8385827ab295ace95c", "is_disabled": 0, "rental_uris": {"ios": "https://dc.lft.to/lastmile_qr_scan", "android": "https://dc.lft.to/lastmile_qr_scan"}, "is_reserved": 0}, {"lon": -76.97846766666666, "bike_id": "35089b309b160edc1e0fd9209790e17c", "lat": 38.86571333333333, "fusion_lon": 0.0, "fusion_lat": 0.0, "type": "electric_scooter", "name": "35089b309b160edc1e0fd9209790e17c", "is_disabled": 0, "rental_uris": {"ios": "https://dc.lft.to/lastmile_qr_scan", "android": "https://dc.lft.to/lastmile_qr_scan"}, "is_reserved": 0}, {"lon": -77.043569, "bike_id": "1b055d213efaf44380bc035f8bd964f1", "lat": 39.015405333333334, "fusion_lon": 0.0, "fusion_lat": 0.0, "type": "electric_bike", "name": "1b055d213efaf44380bc035f8bd964f1", "is_disabled": 0, "rental_uris": {"ios": "https://dc.lft.to/lastmile_qr_scan", "android": "https://dc.lft.to/lastmile_qr_scan"}, "is_reserved": 0}, {"lon": -76.94892483333334, "bike_id": "56e517ab8c245c3cbbeefd24bacebfa4", "lat": 38.89531816666667, "fusion_lon": 0.0, "fusion_lat": 0.0, "type": "electric_scooter", "name": "56e517ab8c245c3cbbeefd24bacebfa4", "is_disabled": 0, "rental_uris": {"ios": "https://dc.lft.to/lastmile_qr_scan", "android": "https://dc.lft.to/lastmile_qr_scan"}, "is_reserved": 0}, {"lon": -77.021169, "bike_id": "41528a7c6277e0ab3960f781d4ed63dc", "lat": 38.935778, "fusion_lon": 0.0, "fusion_lat": 0.0, "type": "electric_bike", "name": "41528a7c6277e0ab3960f781d4ed63dc", "is_disabled": 0, "rental_uris": {"ios": "https://dc.lft.to/lastmile_qr_scan", "android": "https://dc.lft.to/lastmile_qr_scan"}, "is_reserved": 0}, {"lon": -77.04019633333333, "bike_id": "c9228de90629ee3ae958559a467bdd0f", "lat": 38.92448383333333, "fusion_lon": 0.0, "fusion_lat": 0.0, "type": "electric_scooter", "name": "c9228de90629ee3ae958559a467bdd0f", "is_disabled": 0, "rental_uris": {"ios": "https://dc.lft.to/lastmile_qr_scan", "android": "https://dc.lft.to/lastmile_qr_scan"}, "is_reserved": 0}, {"lon": -77.01752983333333, "bike_id": "d1db09e6510caa31b8a71f3ee5ce83dc", "lat": 38.902564166666664, "fusion_lon": 0.0, "fusion_lat": 0.0, "type": "electric_scooter", "name": "d1db09e6510caa31b8a71f3ee5ce83dc", "is_disabled": 0, "rental_uris": {"ios": "https://dc.lft.to/lastmile_qr_scan", "android": "https://dc.lft.to/lastmile_qr_scan"}, "is_reserved": 0}, {"lon": -77.02597716666666, "bike_id": "1343caefaef6a7b7bf5e1c21eab6b82f", "lat": 38.9279835, "fusion_lon": 0.0, "fusion_lat": 0.0, "type": "electric_scooter", "name": "1343caefaef6a7b7bf5e1c21eab6b82f", "is_disabled": 0, "rental_uris": {"ios": "https://dc.lft.to/lastmile_qr_scan", "android": "https://dc.lft.to/lastmile_qr_scan"}, "is_reserved": 0}, {"lon": -76.98714616666666, "bike_id": "d91c7416cbd3a968e616ec14689fdcd5", "lat": 38.86703516666667, "fusion_lon": 0.0, "fusion_lat": 0.0, "type": "electric_scooter", "name": "d91c7416cbd3a968e616ec14689fdcd5", "is_disabled": 0, "rental_uris": {"ios": "https://dc.lft.to/lastmile_qr_scan", "android": "https://dc.lft.to/lastmile_qr_scan"}, "is_reserved": 0}, {"lon": -77.03031516666667, "bike_id": "a8e54dca5e1c17db17a341f1c8aa56a6", "lat": 38.9167965, "fusion_lon": 0.0, "fusion_lat": 0.0, "type": "electric_scooter", "name": "a8e54dca5e1c17db17a341f1c8aa56a6", "is_disabled": 0, "rental_uris": {"ios": "https://dc.lft.to/lastmile_qr_scan", "android": "https://dc.lft.to/lastmile_qr_scan"}, "is_reserved": 0}, {"lon": -77.01205083333333, "bike_id": "ed5f80b1e317978566c70cc3e2cd7bdb", "lat": 38.9159125, "fusion_lon": 0.0, "fusion_lat": 0.0, "type": "electric_scooter", "name": "ed5f80b1e317978566c70cc3e2cd7bdb", "is_disabled": 0, "rental_uris": {"ios": "https://dc.lft.to/lastmile_qr_scan", "android": "https://dc.lft.to/lastmile_qr_scan"}, "is_reserved": 0}, {"lon": -77.03166866666666, "bike_id": "ee913cc53ab75852a5f6664e9f4bedf3", "lat": 38.92104666666667, "fusion_lon": 0.0, "fusion_lat": 0.0, "type": "electric_scooter", "name": "ee913cc53ab75852a5f6664e9f4bedf3", "is_disabled": 0, "rental_uris": {"ios": "https://dc.lft.to/lastmile_qr_scan", "android": "https://dc.lft.to/lastmile_qr_scan"}, "is_reserved": 0}, {"lon": -77.03512133333334, "bike_id": "a3f9b9d6815fb94858f3ed081eb009d2", "lat": 38.923412666666664, "fusion_lon": 0.0, "fusion_lat": 0.0, "type": "electric_scooter", "name": "a3f9b9d6815fb94858f3ed081eb009d2", "is_disabled": 0, "rental_uris": {"ios": "https://dc.lft.to/lastmile_qr_scan", "android": "https://dc.lft.to/lastmile_qr_scan"}, "is_reserved": 0}, {"lon": -76.9888135, "bike_id": "c89233cd91bd71e77014abbd239f735d", "lat": 38.86647166666667, "fusion_lon": 0.0, "fusion_lat": 0.0, "type": "electric_scooter", "name": "c89233cd91bd71e77014abbd239f735d", "is_disabled": 0, "rental_uris": {"ios": "https://dc.lft.to/lastmile_qr_scan", "android": "https://dc.lft.to/lastmile_qr_scan"}, "is_reserved": 0}, {"lon": -77.03821383333333, "bike_id": "79bd6abf3bc3defe2eb4dc2e4671980e", "lat": 38.90331116666667, "fusion_lon": 0.0, "fusion_lat": 0.0, "type": "electric_scooter", "name": "79bd6abf3bc3defe2eb4dc2e4671980e", "is_disabled": 0, "rental_uris": {"ios": "https://dc.lft.to/lastmile_qr_scan", "android": "https://dc.lft.to/lastmile_qr_scan"}, "is_reserved": 0}, {"lon": -77.04649716666667, "bike_id": "c754982da86ba7cefe3bc3fe1b8372ad", "lat": 38.92124166666667, "fusion_lon": 0.0, "fusion_lat": 0.0, "type": "electric_scooter", "name": "c754982da86ba7cefe3bc3fe1b8372ad", "is_disabled": 0, "rental_uris": {"ios": "https://dc.lft.to/lastmile_qr_scan", "android": "https://dc.lft.to/lastmile_qr_scan"}, "is_reserved": 0}, {"lon": -76.98540166666666, "bike_id": "24b06634cfe1abd1c3c95f04065088cd", "lat": 38.910268, "fusion_lon": 0.0, "fusion_lat": 0.0, "type": "electric_scooter", "name": "24b06634cfe1abd1c3c95f04065088cd", "is_disabled": 0, "rental_uris": {"ios": "https://dc.lft.to/lastmile_qr_scan", "android": "https://dc.lft.to/lastmile_qr_scan"}, "is_reserved": 0}, {"lon": -77.02714083333333, "bike_id": "337a07fdd99c36a45cbf31560616ec64", "lat": 38.927667166666666, "fusion_lon": 0.0, "fusion_lat": 0.0, "type": "electric_scooter", "name": "337a07fdd99c36a45cbf31560616ec64", "is_disabled": 0, "rental_uris": {"ios": "https://dc.lft.to/lastmile_qr_scan", "android": "https://dc.lft.to/lastmile_qr_scan"}, "is_reserved": 0}, {"lon": -77.04977633333333, "bike_id": "3a6ac3446e629d753e00bb28be26d01d", "lat": 38.89975533333333, "fusion_lon": 0.0, "fusion_lat": 0.0, "type": "electric_scooter", "name": "3a6ac3446e629d753e00bb28be26d01d", "is_disabled": 0, "rental_uris": {"ios": "https://dc.lft.to/lastmile_qr_scan", "android": "https://dc.lft.to/lastmile_qr_scan"}, "is_reserved": 0}, {"lon": -77.03380616666666, "bike_id": "5128c63315e29ad4bb8b71b98a4164ff", "lat": 38.9215745, "fusion_lon": 0.0, "fusion_lat": 0.0, "type": "electric_scooter", "name": "5128c63315e29ad4bb8b71b98a4164ff", "is_disabled": 0, "rental_uris": {"ios": "https://dc.lft.to/lastmile_qr_scan", "android": "https://dc.lft.to/lastmile_qr_scan"}, "is_reserved": 0}, {"lon": -77.06102566666667, "bike_id": "f5deb2b124f470980ec620d4a12fff7d", "lat": 38.9370815, "fusion_lon": 0.0, "fusion_lat": 0.0, "type": "electric_scooter", "name": "f5deb2b124f470980ec620d4a12fff7d", "is_disabled": 0, "rental_uris": {"ios": "https://dc.lft.to/lastmile_qr_scan", "android": "https://dc.lft.to/lastmile_qr_scan"}, "is_reserved": 0}, {"lon": -77.0236705, "bike_id": "77b778aa00f0835f00f083c30efedd97", "lat": 38.8922125, "fusion_lon": 0.0, "fusion_lat": 0.0, "type": "electric_scooter", "name": "77b778aa00f0835f00f083c30efedd97", "is_disabled": 0, "rental_uris": {"ios": "https://dc.lft.to/lastmile_qr_scan", "android": "https://dc.lft.to/lastmile_qr_scan"}, "is_reserved": 0}, {"lon": -77.00374533333333, "bike_id": "e02c49034a06fdb9014669d876ab12cf", "lat": 38.89734033333333, "fusion_lon": 0.0, "fusion_lat": 0.0, "type": "electric_scooter", "name": "e02c49034a06fdb9014669d876ab12cf", "is_disabled": 0, "rental_uris": {"ios": "https://dc.lft.to/lastmile_qr_scan", "android": "https://dc.lft.to/lastmile_qr_scan"}, "is_reserved": 0}, {"lon": -77.02610283333334, "bike_id": "d5cc00cdbd7158408cda82f31309a566", "lat": 38.928786, "fusion_lon": 0.0, "fusion_lat": 0.0, "type": "electric_scooter", "name": "d5cc00cdbd7158408cda82f31309a566", "is_disabled": 0, "rental_uris": {"ios": "https://dc.lft.to/lastmile_qr_scan", "android": "https://dc.lft.to/lastmile_qr_scan"}, "is_reserved": 0}, {"lon": -77.03258333333333, "bike_id": "353e70e580addab644d9f704f9f2048d", "lat": 38.91991633333333, "fusion_lon": 0.0, "fusion_lat": 0.0, "type": "electric_scooter", "name": "353e70e580addab644d9f704f9f2048d", "is_disabled": 0, "rental_uris": {"ios": "https://dc.lft.to/lastmile_qr_scan", "android": "https://dc.lft.to/lastmile_qr_scan"}, "is_reserved": 0}, {"lon": -77.03410383333333, "bike_id": "eb602cece29b47e00c38b60536ab4744", "lat": 38.93420966666667, "fusion_lon": 0.0, "fusion_lat": 0.0, "type": "electric_scooter", "name": "eb602cece29b47e00c38b60536ab4744", "is_disabled": 0, "rental_uris": {"ios": "https://dc.lft.to/lastmile_qr_scan", "android": "https://dc.lft.to/lastmile_qr_scan"}, "is_reserved": 0}, {"lon": -77.03495433333333, "bike_id": "8d0392c1598cb8a83be3dcf2fe7ff7c9", "lat": 38.9169965, "fusion_lon": 0.0, "fusion_lat": 0.0, "type": "electric_scooter", "name": "8d0392c1598cb8a83be3dcf2fe7ff7c9", "is_disabled": 0, "rental_uris": {"ios": "https://dc.lft.to/lastmile_qr_scan", "android": "https://dc.lft.to/lastmile_qr_scan"}, "is_reserved": 0}, {"lon": -77.01162166666667, "bike_id": "a2314d943905a393a7613d3de564eed1", "lat": 38.91411566666667, "fusion_lon": 0.0, "fusion_lat": 0.0, "type": "electric_scooter", "name": "a2314d943905a393a7613d3de564eed1", "is_disabled": 0, "rental_uris": {"ios": "https://dc.lft.to/lastmile_qr_scan", "android": "https://dc.lft.to/lastmile_qr_scan"}, "is_reserved": 0}, {"lon": -77.01749366666667, "bike_id": "c51b029d573116ccab707a00bb93e384", "lat": 38.9026215, "fusion_lon": 0.0, "fusion_lat": 0.0, "type": "electric_scooter", "name": "c51b029d573116ccab707a00bb93e384", "is_disabled": 0, "rental_uris": {"ios": "https://dc.lft.to/lastmile_qr_scan", "android": "https://dc.lft.to/lastmile_qr_scan"}, "is_reserved": 0}, {"lon": -77.02010983333334, "bike_id": "f7539afd6ad3f7cee931f740ef315199", "lat": 38.8989275, "fusion_lon": 0.0, "fusion_lat": 0.0, "type": "electric_scooter", "name": "f7539afd6ad3f7cee931f740ef315199", "is_disabled": 0, "rental_uris": {"ios": "https://dc.lft.to/lastmile_qr_scan", "android": "https://dc.lft.to/lastmile_qr_scan"}, "is_reserved": 0}, {"lon": -76.97531283333333, "bike_id": "5313b957a9ae7808ee9f704a656c8fab", "lat": 38.9032365, "fusion_lon": 0.0, "fusion_lat": 0.0, "type": "electric_bike", "name": "5313b957a9ae7808ee9f704a656c8fab", "is_disabled": 0, "rental_uris": {"ios": "https://dc.lft.to/lastmile_qr_scan", "android": "https://dc.lft.to/lastmile_qr_scan"}, "is_reserved": 0}, {"lon": -77.0586365, "bike_id": "f7004bcb608825bb128d49dcb8c024dd", "lat": 38.93604, "fusion_lon": 0.0, "fusion_lat": 0.0, "type": "electric_scooter", "name": "f7004bcb608825bb128d49dcb8c024dd", "is_disabled": 0, "rental_uris": {"ios": "https://dc.lft.to/lastmile_qr_scan", "android": "https://dc.lft.to/lastmile_qr_scan"}, "is_reserved": 0}, {"lon": -77.0382855, "bike_id": "b9be03cbd0d10be3bcaf785a88b4153e", "lat": 38.906732833333336, "fusion_lon": 0.0, "fusion_lat": 0.0, "type": "electric_scooter", "name": "b9be03cbd0d10be3bcaf785a88b4153e", "is_disabled": 0, "rental_uris": {"ios": "https://dc.lft.to/lastmile_qr_scan", "android": "https://dc.lft.to/lastmile_qr_scan"}, "is_reserved": 0}, {"lon": -77.02763, "bike_id": "89c5b24977e4a85db77af8b094687a60", "lat": 38.944062, "fusion_lon": 0.0, "fusion_lat": 0.0, "type": "electric_scooter", "name": "89c5b24977e4a85db77af8b094687a60", "is_disabled": 0, "rental_uris": {"ios": "https://dc.lft.to/lastmile_qr_scan", "android": "https://dc.lft.to/lastmile_qr_scan"}, "is_reserved": 0}, {"lon": -77.05497833333334, "bike_id": "40ff5280b046aabf9331a037522f4247", "lat": 38.8999525, "fusion_lon": 0.0, "fusion_lat": 0.0, "type": "electric_scooter", "name": "40ff5280b046aabf9331a037522f4247", "is_disabled": 0, "rental_uris": {"ios": "https://dc.lft.to/lastmile_qr_scan", "android": "https://dc.lft.to/lastmile_qr_scan"}, "is_reserved": 0}, {"lon": -77.04251216666667, "bike_id": "107a07c235723060929b00d7e6f70268", "lat": 38.9149655, "fusion_lon": 0.0, "fusion_lat": 0.0, "type": "electric_scooter", "name": "107a07c235723060929b00d7e6f70268", "is_disabled": 0, "rental_uris": {"ios": "https://dc.lft.to/lastmile_qr_scan", "android": "https://dc.lft.to/lastmile_qr_scan"}, "is_reserved": 0}, {"lon": -77.030693, "bike_id": "05bef6556b1c244d1b4a1f311e29b027", "lat": 38.90265733333333, "fusion_lon": 0.0, "fusion_lat": 0.0, "type": "electric_scooter", "name": "05bef6556b1c244d1b4a1f311e29b027", "is_disabled": 0, "rental_uris": {"ios": "https://dc.lft.to/lastmile_qr_scan", "android": "https://dc.lft.to/lastmile_qr_scan"}, "is_reserved": 0}, {"lon": -77.03178716666666, "bike_id": "5cbdb80990a6f7ad2e490c4a0b1d60e4", "lat": 38.91745783333333, "fusion_lon": 0.0, "fusion_lat": 0.0, "type": "electric_scooter", "name": "5cbdb80990a6f7ad2e490c4a0b1d60e4", "is_disabled": 0, "rental_uris": {"ios": "https://dc.lft.to/lastmile_qr_scan", "android": "https://dc.lft.to/lastmile_qr_scan"}, "is_reserved": 0}, {"lon": -77.03316666666667, "bike_id": "1ecac392c64225b7920ee30a41ae4ff7", "lat": 38.91563, "fusion_lon": 0.0, "fusion_lat": 0.0, "type": "electric_scooter", "name": "1ecac392c64225b7920ee30a41ae4ff7", "is_disabled": 0, "rental_uris": {"ios": "https://dc.lft.to/lastmile_qr_scan", "android": "https://dc.lft.to/lastmile_qr_scan"}, "is_reserved": 0}, {"lon": -77.01989116666667, "bike_id": "29e38595417ce2997b10f89a634f4c22", "lat": 38.913632, "fusion_lon": 0.0, "fusion_lat": 0.0, "type": "electric_scooter", "name": "29e38595417ce2997b10f89a634f4c22", "is_disabled": 0, "rental_uris": {"ios": "https://dc.lft.to/lastmile_qr_scan", "android": "https://dc.lft.to/lastmile_qr_scan"}, "is_reserved": 0}, {"lon": -77.021467, "bike_id": "65e89d82b26f7979f8ced291bf25f2de", "lat": 38.9010475, "fusion_lon": 0.0, "fusion_lat": 0.0, "type": "electric_scooter", "name": "65e89d82b26f7979f8ced291bf25f2de", "is_disabled": 0, "rental_uris": {"ios": "https://dc.lft.to/lastmile_qr_scan", "android": "https://dc.lft.to/lastmile_qr_scan"}, "is_reserved": 0}, {"lon": -77.01011, "bike_id": "4f13f17870dff852e4f22e282ae55f36", "lat": 38.86718066666667, "fusion_lon": 0.0, "fusion_lat": 0.0, "type": "electric_scooter", "name": "4f13f17870dff852e4f22e282ae55f36", "is_disabled": 0, "rental_uris": {"ios": "https://dc.lft.to/lastmile_qr_scan", "android": "https://dc.lft.to/lastmile_qr_scan"}, "is_reserved": 0}, {"lon": -77.02192066666667, "bike_id": "e9ec656e0392cfff725b0d31beae3f76", "lat": 38.90980016666666, "fusion_lon": 0.0, "fusion_lat": 0.0, "type": "electric_scooter", "name": "e9ec656e0392cfff725b0d31beae3f76", "is_disabled": 0, "rental_uris": {"ios": "https://dc.lft.to/lastmile_qr_scan", "android": "https://dc.lft.to/lastmile_qr_scan"}, "is_reserved": 0}, {"lon": -77.02382683333333, "bike_id": "422ce1dc5e7633f49f53a90c294d57e6", "lat": 38.9200305, "fusion_lon": 0.0, "fusion_lat": 0.0, "type": "electric_scooter", "name": "422ce1dc5e7633f49f53a90c294d57e6", "is_disabled": 0, "rental_uris": {"ios": "https://dc.lft.to/lastmile_qr_scan", "android": "https://dc.lft.to/lastmile_qr_scan"}, "is_reserved": 0}, {"lon": -77.040364, "bike_id": "092954688f6113d12827bea6bb8dab1a", "lat": 38.90393266666667, "fusion_lon": 0.0, "fusion_lat": 0.0, "type": "electric_scooter", "name": "092954688f6113d12827bea6bb8dab1a", "is_disabled": 0, "rental_uris": {"ios": "https://dc.lft.to/lastmile_qr_scan", "android": "https://dc.lft.to/lastmile_qr_scan"}, "is_reserved": 0}, {"lon": -77.03919283333333, "bike_id": "56716f600b6b2d9e563bd715c9e8c9e3", "lat": 38.921070666666665, "fusion_lon": 0.0, "fusion_lat": 0.0, "type": "electric_scooter", "name": "56716f600b6b2d9e563bd715c9e8c9e3", "is_disabled": 0, "rental_uris": {"ios": "https://dc.lft.to/lastmile_qr_scan", "android": "https://dc.lft.to/lastmile_qr_scan"}, "is_reserved": 0}, {"lon": -77.02998716666667, "bike_id": "5f63602ebaeef99a4d9919a504dd32a1", "lat": 38.912540166666666, "fusion_lon": 0.0, "fusion_lat": 0.0, "type": "electric_scooter", "name": "5f63602ebaeef99a4d9919a504dd32a1", "is_disabled": 0, "rental_uris": {"ios": "https://dc.lft.to/lastmile_qr_scan", "android": "https://dc.lft.to/lastmile_qr_scan"}, "is_reserved": 0}, {"lon": -76.98406283333334, "bike_id": "a370e51ee048999c5838af407b8555f4", "lat": 38.90629716666667, "fusion_lon": 0.0, "fusion_lat": 0.0, "type": "electric_scooter", "name": "a370e51ee048999c5838af407b8555f4", "is_disabled": 0, "rental_uris": {"ios": "https://dc.lft.to/lastmile_qr_scan", "android": "https://dc.lft.to/lastmile_qr_scan"}, "is_reserved": 0}, {"lon": -76.98947066666666, "bike_id": "3cb95ba145b598685692e0b755995cab", "lat": 38.91845466666667, "fusion_lon": 0.0, "fusion_lat": 0.0, "type": "electric_scooter", "name": "3cb95ba145b598685692e0b755995cab", "is_disabled": 0, "rental_uris": {"ios": "https://dc.lft.to/lastmile_qr_scan", "android": "https://dc.lft.to/lastmile_qr_scan"}, "is_reserved": 0}, {"lon": -77.0377005, "bike_id": "9b1def6c51db2d27fe552b1e3f259dd1", "lat": 38.929639, "fusion_lon": 0.0, "fusion_lat": 0.0, "type": "electric_scooter", "name": "9b1def6c51db2d27fe552b1e3f259dd1", "is_disabled": 0, "rental_uris": {"ios": "https://dc.lft.to/lastmile_qr_scan", "android": "https://dc.lft.to/lastmile_qr_scan"}, "is_reserved": 0}, {"lon": -77.02572833333333, "bike_id": "e275e507fe23c6935549e74cb20e7b57", "lat": 38.9133905, "fusion_lon": 0.0, "fusion_lat": 0.0, "type": "electric_scooter", "name": "e275e507fe23c6935549e74cb20e7b57", "is_disabled": 0, "rental_uris": {"ios": "https://dc.lft.to/lastmile_qr_scan", "android": "https://dc.lft.to/lastmile_qr_scan"}, "is_reserved": 0}, {"lon": -77.036901, "bike_id": "1a5746bc58079fb7ad9bad400ad22389", "lat": 38.935234666666666, "fusion_lon": 0.0, "fusion_lat": 0.0, "type": "electric_scooter", "name": "1a5746bc58079fb7ad9bad400ad22389", "is_disabled": 0, "rental_uris": {"ios": "https://dc.lft.to/lastmile_qr_scan", "android": "https://dc.lft.to/lastmile_qr_scan"}, "is_reserved": 0}, {"lon": -77.02515283333334, "bike_id": "b3305128f3344f6f60d239a77872d65b", "lat": 38.9206885, "fusion_lon": 0.0, "fusion_lat": 0.0, "type": "electric_scooter", "name": "b3305128f3344f6f60d239a77872d65b", "is_disabled": 0, "rental_uris": {"ios": "https://dc.lft.to/lastmile_qr_scan", "android": "https://dc.lft.to/lastmile_qr_scan"}, "is_reserved": 0}, {"lon": -76.98769, "bike_id": "6c575c6df7c7771f0e5c0b35c8c05a2e", "lat": 38.85771483333333, "fusion_lon": 0.0, "fusion_lat": 0.0, "type": "electric_bike", "name": "6c575c6df7c7771f0e5c0b35c8c05a2e", "is_disabled": 0, "rental_uris": {"ios": "https://dc.lft.to/lastmile_qr_scan", "android": "https://dc.lft.to/lastmile_qr_scan"}, "is_reserved": 0}, {"lon": -77.0558525, "bike_id": "b4d74059a51a966b5f064466120d9346", "lat": 38.893108, "fusion_lon": 0.0, "fusion_lat": 0.0, "type": "electric_scooter", "name": "b4d74059a51a966b5f064466120d9346", "is_disabled": 0, "rental_uris": {"ios": "https://dc.lft.to/lastmile_qr_scan", "android": "https://dc.lft.to/lastmile_qr_scan"}, "is_reserved": 0}, {"lon": -77.050575, "bike_id": "53bd8a87d944038ec84fdc2fa6465d67", "lat": 38.9258435, "fusion_lon": 0.0, "fusion_lat": 0.0, "type": "electric_scooter", "name": "53bd8a87d944038ec84fdc2fa6465d67", "is_disabled": 0, "rental_uris": {"ios": "https://dc.lft.to/lastmile_qr_scan", "android": "https://dc.lft.to/lastmile_qr_scan"}, "is_reserved": 0}, {"lon": -77.036547, "bike_id": "46589625bcd581a4120e34fbee98adc1", "lat": 38.916784666666665, "fusion_lon": 0.0, "fusion_lat": 0.0, "type": "electric_scooter", "name": "46589625bcd581a4120e34fbee98adc1", "is_disabled": 0, "rental_uris": {"ios": "https://dc.lft.to/lastmile_qr_scan", "android": "https://dc.lft.to/lastmile_qr_scan"}, "is_reserved": 0}, {"lon": -77.0376715, "bike_id": "6b686849a2cad75b7eb664118688fa3c", "lat": 38.9288595, "fusion_lon": 0.0, "fusion_lat": 0.0, "type": "electric_scooter", "name": "6b686849a2cad75b7eb664118688fa3c", "is_disabled": 0, "rental_uris": {"ios": "https://dc.lft.to/lastmile_qr_scan", "android": "https://dc.lft.to/lastmile_qr_scan"}, "is_reserved": 0}, {"lon": -77.03337533333334, "bike_id": "6d245799299d250528ce7240b559d469", "lat": 38.915713333333336, "fusion_lon": 0.0, "fusion_lat": 0.0, "type": "electric_scooter", "name": "6d245799299d250528ce7240b559d469", "is_disabled": 0, "rental_uris": {"ios": "https://dc.lft.to/lastmile_qr_scan", "android": "https://dc.lft.to/lastmile_qr_scan"}, "is_reserved": 0}, {"lon": -76.98457616666667, "bike_id": "49386973f14513e944f731eaa18adbd1", "lat": 38.90553933333333, "fusion_lon": 0.0, "fusion_lat": 0.0, "type": "electric_scooter", "name": "49386973f14513e944f731eaa18adbd1", "is_disabled": 0, "rental_uris": {"ios": "https://dc.lft.to/lastmile_qr_scan", "android": "https://dc.lft.to/lastmile_qr_scan"}, "is_reserved": 0}, {"lon": -76.9917075, "bike_id": "530fc18a9f4a6ce5ab3ed3de38d6ae8d", "lat": 38.889854166666666, "fusion_lon": 0.0, "fusion_lat": 0.0, "type": "electric_scooter", "name": "530fc18a9f4a6ce5ab3ed3de38d6ae8d", "is_disabled": 0, "rental_uris": {"ios": "https://dc.lft.to/lastmile_qr_scan", "android": "https://dc.lft.to/lastmile_qr_scan"}, "is_reserved": 0}, {"lon": -77.0035015, "bike_id": "5778d587ab14631fe59f8ff3e88c17d4", "lat": 38.916280666666665, "fusion_lon": 0.0, "fusion_lat": 0.0, "type": "electric_scooter", "name": "5778d587ab14631fe59f8ff3e88c17d4", "is_disabled": 0, "rental_uris": {"ios": "https://dc.lft.to/lastmile_qr_scan", "android": "https://dc.lft.to/lastmile_qr_scan"}, "is_reserved": 0}, {"lon": -77.03255333333334, "bike_id": "e505ee2b8238ed4b9efed2acfc2c4e5a", "lat": 38.94151466666667, "fusion_lon": 0.0, "fusion_lat": 0.0, "type": "electric_scooter", "name": "e505ee2b8238ed4b9efed2acfc2c4e5a", "is_disabled": 0, "rental_uris": {"ios": "https://dc.lft.to/lastmile_qr_scan", "android": "https://dc.lft.to/lastmile_qr_scan"}, "is_reserved": 0}, {"lon": -77.02437816666666, "bike_id": "f2deaf034c989b716f49593176baf782", "lat": 38.92348166666667, "fusion_lon": 0.0, "fusion_lat": 0.0, "type": "electric_scooter", "name": "f2deaf034c989b716f49593176baf782", "is_disabled": 0, "rental_uris": {"ios": "https://dc.lft.to/lastmile_qr_scan", "android": "https://dc.lft.to/lastmile_qr_scan"}, "is_reserved": 0}, {"lon": -77.04092016666667, "bike_id": "016e8deb3c568b03f29c29c602083b65", "lat": 38.909608166666665, "fusion_lon": 0.0, "fusion_lat": 0.0, "type": "electric_scooter", "name": "016e8deb3c568b03f29c29c602083b65", "is_disabled": 0, "rental_uris": {"ios": "https://dc.lft.to/lastmile_qr_scan", "android": "https://dc.lft.to/lastmile_qr_scan"}, "is_reserved": 0}, {"lon": -77.03424133333333, "bike_id": "84e86a23c466eb1567f1fa2ae13cae5f", "lat": 38.919228, "fusion_lon": 0.0, "fusion_lat": 0.0, "type": "electric_scooter", "name": "84e86a23c466eb1567f1fa2ae13cae5f", "is_disabled": 0, "rental_uris": {"ios": "https://dc.lft.to/lastmile_qr_scan", "android": "https://dc.lft.to/lastmile_qr_scan"}, "is_reserved": 0}, {"lon": -77.02531066666667, "bike_id": "b60ca11f9c1d3b4bdaebeae6f767113f", "lat": 38.9273865, "fusion_lon": 0.0, "fusion_lat": 0.0, "type": "electric_scooter", "name": "b60ca11f9c1d3b4bdaebeae6f767113f", "is_disabled": 0, "rental_uris": {"ios": "https://dc.lft.to/lastmile_qr_scan", "android": "https://dc.lft.to/lastmile_qr_scan"}, "is_reserved": 0}, {"lon": -77.042229, "bike_id": "ce687dcc888c1c47015c94df01e2954e", "lat": 38.9170755, "fusion_lon": 0.0, "fusion_lat": 0.0, "type": "electric_scooter", "name": "ce687dcc888c1c47015c94df01e2954e", "is_disabled": 0, "rental_uris": {"ios": "https://dc.lft.to/lastmile_qr_scan", "android": "https://dc.lft.to/lastmile_qr_scan"}, "is_reserved": 0}, {"lon": -77.010174, "bike_id": "bcd1a070de5eab64134cf72e3fac6c06", "lat": 38.895062, "fusion_lon": 0.0, "fusion_lat": 0.0, "type": "electric_scooter", "name": "bcd1a070de5eab64134cf72e3fac6c06", "is_disabled": 0, "rental_uris": {"ios": "https://dc.lft.to/lastmile_qr_scan", "android": "https://dc.lft.to/lastmile_qr_scan"}, "is_reserved": 0}, {"lon": -77.02630683333334, "bike_id": "6526587214b1fc5ada9d7595195db581", "lat": 38.962298, "fusion_lon": 0.0, "fusion_lat": 0.0, "type": "electric_bike", "name": "6526587214b1fc5ada9d7595195db581", "is_disabled": 0, "rental_uris": {"ios": "https://dc.lft.to/lastmile_qr_scan", "android": "https://dc.lft.to/lastmile_qr_scan"}, "is_reserved": 0}, {"lon": -76.9953915, "bike_id": "bb39cd2e40b4db632edefcb4c79b9670", "lat": 38.883818166666664, "fusion_lon": 0.0, "fusion_lat": 0.0, "type": "electric_scooter", "name": "bb39cd2e40b4db632edefcb4c79b9670", "is_disabled": 0, "rental_uris": {"ios": "https://dc.lft.to/lastmile_qr_scan", "android": "https://dc.lft.to/lastmile_qr_scan"}, "is_reserved": 0}, {"lon": -77.0193245, "bike_id": "d1022b185a06d714f2f9683fd15f4ee8", "lat": 38.88639416666667, "fusion_lon": 0.0, "fusion_lat": 0.0, "type": "electric_scooter", "name": "d1022b185a06d714f2f9683fd15f4ee8", "is_disabled": 0, "rental_uris": {"ios": "https://dc.lft.to/lastmile_qr_scan", "android": "https://dc.lft.to/lastmile_qr_scan"}, "is_reserved": 0}, {"lon": -76.9927065, "bike_id": "d8d6abbda705674633bdad0dd041c5f8", "lat": 38.897693, "fusion_lon": 0.0, "fusion_lat": 0.0, "type": "electric_scooter", "name": "d8d6abbda705674633bdad0dd041c5f8", "is_disabled": 0, "rental_uris": {"ios": "https://dc.lft.to/lastmile_qr_scan", "android": "https://dc.lft.to/lastmile_qr_scan"}, "is_reserved": 0}, {"lon": -77.03178033333333, "bike_id": "ef196da9605bd27df92d994912049727", "lat": 38.91900783333333, "fusion_lon": 0.0, "fusion_lat": 0.0, "type": "electric_scooter", "name": "ef196da9605bd27df92d994912049727", "is_disabled": 0, "rental_uris": {"ios": "https://dc.lft.to/lastmile_qr_scan", "android": "https://dc.lft.to/lastmile_qr_scan"}, "is_reserved": 0}, {"lon": -76.98331366666666, "bike_id": "92fba452d28e0cb6a753ac8dbd6bd1b0", "lat": 38.900960166666664, "fusion_lon": 0.0, "fusion_lat": 0.0, "type": "electric_scooter", "name": "92fba452d28e0cb6a753ac8dbd6bd1b0", "is_disabled": 0, "rental_uris": {"ios": "https://dc.lft.to/lastmile_qr_scan", "android": "https://dc.lft.to/lastmile_qr_scan"}, "is_reserved": 0}, {"lon": -76.948918, "bike_id": "8dba01fd69efd4022b32c5bb2b3b24b7", "lat": 38.895314, "fusion_lon": 0.0, "fusion_lat": 0.0, "type": "electric_scooter", "name": "8dba01fd69efd4022b32c5bb2b3b24b7", "is_disabled": 0, "rental_uris": {"ios": "https://dc.lft.to/lastmile_qr_scan", "android": "https://dc.lft.to/lastmile_qr_scan"}, "is_reserved": 0}, {"lon": -77.018765, "bike_id": "2c5bd42c201d9b95d62c965bfc6077ae", "lat": 38.90130216666667, "fusion_lon": 0.0, "fusion_lat": 0.0, "type": "electric_scooter", "name": "2c5bd42c201d9b95d62c965bfc6077ae", "is_disabled": 0, "rental_uris": {"ios": "https://dc.lft.to/lastmile_qr_scan", "android": "https://dc.lft.to/lastmile_qr_scan"}, "is_reserved": 0}, {"lon": -77.08816266666666, "bike_id": "a51951bf813e03c19720b727cde11e5e", "lat": 38.909752833333336, "fusion_lon": 0.0, "fusion_lat": 0.0, "type": "electric_scooter", "name": "a51951bf813e03c19720b727cde11e5e", "is_disabled": 0, "rental_uris": {"ios": "https://dc.lft.to/lastmile_qr_scan", "android": "https://dc.lft.to/lastmile_qr_scan"}, "is_reserved": 0}, {"lon": -77.0019895, "bike_id": "ec446bc3576a29b998084b1014266045", "lat": 38.9004335, "fusion_lon": 0.0, "fusion_lat": 0.0, "type": "electric_scooter", "name": "ec446bc3576a29b998084b1014266045", "is_disabled": 0, "rental_uris": {"ios": "https://dc.lft.to/lastmile_qr_scan", "android": "https://dc.lft.to/lastmile_qr_scan"}, "is_reserved": 0}, {"lon": -77.00731166666667, "bike_id": "61682202d7981c705a25c286552cdda2", "lat": 38.9506525, "fusion_lon": 0.0, "fusion_lat": 0.0, "type": "electric_bike", "name": "61682202d7981c705a25c286552cdda2", "is_disabled": 0, "rental_uris": {"ios": "https://dc.lft.to/lastmile_qr_scan", "android": "https://dc.lft.to/lastmile_qr_scan"}, "is_reserved": 0}, {"lon": -77.024042, "bike_id": "2ad2ffec8e11621745f7288931eef8a5", "lat": 38.90978533333333, "fusion_lon": 0.0, "fusion_lat": 0.0, "type": "electric_scooter", "name": "2ad2ffec8e11621745f7288931eef8a5", "is_disabled": 0, "rental_uris": {"ios": "https://dc.lft.to/lastmile_qr_scan", "android": "https://dc.lft.to/lastmile_qr_scan"}, "is_reserved": 0}, {"lon": -77.0321945, "bike_id": "6803f25708fefbac12730404c7f19e89", "lat": 38.91709066666667, "fusion_lon": 0.0, "fusion_lat": 0.0, "type": "electric_scooter", "name": "6803f25708fefbac12730404c7f19e89", "is_disabled": 0, "rental_uris": {"ios": "https://dc.lft.to/lastmile_qr_scan", "android": "https://dc.lft.to/lastmile_qr_scan"}, "is_reserved": 0}, {"lon": -77.00585816666667, "bike_id": "2b86cd7f58bd311bdc1f5ae99cd5aeba", "lat": 38.8748085, "fusion_lon": 0.0, "fusion_lat": 0.0, "type": "electric_scooter", "name": "2b86cd7f58bd311bdc1f5ae99cd5aeba", "is_disabled": 0, "rental_uris": {"ios": "https://dc.lft.to/lastmile_qr_scan", "android": "https://dc.lft.to/lastmile_qr_scan"}, "is_reserved": 0}, {"lon": -77.04113383333333, "bike_id": "aa29af141ae11a5472cd017aa4bae654", "lat": 38.94409983333333, "fusion_lon": 0.0, "fusion_lat": 0.0, "type": "electric_bike", "name": "aa29af141ae11a5472cd017aa4bae654", "is_disabled": 0, "rental_uris": {"ios": "https://dc.lft.to/lastmile_qr_scan", "android": "https://dc.lft.to/lastmile_qr_scan"}, "is_reserved": 0}, {"lon": -77.08194666666667, "bike_id": "2e960b41e8207e80547f58ad01ce4e94", "lat": 38.9220055, "fusion_lon": 0.0, "fusion_lat": 0.0, "type": "electric_bike", "name": "2e960b41e8207e80547f58ad01ce4e94", "is_disabled": 0, "rental_uris": {"ios": "https://dc.lft.to/lastmile_qr_scan", "android": "https://dc.lft.to/lastmile_qr_scan"}, "is_reserved": 0}, {"lon": -77.0400235, "bike_id": "8ac137aa7199851cc3257bf7db583a72", "lat": 38.933024, "fusion_lon": 0.0, "fusion_lat": 0.0, "type": "electric_scooter", "name": "8ac137aa7199851cc3257bf7db583a72", "is_disabled": 0, "rental_uris": {"ios": "https://dc.lft.to/lastmile_qr_scan", "android": "https://dc.lft.to/lastmile_qr_scan"}, "is_reserved": 0}, {"lon": -77.01641616666667, "bike_id": "97a5e941e822f063bf9e4b1ab4c54e04", "lat": 38.88113583333333, "fusion_lon": 0.0, "fusion_lat": 0.0, "type": "electric_scooter", "name": "97a5e941e822f063bf9e4b1ab4c54e04", "is_disabled": 0, "rental_uris": {"ios": "https://dc.lft.to/lastmile_qr_scan", "android": "https://dc.lft.to/lastmile_qr_scan"}, "is_reserved": 0}, {"lon": -77.04346933333333, "bike_id": "3b2b6728db1c54ba1c7e2910d76fba61", "lat": 38.907159666666665, "fusion_lon": 0.0, "fusion_lat": 0.0, "type": "electric_scooter", "name": "3b2b6728db1c54ba1c7e2910d76fba61", "is_disabled": 0, "rental_uris": {"ios": "https://dc.lft.to/lastmile_qr_scan", "android": "https://dc.lft.to/lastmile_qr_scan"}, "is_reserved": 0}, {"lon": -77.0332825, "bike_id": "3f3af974419e9564aec1bbbb7b6979fa", "lat": 38.91561166666666, "fusion_lon": 0.0, "fusion_lat": 0.0, "type": "electric_scooter", "name": "3f3af974419e9564aec1bbbb7b6979fa", "is_disabled": 0, "rental_uris": {"ios": "https://dc.lft.to/lastmile_qr_scan", "android": "https://dc.lft.to/lastmile_qr_scan"}, "is_reserved": 0}, {"lon": -77.02256133333333, "bike_id": "48d77c3c3e090fa75cf3aafb2e15762e", "lat": 38.91274116666666, "fusion_lon": 0.0, "fusion_lat": 0.0, "type": "electric_scooter", "name": "48d77c3c3e090fa75cf3aafb2e15762e", "is_disabled": 0, "rental_uris": {"ios": "https://dc.lft.to/lastmile_qr_scan", "android": "https://dc.lft.to/lastmile_qr_scan"}, "is_reserved": 0}, {"lon": -77.03802366666666, "bike_id": "72cf72022ce60fa48d3ec7ef8b72ca2f", "lat": 38.920644833333334, "fusion_lon": 0.0, "fusion_lat": 0.0, "type": "electric_scooter", "name": "72cf72022ce60fa48d3ec7ef8b72ca2f", "is_disabled": 0, "rental_uris": {"ios": "https://dc.lft.to/lastmile_qr_scan", "android": "https://dc.lft.to/lastmile_qr_scan"}, "is_reserved": 0}, {"lon": -77.0321725, "bike_id": "14d0af861eec35df047db557688e65f6", "lat": 38.917094, "fusion_lon": 0.0, "fusion_lat": 0.0, "type": "electric_scooter", "name": "14d0af861eec35df047db557688e65f6", "is_disabled": 0, "rental_uris": {"ios": "https://dc.lft.to/lastmile_qr_scan", "android": "https://dc.lft.to/lastmile_qr_scan"}, "is_reserved": 0}, {"lon": -77.06831166666667, "bike_id": "36b2397e47d9965234f269ee1e316414", "lat": 38.805678666666665, "fusion_lon": 0.0, "fusion_lat": 0.0, "type": "electric_bike", "name": "36b2397e47d9965234f269ee1e316414", "is_disabled": 0, "rental_uris": {"ios": "https://dc.lft.to/lastmile_qr_scan", "android": "https://dc.lft.to/lastmile_qr_scan"}, "is_reserved": 0}, {"lon": -76.99000916666667, "bike_id": "1a8f31dc76fcfb62d50d9a6a1147eb1d", "lat": 38.86506766666667, "fusion_lon": 0.0, "fusion_lat": 0.0, "type": "electric_scooter", "name": "1a8f31dc76fcfb62d50d9a6a1147eb1d", "is_disabled": 0, "rental_uris": {"ios": "https://dc.lft.to/lastmile_qr_scan", "android": "https://dc.lft.to/lastmile_qr_scan"}, "is_reserved": 0}, {"lon": -77.00320883333333, "bike_id": "b6b16303aca953a75490fbcb3403fede", "lat": 38.897257833333335, "fusion_lon": 0.0, "fusion_lat": 0.0, "type": "electric_scooter", "name": "b6b16303aca953a75490fbcb3403fede", "is_disabled": 0, "rental_uris": {"ios": "https://dc.lft.to/lastmile_qr_scan", "android": "https://dc.lft.to/lastmile_qr_scan"}, "is_reserved": 0}, {"lon": -77.03259933333334, "bike_id": "6726af9ca561d7824bc2878a0ca7a2a9", "lat": 38.9369565, "fusion_lon": 0.0, "fusion_lat": 0.0, "type": "electric_scooter", "name": "6726af9ca561d7824bc2878a0ca7a2a9", "is_disabled": 0, "rental_uris": {"ios": "https://dc.lft.to/lastmile_qr_scan", "android": "https://dc.lft.to/lastmile_qr_scan"}, "is_reserved": 0}, {"lon": -77.0052415, "bike_id": "700ab9d32995cd1cadffeb60aa8d167a", "lat": 38.8754615, "fusion_lon": 0.0, "fusion_lat": 0.0, "type": "electric_scooter", "name": "700ab9d32995cd1cadffeb60aa8d167a", "is_disabled": 0, "rental_uris": {"ios": "https://dc.lft.to/lastmile_qr_scan", "android": "https://dc.lft.to/lastmile_qr_scan"}, "is_reserved": 0}, {"lon": -77.02808366666666, "bike_id": "f91f3b4821ff8d40381c93b0e00cf337", "lat": 38.9307935, "fusion_lon": 0.0, "fusion_lat": 0.0, "type": "electric_scooter", "name": "f91f3b4821ff8d40381c93b0e00cf337", "is_disabled": 0, "rental_uris": {"ios": "https://dc.lft.to/lastmile_qr_scan", "android": "https://dc.lft.to/lastmile_qr_scan"}, "is_reserved": 0}, {"lon": -77.02767033333333, "bike_id": "104ec184a7b134e73ab9f13639a5ab90", "lat": 38.954242666666666, "fusion_lon": 0.0, "fusion_lat": 0.0, "type": "electric_scooter", "name": "104ec184a7b134e73ab9f13639a5ab90", "is_disabled": 0, "rental_uris": {"ios": "https://dc.lft.to/lastmile_qr_scan", "android": "https://dc.lft.to/lastmile_qr_scan"}, "is_reserved": 0}, {"lon": -76.98087283333334, "bike_id": "41f58e51ce22d493bcf887fc81f42901", "lat": 38.907113833333334, "fusion_lon": 0.0, "fusion_lat": 0.0, "type": "electric_scooter", "name": "41f58e51ce22d493bcf887fc81f42901", "is_disabled": 0, "rental_uris": {"ios": "https://dc.lft.to/lastmile_qr_scan", "android": "https://dc.lft.to/lastmile_qr_scan"}, "is_reserved": 0}, {"lon": -77.05231183333333, "bike_id": "0cae408636ba946f5bc23bdc264122e4", "lat": 38.923407833333336, "fusion_lon": 0.0, "fusion_lat": 0.0, "type": "electric_scooter", "name": "0cae408636ba946f5bc23bdc264122e4", "is_disabled": 0, "rental_uris": {"ios": "https://dc.lft.to/lastmile_qr_scan", "android": "https://dc.lft.to/lastmile_qr_scan"}, "is_reserved": 0}, {"lon": -77.04735066666667, "bike_id": "d3a350eec20e64e9793f574e11aaaeda", "lat": 38.90140566666667, "fusion_lon": 0.0, "fusion_lat": 0.0, "type": "electric_scooter", "name": "d3a350eec20e64e9793f574e11aaaeda", "is_disabled": 0, "rental_uris": {"ios": "https://dc.lft.to/lastmile_qr_scan", "android": "https://dc.lft.to/lastmile_qr_scan"}, "is_reserved": 0}, {"lon": -76.99456833333333, "bike_id": "3efeff5457bb52ab98ec83471b35c66f", "lat": 38.862182, "fusion_lon": 0.0, "fusion_lat": 0.0, "type": "electric_scooter", "name": "3efeff5457bb52ab98ec83471b35c66f", "is_disabled": 0, "rental_uris": {"ios": "https://dc.lft.to/lastmile_qr_scan", "android": "https://dc.lft.to/lastmile_qr_scan"}, "is_reserved": 0}, {"lon": -76.98465866666666, "bike_id": "7263a3830ff1996efa65f0a36a3080cd", "lat": 38.903997833333335, "fusion_lon": 0.0, "fusion_lat": 0.0, "type": "electric_scooter", "name": "7263a3830ff1996efa65f0a36a3080cd", "is_disabled": 0, "rental_uris": {"ios": "https://dc.lft.to/lastmile_qr_scan", "android": "https://dc.lft.to/lastmile_qr_scan"}, "is_reserved": 0}, {"lon": -77.0140465, "bike_id": "c35f9e955f343ff3cc2846f8612c4356", "lat": 38.9274495, "fusion_lon": 0.0, "fusion_lat": 0.0, "type": "electric_scooter", "name": "c35f9e955f343ff3cc2846f8612c4356", "is_disabled": 0, "rental_uris": {"ios": "https://dc.lft.to/lastmile_qr_scan", "android": "https://dc.lft.to/lastmile_qr_scan"}, "is_reserved": 0}, {"lon": -77.036623, "bike_id": "b51e7ca3ba49e29f961d3d6ed442b27b", "lat": 38.936297333333336, "fusion_lon": 0.0, "fusion_lat": 0.0, "type": "electric_scooter", "name": "b51e7ca3ba49e29f961d3d6ed442b27b", "is_disabled": 0, "rental_uris": {"ios": "https://dc.lft.to/lastmile_qr_scan", "android": "https://dc.lft.to/lastmile_qr_scan"}, "is_reserved": 0}, {"lon": -77.03178616666666, "bike_id": "1e352b1c6e647153abf8d8da8de52a32", "lat": 38.892259, "fusion_lon": 0.0, "fusion_lat": 0.0, "type": "electric_scooter", "name": "1e352b1c6e647153abf8d8da8de52a32", "is_disabled": 0, "rental_uris": {"ios": "https://dc.lft.to/lastmile_qr_scan", "android": "https://dc.lft.to/lastmile_qr_scan"}, "is_reserved": 0}, {"lon": -77.015717, "bike_id": "71bb06ee2e5d6ea0303dfd0340a3d9e5", "lat": 38.9656505, "fusion_lon": 0.0, "fusion_lat": 0.0, "type": "electric_scooter", "name": "71bb06ee2e5d6ea0303dfd0340a3d9e5", "is_disabled": 0, "rental_uris": {"ios": "https://dc.lft.to/lastmile_qr_scan", "android": "https://dc.lft.to/lastmile_qr_scan"}, "is_reserved": 0}, {"lon": -77.016263, "bike_id": "da51d22354207c4cc0315732aa803bb4", "lat": 38.9056855, "fusion_lon": 0.0, "fusion_lat": 0.0, "type": "electric_scooter", "name": "da51d22354207c4cc0315732aa803bb4", "is_disabled": 0, "rental_uris": {"ios": "https://dc.lft.to/lastmile_qr_scan", "android": "https://dc.lft.to/lastmile_qr_scan"}, "is_reserved": 0}, {"lon": -77.03898016666666, "bike_id": "810584222752d18ca79237d85a0e1d1f", "lat": 38.91838, "fusion_lon": 0.0, "fusion_lat": 0.0, "type": "electric_scooter", "name": "810584222752d18ca79237d85a0e1d1f", "is_disabled": 0, "rental_uris": {"ios": "https://dc.lft.to/lastmile_qr_scan", "android": "https://dc.lft.to/lastmile_qr_scan"}, "is_reserved": 0}, {"lon": -77.035789, "bike_id": "431dc17e053e9b488fb5bc63b5e4b5cf", "lat": 38.917670333333334, "fusion_lon": 0.0, "fusion_lat": 0.0, "type": "electric_scooter", "name": "431dc17e053e9b488fb5bc63b5e4b5cf", "is_disabled": 0, "rental_uris": {"ios": "https://dc.lft.to/lastmile_qr_scan", "android": "https://dc.lft.to/lastmile_qr_scan"}, "is_reserved": 0}, {"lon": -76.99943083333334, "bike_id": "c6d09b6162bb83ba42e85566dd342f3c", "lat": 38.90628383333333, "fusion_lon": 0.0, "fusion_lat": 0.0, "type": "electric_scooter", "name": "c6d09b6162bb83ba42e85566dd342f3c", "is_disabled": 0, "rental_uris": {"ios": "https://dc.lft.to/lastmile_qr_scan", "android": "https://dc.lft.to/lastmile_qr_scan"}, "is_reserved": 0}, {"lon": -77.012417, "bike_id": "67d97e954308c44179cf29ade84a3535", "lat": 38.892967666666664, "fusion_lon": 0.0, "fusion_lat": 0.0, "type": "electric_scooter", "name": "67d97e954308c44179cf29ade84a3535", "is_disabled": 0, "rental_uris": {"ios": "https://dc.lft.to/lastmile_qr_scan", "android": "https://dc.lft.to/lastmile_qr_scan"}, "is_reserved": 0}, {"lon": -77.02437283333333, "bike_id": "84177c168c5c965f721fc2dd02e45b22", "lat": 38.92659583333333, "fusion_lon": 0.0, "fusion_lat": 0.0, "type": "electric_scooter", "name": "84177c168c5c965f721fc2dd02e45b22", "is_disabled": 0, "rental_uris": {"ios": "https://dc.lft.to/lastmile_qr_scan", "android": "https://dc.lft.to/lastmile_qr_scan"}, "is_reserved": 0}, {"lon": -77.04716616666667, "bike_id": "b2e9c70a317f84e4d43de8989d362bb0", "lat": 38.8996785, "fusion_lon": 0.0, "fusion_lat": 0.0, "type": "electric_scooter", "name": "b2e9c70a317f84e4d43de8989d362bb0", "is_disabled": 0, "rental_uris": {"ios": "https://dc.lft.to/lastmile_qr_scan", "android": "https://dc.lft.to/lastmile_qr_scan"}, "is_reserved": 0}, {"lon": -77.0318045, "bike_id": "12b037ad3c395f35903514eacbdb2b70", "lat": 38.89226083333333, "fusion_lon": 0.0, "fusion_lat": 0.0, "type": "electric_scooter", "name": "12b037ad3c395f35903514eacbdb2b70", "is_disabled": 0, "rental_uris": {"ios": "https://dc.lft.to/lastmile_qr_scan", "android": "https://dc.lft.to/lastmile_qr_scan"}, "is_reserved": 0}, {"lon": -77.0572615, "bike_id": "d6b580a98b75de55779978078049af55", "lat": 38.9335765, "fusion_lon": 0.0, "fusion_lat": 0.0, "type": "electric_scooter", "name": "d6b580a98b75de55779978078049af55", "is_disabled": 0, "rental_uris": {"ios": "https://dc.lft.to/lastmile_qr_scan", "android": "https://dc.lft.to/lastmile_qr_scan"}, "is_reserved": 0}, {"lon": -77.04646183333334, "bike_id": "e00e82205664ff8ac8500e570ab72f1f", "lat": 38.9143235, "fusion_lon": 0.0, "fusion_lat": 0.0, "type": "electric_scooter", "name": "e00e82205664ff8ac8500e570ab72f1f", "is_disabled": 0, "rental_uris": {"ios": "https://dc.lft.to/lastmile_qr_scan", "android": "https://dc.lft.to/lastmile_qr_scan"}, "is_reserved": 0}, {"lon": -77.0449125, "bike_id": "38182af92d6a95eeebcb4de8b67aa708", "lat": 38.9111045, "fusion_lon": 0.0, "fusion_lat": 0.0, "type": "electric_scooter", "name": "38182af92d6a95eeebcb4de8b67aa708", "is_disabled": 0, "rental_uris": {"ios": "https://dc.lft.to/lastmile_qr_scan", "android": "https://dc.lft.to/lastmile_qr_scan"}, "is_reserved": 0}, {"lon": -76.973227, "bike_id": "6b08febe87e7c9c2a7b2857a2486585c", "lat": 38.90477283333333, "fusion_lon": 0.0, "fusion_lat": 0.0, "type": "electric_bike", "name": "6b08febe87e7c9c2a7b2857a2486585c", "is_disabled": 0, "rental_uris": {"ios": "https://dc.lft.to/lastmile_qr_scan", "android": "https://dc.lft.to/lastmile_qr_scan"}, "is_reserved": 0}, {"lon": -76.97912383333333, "bike_id": "dac20c1a8bd1810bedfc6d2166f132f4", "lat": 38.924658666666666, "fusion_lon": 0.0, "fusion_lat": 0.0, "type": "electric_bike", "name": "dac20c1a8bd1810bedfc6d2166f132f4", "is_disabled": 0, "rental_uris": {"ios": "https://dc.lft.to/lastmile_qr_scan", "android": "https://dc.lft.to/lastmile_qr_scan"}, "is_reserved": 0}, {"lon": -76.992695, "bike_id": "b056df8a956c833ae2f4a61b96011d40", "lat": 38.896115, "fusion_lon": 0.0, "fusion_lat": 0.0, "type": "electric_scooter", "name": "b056df8a956c833ae2f4a61b96011d40", "is_disabled": 0, "rental_uris": {"ios": "https://dc.lft.to/lastmile_qr_scan", "android": "https://dc.lft.to/lastmile_qr_scan"}, "is_reserved": 0}, {"lon": -76.99792166666667, "bike_id": "e6d7e12c1599ae494bf89d2ca6682208", "lat": 38.95643233333333, "fusion_lon": 0.0, "fusion_lat": 0.0, "type": "electric_bike", "name": "e6d7e12c1599ae494bf89d2ca6682208", "is_disabled": 0, "rental_uris": {"ios": "https://dc.lft.to/lastmile_qr_scan", "android": "https://dc.lft.to/lastmile_qr_scan"}, "is_reserved": 0}, {"lon": -77.0176885, "bike_id": "770745f9b4a6f323829e595715a5b02c", "lat": 38.90102733333333, "fusion_lon": 0.0, "fusion_lat": 0.0, "type": "electric_scooter", "name": "770745f9b4a6f323829e595715a5b02c", "is_disabled": 0, "rental_uris": {"ios": "https://dc.lft.to/lastmile_qr_scan", "android": "https://dc.lft.to/lastmile_qr_scan"}, "is_reserved": 0}, {"lon": -77.03292033333334, "bike_id": "076f597ad79caf342651445f90252deb", "lat": 38.95650466666667, "fusion_lon": 0.0, "fusion_lat": 0.0, "type": "electric_scooter", "name": "076f597ad79caf342651445f90252deb", "is_disabled": 0, "rental_uris": {"ios": "https://dc.lft.to/lastmile_qr_scan", "android": "https://dc.lft.to/lastmile_qr_scan"}, "is_reserved": 0}, {"lon": -77.02391566666667, "bike_id": "65398d3959e7d42c6e55e9fc0dcf39d4", "lat": 38.881324666666664, "fusion_lon": 0.0, "fusion_lat": 0.0, "type": "electric_scooter", "name": "65398d3959e7d42c6e55e9fc0dcf39d4", "is_disabled": 0, "rental_uris": {"ios": "https://dc.lft.to/lastmile_qr_scan", "android": "https://dc.lft.to/lastmile_qr_scan"}, "is_reserved": 0}, {"lon": -77.00018016666667, "bike_id": "8f6760698ccf112a70acb08248723452", "lat": 38.87430766666667, "fusion_lon": 0.0, "fusion_lat": 0.0, "type": "electric_scooter", "name": "8f6760698ccf112a70acb08248723452", "is_disabled": 0, "rental_uris": {"ios": "https://dc.lft.to/lastmile_qr_scan", "android": "https://dc.lft.to/lastmile_qr_scan"}, "is_reserved": 0}, {"lon": -77.03033416666666, "bike_id": "dfb90aa8c3075193f112a5901c9a38dd", "lat": 38.931214833333335, "fusion_lon": 0.0, "fusion_lat": 0.0, "type": "electric_scooter", "name": "dfb90aa8c3075193f112a5901c9a38dd", "is_disabled": 0, "rental_uris": {"ios": "https://dc.lft.to/lastmile_qr_scan", "android": "https://dc.lft.to/lastmile_qr_scan"}, "is_reserved": 0}, {"lon": -76.93013466666666, "bike_id": "d33ddde76a3bccc78175d4d310b9a8a1", "lat": 38.891915833333336, "fusion_lon": 0.0, "fusion_lat": 0.0, "type": "electric_scooter", "name": "d33ddde76a3bccc78175d4d310b9a8a1", "is_disabled": 0, "rental_uris": {"ios": "https://dc.lft.to/lastmile_qr_scan", "android": "https://dc.lft.to/lastmile_qr_scan"}, "is_reserved": 0}, {"lon": -77.05697683333334, "bike_id": "32bed652ef591d6daf50d44ea471e4e0", "lat": 38.9371915, "fusion_lon": 0.0, "fusion_lat": 0.0, "type": "electric_scooter", "name": "32bed652ef591d6daf50d44ea471e4e0", "is_disabled": 0, "rental_uris": {"ios": "https://dc.lft.to/lastmile_qr_scan", "android": "https://dc.lft.to/lastmile_qr_scan"}, "is_reserved": 0}, {"lon": -77.00627533333333, "bike_id": "a8661fb4f3447f4dde2596db15dae792", "lat": 38.91263716666667, "fusion_lon": 0.0, "fusion_lat": 0.0, "type": "electric_scooter", "name": "a8661fb4f3447f4dde2596db15dae792", "is_disabled": 0, "rental_uris": {"ios": "https://dc.lft.to/lastmile_qr_scan", "android": "https://dc.lft.to/lastmile_qr_scan"}, "is_reserved": 0}, {"lon": -77.054903, "bike_id": "d12e2b677b85bacee89e0eadabd3055a", "lat": 38.89983466666666, "fusion_lon": 0.0, "fusion_lat": 0.0, "type": "electric_scooter", "name": "d12e2b677b85bacee89e0eadabd3055a", "is_disabled": 0, "rental_uris": {"ios": "https://dc.lft.to/lastmile_qr_scan", "android": "https://dc.lft.to/lastmile_qr_scan"}, "is_reserved": 0}, {"lon": -76.98227083333333, "bike_id": "052c5e8a40326df8c526c3c8f18fba84", "lat": 38.8864935, "fusion_lon": 0.0, "fusion_lat": 0.0, "type": "electric_scooter", "name": "052c5e8a40326df8c526c3c8f18fba84", "is_disabled": 0, "rental_uris": {"ios": "https://dc.lft.to/lastmile_qr_scan", "android": "https://dc.lft.to/lastmile_qr_scan"}, "is_reserved": 0}, {"lon": -76.98235083333333, "bike_id": "6fe97053015d94e0b0606c7ed5641c6d", "lat": 38.9165135, "fusion_lon": 0.0, "fusion_lat": 0.0, "type": "electric_scooter", "name": "6fe97053015d94e0b0606c7ed5641c6d", "is_disabled": 0, "rental_uris": {"ios": "https://dc.lft.to/lastmile_qr_scan", "android": "https://dc.lft.to/lastmile_qr_scan"}, "is_reserved": 0}, {"lon": -77.05719683333334, "bike_id": "5a84d407e26d6c7633b4388640f7ae6b", "lat": 38.9336145, "fusion_lon": 0.0, "fusion_lat": 0.0, "type": "electric_scooter", "name": "5a84d407e26d6c7633b4388640f7ae6b", "is_disabled": 0, "rental_uris": {"ios": "https://dc.lft.to/lastmile_qr_scan", "android": "https://dc.lft.to/lastmile_qr_scan"}, "is_reserved": 0}, {"lon": -77.05292783333333, "bike_id": "48c10e4d9d8825a9b889238d024179a7", "lat": 38.925447, "fusion_lon": 0.0, "fusion_lat": 0.0, "type": "electric_scooter", "name": "48c10e4d9d8825a9b889238d024179a7", "is_disabled": 0, "rental_uris": {"ios": "https://dc.lft.to/lastmile_qr_scan", "android": "https://dc.lft.to/lastmile_qr_scan"}, "is_reserved": 0}, {"lon": -77.04414316666667, "bike_id": "bd9377865f802b38cc6ba9fcd59dc000", "lat": 38.92110783333333, "fusion_lon": 0.0, "fusion_lat": 0.0, "type": "electric_scooter", "name": "bd9377865f802b38cc6ba9fcd59dc000", "is_disabled": 0, "rental_uris": {"ios": "https://dc.lft.to/lastmile_qr_scan", "android": "https://dc.lft.to/lastmile_qr_scan"}, "is_reserved": 0}, {"lon": -76.99528016666666, "bike_id": "8cffffd1e4012328766d34dee5991280", "lat": 38.8836765, "fusion_lon": 0.0, "fusion_lat": 0.0, "type": "electric_scooter", "name": "8cffffd1e4012328766d34dee5991280", "is_disabled": 0, "rental_uris": {"ios": "https://dc.lft.to/lastmile_qr_scan", "android": "https://dc.lft.to/lastmile_qr_scan"}, "is_reserved": 0}, {"lon": -76.995074, "bike_id": "8e905ad5b112af37f1f1abfaa7110f35", "lat": 38.87777233333333, "fusion_lon": 0.0, "fusion_lat": 0.0, "type": "electric_scooter", "name": "8e905ad5b112af37f1f1abfaa7110f35", "is_disabled": 0, "rental_uris": {"ios": "https://dc.lft.to/lastmile_qr_scan", "android": "https://dc.lft.to/lastmile_qr_scan"}, "is_reserved": 0}, {"lon": -77.000627, "bike_id": "51a5d05630e21b429d16528df83dc27c", "lat": 38.89500783333333, "fusion_lon": 0.0, "fusion_lat": 0.0, "type": "electric_scooter", "name": "51a5d05630e21b429d16528df83dc27c", "is_disabled": 0, "rental_uris": {"ios": "https://dc.lft.to/lastmile_qr_scan", "android": "https://dc.lft.to/lastmile_qr_scan"}, "is_reserved": 0}, {"lon": -77.03085916666667, "bike_id": "2f522909aef72bbdfbb5efbaffaa8a41", "lat": 38.928602833333336, "fusion_lon": 0.0, "fusion_lat": 0.0, "type": "electric_scooter", "name": "2f522909aef72bbdfbb5efbaffaa8a41", "is_disabled": 0, "rental_uris": {"ios": "https://dc.lft.to/lastmile_qr_scan", "android": "https://dc.lft.to/lastmile_qr_scan"}, "is_reserved": 0}, {"lon": -77.037605, "bike_id": "89a86c15e63a39e56f34a978a23b5520", "lat": 38.907767666666665, "fusion_lon": 0.0, "fusion_lat": 0.0, "type": "electric_scooter", "name": "89a86c15e63a39e56f34a978a23b5520", "is_disabled": 0, "rental_uris": {"ios": "https://dc.lft.to/lastmile_qr_scan", "android": "https://dc.lft.to/lastmile_qr_scan"}, "is_reserved": 0}, {"lon": -77.01210416666666, "bike_id": "2c716304a03795c2777371c9353f823b", "lat": 38.9212255, "fusion_lon": 0.0, "fusion_lat": 0.0, "type": "electric_scooter", "name": "2c716304a03795c2777371c9353f823b", "is_disabled": 0, "rental_uris": {"ios": "https://dc.lft.to/lastmile_qr_scan", "android": "https://dc.lft.to/lastmile_qr_scan"}, "is_reserved": 0}, {"lon": -77.0516605, "bike_id": "013d38c65cdd9d800327a2092916f30d", "lat": 39.04329416666667, "fusion_lon": 0.0, "fusion_lat": 0.0, "type": "electric_bike", "name": "013d38c65cdd9d800327a2092916f30d", "is_disabled": 0, "rental_uris": {"ios": "https://dc.lft.to/lastmile_qr_scan", "android": "https://dc.lft.to/lastmile_qr_scan"}, "is_reserved": 0}, {"lon": -77.11166333333334, "bike_id": "d7c4b759321267ad121730178f80d1c0", "lat": 38.85520133333333, "fusion_lon": 0.0, "fusion_lat": 0.0, "type": "electric_bike", "name": "d7c4b759321267ad121730178f80d1c0", "is_disabled": 0, "rental_uris": {"ios": "https://dc.lft.to/lastmile_qr_scan", "android": "https://dc.lft.to/lastmile_qr_scan"}, "is_reserved": 0}, {"lon": -77.03184983333334, "bike_id": "788b3b126076f26c65ffaf99152cec6d", "lat": 38.936989833333335, "fusion_lon": 0.0, "fusion_lat": 0.0, "type": "electric_scooter", "name": "788b3b126076f26c65ffaf99152cec6d", "is_disabled": 0, "rental_uris": {"ios": "https://dc.lft.to/lastmile_qr_scan", "android": "https://dc.lft.to/lastmile_qr_scan"}, "is_reserved": 0}, {"lon": -76.972997, "bike_id": "2123a7dacbe6d990c8a8dfa8315e035f", "lat": 38.86569383333333, "fusion_lon": 0.0, "fusion_lat": 0.0, "type": "electric_scooter", "name": "2123a7dacbe6d990c8a8dfa8315e035f", "is_disabled": 0, "rental_uris": {"ios": "https://dc.lft.to/lastmile_qr_scan", "android": "https://dc.lft.to/lastmile_qr_scan"}, "is_reserved": 0}, {"lon": -77.1048635, "bike_id": "686fb69cfc037aa560bc584463fc1029", "lat": 38.85604583333333, "fusion_lon": 0.0, "fusion_lat": 0.0, "type": "electric_bike", "name": "686fb69cfc037aa560bc584463fc1029", "is_disabled": 0, "rental_uris": {"ios": "https://dc.lft.to/lastmile_qr_scan", "android": "https://dc.lft.to/lastmile_qr_scan"}, "is_reserved": 0},