{"data": {"bikes": [{"lat": 38.91802416666667, "is_disabled": 0, "type": "electric_scooter", "lon": -77.04015466666667, "bike_id": "c09d2359b3117fb8df9091485fe182ed", "fusion_lat": 0.0, "name": "c09d2359b3117fb8df9091485fe182ed", "is_reserved": 0, "rental_uris": {"android": "https://dc.lft.to/lastmile_qr_scan", "ios": "https://dc.lft.to/lastmile_qr_scan"}, "fusion_lon": 0.0}, {"lat": 38.907697, "is_disabled": 0, "type": "electric_scooter", "lon": -76.98308483333334, "bike_id": "12530244a65f8dde378207b8dc80348a", "fusion_lat": 0.0, "name": "12530244a65f8dde378207b8dc80348a", "is_reserved": 0, "rental_uris": {"android": "https://dc.lft.to/lastmile_qr_scan", "ios": "https://dc.lft.to/lastmile_qr_scan"}, "fusion_lon": 0.0}, {"lat": 38.87631533333333, "is_disabled": 0, "type": "electric_scooter", "lon": -76.9652925, "bike_id": "9a63cb407973e4ba0b77ab6213d69a1b", "fusion_lat": 0.0, "name": "9a63cb407973e4ba0b77ab6213d69a1b", "is_reserved": 0, "rental_uris": {"android": "https://dc.lft.to/lastmile_qr_scan", "ios": "https://dc.lft.to/lastmile_qr_scan"}, "fusion_lon": 0.0}, {"lat": 38.9215565, "is_disabled": 0, "type": "electric_scooter", "lon": -77.03514366666667, "bike_id": "a8b5fda8119a1fe2eb83494737aebd2d", "fusion_lat": 0.0, "name": "a8b5fda8119a1fe2eb83494737aebd2d", "is_reserved": 0, "rental_uris": {"android": "https://dc.lft.to/lastmile_qr_scan", "ios": "https://dc.lft.to/lastmile_qr_scan"}, "fusion_lon": 0.0}, {"lat": 38.859321666666666, "is_disabled": 0, "type": "electric_scooter", "lon": -76.99710733333333, "bike_id": "0f9de4284cd10f57400b5b0c083a1815", "fusion_lat": 0.0, "name": "0f9de4284cd10f57400b5b0c083a1815", "is_reserved": 0, "rental_uris": {"android": "https://dc.lft.to/lastmile_qr_scan", "ios": "https://dc.lft.to/lastmile_qr_scan"}, "fusion_lon": 0.0}, {"lat": 38.9556005, "is_disabled": 0, "type": "electric_scooter", "lon": -77.02231233333333, "bike_id": "1bfb92c594e6048f3a1459542c392807", "fusion_lat": 0.0, "name": "1bfb92c594e6048f3a1459542c392807", "is_reserved": 0, "rental_uris": {"android": "https://dc.lft.to/lastmile_qr_scan", "ios": "https://dc.lft.to/lastmile_qr_scan"}, "fusion_lon": 0.0}, {"lat": 38.905840166666664, "is_disabled": 0, "type": "electric_scooter", "lon": -77.043028, "bike_id": "34f040562939aee3b0cd92067647f980", "fusion_lat": 0.0, "name": "34f040562939aee3b0cd92067647f980", "is_reserved": 0, "rental_uris": {"android": "https://dc.lft.to/lastmile_qr_scan", "ios": "https://dc.lft.to/lastmile_qr_scan"}, "fusion_lon": 0.0}, {"lat": 38.90573416666667, "is_disabled": 0, "type": "electric_scooter", "lon": -77.02696283333333, "bike_id": "a8e235e357473fb4f5f1f21a4235c98b", "fusion_lat": 0.0, "name": "a8e235e357473fb4f5f1f21a4235c98b", "is_reserved": 0, "rental_uris": {"android": "https://dc.lft.to/lastmile_qr_scan", "ios": "https://dc.lft.to/lastmile_qr_scan"}, "fusion_lon": 0.0}, {"lat": 38.912816, "is_disabled": 0, "type": "electric_scooter", "lon": -77.045114, "bike_id": "d0da72ded5d0823ed550a83985d66c39", "fusion_lat": 0.0, "name": "d0da72ded5d0823ed550a83985d66c39", "is_reserved": 0, "rental_uris": {"android": "https://dc.lft.to/lastmile_qr_scan", "ios": "https://dc.lft.to/lastmile_qr_scan"}, "fusion_lon": 0.0}, {"lat": 38.95290716666667, "is_disabled": 0, "type": "electric_bike", "lon": -76.94604116666666, "bike_id": "536b2b28be56d8901f33814c4a860130", "fusion_lat": 0.0, "name": "536b2b28be56d8901f33814c4a860130", "is_reserved": 0, "rental_uris": {"android": "https://dc.lft.to/lastmile_qr_scan", "ios": "https://dc.lft.to/lastmile_qr_scan"}, "fusion_lon": 0.0}, {"lat": 38.93598216666667, "is_disabled": 0, "type": "electric_scooter", "lon": -77.03755333333334, "bike_id": "329d4a9a244ca03b6d9e542c5d05414d", "fusion_lat": 0.0, "name": "329d4a9a244ca03b6d9e542c5d05414d", "is_reserved": 0, "rental_uris": {"android": "https://dc.lft.to/lastmile_qr_scan", "ios": "https://dc.lft.to/lastmile_qr_scan"}, "fusion_lon": 0.0}, {"lat": 38.9141375, "is_disabled": 0, "type": "electric_scooter", "lon": -77.0295405, "bike_id": "b39cbd41757b0a2df5ce8dbb5eb05941", "fusion_lat": 0.0, "name": "b39cbd41757b0a2df5ce8dbb5eb05941", "is_reserved": 0, "rental_uris": {"android": "https://dc.lft.to/lastmile_qr_scan", "ios": "https://dc.lft.to/lastmile_qr_scan"}, "fusion_lon": 0.0}, {"lat": 38.93957616666667, "is_disabled": 0, "type": "electric_bike", "lon": -77.36098233333334, "bike_id": "20014e722793970cd58c913eaff5a894", "fusion_lat": 0.0, "name": "20014e722793970cd58c913eaff5a894", "is_reserved": 0, "rental_uris": {"android": "https://dc.lft.to/lastmile_qr_scan", "ios": "https://dc.lft.to/lastmile_qr_scan"}, "fusion_lon": 0.0}, {"lat": 38.893915, "is_disabled": 0, "type": "electric_scooter", "lon": -76.95000283333333, "bike_id": "f080acbd84908f4fdfc2d6ac0abfdf4a", "fusion_lat": 0.0, "name": "f080acbd84908f4fdfc2d6ac0abfdf4a", "is_reserved": 0, "rental_uris": {"android": "https://dc.lft.to/lastmile_qr_scan", "ios": "https://dc.lft.to/lastmile_qr_scan"}, "fusion_lon": 0.0}, {"lat": 38.917710166666666, "is_disabled": 0, "type": "electric_scooter", "lon": -77.03198833333333, "bike_id": "3786a2cdebc4967a5ce5b7815b559f5c", "fusion_lat": 0.0, "name": "3786a2cdebc4967a5ce5b7815b559f5c", "is_reserved": 0, "rental_uris": {"android": "https://dc.lft.to/lastmile_qr_scan", "ios": "https://dc.lft.to/lastmile_qr_scan"}, "fusion_lon": 0.0}, {"lat": 38.8990845, "is_disabled": 0, "type": "electric_scooter", "lon": -76.93348399999999, "bike_id": "bf43a5d455172d34cba792de8ec565de", "fusion_lat": 0.0, "name": "bf43a5d455172d34cba792de8ec565de", "is_reserved": 0, "rental_uris": {"android": "https://dc.lft.to/lastmile_qr_scan", "ios": "https://dc.lft.to/lastmile_qr_scan"}, "fusion_lon": 0.0}, {"lat": 38.933663, "is_disabled": 0, "type": "electric_scooter", "lon": -77.057325, "bike_id": "f524c0dd4e698640b92c2474fbec44f1", "fusion_lat": 0.0, "name": "f524c0dd4e698640b92c2474fbec44f1", "is_reserved": 0, "rental_uris": {"android": "https://dc.lft.to/lastmile_qr_scan", "ios": "https://dc.lft.to/lastmile_qr_scan"}, "fusion_lon": 0.0}, {"lat": 38.923844833333334, "is_disabled": 0, "type": "electric_scooter", "lon": -77.031292, "bike_id": "a3328739fdf391e31b42d036557ba6aa", "fusion_lat": 0.0, "name": "a3328739fdf391e31b42d036557ba6aa", "is_reserved": 0, "rental_uris": {"android": "https://dc.lft.to/lastmile_qr_scan", "ios": "https://dc.lft.to/lastmile_qr_scan"}, "fusion_lon": 0.0}, {"lat": 38.895687333333335, "is_disabled": 0, "type": "electric_scooter", "lon": -76.930408, "bike_id": "d994c35f48e640d58a934413a77583cc", "fusion_lat": 0.0, "name": "d994c35f48e640d58a934413a77583cc", "is_reserved": 0, "rental_uris": {"android": "https://dc.lft.to/lastmile_qr_scan", "ios": "https://dc.lft.to/lastmile_qr_scan"}, "fusion_lon": 0.0}, {"lat": 38.90340966666667, "is_disabled": 0, "type": "electric_scooter", "lon": -77.04477333333334, "bike_id": "4bcf3889b18af7eb762255026a80dbfb", "fusion_lat": 0.0, "name": "4bcf3889b18af7eb762255026a80dbfb", "is_reserved": 0, "rental_uris": {"android": "https://dc.lft.to/lastmile_qr_scan", "ios": "https://dc.lft.to/lastmile_qr_scan"}, "fusion_lon": 0.0}, {"lat": 38.9028045, "is_disabled": 0, "type": "electric_scooter", "lon": -77.03858133333334, "bike_id": "078f624767432e480b58d04344e7f1fd", "fusion_lat": 0.0, "name": "078f624767432e480b58d04344e7f1fd", "is_reserved": 0, "rental_uris": {"android": "https://dc.lft.to/lastmile_qr_scan", "ios": "https://dc.lft.to/lastmile_qr_scan"}, "fusion_lon": 0.0}, {"lat": 38.92040083333333, "is_disabled": 0, "type": "electric_scooter", "lon": -77.0419175, "bike_id": "569c8063f803039e9fd5988eb3acd288", "fusion_lat": 0.0, "name": "569c8063f803039e9fd5988eb3acd288", "is_reserved": 0, "rental_uris": {"android": "https://dc.lft.to/lastmile_qr_scan", "ios": "https://dc.lft.to/lastmile_qr_scan"}, "fusion_lon": 0.0}, {"lat": 38.90634166666667, "is_disabled": 0, "type": "electric_scooter", "lon": -77.03383116666667, "bike_id": "11a56ce713b41accc9100aefd40a5ce9", "fusion_lat": 0.0, "name": "11a56ce713b41accc9100aefd40a5ce9", "is_reserved": 0, "rental_uris": {"android": "https://dc.lft.to/lastmile_qr_scan", "ios": "https://dc.lft.to/lastmile_qr_scan"}, "fusion_lon": 0.0}, {"lat": 38.9067475, "is_disabled": 0, "type": "electric_scooter", "lon": -77.03756716666666, "bike_id": "8c7aab204e6e6012ea4d192c806aecfd", "fusion_lat": 0.0, "name": "8c7aab204e6e6012ea4d192c806aecfd", "is_reserved": 0, "rental_uris": {"android": "https://dc.lft.to/lastmile_qr_scan", "ios": "https://dc.lft.to/lastmile_qr_scan"}, "fusion_lon": 0.0}, {"lat": 38.8973625, "is_disabled": 0, "type": "electric_scooter", "lon": -77.0217405, "bike_id": "4772aeeaea34ef8ea478893e8e182258", "fusion_lat": 0.0, "name": "4772aeeaea34ef8ea478893e8e182258", "is_reserved": 0, "rental_uris": {"android": "https://dc.lft.to/lastmile_qr_scan", "ios": "https://dc.lft.to/lastmile_qr_scan"}, "fusion_lon": 0.0}, {"lat": 38.93507366666667, "is_disabled": 0, "type": "electric_scooter", "lon": -77.042871, "bike_id": "b8dd4df4210cf49d83770665d4e7b959", "fusion_lat": 0.0, "name": "b8dd4df4210cf49d83770665d4e7b959", "is_reserved": 0, "rental_uris": {"android": "https://dc.lft.to/lastmile_qr_scan", "ios": "https://dc.lft.to/lastmile_qr_scan"}, "fusion_lon": 0.0}, {"lat": 38.892243666666666, "is_disabled": 0, "type": "electric_bike", "lon": -77.03447733333333, "bike_id": "9620dd06922de39603adf15662aa8892", "fusion_lat": 0.0, "name": "9620dd06922de39603adf15662aa8892", "is_reserved": 0, "rental_uris": {"android": "https://dc.lft.to/lastmile_qr_scan", "ios": "https://dc.lft.to/lastmile_qr_scan"}, "fusion_lon": 0.0}, {"lat": 38.8961715, "is_disabled": 0, "type": "electric_scooter", "lon": -77.02659366666667, "bike_id": "e6782581f00317976023fa65bab39e40", "fusion_lat": 0.0, "name": "e6782581f00317976023fa65bab39e40", "is_reserved": 0, "rental_uris": {"android": "https://dc.lft.to/lastmile_qr_scan", "ios": "https://dc.lft.to/lastmile_qr_scan"}, "fusion_lon": 0.0}, {"lat": 38.90658616666666, "is_disabled": 0, "type": "electric_scooter", "lon": -77.03797883333333, "bike_id": "741aaf91699095de19eb6859f28ac3fd", "fusion_lat": 0.0, "name": "741aaf91699095de19eb6859f28ac3fd", "is_reserved": 0, "rental_uris": {"android": "https://dc.lft.to/lastmile_qr_scan", "ios": "https://dc.lft.to/lastmile_qr_scan"}, "fusion_lon": 0.0}, {"lat": 38.905762333333335, "is_disabled": 0, "type": "electric_scooter", "lon": -77.02693716666667, "bike_id": "4c3d3556b5f1d132e20bb3b28059677a", "fusion_lat": 0.0, "name": "4c3d3556b5f1d132e20bb3b28059677a", "is_reserved": 0, "rental_uris": {"android": "https://dc.lft.to/lastmile_qr_scan", "ios": "https://dc.lft.to/lastmile_qr_scan"}, "fusion_lon": 0.0}, {"lat": 38.87072666666667, "is_disabled": 0, "type": "electric_bike", "lon": -76.978367, "bike_id": "639eeeb999a949331c0b5849fd2a1ca9", "fusion_lat": 0.0, "name": "639eeeb999a949331c0b5849fd2a1ca9", "is_reserved": 0, "rental_uris": {"android": "https://dc.lft.to/lastmile_qr_scan", "ios": "https://dc.lft.to/lastmile_qr_scan"}, "fusion_lon": 0.0}, {"lat": 38.88391033333333, "is_disabled": 0, "type": "electric_scooter", "lon": -76.98542366666666, "bike_id": "f82efef71fa59eebf894086d53252770", "fusion_lat": 0.0, "name": "f82efef71fa59eebf894086d53252770", "is_reserved": 0, "rental_uris": {"android": "https://dc.lft.to/lastmile_qr_scan", "ios": "https://dc.lft.to/lastmile_qr_scan"}, "fusion_lon": 0.0}, {"lat": 38.892235166666666, "is_disabled": 0, "type": "electric_scooter", "lon": -77.022124, "bike_id": "cd49eba8b4bdf0b5573f5b7185ab33b7", "fusion_lat": 0.0, "name": "cd49eba8b4bdf0b5573f5b7185ab33b7", "is_reserved": 0, "rental_uris": {"android": "https://dc.lft.to/lastmile_qr_scan", "ios": "https://dc.lft.to/lastmile_qr_scan"}, "fusion_lon": 0.0}, {"lat": 38.890364, "is_disabled": 0, "type": "electric_scooter", "lon": -76.937582, "bike_id": "b4479a16e1f20cd40baacfef1e52560c", "fusion_lat": 0.0, "name": "b4479a16e1f20cd40baacfef1e52560c", "is_reserved": 0, "rental_uris": {"android": "https://dc.lft.to/lastmile_qr_scan", "ios": "https://dc.lft.to/lastmile_qr_scan"}, "fusion_lon": 0.0}, {"lat": 38.91441116666667, "is_disabled": 0, "type": "electric_bike", "lon": -76.97224316666667, "bike_id": "68d5beb7f72d3805a923dc317cff840b", "fusion_lat": 0.0, "name": "68d5beb7f72d3805a923dc317cff840b", "is_reserved": 0, "rental_uris": {"android": "https://dc.lft.to/lastmile_qr_scan", "ios": "https://dc.lft.to/lastmile_qr_scan"}, "fusion_lon": 0.0}, {"lat": 38.9329485, "is_disabled": 0, "type": "electric_scooter", "lon": -77.04534366666667, "bike_id": "48871a540d2da7e661ed137685c4c8c5", "fusion_lat": 0.0, "name": "48871a540d2da7e661ed137685c4c8c5", "is_reserved": 0, "rental_uris": {"android": "https://dc.lft.to/lastmile_qr_scan", "ios": "https://dc.lft.to/lastmile_qr_scan"}, "fusion_lon": 0.0}, {"lat": 38.92859966666666, "is_disabled": 0, "type": "electric_scooter", "lon": -77.03706116666666, "bike_id": "4e0c08989c9612ea90bfc1c3b65827a6", "fusion_lat": 0.0, "name": "4e0c08989c9612ea90bfc1c3b65827a6", "is_reserved": 0, "rental_uris": {"android": "https://dc.lft.to/lastmile_qr_scan", "ios": "https://dc.lft.to/lastmile_qr_scan"}, "fusion_lon": 0.0}, {"lat": 38.91460283333333, "is_disabled": 0, "type": "electric_scooter", "lon": -77.01431533333333, "bike_id": "1e59da20743fce864002655454c02763", "fusion_lat": 0.0, "name": "1e59da20743fce864002655454c02763", "is_reserved": 0, "rental_uris": {"android": "https://dc.lft.to/lastmile_qr_scan", "ios": "https://dc.lft.to/lastmile_qr_scan"}, "fusion_lon": 0.0}, {"lat": 38.90028433333333, "is_disabled": 0, "type": "electric_scooter", "lon": -77.033147, "bike_id": "a272eeac7992e3e10e74c3923fb40342", "fusion_lat": 0.0, "name": "a272eeac7992e3e10e74c3923fb40342", "is_reserved": 0, "rental_uris": {"android": "https://dc.lft.to/lastmile_qr_scan", "ios": "https://dc.lft.to/lastmile_qr_scan"}, "fusion_lon": 0.0}, {"lat": 38.88368533333333, "is_disabled": 0, "type": "electric_scooter", "lon": -76.99509483333334, "bike_id": "56a58b1e5388c69d3f4572ca27b4c672", "fusion_lat": 0.0, "name": "56a58b1e5388c69d3f4572ca27b4c672", "is_reserved": 0, "rental_uris": {"android": "https://dc.lft.to/lastmile_qr_scan", "ios": "https://dc.lft.to/lastmile_qr_scan"}, "fusion_lon": 0.0}, {"lat": 38.928563833333335, "is_disabled": 0, "type": "electric_scooter", "lon": -77.0331835, "bike_id": "eb77fa82879f7a135b96b67af9af886d", "fusion_lat": 0.0, "name": "eb77fa82879f7a135b96b67af9af886d", "is_reserved": 0, "rental_uris": {"android": "https://dc.lft.to/lastmile_qr_scan", "ios": "https://dc.lft.to/lastmile_qr_scan"}, "fusion_lon": 0.0}, {"lat": 38.93317566666666, "is_disabled": 0, "type": "electric_scooter", "lon": -77.0452735, "bike_id": "4f7ff309252859a65d2aae16f77144f5", "fusion_lat": 0.0, "name": "4f7ff309252859a65d2aae16f77144f5", "is_reserved": 0, "rental_uris": {"android": "https://dc.lft.to/lastmile_qr_scan", "ios": "https://dc.lft.to/lastmile_qr_scan"}, "fusion_lon": 0.0}, {"lat": 38.9722605, "is_disabled": 0, "type": "electric_bike", "lon": -76.99348566666667, "bike_id": "e2fdddb392022bb9db60992cb0aa8bf7", "fusion_lat": 0.0, "name": "e2fdddb392022bb9db60992cb0aa8bf7", "is_reserved": 0, "rental_uris": {"android": "https://dc.lft.to/lastmile_qr_scan", "ios": "https://dc.lft.to/lastmile_qr_scan"}, "fusion_lon": 0.0}, {"lat": 38.890040666666664, "is_disabled": 0, "type": "electric_scooter", "lon": -76.93744833333334, "bike_id": "3a7c1d52f2c6b4bcd3cfb346e3db5ae8", "fusion_lat": 0.0, "name": "3a7c1d52f2c6b4bcd3cfb346e3db5ae8", "is_reserved": 0, "rental_uris": {"android": "https://dc.lft.to/lastmile_qr_scan", "ios": "https://dc.lft.to/lastmile_qr_scan"}, "fusion_lon": 0.0}, {"lat": 38.923414333333334, "is_disabled": 0, "type": "electric_scooter", "lon": -77.05034416666666, "bike_id": "49a426c222aa3c7a35705b16ba559350", "fusion_lat": 0.0, "name": "49a426c222aa3c7a35705b16ba559350", "is_reserved": 0, "rental_uris": {"android": "https://dc.lft.to/lastmile_qr_scan", "ios": "https://dc.lft.to/lastmile_qr_scan"}, "fusion_lon": 0.0}, {"lat": 38.90978666666667, "is_disabled": 0, "type": "electric_scooter", "lon": -77.031816, "bike_id": "6e00e30de38d242bdeeffb79756fbcb4", "fusion_lat": 0.0, "name": "6e00e30de38d242bdeeffb79756fbcb4", "is_reserved": 0, "rental_uris": {"android": "https://dc.lft.to/lastmile_qr_scan", "ios": "https://dc.lft.to/lastmile_qr_scan"}, "fusion_lon": 0.0}, {"lat": 38.908409166666665, "is_disabled": 0, "type": "electric_scooter", "lon": -76.99705016666667, "bike_id": "fc1d28f4704ada231db2794c5850e7fb", "fusion_lat": 0.0, "name": "fc1d28f4704ada231db2794c5850e7fb", "is_reserved": 0, "rental_uris": {"android": "https://dc.lft.to/lastmile_qr_scan", "ios": "https://dc.lft.to/lastmile_qr_scan"}, "fusion_lon": 0.0}, {"lat": 38.922378, "is_disabled": 0, "type": "electric_scooter", "lon": -77.0457885, "bike_id": "ec9749ad7ade78609c63ac445c06d34d", "fusion_lat": 0.0, "name": "ec9749ad7ade78609c63ac445c06d34d", "is_reserved": 0, "rental_uris": {"android": "https://dc.lft.to/lastmile_qr_scan", "ios": "https://dc.lft.to/lastmile_qr_scan"}, "fusion_lon": 0.0}, {"lat": 38.9026695, "is_disabled": 0, "type": "electric_scooter", "lon": -77.0284105, "bike_id": "2bc8906698751d00dc74eb6512d89493", "fusion_lat": 0.0, "name": "2bc8906698751d00dc74eb6512d89493", "is_reserved": 0, "rental_uris": {"android": "https://dc.lft.to/lastmile_qr_scan", "ios": "https://dc.lft.to/lastmile_qr_scan"}, "fusion_lon": 0.0}, {"lat": 38.8278805, "is_disabled": 0, "type": "electric_bike", "lon": -77.00919283333333, "bike_id": "5e761f7702145a478af6fe23408ca24e", "fusion_lat": 0.0, "name": "5e761f7702145a478af6fe23408ca24e", "is_reserved": 0, "rental_uris": {"android": "https://dc.lft.to/lastmile_qr_scan", "ios": "https://dc.lft.to/lastmile_qr_scan"}, "fusion_lon": 0.0}, {"lat": 38.90774483333333, "is_disabled": 0, "type": "electric_scooter", "lon": -77.03865233333333, "bike_id": "f4a2b5618a4f2a191b242b9b0594888c", "fusion_lat": 0.0, "name": "f4a2b5618a4f2a191b242b9b0594888c", "is_reserved": 0, "rental_uris": {"android": "https://dc.lft.to/lastmile_qr_scan", "ios": "https://dc.lft.to/lastmile_qr_scan"}, "fusion_lon": 0.0}, {"lat": 38.937389, "is_disabled": 0, "type": "electric_scooter", "lon": -77.0362535, "bike_id": "42b26c67572447223184f36e64768e7c", "fusion_lat": 0.0, "name": "42b26c67572447223184f36e64768e7c", "is_reserved": 0, "rental_uris": {"android": "https://dc.lft.to/lastmile_qr_scan", "ios": "https://dc.lft.to/lastmile_qr_scan"}, "fusion_lon": 0.0}, {"lat": 38.8443065, "is_disabled": 0, "type": "electric_scooter", "lon": -76.99782483333334, "bike_id": "537eaf52d7159ef7f35a134e00d6f394", "fusion_lat": 0.0, "name": "537eaf52d7159ef7f35a134e00d6f394", "is_reserved": 0, "rental_uris": {"android": "https://dc.lft.to/lastmile_qr_scan", "ios": "https://dc.lft.to/lastmile_qr_scan"}, "fusion_lon": 0.0}, {"lat": 38.9865045, "is_disabled": 0, "type": "electric_bike", "lon": -77.05632366666667, "bike_id": "961c8675ad2be09a17a8eddd3f657216", "fusion_lat": 0.0, "name": "961c8675ad2be09a17a8eddd3f657216", "is_reserved": 0, "rental_uris": {"android": "https://dc.lft.to/lastmile_qr_scan", "ios": "https://dc.lft.to/lastmile_qr_scan"}, "fusion_lon": 0.0}, {"lat": 38.921968666666665, "is_disabled": 0, "type": "electric_scooter", "lon": -77.03993283333334, "bike_id": "3fb1d4a60e04128b8f8c839f78738ae2", "fusion_lat": 0.0, "name": "3fb1d4a60e04128b8f8c839f78738ae2", "is_reserved": 0, "rental_uris": {"android": "https://dc.lft.to/lastmile_qr_scan", "ios": "https://dc.lft.to/lastmile_qr_scan"}, "fusion_lon": 0.0}, {"lat": 38.91729466666666, "is_disabled": 0, "type": "electric_scooter", "lon": -77.0321025, "bike_id": "1e59022c2c0035731e4153520539c837", "fusion_lat": 0.0, "name": "1e59022c2c0035731e4153520539c837", "is_reserved": 0, "rental_uris": {"android": "https://dc.lft.to/lastmile_qr_scan", "ios": "https://dc.lft.to/lastmile_qr_scan"}, "fusion_lon": 0.0}, {"lat": 38.906429833333334, "is_disabled": 0, "type": "electric_scooter", "lon": -77.062936, "bike_id": "6e93d5ae21e716726cd566a87da2033e", "fusion_lat": 0.0, "name": "6e93d5ae21e716726cd566a87da2033e", "is_reserved": 0, "rental_uris": {"android": "https://dc.lft.to/lastmile_qr_scan", "ios": "https://dc.lft.to/lastmile_qr_scan"}, "fusion_lon": 0.0}, {"lat": 38.90575366666667, "is_disabled": 0, "type": "electric_scooter", "lon": -77.04351533333333, "bike_id": "e4afc75e638f22490cf06129ba812953", "fusion_lat": 0.0, "name": "e4afc75e638f22490cf06129ba812953", "is_reserved": 0, "rental_uris": {"android": "https://dc.lft.to/lastmile_qr_scan", "ios": "https://dc.lft.to/lastmile_qr_scan"}, "fusion_lon": 0.0}, {"lat": 38.914735666666665, "is_disabled": 0, "type": "electric_scooter", "lon": -77.003502, "bike_id": "0fd4235c5563ded0695a3bb2db893d0c", "fusion_lat": 0.0, "name": "0fd4235c5563ded0695a3bb2db893d0c", "is_reserved": 0, "rental_uris": {"android": "https://dc.lft.to/lastmile_qr_scan", "ios": "https://dc.lft.to/lastmile_qr_scan"}, "fusion_lon": 0.0}, {"lat": 38.90777466666667, "is_disabled": 0, "type": "electric_scooter", "lon": -77.03860666666667, "bike_id": "c7aa0a7bc3c7533cd7b5566bd40a0943", "fusion_lat": 0.0, "name": "c7aa0a7bc3c7533cd7b5566bd40a0943", "is_reserved": 0, "rental_uris": {"android": "https://dc.lft.to/lastmile_qr_scan", "ios": "https://dc.lft.to/lastmile_qr_scan"}, "fusion_lon": 0.0}, {"lat": 38.931945, "is_disabled": 0, "type": "electric_scooter", "lon": -77.02837916666667, "bike_id": "8b90fb59f95d6cff10b93c22bb0f2f80", "fusion_lat": 0.0, "name": "8b90fb59f95d6cff10b93c22bb0f2f80", "is_reserved": 0, "rental_uris": {"android": "https://dc.lft.to/lastmile_qr_scan", "ios": "https://dc.lft.to/lastmile_qr_scan"}, "fusion_lon": 0.0}, {"lat": 38.90276433333333, "is_disabled": 0, "type": "electric_scooter", "lon": -77.04394516666666, "bike_id": "1dd56e3f3341e04368455bba1795493b", "fusion_lat": 0.0, "name": "1dd56e3f3341e04368455bba1795493b", "is_reserved": 0, "rental_uris": {"android": "https://dc.lft.to/lastmile_qr_scan", "ios": "https://dc.lft.to/lastmile_qr_scan"}, "fusion_lon": 0.0}, {"lat": 38.90995266666667, "is_disabled": 0, "type": "electric_scooter", "lon": -77.03839766666667, "bike_id": "c8e6818e409521cc2c66d81f1770d823", "fusion_lat": 0.0, "name": "c8e6818e409521cc2c66d81f1770d823", "is_reserved": 0, "rental_uris": {"android": "https://dc.lft.to/lastmile_qr_scan", "ios": "https://dc.lft.to/lastmile_qr_scan"}, "fusion_lon": 0.0}, {"lat": 38.903796166666666, "is_disabled": 0, "type": "electric_scooter", "lon": -77.03651866666667, "bike_id": "2f00aef38f690791a5f68b4aa315d77c", "fusion_lat": 0.0, "name": "2f00aef38f690791a5f68b4aa315d77c", "is_reserved": 0, "rental_uris": {"android": "https://dc.lft.to/lastmile_qr_scan", "ios": "https://dc.lft.to/lastmile_qr_scan"}, "fusion_lon": 0.0}, {"lat": 38.9162175, "is_disabled": 0, "type": "electric_scooter", "lon": -77.0316285, "bike_id": "e39e4cd0818b47279f965f29618a2f5d", "fusion_lat": 0.0, "name": "e39e4cd0818b47279f965f29618a2f5d", "is_reserved": 0, "rental_uris": {"android": "https://dc.lft.to/lastmile_qr_scan", "ios": "https://dc.lft.to/lastmile_qr_scan"}, "fusion_lon": 0.0}, {"lat": 38.90733816666667, "is_disabled": 0, "type": "electric_scooter", "lon": -77.02717216666667, "bike_id": "d48bfaf1458891bc73d7c44e898eb8bb", "fusion_lat": 0.0, "name": "d48bfaf1458891bc73d7c44e898eb8bb", "is_reserved": 0, "rental_uris": {"android": "https://dc.lft.to/lastmile_qr_scan", "ios": "https://dc.lft.to/lastmile_qr_scan"}, "fusion_lon": 0.0}, {"lat": 38.89220733333333, "is_disabled": 0, "type": "electric_scooter", "lon": -77.04514, "bike_id": "894ee227cfd0a81759377e89dcbc750b", "fusion_lat": 0.0, "name": "894ee227cfd0a81759377e89dcbc750b", "is_reserved": 0, "rental_uris": {"android": "https://dc.lft.to/lastmile_qr_scan", "ios": "https://dc.lft.to/lastmile_qr_scan"}, "fusion_lon": 0.0}, {"lat": 38.93380833333333, "is_disabled": 0, "type": "electric_scooter", "lon": -77.03253916666667, "bike_id": "425cc61f7d4340285a0b7fa3021bccb8", "fusion_lat": 0.0, "name": "425cc61f7d4340285a0b7fa3021bccb8", "is_reserved": 0, "rental_uris": {"android": "https://dc.lft.to/lastmile_qr_scan", "ios": "https://dc.lft.to/lastmile_qr_scan"}, "fusion_lon": 0.0}, {"lat": 38.90063083333333, "is_disabled": 0, "type": "electric_scooter", "lon": -77.012194, "bike_id": "271d6f427d07830a2ff9d3ec1aab8448", "fusion_lat": 0.0, "name": "271d6f427d07830a2ff9d3ec1aab8448", "is_reserved": 0, "rental_uris": {"android": "https://dc.lft.to/lastmile_qr_scan", "ios": "https://dc.lft.to/lastmile_qr_scan"}, "fusion_lon": 0.0}, {"lat": 38.92768683333333, "is_disabled": 0, "type": "electric_scooter", "lon": -77.02734483333333, "bike_id": "44571206cf1c6598d47d0474c8f04791", "fusion_lat": 0.0, "name": "44571206cf1c6598d47d0474c8f04791", "is_reserved": 0, "rental_uris": {"android": "https://dc.lft.to/lastmile_qr_scan", "ios": "https://dc.lft.to/lastmile_qr_scan"}, "fusion_lon": 0.0}, {"lat": 38.902727166666665, "is_disabled": 0, "type": "electric_scooter", "lon": -77.03839433333333, "bike_id": "f083c78da66a945d8ac9399ff59fd84c", "fusion_lat": 0.0, "name": "f083c78da66a945d8ac9399ff59fd84c", "is_reserved": 0, "rental_uris": {"android": "https://dc.lft.to/lastmile_qr_scan", "ios": "https://dc.lft.to/lastmile_qr_scan"}, "fusion_lon": 0.0}, {"lat": 38.9176035, "is_disabled": 0, "type": "electric_scooter", "lon": -77.03197983333334, "bike_id": "e70417eb453e843a617159da4c2e6e43", "fusion_lat": 0.0, "name": "e70417eb453e843a617159da4c2e6e43", "is_reserved": 0, "rental_uris": {"android": "https://dc.lft.to/lastmile_qr_scan", "ios": "https://dc.lft.to/lastmile_qr_scan"}, "fusion_lon": 0.0}, {"lat": 38.87919566666667, "is_disabled": 0, "type": "electric_scooter", "lon": -77.030985, "bike_id": "f400b87f220555298a56ebbeac220055", "fusion_lat": 0.0, "name": "f400b87f220555298a56ebbeac220055", "is_reserved": 0, "rental_uris": {"android": "https://dc.lft.to/lastmile_qr_scan", "ios": "https://dc.lft.to/lastmile_qr_scan"}, "fusion_lon": 0.0}, {"lat": 38.908114833333336, "is_disabled": 0, "type": "electric_scooter", "lon": -77.04324033333333, "bike_id": "b621a03d883c7d7e42bdfee8f164d463", "fusion_lat": 0.0, "name": "b621a03d883c7d7e42bdfee8f164d463", "is_reserved": 0, "rental_uris": {"android": "https://dc.lft.to/lastmile_qr_scan", "ios": "https://dc.lft.to/lastmile_qr_scan"}, "fusion_lon": 0.0}, {"lat": 38.9072605, "is_disabled": 0, "type": "electric_scooter", "lon": -77.01682866666667, "bike_id": "534e37bd701ebe61b54e8cbf3787efd1", "fusion_lat": 0.0, "name": "534e37bd701ebe61b54e8cbf3787efd1", "is_reserved": 0, "rental_uris": {"android": "https://dc.lft.to/lastmile_qr_scan", "ios": "https://dc.lft.to/lastmile_qr_scan"}, "fusion_lon": 0.0}, {"lat": 38.90569766666667, "is_disabled": 0, "type": "electric_scooter", "lon": -77.00602216666667, "bike_id": "6732424158066d654902ebecb38c8f50", "fusion_lat": 0.0, "name": "6732424158066d654902ebecb38c8f50", "is_reserved": 0, "rental_uris": {"android": "https://dc.lft.to/lastmile_qr_scan", "ios": "https://dc.lft.to/lastmile_qr_scan"}, "fusion_lon": 0.0}, {"lat": 38.91699033333333, "is_disabled": 0, "type": "electric_scooter", "lon": -77.02660016666667, "bike_id": "d604b9f8612c2c56d4e52199288d94f8", "fusion_lat": 0.0, "name": "d604b9f8612c2c56d4e52199288d94f8", "is_reserved": 0, "rental_uris": {"android": "https://dc.lft.to/lastmile_qr_scan", "ios": "https://dc.lft.to/lastmile_qr_scan"}, "fusion_lon": 0.0}, {"lat": 38.9028005, "is_disabled": 0, "type": "electric_scooter", "lon": -77.0385865, "bike_id": "ae275ca9b5c68b0b5526f289d5a3cccc", "fusion_lat": 0.0, "name": "ae275ca9b5c68b0b5526f289d5a3cccc", "is_reserved": 0, "rental_uris": {"android": "https://dc.lft.to/lastmile_qr_scan", "ios": "https://dc.lft.to/lastmile_qr_scan"}, "fusion_lon": 0.0}, {"lat": 38.84114816666667, "is_disabled": 0, "type": "electric_bike", "lon": -77.08955516666667, "bike_id": "1d1c69b42bc83fb8ae665e38870f9f50", "fusion_lat": 0.0, "name": "1d1c69b42bc83fb8ae665e38870f9f50", "is_reserved": 0, "rental_uris": {"android": "https://dc.lft.to/lastmile_qr_scan", "ios": "https://dc.lft.to/lastmile_qr_scan"}, "fusion_lon": 0.0}, {"lat": 38.899531, "is_disabled": 0, "type": "electric_scooter", "lon": -77.02566366666667, "bike_id": "23b54c1e76745acf8fde38e0919e417f", "fusion_lat": 0.0, "name": "23b54c1e76745acf8fde38e0919e417f", "is_reserved": 0, "rental_uris": {"android": "https://dc.lft.to/lastmile_qr_scan", "ios": "https://dc.lft.to/lastmile_qr_scan"}, "fusion_lon": 0.0}, {"lat": 38.934880166666666, "is_disabled": 0, "type": "electric_bike", "lon": -77.03026566666666, "bike_id": "28f3babed437f3532b462e9506af6915", "fusion_lat": 0.0, "name": "28f3babed437f3532b462e9506af6915", "is_reserved": 0, "rental_uris": {"android": "https://dc.lft.to/lastmile_qr_scan", "ios": "https://dc.lft.to/lastmile_qr_scan"}, "fusion_lon": 0.0}, {"lat": 38.89875, "is_disabled": 0, "type": "electric_scooter", "lon": -76.93184216666667, "bike_id": "f96efcedba46f77a586223b8e6a329b6", "fusion_lat": 0.0, "name": "f96efcedba46f77a586223b8e6a329b6", "is_reserved": 0, "rental_uris": {"android": "https://dc.lft.to/lastmile_qr_scan", "ios": "https://dc.lft.to/lastmile_qr_scan"}, "fusion_lon": 0.0}, {"lat": 38.901984, "is_disabled": 0, "type": "electric_scooter", "lon": -77.021819, "bike_id": "0adc7227c167d0d550efffb0d1c8a2c6", "fusion_lat": 0.0, "name": "0adc7227c167d0d550efffb0d1c8a2c6", "is_reserved": 0, "rental_uris": {"android": "https://dc.lft.to/lastmile_qr_scan", "ios": "https://dc.lft.to/lastmile_qr_scan"}, "fusion_lon": 0.0}, {"lat": 38.97087283333333, "is_disabled": 0, "type": "electric_bike", "lon": -77.069744, "bike_id": "d1fac135ce2d57f5893b25902a17517c", "fusion_lat": 0.0, "name": "d1fac135ce2d57f5893b25902a17517c", "is_reserved": 0, "rental_uris": {"android": "https://dc.lft.to/lastmile_qr_scan", "ios": "https://dc.lft.to/lastmile_qr_scan"}, "fusion_lon": 0.0}, {"lat": 38.906850166666665, "is_disabled": 0, "type": "electric_scooter", "lon": -77.02700783333333, "bike_id": "d528eb459748df0b3b199aa3da19ad28", "fusion_lat": 0.0, "name": "d528eb459748df0b3b199aa3da19ad28", "is_reserved": 0, "rental_uris": {"android": "https://dc.lft.to/lastmile_qr_scan", "ios": "https://dc.lft.to/lastmile_qr_scan"}, "fusion_lon": 0.0}, {"lat": 38.892197333333336, "is_disabled": 0, "type": "electric_scooter", "lon": -77.02226666666667, "bike_id": "8758d4d7edd309eb36f4529ad01941cf", "fusion_lat": 0.0, "name": "8758d4d7edd309eb36f4529ad01941cf", "is_reserved": 0, "rental_uris": {"android": "https://dc.lft.to/lastmile_qr_scan", "ios": "https://dc.lft.to/lastmile_qr_scan"}, "fusion_lon": 0.0}, {"lat": 38.85792983333333, "is_disabled": 0, "type": "electric_bike", "lon": -77.099638, "bike_id": "055444cdcbd6114d5ea633f6f302af42", "fusion_lat": 0.0, "name": "055444cdcbd6114d5ea633f6f302af42", "is_reserved": 0, "rental_uris": {"android": "https://dc.lft.to/lastmile_qr_scan", "ios": "https://dc.lft.to/lastmile_qr_scan"}, "fusion_lon": 0.0}, {"lat": 38.91745366666667, "is_disabled": 0, "type": "electric_scooter", "lon": -77.03207916666666, "bike_id": "e959c6f06cff1daaec56e67f873c4fab", "fusion_lat": 0.0, "name": "e959c6f06cff1daaec56e67f873c4fab", "is_reserved": 0, "rental_uris": {"android": "https://dc.lft.to/lastmile_qr_scan", "ios": "https://dc.lft.to/lastmile_qr_scan"}, "fusion_lon": 0.0}, {"lat": 38.9025835, "is_disabled": 0, "type": "electric_scooter", "lon": -77.0526825, "bike_id": "fa534cd022be99d69dc57d0b19e366dd", "fusion_lat": 0.0, "name": "fa534cd022be99d69dc57d0b19e366dd", "is_reserved": 0, "rental_uris": {"android": "https://dc.lft.to/lastmile_qr_scan", "ios": "https://dc.lft.to/lastmile_qr_scan"}, "fusion_lon": 0.0}, {"lat": 38.90727533333333, "is_disabled": 0, "type": "electric_scooter", "lon": -77.04764483333334, "bike_id": "20b50913c865f96a50c3fac79452a548", "fusion_lat": 0.0, "name": "20b50913c865f96a50c3fac79452a548", "is_reserved": 0, "rental_uris": {"android": "https://dc.lft.to/lastmile_qr_scan", "ios": "https://dc.lft.to/lastmile_qr_scan"}, "fusion_lon": 0.0}, {"lat": 38.945323333333334, "is_disabled": 0, "type": "electric_scooter", "lon": -76.97956216666667, "bike_id": "61be26dad66394fb8fd12b2376b64d1f", "fusion_lat": 0.0, "name": "61be26dad66394fb8fd12b2376b64d1f", "is_reserved": 0, "rental_uris": {"android": "https://dc.lft.to/lastmile_qr_scan", "ios": "https://dc.lft.to/lastmile_qr_scan"}, "fusion_lon": 0.0}, {"lat": 38.8952915, "is_disabled": 0, "type": "electric_scooter", "lon": -76.94890233333334, "bike_id": "4d31f316ed625b459b7541a31eecac0e", "fusion_lat": 0.0, "name": "4d31f316ed625b459b7541a31eecac0e", "is_reserved": 0, "rental_uris": {"android": "https://dc.lft.to/lastmile_qr_scan", "ios": "https://dc.lft.to/lastmile_qr_scan"}, "fusion_lon": 0.0}, {"lat": 38.908167, "is_disabled": 0, "type": "electric_scooter", "lon": -77.043507, "bike_id": "0c6aa1a2d1f230e0e5e1ee6b501bb534", "fusion_lat": 0.0, "name": "0c6aa1a2d1f230e0e5e1ee6b501bb534", "is_reserved": 0, "rental_uris": {"android": "https://dc.lft.to/lastmile_qr_scan", "ios": "https://dc.lft.to/lastmile_qr_scan"}, "fusion_lon": 0.0}, {"lat": 38.9038915, "is_disabled": 0, "type": "electric_scooter", "lon": -77.04507666666667, "bike_id": "f37cd61687e3fc397563636b04f8896e", "fusion_lat": 0.0, "name": "f37cd61687e3fc397563636b04f8896e", "is_reserved": 0, "rental_uris": {"android": "https://dc.lft.to/lastmile_qr_scan", "ios": "https://dc.lft.to/lastmile_qr_scan"}, "fusion_lon": 0.0}, {"lat": 38.917427333333336, "is_disabled": 0, "type": "electric_scooter", "lon": -77.03183483333333, "bike_id": "c33915cb09bb2e013eecf5390d2c2829", "fusion_lat": 0.0, "name": "c33915cb09bb2e013eecf5390d2c2829", "is_reserved": 0, "rental_uris": {"android": "https://dc.lft.to/lastmile_qr_scan", "ios": "https://dc.lft.to/lastmile_qr_scan"}, "fusion_lon": 0.0}, {"lat": 38.884825666666664, "is_disabled": 0, "type": "electric_scooter", "lon": -76.94532033333333, "bike_id": "9513b019498217f52bc82a82322d88f7", "fusion_lat": 0.0, "name": "9513b019498217f52bc82a82322d88f7", "is_reserved": 0, "rental_uris": {"android": "https://dc.lft.to/lastmile_qr_scan", "ios": "https://dc.lft.to/lastmile_qr_scan"}, "fusion_lon": 0.0}, {"lat": 38.902128166666664, "is_disabled": 0, "type": "electric_scooter", "lon": -77.02323883333334, "bike_id": "75bab75194689ba22822ae71350ebd91", "fusion_lat": 0.0, "name": "75bab75194689ba22822ae71350ebd91", "is_reserved": 0, "rental_uris": {"android": "https://dc.lft.to/lastmile_qr_scan", "ios": "https://dc.lft.to/lastmile_qr_scan"}, "fusion_lon": 0.0}, {"lat": 38.8502615, "is_disabled": 0, "type": "electric_bike", "lon": -77.0980815, "bike_id": "b8f362a482bedbf986e8ffe3e6199eab", "fusion_lat": 0.0, "name": "b8f362a482bedbf986e8ffe3e6199eab", "is_reserved": 0, "rental_uris": {"android": "https://dc.lft.to/lastmile_qr_scan", "ios": "https://dc.lft.to/lastmile_qr_scan"}, "fusion_lon": 0.0}, {"lat": 38.90059883333333, "is_disabled": 0, "type": "electric_scooter", "lon": -77.002113, "bike_id": "183def95da42538460b16725550764d7", "fusion_lat": 0.0, "name": "183def95da42538460b16725550764d7", "is_reserved": 0, "rental_uris": {"android": "https://dc.lft.to/lastmile_qr_scan", "ios": "https://dc.lft.to/lastmile_qr_scan"}, "fusion_lon": 0.0}, {"lat": 38.9155695, "is_disabled": 0, "type": "electric_scooter", "lon": -77.0204875, "bike_id": "b493148d7bd0eb3a6888c80d4af4ee49", "fusion_lat": 0.0, "name": "b493148d7bd0eb3a6888c80d4af4ee49", "is_reserved": 0, "rental_uris": {"android": "https://dc.lft.to/lastmile_qr_scan", "ios": "https://dc.lft.to/lastmile_qr_scan"}, "fusion_lon": 0.0}, {"lat": 38.913309166666664, "is_disabled": 0, "type": "electric_scooter", "lon": -77.0318605, "bike_id": "301b46316a6b1da44c22057ea524e644", "fusion_lat": 0.0, "name": "301b46316a6b1da44c22057ea524e644", "is_reserved": 0, "rental_uris": {"android": "https://dc.lft.to/lastmile_qr_scan", "ios": "https://dc.lft.to/lastmile_qr_scan"}, "fusion_lon": 0.0}, {"lat": 38.93252366666667, "is_disabled": 0, "type": "electric_scooter", "lon": -77.03286533333333, "bike_id": "0e5d3b49761d256e6769d7f3c5bb1e5f", "fusion_lat": 0.0, "name": "0e5d3b49761d256e6769d7f3c5bb1e5f", "is_reserved": 0, "rental_uris": {"android": "https://dc.lft.to/lastmile_qr_scan", "ios": "https://dc.lft.to/lastmile_qr_scan"}, "fusion_lon": 0.0}, {"lat": 38.92364233333333, "is_disabled": 0, "type": "electric_scooter", "lon": -77.05132933333333, "bike_id": "f01a322f575e1558a40323478aa6078a", "fusion_lat": 0.0, "name": "f01a322f575e1558a40323478aa6078a", "is_reserved": 0, "rental_uris": {"android": "https://dc.lft.to/lastmile_qr_scan", "ios": "https://dc.lft.to/lastmile_qr_scan"}, "fusion_lon": 0.0}, {"lat": 38.91052033333333, "is_disabled": 0, "type": "electric_scooter", "lon": -77.055872, "bike_id": "639d8874a4a99e2787fbc50827a17ba1", "fusion_lat": 0.0, "name": "639d8874a4a99e2787fbc50827a17ba1", "is_reserved": 0, "rental_uris": {"android": "https://dc.lft.to/lastmile_qr_scan", "ios": "https://dc.lft.to/lastmile_qr_scan"}, "fusion_lon": 0.0}, {"lat": 38.90104216666667, "is_disabled": 0, "type": "electric_scooter", "lon": -76.98491016666667, "bike_id": "62286bf3f397acc7a78e46092c26862f", "fusion_lat": 0.0, "name": "62286bf3f397acc7a78e46092c26862f", "is_reserved": 0, "rental_uris": {"android": "https://dc.lft.to/lastmile_qr_scan", "ios": "https://dc.lft.to/lastmile_qr_scan"}, "fusion_lon": 0.0}, {"lat": 38.836772833333335, "is_disabled": 0, "type": "electric_scooter", "lon": -77.0059535, "bike_id": "b43a063f31d65bf766d25e8d7b7f5a69", "fusion_lat": 0.0, "name": "b43a063f31d65bf766d25e8d7b7f5a69", "is_reserved": 0, "rental_uris": {"android": "https://dc.lft.to/lastmile_qr_scan", "ios": "https://dc.lft.to/lastmile_qr_scan"}, "fusion_lon": 0.0}, {"lat": 38.908605666666666, "is_disabled": 0, "type": "electric_scooter", "lon": -77.04586033333334, "bike_id": "47dcae944e435e8032c69e1cf997e9a7", "fusion_lat": 0.0, "name": "47dcae944e435e8032c69e1cf997e9a7", "is_reserved": 0, "rental_uris": {"android": "https://dc.lft.to/lastmile_qr_scan", "ios": "https://dc.lft.to/lastmile_qr_scan"}, "fusion_lon": 0.0}, {"lat": 38.9082655, "is_disabled": 0, "type": "electric_scooter", "lon": -77.01796966666667, "bike_id": "eb2d9b8eaa1db8616d51a5d38891a4d9", "fusion_lat": 0.0, "name": "eb2d9b8eaa1db8616d51a5d38891a4d9", "is_reserved": 0, "rental_uris": {"android": "https://dc.lft.to/lastmile_qr_scan", "ios": "https://dc.lft.to/lastmile_qr_scan"}, "fusion_lon": 0.0}, {"lat": 38.908103, "is_disabled": 0, "type": "electric_scooter", "lon": -77.04335166666667, "bike_id": "42434b6fe11f288b8367936b32ad0855", "fusion_lat": 0.0, "name": "42434b6fe11f288b8367936b32ad0855", "is_reserved": 0, "rental_uris": {"android": "https://dc.lft.to/lastmile_qr_scan", "ios": "https://dc.lft.to/lastmile_qr_scan"}, "fusion_lon": 0.0}, {"lat": 38.921593333333334, "is_disabled": 0, "type": "electric_scooter", "lon": -77.03529666666667, "bike_id": "951cc95b072ee01b2b032918572a3024", "fusion_lat": 0.0, "name": "951cc95b072ee01b2b032918572a3024", "is_reserved": 0, "rental_uris": {"android": "https://dc.lft.to/lastmile_qr_scan", "ios": "https://dc.lft.to/lastmile_qr_scan"}, "fusion_lon": 0.0}, {"lat": 38.917481, "is_disabled": 0, "type": "electric_scooter", "lon": -77.02405683333333, "bike_id": "8859207197c7237407d56ba11c5fa334", "fusion_lat": 0.0, "name": "8859207197c7237407d56ba11c5fa334", "is_reserved": 0, "rental_uris": {"android": "https://dc.lft.to/lastmile_qr_scan", "ios": "https://dc.lft.to/lastmile_qr_scan"}, "fusion_lon": 0.0}, {"lat": 38.877142166666665, "is_disabled": 0, "type": "electric_scooter", "lon": -77.01668983333333, "bike_id": "de61686fa609aedaa4a9cab38805cc9c", "fusion_lat": 0.0, "name": "de61686fa609aedaa4a9cab38805cc9c", "is_reserved": 0, "rental_uris": {"android": "https://dc.lft.to/lastmile_qr_scan", "ios": "https://dc.lft.to/lastmile_qr_scan"}, "fusion_lon": 0.0}, {"lat": 38.9026165, "is_disabled": 0, "type": "electric_scooter", "lon": -77.02651283333333, "bike_id": "9f599b18738359538b5de4234d0d3c66", "fusion_lat": 0.0, "name": "9f599b18738359538b5de4234d0d3c66", "is_reserved": 0, "rental_uris": {"android": "https://dc.lft.to/lastmile_qr_scan", "ios": "https://dc.lft.to/lastmile_qr_scan"}, "fusion_lon": 0.0}, {"lat": 38.934118833333336, "is_disabled": 0, "type": "electric_scooter", "lon": -77.04269583333334, "bike_id": "6c16e880da8b967926f145bb29056728", "fusion_lat": 0.0, "name": "6c16e880da8b967926f145bb29056728", "is_reserved": 0, "rental_uris": {"android": "https://dc.lft.to/lastmile_qr_scan", "ios": "https://dc.lft.to/lastmile_qr_scan"}, "fusion_lon": 0.0}, {"lat": 38.886319666666665, "is_disabled": 0, "type": "electric_scooter", "lon": -77.0216065, "bike_id": "5bc7b832de8afda2449c0ec4084ffb28", "fusion_lat": 0.0, "name": "5bc7b832de8afda2449c0ec4084ffb28", "is_reserved": 0, "rental_uris": {"android": "https://dc.lft.to/lastmile_qr_scan", "ios": "https://dc.lft.to/lastmile_qr_scan"}, "fusion_lon": 0.0}, {"lat": 38.904735, "is_disabled": 0, "type": "electric_scooter", "lon": -77.04865216666667, "bike_id": "86567448c01d207abf43ed6489c8de73", "fusion_lat": 0.0, "name": "86567448c01d207abf43ed6489c8de73", "is_reserved": 0, "rental_uris": {"android": "https://dc.lft.to/lastmile_qr_scan", "ios": "https://dc.lft.to/lastmile_qr_scan"}, "fusion_lon": 0.0}, {"lat": 38.9064435, "is_disabled": 0, "type": "electric_scooter", "lon": -77.0294435, "bike_id": "49aca0f999bfb98b06810cb374d4e617", "fusion_lat": 0.0, "name": "49aca0f999bfb98b06810cb374d4e617", "is_reserved": 0, "rental_uris": {"android": "https://dc.lft.to/lastmile_qr_scan", "ios": "https://dc.lft.to/lastmile_qr_scan"}, "fusion_lon": 0.0}, {"lat": 38.9507395, "is_disabled": 0, "type": "electric_scooter", "lon": -77.02717416666667, "bike_id": "5924d892b3792c35a9b8abe956ba8e9e", "fusion_lat": 0.0, "name": "5924d892b3792c35a9b8abe956ba8e9e", "is_reserved": 0, "rental_uris": {"android": "https://dc.lft.to/lastmile_qr_scan", "ios": "https://dc.lft.to/lastmile_qr_scan"}, "fusion_lon": 0.0}, {"lat": 38.941900833333335, "is_disabled": 0, "type": "electric_scooter", "lon": -77.04017416666667, "bike_id": "5522787c3ab9ae2abc9e55dd237e1c2e", "fusion_lat": 0.0, "name": "5522787c3ab9ae2abc9e55dd237e1c2e", "is_reserved": 0, "rental_uris": {"android": "https://dc.lft.to/lastmile_qr_scan", "ios": "https://dc.lft.to/lastmile_qr_scan"}, "fusion_lon": 0.0}, {"lat": 38.89929733333334, "is_disabled": 0, "type": "electric_scooter", "lon": -77.02798, "bike_id": "be871556b79e63159d71bc63c67b0831", "fusion_lat": 0.0, "name": "be871556b79e63159d71bc63c67b0831", "is_reserved": 0, "rental_uris": {"android": "https://dc.lft.to/lastmile_qr_scan", "ios": "https://dc.lft.to/lastmile_qr_scan"}, "fusion_lon": 0.0}, {"lat": 38.842701, "is_disabled": 0, "type": "electric_bike", "lon": -76.9884145, "bike_id": "d496e8b58477bec460a269bd938bcdc1", "fusion_lat": 0.0, "name": "d496e8b58477bec460a269bd938bcdc1", "is_reserved": 0, "rental_uris": {"android": "https://dc.lft.to/lastmile_qr_scan", "ios": "https://dc.lft.to/lastmile_qr_scan"}, "fusion_lon": 0.0}, {"lat": 38.866215833333335, "is_disabled": 0, "type": "electric_scooter", "lon": -76.98694766666667, "bike_id": "b19c3e1db2c274c7dde3d0f7fdab144b", "fusion_lat": 0.0, "name": "b19c3e1db2c274c7dde3d0f7fdab144b", "is_reserved": 0, "rental_uris": {"android": "https://dc.lft.to/lastmile_qr_scan", "ios": "https://dc.lft.to/lastmile_qr_scan"}, "fusion_lon": 0.0}, {"lat": 38.88487166666667, "is_disabled": 0, "type": "electric_scooter", "lon": -77.0071475, "bike_id": "c1bf1a50ea1b7e04feb665b1f540b456", "fusion_lat": 0.0, "name": "c1bf1a50ea1b7e04feb665b1f540b456", "is_reserved": 0, "rental_uris": {"android": "https://dc.lft.to/lastmile_qr_scan", "ios": "https://dc.lft.to/lastmile_qr_scan"}, "fusion_lon": 0.0}, {"lat": 38.89223533333333, "is_disabled": 0, "type": "electric_scooter", "lon": -77.02786583333334, "bike_id": "a2f6b1be905f9ffde5ea8ae6803a32ae", "fusion_lat": 0.0, "name": "a2f6b1be905f9ffde5ea8ae6803a32ae", "is_reserved": 0, "rental_uris": {"android": "https://dc.lft.to/lastmile_qr_scan", "ios": "https://dc.lft.to/lastmile_qr_scan"}, "fusion_lon": 0.0}, {"lat": 38.905226666666664, "is_disabled": 0, "type": "electric_scooter", "lon": -77.04354483333333, "bike_id": "9b9db27fe42ab39da9a444a14ef6186a", "fusion_lat": 0.0, "name": "9b9db27fe42ab39da9a444a14ef6186a", "is_reserved": 0, "rental_uris": {"android": "https://dc.lft.to/lastmile_qr_scan", "ios": "https://dc.lft.to/lastmile_qr_scan"}, "fusion_lon": 0.0}, {"lat": 38.900217166666664, "is_disabled": 0, "type": "electric_scooter", "lon": -76.997605, "bike_id": "c7091500d3e9996df238c6931450637c", "fusion_lat": 0.0, "name": "c7091500d3e9996df238c6931450637c", "is_reserved": 0, "rental_uris": {"android": "https://dc.lft.to/lastmile_qr_scan", "ios": "https://dc.lft.to/lastmile_qr_scan"}, "fusion_lon": 0.0}, {"lat": 38.913706, "is_disabled": 0, "type": "electric_scooter", "lon": -77.039661, "bike_id": "ef8090f15b760b8ef4fea078a445678b", "fusion_lat": 0.0, "name": "ef8090f15b760b8ef4fea078a445678b", "is_reserved": 0, "rental_uris": {"android": "https://dc.lft.to/lastmile_qr_scan", "ios": "https://dc.lft.to/lastmile_qr_scan"}, "fusion_lon": 0.0}, {"lat": 38.90526933333334, "is_disabled": 0, "type": "electric_scooter", "lon": -77.0416955, "bike_id": "2900804a5c7497ef95a868dfcca68b7e", "fusion_lat": 0.0, "name": "2900804a5c7497ef95a868dfcca68b7e", "is_reserved": 0, "rental_uris": {"android": "https://dc.lft.to/lastmile_qr_scan", "ios": "https://dc.lft.to/lastmile_qr_scan"}, "fusion_lon": 0.0}, {"lat": 38.94926366666667, "is_disabled": 0, "type": "electric_scooter", "lon": -77.01936583333334, "bike_id": "725fac95150f6605a624c7d8a5eebea2", "fusion_lat": 0.0, "name": "725fac95150f6605a624c7d8a5eebea2", "is_reserved": 0, "rental_uris": {"android": "https://dc.lft.to/lastmile_qr_scan", "ios": "https://dc.lft.to/lastmile_qr_scan"}, "fusion_lon": 0.0}, {"lat": 38.90528333333334, "is_disabled": 0, "type": "electric_scooter", "lon": -77.04170983333333, "bike_id": "fbadaec11842139a95e1719f6cdc2b0f", "fusion_lat": 0.0, "name": "fbadaec11842139a95e1719f6cdc2b0f", "is_reserved": 0, "rental_uris": {"android": "https://dc.lft.to/lastmile_qr_scan", "ios": "https://dc.lft.to/lastmile_qr_scan"}, "fusion_lon": 0.0}, {"lat": 38.926120166666664, "is_disabled": 0, "type": "electric_scooter", "lon": -76.99607216666666, "bike_id": "bfaa7af2bfc2caeba100dcf52901c9dc", "fusion_lat": 0.0, "name": "bfaa7af2bfc2caeba100dcf52901c9dc", "is_reserved": 0, "rental_uris": {"android": "https://dc.lft.to/lastmile_qr_scan", "ios": "https://dc.lft.to/lastmile_qr_scan"}, "fusion_lon": 0.0}, {"lat": 38.9156175, "is_disabled": 0, "type": "electric_scooter", "lon": -77.04000916666666, "bike_id": "42e3c5eeb670e47ed24f500209869900", "fusion_lat": 0.0, "name": "42e3c5eeb670e47ed24f500209869900", "is_reserved": 0, "rental_uris": {"android": "https://dc.lft.to/lastmile_qr_scan", "ios": "https://dc.lft.to/lastmile_qr_scan"}, "fusion_lon": 0.0}, {"lat": 38.88983316666667, "is_disabled": 0, "type": "electric_scooter", "lon": -76.95417366666666, "bike_id": "04a33f3f3d44f04a345567e8edf1c496", "fusion_lat": 0.0, "name": "04a33f3f3d44f04a345567e8edf1c496", "is_reserved": 0, "rental_uris": {"android": "https://dc.lft.to/lastmile_qr_scan", "ios": "https://dc.lft.to/lastmile_qr_scan"}, "fusion_lon": 0.0}, {"lat": 38.912692, "is_disabled": 0, "type": "electric_scooter", "lon": -77.022553, "bike_id": "00f35bff7883e1daaceca460e6616557", "fusion_lat": 0.0, "name": "00f35bff7883e1daaceca460e6616557", "is_reserved": 0, "rental_uris": {"android": "https://dc.lft.to/lastmile_qr_scan", "ios": "https://dc.lft.to/lastmile_qr_scan"}, "fusion_lon": 0.0}, {"lat": 38.92006166666667, "is_disabled": 0, "type": "electric_scooter", "lon": -77.03229816666666, "bike_id": "91df5ceae73021711352e3e10bdae840", "fusion_lat": 0.0, "name": "91df5ceae73021711352e3e10bdae840", "is_reserved": 0, "rental_uris": {"android": "https://dc.lft.to/lastmile_qr_scan", "ios": "https://dc.lft.to/lastmile_qr_scan"}, "fusion_lon": 0.0}, {"lat": 38.882600833333335, "is_disabled": 0, "type": "electric_scooter", "lon": -77.00368233333333, "bike_id": "43b3b5c3682728939f5d740816856bb3", "fusion_lat": 0.0, "name": "43b3b5c3682728939f5d740816856bb3", "is_reserved": 0, "rental_uris": {"android": "https://dc.lft.to/lastmile_qr_scan", "ios": "https://dc.lft.to/lastmile_qr_scan"}, "fusion_lon": 0.0}, {"lat": 38.876629333333334, "is_disabled": 0, "type": "electric_scooter", "lon": -77.00418583333334, "bike_id": "32934db412f6c4a06327149b455702ab", "fusion_lat": 0.0, "name": "32934db412f6c4a06327149b455702ab", "is_reserved": 0, "rental_uris": {"android": "https://dc.lft.to/lastmile_qr_scan", "ios": "https://dc.lft.to/lastmile_qr_scan"}, "fusion_lon": 0.0}, {"lat": 38.93861866666667, "is_disabled": 0, "type": "electric_scooter", "lon": -77.03099133333333, "bike_id": "7293cc8b97c0825a0868dcdbf3fdf321", "fusion_lat": 0.0, "name": "7293cc8b97c0825a0868dcdbf3fdf321", "is_reserved": 0, "rental_uris": {"android": "https://dc.lft.to/lastmile_qr_scan", "ios": "https://dc.lft.to/lastmile_qr_scan"}, "fusion_lon": 0.0}, {"lat": 38.91742966666666, "is_disabled": 0, "type": "electric_scooter", "lon": -77.03196316666667, "bike_id": "80f9e330ece8b71469f86968c050272b", "fusion_lat": 0.0, "name": "80f9e330ece8b71469f86968c050272b", "is_reserved": 0, "rental_uris": {"android": "https://dc.lft.to/lastmile_qr_scan", "ios": "https://dc.lft.to/lastmile_qr_scan"}, "fusion_lon": 0.0}, {"lat": 39.03044883333333, "is_disabled": 0, "type": "electric_bike", "lon": -77.09478033333333, "bike_id": "dbcc951ed64af6ae3aad0ff1d3d6ae13", "fusion_lat": 0.0, "name": "dbcc951ed64af6ae3aad0ff1d3d6ae13", "is_reserved": 0, "rental_uris": {"android": "https://dc.lft.to/lastmile_qr_scan", "ios": "https://dc.lft.to/lastmile_qr_scan"}, "fusion_lon": 0.0}, {"lat": 38.913835, "is_disabled": 0, "type": "electric_scooter", "lon": -77.01701766666666, "bike_id": "024ddc70ab9c967aa003b7df2cd6272d", "fusion_lat": 0.0, "name": "024ddc70ab9c967aa003b7df2cd6272d", "is_reserved": 0, "rental_uris": {"android": "https://dc.lft.to/lastmile_qr_scan", "ios": "https://dc.lft.to/lastmile_qr_scan"}, "fusion_lon": 0.0}, {"lat": 38.910335333333336, "is_disabled": 0, "type": "electric_scooter", "lon": -76.993419, "bike_id": "850a4fcbde5f3485cf70f2d058b9387f", "fusion_lat": 0.0, "name": "850a4fcbde5f3485cf70f2d058b9387f", "is_reserved": 0, "rental_uris": {"android": "https://dc.lft.to/lastmile_qr_scan", "ios": "https://dc.lft.to/lastmile_qr_scan"}, "fusion_lon": 0.0}, {"lat": 38.92317216666667, "is_disabled": 0, "type": "electric_scooter", "lon": -77.03658016666667, "bike_id": "e86e416eb391766394546674dc99cbf1", "fusion_lat": 0.0, "name": "e86e416eb391766394546674dc99cbf1", "is_reserved": 0, "rental_uris": {"android": "https://dc.lft.to/lastmile_qr_scan", "ios": "https://dc.lft.to/lastmile_qr_scan"}, "fusion_lon": 0.0}, {"lat": 38.89528216666667, "is_disabled": 0, "type": "electric_scooter", "lon": -76.9489025, "bike_id": "60ce69a0226648f8374d8c27535eb70f", "fusion_lat": 0.0, "name": "60ce69a0226648f8374d8c27535eb70f", "is_reserved": 0, "rental_uris": {"android": "https://dc.lft.to/lastmile_qr_scan", "ios": "https://dc.lft.to/lastmile_qr_scan"}, "fusion_lon": 0.0}, {"lat": 38.99821766666667, "is_disabled": 0, "type": "electric_bike", "lon": -76.88380283333333, "bike_id": "4893d984b9efeb0a444a4cf85731c14b", "fusion_lat": 0.0, "name": "4893d984b9efeb0a444a4cf85731c14b", "is_reserved": 0, "rental_uris": {"android": "https://dc.lft.to/lastmile_qr_scan", "ios": "https://dc.lft.to/lastmile_qr_scan"}, "fusion_lon": 0.0}, {"lat": 38.949822, "is_disabled": 0, "type": "electric_scooter", "lon": -77.06570466666666, "bike_id": "9e73453dae16b16e0dd5e9dc1618ec63", "fusion_lat": 0.0, "name": "9e73453dae16b16e0dd5e9dc1618ec63", "is_reserved": 0, "rental_uris": {"android": "https://dc.lft.to/lastmile_qr_scan", "ios": "https://dc.lft.to/lastmile_qr_scan"}, "fusion_lon": 0.0}, {"lat": 38.899786666666664, "is_disabled": 0, "type": "electric_scooter", "lon": -77.02071783333334, "bike_id": "b1e5f8c5ef0a057e802dd0e5322568ed", "fusion_lat": 0.0, "name": "b1e5f8c5ef0a057e802dd0e5322568ed", "is_reserved": 0, "rental_uris": {"android": "https://dc.lft.to/lastmile_qr_scan", "ios": "https://dc.lft.to/lastmile_qr_scan"}, "fusion_lon": 0.0}, {"lat": 39.024347166666665, "is_disabled": 0, "type": "electric_bike", "lon": -77.131006, "bike_id": "ef746c86fa26bb74e9f2448c13f1fa4c", "fusion_lat": 0.0, "name": "ef746c86fa26bb74e9f2448c13f1fa4c", "is_reserved": 0, "rental_uris": {"android": "https://dc.lft.to/lastmile_qr_scan", "ios": "https://dc.lft.to/lastmile_qr_scan"}, "fusion_lon": 0.0}, {"lat": 38.892077, "is_disabled": 0, "type": "electric_scooter", "lon": -76.98566466666666, "bike_id": "cf50c27b3c8401ec9e65859b85270dee", "fusion_lat": 0.0, "name": "cf50c27b3c8401ec9e65859b85270dee", "is_reserved": 0, "rental_uris": {"android": "https://dc.lft.to/lastmile_qr_scan", "ios": "https://dc.lft.to/lastmile_qr_scan"}, "fusion_lon": 0.0}, {"lat": 38.9081985, "is_disabled": 0, "type": "electric_scooter", "lon": -77.039577, "bike_id": "bd421021544962fd1c77dfe08feb338e", "fusion_lat": 0.0, "name": "bd421021544962fd1c77dfe08feb338e", "is_reserved": 0, "rental_uris": {"android": "https://dc.lft.to/lastmile_qr_scan", "ios": "https://dc.lft.to/lastmile_qr_scan"}, "fusion_lon": 0.0}, {"lat": 38.999967833333336, "is_disabled": 0, "type": "electric_bike", "lon": -76.925015, "bike_id": "dd3e6076fcee09b352f5be946bba3db6", "fusion_lat": 0.0, "name": "dd3e6076fcee09b352f5be946bba3db6", "is_reserved": 0, "rental_uris": {"android": "https://dc.lft.to/lastmile_qr_scan", "ios": "https://dc.lft.to/lastmile_qr_scan"}, "fusion_lon": 0.0}, {"lat": 38.916740833333336, "is_disabled": 0, "type": "electric_scooter", "lon": -77.0272025, "bike_id": "82d57c968db05d78040eae71131415af", "fusion_lat": 0.0, "name": "82d57c968db05d78040eae71131415af", "is_reserved": 0, "rental_uris": {"android": "https://dc.lft.to/lastmile_qr_scan", "ios": "https://dc.lft.to/lastmile_qr_scan"}, "fusion_lon": 0.0}, {"lat": 38.90627933333333, "is_disabled": 0, "type": "electric_scooter", "lon": -77.03150066666667, "bike_id": "d9ce36bd9323721738c85bfd87c4e565", "fusion_lat": 0.0, "name": "d9ce36bd9323721738c85bfd87c4e565", "is_reserved": 0, "rental_uris": {"android": "https://dc.lft.to/lastmile_qr_scan", "ios": "https://dc.lft.to/lastmile_qr_scan"}, "fusion_lon": 0.0}, {"lat": 38.89221666666667, "is_disabled": 0, "type": "electric_scooter", "lon": -77.03219916666667, "bike_id": "74f9f2d622417bcf873344a43143fbc3", "fusion_lat": 0.0, "name": "74f9f2d622417bcf873344a43143fbc3", "is_reserved": 0, "rental_uris": {"android": "https://dc.lft.to/lastmile_qr_scan", "ios": "https://dc.lft.to/lastmile_qr_scan"}, "fusion_lon": 0.0}, {"lat": 38.92140633333333, "is_disabled": 0, "type": "electric_scooter", "lon": -77.04487516666667, "bike_id": "aaefb339883a554d92fa5db7bc5f6335", "fusion_lat": 0.0, "name": "aaefb339883a554d92fa5db7bc5f6335", "is_reserved": 0, "rental_uris": {"android": "https://dc.lft.to/lastmile_qr_scan", "ios": "https://dc.lft.to/lastmile_qr_scan"}, "fusion_lon": 0.0}, {"lat": 38.9098985, "is_disabled": 0, "type": "electric_scooter", "lon": -77.03178733333333, "bike_id": "f0ae40e89acc6e8b86c116623c926a22", "fusion_lat": 0.0, "name": "f0ae40e89acc6e8b86c116623c926a22", "is_reserved": 0, "rental_uris": {"android": "https://dc.lft.to/lastmile_qr_scan", "ios": "https://dc.lft.to/lastmile_qr_scan"}, "fusion_lon": 0.0}, {"lat": 38.93360966666667, "is_disabled": 0, "type": "electric_scooter", "lon": -77.0572205, "bike_id": "70703d45e378669cfeeb4d0b70231211", "fusion_lat": 0.0, "name": "70703d45e378669cfeeb4d0b70231211", "is_reserved": 0, "rental_uris": {"android": "https://dc.lft.to/lastmile_qr_scan", "ios": "https://dc.lft.to/lastmile_qr_scan"}, "fusion_lon": 0.0}, {"lat": 38.890868, "is_disabled": 0, "type": "electric_scooter", "lon": -76.9526895, "bike_id": "f5cb1b343a5ec25365bd8cab18171179", "fusion_lat": 0.0, "name": "f5cb1b343a5ec25365bd8cab18171179", "is_reserved": 0, "rental_uris": {"android": "https://dc.lft.to/lastmile_qr_scan", "ios": "https://dc.lft.to/lastmile_qr_scan"}, "fusion_lon": 0.0}, {"lat": 38.905566, "is_disabled": 0, "type": "electric_scooter", "lon": -77.00610066666667, "bike_id": "64e2ca4742f94fe75eed0074b223ca3e", "fusion_lat": 0.0, "name": "64e2ca4742f94fe75eed0074b223ca3e", "is_reserved": 0, "rental_uris": {"android": "https://dc.lft.to/lastmile_qr_scan", "ios": "https://dc.lft.to/lastmile_qr_scan"}, "fusion_lon": 0.0}, {"lat": 38.90423883333333, "is_disabled": 0, "type": "electric_scooter", "lon": -77.0465855, "bike_id": "06e58a12165a5f369f4650a72e55d565", "fusion_lat": 0.0, "name": "06e58a12165a5f369f4650a72e55d565", "is_reserved": 0, "rental_uris": {"android": "https://dc.lft.to/lastmile_qr_scan", "ios": "https://dc.lft.to/lastmile_qr_scan"}, "fusion_lon": 0.0}, {"lat": 38.923820166666665, "is_disabled": 0, "type": "electric_scooter", "lon": -77.02744616666666, "bike_id": "f2f06d74574120a35be70c51c7f39861", "fusion_lat": 0.0, "name": "f2f06d74574120a35be70c51c7f39861", "is_reserved": 0, "rental_uris": {"android": "https://dc.lft.to/lastmile_qr_scan", "ios": "https://dc.lft.to/lastmile_qr_scan"}, "fusion_lon": 0.0}, {"lat": 38.917121333333334, "is_disabled": 0, "type": "electric_scooter", "lon": -77.03248283333333, "bike_id": "76667d36b13f489daeb91b0e119dc1d6", "fusion_lat": 0.0, "name": "76667d36b13f489daeb91b0e119dc1d6", "is_reserved": 0, "rental_uris": {"android": "https://dc.lft.to/lastmile_qr_scan", "ios": "https://dc.lft.to/lastmile_qr_scan"}, "fusion_lon": 0.0}, {"lat": 38.966194, "is_disabled": 0, "type": "electric_bike", "lon": -77.03427266666667, "bike_id": "f8048c21d5dc946c36634f423fb7de31", "fusion_lat": 0.0, "name": "f8048c21d5dc946c36634f423fb7de31", "is_reserved": 0, "rental_uris": {"android": "https://dc.lft.to/lastmile_qr_scan", "ios": "https://dc.lft.to/lastmile_qr_scan"}, "fusion_lon": 0.0}, {"lat": 38.924686, "is_disabled": 0, "type": "electric_scooter", "lon": -77.05234666666666, "bike_id": "64b129c29ba21e0a04d07f1bdb11d6d9", "fusion_lat": 0.0, "name": "64b129c29ba21e0a04d07f1bdb11d6d9", "is_reserved": 0, "rental_uris": {"android": "https://dc.lft.to/lastmile_qr_scan", "ios": "https://dc.lft.to/lastmile_qr_scan"}, "fusion_lon": 0.0}, {"lat": 38.91046466666667, "is_disabled": 0, "type": "electric_scooter", "lon": -77.03213583333333, "bike_id": "eaccd788cc75dc9712e60acfb50d1648", "fusion_lat": 0.0, "name": "eaccd788cc75dc9712e60acfb50d1648", "is_reserved": 0, "rental_uris": {"android": "https://dc.lft.to/lastmile_qr_scan", "ios": "https://dc.lft.to/lastmile_qr_scan"}, "fusion_lon": 0.0}, {"lat": 38.88490683333333, "is_disabled": 0, "type": "electric_scooter", "lon": -77.00710716666667, "bike_id": "cb716b076efe951dccc5293fdd593db4", "fusion_lat": 0.0, "name": "cb716b076efe951dccc5293fdd593db4", "is_reserved": 0, "rental_uris": {"android": "https://dc.lft.to/lastmile_qr_scan", "ios": "https://dc.lft.to/lastmile_qr_scan"}, "fusion_lon": 0.0}, {"lat": 38.909343166666666, "is_disabled": 0, "type": "electric_scooter", "lon": -77.04456133333333, "bike_id": "9a89f1f0a81e6961e70c560273213b50", "fusion_lat": 0.0, "name": "9a89f1f0a81e6961e70c560273213b50", "is_reserved": 0, "rental_uris": {"android": "https://dc.lft.to/lastmile_qr_scan", "ios": "https://dc.lft.to/lastmile_qr_scan"}, "fusion_lon": 0.0}, {"lat": 38.84291133333333, "is_disabled": 0, "type": "electric_scooter", "lon": -76.99948866666666, "bike_id": "6027a819c5000a4e40bbfedffaabd66f", "fusion_lat": 0.0, "name": "6027a819c5000a4e40bbfedffaabd66f", "is_reserved": 0, "rental_uris": {"android": "https://dc.lft.to/lastmile_qr_scan", "ios": "https://dc.lft.to/lastmile_qr_scan"}, "fusion_lon": 0.0}, {"lat": 38.88099733333333, "is_disabled": 0, "type": "electric_scooter", "lon": -77.00586716666666, "bike_id": "10a4d826e151bc0f5d551e8a5bceab14", "fusion_lat": 0.0, "name": "10a4d826e151bc0f5d551e8a5bceab14", "is_reserved": 0, "rental_uris": {"android": "https://dc.lft.to/lastmile_qr_scan", "ios": "https://dc.lft.to/lastmile_qr_scan"}, "fusion_lon": 0.0}, {"lat": 38.924941, "is_disabled": 0, "type": "electric_scooter", "lon": -77.0734335, "bike_id": "44d4046f733794d36802a15601c29cac", "fusion_lat": 0.0, "name": "44d4046f733794d36802a15601c29cac", "is_reserved": 0, "rental_uris": {"android": "https://dc.lft.to/lastmile_qr_scan", "ios": "https://dc.lft.to/lastmile_qr_scan"}, "fusion_lon": 0.0}, {"lat": 38.89994816666667, "is_disabled": 0, "type": "electric_scooter", "lon": -76.998565, "bike_id": "24ca8e9abe442d6e9b76d91af9ecedba", "fusion_lat": 0.0, "name": "24ca8e9abe442d6e9b76d91af9ecedba", "is_reserved": 0, "rental_uris": {"android": "https://dc.lft.to/lastmile_qr_scan", "ios": "https://dc.lft.to/lastmile_qr_scan"}, "fusion_lon": 0.0}, {"lat": 38.900968166666665, "is_disabled": 0, "type": "electric_scooter", "lon": -77.0267865, "bike_id": "5b18f55e0e992a834c45bf8ce1d394bc", "fusion_lat": 0.0, "name": "5b18f55e0e992a834c45bf8ce1d394bc", "is_reserved": 0, "rental_uris": {"android": "https://dc.lft.to/lastmile_qr_scan", "ios": "https://dc.lft.to/lastmile_qr_scan"}, "fusion_lon": 0.0}, {"lat": 38.91048833333333, "is_disabled": 0, "type": "electric_scooter", "lon": -77.015118, "bike_id": "15ca2702993919e8c66f6987f9666955", "fusion_lat": 0.0, "name": "15ca2702993919e8c66f6987f9666955", "is_reserved": 0, "rental_uris": {"android": "https://dc.lft.to/lastmile_qr_scan", "ios": "https://dc.lft.to/lastmile_qr_scan"}, "fusion_lon": 0.0}, {"lat": 38.881229833333336, "is_disabled": 0, "type": "electric_scooter", "lon": -77.01408066666667, "bike_id": "fa222980faebcee7a9032ce03c59d245", "fusion_lat": 0.0, "name": "fa222980faebcee7a9032ce03c59d245", "is_reserved": 0, "rental_uris": {"android": "https://dc.lft.to/lastmile_qr_scan", "ios": "https://dc.lft.to/lastmile_qr_scan"}, "fusion_lon": 0.0}, {"lat": 38.907771, "is_disabled": 0, "type": "electric_scooter", "lon": -77.042416, "bike_id": "8ee52946ece45e6ddb88969f9a3144e3", "fusion_lat": 0.0, "name": "8ee52946ece45e6ddb88969f9a3144e3", "is_reserved": 0, "rental_uris": {"android": "https://dc.lft.to/lastmile_qr_scan", "ios": "https://dc.lft.to/lastmile_qr_scan"}, "fusion_lon": 0.0}, {"lat": 38.9557345, "is_disabled": 0, "type": "electric_scooter", "lon": -77.07008633333334, "bike_id": "3505fa6f11da411dba76022cea984d98", "fusion_lat": 0.0, "name": "3505fa6f11da411dba76022cea984d98", "is_reserved": 0, "rental_uris": {"android": "https://dc.lft.to/lastmile_qr_scan", "ios": "https://dc.lft.to/lastmile_qr_scan"}, "fusion_lon": 0.0}, {"lat": 38.90555166666667, "is_disabled": 0, "type": "electric_scooter", "lon": -77.05704766666666, "bike_id": "83eecc46caf59c403e6e5dd6e0a23fad", "fusion_lat": 0.0, "name": "83eecc46caf59c403e6e5dd6e0a23fad", "is_reserved": 0, "rental_uris": {"android": "https://dc.lft.to/lastmile_qr_scan", "ios": "https://dc.lft.to/lastmile_qr_scan"}, "fusion_lon": 0.0}, {"lat": 38.90080583333334, "is_disabled": 0, "type": "electric_scooter", "lon": -77.0271605, "bike_id": "e37f4e3ffaef3aa8731e3af4542be7ea", "fusion_lat": 0.0, "name": "e37f4e3ffaef3aa8731e3af4542be7ea", "is_reserved": 0, "rental_uris": {"android": "https://dc.lft.to/lastmile_qr_scan", "ios": "https://dc.lft.to/lastmile_qr_scan"}, "fusion_lon": 0.0}, {"lat": 38.897118666666664, "is_disabled": 0, "type": "electric_scooter", "lon": -77.0213915, "bike_id": "0c71815d64c2c668a44fb05aef24b685", "fusion_lat": 0.0, "name": "0c71815d64c2c668a44fb05aef24b685", "is_reserved": 0, "rental_uris": {"android": "https://dc.lft.to/lastmile_qr_scan", "ios": "https://dc.lft.to/lastmile_qr_scan"}, "fusion_lon": 0.0}, {"lat": 38.954022333333334, "is_disabled": 0, "type": "electric_scooter", "lon": -77.03631233333333, "bike_id": "fecffe4a40c4db8e019b87389bb42d50", "fusion_lat": 0.0, "name": "fecffe4a40c4db8e019b87389bb42d50", "is_reserved": 0, "rental_uris": {"android": "https://dc.lft.to/lastmile_qr_scan", "ios": "https://dc.lft.to/lastmile_qr_scan"}, "fusion_lon": 0.0}, {"lat": 38.91807283333333, "is_disabled": 0, "type": "electric_scooter", "lon": -77.04028966666667, "bike_id": "eae472d20709993467b6d66ee845acec", "fusion_lat": 0.0, "name": "eae472d20709993467b6d66ee845acec", "is_reserved": 0, "rental_uris": {"android": "https://dc.lft.to/lastmile_qr_scan", "ios": "https://dc.lft.to/lastmile_qr_scan"}, "fusion_lon": 0.0}, {"lat": 38.914089, "is_disabled": 0, "type": "electric_scooter", "lon": -77.02565366666667, "bike_id": "0917922a54b53a36c3dc3883869eaf41", "fusion_lat": 0.0, "name": "0917922a54b53a36c3dc3883869eaf41", "is_reserved": 0, "rental_uris": {"android": "https://dc.lft.to/lastmile_qr_scan", "ios": "https://dc.lft.to/lastmile_qr_scan"}, "fusion_lon": 0.0}, {"lat": 38.80454016666667, "is_disabled": 0, "type": "electric_bike", "lon": -77.06096666666667, "bike_id": "18f83e4967e29f4e0d6f0353087b6aa2", "fusion_lat": 0.0, "name": "18f83e4967e29f4e0d6f0353087b6aa2", "is_reserved": 0, "rental_uris": {"android": "https://dc.lft.to/lastmile_qr_scan", "ios": "https://dc.lft.to/lastmile_qr_scan"}, "fusion_lon": 0.0}, {"lat": 38.8984585, "is_disabled": 0, "type": "electric_scooter", "lon": -76.94636116666666, "bike_id": "1714cd7ef4596c82d36050fc300c3229", "fusion_lat": 0.0, "name": "1714cd7ef4596c82d36050fc300c3229", "is_reserved": 0, "rental_uris": {"android": "https://dc.lft.to/lastmile_qr_scan", "ios": "https://dc.lft.to/lastmile_qr_scan"}, "fusion_lon": 0.0}, {"lat": 39.015770333333336, "is_disabled": 0, "type": "electric_bike", "lon": -77.042372, "bike_id": "3539859f02e4b4b7fc3f7bea8699035e", "fusion_lat": 0.0, "name": "3539859f02e4b4b7fc3f7bea8699035e", "is_reserved": 0, "rental_uris": {"android": "https://dc.lft.to/lastmile_qr_scan", "ios": "https://dc.lft.to/lastmile_qr_scan"}, "fusion_lon": 0.0}, {"lat": 38.8691105, "is_disabled": 0, "type": "electric_bike", "lon": -77.13182983333333, "bike_id": "bdf2d551901095abbf9009275ac23a95", "fusion_lat": 0.0, "name": "bdf2d551901095abbf9009275ac23a95", "is_reserved": 0, "rental_uris": {"android": "https://dc.lft.to/lastmile_qr_scan", "ios": "https://dc.lft.to/lastmile_qr_scan"}, "fusion_lon": 0.0}, {"lat": 38.90495583333333, "is_disabled": 0, "type": "electric_scooter", "lon": -77.02810266666667, "bike_id": "25c13428476244c6f1a4255f3f5678e5", "fusion_lat": 0.0, "name": "25c13428476244c6f1a4255f3f5678e5", "is_reserved": 0, "rental_uris": {"android": "https://dc.lft.to/lastmile_qr_scan", "ios": "https://dc.lft.to/lastmile_qr_scan"}, "fusion_lon": 0.0}, {"lat": 38.899142166666664, "is_disabled": 0, "type": "electric_scooter", "lon": -77.0328525, "bike_id": "8e1bf9c9a3886929e619e86a37339d98", "fusion_lat": 0.0, "name": "8e1bf9c9a3886929e619e86a37339d98", "is_reserved": 0, "rental_uris": {"android": "https://dc.lft.to/lastmile_qr_scan", "ios": "https://dc.lft.to/lastmile_qr_scan"}, "fusion_lon": 0.0}, {"lat": 38.9587895, "is_disabled": 0, "type": "electric_bike", "lon": -77.01034166666666, "bike_id": "0f72a41ad0f284c3691f619103adc3e6", "fusion_lat": 0.0, "name": "0f72a41ad0f284c3691f619103adc3e6", "is_reserved": 0, "rental_uris": {"android": "https://dc.lft.to/lastmile_qr_scan", "ios": "https://dc.lft.to/lastmile_qr_scan"}, "fusion_lon": 0.0}, {"lat": 38.92204616666667, "is_disabled": 0, "type": "electric_scooter", "lon": -77.040164, "bike_id": "3388d3e068ff604f95c3fdcf535be591", "fusion_lat": 0.0, "name": "3388d3e068ff604f95c3fdcf535be591", "is_reserved": 0, "rental_uris": {"android": "https://dc.lft.to/lastmile_qr_scan", "ios": "https://dc.lft.to/lastmile_qr_scan"}, "fusion_lon": 0.0}, {"lat": 38.91204233333333, "is_disabled": 0, "type": "electric_scooter", "lon": -77.04500333333333, "bike_id": "a19b29a4211f1208544e5eff7b2aff2c", "fusion_lat": 0.0, "name": "a19b29a4211f1208544e5eff7b2aff2c", "is_reserved": 0, "rental_uris": {"android": "https://dc.lft.to/lastmile_qr_scan", "ios": "https://dc.lft.to/lastmile_qr_scan"}, "fusion_lon": 0.0}, {"lat": 38.90735866666667, "is_disabled": 0, "type": "electric_scooter", "lon": -77.02586766666667, "bike_id": "806f677d971bcee0c5a6c860a8d172a6", "fusion_lat": 0.0, "name": "806f677d971bcee0c5a6c860a8d172a6", "is_reserved": 0, "rental_uris": {"android": "https://dc.lft.to/lastmile_qr_scan", "ios": "https://dc.lft.to/lastmile_qr_scan"}, "fusion_lon": 0.0}, {"lat": 38.910103666666664, "is_disabled": 0, "type": "electric_scooter", "lon": -76.984947, "bike_id": "9dc4db7ab64e7d3af0a14488ef685cd4", "fusion_lat": 0.0, "name": "9dc4db7ab64e7d3af0a14488ef685cd4", "is_reserved": 0, "rental_uris": {"android": "https://dc.lft.to/lastmile_qr_scan", "ios": "https://dc.lft.to/lastmile_qr_scan"}, "fusion_lon": 0.0}, {"lat": 38.8398075, "is_disabled": 0, "type": "electric_bike", "lon": -77.00570183333333, "bike_id": "a239badbc2066a76f086900be3a8de9a", "fusion_lat": 0.0, "name": "a239badbc2066a76f086900be3a8de9a", "is_reserved": 0, "rental_uris": {"android": "https://dc.lft.to/lastmile_qr_scan", "ios": "https://dc.lft.to/lastmile_qr_scan"}, "fusion_lon": 0.0}, {"lat": 38.888103666666666, "is_disabled": 0, "type": "electric_scooter", "lon": -76.93344733333333, "bike_id": "1732912d340b2fbc7e1002bb119a79f9", "fusion_lat": 0.0, "name": "1732912d340b2fbc7e1002bb119a79f9", "is_reserved": 0, "rental_uris": {"android": "https://dc.lft.to/lastmile_qr_scan", "ios": "https://dc.lft.to/lastmile_qr_scan"}, "fusion_lon": 0.0}, {"lat": 38.8767205, "is_disabled": 0, "type": "electric_bike", "lon": -77.014498, "bike_id": "1c92048b561236edcb284c08f11b90e1", "fusion_lat": 0.0, "name": "1c92048b561236edcb284c08f11b90e1", "is_reserved": 0, "rental_uris": {"android": "https://dc.lft.to/lastmile_qr_scan", "ios": "https://dc.lft.to/lastmile_qr_scan"}, "fusion_lon": 0.0}, {"lat": 38.906759, "is_disabled": 0, "type": "electric_scooter", "lon": -77.03836083333333, "bike_id": "1e39c50003fc3b852fc5f6bd6d38e406", "fusion_lat": 0.0, "name": "1e39c50003fc3b852fc5f6bd6d38e406", "is_reserved": 0, "rental_uris": {"android": "https://dc.lft.to/lastmile_qr_scan", "ios": "https://dc.lft.to/lastmile_qr_scan"}, "fusion_lon": 0.0}, {"lat": 38.92038933333333, "is_disabled": 0, "type": "electric_bike", "lon": -77.03711433333334, "bike_id": "88ed0a73853b971b6c3b556cad5224de", "fusion_lat": 0.0, "name": "88ed0a73853b971b6c3b556cad5224de", "is_reserved": 0, "rental_uris": {"android": "https://dc.lft.to/lastmile_qr_scan", "ios": "https://dc.lft.to/lastmile_qr_scan"}, "fusion_lon": 0.0}, {"lat": 38.9203485, "is_disabled": 0, "type": "electric_scooter", "lon": -77.03403566666667, "bike_id": "c9c9a37ab05981ec6cc01210866e5398", "fusion_lat": 0.0, "name": "c9c9a37ab05981ec6cc01210866e5398", "is_reserved": 0, "rental_uris": {"android": "https://dc.lft.to/lastmile_qr_scan", "ios": "https://dc.lft.to/lastmile_qr_scan"}, "fusion_lon": 0.0}, {"lat": 38.924032833333335, "is_disabled": 0, "type": "electric_scooter", "lon": -77.05258933333333, "bike_id": "ba2ad6d8dcb135fdf1ab54636977dc47", "fusion_lat": 0.0, "name": "ba2ad6d8dcb135fdf1ab54636977dc47", "is_reserved": 0, "rental_uris": {"android": "https://dc.lft.to/lastmile_qr_scan", "ios": "https://dc.lft.to/lastmile_qr_scan"}, "fusion_lon": 0.0}, {"lat": 38.9004235, "is_disabled": 0, "type": "electric_scooter", "lon": -76.99499216666666, "bike_id": "c65aa7006537128766810fb8085579ef", "fusion_lat": 0.0, "name": "c65aa7006537128766810fb8085579ef", "is_reserved": 0, "rental_uris": {"android": "https://dc.lft.to/lastmile_qr_scan", "ios": "https://dc.lft.to/lastmile_qr_scan"}, "fusion_lon": 0.0}, {"lat": 38.89011983333333, "is_disabled": 0, "type": "electric_scooter", "lon": -76.93739833333333, "bike_id": "063b165d3baeae06a3740b710f5d8d26", "fusion_lat": 0.0, "name": "063b165d3baeae06a3740b710f5d8d26", "is_reserved": 0, "rental_uris": {"android": "https://dc.lft.to/lastmile_qr_scan", "ios": "https://dc.lft.to/lastmile_qr_scan"}, "fusion_lon": 0.0}, {"lat": 38.912604, "is_disabled": 0, "type": "electric_scooter", "lon": -77.02250083333334, "bike_id": "538754db3b2f3c226527b89bbc259db8", "fusion_lat": 0.0, "name": "538754db3b2f3c226527b89bbc259db8", "is_reserved": 0, "rental_uris": {"android": "https://dc.lft.to/lastmile_qr_scan", "ios": "https://dc.lft.to/lastmile_qr_scan"}, "fusion_lon": 0.0}, {"lat": 38.901968333333336, "is_disabled": 0, "type": "electric_scooter", "lon": -77.02181116666667, "bike_id": "ec27f9d39acb1623a409c95bd61e7b4a", "fusion_lat": 0.0, "name": "ec27f9d39acb1623a409c95bd61e7b4a", "is_reserved": 0, "rental_uris": {"android": "https://dc.lft.to/lastmile_qr_scan", "ios": "https://dc.lft.to/lastmile_qr_scan"}, "fusion_lon": 0.0}, {"lat": 39.0750325, "is_disabled": 0, "type": "electric_bike", "lon": -77.11897383333333, "bike_id": "4515e13a244595284b10d2b29a24a426", "fusion_lat": 0.0, "name": "4515e13a244595284b10d2b29a24a426", "is_reserved": 0, "rental_uris": {"android": "https://dc.lft.to/lastmile_qr_scan", "ios": "https://dc.lft.to/lastmile_qr_scan"}, "fusion_lon": 0.0}, {"lat": 38.9305925, "is_disabled": 0, "type": "electric_scooter", "lon": -77.03634316666667, "bike_id": "790913f6d0b76a2ef687f04cb951aeb8", "fusion_lat": 0.0, "name": "790913f6d0b76a2ef687f04cb951aeb8", "is_reserved": 0, "rental_uris": {"android": "https://dc.lft.to/lastmile_qr_scan", "ios": "https://dc.lft.to/lastmile_qr_scan"}, "fusion_lon": 0.0}, {"lat": 38.930696, "is_disabled": 0, "type": "electric_scooter", "lon": -77.0374935, "bike_id": "04f3cca9e63ab6395e569142e06fb35f", "fusion_lat": 0.0, "name": "04f3cca9e63ab6395e569142e06fb35f", "is_reserved": 0, "rental_uris": {"android": "https://dc.lft.to/lastmile_qr_scan", "ios": "https://dc.lft.to/lastmile_qr_scan"}, "fusion_lon": 0.0}, {"lat": 38.9233245, "is_disabled": 0, "type": "electric_scooter", "lon": -77.036251, "bike_id": "20fd0b932d754d86a9d55909b4339636", "fusion_lat": 0.0, "name": "20fd0b932d754d86a9d55909b4339636", "is_reserved": 0, "rental_uris": {"android": "https://dc.lft.to/lastmile_qr_scan", "ios": "https://dc.lft.to/lastmile_qr_scan"}, "fusion_lon": 0.0}, {"lat": 38.886722, "is_disabled": 0, "type": "electric_scooter", "lon": -76.99032616666666, "bike_id": "d8734eebb0cde2dae71ad300984b54e7", "fusion_lat": 0.0, "name": "d8734eebb0cde2dae71ad300984b54e7", "is_reserved": 0, "rental_uris": {"android": "https://dc.lft.to/lastmile_qr_scan", "ios": "https://dc.lft.to/lastmile_qr_scan"}, "fusion_lon": 0.0}, {"lat": 38.905321666666666, "is_disabled": 0, "type": "electric_scooter", "lon": -77.041765, "bike_id": "959258a62cbcb38e8134d86a5a3230bf", "fusion_lat": 0.0, "name": "959258a62cbcb38e8134d86a5a3230bf", "is_reserved": 0, "rental_uris": {"android": "https://dc.lft.to/lastmile_qr_scan", "ios": "https://dc.lft.to/lastmile_qr_scan"}, "fusion_lon": 0.0}, {"lat": 38.89009883333333, "is_disabled": 0, "type": "electric_scooter", "lon": -76.9374575, "bike_id": "85b560c29758e4bbff944268c3c3aa4c", "fusion_lat": 0.0, "name": "85b560c29758e4bbff944268c3c3aa4c", "is_reserved": 0, "rental_uris": {"android": "https://dc.lft.to/lastmile_qr_scan", "ios": "https://dc.lft.to/lastmile_qr_scan"}, "fusion_lon": 0.0}, {"lat": 38.908868166666664, "is_disabled": 0, "type": "electric_scooter", "lon": -76.996287, "bike_id": "fc10aa54823c1aa0527a3b8782fe089d", "fusion_lat": 0.0, "name": "fc10aa54823c1aa0527a3b8782fe089d", "is_reserved": 0, "rental_uris": {"android": "https://dc.lft.to/lastmile_qr_scan", "ios": "https://dc.lft.to/lastmile_qr_scan"}, "fusion_lon": 0.0}, {"lat": 38.922398666666666, "is_disabled": 0, "type": "electric_scooter", "lon": -77.04572383333333, "bike_id": "3de08f30eb6df80028ebac1d54d89bdd", "fusion_lat": 0.0, "name": "3de08f30eb6df80028ebac1d54d89bdd", "is_reserved": 0, "rental_uris": {"android": "https://dc.lft.to/lastmile_qr_scan", "ios": "https://dc.lft.to/lastmile_qr_scan"}, "fusion_lon": 0.0}, {"lat": 38.8997125, "is_disabled": 0, "type": "electric_scooter", "lon": -77.0072455, "bike_id": "47a0d96dcca49f1d00cf811b2b55d899", "fusion_lat": 0.0, "name": "47a0d96dcca49f1d00cf811b2b55d899", "is_reserved": 0, "rental_uris": {"android": "https://dc.lft.to/lastmile_qr_scan", "ios": "https://dc.lft.to/lastmile_qr_scan"}, "fusion_lon": 0.0}, {"lat": 38.905722833333336, "is_disabled": 0, "type": "electric_scooter", "lon": -77.0269985, "bike_id": "c383b974285cc2ad5a854339b65df185", "fusion_lat": 0.0, "name": "c383b974285cc2ad5a854339b65df185", "is_reserved": 0, "rental_uris": {"android": "https://dc.lft.to/lastmile_qr_scan", "ios": "https://dc.lft.to/lastmile_qr_scan"}, "fusion_lon": 0.0}, {"lat": 38.91934583333333, "is_disabled": 0, "type": "electric_scooter", "lon": -77.02303983333333, "bike_id": "1ae7ca91cde92923828c5444fdf5ba78", "fusion_lat": 0.0, "name": "1ae7ca91cde92923828c5444fdf5ba78", "is_reserved": 0, "rental_uris": {"android": "https://dc.lft.to/lastmile_qr_scan", "ios": "https://dc.lft.to/lastmile_qr_scan"}, "fusion_lon": 0.0}, {"lat": 38.919192333333335, "is_disabled": 0, "type": "electric_scooter", "lon": -77.07050616666666, "bike_id": "5cacc836619e2e5dc38f42f0b5bddaf5", "fusion_lat": 0.0, "name": "5cacc836619e2e5dc38f42f0b5bddaf5", "is_reserved": 0, "rental_uris": {"android": "https://dc.lft.to/lastmile_qr_scan", "ios": "https://dc.lft.to/lastmile_qr_scan"}, "fusion_lon": 0.0}, {"lat": 38.905321, "is_disabled": 0, "type": "electric_scooter", "lon": -77.05768733333333, "bike_id": "bb95a05ce51921e670a52175b2e24734", "fusion_lat": 0.0, "name": "bb95a05ce51921e670a52175b2e24734", "is_reserved": 0, "rental_uris": {"android": "https://dc.lft.to/lastmile_qr_scan", "ios": "https://dc.lft.to/lastmile_qr_scan"}, "fusion_lon": 0.0}, {"lat": 38.90007166666667, "is_disabled": 0, "type": "electric_scooter", "lon": -77.04659816666667, "bike_id": "43453732999c57a5f9f95429cb231d0b", "fusion_lat": 0.0, "name": "43453732999c57a5f9f95429cb231d0b", "is_reserved": 0, "rental_uris": {"android": "https://dc.lft.to/lastmile_qr_scan", "ios": "https://dc.lft.to/lastmile_qr_scan"}, "fusion_lon": 0.0}, {"lat": 38.8934885, "is_disabled": 0, "type": "electric_scooter", "lon": -77.01355933333333, "bike_id": "3487157a7e8ed58644721e52e83bc0b3", "fusion_lat": 0.0, "name": "3487157a7e8ed58644721e52e83bc0b3", "is_reserved": 0, "rental_uris": {"android": "https://dc.lft.to/lastmile_qr_scan", "ios": "https://dc.lft.to/lastmile_qr_scan"}, "fusion_lon": 0.0}, {"lat": 38.89224033333333, "is_disabled": 0, "type": "electric_scooter", "lon": -77.0486695, "bike_id": "ba72fd541f0f235a306bca6855891d15", "fusion_lat": 0.0, "name": "ba72fd541f0f235a306bca6855891d15", "is_reserved": 0, "rental_uris": {"android": "https://dc.lft.to/lastmile_qr_scan", "ios": "https://dc.lft.to/lastmile_qr_scan"}, "fusion_lon": 0.0}, {"lat": 38.870677666666666, "is_disabled": 0, "type": "electric_bike", "lon": -77.00837166666666, "bike_id": "414aabe71a5023f18b2f4fc7755f9653", "fusion_lat": 0.0, "name": "414aabe71a5023f18b2f4fc7755f9653", "is_reserved": 0, "rental_uris": {"android": "https://dc.lft.to/lastmile_qr_scan", "ios": "https://dc.lft.to/lastmile_qr_scan"}, "fusion_lon": 0.0}, {"lat": 38.8999395, "is_disabled": 0, "type": "electric_scooter", "lon": -76.9986695, "bike_id": "6738ecb4d87d02be11a0325db0c57fb6", "fusion_lat": 0.0, "name": "6738ecb4d87d02be11a0325db0c57fb6", "is_reserved": 0, "rental_uris": {"android": "https://dc.lft.to/lastmile_qr_scan", "ios": "https://dc.lft.to/lastmile_qr_scan"}, "fusion_lon": 0.0}, {"lat": 38.926135333333335, "is_disabled": 0, "type": "electric_scooter", "lon": -77.0216155, "bike_id": "1a407c9b58606b1b29cb8ca4205a0be8", "fusion_lat": 0.0, "name": "1a407c9b58606b1b29cb8ca4205a0be8", "is_reserved": 0, "rental_uris": {"android": "https://dc.lft.to/lastmile_qr_scan", "ios": "https://dc.lft.to/lastmile_qr_scan"}, "fusion_lon": 0.0}, {"lat": 38.90820266666667, "is_disabled": 0, "type": "electric_scooter", "lon": -77.0184115, "bike_id": "064fa134bbce13cdeb12a4ce7ebe0271", "fusion_lat": 0.0, "name": "064fa134bbce13cdeb12a4ce7ebe0271", "is_reserved": 0, "rental_uris": {"android": "https://dc.lft.to/lastmile_qr_scan", "ios": "https://dc.lft.to/lastmile_qr_scan"}, "fusion_lon": 0.0}, {"lat": 38.85197766666667, "is_disabled": 0, "type": "electric_bike", "lon": -76.96114333333334, "bike_id": "e03839ae3db75197dc28ed1ca4598fa0", "fusion_lat": 0.0, "name": "e03839ae3db75197dc28ed1ca4598fa0", "is_reserved": 0, "rental_uris": {"android": "https://dc.lft.to/lastmile_qr_scan", "ios": "https://dc.lft.to/lastmile_qr_scan"}, "fusion_lon": 0.0}, {"lat": 38.9156525, "is_disabled": 0, "type": "electric_scooter", "lon": -77.03145316666667, "bike_id": "84e843a51c4a0ca9c3b5c3120bd566d2", "fusion_lat": 0.0, "name": "84e843a51c4a0ca9c3b5c3120bd566d2", "is_reserved": 0, "rental_uris": {"android": "https://dc.lft.to/lastmile_qr_scan", "ios": "https://dc.lft.to/lastmile_qr_scan"}, "fusion_lon": 0.0}, {"lat": 38.9409905, "is_disabled": 0, "type": "electric_scooter", "lon": -77.02113016666667, "bike_id": "8378675e8f85bbc4d51ccf0f075ba20c", "fusion_lat": 0.0, "name": "8378675e8f85bbc4d51ccf0f075ba20c", "is_reserved": 0, "rental_uris": {"android": "https://dc.lft.to/lastmile_qr_scan", "ios": "https://dc.lft.to/lastmile_qr_scan"}, "fusion_lon": 0.0}, {"lat": 38.898464833333335, "is_disabled": 0, "type": "electric_scooter", "lon": -76.94635916666667, "bike_id": "4517cae1d8f80eb75083e6a1e4f08d34", "fusion_lat": 0.0, "name": "4517cae1d8f80eb75083e6a1e4f08d34", "is_reserved": 0, "rental_uris": {"android": "https://dc.lft.to/lastmile_qr_scan", "ios": "https://dc.lft.to/lastmile_qr_scan"}, "fusion_lon": 0.0}, {"lat": 38.908463166666664, "is_disabled": 0, "type": "electric_scooter", "lon": -77.03834783333333, "bike_id": "20db5339f9b1087da435e52f933a6106", "fusion_lat": 0.0, "name": "20db5339f9b1087da435e52f933a6106", "is_reserved": 0, "rental_uris": {"android": "https://dc.lft.to/lastmile_qr_scan", "ios": "https://dc.lft.to/lastmile_qr_scan"}, "fusion_lon": 0.0}, {"lat": 38.902390833333335, "is_disabled": 0, "type": "electric_scooter", "lon": -77.03975633333333, "bike_id": "5b5e5f110231a3379b7645762be7ab7c", "fusion_lat": 0.0, "name": "5b5e5f110231a3379b7645762be7ab7c", "is_reserved": 0, "rental_uris": {"android": "https://dc.lft.to/lastmile_qr_scan", "ios": "https://dc.lft.to/lastmile_qr_scan"}, "fusion_lon": 0.0}, {"lat": 38.90963333333333, "is_disabled": 0, "type": "electric_scooter", "lon": -77.023921, "bike_id": "3266b3418bcfbea4d2ec26825c800669", "fusion_lat": 0.0, "name": "3266b3418bcfbea4d2ec26825c800669", "is_reserved": 0, "rental_uris": {"android": "https://dc.lft.to/lastmile_qr_scan", "ios": "https://dc.lft.to/lastmile_qr_scan"}, "fusion_lon": 0.0}, {"lat": 38.90207316666667, "is_disabled": 0, "type": "electric_scooter", "lon": -77.026728, "bike_id": "76aebe0d7d9ddcf43ad74090bd6dcfa5", "fusion_lat": 0.0, "name": "76aebe0d7d9ddcf43ad74090bd6dcfa5", "is_reserved": 0, "rental_uris": {"android": "https://dc.lft.to/lastmile_qr_scan", "ios": "https://dc.lft.to/lastmile_qr_scan"}, "fusion_lon": 0.0}, {"lat": 38.9180575, "is_disabled": 0, "type": "electric_scooter", "lon": -77.040351, "bike_id": "5b42e4c60dab0743408c7ad8d31e8bf1", "fusion_lat": 0.0, "name": "5b42e4c60dab0743408c7ad8d31e8bf1", "is_reserved": 0, "rental_uris": {"android": "https://dc.lft.to/lastmile_qr_scan", "ios": "https://dc.lft.to/lastmile_qr_scan"}, "fusion_lon": 0.0}, {"lat": 38.944422, "is_disabled": 0, "type": "electric_scooter", "lon": -77.01504216666666, "bike_id": "e99c6a670ed5449448826deaef4ab3b8", "fusion_lat": 0.0, "name": "e99c6a670ed5449448826deaef4ab3b8", "is_reserved": 0, "rental_uris": {"android": "https://dc.lft.to/lastmile_qr_scan", "ios": "https://dc.lft.to/lastmile_qr_scan"}, "fusion_lon": 0.0}, {"lat": 38.85513666666667, "is_disabled": 0, "type": "electric_bike", "lon": -77.12015316666667, "bike_id": "0e581e9cf673eb9508f2e7f719e23379", "fusion_lat": 0.0, "name": "0e581e9cf673eb9508f2e7f719e23379", "is_reserved": 0, "rental_uris": {"android": "https://dc.lft.to/lastmile_qr_scan", "ios": "https://dc.lft.to/lastmile_qr_scan"}, "fusion_lon": 0.0}, {"lat": 38.92262933333333, "is_disabled": 0, "type": "electric_scooter", "lon": -77.0334975, "bike_id": "58441a7cbbedbc84e75e4fc7f1d8dc3d", "fusion_lat": 0.0, "name": "58441a7cbbedbc84e75e4fc7f1d8dc3d", "is_reserved": 0, "rental_uris": {"android": "https://dc.lft.to/lastmile_qr_scan", "ios": "https://dc.lft.to/lastmile_qr_scan"}, "fusion_lon": 0.0}, {"lat": 38.900718166666664, "is_disabled": 0, "type": "electric_scooter", "lon": -77.00211283333333, "bike_id": "2e5e65714eabbf377eb08cb9f7486d4a", "fusion_lat": 0.0, "name": "2e5e65714eabbf377eb08cb9f7486d4a", "is_reserved": 0, "rental_uris": {"android": "https://dc.lft.to/lastmile_qr_scan", "ios": "https://dc.lft.to/lastmile_qr_scan"}, "fusion_lon": 0.0}, {"lat": 38.91711466666667, "is_disabled": 0, "type": "electric_scooter", "lon": -77.02959333333334, "bike_id": "2cf5bd893851d1819aa2ca6dd4ab41d6", "fusion_lat": 0.0, "name": "2cf5bd893851d1819aa2ca6dd4ab41d6", "is_reserved": 0, "rental_uris": {"android": "https://dc.lft.to/lastmile_qr_scan", "ios": "https://dc.lft.to/lastmile_qr_scan"}, "fusion_lon": 0.0}, {"lat": 38.911246, "is_disabled": 0, "type": "electric_scooter", "lon": -77.03303, "bike_id": "9c8fa2002a9aad1c8f8feeead2e47689", "fusion_lat": 0.0, "name": "9c8fa2002a9aad1c8f8feeead2e47689", "is_reserved": 0, "rental_uris": {"android": "https://dc.lft.to/lastmile_qr_scan", "ios": "https://dc.lft.to/lastmile_qr_scan"}, "fusion_lon": 0.0}, {"lat": 38.86566716666667, "is_disabled": 0, "type": "electric_scooter", "lon": -76.97423566666667, "bike_id": "a71e1390e3dc170abc006c8755c7f1c1", "fusion_lat": 0.0, "name": "a71e1390e3dc170abc006c8755c7f1c1", "is_reserved": 0, "rental_uris": {"android": "https://dc.lft.to/lastmile_qr_scan", "ios": "https://dc.lft.to/lastmile_qr_scan"}, "fusion_lon": 0.0}, {"lat": 38.8875415, "is_disabled": 0, "type": "electric_scooter", "lon": -77.03225983333333, "bike_id": "b22b28c2cec91633177672c32e7822f7", "fusion_lat": 0.0, "name": "b22b28c2cec91633177672c32e7822f7", "is_reserved": 0, "rental_uris": {"android": "https://dc.lft.to/lastmile_qr_scan", "ios": "https://dc.lft.to/lastmile_qr_scan"}, "fusion_lon": 0.0}, {"lat": 38.8976505, "is_disabled": 0, "type": "electric_scooter", "lon": -77.026903, "bike_id": "2485c5860b8a6b93796980180e7b539e", "fusion_lat": 0.0, "name": "2485c5860b8a6b93796980180e7b539e", "is_reserved": 0, "rental_uris": {"android": "https://dc.lft.to/lastmile_qr_scan", "ios": "https://dc.lft.to/lastmile_qr_scan"}, "fusion_lon": 0.0}, {"lat": 38.9305255, "is_disabled": 0, "type": "electric_scooter", "lon": -77.0411635, "bike_id": "e19bdd9b679206ad9484ace7c58f3d3c", "fusion_lat": 0.0, "name": "e19bdd9b679206ad9484ace7c58f3d3c", "is_reserved": 0, "rental_uris": {"android": "https://dc.lft.to/lastmile_qr_scan", "ios": "https://dc.lft.to/lastmile_qr_scan"}, "fusion_lon": 0.0}, {"lat": 38.96283566666666, "is_disabled": 0, "type": "electric_bike", "lon": -76.98297683333334, "bike_id": "8eee846753b01c61421ee11906f9c108", "fusion_lat": 0.0, "name": "8eee846753b01c61421ee11906f9c108", "is_reserved": 0, "rental_uris": {"android": "https://dc.lft.to/lastmile_qr_scan", "ios": "https://dc.lft.to/lastmile_qr_scan"}, "fusion_lon": 0.0}, {"lat": 38.90801716666667, "is_disabled": 0, "type": "electric_scooter", "lon": -77.04337316666667, "bike_id": "638bd1d98270135dcb9081c41f37cef4", "fusion_lat": 0.0, "name": "638bd1d98270135dcb9081c41f37cef4", "is_reserved": 0, "rental_uris": {"android": "https://dc.lft.to/lastmile_qr_scan", "ios": "https://dc.lft.to/lastmile_qr_scan"}, "fusion_lon": 0.0}, {"lat": 38.9005085, "is_disabled": 0, "type": "electric_scooter", "lon": -77.0074495, "bike_id": "2d4742b3a7b0f9ce1e01ab15b8987751", "fusion_lat": 0.0, "name": "2d4742b3a7b0f9ce1e01ab15b8987751", "is_reserved": 0, "rental_uris": {"android": "https://dc.lft.to/lastmile_qr_scan", "ios": "https://dc.lft.to/lastmile_qr_scan"}, "fusion_lon": 0.0}, {"lat": 38.863907166666664, "is_disabled": 0, "type": "electric_bike", "lon": -76.9899295, "bike_id": "759990cb4cad6bbb7c0d4f928e582daa", "fusion_lat": 0.0, "name": "759990cb4cad6bbb7c0d4f928e582daa", "is_reserved": 0, "rental_uris": {"android": "https://dc.lft.to/lastmile_qr_scan", "ios": "https://dc.lft.to/lastmile_qr_scan"}, "fusion_lon": 0.0}, {"lat": 38.941746333333334, "is_disabled": 0, "type": "electric_scooter", "lon": -77.04137466666667, "bike_id": "0f3876354c5ce4fd982bf1eddef51080", "fusion_lat": 0.0, "name": "0f3876354c5ce4fd982bf1eddef51080", "is_reserved": 0, "rental_uris": {"android": "https://dc.lft.to/lastmile_qr_scan", "ios": "https://dc.lft.to/lastmile_qr_scan"}, "fusion_lon": 0.0}, {"lat": 39.0001075, "is_disabled": 0, "type": "electric_bike", "lon": -76.91081116666666, "bike_id": "88989296fa677f63f407c95ae4fbbafe", "fusion_lat": 0.0, "name": "88989296fa677f63f407c95ae4fbbafe", "is_reserved": 0, "rental_uris": {"android": "https://dc.lft.to/lastmile_qr_scan", "ios": "https://dc.lft.to/lastmile_qr_scan"}, "fusion_lon": 0.0}, {"lat": 38.89221783333333, "is_disabled": 0, "type": "electric_scooter", "lon": -77.02778083333334, "bike_id": "a50f15d2f9a6d2924178e41001e10330", "fusion_lat": 0.0, "name": "a50f15d2f9a6d2924178e41001e10330", "is_reserved": 0, "rental_uris": {"android": "https://dc.lft.to/lastmile_qr_scan", "ios": "https://dc.lft.to/lastmile_qr_scan"}, "fusion_lon": 0.0}, {"lat": 38.91339133333334, "is_disabled": 0, "type": "electric_scooter", "lon": -77.03172566666667, "bike_id": "04e64c911e409cfa4a269d8997c9c231", "fusion_lat": 0.0, "name": "04e64c911e409cfa4a269d8997c9c231", "is_reserved": 0, "rental_uris": {"android": "https://dc.lft.to/lastmile_qr_scan", "ios": "https://dc.lft.to/lastmile_qr_scan"}, "fusion_lon": 0.0}, {"lat": 38.89762283333334, "is_disabled": 0, "type": "electric_bike", "lon": -76.904352, "bike_id": "0380cc8317948758c7259335356b384a", "fusion_lat": 0.0, "name": "0380cc8317948758c7259335356b384a", "is_reserved": 0, "rental_uris": {"android": "https://dc.lft.to/lastmile_qr_scan", "ios": "https://dc.lft.to/lastmile_qr_scan"}, "fusion_lon": 0.0}, {"lat": 38.900003833333336, "is_disabled": 0, "type": "electric_scooter", "lon": -76.99856733333333, "bike_id": "f8cd5ebd394a0a5c3fd9b805930867d8", "fusion_lat": 0.0, "name": "f8cd5ebd394a0a5c3fd9b805930867d8", "is_reserved": 0, "rental_uris": {"android": "https://dc.lft.to/lastmile_qr_scan", "ios": "https://dc.lft.to/lastmile_qr_scan"}, "fusion_lon": 0.0}, {"lat": 38.90384133333333, "is_disabled": 0, "type": "electric_scooter", "lon": -77.045124, "bike_id": "d5cec9a4470666eb49125ea5e2e1fd8a", "fusion_lat": 0.0, "name": "d5cec9a4470666eb49125ea5e2e1fd8a", "is_reserved": 0, "rental_uris": {"android": "https://dc.lft.to/lastmile_qr_scan", "ios": "https://dc.lft.to/lastmile_qr_scan"}, "fusion_lon": 0.0}, {"lat": 38.928427, "is_disabled": 0, "type": "electric_scooter", "lon": -77.01583216666667, "bike_id": "3a0bbea25a16bba0d0cf6e39bd179c2d", "fusion_lat": 0.0, "name": "3a0bbea25a16bba0d0cf6e39bd179c2d", "is_reserved": 0, "rental_uris": {"android": "https://dc.lft.to/lastmile_qr_scan", "ios": "https://dc.lft.to/lastmile_qr_scan"}, "fusion_lon": 0.0}, {"lat": 38.956332, "is_disabled": 0, "type": "electric_bike", "lon": -76.9388405, "bike_id": "f851c02a3edaa99f5d1f9693dc7b8f70", "fusion_lat": 0.0, "name": "f851c02a3edaa99f5d1f9693dc7b8f70", "is_reserved": 0, "rental_uris": {"android": "https://dc.lft.to/lastmile_qr_scan", "ios": "https://dc.lft.to/lastmile_qr_scan"}, "fusion_lon": 0.0}, {"lat": 38.926591, "is_disabled": 0, "type": "electric_scooter", "lon": -76.9954585, "bike_id": "6ea6d11cc6319df843343733335fda05", "fusion_lat": 0.0, "name": "6ea6d11cc6319df843343733335fda05", "is_reserved": 0, "rental_uris": {"android": "https://dc.lft.to/lastmile_qr_scan", "ios": "https://dc.lft.to/lastmile_qr_scan"}, "fusion_lon": 0.0}, {"lat": 38.852061, "is_disabled": 0, "type": "electric_bike", "lon": -76.98554916666667, "bike_id": "313918b6bc1a715920e3cac2907ec7c6", "fusion_lat": 0.0, "name": "313918b6bc1a715920e3cac2907ec7c6", "is_reserved": 0, "rental_uris": {"android": "https://dc.lft.to/lastmile_qr_scan", "ios": "https://dc.lft.to/lastmile_qr_scan"}, "fusion_lon": 0.0}, {"lat": 38.932572, "is_disabled": 0, "type": "electric_scooter", "lon": -77.03288766666667, "bike_id": "149a1985d06c134863d375d1358cbfd1", "fusion_lat": 0.0, "name": "149a1985d06c134863d375d1358cbfd1", "is_reserved": 0, "rental_uris": {"android": "https://dc.lft.to/lastmile_qr_scan", "ios": "https://dc.lft.to/lastmile_qr_scan"}, "fusion_lon": 0.0}, {"lat": 38.935233333333336, "is_disabled": 0, "type": "electric_scooter", "lon": -77.03265066666667, "bike_id": "6316cfe7ab1197d82b668610d162ab64", "fusion_lat": 0.0, "name": "6316cfe7ab1197d82b668610d162ab64", "is_reserved": 0, "rental_uris": {"android": "https://dc.lft.to/lastmile_qr_scan", "ios": "https://dc.lft.to/lastmile_qr_scan"}, "fusion_lon": 0.0}, {"lat": 38.90415616666667, "is_disabled": 0, "type": "electric_scooter", "lon": -77.02583383333334, "bike_id": "3bbba1df8344448917aba6c01622632c", "fusion_lat": 0.0, "name": "3bbba1df8344448917aba6c01622632c", "is_reserved": 0, "rental_uris": {"android": "https://dc.lft.to/lastmile_qr_scan", "ios": "https://dc.lft.to/lastmile_qr_scan"}, "fusion_lon": 0.0}, {"lat": 38.918129666666665, "is_disabled": 0, "type": "electric_scooter", "lon": -77.04518533333334, "bike_id": "33a5d9e374cb80c76d23e7fc2fa3285a", "fusion_lat": 0.0, "name": "33a5d9e374cb80c76d23e7fc2fa3285a", "is_reserved": 0, "rental_uris": {"android": "https://dc.lft.to/lastmile_qr_scan", "ios": "https://dc.lft.to/lastmile_qr_scan"}, "fusion_lon": 0.0}, {"lat": 38.91116516666666, "is_disabled": 0, "type": "electric_scooter", "lon": -77.0435435, "bike_id": "3bfc8cd7647ae5422ead1d391113f286", "fusion_lat": 0.0, "name": "3bfc8cd7647ae5422ead1d391113f286", "is_reserved": 0, "rental_uris": {"android": "https://dc.lft.to/lastmile_qr_scan", "ios": "https://dc.lft.to/lastmile_qr_scan"}, "fusion_lon": 0.0}, {"lat": 38.886760333333335, "is_disabled": 0, "type": "electric_scooter", "lon": -76.9856075, "bike_id": "ffce34816bd4ce6c7dafae1176194926", "fusion_lat": 0.0, "name": "ffce34816bd4ce6c7dafae1176194926", "is_reserved": 0, "rental_uris": {"android": "https://dc.lft.to/lastmile_qr_scan", "ios": "https://dc.lft.to/lastmile_qr_scan"}, "fusion_lon": 0.0}, {"lat": 38.92570516666667, "is_disabled": 0, "type": "electric_scooter", "lon": -77.057681, "bike_id": "aa43a03926284afaae0ec8b2e4ce9504", "fusion_lat": 0.0, "name": "aa43a03926284afaae0ec8b2e4ce9504", "is_reserved": 0, "rental_uris": {"android": "https://dc.lft.to/lastmile_qr_scan", "ios": "https://dc.lft.to/lastmile_qr_scan"}, "fusion_lon": 0.0}, {"lat": 38.911177333333335, "is_disabled": 0, "type": "electric_scooter", "lon": -77.04324716666666, "bike_id": "eba2211e715baed5a2941d791fbd5108", "fusion_lat": 0.0, "name": "eba2211e715baed5a2941d791fbd5108", "is_reserved": 0, "rental_uris": {"android": "https://dc.lft.to/lastmile_qr_scan", "ios": "https://dc.lft.to/lastmile_qr_scan"}, "fusion_lon": 0.0}, {"lat": 38.87661816666667, "is_disabled": 0, "type": "electric_scooter", "lon": -77.004112, "bike_id": "6146303b2423a7e71768f87790a4e5d7", "fusion_lat": 0.0, "name": "6146303b2423a7e71768f87790a4e5d7", "is_reserved": 0, "rental_uris": {"android": "https://dc.lft.to/lastmile_qr_scan", "ios": "https://dc.lft.to/lastmile_qr_scan"}, "fusion_lon": 0.0}, {"lat": 38.9228965, "is_disabled": 0, "type": "electric_scooter", "lon": -77.042618, "bike_id": "f6ea08b8ac3b931464da47a13beefdb2", "fusion_lat": 0.0, "name": "f6ea08b8ac3b931464da47a13beefdb2", "is_reserved": 0, "rental_uris": {"android": "https://dc.lft.to/lastmile_qr_scan", "ios": "https://dc.lft.to/lastmile_qr_scan"}, "fusion_lon": 0.0}, {"lat": 38.8961405, "is_disabled": 0, "type": "electric_scooter", "lon": -77.02388083333334, "bike_id": "6036ffaf5cdba098c29035a3adae297f", "fusion_lat": 0.0, "name": "6036ffaf5cdba098c29035a3adae297f", "is_reserved": 0, "rental_uris": {"android": "https://dc.lft.to/lastmile_qr_scan", "ios": "https://dc.lft.to/lastmile_qr_scan"}, "fusion_lon": 0.0}, {"lat": 38.90024566666666, "is_disabled": 0, "type": "electric_scooter", "lon": -76.99835866666666, "bike_id": "bd45d86174ca124cf1d21d271cf92850", "fusion_lat": 0.0, "name": "bd45d86174ca124cf1d21d271cf92850", "is_reserved": 0, "rental_uris": {"android": "https://dc.lft.to/lastmile_qr_scan", "ios": "https://dc.lft.to/lastmile_qr_scan"}, "fusion_lon": 0.0}, {"lat": 38.87629866666666, "is_disabled": 0, "type": "electric_scooter", "lon": -76.965299, "bike_id": "bad526c2b7c862f72e8e4336d5ca6417", "fusion_lat": 0.0, "name": "bad526c2b7c862f72e8e4336d5ca6417", "is_reserved": 0, "rental_uris": {"android": "https://dc.lft.to/lastmile_qr_scan", "ios": "https://dc.lft.to/lastmile_qr_scan"}, "fusion_lon": 0.0}, {"lat": 38.91145866666667, "is_disabled": 0, "type": "electric_scooter", "lon": -77.018871, "bike_id": "d72ba1dfeec80b08450e8fbb7e818fc3", "fusion_lat": 0.0, "name": "d72ba1dfeec80b08450e8fbb7e818fc3", "is_reserved": 0, "rental_uris": {"android": "https://dc.lft.to/lastmile_qr_scan", "ios": "https://dc.lft.to/lastmile_qr_scan"}, "fusion_lon": 0.0}, {"lat": 38.876328, "is_disabled": 0, "type": "electric_scooter", "lon": -76.965325, "bike_id": "9fbd837d549b3bdcefda6e1123dba8e6", "fusion_lat": 0.0, "name": "9fbd837d549b3bdcefda6e1123dba8e6", "is_reserved": 0, "rental_uris": {"android": "https://dc.lft.to/lastmile_qr_scan", "ios": "https://dc.lft.to/lastmile_qr_scan"}, "fusion_lon": 0.0}, {"lat": 38.94990116666666, "is_disabled": 0, "type": "electric_bike", "lon": -77.029655, "bike_id": "3fa00328c521a73fd246800792f98b68", "fusion_lat": 0.0, "name": "3fa00328c521a73fd246800792f98b68", "is_reserved": 0, "rental_uris": {"android": "https://dc.lft.to/lastmile_qr_scan", "ios": "https://dc.lft.to/lastmile_qr_scan"}, "fusion_lon": 0.0}, {"lat": 38.915944833333334, "is_disabled": 0, "type": "electric_scooter", "lon": -77.04496466666667, "bike_id": "fb4ccb7bb55d944663f4f0d83ada90dc", "fusion_lat": 0.0, "name": "fb4ccb7bb55d944663f4f0d83ada90dc", "is_reserved": 0, "rental_uris": {"android": "https://dc.lft.to/lastmile_qr_scan", "ios": "https://dc.lft.to/lastmile_qr_scan"}, "fusion_lon": 0.0}, {"lat": 38.91088533333333, "is_disabled": 0, "type": "electric_scooter", "lon": -77.02193866666667, "bike_id": "e40acb4d6aaa171df81e1674230c1d73", "fusion_lat": 0.0, "name": "e40acb4d6aaa171df81e1674230c1d73", "is_reserved": 0, "rental_uris": {"android": "https://dc.lft.to/lastmile_qr_scan", "ios": "https://dc.lft.to/lastmile_qr_scan"}, "fusion_lon": 0.0}, {"lat": 38.905684666666666, "is_disabled": 0, "type": "electric_scooter", "lon": -77.02494966666667, "bike_id": "a19a149655c902ff9ca3546bd593e98d", "fusion_lat": 0.0, "name": "a19a149655c902ff9ca3546bd593e98d", "is_reserved": 0, "rental_uris": {"android": "https://dc.lft.to/lastmile_qr_scan", "ios": "https://dc.lft.to/lastmile_qr_scan"}, "fusion_lon": 0.0}, {"lat": 38.8983405, "is_disabled": 0, "type": "electric_scooter", "lon": -76.93103116666667, "bike_id": "ff9bd1ceebc19cf17475f4313e8d4087", "fusion_lat": 0.0, "name": "ff9bd1ceebc19cf17475f4313e8d4087", "is_reserved": 0, "rental_uris": {"android": "https://dc.lft.to/lastmile_qr_scan", "ios": "https://dc.lft.to/lastmile_qr_scan"}, "fusion_lon": 0.0}, {"lat": 38.89615666666667, "is_disabled": 0, "type": "electric_scooter", "lon": -77.0316615, "bike_id": "a77c6e6e73ae2ee4e9453b3eadcb252c", "fusion_lat": 0.0, "name": "a77c6e6e73ae2ee4e9453b3eadcb252c", "is_reserved": 0, "rental_uris": {"android": "https://dc.lft.to/lastmile_qr_scan", "ios": "https://dc.lft.to/lastmile_qr_scan"}, "fusion_lon": 0.0}, {"lat": 38.90675933333333, "is_disabled": 0, "type": "electric_scooter", "lon": -77.03759616666666, "bike_id": "664b581f5ac94faf3f3e68769eb04120", "fusion_lat": 0.0, "name": "664b581f5ac94faf3f3e68769eb04120", "is_reserved": 0, "rental_uris": {"android": "https://dc.lft.to/lastmile_qr_scan", "ios": "https://dc.lft.to/lastmile_qr_scan"}, "fusion_lon": 0.0}, {"lat": 38.96928316666666, "is_disabled": 0, "type": "electric_bike", "lon": -77.0262175, "bike_id": "23426ac4e1fad12aed3f27feff679c65", "fusion_lat": 0.0, "name": "23426ac4e1fad12aed3f27feff679c65", "is_reserved": 0, "rental_uris": {"android": "https://dc.lft.to/lastmile_qr_scan", "ios": "https://dc.lft.to/lastmile_qr_scan"}, "fusion_lon": 0.0},