{"data": {"bikes": [{"fusion_lat": 0.0, "bike_id": "093c5459fd2ca5667ac4c573c7ab1506", "fusion_lon": 0.0, "lon": -76.96357283333333, "lat": 38.9349655, "is_reserved": 0, "is_disabled": 0, "rental_uris": {"android": "https://dc.lft.to/lastmile_qr_scan", "ios": "https://dc.lft.to/lastmile_qr_scan"}, "name": "093c5459fd2ca5667ac4c573c7ab1506", "type": "electric_scooter"}, {"fusion_lat": 0.0, "bike_id": "2617fc2510d80f74c708bab66616ef08", "fusion_lon": 0.0, "lon": -77.03333566666667, "lat": 38.9287265, "is_reserved": 0, "is_disabled": 0, "rental_uris": {"android": "https://dc.lft.to/lastmile_qr_scan", "ios": "https://dc.lft.to/lastmile_qr_scan"}, "name": "2617fc2510d80f74c708bab66616ef08", "type": "electric_scooter"}, {"fusion_lat": 0.0, "bike_id": "3da4ffea3a7090f7b6587a7540763734", "fusion_lon": 0.0, "lon": -77.00914016666667, "lat": 38.827855166666666, "is_reserved": 0, "is_disabled": 0, "rental_uris": {"android": "https://dc.lft.to/lastmile_qr_scan", "ios": "https://dc.lft.to/lastmile_qr_scan"}, "name": "3da4ffea3a7090f7b6587a7540763734", "type": "electric_bike"}, {"fusion_lat": 0.0, "bike_id": "89811fdc8ad19e5f16187079429fa9f5", "fusion_lon": 0.0, "lon": -77.03309583333333, "lat": 38.90038116666667, "is_reserved": 0, "is_disabled": 0, "rental_uris": {"android": "https://dc.lft.to/lastmile_qr_scan", "ios": "https://dc.lft.to/lastmile_qr_scan"}, "name": "89811fdc8ad19e5f16187079429fa9f5", "type": "electric_scooter"}, {"fusion_lat": 0.0, "bike_id": "ea700697de386d5a39e16390a545835f", "fusion_lon": 0.0, "lon": -77.0436025, "lat": 38.908064333333336, "is_reserved": 0, "is_disabled": 0, "rental_uris": {"android": "https://dc.lft.to/lastmile_qr_scan", "ios": "https://dc.lft.to/lastmile_qr_scan"}, "name": "ea700697de386d5a39e16390a545835f", "type": "electric_scooter"}, {"fusion_lat": 0.0, "bike_id": "973e94123bce4d133e2f0da688820ae8", "fusion_lon": 0.0, "lon": -77.02114733333333, "lat": 38.9369885, "is_reserved": 0, "is_disabled": 0, "rental_uris": {"android": "https://dc.lft.to/lastmile_qr_scan", "ios": "https://dc.lft.to/lastmile_qr_scan"}, "name": "973e94123bce4d133e2f0da688820ae8", "type": "electric_scooter"}, {"fusion_lat": 0.0, "bike_id": "c5c0382fa76ca7d95333889ac8a602d9", "fusion_lon": 0.0, "lon": -77.00729383333334, "lat": 38.9037745, "is_reserved": 0, "is_disabled": 0, "rental_uris": {"android": "https://dc.lft.to/lastmile_qr_scan", "ios": "https://dc.lft.to/lastmile_qr_scan"}, "name": "c5c0382fa76ca7d95333889ac8a602d9", "type": "electric_scooter"}, {"fusion_lat": 0.0, "bike_id": "babf5967e53698cfe48413050f27c9a7", "fusion_lon": 0.0, "lon": -77.03849516666666, "lat": 38.9165245, "is_reserved": 0, "is_disabled": 0, "rental_uris": {"android": "https://dc.lft.to/lastmile_qr_scan", "ios": "https://dc.lft.to/lastmile_qr_scan"}, "name": "babf5967e53698cfe48413050f27c9a7", "type": "electric_scooter"}, {"fusion_lat": 0.0, "bike_id": "df4cfcab3854f32f396c262a54a92123", "fusion_lon": 0.0, "lon": -77.04369766666667, "lat": 38.8923155, "is_reserved": 0, "is_disabled": 0, "rental_uris": {"android": "https://dc.lft.to/lastmile_qr_scan", "ios": "https://dc.lft.to/lastmile_qr_scan"}, "name": "df4cfcab3854f32f396c262a54a92123", "type": "electric_scooter"}, {"fusion_lat": 0.0, "bike_id": "370db3a84325afcd3dc6c1f88d6f7742", "fusion_lon": 0.0, "lon": -77.0452285, "lat": 38.90228783333333, "is_reserved": 0, "is_disabled": 0, "rental_uris": {"android": "https://dc.lft.to/lastmile_qr_scan", "ios": "https://dc.lft.to/lastmile_qr_scan"}, "name": "370db3a84325afcd3dc6c1f88d6f7742", "type": "electric_scooter"}, {"fusion_lat": 0.0, "bike_id": "f2962ca8c028a5b71e6a1363c365d3df", "fusion_lon": 0.0, "lon": -77.03022266666666, "lat": 38.89963766666666, "is_reserved": 0, "is_disabled": 0, "rental_uris": {"android": "https://dc.lft.to/lastmile_qr_scan", "ios": "https://dc.lft.to/lastmile_qr_scan"}, "name": "f2962ca8c028a5b71e6a1363c365d3df", "type": "electric_scooter"}, {"fusion_lat": 0.0, "bike_id": "9f2586121e7039e38f291c027cb725b9", "fusion_lon": 0.0, "lon": -77.03709483333333, "lat": 38.92791883333334, "is_reserved": 0, "is_disabled": 0, "rental_uris": {"android": "https://dc.lft.to/lastmile_qr_scan", "ios": "https://dc.lft.to/lastmile_qr_scan"}, "name": "9f2586121e7039e38f291c027cb725b9", "type": "electric_scooter"}, {"fusion_lat": 0.0, "bike_id": "8d2a8ea985134e703dbbecb78641ad7b", "fusion_lon": 0.0, "lon": -76.95893716666667, "lat": 38.89004683333334, "is_reserved": 0, "is_disabled": 0, "rental_uris": {"android": "https://dc.lft.to/lastmile_qr_scan", "ios": "https://dc.lft.to/lastmile_qr_scan"}, "name": "8d2a8ea985134e703dbbecb78641ad7b", "type": "electric_scooter"}, {"fusion_lat": 0.0, "bike_id": "af0b200c0b77235e5a38b0d733e7e9cf", "fusion_lon": 0.0, "lon": -77.04388783333333, "lat": 39.0471605, "is_reserved": 0, "is_disabled": 0, "rental_uris": {"android": "https://dc.lft.to/lastmile_qr_scan", "ios": "https://dc.lft.to/lastmile_qr_scan"}, "name": "af0b200c0b77235e5a38b0d733e7e9cf", "type": "electric_bike"}, {"fusion_lat": 0.0, "bike_id": "b9c0202f4fec40e379e2fe92e0ed50f3", "fusion_lon": 0.0, "lon": -77.02510433333333, "lat": 38.934119833333334, "is_reserved": 0, "is_disabled": 0, "rental_uris": {"android": "https://dc.lft.to/lastmile_qr_scan", "ios": "https://dc.lft.to/lastmile_qr_scan"}, "name": "b9c0202f4fec40e379e2fe92e0ed50f3", "type": "electric_bike"}, {"fusion_lat": 0.0, "bike_id": "9a8b88f5230311ec0d398b963e4a40a1", "fusion_lon": 0.0, "lon": -77.05397833333333, "lat": 38.92789533333333, "is_reserved": 0, "is_disabled": 0, "rental_uris": {"android": "https://dc.lft.to/lastmile_qr_scan", "ios": "https://dc.lft.to/lastmile_qr_scan"}, "name": "9a8b88f5230311ec0d398b963e4a40a1", "type": "electric_scooter"}, {"fusion_lat": 0.0, "bike_id": "e4abb9df70a052af18cb054ff156a06f", "fusion_lon": 0.0, "lon": -77.02241466666666, "lat": 38.92599716666667, "is_reserved": 0, "is_disabled": 0, "rental_uris": {"android": "https://dc.lft.to/lastmile_qr_scan", "ios": "https://dc.lft.to/lastmile_qr_scan"}, "name": "e4abb9df70a052af18cb054ff156a06f", "type": "electric_scooter"}, {"fusion_lat": 0.0, "bike_id": "392c73dc019b9b553aaed91c6acfd70a", "fusion_lon": 0.0, "lon": -77.043244, "lat": 38.9094515, "is_reserved": 0, "is_disabled": 0, "rental_uris": {"android": "https://dc.lft.to/lastmile_qr_scan", "ios": "https://dc.lft.to/lastmile_qr_scan"}, "name": "392c73dc019b9b553aaed91c6acfd70a", "type": "electric_scooter"}, {"fusion_lat": 0.0, "bike_id": "3e314749a6935266b543f38d91d65198", "fusion_lon": 0.0, "lon": -76.98546866666666, "lat": 38.92012283333333, "is_reserved": 0, "is_disabled": 0, "rental_uris": {"android": "https://dc.lft.to/lastmile_qr_scan", "ios": "https://dc.lft.to/lastmile_qr_scan"}, "name": "3e314749a6935266b543f38d91d65198", "type": "electric_scooter"}, {"fusion_lat": 0.0, "bike_id": "99ffc85c2e7cf019267d612a341d6518", "fusion_lon": 0.0, "lon": -77.0229295, "lat": 38.92563883333333, "is_reserved": 0, "is_disabled": 0, "rental_uris": {"android": "https://dc.lft.to/lastmile_qr_scan", "ios": "https://dc.lft.to/lastmile_qr_scan"}, "name": "99ffc85c2e7cf019267d612a341d6518", "type": "electric_scooter"}, {"fusion_lat": 0.0, "bike_id": "3b678df896aa059321140dbc8520daf3", "fusion_lon": 0.0, "lon": -76.95575416666667, "lat": 38.88771166666667, "is_reserved": 0, "is_disabled": 0, "rental_uris": {"android": "https://dc.lft.to/lastmile_qr_scan", "ios": "https://dc.lft.to/lastmile_qr_scan"}, "name": "3b678df896aa059321140dbc8520daf3", "type": "electric_scooter"}, {"fusion_lat": 0.0, "bike_id": "18dcdfaf44e4133343ad84e23c67c44c", "fusion_lon": 0.0, "lon": -77.07347433333334, "lat": 38.91001583333333, "is_reserved": 0, "is_disabled": 0, "rental_uris": {"android": "https://dc.lft.to/lastmile_qr_scan", "ios": "https://dc.lft.to/lastmile_qr_scan"}, "name": "18dcdfaf44e4133343ad84e23c67c44c", "type": "electric_scooter"}, {"fusion_lat": 0.0, "bike_id": "342ecf141726df696a38c9a30b7ea782", "fusion_lon": 0.0, "lon": -77.039776, "lat": 38.90257416666667, "is_reserved": 0, "is_disabled": 0, "rental_uris": {"android": "https://dc.lft.to/lastmile_qr_scan", "ios": "https://dc.lft.to/lastmile_qr_scan"}, "name": "342ecf141726df696a38c9a30b7ea782", "type": "electric_scooter"}, {"fusion_lat": 0.0, "bike_id": "56964a01882c2e783f3d323551c3b62b", "fusion_lon": 0.0, "lon": -77.034417, "lat": 38.9214785, "is_reserved": 0, "is_disabled": 0, "rental_uris": {"android": "https://dc.lft.to/lastmile_qr_scan", "ios": "https://dc.lft.to/lastmile_qr_scan"}, "name": "56964a01882c2e783f3d323551c3b62b", "type": "electric_scooter"}, {"fusion_lat": 0.0, "bike_id": "3f00d05a66802561bea566655436e2da", "fusion_lon": 0.0, "lon": -77.02836716666667, "lat": 38.92576283333333, "is_reserved": 0, "is_disabled": 0, "rental_uris": {"android": "https://dc.lft.to/lastmile_qr_scan", "ios": "https://dc.lft.to/lastmile_qr_scan"}, "name": "3f00d05a66802561bea566655436e2da", "type": "electric_scooter"}, {"fusion_lat": 0.0, "bike_id": "714b03c0e63c58a40d0d5669c16c0f41", "fusion_lon": 0.0, "lon": -77.03288533333334, "lat": 38.904756166666665, "is_reserved": 0, "is_disabled": 0, "rental_uris": {"android": "https://dc.lft.to/lastmile_qr_scan", "ios": "https://dc.lft.to/lastmile_qr_scan"}, "name": "714b03c0e63c58a40d0d5669c16c0f41", "type": "electric_scooter"}, {"fusion_lat": 0.0, "bike_id": "d3193f3f98fe8363253c8c1af62e1de8", "fusion_lon": 0.0, "lon": -77.06933016666666, "lat": 38.95553133333333, "is_reserved": 0, "is_disabled": 0, "rental_uris": {"android": "https://dc.lft.to/lastmile_qr_scan", "ios": "https://dc.lft.to/lastmile_qr_scan"}, "name": "d3193f3f98fe8363253c8c1af62e1de8", "type": "electric_bike"}, {"fusion_lat": 0.0, "bike_id": "f5f061769c999537a9207f2b6f7b6dae", "fusion_lon": 0.0, "lon": -76.9523455, "lat": 38.891003833333336, "is_reserved": 0, "is_disabled": 0, "rental_uris": {"android": "https://dc.lft.to/lastmile_qr_scan", "ios": "https://dc.lft.to/lastmile_qr_scan"}, "name": "f5f061769c999537a9207f2b6f7b6dae", "type": "electric_scooter"}, {"fusion_lat": 0.0, "bike_id": "7a8454ecc2991885fda42748a573bbb4", "fusion_lon": 0.0, "lon": -77.0194315, "lat": 38.9241295, "is_reserved": 0, "is_disabled": 0, "rental_uris": {"android": "https://dc.lft.to/lastmile_qr_scan", "ios": "https://dc.lft.to/lastmile_qr_scan"}, "name": "7a8454ecc2991885fda42748a573bbb4", "type": "electric_scooter"}, {"fusion_lat": 0.0, "bike_id": "d421d2ee259e831bea481d21b927b518", "fusion_lon": 0.0, "lon": -77.04157833333333, "lat": 38.91489266666667, "is_reserved": 0, "is_disabled": 0, "rental_uris": {"android": "https://dc.lft.to/lastmile_qr_scan", "ios": "https://dc.lft.to/lastmile_qr_scan"}, "name": "d421d2ee259e831bea481d21b927b518", "type": "electric_scooter"}, {"fusion_lat": 0.0, "bike_id": "6dc922b2570558e606688bbc9c458ed2", "fusion_lon": 0.0, "lon": -76.9774245, "lat": 38.86505183333333, "is_reserved": 0, "is_disabled": 0, "rental_uris": {"android": "https://dc.lft.to/lastmile_qr_scan", "ios": "https://dc.lft.to/lastmile_qr_scan"}, "name": "6dc922b2570558e606688bbc9c458ed2", "type": "electric_bike"}, {"fusion_lat": 0.0, "bike_id": "13e4d70f2f2b701e989ec4aa338d88e5", "fusion_lon": 0.0, "lon": -77.08806933333334, "lat": 38.911759333333336, "is_reserved": 0, "is_disabled": 0, "rental_uris": {"android": "https://dc.lft.to/lastmile_qr_scan", "ios": "https://dc.lft.to/lastmile_qr_scan"}, "name": "13e4d70f2f2b701e989ec4aa338d88e5", "type": "electric_bike"}, {"fusion_lat": 0.0, "bike_id": "54f77283782dc594aa877512a1e6bc1b", "fusion_lon": 0.0, "lon": -76.9924435, "lat": 38.894848333333336, "is_reserved": 0, "is_disabled": 0, "rental_uris": {"android": "https://dc.lft.to/lastmile_qr_scan", "ios": "https://dc.lft.to/lastmile_qr_scan"}, "name": "54f77283782dc594aa877512a1e6bc1b", "type": "electric_scooter"}, {"fusion_lat": 0.0, "bike_id": "75ccf10d5148474feaff7e0e869ccd8b", "fusion_lon": 0.0, "lon": -77.03691233333333, "lat": 38.91820633333333, "is_reserved": 0, "is_disabled": 0, "rental_uris": {"android": "https://dc.lft.to/lastmile_qr_scan", "ios": "https://dc.lft.to/lastmile_qr_scan"}, "name": "75ccf10d5148474feaff7e0e869ccd8b", "type": "electric_scooter"}, {"fusion_lat": 0.0, "bike_id": "4332b125d170f1c5bb0c7c6cf47c70db", "fusion_lon": 0.0, "lon": -76.99784133333333, "lat": 38.844255833333335, "is_reserved": 0, "is_disabled": 0, "rental_uris": {"android": "https://dc.lft.to/lastmile_qr_scan", "ios": "https://dc.lft.to/lastmile_qr_scan"}, "name": "4332b125d170f1c5bb0c7c6cf47c70db", "type": "electric_scooter"}, {"fusion_lat": 0.0, "bike_id": "dc75d82adb6696a67f31351e4619c12b", "fusion_lon": 0.0, "lon": -77.01754883333334, "lat": 38.8800295, "is_reserved": 0, "is_disabled": 0, "rental_uris": {"android": "https://dc.lft.to/lastmile_qr_scan", "ios": "https://dc.lft.to/lastmile_qr_scan"}, "name": "dc75d82adb6696a67f31351e4619c12b", "type": "electric_scooter"}, {"fusion_lat": 0.0, "bike_id": "88fd0c5f547e55e2a8f9c69e08179dbd", "fusion_lon": 0.0, "lon": -77.03923216666666, "lat": 38.927981333333335, "is_reserved": 0, "is_disabled": 0, "rental_uris": {"android": "https://dc.lft.to/lastmile_qr_scan", "ios": "https://dc.lft.to/lastmile_qr_scan"}, "name": "88fd0c5f547e55e2a8f9c69e08179dbd", "type": "electric_scooter"}, {"fusion_lat": 0.0, "bike_id": "4228ad0e055930cea9f33d0ee7f110a5", "fusion_lon": 0.0, "lon": -76.99512183333333, "lat": 38.9337355, "is_reserved": 0, "is_disabled": 0, "rental_uris": {"android": "https://dc.lft.to/lastmile_qr_scan", "ios": "https://dc.lft.to/lastmile_qr_scan"}, "name": "4228ad0e055930cea9f33d0ee7f110a5", "type": "electric_scooter"}, {"fusion_lat": 0.0, "bike_id": "445f50f846c445f3d2b75895937686ed", "fusion_lon": 0.0, "lon": -76.97611516666667, "lat": 38.926533666666664, "is_reserved": 0, "is_disabled": 0, "rental_uris": {"android": "https://dc.lft.to/lastmile_qr_scan", "ios": "https://dc.lft.to/lastmile_qr_scan"}, "name": "445f50f846c445f3d2b75895937686ed", "type": "electric_scooter"}, {"fusion_lat": 0.0, "bike_id": "0ae0b26a480f8e2b853ac8a0bc9871d2", "fusion_lon": 0.0, "lon": -77.104893, "lat": 38.85603166666667, "is_reserved": 0, "is_disabled": 0, "rental_uris": {"android": "https://dc.lft.to/lastmile_qr_scan", "ios": "https://dc.lft.to/lastmile_qr_scan"}, "name": "0ae0b26a480f8e2b853ac8a0bc9871d2", "type": "electric_bike"}, {"fusion_lat": 0.0, "bike_id": "84abe16d3495efe930e1f28c4ead6240", "fusion_lon": 0.0, "lon": -77.02981933333334, "lat": 38.907621, "is_reserved": 0, "is_disabled": 0, "rental_uris": {"android": "https://dc.lft.to/lastmile_qr_scan", "ios": "https://dc.lft.to/lastmile_qr_scan"}, "name": "84abe16d3495efe930e1f28c4ead6240", "type": "electric_scooter"}, {"fusion_lat": 0.0, "bike_id": "ef11e2a149afa574b09ab2098e66a67a", "fusion_lon": 0.0, "lon": -77.06173733333334, "lat": 38.905097, "is_reserved": 0, "is_disabled": 0, "rental_uris": {"android": "https://dc.lft.to/lastmile_qr_scan", "ios": "https://dc.lft.to/lastmile_qr_scan"}, "name": "ef11e2a149afa574b09ab2098e66a67a", "type": "electric_scooter"}, {"fusion_lat": 0.0, "bike_id": "03a6f313ae9ba32b537bc5ad3bf14672", "fusion_lon": 0.0, "lon": -76.99501633333334, "lat": 38.89923916666667, "is_reserved": 0, "is_disabled": 0, "rental_uris": {"android": "https://dc.lft.to/lastmile_qr_scan", "ios": "https://dc.lft.to/lastmile_qr_scan"}, "name": "03a6f313ae9ba32b537bc5ad3bf14672", "type": "electric_scooter"}, {"fusion_lat": 0.0, "bike_id": "542072795f8f6cebe1e63b98991f6ad9", "fusion_lon": 0.0, "lon": -76.933013, "lat": 38.89196866666666, "is_reserved": 0, "is_disabled": 0, "rental_uris": {"android": "https://dc.lft.to/lastmile_qr_scan", "ios": "https://dc.lft.to/lastmile_qr_scan"}, "name": "542072795f8f6cebe1e63b98991f6ad9", "type": "electric_scooter"}, {"fusion_lat": 0.0, "bike_id": "50f786374516330b9f43a93ad921eb85", "fusion_lon": 0.0, "lon": -77.01547233333334, "lat": 38.891706, "is_reserved": 0, "is_disabled": 0, "rental_uris": {"android": "https://dc.lft.to/lastmile_qr_scan", "ios": "https://dc.lft.to/lastmile_qr_scan"}, "name": "50f786374516330b9f43a93ad921eb85", "type": "electric_scooter"}, {"fusion_lat": 0.0, "bike_id": "fc285c6f7be227e60ef1198ee64630a2", "fusion_lon": 0.0, "lon": -77.03223683333333, "lat": 38.90869, "is_reserved": 0, "is_disabled": 0, "rental_uris": {"android": "https://dc.lft.to/lastmile_qr_scan", "ios": "https://dc.lft.to/lastmile_qr_scan"}, "name": "fc285c6f7be227e60ef1198ee64630a2", "type": "electric_scooter"}, {"fusion_lat": 0.0, "bike_id": "04ac49d38ddd719f591b3d0ee9dd05fa", "fusion_lon": 0.0, "lon": -77.01484433333333, "lat": 38.89213616666667, "is_reserved": 0, "is_disabled": 0, "rental_uris": {"android": "https://dc.lft.to/lastmile_qr_scan", "ios": "https://dc.lft.to/lastmile_qr_scan"}, "name": "04ac49d38ddd719f591b3d0ee9dd05fa", "type": "electric_scooter"}, {"fusion_lat": 0.0, "bike_id": "55832cef213867ad0429428712078d5d", "fusion_lon": 0.0, "lon": -76.98113516666666, "lat": 38.863301166666666, "is_reserved": 0, "is_disabled": 0, "rental_uris": {"android": "https://dc.lft.to/lastmile_qr_scan", "ios": "https://dc.lft.to/lastmile_qr_scan"}, "name": "55832cef213867ad0429428712078d5d", "type": "electric_scooter"}, {"fusion_lat": 0.0, "bike_id": "b340a06eeeaf173fea60d8e7900e180c", "fusion_lon": 0.0, "lon": -77.04122083333333, "lat": 38.917024166666664, "is_reserved": 0, "is_disabled": 0, "rental_uris": {"android": "https://dc.lft.to/lastmile_qr_scan", "ios": "https://dc.lft.to/lastmile_qr_scan"}, "name": "b340a06eeeaf173fea60d8e7900e180c", "type": "electric_scooter"}, {"fusion_lat": 0.0, "bike_id": "f4518ddf7c0067b0d892301783cb042f", "fusion_lon": 0.0, "lon": -77.03423516666666, "lat": 38.91919216666667, "is_reserved": 0, "is_disabled": 0, "rental_uris": {"android": "https://dc.lft.to/lastmile_qr_scan", "ios": "https://dc.lft.to/lastmile_qr_scan"}, "name": "f4518ddf7c0067b0d892301783cb042f", "type": "electric_scooter"}, {"fusion_lat": 0.0, "bike_id": "e33e458c2afb9f9d715a2536a077f199", "fusion_lon": 0.0, "lon": -76.93754566666667, "lat": 38.89034983333333, "is_reserved": 0, "is_disabled": 0, "rental_uris": {"android": "https://dc.lft.to/lastmile_qr_scan", "ios": "https://dc.lft.to/lastmile_qr_scan"}, "name": "e33e458c2afb9f9d715a2536a077f199", "type": "electric_scooter"}, {"fusion_lat": 0.0, "bike_id": "3c7b334785f3b3622caca27c99845d28", "fusion_lon": 0.0, "lon": -77.04646916666667, "lat": 38.91577766666666, "is_reserved": 0, "is_disabled": 0, "rental_uris": {"android": "https://dc.lft.to/lastmile_qr_scan", "ios": "https://dc.lft.to/lastmile_qr_scan"}, "name": "3c7b334785f3b3622caca27c99845d28", "type": "electric_scooter"}, {"fusion_lat": 0.0, "bike_id": "c4cfecca3e8adc16c5162414c2326e9c", "fusion_lon": 0.0, "lon": -77.0569555, "lat": 38.9371095, "is_reserved": 0, "is_disabled": 0, "rental_uris": {"android": "https://dc.lft.to/lastmile_qr_scan", "ios": "https://dc.lft.to/lastmile_qr_scan"}, "name": "c4cfecca3e8adc16c5162414c2326e9c", "type": "electric_scooter"}, {"fusion_lat": 0.0, "bike_id": "86e2ec161a1bac6ce5c035cf0276b4c1", "fusion_lon": 0.0, "lon": -77.0515665, "lat": 39.043008666666665, "is_reserved": 0, "is_disabled": 0, "rental_uris": {"android": "https://dc.lft.to/lastmile_qr_scan", "ios": "https://dc.lft.to/lastmile_qr_scan"}, "name": "86e2ec161a1bac6ce5c035cf0276b4c1", "type": "electric_bike"}, {"fusion_lat": 0.0, "bike_id": "1ba5cf71f2c48772acc8502fddac93ad", "fusion_lon": 0.0, "lon": -77.01911583333333, "lat": 38.923694166666664, "is_reserved": 0, "is_disabled": 0, "rental_uris": {"android": "https://dc.lft.to/lastmile_qr_scan", "ios": "https://dc.lft.to/lastmile_qr_scan"}, "name": "1ba5cf71f2c48772acc8502fddac93ad", "type": "electric_scooter"}, {"fusion_lat": 0.0, "bike_id": "f22b21370d3f0e814c5f1c692967193f", "fusion_lon": 0.0, "lon": -77.03211983333334, "lat": 38.911729666666666, "is_reserved": 0, "is_disabled": 0, "rental_uris": {"android": "https://dc.lft.to/lastmile_qr_scan", "ios": "https://dc.lft.to/lastmile_qr_scan"}, "name": "f22b21370d3f0e814c5f1c692967193f", "type": "electric_scooter"}, {"fusion_lat": 0.0, "bike_id": "1ac0292d342efd1b46badebbcaaaf5c5", "fusion_lon": 0.0, "lon": -77.0218735, "lat": 38.909500333333334, "is_reserved": 0, "is_disabled": 0, "rental_uris": {"android": "https://dc.lft.to/lastmile_qr_scan", "ios": "https://dc.lft.to/lastmile_qr_scan"}, "name": "1ac0292d342efd1b46badebbcaaaf5c5", "type": "electric_scooter"}, {"fusion_lat": 0.0, "bike_id": "db0d3023b315016e52dd3bfee7e1ef30", "fusion_lon": 0.0, "lon": -77.04039466666667, "lat": 38.918638666666666, "is_reserved": 0, "is_disabled": 0, "rental_uris": {"android": "https://dc.lft.to/lastmile_qr_scan", "ios": "https://dc.lft.to/lastmile_qr_scan"}, "name": "db0d3023b315016e52dd3bfee7e1ef30", "type": "electric_scooter"}, {"fusion_lat": 0.0, "bike_id": "f5413efa2eb9e983dbc92fc9771c0fa1", "fusion_lon": 0.0, "lon": -77.04653966666666, "lat": 38.91035683333333, "is_reserved": 0, "is_disabled": 0, "rental_uris": {"android": "https://dc.lft.to/lastmile_qr_scan", "ios": "https://dc.lft.to/lastmile_qr_scan"}, "name": "f5413efa2eb9e983dbc92fc9771c0fa1", "type": "electric_scooter"}, {"fusion_lat": 0.0, "bike_id": "9763eeb3b9156b84813d08d5438fdc18", "fusion_lon": 0.0, "lon": -77.04679116666667, "lat": 38.900792833333334, "is_reserved": 0, "is_disabled": 0, "rental_uris": {"android": "https://dc.lft.to/lastmile_qr_scan", "ios": "https://dc.lft.to/lastmile_qr_scan"}, "name": "9763eeb3b9156b84813d08d5438fdc18", "type": "electric_scooter"}, {"fusion_lat": 0.0, "bike_id": "5289a2c6e560a0fbfa759fed290aeec5", "fusion_lon": 0.0, "lon": -76.99104733333333, "lat": 38.903180666666664, "is_reserved": 0, "is_disabled": 0, "rental_uris": {"android": "https://dc.lft.to/lastmile_qr_scan", "ios": "https://dc.lft.to/lastmile_qr_scan"}, "name": "5289a2c6e560a0fbfa759fed290aeec5", "type": "electric_scooter"}, {"fusion_lat": 0.0, "bike_id": "70b2369857582be050b21959a36bc1f4", "fusion_lon": 0.0, "lon": -77.02208883333333, "lat": 38.91275566666667, "is_reserved": 0, "is_disabled": 0, "rental_uris": {"android": "https://dc.lft.to/lastmile_qr_scan", "ios": "https://dc.lft.to/lastmile_qr_scan"}, "name": "70b2369857582be050b21959a36bc1f4", "type": "electric_scooter"}, {"fusion_lat": 0.0, "bike_id": "36cadc1d8d464a794777e55776cd9735", "fusion_lon": 0.0, "lon": -77.01854583333333, "lat": 38.874550166666666, "is_reserved": 0, "is_disabled": 0, "rental_uris": {"android": "https://dc.lft.to/lastmile_qr_scan", "ios": "https://dc.lft.to/lastmile_qr_scan"}, "name": "36cadc1d8d464a794777e55776cd9735", "type": "electric_scooter"}, {"fusion_lat": 0.0, "bike_id": "8c1bc5c5bfc37c3413bc22c551bcce63", "fusion_lon": 0.0, "lon": -77.02317533333333, "lat": 38.92788983333333, "is_reserved": 0, "is_disabled": 0, "rental_uris": {"android": "https://dc.lft.to/lastmile_qr_scan", "ios": "https://dc.lft.to/lastmile_qr_scan"}, "name": "8c1bc5c5bfc37c3413bc22c551bcce63", "type": "electric_scooter"}, {"fusion_lat": 0.0, "bike_id": "ac3b24c8d02ce08818754c22b0e81f48", "fusion_lon": 0.0, "lon": -77.0044685, "lat": 38.8764935, "is_reserved": 0, "is_disabled": 0, "rental_uris": {"android": "https://dc.lft.to/lastmile_qr_scan", "ios": "https://dc.lft.to/lastmile_qr_scan"}, "name": "ac3b24c8d02ce08818754c22b0e81f48", "type": "electric_scooter"}, {"fusion_lat": 0.0, "bike_id": "2c6974bf4503b356fc33ed7b6393f46c", "fusion_lon": 0.0, "lon": -77.06336266666666, "lat": 38.9439905, "is_reserved": 0, "is_disabled": 0, "rental_uris": {"android": "https://dc.lft.to/lastmile_qr_scan", "ios": "https://dc.lft.to/lastmile_qr_scan"}, "name": "2c6974bf4503b356fc33ed7b6393f46c", "type": "electric_scooter"}, {"fusion_lat": 0.0, "bike_id": "ab5f693225e1b2c99830715368e4f558", "fusion_lon": 0.0, "lon": -77.02683583333334, "lat": 38.943243833333334, "is_reserved": 0, "is_disabled": 0, "rental_uris": {"android": "https://dc.lft.to/lastmile_qr_scan", "ios": "https://dc.lft.to/lastmile_qr_scan"}, "name": "ab5f693225e1b2c99830715368e4f558", "type": "electric_scooter"}, {"fusion_lat": 0.0, "bike_id": "18654264bd0e9b7bd83f26afa6602e0d", "fusion_lon": 0.0, "lon": -76.93375866666666, "lat": 38.910275166666665, "is_reserved": 0, "is_disabled": 0, "rental_uris": {"android": "https://dc.lft.to/lastmile_qr_scan", "ios": "https://dc.lft.to/lastmile_qr_scan"}, "name": "18654264bd0e9b7bd83f26afa6602e0d", "type": "electric_scooter"}, {"fusion_lat": 0.0, "bike_id": "bcf57d4045666ca639ab13e64152c315", "fusion_lon": 0.0, "lon": -77.03308933333334, "lat": 38.909816, "is_reserved": 0, "is_disabled": 0, "rental_uris": {"android": "https://dc.lft.to/lastmile_qr_scan", "ios": "https://dc.lft.to/lastmile_qr_scan"}, "name": "bcf57d4045666ca639ab13e64152c315", "type": "electric_scooter"}, {"fusion_lat": 0.0, "bike_id": "0567d7a94a27e905f5bce69dda590b5f", "fusion_lon": 0.0, "lon": -77.0281, "lat": 38.9235975, "is_reserved": 0, "is_disabled": 0, "rental_uris": {"android": "https://dc.lft.to/lastmile_qr_scan", "ios": "https://dc.lft.to/lastmile_qr_scan"}, "name": "0567d7a94a27e905f5bce69dda590b5f", "type": "electric_scooter"}, {"fusion_lat": 0.0, "bike_id": "b69ffe089d287f551be9e7c4c83e1d6b", "fusion_lon": 0.0, "lon": -77.03443133333333, "lat": 38.9180255, "is_reserved": 0, "is_disabled": 0, "rental_uris": {"android": "https://dc.lft.to/lastmile_qr_scan", "ios": "https://dc.lft.to/lastmile_qr_scan"}, "name": "b69ffe089d287f551be9e7c4c83e1d6b", "type": "electric_scooter"}, {"fusion_lat": 0.0, "bike_id": "e85f7fb589ed7460ce2b44cd01487a63", "fusion_lon": 0.0, "lon": -76.98501383333334, "lat": 38.866702833333335, "is_reserved": 0, "is_disabled": 0, "rental_uris": {"android": "https://dc.lft.to/lastmile_qr_scan", "ios": "https://dc.lft.to/lastmile_qr_scan"}, "name": "e85f7fb589ed7460ce2b44cd01487a63", "type": "electric_scooter"}, {"fusion_lat": 0.0, "bike_id": "136da00439c18f3164f7a49361ec73a7", "fusion_lon": 0.0, "lon": -77.00212883333333, "lat": 38.90025983333334, "is_reserved": 0, "is_disabled": 0, "rental_uris": {"android": "https://dc.lft.to/lastmile_qr_scan", "ios": "https://dc.lft.to/lastmile_qr_scan"}, "name": "136da00439c18f3164f7a49361ec73a7", "type": "electric_scooter"}, {"fusion_lat": 0.0, "bike_id": "71ebe8e610c5004c2ef3e669119c19a5", "fusion_lon": 0.0, "lon": -76.9608675, "lat": 38.918559, "is_reserved": 0, "is_disabled": 0, "rental_uris": {"android": "https://dc.lft.to/lastmile_qr_scan", "ios": "https://dc.lft.to/lastmile_qr_scan"}, "name": "71ebe8e610c5004c2ef3e669119c19a5", "type": "electric_bike"}, {"fusion_lat": 0.0, "bike_id": "6923cd9b25a7af37bbda2319d8b7954e", "fusion_lon": 0.0, "lon": -77.004842, "lat": 38.92817483333333, "is_reserved": 0, "is_disabled": 0, "rental_uris": {"android": "https://dc.lft.to/lastmile_qr_scan", "ios": "https://dc.lft.to/lastmile_qr_scan"}, "name": "6923cd9b25a7af37bbda2319d8b7954e", "type": "electric_bike"}, {"fusion_lat": 0.0, "bike_id": "2cc08bc5c58ab4bb339be688d3c2791b", "fusion_lon": 0.0, "lon": -77.03604133333333, "lat": 38.9368465, "is_reserved": 0, "is_disabled": 0, "rental_uris": {"android": "https://dc.lft.to/lastmile_qr_scan", "ios": "https://dc.lft.to/lastmile_qr_scan"}, "name": "2cc08bc5c58ab4bb339be688d3c2791b", "type": "electric_scooter"}, {"fusion_lat": 0.0, "bike_id": "f7c52b3a56107f5be3c1dd1e94961ce2", "fusion_lon": 0.0, "lon": -77.03451283333334, "lat": 38.90942483333333, "is_reserved": 0, "is_disabled": 0, "rental_uris": {"android": "https://dc.lft.to/lastmile_qr_scan", "ios": "https://dc.lft.to/lastmile_qr_scan"}, "name": "f7c52b3a56107f5be3c1dd1e94961ce2", "type": "electric_scooter"}, {"fusion_lat": 0.0, "bike_id": "5cd75bc342aa2bcd46d91e43ad3e8c82", "fusion_lon": 0.0, "lon": -77.0384625, "lat": 38.91548366666667, "is_reserved": 0, "is_disabled": 0, "rental_uris": {"android": "https://dc.lft.to/lastmile_qr_scan", "ios": "https://dc.lft.to/lastmile_qr_scan"}, "name": "5cd75bc342aa2bcd46d91e43ad3e8c82", "type": "electric_scooter"}, {"fusion_lat": 0.0, "bike_id": "4d0b1dea9bb559322e9de64080953b87", "fusion_lon": 0.0, "lon": -77.0238455, "lat": 38.89231433333333, "is_reserved": 0, "is_disabled": 0, "rental_uris": {"android": "https://dc.lft.to/lastmile_qr_scan", "ios": "https://dc.lft.to/lastmile_qr_scan"}, "name": "4d0b1dea9bb559322e9de64080953b87", "type": "electric_scooter"}, {"fusion_lat": 0.0, "bike_id": "20bbb959e6a652e1d5f5b4344fd339a8", "fusion_lon": 0.0, "lon": -77.00729666666666, "lat": 38.90371733333333, "is_reserved": 0, "is_disabled": 0, "rental_uris": {"android": "https://dc.lft.to/lastmile_qr_scan", "ios": "https://dc.lft.to/lastmile_qr_scan"}, "name": "20bbb959e6a652e1d5f5b4344fd339a8", "type": "electric_scooter"}, {"fusion_lat": 0.0, "bike_id": "17d6c17891719d8465233be004fdfc94", "fusion_lon": 0.0, "lon": -77.03379916666667, "lat": 38.9216065, "is_reserved": 0, "is_disabled": 0, "rental_uris": {"android": "https://dc.lft.to/lastmile_qr_scan", "ios": "https://dc.lft.to/lastmile_qr_scan"}, "name": "17d6c17891719d8465233be004fdfc94", "type": "electric_scooter"}, {"fusion_lat": 0.0, "bike_id": "536f6e5a8cab8b1107a994073d56809b", "fusion_lon": 0.0, "lon": -77.01764133333333, "lat": 38.88729883333333, "is_reserved": 0, "is_disabled": 0, "rental_uris": {"android": "https://dc.lft.to/lastmile_qr_scan", "ios": "https://dc.lft.to/lastmile_qr_scan"}, "name": "536f6e5a8cab8b1107a994073d56809b", "type": "electric_scooter"}, {"fusion_lat": 0.0, "bike_id": "f6c0959c81268652cdbefb2cf44313e7", "fusion_lon": 0.0, "lon": -77.07232633333334, "lat": 38.9681435, "is_reserved": 0, "is_disabled": 0, "rental_uris": {"android": "https://dc.lft.to/lastmile_qr_scan", "ios": "https://dc.lft.to/lastmile_qr_scan"}, "name": "f6c0959c81268652cdbefb2cf44313e7", "type": "electric_bike"}, {"fusion_lat": 0.0, "bike_id": "b1becf1f187364d9bf1776bca4a4cc81", "fusion_lon": 0.0, "lon": -77.01951816666667, "lat": 38.924182, "is_reserved": 0, "is_disabled": 0, "rental_uris": {"android": "https://dc.lft.to/lastmile_qr_scan", "ios": "https://dc.lft.to/lastmile_qr_scan"}, "name": "b1becf1f187364d9bf1776bca4a4cc81", "type": "electric_scooter"}, {"fusion_lat": 0.0, "bike_id": "1369f7a7d8acdc89406b9e05a10e55da", "fusion_lon": 0.0, "lon": -77.0391235, "lat": 38.92311816666667, "is_reserved": 0, "is_disabled": 0, "rental_uris": {"android": "https://dc.lft.to/lastmile_qr_scan", "ios": "https://dc.lft.to/lastmile_qr_scan"}, "name": "1369f7a7d8acdc89406b9e05a10e55da", "type": "electric_scooter"}, {"fusion_lat": 0.0, "bike_id": "852a7a61c0c52f8220702c0c234173e5", "fusion_lon": 0.0, "lon": -77.03173833333334, "lat": 38.8976835, "is_reserved": 0, "is_disabled": 0, "rental_uris": {"android": "https://dc.lft.to/lastmile_qr_scan", "ios": "https://dc.lft.to/lastmile_qr_scan"}, "name": "852a7a61c0c52f8220702c0c234173e5", "type": "electric_scooter"}, {"fusion_lat": 0.0, "bike_id": "231622eee249b3b3b92a785d42affbcb", "fusion_lon": 0.0, "lon": -77.0320755, "lat": 38.915759666666666, "is_reserved": 0, "is_disabled": 0, "rental_uris": {"android": "https://dc.lft.to/lastmile_qr_scan", "ios": "https://dc.lft.to/lastmile_qr_scan"}, "name": "231622eee249b3b3b92a785d42affbcb", "type": "electric_scooter"}, {"fusion_lat": 0.0, "bike_id": "a4ff391b178d0916fc76c6ffbcc86ead", "fusion_lon": 0.0, "lon": -77.031029, "lat": 38.892309833333336, "is_reserved": 0, "is_disabled": 0, "rental_uris": {"android": "https://dc.lft.to/lastmile_qr_scan", "ios": "https://dc.lft.to/lastmile_qr_scan"}, "name": "a4ff391b178d0916fc76c6ffbcc86ead", "type": "electric_scooter"}, {"fusion_lat": 0.0, "bike_id": "533fcc5bb090b7ab9c9d249bd7f7ef8c", "fusion_lon": 0.0, "lon": -76.98900366666666, "lat": 38.913426666666666, "is_reserved": 0, "is_disabled": 0, "rental_uris": {"android": "https://dc.lft.to/lastmile_qr_scan", "ios": "https://dc.lft.to/lastmile_qr_scan"}, "name": "533fcc5bb090b7ab9c9d249bd7f7ef8c", "type": "electric_scooter"}, {"fusion_lat": 0.0, "bike_id": "d00b227806c48ee49af902b910468cac", "fusion_lon": 0.0, "lon": -77.02168666666667, "lat": 38.9429615, "is_reserved": 0, "is_disabled": 0, "rental_uris": {"android": "https://dc.lft.to/lastmile_qr_scan", "ios": "https://dc.lft.to/lastmile_qr_scan"}, "name": "d00b227806c48ee49af902b910468cac", "type": "electric_scooter"}, {"fusion_lat": 0.0, "bike_id": "41bb5a733ade9c064bf4e23b39daf0b4", "fusion_lon": 0.0, "lon": -77.04169766666666, "lat": 38.91766283333333, "is_reserved": 0, "is_disabled": 0, "rental_uris": {"android": "https://dc.lft.to/lastmile_qr_scan", "ios": "https://dc.lft.to/lastmile_qr_scan"}, "name": "41bb5a733ade9c064bf4e23b39daf0b4", "type": "electric_scooter"}, {"fusion_lat": 0.0, "bike_id": "b09db8c037714c9a6bde0a823dd835d0", "fusion_lon": 0.0, "lon": -77.0409185, "lat": 38.91560366666667, "is_reserved": 0, "is_disabled": 0, "rental_uris": {"android": "https://dc.lft.to/lastmile_qr_scan", "ios": "https://dc.lft.to/lastmile_qr_scan"}, "name": "b09db8c037714c9a6bde0a823dd835d0", "type": "electric_scooter"}, {"fusion_lat": 0.0, "bike_id": "e8e8ff9403aeee5c3f24c28673913876", "fusion_lon": 0.0, "lon": -77.021821, "lat": 38.912752833333336, "is_reserved": 0, "is_disabled": 0, "rental_uris": {"android": "https://dc.lft.to/lastmile_qr_scan", "ios": "https://dc.lft.to/lastmile_qr_scan"}, "name": "e8e8ff9403aeee5c3f24c28673913876", "type": "electric_scooter"}, {"fusion_lat": 0.0, "bike_id": "b85c3d0d1abdc5ca680aa2374f6bb612", "fusion_lon": 0.0, "lon": -77.02361633333334, "lat": 38.9353375, "is_reserved": 0, "is_disabled": 0, "rental_uris": {"android": "https://dc.lft.to/lastmile_qr_scan", "ios": "https://dc.lft.to/lastmile_qr_scan"}, "name": "b85c3d0d1abdc5ca680aa2374f6bb612", "type": "electric_scooter"}, {"fusion_lat": 0.0, "bike_id": "1f248ef8bf609f950cd5f525d199e2e3", "fusion_lon": 0.0, "lon": -77.03190383333333, "lat": 38.9181855, "is_reserved": 0, "is_disabled": 0, "rental_uris": {"android": "https://dc.lft.to/lastmile_qr_scan", "ios": "https://dc.lft.to/lastmile_qr_scan"}, "name": "1f248ef8bf609f950cd5f525d199e2e3", "type": "electric_scooter"}, {"fusion_lat": 0.0, "bike_id": "b1f7656f260ec7a9494bd4a3ca53f05e", "fusion_lon": 0.0, "lon": -77.07712733333334, "lat": 38.925228, "is_reserved": 0, "is_disabled": 0, "rental_uris": {"android": "https://dc.lft.to/lastmile_qr_scan", "ios": "https://dc.lft.to/lastmile_qr_scan"}, "name": "b1f7656f260ec7a9494bd4a3ca53f05e", "type": "electric_scooter"}, {"fusion_lat": 0.0, "bike_id": "6649d0744a72d314462b7a8c546aa864", "fusion_lon": 0.0, "lon": -77.03409233333333, "lat": 38.917069166666664, "is_reserved": 0, "is_disabled": 0, "rental_uris": {"android": "https://dc.lft.to/lastmile_qr_scan", "ios": "https://dc.lft.to/lastmile_qr_scan"}, "name": "6649d0744a72d314462b7a8c546aa864", "type": "electric_scooter"}, {"fusion_lat": 0.0, "bike_id": "2820e397082c1811973def79b9b69c8b", "fusion_lon": 0.0, "lon": -77.026096, "lat": 38.97573416666667, "is_reserved": 0, "is_disabled": 0, "rental_uris": {"android": "https://dc.lft.to/lastmile_qr_scan", "ios": "https://dc.lft.to/lastmile_qr_scan"}, "name": "2820e397082c1811973def79b9b69c8b", "type": "electric_scooter"}, {"fusion_lat": 0.0, "bike_id": "5220a31cf78633de665169c6a0056288", "fusion_lon": 0.0, "lon": -77.03323133333333, "lat": 38.9011935, "is_reserved": 0, "is_disabled": 0, "rental_uris": {"android": "https://dc.lft.to/lastmile_qr_scan", "ios": "https://dc.lft.to/lastmile_qr_scan"}, "name": "5220a31cf78633de665169c6a0056288", "type": "electric_scooter"}, {"fusion_lat": 0.0, "bike_id": "f645bb947564e1e1aebd571739dd150e", "fusion_lon": 0.0, "lon": -77.0426795, "lat": 38.922354166666665, "is_reserved": 0, "is_disabled": 0, "rental_uris": {"android": "https://dc.lft.to/lastmile_qr_scan", "ios": "https://dc.lft.to/lastmile_qr_scan"}, "name": "f645bb947564e1e1aebd571739dd150e", "type": "electric_scooter"}, {"fusion_lat": 0.0, "bike_id": "9f5899d54cc5222769fc9cabc3f25083", "fusion_lon": 0.0, "lon": -77.02509733333333, "lat": 38.91914716666667, "is_reserved": 0, "is_disabled": 0, "rental_uris": {"android": "https://dc.lft.to/lastmile_qr_scan", "ios": "https://dc.lft.to/lastmile_qr_scan"}, "name": "9f5899d54cc5222769fc9cabc3f25083", "type": "electric_scooter"}, {"fusion_lat": 0.0, "bike_id": "82f624cd93d2f8982283425fc4a16fe5", "fusion_lon": 0.0, "lon": -77.0365255, "lat": 38.918513833333336, "is_reserved": 0, "is_disabled": 0, "rental_uris": {"android": "https://dc.lft.to/lastmile_qr_scan", "ios": "https://dc.lft.to/lastmile_qr_scan"}, "name": "82f624cd93d2f8982283425fc4a16fe5", "type": "electric_scooter"}, {"fusion_lat": 0.0, "bike_id": "3f29d013075b5ab525350f73cf0b1fb8", "fusion_lon": 0.0, "lon": -77.045891, "lat": 38.89732033333333, "is_reserved": 0, "is_disabled": 0, "rental_uris": {"android": "https://dc.lft.to/lastmile_qr_scan", "ios": "https://dc.lft.to/lastmile_qr_scan"}, "name": "3f29d013075b5ab525350f73cf0b1fb8", "type": "electric_scooter"}, {"fusion_lat": 0.0, "bike_id": "7f2069a1253f4a223c6877f55f9a40a8", "fusion_lon": 0.0, "lon": -76.9374165, "lat": 38.8901, "is_reserved": 0, "is_disabled": 0, "rental_uris": {"android": "https://dc.lft.to/lastmile_qr_scan", "ios": "https://dc.lft.to/lastmile_qr_scan"}, "name": "7f2069a1253f4a223c6877f55f9a40a8", "type": "electric_scooter"}, {"fusion_lat": 0.0, "bike_id": "38bf2035b6bbdb45f8cd356378e9f3f8", "fusion_lon": 0.0, "lon": -76.92720666666666, "lat": 38.88054833333333, "is_reserved": 0, "is_disabled": 0, "rental_uris": {"android": "https://dc.lft.to/lastmile_qr_scan", "ios": "https://dc.lft.to/lastmile_qr_scan"}, "name": "38bf2035b6bbdb45f8cd356378e9f3f8", "type": "electric_scooter"}, {"fusion_lat": 0.0, "bike_id": "182d1d301da8b01a47376468c2bed29f", "fusion_lon": 0.0, "lon": -77.04202316666667, "lat": 38.920513166666666, "is_reserved": 0, "is_disabled": 0, "rental_uris": {"android": "https://dc.lft.to/lastmile_qr_scan", "ios": "https://dc.lft.to/lastmile_qr_scan"}, "name": "182d1d301da8b01a47376468c2bed29f", "type": "electric_scooter"}, {"fusion_lat": 0.0, "bike_id": "fdf70aaa2ba701f481160f464b4b94dd", "fusion_lon": 0.0, "lon": -77.02627083333333, "lat": 38.881291833333336, "is_reserved": 0, "is_disabled": 0, "rental_uris": {"android": "https://dc.lft.to/lastmile_qr_scan", "ios": "https://dc.lft.to/lastmile_qr_scan"}, "name": "fdf70aaa2ba701f481160f464b4b94dd", "type": "electric_scooter"}, {"fusion_lat": 0.0, "bike_id": "feea41d63d160b6502349451d87e28ff", "fusion_lon": 0.0, "lon": -77.04325116666666, "lat": 38.9087945, "is_reserved": 0, "is_disabled": 0, "rental_uris": {"android": "https://dc.lft.to/lastmile_qr_scan", "ios": "https://dc.lft.to/lastmile_qr_scan"}, "name": "feea41d63d160b6502349451d87e28ff", "type": "electric_scooter"}, {"fusion_lat": 0.0, "bike_id": "e8a539b74d6bd3c216d9af62ebcc629e", "fusion_lon": 0.0, "lon": -77.00131083333333, "lat": 38.89469533333333, "is_reserved": 0, "is_disabled": 0, "rental_uris": {"android": "https://dc.lft.to/lastmile_qr_scan", "ios": "https://dc.lft.to/lastmile_qr_scan"}, "name": "e8a539b74d6bd3c216d9af62ebcc629e", "type": "electric_scooter"}, {"fusion_lat": 0.0, "bike_id": "a2b6f31d648b4274dc972259fd9d4b6d", "fusion_lon": 0.0, "lon": -77.04905616666667, "lat": 38.915994166666664, "is_reserved": 0, "is_disabled": 0, "rental_uris": {"android": "https://dc.lft.to/lastmile_qr_scan", "ios": "https://dc.lft.to/lastmile_qr_scan"}, "name": "a2b6f31d648b4274dc972259fd9d4b6d", "type": "electric_scooter"}, {"fusion_lat": 0.0, "bike_id": "e77ad89ed1648b7fe270c0b61ac464ce", "fusion_lon": 0.0, "lon": -77.03460216666667, "lat": 38.920630833333334, "is_reserved": 0, "is_disabled": 0, "rental_uris": {"android": "https://dc.lft.to/lastmile_qr_scan", "ios": "https://dc.lft.to/lastmile_qr_scan"}, "name": "e77ad89ed1648b7fe270c0b61ac464ce", "type": "electric_scooter"}, {"fusion_lat": 0.0, "bike_id": "ece903afd3e08bbaff63f87cf75d88f1", "fusion_lon": 0.0, "lon": -76.9992905, "lat": 38.84315633333333, "is_reserved": 0, "is_disabled": 0, "rental_uris": {"android": "https://dc.lft.to/lastmile_qr_scan", "ios": "https://dc.lft.to/lastmile_qr_scan"}, "name": "ece903afd3e08bbaff63f87cf75d88f1", "type": "electric_scooter"}, {"fusion_lat": 0.0, "bike_id": "7bb93ee2d744ddceea53951b4c6a65f4", "fusion_lon": 0.0, "lon": -77.02950216666666, "lat": 38.8992005, "is_reserved": 0, "is_disabled": 0, "rental_uris": {"android": "https://dc.lft.to/lastmile_qr_scan", "ios": "https://dc.lft.to/lastmile_qr_scan"}, "name": "7bb93ee2d744ddceea53951b4c6a65f4", "type": "electric_scooter"}, {"fusion_lat": 0.0, "bike_id": "63dd66e6f41738fc428130c92b2886b0", "fusion_lon": 0.0, "lon": -77.03546133333333, "lat": 38.925782166666664, "is_reserved": 0, "is_disabled": 0, "rental_uris": {"android": "https://dc.lft.to/lastmile_qr_scan", "ios": "https://dc.lft.to/lastmile_qr_scan"}, "name": "63dd66e6f41738fc428130c92b2886b0", "type": "electric_scooter"}, {"fusion_lat": 0.0, "bike_id": "b5c3d6c2c4027349568299faa536d895", "fusion_lon": 0.0, "lon": -76.97757633333333, "lat": 38.86489016666667, "is_reserved": 0, "is_disabled": 0, "rental_uris": {"android": "https://dc.lft.to/lastmile_qr_scan", "ios": "https://dc.lft.to/lastmile_qr_scan"}, "name": "b5c3d6c2c4027349568299faa536d895", "type": "electric_bike"}, {"fusion_lat": 0.0, "bike_id": "373c6bdcc52084de5f010d66617ef3b2", "fusion_lon": 0.0, "lon": -77.02640216666667, "lat": 38.98158516666667, "is_reserved": 0, "is_disabled": 0, "rental_uris": {"android": "https://dc.lft.to/lastmile_qr_scan", "ios": "https://dc.lft.to/lastmile_qr_scan"}, "name": "373c6bdcc52084de5f010d66617ef3b2", "type": "electric_bike"}, {"fusion_lat": 0.0, "bike_id": "5965584c8855f7f1f038e93caaf91032", "fusion_lon": 0.0, "lon": -77.02448983333333, "lat": 38.920377, "is_reserved": 0, "is_disabled": 0, "rental_uris": {"android": "https://dc.lft.to/lastmile_qr_scan", "ios": "https://dc.lft.to/lastmile_qr_scan"}, "name": "5965584c8855f7f1f038e93caaf91032", "type": "electric_scooter"}, {"fusion_lat": 0.0, "bike_id": "672ee1d895dc74bb3771fa9ea740480c", "fusion_lon": 0.0, "lon": -77.05705, "lat": 38.9260125, "is_reserved": 0, "is_disabled": 0, "rental_uris": {"android": "https://dc.lft.to/lastmile_qr_scan", "ios": "https://dc.lft.to/lastmile_qr_scan"}, "name": "672ee1d895dc74bb3771fa9ea740480c", "type": "electric_bike"}, {"fusion_lat": 0.0, "bike_id": "5fa608cc2b8c211b5aea7070cfa31377", "fusion_lon": 0.0, "lon": -77.033813, "lat": 38.921593666666666, "is_reserved": 0, "is_disabled": 0, "rental_uris": {"android": "https://dc.lft.to/lastmile_qr_scan", "ios": "https://dc.lft.to/lastmile_qr_scan"}, "name": "5fa608cc2b8c211b5aea7070cfa31377", "type": "electric_scooter"}, {"fusion_lat": 0.0, "bike_id": "dd565bf4001d934614be2a5c1862f418", "fusion_lon": 0.0, "lon": -77.03842716666666, "lat": 38.909585166666666, "is_reserved": 0, "is_disabled": 0, "rental_uris": {"android": "https://dc.lft.to/lastmile_qr_scan", "ios": "https://dc.lft.to/lastmile_qr_scan"}, "name": "dd565bf4001d934614be2a5c1862f418", "type": "electric_scooter"}, {"fusion_lat": 0.0, "bike_id": "81ed8cad55c1e59815ea5ad51c975d1c", "fusion_lon": 0.0, "lon": -76.97733316666667, "lat": 38.86468133333333, "is_reserved": 0, "is_disabled": 0, "rental_uris": {"android": "https://dc.lft.to/lastmile_qr_scan", "ios": "https://dc.lft.to/lastmile_qr_scan"}, "name": "81ed8cad55c1e59815ea5ad51c975d1c", "type": "electric_scooter"}, {"fusion_lat": 0.0, "bike_id": "caac3ff256660475b9081cd8b914f92d", "fusion_lon": 0.0, "lon": -77.02792616666666, "lat": 38.941743, "is_reserved": 0, "is_disabled": 0, "rental_uris": {"android": "https://dc.lft.to/lastmile_qr_scan", "ios": "https://dc.lft.to/lastmile_qr_scan"}, "name": "caac3ff256660475b9081cd8b914f92d", "type": "electric_scooter"}, {"fusion_lat": 0.0, "bike_id": "0436ea2ff231a3a0bbf9b83f19360955", "fusion_lon": 0.0, "lon": -76.98525483333333, "lat": 38.86686133333333, "is_reserved": 0, "is_disabled": 0, "rental_uris": {"android": "https://dc.lft.to/lastmile_qr_scan", "ios": "https://dc.lft.to/lastmile_qr_scan"}, "name": "0436ea2ff231a3a0bbf9b83f19360955", "type": "electric_scooter"}, {"fusion_lat": 0.0, "bike_id": "3d84fba8eacbb11d8f2dfb036bdae3a1", "fusion_lon": 0.0, "lon": -77.01319483333333, "lat": 38.88704, "is_reserved": 0, "is_disabled": 0, "rental_uris": {"android": "https://dc.lft.to/lastmile_qr_scan", "ios": "https://dc.lft.to/lastmile_qr_scan"}, "name": "3d84fba8eacbb11d8f2dfb036bdae3a1", "type": "electric_scooter"}, {"fusion_lat": 0.0, "bike_id": "394859ede42faf642a1ce658efe9d4e2", "fusion_lon": 0.0, "lon": -77.0372295, "lat": 38.926427333333336, "is_reserved": 0, "is_disabled": 0, "rental_uris": {"android": "https://dc.lft.to/lastmile_qr_scan", "ios": "https://dc.lft.to/lastmile_qr_scan"}, "name": "394859ede42faf642a1ce658efe9d4e2", "type": "electric_scooter"}, {"fusion_lat": 0.0, "bike_id": "0fc47dd202f1242423f9e189b74a6f65", "fusion_lon": 0.0, "lon": -77.07478416666666, "lat": 38.9637545, "is_reserved": 0, "is_disabled": 0, "rental_uris": {"android": "https://dc.lft.to/lastmile_qr_scan", "ios": "https://dc.lft.to/lastmile_qr_scan"}, "name": "0fc47dd202f1242423f9e189b74a6f65", "type": "electric_scooter"}, {"fusion_lat": 0.0, "bike_id": "d9edabd23740d2b821ac5b3856531ac4", "fusion_lon": 0.0, "lon": -77.05030516666666, "lat": 38.923650333333335, "is_reserved": 0, "is_disabled": 0, "rental_uris": {"android": "https://dc.lft.to/lastmile_qr_scan", "ios": "https://dc.lft.to/lastmile_qr_scan"}, "name": "d9edabd23740d2b821ac5b3856531ac4", "type": "electric_scooter"}, {"fusion_lat": 0.0, "bike_id": "5dede77537bab2817d120985decf7834", "fusion_lon": 0.0, "lon": -77.11577183333333, "lat": 38.993414, "is_reserved": 0, "is_disabled": 0, "rental_uris": {"android": "https://dc.lft.to/lastmile_qr_scan", "ios": "https://dc.lft.to/lastmile_qr_scan"}, "name": "5dede77537bab2817d120985decf7834", "type": "electric_bike"}, {"fusion_lat": 0.0, "bike_id": "4672f8d3581ecf2faa5c3175e90e711b", "fusion_lon": 0.0, "lon": -77.04096516666667, "lat": 38.90161833333333, "is_reserved": 0, "is_disabled": 0, "rental_uris": {"android": "https://dc.lft.to/lastmile_qr_scan", "ios": "https://dc.lft.to/lastmile_qr_scan"}, "name": "4672f8d3581ecf2faa5c3175e90e711b", "type": "electric_scooter"}, {"fusion_lat": 0.0, "bike_id": "e45f97413005078682104ba43fd3a7c1", "fusion_lon": 0.0, "lon": -77.0095565, "lat": 38.953394833333334, "is_reserved": 0, "is_disabled": 0, "rental_uris": {"android": "https://dc.lft.to/lastmile_qr_scan", "ios": "https://dc.lft.to/lastmile_qr_scan"}, "name": "e45f97413005078682104ba43fd3a7c1", "type": "electric_bike"}, {"fusion_lat": 0.0, "bike_id": "a731240b6dcebd3516221e8aa22e8c94", "fusion_lon": 0.0, "lon": -77.034392, "lat": 38.917914833333334, "is_reserved": 0, "is_disabled": 0, "rental_uris": {"android": "https://dc.lft.to/lastmile_qr_scan", "ios": "https://dc.lft.to/lastmile_qr_scan"}, "name": "a731240b6dcebd3516221e8aa22e8c94", "type": "electric_scooter"}, {"fusion_lat": 0.0, "bike_id": "4b2ffdd54e65261ff8566ee2287cffaf", "fusion_lon": 0.0, "lon": -77.03189433333333, "lat": 38.91166033333333, "is_reserved": 0, "is_disabled": 0, "rental_uris": {"android": "https://dc.lft.to/lastmile_qr_scan", "ios": "https://dc.lft.to/lastmile_qr_scan"}, "name": "4b2ffdd54e65261ff8566ee2287cffaf", "type": "electric_scooter"}, {"fusion_lat": 0.0, "bike_id": "a34e5e754aa33efe3433eb002d12f55b", "fusion_lon": 0.0, "lon": -76.99677199999999, "lat": 38.86026616666667, "is_reserved": 0, "is_disabled": 0, "rental_uris": {"android": "https://dc.lft.to/lastmile_qr_scan", "ios": "https://dc.lft.to/lastmile_qr_scan"}, "name": "a34e5e754aa33efe3433eb002d12f55b", "type": "electric_scooter"}, {"fusion_lat": 0.0, "bike_id": "a770af8040778893a108afb8611fbdae", "fusion_lon": 0.0, "lon": -77.03464433333333, "lat": 38.90951033333333, "is_reserved": 0, "is_disabled": 0, "rental_uris": {"android": "https://dc.lft.to/lastmile_qr_scan", "ios": "https://dc.lft.to/lastmile_qr_scan"}, "name": "a770af8040778893a108afb8611fbdae", "type": "electric_scooter"}, {"fusion_lat": 0.0, "bike_id": "6c751634bf75082ae83e365fab574b31", "fusion_lon": 0.0, "lon": -77.02354066666666, "lat": 38.892183333333335, "is_reserved": 0, "is_disabled": 0, "rental_uris": {"android": "https://dc.lft.to/lastmile_qr_scan", "ios": "https://dc.lft.to/lastmile_qr_scan"}, "name": "6c751634bf75082ae83e365fab574b31", "type": "electric_scooter"}, {"fusion_lat": 0.0, "bike_id": "a2ef0f3ce5dda2c5e0ba742baceae0a4", "fusion_lon": 0.0, "lon": -77.0321945, "lat": 38.91153383333334, "is_reserved": 0, "is_disabled": 0, "rental_uris": {"android": "https://dc.lft.to/lastmile_qr_scan", "ios": "https://dc.lft.to/lastmile_qr_scan"}, "name": "a2ef0f3ce5dda2c5e0ba742baceae0a4", "type": "electric_scooter"}, {"fusion_lat": 0.0, "bike_id": "14ef0eba363bb865935c6bd46f4ec871", "fusion_lon": 0.0, "lon": -77.02713816666666, "lat": 38.912461, "is_reserved": 0, "is_disabled": 0, "rental_uris": {"android": "https://dc.lft.to/lastmile_qr_scan", "ios": "https://dc.lft.to/lastmile_qr_scan"}, "name": "14ef0eba363bb865935c6bd46f4ec871", "type": "electric_scooter"}, {"fusion_lat": 0.0, "bike_id": "d917c266be2b9053d718cf88a8fa92a2", "fusion_lon": 0.0, "lon": -77.05313583333333, "lat": 38.8204445, "is_reserved": 0, "is_disabled": 0, "rental_uris": {"android": "https://dc.lft.to/lastmile_qr_scan", "ios": "https://dc.lft.to/lastmile_qr_scan"}, "name": "d917c266be2b9053d718cf88a8fa92a2", "type": "electric_bike"}, {"fusion_lat": 0.0, "bike_id": "dbf58003b8d9a4dddbcdb56006ced5d5", "fusion_lon": 0.0, "lon": -77.0151515, "lat": 38.96778716666667, "is_reserved": 0, "is_disabled": 0, "rental_uris": {"android": "https://dc.lft.to/lastmile_qr_scan", "ios": "https://dc.lft.to/lastmile_qr_scan"}, "name": "dbf58003b8d9a4dddbcdb56006ced5d5", "type": "electric_scooter"}, {"fusion_lat": 0.0, "bike_id": "1aa41a0ab2104593b61c566f61dc42dc", "fusion_lon": 0.0, "lon": -77.03460783333334, "lat": 38.90637983333333, "is_reserved": 0, "is_disabled": 0, "rental_uris": {"android": "https://dc.lft.to/lastmile_qr_scan", "ios": "https://dc.lft.to/lastmile_qr_scan"}, "name": "1aa41a0ab2104593b61c566f61dc42dc", "type": "electric_scooter"}, {"fusion_lat": 0.0, "bike_id": "13856832163d764360f2c002c1f7f3c1", "fusion_lon": 0.0, "lon": -76.98191733333333, "lat": 38.967402666666665, "is_reserved": 0, "is_disabled": 0, "rental_uris": {"android": "https://dc.lft.to/lastmile_qr_scan", "ios": "https://dc.lft.to/lastmile_qr_scan"}, "name": "13856832163d764360f2c002c1f7f3c1", "type": "electric_bike"}, {"fusion_lat": 0.0, "bike_id": "b4215c330f065c22a24d55c13fe3f83a", "fusion_lon": 0.0, "lon": -77.03197633333333, "lat": 38.9173615, "is_reserved": 0, "is_disabled": 0, "rental_uris": {"android": "https://dc.lft.to/lastmile_qr_scan", "ios": "https://dc.lft.to/lastmile_qr_scan"}, "name": "b4215c330f065c22a24d55c13fe3f83a", "type": "electric_scooter"}, {"fusion_lat": 0.0, "bike_id": "2d72a5afbd70ce806c6df07e1ae4fb61", "fusion_lon": 0.0, "lon": -77.01344483333334, "lat": 38.878134, "is_reserved": 0, "is_disabled": 0, "rental_uris": {"android": "https://dc.lft.to/lastmile_qr_scan", "ios": "https://dc.lft.to/lastmile_qr_scan"}, "name": "2d72a5afbd70ce806c6df07e1ae4fb61", "type": "electric_scooter"}, {"fusion_lat": 0.0, "bike_id": "725787a0e83205f5a1a740aeb58634a1", "fusion_lon": 0.0, "lon": -77.02091316666667, "lat": 38.881820833333336, "is_reserved": 0, "is_disabled": 0, "rental_uris": {"android": "https://dc.lft.to/lastmile_qr_scan", "ios": "https://dc.lft.to/lastmile_qr_scan"}, "name": "725787a0e83205f5a1a740aeb58634a1", "type": "electric_scooter"}, {"fusion_lat": 0.0, "bike_id": "0fe0be66c8c7f7b8e7bcebfb04ecc80d", "fusion_lon": 0.0, "lon": -77.02876216666667, "lat": 38.916984, "is_reserved": 0, "is_disabled": 0, "rental_uris": {"android": "https://dc.lft.to/lastmile_qr_scan", "ios": "https://dc.lft.to/lastmile_qr_scan"}, "name": "0fe0be66c8c7f7b8e7bcebfb04ecc80d", "type": "electric_scooter"}, {"fusion_lat": 0.0, "bike_id": "5f5e7d6fbccb268441b70530bad87e43", "fusion_lon": 0.0, "lon": -76.99856716666666, "lat": 38.891950333333334, "is_reserved": 0, "is_disabled": 0, "rental_uris": {"android": "https://dc.lft.to/lastmile_qr_scan", "ios": "https://dc.lft.to/lastmile_qr_scan"}, "name": "5f5e7d6fbccb268441b70530bad87e43", "type": "electric_scooter"}, {"fusion_lat": 0.0, "bike_id": "44b7cd52cadaac89b47cb9ee4538f3e0", "fusion_lon": 0.0, "lon": -77.0245455, "lat": 38.935142166666665, "is_reserved": 0, "is_disabled": 0, "rental_uris": {"android": "https://dc.lft.to/lastmile_qr_scan", "ios": "https://dc.lft.to/lastmile_qr_scan"}, "name": "44b7cd52cadaac89b47cb9ee4538f3e0", "type": "electric_scooter"}, {"fusion_lat": 0.0, "bike_id": "c795c6773c08380fffd2e73572ffecaf", "fusion_lon": 0.0, "lon": -77.02848783333333, "lat": 38.9341765, "is_reserved": 0, "is_disabled": 0, "rental_uris": {"android": "https://dc.lft.to/lastmile_qr_scan", "ios": "https://dc.lft.to/lastmile_qr_scan"}, "name": "c795c6773c08380fffd2e73572ffecaf", "type": "electric_scooter"}, {"fusion_lat": 0.0, "bike_id": "69702760cf3c2b4488d8abd3b2b1644d", "fusion_lon": 0.0, "lon": -77.0227965, "lat": 38.907803, "is_reserved": 0, "is_disabled": 0, "rental_uris": {"android": "https://dc.lft.to/lastmile_qr_scan", "ios": "https://dc.lft.to/lastmile_qr_scan"}, "name": "69702760cf3c2b4488d8abd3b2b1644d", "type": "electric_scooter"}, {"fusion_lat": 0.0, "bike_id": "00d743595187874349656ca360cca055", "fusion_lon": 0.0, "lon": -77.03761066666667, "lat": 38.9077305, "is_reserved": 0, "is_disabled": 0, "rental_uris": {"android": "https://dc.lft.to/lastmile_qr_scan", "ios": "https://dc.lft.to/lastmile_qr_scan"}, "name": "00d743595187874349656ca360cca055", "type": "electric_scooter"}, {"fusion_lat": 0.0, "bike_id": "6f8e06a5aaa150fac1b752fa9e78e2b0", "fusion_lon": 0.0, "lon": -77.02770516666666, "lat": 38.89196033333333, "is_reserved": 0, "is_disabled": 0, "rental_uris": {"android": "https://dc.lft.to/lastmile_qr_scan", "ios": "https://dc.lft.to/lastmile_qr_scan"}, "name": "6f8e06a5aaa150fac1b752fa9e78e2b0", "type": "electric_scooter"}, {"fusion_lat": 0.0, "bike_id": "86f9077978dd8cda9c980387ee2f3f94", "fusion_lon": 0.0, "lon": -77.0338785, "lat": 38.9072325, "is_reserved": 0, "is_disabled": 0, "rental_uris": {"android": "https://dc.lft.to/lastmile_qr_scan", "ios": "https://dc.lft.to/lastmile_qr_scan"}, "name": "86f9077978dd8cda9c980387ee2f3f94", "type": "electric_scooter"}, {"fusion_lat": 0.0, "bike_id": "e9a108702d3f0dde37d4f4b3ffe849a9", "fusion_lon": 0.0, "lon": -77.0221275, "lat": 38.914144, "is_reserved": 0, "is_disabled": 0, "rental_uris": {"android": "https://dc.lft.to/lastmile_qr_scan", "ios": "https://dc.lft.to/lastmile_qr_scan"}, "name": "e9a108702d3f0dde37d4f4b3ffe849a9", "type": "electric_scooter"}, {"fusion_lat": 0.0, "bike_id": "509f269f97cae50c4e4bf3711d1e85ab", "fusion_lon": 0.0, "lon": -77.06637766666667, "lat": 38.9059205, "is_reserved": 0, "is_disabled": 0, "rental_uris": {"android": "https://dc.lft.to/lastmile_qr_scan", "ios": "https://dc.lft.to/lastmile_qr_scan"}, "name": "509f269f97cae50c4e4bf3711d1e85ab", "type": "electric_scooter"}, {"fusion_lat": 0.0, "bike_id": "72c3d32575fcedcd9ff8a4518efaedb2", "fusion_lon": 0.0, "lon": -77.032081, "lat": 38.89527183333333, "is_reserved": 0, "is_disabled": 0, "rental_uris": {"android": "https://dc.lft.to/lastmile_qr_scan", "ios": "https://dc.lft.to/lastmile_qr_scan"}, "name": "72c3d32575fcedcd9ff8a4518efaedb2", "type": "electric_scooter"}, {"fusion_lat": 0.0, "bike_id": "b784fe1f5c20e24b4340f3a1b57db912", "fusion_lon": 0.0, "lon": -77.07828433333333, "lat": 38.94572516666667, "is_reserved": 0, "is_disabled": 0, "rental_uris": {"android": "https://dc.lft.to/lastmile_qr_scan", "ios": "https://dc.lft.to/lastmile_qr_scan"}, "name": "b784fe1f5c20e24b4340f3a1b57db912", "type": "electric_bike"}, {"fusion_lat": 0.0, "bike_id": "fe982969ff3129c87e35e404522ef062", "fusion_lon": 0.0, "lon": -77.0361435, "lat": 38.917254666666665, "is_reserved": 0, "is_disabled": 0, "rental_uris": {"android": "https://dc.lft.to/lastmile_qr_scan", "ios": "https://dc.lft.to/lastmile_qr_scan"}, "name": "fe982969ff3129c87e35e404522ef062", "type": "electric_scooter"}, {"fusion_lat": 0.0, "bike_id": "f6db8503dd5b5d1fd7890726ad8da42e", "fusion_lon": 0.0, "lon": -77.07325516666667, "lat": 38.927253666666665, "is_reserved": 0, "is_disabled": 0, "rental_uris": {"android": "https://dc.lft.to/lastmile_qr_scan", "ios": "https://dc.lft.to/lastmile_qr_scan"}, "name": "f6db8503dd5b5d1fd7890726ad8da42e", "type": "electric_bike"}, {"fusion_lat": 0.0, "bike_id": "6218ea3f2faae07f6503a2f75c82beee", "fusion_lon": 0.0, "lon": -77.11784, "lat": 39.054924, "is_reserved": 0, "is_disabled": 0, "rental_uris": {"android": "https://dc.lft.to/lastmile_qr_scan", "ios": "https://dc.lft.to/lastmile_qr_scan"}, "name": "6218ea3f2faae07f6503a2f75c82beee", "type": "electric_bike"}, {"fusion_lat": 0.0, "bike_id": "14ea2a45438840a7b2727ba305da004e", "fusion_lon": 0.0, "lon": -77.04176783333334, "lat": 38.919735, "is_reserved": 0, "is_disabled": 0, "rental_uris": {"android": "https://dc.lft.to/lastmile_qr_scan", "ios": "https://dc.lft.to/lastmile_qr_scan"}, "name": "14ea2a45438840a7b2727ba305da004e", "type": "electric_scooter"}, {"fusion_lat": 0.0, "bike_id": "60c937536748ad29807e5d6e24530e4b", "fusion_lon": 0.0, "lon": -76.97083583333334, "lat": 38.89218283333334, "is_reserved": 0, "is_disabled": 0, "rental_uris": {"android": "https://dc.lft.to/lastmile_qr_scan", "ios": "https://dc.lft.to/lastmile_qr_scan"}, "name": "60c937536748ad29807e5d6e24530e4b", "type": "electric_bike"}, {"fusion_lat": 0.0, "bike_id": "8dd50b5f54150bb88a7fd91e3eb14724", "fusion_lon": 0.0, "lon": -77.032784, "lat": 38.941559, "is_reserved": 0, "is_disabled": 0, "rental_uris": {"android": "https://dc.lft.to/lastmile_qr_scan", "ios": "https://dc.lft.to/lastmile_qr_scan"}, "name": "8dd50b5f54150bb88a7fd91e3eb14724", "type": "electric_scooter"}, {"fusion_lat": 0.0, "bike_id": "fa5f1fef00d2cf86b001f500a2b3bd70", "fusion_lon": 0.0, "lon": -77.03195166666667, "lat": 38.9173745, "is_reserved": 0, "is_disabled": 0, "rental_uris": {"android": "https://dc.lft.to/lastmile_qr_scan", "ios": "https://dc.lft.to/lastmile_qr_scan"}, "name": "fa5f1fef00d2cf86b001f500a2b3bd70", "type": "electric_scooter"}, {"fusion_lat": 0.0, "bike_id": "c0bf63270699e6c7b29a3bb1b254fec0", "fusion_lon": 0.0, "lon": -77.016692, "lat": 38.87701066666666, "is_reserved": 0, "is_disabled": 0, "rental_uris": {"android": "https://dc.lft.to/lastmile_qr_scan", "ios": "https://dc.lft.to/lastmile_qr_scan"}, "name": "c0bf63270699e6c7b29a3bb1b254fec0", "type": "electric_scooter"}, {"fusion_lat": 0.0, "bike_id": "d5c0230167dec37a6cfc71f9eb37c0ca", "fusion_lon": 0.0, "lon": -77.042674, "lat": 38.9223555, "is_reserved": 0, "is_disabled": 0, "rental_uris": {"android": "https://dc.lft.to/lastmile_qr_scan", "ios": "https://dc.lft.to/lastmile_qr_scan"}, "name": "d5c0230167dec37a6cfc71f9eb37c0ca", "type": "electric_scooter"}, {"fusion_lat": 0.0, "bike_id": "5b71b0db22158dbb4ea034549d57c0ec", "fusion_lon": 0.0, "lon": -77.07028833333334, "lat": 38.9186235, "is_reserved": 0, "is_disabled": 0, "rental_uris": {"android": "https://dc.lft.to/lastmile_qr_scan", "ios": "https://dc.lft.to/lastmile_qr_scan"}, "name": "5b71b0db22158dbb4ea034549d57c0ec", "type": "electric_scooter"}, {"fusion_lat": 0.0, "bike_id": "04ed1e51787d9e9664a5df6b9836b3b5", "fusion_lon": 0.0, "lon": -77.01805316666666, "lat": 38.919099833333334, "is_reserved": 0, "is_disabled": 0, "rental_uris": {"android": "https://dc.lft.to/lastmile_qr_scan", "ios": "https://dc.lft.to/lastmile_qr_scan"}, "name": "04ed1e51787d9e9664a5df6b9836b3b5", "type": "electric_scooter"}, {"fusion_lat": 0.0, "bike_id": "c996a5bb85bd04f7c9535e3e80e24292", "fusion_lon": 0.0, "lon": -77.0357355, "lat": 38.923314, "is_reserved": 0, "is_disabled": 0, "rental_uris": {"android": "https://dc.lft.to/lastmile_qr_scan", "ios": "https://dc.lft.to/lastmile_qr_scan"}, "name": "c996a5bb85bd04f7c9535e3e80e24292", "type": "electric_scooter"}, {"fusion_lat": 0.0, "bike_id": "a0b9c8f7e7da0559251f0cacda3db18f", "fusion_lon": 0.0, "lon": -76.99479683333334, "lat": 38.886076333333335, "is_reserved": 0, "is_disabled": 0, "rental_uris": {"android": "https://dc.lft.to/lastmile_qr_scan", "ios": "https://dc.lft.to/lastmile_qr_scan"}, "name": "a0b9c8f7e7da0559251f0cacda3db18f", "type": "electric_scooter"}, {"fusion_lat": 0.0, "bike_id": "59ee0f943b75a3d89b27b803c1c8b53d", "fusion_lon": 0.0, "lon": -77.04134366666666, "lat": 38.923380333333334, "is_reserved": 0, "is_disabled": 0, "rental_uris": {"android": "https://dc.lft.to/lastmile_qr_scan", "ios": "https://dc.lft.to/lastmile_qr_scan"}, "name": "59ee0f943b75a3d89b27b803c1c8b53d", "type": "electric_scooter"}, {"fusion_lat": 0.0, "bike_id": "3dd08bf0ccfe023446c424fdf52c005b", "fusion_lon": 0.0, "lon": -77.0566315, "lat": 38.89546816666667, "is_reserved": 0, "is_disabled": 0, "rental_uris": {"android": "https://dc.lft.to/lastmile_qr_scan", "ios": "https://dc.lft.to/lastmile_qr_scan"}, "name": "3dd08bf0ccfe023446c424fdf52c005b", "type": "electric_scooter"}, {"fusion_lat": 0.0, "bike_id": "f57ef02e6a19f04a9e6c9b6ba37bc9b1", "fusion_lon": 0.0, "lon": -77.03126633333333, "lat": 38.995200833333335, "is_reserved": 0, "is_disabled": 0, "rental_uris": {"android": "https://dc.lft.to/lastmile_qr_scan", "ios": "https://dc.lft.to/lastmile_qr_scan"}, "name": "f57ef02e6a19f04a9e6c9b6ba37bc9b1", "type": "electric_bike"}, {"fusion_lat": 0.0, "bike_id": "fc64f65db1eee9fc4e7ab80c112771d5", "fusion_lon": 0.0, "lon": -77.04474633333334, "lat": 38.907238166666666, "is_reserved": 0, "is_disabled": 0, "rental_uris": {"android": "https://dc.lft.to/lastmile_qr_scan", "ios": "https://dc.lft.to/lastmile_qr_scan"}, "name": "fc64f65db1eee9fc4e7ab80c112771d5", "type": "electric_scooter"}, {"fusion_lat": 0.0, "bike_id": "2620d62a82ea6d04c7198135ffb531d2", "fusion_lon": 0.0, "lon": -77.01864983333333, "lat": 38.915001333333336, "is_reserved": 0, "is_disabled": 0, "rental_uris": {"android": "https://dc.lft.to/lastmile_qr_scan", "ios": "https://dc.lft.to/lastmile_qr_scan"}, "name": "2620d62a82ea6d04c7198135ffb531d2", "type": "electric_scooter"}, {"fusion_lat": 0.0, "bike_id": "0d6a8fd26cabdfc1d0cc528912fb9f23", "fusion_lon": 0.0, "lon": -77.01792116666667, "lat": 38.9213245, "is_reserved": 0, "is_disabled": 0, "rental_uris": {"android": "https://dc.lft.to/lastmile_qr_scan", "ios": "https://dc.lft.to/lastmile_qr_scan"}, "name": "0d6a8fd26cabdfc1d0cc528912fb9f23", "type": "electric_scooter"}, {"fusion_lat": 0.0, "bike_id": "5497a6934cf4a477ecc078286627e05c", "fusion_lon": 0.0, "lon": -77.01853816666667, "lat": 38.8771555, "is_reserved": 0, "is_disabled": 0, "rental_uris": {"android": "https://dc.lft.to/lastmile_qr_scan", "ios": "https://dc.lft.to/lastmile_qr_scan"}, "name": "5497a6934cf4a477ecc078286627e05c", "type": "electric_scooter"}, {"fusion_lat": 0.0, "bike_id": "a4162538d3c7768ff278f277d679d846", "fusion_lon": 0.0, "lon": -77.03172416666666, "lat": 38.89627766666667, "is_reserved": 0, "is_disabled": 0, "rental_uris": {"android": "https://dc.lft.to/lastmile_qr_scan", "ios": "https://dc.lft.to/lastmile_qr_scan"}, "name": "a4162538d3c7768ff278f277d679d846", "type": "electric_scooter"}, {"fusion_lat": 0.0, "bike_id": "b19bedb849ab5349966d7657be733e30", "fusion_lon": 0.0, "lon": -77.0450185, "lat": 38.90498683333333, "is_reserved": 0, "is_disabled": 0, "rental_uris": {"android": "https://dc.lft.to/lastmile_qr_scan", "ios": "https://dc.lft.to/lastmile_qr_scan"}, "name": "b19bedb849ab5349966d7657be733e30", "type": "electric_scooter"}, {"fusion_lat": 0.0, "bike_id": "fe8adcdb5d63b8e6bf1798595837f871", "fusion_lon": 0.0, "lon": -77.021784, "lat": 38.89898316666667, "is_reserved": 0, "is_disabled": 0, "rental_uris": {"android": "https://dc.lft.to/lastmile_qr_scan", "ios": "https://dc.lft.to/lastmile_qr_scan"}, "name": "fe8adcdb5d63b8e6bf1798595837f871", "type": "electric_scooter"}, {"fusion_lat": 0.0, "bike_id": "c0dc9d259f339a8f35736dddd3a93bc3", "fusion_lon": 0.0, "lon": -76.97614866666666, "lat": 38.903872, "is_reserved": 0, "is_disabled": 0, "rental_uris": {"android": "https://dc.lft.to/lastmile_qr_scan", "ios": "https://dc.lft.to/lastmile_qr_scan"}, "name": "c0dc9d259f339a8f35736dddd3a93bc3", "type": "electric_scooter"}, {"fusion_lat": 0.0, "bike_id": "91f66c1ea954b88df5959fef2fdfe644", "fusion_lon": 0.0, "lon": -77.0284325, "lat": 38.9322615, "is_reserved": 0, "is_disabled": 0, "rental_uris": {"android": "https://dc.lft.to/lastmile_qr_scan", "ios": "https://dc.lft.to/lastmile_qr_scan"}, "name": "91f66c1ea954b88df5959fef2fdfe644", "type": "electric_scooter"}, {"fusion_lat": 0.0, "bike_id": "940a4c1a59be436e7052028dcda6ea0a", "fusion_lon": 0.0, "lon": -76.99935983333333, "lat": 38.919306, "is_reserved": 0, "is_disabled": 0, "rental_uris": {"android": "https://dc.lft.to/lastmile_qr_scan", "ios": "https://dc.lft.to/lastmile_qr_scan"}, "name": "940a4c1a59be436e7052028dcda6ea0a", "type": "electric_scooter"}, {"fusion_lat": 0.0, "bike_id": "26e10807c2317ae4d6140cd7f1549928", "fusion_lon": 0.0, "lon": -76.95455433333333, "lat": 38.936362333333335, "is_reserved": 0, "is_disabled": 0, "rental_uris": {"android": "https://dc.lft.to/lastmile_qr_scan", "ios": "https://dc.lft.to/lastmile_qr_scan"}, "name": "26e10807c2317ae4d6140cd7f1549928", "type": "electric_bike"}, {"fusion_lat": 0.0, "bike_id": "38b2c1d4dfdfbf81763d54c495a16eb3", "fusion_lon": 0.0, "lon": -77.03406583333333, "lat": 38.9226725, "is_reserved": 0, "is_disabled": 0, "rental_uris": {"android": "https://dc.lft.to/lastmile_qr_scan", "ios": "https://dc.lft.to/lastmile_qr_scan"}, "name": "38b2c1d4dfdfbf81763d54c495a16eb3", "type": "electric_scooter"}, {"fusion_lat": 0.0, "bike_id": "c89e84148ba7f85c9ea2859913859f54", "fusion_lon": 0.0, "lon": -76.99054133333334, "lat": 38.86375533333333, "is_reserved": 0, "is_disabled": 0, "rental_uris": {"android": "https://dc.lft.to/lastmile_qr_scan", "ios": "https://dc.lft.to/lastmile_qr_scan"}, "name": "c89e84148ba7f85c9ea2859913859f54", "type": "electric_scooter"}, {"fusion_lat": 0.0, "bike_id": "a962b83496f5a07cd1753008dae2d24e", "fusion_lon": 0.0, "lon": -77.02070266666666, "lat": 38.90403416666667, "is_reserved": 0, "is_disabled": 0, "rental_uris": {"android": "https://dc.lft.to/lastmile_qr_scan", "ios": "https://dc.lft.to/lastmile_qr_scan"}, "name": "a962b83496f5a07cd1753008dae2d24e", "type": "electric_scooter"}, {"fusion_lat": 0.0, "bike_id": "e021fa201b7b1d31c930684ee07cae34", "fusion_lon": 0.0, "lon": -77.01277083333333, "lat": 38.89231016666667, "is_reserved": 0, "is_disabled": 0, "rental_uris": {"android": "https://dc.lft.to/lastmile_qr_scan", "ios": "https://dc.lft.to/lastmile_qr_scan"}, "name": "e021fa201b7b1d31c930684ee07cae34", "type": "electric_scooter"}, {"fusion_lat": 0.0, "bike_id": "deeba0f2ad270536055408fa152a7aa6", "fusion_lon": 0.0, "lon": -77.0222395, "lat": 38.93549133333333, "is_reserved": 0, "is_disabled": 0, "rental_uris": {"android": "https://dc.lft.to/lastmile_qr_scan", "ios": "https://dc.lft.to/lastmile_qr_scan"}, "name": "deeba0f2ad270536055408fa152a7aa6", "type": "electric_scooter"}, {"fusion_lat": 0.0, "bike_id": "be0099fa8c5328bdaa7ac2bae1c40267", "fusion_lon": 0.0, "lon": -77.02066966666666, "lat": 38.892796, "is_reserved": 0, "is_disabled": 0, "rental_uris": {"android": "https://dc.lft.to/lastmile_qr_scan", "ios": "https://dc.lft.to/lastmile_qr_scan"}, "name": "be0099fa8c5328bdaa7ac2bae1c40267", "type": "electric_scooter"}, {"fusion_lat": 0.0, "bike_id": "d30ac6b780cb5f14d177c1feecbe5fc1", "fusion_lon": 0.0, "lon": -77.00722266666666, "lat": 38.903729, "is_reserved": 0, "is_disabled": 0, "rental_uris": {"android": "https://dc.lft.to/lastmile_qr_scan", "ios": "https://dc.lft.to/lastmile_qr_scan"}, "name": "d30ac6b780cb5f14d177c1feecbe5fc1", "type": "electric_scooter"}, {"fusion_lat": 0.0, "bike_id": "cc30d34f5d25c7a9c8d1ee52bf9a0592", "fusion_lon": 0.0, "lon": -77.03934483333333, "lat": 38.9014015, "is_reserved": 0, "is_disabled": 0, "rental_uris": {"android": "https://dc.lft.to/lastmile_qr_scan", "ios": "https://dc.lft.to/lastmile_qr_scan"}, "name": "cc30d34f5d25c7a9c8d1ee52bf9a0592", "type": "electric_scooter"}, {"fusion_lat": 0.0, "bike_id": "111c9e1bef6df68918994e5a09d5db96", "fusion_lon": 0.0, "lon": -77.07231216666666, "lat": 38.934519, "is_reserved": 0, "is_disabled": 0, "rental_uris": {"android": "https://dc.lft.to/lastmile_qr_scan", "ios": "https://dc.lft.to/lastmile_qr_scan"}, "name": "111c9e1bef6df68918994e5a09d5db96", "type": "electric_scooter"}, {"fusion_lat": 0.0, "bike_id": "d6f454bdde5c82e8aacbe8f350557e7a", "fusion_lon": 0.0, "lon": -77.0009115, "lat": 38.90840983333333, "is_reserved": 0, "is_disabled": 0, "rental_uris": {"android": "https://dc.lft.to/lastmile_qr_scan", "ios": "https://dc.lft.to/lastmile_qr_scan"}, "name": "d6f454bdde5c82e8aacbe8f350557e7a", "type": "electric_scooter"}, {"fusion_lat": 0.0, "bike_id": "7dad85ba7e46897d3f7f09147fb72a29", "fusion_lon": 0.0, "lon": -76.9548015, "lat": 38.886681833333334, "is_reserved": 0, "is_disabled": 0, "rental_uris": {"android": "https://dc.lft.to/lastmile_qr_scan", "ios": "https://dc.lft.to/lastmile_qr_scan"}, "name": "7dad85ba7e46897d3f7f09147fb72a29", "type": "electric_scooter"}, {"fusion_lat": 0.0, "bike_id": "d3b21b129db25890afb8d601489d2179", "fusion_lon": 0.0, "lon": -77.04182416666667, "lat": 38.905202333333335, "is_reserved": 0, "is_disabled": 0, "rental_uris": {"android": "https://dc.lft.to/lastmile_qr_scan", "ios": "https://dc.lft.to/lastmile_qr_scan"}, "name": "d3b21b129db25890afb8d601489d2179", "type": "electric_scooter"}, {"fusion_lat": 0.0, "bike_id": "4a446d2d94e675053c151d79bb758701", "fusion_lon": 0.0, "lon": -77.03216266666666, "lat": 38.91628333333333, "is_reserved": 0, "is_disabled": 0, "rental_uris": {"android": "https://dc.lft.to/lastmile_qr_scan", "ios": "https://dc.lft.to/lastmile_qr_scan"}, "name": "4a446d2d94e675053c151d79bb758701", "type": "electric_scooter"}, {"fusion_lat": 0.0, "bike_id": "0ddba48abf3de515a9b0b60c54146a19", "fusion_lon": 0.0, "lon": -77.03714033333333, "lat": 38.930651166666664, "is_reserved": 0, "is_disabled": 0, "rental_uris": {"android": "https://dc.lft.to/lastmile_qr_scan", "ios": "https://dc.lft.to/lastmile_qr_scan"}, "name": "0ddba48abf3de515a9b0b60c54146a19", "type": "electric_scooter"}, {"fusion_lat": 0.0, "bike_id": "caa68ef02c5156f5d837b2c00b5331a6", "fusion_lon": 0.0, "lon": -77.04336633333334, "lat": 38.91392966666667, "is_reserved": 0, "is_disabled": 0, "rental_uris": {"android": "https://dc.lft.to/lastmile_qr_scan", "ios": "https://dc.lft.to/lastmile_qr_scan"}, "name": "caa68ef02c5156f5d837b2c00b5331a6", "type": "electric_scooter"}, {"fusion_lat": 0.0, "bike_id": "3ecd87149951f1ff590886e24f888d8e", "fusion_lon": 0.0, "lon": -77.0446865, "lat": 38.892195666666666, "is_reserved": 0, "is_disabled": 0, "rental_uris": {"android": "https://dc.lft.to/lastmile_qr_scan", "ios": "https://dc.lft.to/lastmile_qr_scan"}, "name": "3ecd87149951f1ff590886e24f888d8e", "type": "electric_scooter"}, {"fusion_lat": 0.0, "bike_id": "ac4b7def23f57948f7bba569ab7e9c75", "fusion_lon": 0.0, "lon": -77.044898, "lat": 38.899713, "is_reserved": 0, "is_disabled": 0, "rental_uris": {"android": "https://dc.lft.to/lastmile_qr_scan", "ios": "https://dc.lft.to/lastmile_qr_scan"}, "name": "ac4b7def23f57948f7bba569ab7e9c75", "type": "electric_scooter"}, {"fusion_lat": 0.0, "bike_id": "d5c4f582a0eb6823413ae434771e833c", "fusion_lon": 0.0, "lon": -77.02208116666667, "lat": 38.91268216666667, "is_reserved": 0, "is_disabled": 0, "rental_uris": {"android": "https://dc.lft.to/lastmile_qr_scan", "ios": "https://dc.lft.to/lastmile_qr_scan"}, "name": "d5c4f582a0eb6823413ae434771e833c", "type": "electric_scooter"}, {"fusion_lat": 0.0, "bike_id": "c105eebf64fb38878821fd5c4419f0dc", "fusion_lon": 0.0, "lon": -77.01866683333333, "lat": 38.91499916666667, "is_reserved": 0, "is_disabled": 0, "rental_uris": {"android": "https://dc.lft.to/lastmile_qr_scan", "ios": "https://dc.lft.to/lastmile_qr_scan"}, "name": "c105eebf64fb38878821fd5c4419f0dc", "type": "electric_scooter"}, {"fusion_lat": 0.0, "bike_id": "2294e8e7d05bbd4cc9db42fb8e73a8e6", "fusion_lon": 0.0, "lon": -77.0328015, "lat": 38.912199, "is_reserved": 0, "is_disabled": 0, "rental_uris": {"android": "https://dc.lft.to/lastmile_qr_scan", "ios": "https://dc.lft.to/lastmile_qr_scan"}, "name": "2294e8e7d05bbd4cc9db42fb8e73a8e6", "type": "electric_scooter"}, {"fusion_lat": 0.0, "bike_id": "15cbb2cf43bc06680326e7ea5df3e6bc", "fusion_lon": 0.0, "lon": -77.2332315, "lat": 38.872741, "is_reserved": 0, "is_disabled": 0, "rental_uris": {"android": "https://dc.lft.to/lastmile_qr_scan", "ios": "https://dc.lft.to/lastmile_qr_scan"}, "name": "15cbb2cf43bc06680326e7ea5df3e6bc", "type": "electric_bike"}, {"fusion_lat": 0.0, "bike_id": "8a0ae8194a6d3fd6723e31ff7a147b1c", "fusion_lon": 0.0, "lon": -77.02601483333333, "lat": 38.90806633333333, "is_reserved": 0, "is_disabled": 0, "rental_uris": {"android": "https://dc.lft.to/lastmile_qr_scan", "ios": "https://dc.lft.to/lastmile_qr_scan"}, "name": "8a0ae8194a6d3fd6723e31ff7a147b1c", "type": "electric_scooter"}, {"fusion_lat": 0.0, "bike_id": "6e3a65c2babbee172b6f03caeadffe5c", "fusion_lon": 0.0, "lon": -76.98880866666667, "lat": 38.86656333333333, "is_reserved": 0, "is_disabled": 0, "rental_uris": {"android": "https://dc.lft.to/lastmile_qr_scan", "ios": "https://dc.lft.to/lastmile_qr_scan"}, "name": "6e3a65c2babbee172b6f03caeadffe5c", "type": "electric_scooter"}, {"fusion_lat": 0.0, "bike_id": "fddaf7cb847de5c125d3fa37972fd81e", "fusion_lon": 0.0, "lon": -76.94101966666666, "lat": 38.88457616666667, "is_reserved": 0, "is_disabled": 0, "rental_uris": {"android": "https://dc.lft.to/lastmile_qr_scan", "ios": "https://dc.lft.to/lastmile_qr_scan"}, "name": "fddaf7cb847de5c125d3fa37972fd81e", "type": "electric_scooter"}, {"fusion_lat": 0.0, "bike_id": "1861af592a71ee8ba13877f09c0e7fd9", "fusion_lon": 0.0, "lon": -77.00508583333334, "lat": 38.87534433333333, "is_reserved": 0, "is_disabled": 0, "rental_uris": {"android": "https://dc.lft.to/lastmile_qr_scan", "ios": "https://dc.lft.to/lastmile_qr_scan"}, "name": "1861af592a71ee8ba13877f09c0e7fd9", "type": "electric_scooter"}, {"fusion_lat": 0.0, "bike_id": "804ea070f5161b64f97ccd02e008c443", "fusion_lon": 0.0, "lon": -77.03977416666666, "lat": 38.928056, "is_reserved": 0, "is_disabled": 0, "rental_uris": {"android": "https://dc.lft.to/lastmile_qr_scan", "ios": "https://dc.lft.to/lastmile_qr_scan"}, "name": "804ea070f5161b64f97ccd02e008c443", "type": "electric_scooter"}, {"fusion_lat": 0.0, "bike_id": "da808ee378cfd1b1d2272dbfd41a11c5", "fusion_lon": 0.0, "lon": -77.05047966666666, "lat": 38.90524083333333, "is_reserved": 0, "is_disabled": 0, "rental_uris": {"android": "https://dc.lft.to/lastmile_qr_scan", "ios": "https://dc.lft.to/lastmile_qr_scan"}, "name": "da808ee378cfd1b1d2272dbfd41a11c5", "type": "electric_scooter"}, {"fusion_lat": 0.0, "bike_id": "9b869667dca8b2a5a2440a705c789697", "fusion_lon": 0.0, "lon": -77.05006983333334, "lat": 38.892302666666666, "is_reserved": 0, "is_disabled": 0, "rental_uris": {"android": "https://dc.lft.to/lastmile_qr_scan", "ios": "https://dc.lft.to/lastmile_qr_scan"}, "name": "9b869667dca8b2a5a2440a705c789697", "type": "electric_scooter"}, {"fusion_lat": 0.0, "bike_id": "1a50758761605bfd8b2613883f12af2c", "fusion_lon": 0.0, "lon": -77.03574383333333, "lat": 38.92325266666667, "is_reserved": 0, "is_disabled": 0, "rental_uris": {"android": "https://dc.lft.to/lastmile_qr_scan", "ios": "https://dc.lft.to/lastmile_qr_scan"}, "name": "1a50758761605bfd8b2613883f12af2c", "type": "electric_scooter"}, {"fusion_lat": 0.0, "bike_id": "c429536ebd31f16e62b1cca32ebc91e3", "fusion_lon": 0.0, "lon": -76.9317955, "lat": 38.898787666666664, "is_reserved": 0, "is_disabled": 0, "rental_uris": {"android": "https://dc.lft.to/lastmile_qr_scan", "ios": "https://dc.lft.to/lastmile_qr_scan"}, "name": "c429536ebd31f16e62b1cca32ebc91e3", "type": "electric_scooter"}, {"fusion_lat": 0.0, "bike_id": "e1ce3d53cd81557156438386ac4a3cdf", "fusion_lon": 0.0, "lon": -77.0418265, "lat": 38.90328683333333, "is_reserved": 0, "is_disabled": 0, "rental_uris": {"android": "https://dc.lft.to/lastmile_qr_scan", "ios": "https://dc.lft.to/lastmile_qr_scan"}, "name": "e1ce3d53cd81557156438386ac4a3cdf", "type": "electric_scooter"}, {"fusion_lat": 0.0, "bike_id": "c40d9e33b5870b48d846712bd3f63d3a", "fusion_lon": 0.0, "lon": -77.02559333333333, "lat": 38.93856366666667, "is_reserved": 0, "is_disabled": 0, "rental_uris": {"android": "https://dc.lft.to/lastmile_qr_scan", "ios": "https://dc.lft.to/lastmile_qr_scan"}, "name": "c40d9e33b5870b48d846712bd3f63d3a", "type": "electric_scooter"}, {"fusion_lat": 0.0, "bike_id": "2b3f8b31457f75b3fd050ca79e0d4b9b", "fusion_lon": 0.0, "lon": -77.02406433333333, "lat": 38.941831, "is_reserved": 0, "is_disabled": 0, "rental_uris": {"android": "https://dc.lft.to/lastmile_qr_scan", "ios": "https://dc.lft.to/lastmile_qr_scan"}, "name": "2b3f8b31457f75b3fd050ca79e0d4b9b", "type": "electric_scooter"}, {"fusion_lat": 0.0, "bike_id": "023f916b85a8709260363e9a71e6bcd3", "fusion_lon": 0.0, "lon": -76.9300675, "lat": 38.896517, "is_reserved": 0, "is_disabled": 0, "rental_uris": {"android": "https://dc.lft.to/lastmile_qr_scan", "ios": "https://dc.lft.to/lastmile_qr_scan"}, "name": "023f916b85a8709260363e9a71e6bcd3", "type": "electric_bike"}, {"fusion_lat": 0.0, "bike_id": "49e5766d836d8caea88d95686bb08d2f", "fusion_lon": 0.0, "lon": -77.08029766666667, "lat": 38.95057083333333, "is_reserved": 0, "is_disabled": 0, "rental_uris": {"android": "https://dc.lft.to/lastmile_qr_scan", "ios": "https://dc.lft.to/lastmile_qr_scan"}, "name": "49e5766d836d8caea88d95686bb08d2f", "type": "electric_scooter"}, {"fusion_lat": 0.0, "bike_id": "0fa9e580b178a0bccee7bf6270860e4d", "fusion_lon": 0.0, "lon": -77.08774316666667, "lat": 38.935653, "is_reserved": 0, "is_disabled": 0, "rental_uris": {"android": "https://dc.lft.to/lastmile_qr_scan", "ios": "https://dc.lft.to/lastmile_qr_scan"}, "name": "0fa9e580b178a0bccee7bf6270860e4d", "type": "electric_scooter"}, {"fusion_lat": 0.0, "bike_id": "5302793e1d6a529c53c46756670d89e6", "fusion_lon": 0.0, "lon": -77.0181605, "lat": 38.90253333333333, "is_reserved": 0, "is_disabled": 0, "rental_uris": {"android": "https://dc.lft.to/lastmile_qr_scan", "ios": "https://dc.lft.to/lastmile_qr_scan"}, "name": "5302793e1d6a529c53c46756670d89e6", "type": "electric_scooter"}, {"fusion_lat": 0.0, "bike_id": "ad5a22525efa2bbcc41d96e0010d26d8", "fusion_lon": 0.0, "lon": -76.928798, "lat": 38.978382333333336, "is_reserved": 0, "is_disabled": 0, "rental_uris": {"android": "https://dc.lft.to/lastmile_qr_scan", "ios": "https://dc.lft.to/lastmile_qr_scan"}, "name": "ad5a22525efa2bbcc41d96e0010d26d8", "type": "electric_bike"}, {"fusion_lat": 0.0, "bike_id": "3c4decd3031f880e2db7cea3d28384ff", "fusion_lon": 0.0, "lon": -77.03463, "lat": 38.90967716666667, "is_reserved": 0, "is_disabled": 0, "rental_uris": {"android": "https://dc.lft.to/lastmile_qr_scan", "ios": "https://dc.lft.to/lastmile_qr_scan"}, "name": "3c4decd3031f880e2db7cea3d28384ff", "type": "electric_scooter"}, {"fusion_lat": 0.0, "bike_id": "e39786c335852fa2234b5ea2d7741d00", "fusion_lon": 0.0, "lon": -77.0218105, "lat": 38.905738666666664, "is_reserved": 0, "is_disabled": 0, "rental_uris": {"android": "https://dc.lft.to/lastmile_qr_scan", "ios": "https://dc.lft.to/lastmile_qr_scan"}, "name": "e39786c335852fa2234b5ea2d7741d00", "type": "electric_scooter"}, {"fusion_lat": 0.0, "bike_id": "dd07b257dd248d8521ce2409a4e2bc03", "fusion_lon": 0.0, "lon": -77.032854, "lat": 38.95648166666667, "is_reserved": 0, "is_disabled": 0, "rental_uris": {"android": "https://dc.lft.to/lastmile_qr_scan", "ios": "https://dc.lft.to/lastmile_qr_scan"}, "name": "dd07b257dd248d8521ce2409a4e2bc03", "type": "electric_scooter"}, {"fusion_lat": 0.0, "bike_id": "59cab47ec6075a54eb4d9d3237800f94", "fusion_lon": 0.0, "lon": -76.98080966666667, "lat": 38.919493333333335, "is_reserved": 0, "is_disabled": 0, "rental_uris": {"android": "https://dc.lft.to/lastmile_qr_scan", "ios": "https://dc.lft.to/lastmile_qr_scan"}, "name": "59cab47ec6075a54eb4d9d3237800f94", "type": "electric_scooter"}, {"fusion_lat": 0.0, "bike_id": "42584cc843738384319726c77c1e05ae", "fusion_lon": 0.0, "lon": -77.00648166666667, "lat": 38.838921166666665, "is_reserved": 0, "is_disabled": 0, "rental_uris": {"android": "https://dc.lft.to/lastmile_qr_scan", "ios": "https://dc.lft.to/lastmile_qr_scan"}, "name": "42584cc843738384319726c77c1e05ae", "type": "electric_scooter"}, {"fusion_lat": 0.0, "bike_id": "e628d5d82a5f90cbaa68b11ff9fa509f", "fusion_lon": 0.0, "lon": -76.95749733333334, "lat": 38.88423733333333, "is_reserved": 0, "is_disabled": 0, "rental_uris": {"android": "https://dc.lft.to/lastmile_qr_scan", "ios": "https://dc.lft.to/lastmile_qr_scan"}, "name": "e628d5d82a5f90cbaa68b11ff9fa509f", "type": "electric_scooter"}, {"fusion_lat": 0.0, "bike_id": "e69b0b1dede4d19fa945cf465cc7ba32", "fusion_lon": 0.0, "lon": -77.05235, "lat": 38.92549366666667, "is_reserved": 0, "is_disabled": 0, "rental_uris": {"android": "https://dc.lft.to/lastmile_qr_scan", "ios": "https://dc.lft.to/lastmile_qr_scan"}, "name": "e69b0b1dede4d19fa945cf465cc7ba32", "type": "electric_scooter"}, {"fusion_lat": 0.0, "bike_id": "62ca2ca096d0b6d95f29d3a47e883706", "fusion_lon": 0.0, "lon": -77.02509016666667, "lat": 38.926379, "is_reserved": 0, "is_disabled": 0, "rental_uris": {"android": "https://dc.lft.to/lastmile_qr_scan", "ios": "https://dc.lft.to/lastmile_qr_scan"}, "name": "62ca2ca096d0b6d95f29d3a47e883706", "type": "electric_scooter"}, {"fusion_lat": 0.0, "bike_id": "6cb67bbf7f344b9c7223dcf132a6fbe1", "fusion_lon": 0.0, "lon": -76.89536516666666, "lat": 38.945511333333336, "is_reserved": 0, "is_disabled": 0, "rental_uris": {"android": "https://dc.lft.to/lastmile_qr_scan", "ios": "https://dc.lft.to/lastmile_qr_scan"}, "name": "6cb67bbf7f344b9c7223dcf132a6fbe1", "type": "electric_bike"}, {"fusion_lat": 0.0, "bike_id": "3c050c756a91b07ca1c85fbb536d3da9", "fusion_lon": 0.0, "lon": -77.0327855, "lat": 38.892188, "is_reserved": 0, "is_disabled": 0, "rental_uris": {"android": "https://dc.lft.to/lastmile_qr_scan", "ios": "https://dc.lft.to/lastmile_qr_scan"}, "name": "3c050c756a91b07ca1c85fbb536d3da9", "type": "electric_scooter"}, {"fusion_lat": 0.0, "bike_id": "4d3e5c1c357322c082358451c5a4f83e", "fusion_lon": 0.0, "lon": -77.043892, "lat": 38.921147166666664, "is_reserved": 0, "is_disabled": 0, "rental_uris": {"android": "https://dc.lft.to/lastmile_qr_scan", "ios": "https://dc.lft.to/lastmile_qr_scan"}, "name": "4d3e5c1c357322c082358451c5a4f83e", "type": "electric_scooter"}, {"fusion_lat": 0.0, "bike_id": "1bc33baec4221ab775344a219780d657", "fusion_lon": 0.0, "lon": -77.0255665, "lat": 38.94172183333333, "is_reserved": 0, "is_disabled": 0, "rental_uris": {"android": "https://dc.lft.to/lastmile_qr_scan", "ios": "https://dc.lft.to/lastmile_qr_scan"}, "name": "1bc33baec4221ab775344a219780d657", "type": "electric_scooter"}, {"fusion_lat": 0.0, "bike_id": "8498cb9782097171a16d74a4b1ead010", "fusion_lon": 0.0, "lon": -76.98670666666666, "lat": 38.89969033333333, "is_reserved": 0, "is_disabled": 0, "rental_uris": {"android": "https://dc.lft.to/lastmile_qr_scan", "ios": "https://dc.lft.to/lastmile_qr_scan"}, "name": "8498cb9782097171a16d74a4b1ead010", "type": "electric_bike"}, {"fusion_lat": 0.0, "bike_id": "43495b68f56509b9cb93cdc63cb3fd94", "fusion_lon": 0.0, "lon": -77.00048016666666, "lat": 38.87411133333333, "is_reserved": 0, "is_disabled": 0, "rental_uris": {"android": "https://dc.lft.to/lastmile_qr_scan", "ios": "https://dc.lft.to/lastmile_qr_scan"}, "name": "43495b68f56509b9cb93cdc63cb3fd94", "type": "electric_scooter"}, {"fusion_lat": 0.0, "bike_id": "098ec0336e5f2af7a827c2f32c03ef68", "fusion_lon": 0.0, "lon": -76.97814333333334, "lat": 38.90606233333333, "is_reserved": 0, "is_disabled": 0, "rental_uris": {"android": "https://dc.lft.to/lastmile_qr_scan", "ios": "https://dc.lft.to/lastmile_qr_scan"}, "name": "098ec0336e5f2af7a827c2f32c03ef68", "type": "electric_scooter"}, {"fusion_lat": 0.0, "bike_id": "7cd6c0f0669a974e12686498f19439d2", "fusion_lon": 0.0, "lon": -76.99700783333333, "lat": 38.908289833333335, "is_reserved": 0, "is_disabled": 0, "rental_uris": {"android": "https://dc.lft.to/lastmile_qr_scan", "ios": "https://dc.lft.to/lastmile_qr_scan"}, "name": "7cd6c0f0669a974e12686498f19439d2", "type": "electric_scooter"}, {"fusion_lat": 0.0, "bike_id": "79a521858023f5aa72306c753013d8df", "fusion_lon": 0.0, "lon": -77.04328566666666, "lat": 38.9132815, "is_reserved": 0, "is_disabled": 0, "rental_uris": {"android": "https://dc.lft.to/lastmile_qr_scan", "ios": "https://dc.lft.to/lastmile_qr_scan"}, "name": "79a521858023f5aa72306c753013d8df", "type": "electric_scooter"}, {"fusion_lat": 0.0, "bike_id": "fff591d24df2d09d0ba90f1a00a1f165", "fusion_lon": 0.0, "lon": -77.0467515, "lat": 38.898081166666664, "is_reserved": 0, "is_disabled": 0, "rental_uris": {"android": "https://dc.lft.to/lastmile_qr_scan", "ios": "https://dc.lft.to/lastmile_qr_scan"}, "name": "fff591d24df2d09d0ba90f1a00a1f165", "type": "electric_scooter"}, {"fusion_lat": 0.0, "bike_id": "4e9f61f422c8160c24bc01d16dffe1c1", "fusion_lon": 0.0, "lon": -77.0322295, "lat": 38.90867983333333, "is_reserved": 0, "is_disabled": 0, "rental_uris": {"android": "https://dc.lft.to/lastmile_qr_scan", "ios": "https://dc.lft.to/lastmile_qr_scan"}, "name": "4e9f61f422c8160c24bc01d16dffe1c1", "type": "electric_scooter"}, {"fusion_lat": 0.0, "bike_id": "a7ef7734f1de42869c975d6b5ff8a88a", "fusion_lon": 0.0, "lon": -77.035244, "lat": 38.918752, "is_reserved": 0, "is_disabled": 0, "rental_uris": {"android": "https://dc.lft.to/lastmile_qr_scan", "ios": "https://dc.lft.to/lastmile_qr_scan"}, "name": "a7ef7734f1de42869c975d6b5ff8a88a", "type": "electric_scooter"}, {"fusion_lat": 0.0, "bike_id": "46b8b0a5020b55c316a74f3c51cbd607", "fusion_lon": 0.0, "lon": -77.03235333333333, "lat": 38.92488866666667, "is_reserved": 0, "is_disabled": 0, "rental_uris": {"android": "https://dc.lft.to/lastmile_qr_scan", "ios": "https://dc.lft.to/lastmile_qr_scan"}, "name": "46b8b0a5020b55c316a74f3c51cbd607", "type": "electric_scooter"}, {"fusion_lat": 0.0, "bike_id": "03a4a9b87e5ca0280bda12fb001e4a67", "fusion_lon": 0.0, "lon": -77.0256635, "lat": 38.91481916666667, "is_reserved": 0, "is_disabled": 0, "rental_uris": {"android": "https://dc.lft.to/lastmile_qr_scan", "ios": "https://dc.lft.to/lastmile_qr_scan"}, "name": "03a4a9b87e5ca0280bda12fb001e4a67", "type": "electric_scooter"}, {"fusion_lat": 0.0, "bike_id": "39c1710ce27c8ae01eecea8bb46a9308", "fusion_lon": 0.0, "lon": -77.00769533333333, "lat": 38.875756333333335, "is_reserved": 0, "is_disabled": 0, "rental_uris": {"android": "https://dc.lft.to/lastmile_qr_scan", "ios": "https://dc.lft.to/lastmile_qr_scan"}, "name": "39c1710ce27c8ae01eecea8bb46a9308", "type": "electric_bike"}, {"fusion_lat": 0.0, "bike_id": "9945f186b8919f310e86167d35a20bbc", "fusion_lon": 0.0, "lon": -77.07116533333334, "lat": 38.91963366666667, "is_reserved": 0, "is_disabled": 0, "rental_uris": {"android": "https://dc.lft.to/lastmile_qr_scan", "ios": "https://dc.lft.to/lastmile_qr_scan"}, "name": "9945f186b8919f310e86167d35a20bbc", "type": "electric_scooter"}, {"fusion_lat": 0.0, "bike_id": "cf10e86512a2c17ada47f4276c64a501", "fusion_lon": 0.0, "lon": -77.02796866666667, "lat": 38.89821966666667, "is_reserved": 0, "is_disabled": 0, "rental_uris": {"android": "https://dc.lft.to/lastmile_qr_scan", "ios": "https://dc.lft.to/lastmile_qr_scan"}, "name": "cf10e86512a2c17ada47f4276c64a501", "type": "electric_scooter"}, {"fusion_lat": 0.0, "bike_id": "f1b5828a01ac9dc2d695ce1221effa0f", "fusion_lon": 0.0, "lon": -77.03717366666666, "lat": 38.930638, "is_reserved": 0, "is_disabled": 0, "rental_uris": {"android": "https://dc.lft.to/lastmile_qr_scan", "ios": "https://dc.lft.to/lastmile_qr_scan"}, "name": "f1b5828a01ac9dc2d695ce1221effa0f", "type": "electric_scooter"}, {"fusion_lat": 0.0, "bike_id": "d28e1ceb8b2d22a2d23195e5943cad2a", "fusion_lon": 0.0, "lon": -77.02213583333334, "lat": 38.914146833333334, "is_reserved": 0, "is_disabled": 0, "rental_uris": {"android": "https://dc.lft.to/lastmile_qr_scan", "ios": "https://dc.lft.to/lastmile_qr_scan"}, "name": "d28e1ceb8b2d22a2d23195e5943cad2a", "type": "electric_scooter"}, {"fusion_lat": 0.0, "bike_id": "64187bdaf78aaa837915b352bc008069", "fusion_lon": 0.0, "lon": -76.99120566666667, "lat": 38.901362, "is_reserved": 0, "is_disabled": 0, "rental_uris": {"android": "https://dc.lft.to/lastmile_qr_scan", "ios": "https://dc.lft.to/lastmile_qr_scan"}, "name": "64187bdaf78aaa837915b352bc008069", "type": "electric_scooter"}, {"fusion_lat": 0.0, "bike_id": "642ac7c8215aaaa7c4aae7b738ce60bc", "fusion_lon": 0.0, "lon": -77.03988966666667, "lat": 38.897694333333334, "is_reserved": 0, "is_disabled": 0, "rental_uris": {"android": "https://dc.lft.to/lastmile_qr_scan", "ios": "https://dc.lft.to/lastmile_qr_scan"}, "name": "642ac7c8215aaaa7c4aae7b738ce60bc", "type": "electric_scooter"}, {"fusion_lat": 0.0, "bike_id": "6730832fcce5f9ce4661dae499fcf351", "fusion_lon": 0.0, "lon": -77.02138066666667, "lat": 38.9155325, "is_reserved": 0, "is_disabled": 0, "rental_uris": {"android": "https://dc.lft.to/lastmile_qr_scan", "ios": "https://dc.lft.to/lastmile_qr_scan"}, "name": "6730832fcce5f9ce4661dae499fcf351", "type": "electric_scooter"}, {"fusion_lat": 0.0, "bike_id": "d7ff3c0ff135ff6f75edd83369a5be30", "fusion_lon": 0.0, "lon": -76.99031033333333, "lat": 38.9029335, "is_reserved": 0, "is_disabled": 0, "rental_uris": {"android": "https://dc.lft.to/lastmile_qr_scan", "ios": "https://dc.lft.to/lastmile_qr_scan"}, "name": "d7ff3c0ff135ff6f75edd83369a5be30", "type": "electric_scooter"}, {"fusion_lat": 0.0, "bike_id": "7ab3610745807c6e2b132d6d24016a5c", "fusion_lon": 0.0, "lon": -77.0280065, "lat": 38.912147833333336, "is_reserved": 0, "is_disabled": 0, "rental_uris": {"android": "https://dc.lft.to/lastmile_qr_scan", "ios": "https://dc.lft.to/lastmile_qr_scan"}, "name": "7ab3610745807c6e2b132d6d24016a5c", "type": "electric_scooter"}, {"fusion_lat": 0.0, "bike_id": "78d8111290f5e9a6c5c3991076ba8685", "fusion_lon": 0.0, "lon": -77.0385405, "lat": 38.93244966666666, "is_reserved": 0, "is_disabled": 0, "rental_uris": {"android": "https://dc.lft.to/lastmile_qr_scan", "ios": "https://dc.lft.to/lastmile_qr_scan"}, "name": "78d8111290f5e9a6c5c3991076ba8685", "type": "electric_scooter"}, {"fusion_lat": 0.0, "bike_id": "e8d975cdc7e65ac9859e8defe89299bc", "fusion_lon": 0.0, "lon": -77.02794916666667, "lat": 38.953998666666664, "is_reserved": 0, "is_disabled": 0, "rental_uris": {"android": "https://dc.lft.to/lastmile_qr_scan", "ios": "https://dc.lft.to/lastmile_qr_scan"}, "name": "e8d975cdc7e65ac9859e8defe89299bc", "type": "electric_scooter"}, {"fusion_lat": 0.0, "bike_id": "b3a563baaffef75036a4038b2b9d0518", "fusion_lon": 0.0, "lon": -77.04072866666667, "lat": 38.9175505, "is_reserved": 0, "is_disabled": 0, "rental_uris": {"android": "https://dc.lft.to/lastmile_qr_scan", "ios": "https://dc.lft.to/lastmile_qr_scan"}, "name": "b3a563baaffef75036a4038b2b9d0518", "type": "electric_scooter"}, {"fusion_lat": 0.0, "bike_id": "16cb750f0821b266a8a2c0a8084765b3", "fusion_lon": 0.0, "lon": -77.02843666666666, "lat": 38.887225, "is_reserved": 0, "is_disabled": 0, "rental_uris": {"android": "https://dc.lft.to/lastmile_qr_scan", "ios": "https://dc.lft.to/lastmile_qr_scan"}, "name": "16cb750f0821b266a8a2c0a8084765b3", "type": "electric_scooter"}, {"fusion_lat": 0.0, "bike_id": "cc6e7997c671f3d6892b7940ee70f730", "fusion_lon": 0.0, "lon": -77.0073765, "lat": 38.9252625, "is_reserved": 0, "is_disabled": 0, "rental_uris": {"android": "https://dc.lft.to/lastmile_qr_scan", "ios": "https://dc.lft.to/lastmile_qr_scan"}, "name": "cc6e7997c671f3d6892b7940ee70f730", "type": "electric_scooter"}, {"fusion_lat": 0.0, "bike_id": "2b0d1cea4cc297d31b81495b5eb2539a", "fusion_lon": 0.0, "lon": -77.04500766666666, "lat": 38.911861333333334, "is_reserved": 0, "is_disabled": 0, "rental_uris": {"android": "https://dc.lft.to/lastmile_qr_scan", "ios": "https://dc.lft.to/lastmile_qr_scan"}, "name": "2b0d1cea4cc297d31b81495b5eb2539a", "type": "electric_scooter"}, {"fusion_lat": 0.0, "bike_id": "da6243fdc1eff2150b975a46b45855e1", "fusion_lon": 0.0, "lon": -77.04538033333333, "lat": 38.90568483333333, "is_reserved": 0, "is_disabled": 0, "rental_uris": {"android": "https://dc.lft.to/lastmile_qr_scan", "ios": "https://dc.lft.to/lastmile_qr_scan"}, "name": "da6243fdc1eff2150b975a46b45855e1", "type": "electric_bike"}, {"fusion_lat": 0.0, "bike_id": "a911063b5d1f9aeb853935abe0ca4697", "fusion_lon": 0.0, "lon": -76.95968316666666, "lat": 38.94803566666667, "is_reserved": 0, "is_disabled": 0, "rental_uris": {"android": "https://dc.lft.to/lastmile_qr_scan", "ios": "https://dc.lft.to/lastmile_qr_scan"}, "name": "a911063b5d1f9aeb853935abe0ca4697", "type": "electric_bike"}, {"fusion_lat": 0.0, "bike_id": "ff61d8aeb2da3a1da66cdb352a6ea455", "fusion_lon": 0.0, "lon": -77.04208566666667, "lat": 38.920510666666665, "is_reserved": 0, "is_disabled": 0, "rental_uris": {"android": "https://dc.lft.to/lastmile_qr_scan", "ios": "https://dc.lft.to/lastmile_qr_scan"}, "name": "ff61d8aeb2da3a1da66cdb352a6ea455", "type": "electric_scooter"}, {"fusion_lat": 0.0, "bike_id": "92e5089008375915c41b32370d5c1cae", "fusion_lon": 0.0, "lon": -77.02785683333333, "lat": 38.9318945, "is_reserved": 0, "is_disabled": 0, "rental_uris": {"android": "https://dc.lft.to/lastmile_qr_scan", "ios": "https://dc.lft.to/lastmile_qr_scan"}, "name": "92e5089008375915c41b32370d5c1cae", "type": "electric_scooter"}, {"fusion_lat": 0.0, "bike_id": "f9355f6f61367ede5bdfb3ce58e337c0", "fusion_lon": 0.0, "lon": -77.02234233333333, "lat": 38.892202833333336, "is_reserved": 0, "is_disabled": 0, "rental_uris": {"android": "https://dc.lft.to/lastmile_qr_scan", "ios": "https://dc.lft.to/lastmile_qr_scan"}, "name": "f9355f6f61367ede5bdfb3ce58e337c0", "type": "electric_scooter"}, {"fusion_lat": 0.0, "bike_id": "edc63022337af6dbf8abfd4c15861d4c", "fusion_lon": 0.0, "lon": -77.22796916666667, "lat": 38.910139, "is_reserved": 0, "is_disabled": 0, "rental_uris": {"android": "https://dc.lft.to/lastmile_qr_scan", "ios": "https://dc.lft.to/lastmile_qr_scan"}, "name": "edc63022337af6dbf8abfd4c15861d4c", "type": "electric_bike"}, {"fusion_lat": 0.0, "bike_id": "39493ee6d1329b388d625239f9806d0c", "fusion_lon": 0.0, "lon": -77.02970933333333, "lat": 38.92308116666667, "is_reserved": 0, "is_disabled": 0, "rental_uris": {"android": "https://dc.lft.to/lastmile_qr_scan", "ios": "https://dc.lft.to/lastmile_qr_scan"}, "name": "39493ee6d1329b388d625239f9806d0c", "type": "electric_scooter"}, {"fusion_lat": 0.0, "bike_id": "dd85e0840185f92ddaa91ffc8f8748c4", "fusion_lon": 0.0, "lon": -77.027174, "lat": 38.906637833333335, "is_reserved": 0, "is_disabled": 0, "rental_uris": {"android": "https://dc.lft.to/lastmile_qr_scan", "ios": "https://dc.lft.to/lastmile_qr_scan"}, "name": "dd85e0840185f92ddaa91ffc8f8748c4", "type": "electric_scooter"}, {"fusion_lat": 0.0, "bike_id": "e0b46eb44d0a50cb8365e366a3481866", "fusion_lon": 0.0, "lon": -77.0320925, "lat": 38.91469433333333, "is_reserved": 0, "is_disabled": 0, "rental_uris": {"android": "https://dc.lft.to/lastmile_qr_scan", "ios": "https://dc.lft.to/lastmile_qr_scan"}, "name": "e0b46eb44d0a50cb8365e366a3481866", "type": "electric_scooter"}, {"fusion_lat": 0.0, "bike_id": "b7fdf8d9807187c4ed7afe20fce56e9d", "fusion_lon": 0.0, "lon": -77.233159, "lat": 38.872767, "is_reserved": 0, "is_disabled": 0, "rental_uris": {"android": "https://dc.lft.to/lastmile_qr_scan", "ios": "https://dc.lft.to/lastmile_qr_scan"}, "name": "b7fdf8d9807187c4ed7afe20fce56e9d", "type": "electric_bike"}, {"fusion_lat": 0.0, "bike_id": "29653f5d6ebd1dcb6a5b147b716cc27b", "fusion_lon": 0.0, "lon": -77.0272305, "lat": 38.897284166666665, "is_reserved": 0, "is_disabled": 0, "rental_uris": {"android": "https://dc.lft.to/lastmile_qr_scan", "ios": "https://dc.lft.to/lastmile_qr_scan"}, "name": "29653f5d6ebd1dcb6a5b147b716cc27b", "type": "electric_scooter"}, {"fusion_lat": 0.0, "bike_id": "9c6298c58f3a12b3490c34a325566e81", "fusion_lon": 0.0, "lon": -77.02471766666666, "lat": 38.9385615, "is_reserved": 0, "is_disabled": 0, "rental_uris": {"android": "https://dc.lft.to/lastmile_qr_scan", "ios": "https://dc.lft.to/lastmile_qr_scan"}, "name": "9c6298c58f3a12b3490c34a325566e81", "type": "electric_scooter"}, {"fusion_lat": 0.0, "bike_id": "3feb66cb4b945aef8394ab47882cef75", "fusion_lon": 0.0, "lon": -76.99651633333333, "lat": 38.89675533333333, "is_reserved": 0, "is_disabled": 0, "rental_uris": {"android": "https://dc.lft.to/lastmile_qr_scan", "ios": "https://dc.lft.to/lastmile_qr_scan"}, "name": "3feb66cb4b945aef8394ab47882cef75", "type": "electric_scooter"}, {"fusion_lat": 0.0, "bike_id": "26c97ea2c986b6156c728762ea9143a3", "fusion_lon": 0.0, "lon": -77.03925283333334, "lat": 38.918396, "is_reserved": 0, "is_disabled": 0, "rental_uris": {"android": "https://dc.lft.to/lastmile_qr_scan", "ios": "https://dc.lft.to/lastmile_qr_scan"}, "name": "26c97ea2c986b6156c728762ea9143a3", "type": "electric_scooter"}, {"fusion_lat": 0.0, "bike_id": "592ff0561e9b298128b0f595e07d6067", "fusion_lon": 0.0, "lon": -77.00137366666667, "lat": 38.89463416666667, "is_reserved": 0, "is_disabled": 0, "rental_uris": {"android": "https://dc.lft.to/lastmile_qr_scan", "ios": "https://dc.lft.to/lastmile_qr_scan"}, "name": "592ff0561e9b298128b0f595e07d6067", "type": "electric_scooter"}, {"fusion_lat": 0.0, "bike_id": "a4ca8f6d57a35e6d4252a496e56f0595", "fusion_lon": 0.0, "lon": -77.00664783333333, "lat": 38.90008133333333, "is_reserved": 0, "is_disabled": 0, "rental_uris": {"android": "https://dc.lft.to/lastmile_qr_scan", "ios": "https://dc.lft.to/lastmile_qr_scan"}, "name": "a4ca8f6d57a35e6d4252a496e56f0595", "type": "electric_scooter"}, {"fusion_lat": 0.0, "bike_id": "18989590c43afbb0aaaa43aca71ff0b0", "fusion_lon": 0.0, "lon": -76.97325116666667, "lat": 38.90406383333333, "is_reserved": 0, "is_disabled": 0, "rental_uris": {"android": "https://dc.lft.to/lastmile_qr_scan", "ios": "https://dc.lft.to/lastmile_qr_scan"}, "name": "18989590c43afbb0aaaa43aca71ff0b0", "type": "electric_scooter"}, {"fusion_lat": 0.0, "bike_id": "7bf805ac6c45379b48ab939361fb0c97", "fusion_lon": 0.0, "lon": -76.98506633333334, "lat": 38.86010516666666, "is_reserved": 0, "is_disabled": 0, "rental_uris": {"android": "https://dc.lft.to/lastmile_qr_scan", "ios": "https://dc.lft.to/lastmile_qr_scan"}, "name": "7bf805ac6c45379b48ab939361fb0c97", "type": "electric_scooter"}, {"fusion_lat": 0.0, "bike_id": "a349028e15ff5efd3bd56e202adf6f00", "fusion_lon": 0.0, "lon": -76.93060933333334, "lat": 38.90152883333333, "is_reserved": 0, "is_disabled": 0, "rental_uris": {"android": "https://dc.lft.to/lastmile_qr_scan", "ios": "https://dc.lft.to/lastmile_qr_scan"}, "name": "a349028e15ff5efd3bd56e202adf6f00", "type": "electric_scooter"}, {"fusion_lat": 0.0, "bike_id": "d5c45f2b99ee4bac518ca6a761aa2fe7", "fusion_lon": 0.0, "lon": -77.02194983333334, "lat": 38.920837666666664, "is_reserved": 0, "is_disabled": 0, "rental_uris": {"android": "https://dc.lft.to/lastmile_qr_scan", "ios": "https://dc.lft.to/lastmile_qr_scan"}, "name": "d5c45f2b99ee4bac518ca6a761aa2fe7", "type": "electric_scooter"}, {"fusion_lat": 0.0, "bike_id": "a258bf13923cbc7703e6a99d5d6f360a", "fusion_lon": 0.0, "lon": -77.02007616666667, "lat": 38.919083666666666, "is_reserved": 0, "is_disabled": 0, "rental_uris": {"android": "https://dc.lft.to/lastmile_qr_scan", "ios": "https://dc.lft.to/lastmile_qr_scan"}, "name": "a258bf13923cbc7703e6a99d5d6f360a", "type": "electric_scooter"}, {"fusion_lat": 0.0, "bike_id": "927ed933afc28a9e3d1c470e9a2f0385", "fusion_lon": 0.0, "lon": -77.01898183333333, "lat": 38.93292616666667, "is_reserved": 0, "is_disabled": 0, "rental_uris": {"android": "https://dc.lft.to/lastmile_qr_scan", "ios": "https://dc.lft.to/lastmile_qr_scan"}, "name": "927ed933afc28a9e3d1c470e9a2f0385", "type": "electric_scooter"}, {"fusion_lat": 0.0, "bike_id": "68c4c5259e70df73f519590ce257563e", "fusion_lon": 0.0, "lon": -77.04773183333333, "lat": 38.921342833333334, "is_reserved": 0, "is_disabled": 0, "rental_uris": {"android": "https://dc.lft.to/lastmile_qr_scan", "ios": "https://dc.lft.to/lastmile_qr_scan"}, "name": "68c4c5259e70df73f519590ce257563e", "type": "electric_scooter"},