{"data": {"bikes": [{"lon": -77.02942983333334, "bike_id": "155e693c56edc64c5c649ea9a56158cd", "lat": 38.916941333333334, "fusion_lon": 0.0, "fusion_lat": 0.0, "type": "electric_scooter", "name": "155e693c56edc64c5c649ea9a56158cd", "is_disabled": 0, "rental_uris": {"ios": "https://dc.lft.to/lastmile_qr_scan", "android": "https://dc.lft.to/lastmile_qr_scan"}, "is_reserved": 0}, {"lon": -77.03225616666667, "bike_id": "cb66638ef3533d41913d62ed8a27b705", "lat": 38.91406166666667, "fusion_lon": 0.0, "fusion_lat": 0.0, "type": "electric_scooter", "name": "cb66638ef3533d41913d62ed8a27b705", "is_disabled": 0, "rental_uris": {"ios": "https://dc.lft.to/lastmile_qr_scan", "android": "https://dc.lft.to/lastmile_qr_scan"}, "is_reserved": 0}, {"lon": -77.01604033333334, "bike_id": "fc385df58a915fe3681f064de6283530", "lat": 38.876848333333335, "fusion_lon": 0.0, "fusion_lat": 0.0, "type": "electric_scooter", "name": "fc385df58a915fe3681f064de6283530", "is_disabled": 0, "rental_uris": {"ios": "https://dc.lft.to/lastmile_qr_scan", "android": "https://dc.lft.to/lastmile_qr_scan"}, "is_reserved": 0}, {"lon": -77.03286616666666, "bike_id": "a036eb815c28201a2a5886f40e743798", "lat": 38.9014855, "fusion_lon": 0.0, "fusion_lat": 0.0, "type": "electric_scooter", "name": "a036eb815c28201a2a5886f40e743798", "is_disabled": 0, "rental_uris": {"ios": "https://dc.lft.to/lastmile_qr_scan", "android": "https://dc.lft.to/lastmile_qr_scan"}, "is_reserved": 0}, {"lon": -77.02211816666667, "bike_id": "399cd552ce2331ce0eb87ecf463f16a1", "lat": 38.9127855, "fusion_lon": 0.0, "fusion_lat": 0.0, "type": "electric_scooter", "name": "399cd552ce2331ce0eb87ecf463f16a1", "is_disabled": 0, "rental_uris": {"ios": "https://dc.lft.to/lastmile_qr_scan", "android": "https://dc.lft.to/lastmile_qr_scan"}, "is_reserved": 0}, {"lon": -77.02183166666667, "bike_id": "8682cef0325cad288102af982c48ab55", "lat": 38.89474966666667, "fusion_lon": 0.0, "fusion_lat": 0.0, "type": "electric_scooter", "name": "8682cef0325cad288102af982c48ab55", "is_disabled": 0, "rental_uris": {"ios": "https://dc.lft.to/lastmile_qr_scan", "android": "https://dc.lft.to/lastmile_qr_scan"}, "is_reserved": 0}, {"lon": -77.02828266666667, "bike_id": "5d91fa1aa1d106a0c6d8947101ba8ddb", "lat": 38.887347, "fusion_lon": 0.0, "fusion_lat": 0.0, "type": "electric_scooter", "name": "5d91fa1aa1d106a0c6d8947101ba8ddb", "is_disabled": 0, "rental_uris": {"ios": "https://dc.lft.to/lastmile_qr_scan", "android": "https://dc.lft.to/lastmile_qr_scan"}, "is_reserved": 0}, {"lon": -77.0321245, "bike_id": "cf3e0a74f967fd9ad6f4a43156e2b379", "lat": 38.92874366666667, "fusion_lon": 0.0, "fusion_lat": 0.0, "type": "electric_scooter", "name": "cf3e0a74f967fd9ad6f4a43156e2b379", "is_disabled": 0, "rental_uris": {"ios": "https://dc.lft.to/lastmile_qr_scan", "android": "https://dc.lft.to/lastmile_qr_scan"}, "is_reserved": 0}, {"lon": -77.04727983333333, "bike_id": "76a0c8396cd877a02ecaeafd08eeb2a1", "lat": 38.90321983333333, "fusion_lon": 0.0, "fusion_lat": 0.0, "type": "electric_scooter", "name": "76a0c8396cd877a02ecaeafd08eeb2a1", "is_disabled": 0, "rental_uris": {"ios": "https://dc.lft.to/lastmile_qr_scan", "android": "https://dc.lft.to/lastmile_qr_scan"}, "is_reserved": 0}, {"lon": -77.02659333333334, "bike_id": "68d6069c1685755fff3b913f9937e7b8", "lat": 38.91706283333333, "fusion_lon": 0.0, "fusion_lat": 0.0, "type": "electric_scooter", "name": "68d6069c1685755fff3b913f9937e7b8", "is_disabled": 0, "rental_uris": {"ios": "https://dc.lft.to/lastmile_qr_scan", "android": "https://dc.lft.to/lastmile_qr_scan"}, "is_reserved": 0}, {"lon": -77.03275583333334, "bike_id": "33e774179f273ca80286a30c0919368e", "lat": 38.89852583333333, "fusion_lon": 0.0, "fusion_lat": 0.0, "type": "electric_scooter", "name": "33e774179f273ca80286a30c0919368e", "is_disabled": 0, "rental_uris": {"ios": "https://dc.lft.to/lastmile_qr_scan", "android": "https://dc.lft.to/lastmile_qr_scan"}, "is_reserved": 0}, {"lon": -77.05766783333333, "bike_id": "79888aa353010275170a4a9408517baa", "lat": 38.933863333333335, "fusion_lon": 0.0, "fusion_lat": 0.0, "type": "electric_scooter", "name": "79888aa353010275170a4a9408517baa", "is_disabled": 0, "rental_uris": {"ios": "https://dc.lft.to/lastmile_qr_scan", "android": "https://dc.lft.to/lastmile_qr_scan"}, "is_reserved": 0}, {"lon": -77.032723, "bike_id": "17bbb16a538822ac7c10170a78dd4025", "lat": 38.93077866666667, "fusion_lon": 0.0, "fusion_lat": 0.0, "type": "electric_scooter", "name": "17bbb16a538822ac7c10170a78dd4025", "is_disabled": 0, "rental_uris": {"ios": "https://dc.lft.to/lastmile_qr_scan", "android": "https://dc.lft.to/lastmile_qr_scan"}, "is_reserved": 0}, {"lon": -77.02582533333333, "bike_id": "346c6dafebda989dc7405c3f4d0677f0", "lat": 38.88736433333333, "fusion_lon": 0.0, "fusion_lat": 0.0, "type": "electric_scooter", "name": "346c6dafebda989dc7405c3f4d0677f0", "is_disabled": 0, "rental_uris": {"ios": "https://dc.lft.to/lastmile_qr_scan", "android": "https://dc.lft.to/lastmile_qr_scan"}, "is_reserved": 0}, {"lon": -77.01068766666667, "bike_id": "462507967115b20eb26d31ab5b07c903", "lat": 38.907219, "fusion_lon": 0.0, "fusion_lat": 0.0, "type": "electric_bike", "name": "462507967115b20eb26d31ab5b07c903", "is_disabled": 0, "rental_uris": {"ios": "https://dc.lft.to/lastmile_qr_scan", "android": "https://dc.lft.to/lastmile_qr_scan"}, "is_reserved": 0}, {"lon": -77.03251083333333, "bike_id": "1a51b8b38abc7ea3b75c1ebd7da93dec", "lat": 38.91990783333333, "fusion_lon": 0.0, "fusion_lat": 0.0, "type": "electric_scooter", "name": "1a51b8b38abc7ea3b75c1ebd7da93dec", "is_disabled": 0, "rental_uris": {"ios": "https://dc.lft.to/lastmile_qr_scan", "android": "https://dc.lft.to/lastmile_qr_scan"}, "is_reserved": 0}, {"lon": -77.02591266666667, "bike_id": "234926d45ddfba39365945d00b6e6d73", "lat": 38.942069333333336, "fusion_lon": 0.0, "fusion_lat": 0.0, "type": "electric_scooter", "name": "234926d45ddfba39365945d00b6e6d73", "is_disabled": 0, "rental_uris": {"ios": "https://dc.lft.to/lastmile_qr_scan", "android": "https://dc.lft.to/lastmile_qr_scan"}, "is_reserved": 0}, {"lon": -77.00908583333333, "bike_id": "e27c8f157033f9d2c60911380928f4e5", "lat": 38.961359333333334, "fusion_lon": 0.0, "fusion_lat": 0.0, "type": "electric_scooter", "name": "e27c8f157033f9d2c60911380928f4e5", "is_disabled": 0, "rental_uris": {"ios": "https://dc.lft.to/lastmile_qr_scan", "android": "https://dc.lft.to/lastmile_qr_scan"}, "is_reserved": 0}, {"lon": -76.93304616666667, "bike_id": "3f748ecf01e175b07959a7ed651254de", "lat": 38.9010385, "fusion_lon": 0.0, "fusion_lat": 0.0, "type": "electric_scooter", "name": "3f748ecf01e175b07959a7ed651254de", "is_disabled": 0, "rental_uris": {"ios": "https://dc.lft.to/lastmile_qr_scan", "android": "https://dc.lft.to/lastmile_qr_scan"}, "is_reserved": 0}, {"lon": -77.02002233333333, "bike_id": "e9fe0d8c6353f2ecdf4229c8d0042040", "lat": 38.900997833333335, "fusion_lon": 0.0, "fusion_lat": 0.0, "type": "electric_scooter", "name": "e9fe0d8c6353f2ecdf4229c8d0042040", "is_disabled": 0, "rental_uris": {"ios": "https://dc.lft.to/lastmile_qr_scan", "android": "https://dc.lft.to/lastmile_qr_scan"}, "is_reserved": 0}, {"lon": -76.99389466666666, "bike_id": "5833b8229d880b6f12236b734f5748a8", "lat": 38.89205466666667, "fusion_lon": 0.0, "fusion_lat": 0.0, "type": "electric_scooter", "name": "5833b8229d880b6f12236b734f5748a8", "is_disabled": 0, "rental_uris": {"ios": "https://dc.lft.to/lastmile_qr_scan", "android": "https://dc.lft.to/lastmile_qr_scan"}, "is_reserved": 0}, {"lon": -77.076029, "bike_id": "67bdd7fdee00d3efd8c537008c904d24", "lat": 38.912180166666666, "fusion_lon": 0.0, "fusion_lat": 0.0, "type": "electric_scooter", "name": "67bdd7fdee00d3efd8c537008c904d24", "is_disabled": 0, "rental_uris": {"ios": "https://dc.lft.to/lastmile_qr_scan", "android": "https://dc.lft.to/lastmile_qr_scan"}, "is_reserved": 0}, {"lon": -77.10648783333333, "bike_id": "577901eb3be932a888dbdf0dde36dde3", "lat": 38.93610816666666, "fusion_lon": 0.0, "fusion_lat": 0.0, "type": "electric_bike", "name": "577901eb3be932a888dbdf0dde36dde3", "is_disabled": 0, "rental_uris": {"ios": "https://dc.lft.to/lastmile_qr_scan", "android": "https://dc.lft.to/lastmile_qr_scan"}, "is_reserved": 0}, {"lon": -77.00568133333333, "bike_id": "ffcdf8e17859fd0d10b1d7d3c6775a6d", "lat": 38.902088, "fusion_lon": 0.0, "fusion_lat": 0.0, "type": "electric_scooter", "name": "ffcdf8e17859fd0d10b1d7d3c6775a6d", "is_disabled": 0, "rental_uris": {"ios": "https://dc.lft.to/lastmile_qr_scan", "android": "https://dc.lft.to/lastmile_qr_scan"}, "is_reserved": 0}, {"lon": -77.02984183333334, "bike_id": "1abc008f51a4bf3fc2ab02f4523a5c88", "lat": 38.930668833333335, "fusion_lon": 0.0, "fusion_lat": 0.0, "type": "electric_scooter", "name": "1abc008f51a4bf3fc2ab02f4523a5c88", "is_disabled": 0, "rental_uris": {"ios": "https://dc.lft.to/lastmile_qr_scan", "android": "https://dc.lft.to/lastmile_qr_scan"}, "is_reserved": 0}, {"lon": -77.04820066666667, "bike_id": "9f67cef92cfd7a6c37fecb215a0fdc56", "lat": 38.909684666666664, "fusion_lon": 0.0, "fusion_lat": 0.0, "type": "electric_scooter", "name": "9f67cef92cfd7a6c37fecb215a0fdc56", "is_disabled": 0, "rental_uris": {"ios": "https://dc.lft.to/lastmile_qr_scan", "android": "https://dc.lft.to/lastmile_qr_scan"}, "is_reserved": 0}, {"lon": -77.04351166666666, "bike_id": "0ba6afc66920a50ba581ae6b980a4dd2", "lat": 38.921528, "fusion_lon": 0.0, "fusion_lat": 0.0, "type": "electric_scooter", "name": "0ba6afc66920a50ba581ae6b980a4dd2", "is_disabled": 0, "rental_uris": {"ios": "https://dc.lft.to/lastmile_qr_scan", "android": "https://dc.lft.to/lastmile_qr_scan"}, "is_reserved": 0}, {"lon": -77.03210583333333, "bike_id": "490557cae28534ddafdfd5ef26ef87d1", "lat": 38.90369366666667, "fusion_lon": 0.0, "fusion_lat": 0.0, "type": "electric_scooter", "name": "490557cae28534ddafdfd5ef26ef87d1", "is_disabled": 0, "rental_uris": {"ios": "https://dc.lft.to/lastmile_qr_scan", "android": "https://dc.lft.to/lastmile_qr_scan"}, "is_reserved": 0}, {"lon": -77.12492766666666, "bike_id": "5eca405000ece79344f8a7a793b171ee", "lat": 38.82789533333333, "fusion_lon": 0.0, "fusion_lat": 0.0, "type": "electric_bike", "name": "5eca405000ece79344f8a7a793b171ee", "is_disabled": 0, "rental_uris": {"ios": "https://dc.lft.to/lastmile_qr_scan", "android": "https://dc.lft.to/lastmile_qr_scan"}, "is_reserved": 0}, {"lon": -76.99853716666667, "bike_id": "9e9d8a133e234f4bca63723fb12d705d", "lat": 38.84162533333333, "fusion_lon": 0.0, "fusion_lat": 0.0, "type": "electric_scooter", "name": "9e9d8a133e234f4bca63723fb12d705d", "is_disabled": 0, "rental_uris": {"ios": "https://dc.lft.to/lastmile_qr_scan", "android": "https://dc.lft.to/lastmile_qr_scan"}, "is_reserved": 0}, {"lon": -77.04652883333333, "bike_id": "6b8d23374389ad440324617fabca1f71", "lat": 38.90019516666667, "fusion_lon": 0.0, "fusion_lat": 0.0, "type": "electric_scooter", "name": "6b8d23374389ad440324617fabca1f71", "is_disabled": 0, "rental_uris": {"ios": "https://dc.lft.to/lastmile_qr_scan", "android": "https://dc.lft.to/lastmile_qr_scan"}, "is_reserved": 0}, {"lon": -77.0330895, "bike_id": "98259fd050d405f95df29239af275246", "lat": 38.898233166666664, "fusion_lon": 0.0, "fusion_lat": 0.0, "type": "electric_scooter", "name": "98259fd050d405f95df29239af275246", "is_disabled": 0, "rental_uris": {"ios": "https://dc.lft.to/lastmile_qr_scan", "android": "https://dc.lft.to/lastmile_qr_scan"}, "is_reserved": 0}, {"lon": -77.02709333333334, "bike_id": "b2ba2b6f21caa88d3ada01116b02a908", "lat": 38.9348345, "fusion_lon": 0.0, "fusion_lat": 0.0, "type": "electric_scooter", "name": "b2ba2b6f21caa88d3ada01116b02a908", "is_disabled": 0, "rental_uris": {"ios": "https://dc.lft.to/lastmile_qr_scan", "android": "https://dc.lft.to/lastmile_qr_scan"}, "is_reserved": 0}, {"lon": -77.00282633333333, "bike_id": "4bc1da05ca326e99522aa5b012c0090e", "lat": 38.957127, "fusion_lon": 0.0, "fusion_lat": 0.0, "type": "electric_bike", "name": "4bc1da05ca326e99522aa5b012c0090e", "is_disabled": 0, "rental_uris": {"ios": "https://dc.lft.to/lastmile_qr_scan", "android": "https://dc.lft.to/lastmile_qr_scan"}, "is_reserved": 0}, {"lon": -76.98560916666666, "bike_id": "b177127293d5090fb599e5f45c31d7b6", "lat": 38.899564166666664, "fusion_lon": 0.0, "fusion_lat": 0.0, "type": "electric_scooter", "name": "b177127293d5090fb599e5f45c31d7b6", "is_disabled": 0, "rental_uris": {"ios": "https://dc.lft.to/lastmile_qr_scan", "android": "https://dc.lft.to/lastmile_qr_scan"}, "is_reserved": 0}, {"lon": -77.03369416666666, "bike_id": "78f61885875b27a01884bf314010f91a", "lat": 38.9016845, "fusion_lon": 0.0, "fusion_lat": 0.0, "type": "electric_scooter", "name": "78f61885875b27a01884bf314010f91a", "is_disabled": 0, "rental_uris": {"ios": "https://dc.lft.to/lastmile_qr_scan", "android": "https://dc.lft.to/lastmile_qr_scan"}, "is_reserved": 0}, {"lon": -76.9872055, "bike_id": "2a10da2085a32389ce5d177379b4e997", "lat": 38.86625633333333, "fusion_lon": 0.0, "fusion_lat": 0.0, "type": "electric_scooter", "name": "2a10da2085a32389ce5d177379b4e997", "is_disabled": 0, "rental_uris": {"ios": "https://dc.lft.to/lastmile_qr_scan", "android": "https://dc.lft.to/lastmile_qr_scan"}, "is_reserved": 0}, {"lon": -77.0212085, "bike_id": "9ba1cd5fb70152084871c47d14dcaf3a", "lat": 38.92240133333333, "fusion_lon": 0.0, "fusion_lat": 0.0, "type": "electric_scooter", "name": "9ba1cd5fb70152084871c47d14dcaf3a", "is_disabled": 0, "rental_uris": {"ios": "https://dc.lft.to/lastmile_qr_scan", "android": "https://dc.lft.to/lastmile_qr_scan"}, "is_reserved": 0}, {"lon": -77.05807283333333, "bike_id": "1e762f67afb69dfdc14fd6a8ca787405", "lat": 38.82398366666666, "fusion_lon": 0.0, "fusion_lat": 0.0, "type": "electric_bike", "name": "1e762f67afb69dfdc14fd6a8ca787405", "is_disabled": 0, "rental_uris": {"ios": "https://dc.lft.to/lastmile_qr_scan", "android": "https://dc.lft.to/lastmile_qr_scan"}, "is_reserved": 0}, {"lon": -77.0257875, "bike_id": "028a5663f7f467f7294b2aee627613dd", "lat": 38.89262516666667, "fusion_lon": 0.0, "fusion_lat": 0.0, "type": "electric_scooter", "name": "028a5663f7f467f7294b2aee627613dd", "is_disabled": 0, "rental_uris": {"ios": "https://dc.lft.to/lastmile_qr_scan", "android": "https://dc.lft.to/lastmile_qr_scan"}, "is_reserved": 0}, {"lon": -77.07435216666667, "bike_id": "09384d9716593eacb9e414d7c2eb37e1", "lat": 38.99948233333333, "fusion_lon": 0.0, "fusion_lat": 0.0, "type": "electric_bike", "name": "09384d9716593eacb9e414d7c2eb37e1", "is_disabled": 0, "rental_uris": {"ios": "https://dc.lft.to/lastmile_qr_scan", "android": "https://dc.lft.to/lastmile_qr_scan"}, "is_reserved": 0}, {"lon": -76.98943033333333, "bike_id": "bdfd065c47ee085bc24d3f2729298bf6", "lat": 38.9039655, "fusion_lon": 0.0, "fusion_lat": 0.0, "type": "electric_scooter", "name": "bdfd065c47ee085bc24d3f2729298bf6", "is_disabled": 0, "rental_uris": {"ios": "https://dc.lft.to/lastmile_qr_scan", "android": "https://dc.lft.to/lastmile_qr_scan"}, "is_reserved": 0}, {"lon": -76.94924216666666, "bike_id": "821ce0a73df08b33d4f12807236ccb81", "lat": 38.89357033333334, "fusion_lon": 0.0, "fusion_lat": 0.0, "type": "electric_scooter", "name": "821ce0a73df08b33d4f12807236ccb81", "is_disabled": 0, "rental_uris": {"ios": "https://dc.lft.to/lastmile_qr_scan", "android": "https://dc.lft.to/lastmile_qr_scan"}, "is_reserved": 0}, {"lon": -77.04908816666666, "bike_id": "4b859bb6bbe4557feb0bc52cfa18bfef", "lat": 38.900744833333334, "fusion_lon": 0.0, "fusion_lat": 0.0, "type": "electric_scooter", "name": "4b859bb6bbe4557feb0bc52cfa18bfef", "is_disabled": 0, "rental_uris": {"ios": "https://dc.lft.to/lastmile_qr_scan", "android": "https://dc.lft.to/lastmile_qr_scan"}, "is_reserved": 0}, {"lon": -77.02173916666666, "bike_id": "12c65a90b691c02e7d011517033eb688", "lat": 38.88726966666667, "fusion_lon": 0.0, "fusion_lat": 0.0, "type": "electric_scooter", "name": "12c65a90b691c02e7d011517033eb688", "is_disabled": 0, "rental_uris": {"ios": "https://dc.lft.to/lastmile_qr_scan", "android": "https://dc.lft.to/lastmile_qr_scan"}, "is_reserved": 0}, {"lon": -77.02363433333333, "bike_id": "30c5c8e9475b696bc8ce6c6e7ced8ae7", "lat": 38.892228, "fusion_lon": 0.0, "fusion_lat": 0.0, "type": "electric_scooter", "name": "30c5c8e9475b696bc8ce6c6e7ced8ae7", "is_disabled": 0, "rental_uris": {"ios": "https://dc.lft.to/lastmile_qr_scan", "android": "https://dc.lft.to/lastmile_qr_scan"}, "is_reserved": 0}, {"lon": -77.03458616666667, "bike_id": "bbb9236f58e8c7f5e2610ccd154af6c6", "lat": 38.908739833333335, "fusion_lon": 0.0, "fusion_lat": 0.0, "type": "electric_scooter", "name": "bbb9236f58e8c7f5e2610ccd154af6c6", "is_disabled": 0, "rental_uris": {"ios": "https://dc.lft.to/lastmile_qr_scan", "android": "https://dc.lft.to/lastmile_qr_scan"}, "is_reserved": 0}, {"lon": -76.9653045, "bike_id": "f3739557ab57e1e06880b4363506cb96", "lat": 38.87621983333333, "fusion_lon": 0.0, "fusion_lat": 0.0, "type": "electric_scooter", "name": "f3739557ab57e1e06880b4363506cb96", "is_disabled": 0, "rental_uris": {"ios": "https://dc.lft.to/lastmile_qr_scan", "android": "https://dc.lft.to/lastmile_qr_scan"}, "is_reserved": 0}, {"lon": -77.0600925, "bike_id": "d25befc0eeb45a11d81a56a5eb9b6515", "lat": 38.901187666666665, "fusion_lon": 0.0, "fusion_lat": 0.0, "type": "electric_scooter", "name": "d25befc0eeb45a11d81a56a5eb9b6515", "is_disabled": 0, "rental_uris": {"ios": "https://dc.lft.to/lastmile_qr_scan", "android": "https://dc.lft.to/lastmile_qr_scan"}, "is_reserved": 0}, {"lon": -77.007467, "bike_id": "82c9a8100f4e874693a97891dead112e", "lat": 38.8984455, "fusion_lon": 0.0, "fusion_lat": 0.0, "type": "electric_scooter", "name": "82c9a8100f4e874693a97891dead112e", "is_disabled": 0, "rental_uris": {"ios": "https://dc.lft.to/lastmile_qr_scan", "android": "https://dc.lft.to/lastmile_qr_scan"}, "is_reserved": 0}, {"lon": -77.03187433333333, "bike_id": "4b2dafd26ac8dbe831b1ebc7f40c496a", "lat": 38.916331, "fusion_lon": 0.0, "fusion_lat": 0.0, "type": "electric_scooter", "name": "4b2dafd26ac8dbe831b1ebc7f40c496a", "is_disabled": 0, "rental_uris": {"ios": "https://dc.lft.to/lastmile_qr_scan", "android": "https://dc.lft.to/lastmile_qr_scan"}, "is_reserved": 0}, {"lon": -77.05007783333333, "bike_id": "14aded27ca434d7614fb99fc9ed6e443", "lat": 38.9010775, "fusion_lon": 0.0, "fusion_lat": 0.0, "type": "electric_scooter", "name": "14aded27ca434d7614fb99fc9ed6e443", "is_disabled": 0, "rental_uris": {"ios": "https://dc.lft.to/lastmile_qr_scan", "android": "https://dc.lft.to/lastmile_qr_scan"}, "is_reserved": 0}, {"lon": -76.98495816666667, "bike_id": "8ad18c493c1bfae61051b7639d19d291", "lat": 38.878323, "fusion_lon": 0.0, "fusion_lat": 0.0, "type": "electric_scooter", "name": "8ad18c493c1bfae61051b7639d19d291", "is_disabled": 0, "rental_uris": {"ios": "https://dc.lft.to/lastmile_qr_scan", "android": "https://dc.lft.to/lastmile_qr_scan"}, "is_reserved": 0}, {"lon": -76.98900916666666, "bike_id": "33107e3008f3ba8e2b9f0b53341f8367", "lat": 38.8667265, "fusion_lon": 0.0, "fusion_lat": 0.0, "type": "electric_scooter", "name": "33107e3008f3ba8e2b9f0b53341f8367", "is_disabled": 0, "rental_uris": {"ios": "https://dc.lft.to/lastmile_qr_scan", "android": "https://dc.lft.to/lastmile_qr_scan"}, "is_reserved": 0}, {"lon": -77.01899783333333, "bike_id": "341a85582c8475dc98b589557cef21a1", "lat": 38.9089755, "fusion_lon": 0.0, "fusion_lat": 0.0, "type": "electric_scooter", "name": "341a85582c8475dc98b589557cef21a1", "is_disabled": 0, "rental_uris": {"ios": "https://dc.lft.to/lastmile_qr_scan", "android": "https://dc.lft.to/lastmile_qr_scan"}, "is_reserved": 0}, {"lon": -77.022539, "bike_id": "816d9503c91a6aeacca4029259681005", "lat": 38.924709, "fusion_lon": 0.0, "fusion_lat": 0.0, "type": "electric_scooter", "name": "816d9503c91a6aeacca4029259681005", "is_disabled": 0, "rental_uris": {"ios": "https://dc.lft.to/lastmile_qr_scan", "android": "https://dc.lft.to/lastmile_qr_scan"}, "is_reserved": 0}, {"lon": -77.0449705, "bike_id": "733b231bc1b56938f7e4677db151ee63", "lat": 38.91361933333334, "fusion_lon": 0.0, "fusion_lat": 0.0, "type": "electric_scooter", "name": "733b231bc1b56938f7e4677db151ee63", "is_disabled": 0, "rental_uris": {"ios": "https://dc.lft.to/lastmile_qr_scan", "android": "https://dc.lft.to/lastmile_qr_scan"}, "is_reserved": 0}, {"lon": -77.059226, "bike_id": "318e5c01cbf4d96493826f10545f5470", "lat": 38.903896833333334, "fusion_lon": 0.0, "fusion_lat": 0.0, "type": "electric_bike", "name": "318e5c01cbf4d96493826f10545f5470", "is_disabled": 0, "rental_uris": {"ios": "https://dc.lft.to/lastmile_qr_scan", "android": "https://dc.lft.to/lastmile_qr_scan"}, "is_reserved": 0}, {"lon": -77.00601033333334, "bike_id": "24b1eccd7e4b3fe000f6c337fd561319", "lat": 38.871884, "fusion_lon": 0.0, "fusion_lat": 0.0, "type": "electric_scooter", "name": "24b1eccd7e4b3fe000f6c337fd561319", "is_disabled": 0, "rental_uris": {"ios": "https://dc.lft.to/lastmile_qr_scan", "android": "https://dc.lft.to/lastmile_qr_scan"}, "is_reserved": 0}, {"lon": -77.04502183333334, "bike_id": "a6c5f2995b93b59c287f890f8e0a325c", "lat": 38.89227416666667, "fusion_lon": 0.0, "fusion_lat": 0.0, "type": "electric_scooter", "name": "a6c5f2995b93b59c287f890f8e0a325c", "is_disabled": 0, "rental_uris": {"ios": "https://dc.lft.to/lastmile_qr_scan", "android": "https://dc.lft.to/lastmile_qr_scan"}, "is_reserved": 0}, {"lon": -77.05318633333333, "bike_id": "1b3b236946f238a5c5ad90f4caea7226", "lat": 38.941063, "fusion_lon": 0.0, "fusion_lat": 0.0, "type": "electric_bike", "name": "1b3b236946f238a5c5ad90f4caea7226", "is_disabled": 0, "rental_uris": {"ios": "https://dc.lft.to/lastmile_qr_scan", "android": "https://dc.lft.to/lastmile_qr_scan"}, "is_reserved": 0}, {"lon": -77.03197216666666, "bike_id": "0640d1d1539150fce98f654b0f33bd58", "lat": 38.90996033333333, "fusion_lon": 0.0, "fusion_lat": 0.0, "type": "electric_scooter", "name": "0640d1d1539150fce98f654b0f33bd58", "is_disabled": 0, "rental_uris": {"ios": "https://dc.lft.to/lastmile_qr_scan", "android": "https://dc.lft.to/lastmile_qr_scan"}, "is_reserved": 0}, {"lon": -77.01968016666666, "bike_id": "8b5309d916eecd666cd37ce6247e0cb0", "lat": 38.9192895, "fusion_lon": 0.0, "fusion_lat": 0.0, "type": "electric_scooter", "name": "8b5309d916eecd666cd37ce6247e0cb0", "is_disabled": 0, "rental_uris": {"ios": "https://dc.lft.to/lastmile_qr_scan", "android": "https://dc.lft.to/lastmile_qr_scan"}, "is_reserved": 0}, {"lon": -77.02702766666667, "bike_id": "6ad2c6e8677808dc1c58686dc2936210", "lat": 38.9066555, "fusion_lon": 0.0, "fusion_lat": 0.0, "type": "electric_scooter", "name": "6ad2c6e8677808dc1c58686dc2936210", "is_disabled": 0, "rental_uris": {"ios": "https://dc.lft.to/lastmile_qr_scan", "android": "https://dc.lft.to/lastmile_qr_scan"}, "is_reserved": 0}, {"lon": -76.96386383333333, "bike_id": "0a6917d3be8352089a62e84ae77cf9fa", "lat": 38.95173333333334, "fusion_lon": 0.0, "fusion_lat": 0.0, "type": "electric_bike", "name": "0a6917d3be8352089a62e84ae77cf9fa", "is_disabled": 0, "rental_uris": {"ios": "https://dc.lft.to/lastmile_qr_scan", "android": "https://dc.lft.to/lastmile_qr_scan"}, "is_reserved": 0}, {"lon": -77.00742816666667, "bike_id": "d5d7db82910738b45c148d29fd5ba4ee", "lat": 38.92531983333333, "fusion_lon": 0.0, "fusion_lat": 0.0, "type": "electric_scooter", "name": "d5d7db82910738b45c148d29fd5ba4ee", "is_disabled": 0, "rental_uris": {"ios": "https://dc.lft.to/lastmile_qr_scan", "android": "https://dc.lft.to/lastmile_qr_scan"}, "is_reserved": 0}, {"lon": -77.02244483333334, "bike_id": "dcdd34ab78b1cf38afad78034b99e9cc", "lat": 38.891986333333335, "fusion_lon": 0.0, "fusion_lat": 0.0, "type": "electric_scooter", "name": "dcdd34ab78b1cf38afad78034b99e9cc", "is_disabled": 0, "rental_uris": {"ios": "https://dc.lft.to/lastmile_qr_scan", "android": "https://dc.lft.to/lastmile_qr_scan"}, "is_reserved": 0}, {"lon": -77.04153116666667, "bike_id": "5b82d7cc5674f1b4a99f194cbbef4bfd", "lat": 38.9229665, "fusion_lon": 0.0, "fusion_lat": 0.0, "type": "electric_scooter", "name": "5b82d7cc5674f1b4a99f194cbbef4bfd", "is_disabled": 0, "rental_uris": {"ios": "https://dc.lft.to/lastmile_qr_scan", "android": "https://dc.lft.to/lastmile_qr_scan"}, "is_reserved": 0}, {"lon": -77.22800533333333, "bike_id": "b8a4939b2a2b22a8de6001b9abe7277b", "lat": 38.9101865, "fusion_lon": 0.0, "fusion_lat": 0.0, "type": "electric_bike", "name": "b8a4939b2a2b22a8de6001b9abe7277b", "is_disabled": 0, "rental_uris": {"ios": "https://dc.lft.to/lastmile_qr_scan", "android": "https://dc.lft.to/lastmile_qr_scan"}, "is_reserved": 0}, {"lon": -77.0272445, "bike_id": "238c96d84e637315a5676991053d9c69", "lat": 38.89755566666667, "fusion_lon": 0.0, "fusion_lat": 0.0, "type": "electric_scooter", "name": "238c96d84e637315a5676991053d9c69", "is_disabled": 0, "rental_uris": {"ios": "https://dc.lft.to/lastmile_qr_scan", "android": "https://dc.lft.to/lastmile_qr_scan"}, "is_reserved": 0}, {"lon": -77.03179316666667, "bike_id": "4d4909f0a65c882c630301979c8ee55f", "lat": 38.887410333333335, "fusion_lon": 0.0, "fusion_lat": 0.0, "type": "electric_scooter", "name": "4d4909f0a65c882c630301979c8ee55f", "is_disabled": 0, "rental_uris": {"ios": "https://dc.lft.to/lastmile_qr_scan", "android": "https://dc.lft.to/lastmile_qr_scan"}, "is_reserved": 0}, {"lon": -77.02802816666667, "bike_id": "62bc78987da3dc4c800fa7072f6b15fa", "lat": 38.91218933333333, "fusion_lon": 0.0, "fusion_lat": 0.0, "type": "electric_scooter", "name": "62bc78987da3dc4c800fa7072f6b15fa", "is_disabled": 0, "rental_uris": {"ios": "https://dc.lft.to/lastmile_qr_scan", "android": "https://dc.lft.to/lastmile_qr_scan"}, "is_reserved": 0}, {"lon": -77.03123966666666, "bike_id": "62662028513b67ddf3804d586f75a018", "lat": 38.98833466666667, "fusion_lon": 0.0, "fusion_lat": 0.0, "type": "electric_scooter", "name": "62662028513b67ddf3804d586f75a018", "is_disabled": 0, "rental_uris": {"ios": "https://dc.lft.to/lastmile_qr_scan", "android": "https://dc.lft.to/lastmile_qr_scan"}, "is_reserved": 0}, {"lon": -77.025719, "bike_id": "5e00d5f0b4380fec13ba9b98b91d6584", "lat": 38.92575266666667, "fusion_lon": 0.0, "fusion_lat": 0.0, "type": "electric_scooter", "name": "5e00d5f0b4380fec13ba9b98b91d6584", "is_disabled": 0, "rental_uris": {"ios": "https://dc.lft.to/lastmile_qr_scan", "android": "https://dc.lft.to/lastmile_qr_scan"}, "is_reserved": 0}, {"lon": -77.02792816666667, "bike_id": "e983be9e6606f6d388cfafde79cb2eed", "lat": 38.954195, "fusion_lon": 0.0, "fusion_lat": 0.0, "type": "electric_scooter", "name": "e983be9e6606f6d388cfafde79cb2eed", "is_disabled": 0, "rental_uris": {"ios": "https://dc.lft.to/lastmile_qr_scan", "android": "https://dc.lft.to/lastmile_qr_scan"}, "is_reserved": 0}, {"lon": -77.03155566666666, "bike_id": "119a4c2aeffad11b877adf1dcb54fee8", "lat": 38.903635666666666, "fusion_lon": 0.0, "fusion_lat": 0.0, "type": "electric_scooter", "name": "119a4c2aeffad11b877adf1dcb54fee8", "is_disabled": 0, "rental_uris": {"ios": "https://dc.lft.to/lastmile_qr_scan", "android": "https://dc.lft.to/lastmile_qr_scan"}, "is_reserved": 0}, {"lon": -77.04236883333333, "bike_id": "13cb35cfe9aabc5998071d76288a014c", "lat": 38.91642316666667, "fusion_lon": 0.0, "fusion_lat": 0.0, "type": "electric_scooter", "name": "13cb35cfe9aabc5998071d76288a014c", "is_disabled": 0, "rental_uris": {"ios": "https://dc.lft.to/lastmile_qr_scan", "android": "https://dc.lft.to/lastmile_qr_scan"}, "is_reserved": 0}, {"lon": -76.9883405, "bike_id": "b4efbf686e9c93ab1f2c1556b52192df", "lat": 38.900854, "fusion_lon": 0.0, "fusion_lat": 0.0, "type": "electric_scooter", "name": "b4efbf686e9c93ab1f2c1556b52192df", "is_disabled": 0, "rental_uris": {"ios": "https://dc.lft.to/lastmile_qr_scan", "android": "https://dc.lft.to/lastmile_qr_scan"}, "is_reserved": 0}, {"lon": -77.03345466666667, "bike_id": "95dbd56b378a1ee2c308ad2d9c106183", "lat": 38.91923583333333, "fusion_lon": 0.0, "fusion_lat": 0.0, "type": "electric_scooter", "name": "95dbd56b378a1ee2c308ad2d9c106183", "is_disabled": 0, "rental_uris": {"ios": "https://dc.lft.to/lastmile_qr_scan", "android": "https://dc.lft.to/lastmile_qr_scan"}, "is_reserved": 0}, {"lon": -77.02101983333333, "bike_id": "af6e35cfee0d5e67382e2212ce510b84", "lat": 38.922262333333336, "fusion_lon": 0.0, "fusion_lat": 0.0, "type": "electric_scooter", "name": "af6e35cfee0d5e67382e2212ce510b84", "is_disabled": 0, "rental_uris": {"ios": "https://dc.lft.to/lastmile_qr_scan", "android": "https://dc.lft.to/lastmile_qr_scan"}, "is_reserved": 0}, {"lon": -76.99474766666667, "bike_id": "aadbc831b12ccd0ed435cd235ec3bda4", "lat": 38.862209166666666, "fusion_lon": 0.0, "fusion_lat": 0.0, "type": "electric_scooter", "name": "aadbc831b12ccd0ed435cd235ec3bda4", "is_disabled": 0, "rental_uris": {"ios": "https://dc.lft.to/lastmile_qr_scan", "android": "https://dc.lft.to/lastmile_qr_scan"}, "is_reserved": 0}, {"lon": -77.03381416666667, "bike_id": "b6fb55b4d773161021ee7b151b3b3a77", "lat": 38.921658, "fusion_lon": 0.0, "fusion_lat": 0.0, "type": "electric_scooter", "name": "b6fb55b4d773161021ee7b151b3b3a77", "is_disabled": 0, "rental_uris": {"ios": "https://dc.lft.to/lastmile_qr_scan", "android": "https://dc.lft.to/lastmile_qr_scan"}, "is_reserved": 0}, {"lon": -77.02589733333333, "bike_id": "2b77f5b0137d35e233a91247c6e63337", "lat": 38.89282016666667, "fusion_lon": 0.0, "fusion_lat": 0.0, "type": "electric_scooter", "name": "2b77f5b0137d35e233a91247c6e63337", "is_disabled": 0, "rental_uris": {"ios": "https://dc.lft.to/lastmile_qr_scan", "android": "https://dc.lft.to/lastmile_qr_scan"}, "is_reserved": 0}, {"lon": -77.02367883333334, "bike_id": "cac21b3b3db67e6d18d61a964a53b41a", "lat": 38.8847965, "fusion_lon": 0.0, "fusion_lat": 0.0, "type": "electric_scooter", "name": "cac21b3b3db67e6d18d61a964a53b41a", "is_disabled": 0, "rental_uris": {"ios": "https://dc.lft.to/lastmile_qr_scan", "android": "https://dc.lft.to/lastmile_qr_scan"}, "is_reserved": 0}, {"lon": -77.08030916666667, "bike_id": "5de3415f150ea0c30210fa8dfbdb4c48", "lat": 38.950567666666664, "fusion_lon": 0.0, "fusion_lat": 0.0, "type": "electric_scooter", "name": "5de3415f150ea0c30210fa8dfbdb4c48", "is_disabled": 0, "rental_uris": {"ios": "https://dc.lft.to/lastmile_qr_scan", "android": "https://dc.lft.to/lastmile_qr_scan"}, "is_reserved": 0}, {"lon": -77.05178566666666, "bike_id": "1135c28bd4223adca912f52ac362f37a", "lat": 38.9242805, "fusion_lon": 0.0, "fusion_lat": 0.0, "type": "electric_scooter", "name": "1135c28bd4223adca912f52ac362f37a", "is_disabled": 0, "rental_uris": {"ios": "https://dc.lft.to/lastmile_qr_scan", "android": "https://dc.lft.to/lastmile_qr_scan"}, "is_reserved": 0}, {"lon": -77.06121683333333, "bike_id": "93cdfe7740e17e02098929db5a848329", "lat": 38.943646333333334, "fusion_lon": 0.0, "fusion_lat": 0.0, "type": "electric_scooter", "name": "93cdfe7740e17e02098929db5a848329", "is_disabled": 0, "rental_uris": {"ios": "https://dc.lft.to/lastmile_qr_scan", "android": "https://dc.lft.to/lastmile_qr_scan"}, "is_reserved": 0}, {"lon": -77.01445466666667, "bike_id": "751dd3cf78cb66114b606ce5393677ec", "lat": 38.92068233333333, "fusion_lon": 0.0, "fusion_lat": 0.0, "type": "electric_scooter", "name": "751dd3cf78cb66114b606ce5393677ec", "is_disabled": 0, "rental_uris": {"ios": "https://dc.lft.to/lastmile_qr_scan", "android": "https://dc.lft.to/lastmile_qr_scan"}, "is_reserved": 0}, {"lon": -77.05608416666666, "bike_id": "87dda88594adaad5f09ac0e47ebbf260", "lat": 38.931673333333336, "fusion_lon": 0.0, "fusion_lat": 0.0, "type": "electric_scooter", "name": "87dda88594adaad5f09ac0e47ebbf260", "is_disabled": 0, "rental_uris": {"ios": "https://dc.lft.to/lastmile_qr_scan", "android": "https://dc.lft.to/lastmile_qr_scan"}, "is_reserved": 0}, {"lon": -76.98369883333334, "bike_id": "91462fc6076747633b7c264cd1ff367c", "lat": 38.88970116666667, "fusion_lon": 0.0, "fusion_lat": 0.0, "type": "electric_scooter", "name": "91462fc6076747633b7c264cd1ff367c", "is_disabled": 0, "rental_uris": {"ios": "https://dc.lft.to/lastmile_qr_scan", "android": "https://dc.lft.to/lastmile_qr_scan"}, "is_reserved": 0}, {"lon": -77.00198433333334, "bike_id": "d0ee3d42008bffb5ec8ae7f0d4e186c0", "lat": 38.9004065, "fusion_lon": 0.0, "fusion_lat": 0.0, "type": "electric_scooter", "name": "d0ee3d42008bffb5ec8ae7f0d4e186c0", "is_disabled": 0, "rental_uris": {"ios": "https://dc.lft.to/lastmile_qr_scan", "android": "https://dc.lft.to/lastmile_qr_scan"}, "is_reserved": 0}, {"lon": -77.0317405, "bike_id": "b5c2e5e3618803be364066339f3f2044", "lat": 38.892001, "fusion_lon": 0.0, "fusion_lat": 0.0, "type": "electric_scooter", "name": "b5c2e5e3618803be364066339f3f2044", "is_disabled": 0, "rental_uris": {"ios": "https://dc.lft.to/lastmile_qr_scan", "android": "https://dc.lft.to/lastmile_qr_scan"}, "is_reserved": 0}, {"lon": -77.045181, "bike_id": "ef5928380258098a5ecaee7ddd743d8b", "lat": 38.901256000000004, "fusion_lon": 0.0, "fusion_lat": 0.0, "type": "electric_scooter", "name": "ef5928380258098a5ecaee7ddd743d8b", "is_disabled": 0, "rental_uris": {"ios": "https://dc.lft.to/lastmile_qr_scan", "android": "https://dc.lft.to/lastmile_qr_scan"}, "is_reserved": 0}, {"lon": -77.04671066666667, "bike_id": "3995e66f1218ce2a6de421cf53767585", "lat": 38.90418733333333, "fusion_lon": 0.0, "fusion_lat": 0.0, "type": "electric_scooter", "name": "3995e66f1218ce2a6de421cf53767585", "is_disabled": 0, "rental_uris": {"ios": "https://dc.lft.to/lastmile_qr_scan", "android": "https://dc.lft.to/lastmile_qr_scan"}, "is_reserved": 0}, {"lon": -77.04702783333333, "bike_id": "1ee73adc24a562424ce95cd3f68f6174", "lat": 38.9214245, "fusion_lon": 0.0, "fusion_lat": 0.0, "type": "electric_scooter", "name": "1ee73adc24a562424ce95cd3f68f6174", "is_disabled": 0, "rental_uris": {"ios": "https://dc.lft.to/lastmile_qr_scan", "android": "https://dc.lft.to/lastmile_qr_scan"}, "is_reserved": 0}, {"lon": -77.04272883333333, "bike_id": "7f0ed909adb3bc3a0df7ed22fb4437e3", "lat": 38.90020066666666, "fusion_lon": 0.0, "fusion_lat": 0.0, "type": "electric_scooter", "name": "7f0ed909adb3bc3a0df7ed22fb4437e3", "is_disabled": 0, "rental_uris": {"ios": "https://dc.lft.to/lastmile_qr_scan", "android": "https://dc.lft.to/lastmile_qr_scan"}, "is_reserved": 0}, {"lon": -77.05148816666667, "bike_id": "0e1303579faa6d5d41e7c57a2f312a52", "lat": 38.92372966666667, "fusion_lon": 0.0, "fusion_lat": 0.0, "type": "electric_scooter", "name": "0e1303579faa6d5d41e7c57a2f312a52", "is_disabled": 0, "rental_uris": {"ios": "https://dc.lft.to/lastmile_qr_scan", "android": "https://dc.lft.to/lastmile_qr_scan"}, "is_reserved": 0}, {"lon": -77.0222225, "bike_id": "329f0d20ce2aa4cb51f4b44057567805", "lat": 38.924832333333335, "fusion_lon": 0.0, "fusion_lat": 0.0, "type": "electric_scooter", "name": "329f0d20ce2aa4cb51f4b44057567805", "is_disabled": 0, "rental_uris": {"ios": "https://dc.lft.to/lastmile_qr_scan", "android": "https://dc.lft.to/lastmile_qr_scan"}, "is_reserved": 0}, {"lon": -77.033845, "bike_id": "96d4b6de9d85c1cf2f3f8b6b0b22913a", "lat": 38.902658833333334, "fusion_lon": 0.0, "fusion_lat": 0.0, "type": "electric_scooter", "name": "96d4b6de9d85c1cf2f3f8b6b0b22913a", "is_disabled": 0, "rental_uris": {"ios": "https://dc.lft.to/lastmile_qr_scan", "android": "https://dc.lft.to/lastmile_qr_scan"}, "is_reserved": 0}, {"lon": -77.03171683333333, "bike_id": "d8eb4a4efcc934a36663550cb8f366f9", "lat": 38.921016333333334, "fusion_lon": 0.0, "fusion_lat": 0.0, "type": "electric_scooter", "name": "d8eb4a4efcc934a36663550cb8f366f9", "is_disabled": 0, "rental_uris": {"ios": "https://dc.lft.to/lastmile_qr_scan", "android": "https://dc.lft.to/lastmile_qr_scan"}, "is_reserved": 0}, {"lon": -77.03265716666667, "bike_id": "3e55373639eecc59e37e6f59cf7f59e1", "lat": 38.9326965, "fusion_lon": 0.0, "fusion_lat": 0.0, "type": "electric_scooter", "name": "3e55373639eecc59e37e6f59cf7f59e1", "is_disabled": 0, "rental_uris": {"ios": "https://dc.lft.to/lastmile_qr_scan", "android": "https://dc.lft.to/lastmile_qr_scan"}, "is_reserved": 0}, {"lon": -77.02171866666667, "bike_id": "1609f67777a4a76de8cd120363a80205", "lat": 38.894713333333335, "fusion_lon": 0.0, "fusion_lat": 0.0, "type": "electric_scooter", "name": "1609f67777a4a76de8cd120363a80205", "is_disabled": 0, "rental_uris": {"ios": "https://dc.lft.to/lastmile_qr_scan", "android": "https://dc.lft.to/lastmile_qr_scan"}, "is_reserved": 0}, {"lon": -77.02017583333334, "bike_id": "d2d88b70532a4578bc149ad9534e9735", "lat": 38.87673683333333, "fusion_lon": 0.0, "fusion_lat": 0.0, "type": "electric_scooter", "name": "d2d88b70532a4578bc149ad9534e9735", "is_disabled": 0, "rental_uris": {"ios": "https://dc.lft.to/lastmile_qr_scan", "android": "https://dc.lft.to/lastmile_qr_scan"}, "is_reserved": 0}, {"lon": -76.99151783333333, "bike_id": "6c76c43a42d4cc1cac432e3f3fa649e7", "lat": 38.9004165, "fusion_lon": 0.0, "fusion_lat": 0.0, "type": "electric_scooter", "name": "6c76c43a42d4cc1cac432e3f3fa649e7", "is_disabled": 0, "rental_uris": {"ios": "https://dc.lft.to/lastmile_qr_scan", "android": "https://dc.lft.to/lastmile_qr_scan"}, "is_reserved": 0}, {"lon": -77.02510333333333, "bike_id": "8f64b9c6e0fb8993f8327d42fc66311b", "lat": 38.920544, "fusion_lon": 0.0, "fusion_lat": 0.0, "type": "electric_scooter", "name": "8f64b9c6e0fb8993f8327d42fc66311b", "is_disabled": 0, "rental_uris": {"ios": "https://dc.lft.to/lastmile_qr_scan", "android": "https://dc.lft.to/lastmile_qr_scan"}, "is_reserved": 0}, {"lon": -77.04672066666667, "bike_id": "f7bb46379cdf8fc4f9773011e1c7faa4", "lat": 38.9003015, "fusion_lon": 0.0, "fusion_lat": 0.0, "type": "electric_scooter", "name": "f7bb46379cdf8fc4f9773011e1c7faa4", "is_disabled": 0, "rental_uris": {"ios": "https://dc.lft.to/lastmile_qr_scan", "android": "https://dc.lft.to/lastmile_qr_scan"}, "is_reserved": 0}, {"lon": -77.03712666666667, "bike_id": "f4f2373a16cf134518e8f33d3c5baa05", "lat": 38.91491666666667, "fusion_lon": 0.0, "fusion_lat": 0.0, "type": "electric_scooter", "name": "f4f2373a16cf134518e8f33d3c5baa05", "is_disabled": 0, "rental_uris": {"ios": "https://dc.lft.to/lastmile_qr_scan", "android": "https://dc.lft.to/lastmile_qr_scan"}, "is_reserved": 0}, {"lon": -77.02699616666666, "bike_id": "7a6aeb32f7c7c215b2b24adaa7536844", "lat": 38.90673316666667, "fusion_lon": 0.0, "fusion_lat": 0.0, "type": "electric_scooter", "name": "7a6aeb32f7c7c215b2b24adaa7536844", "is_disabled": 0, "rental_uris": {"ios": "https://dc.lft.to/lastmile_qr_scan", "android": "https://dc.lft.to/lastmile_qr_scan"}, "is_reserved": 0}, {"lon": -77.0318675, "bike_id": "c145e9599a90ecc5be77081ee306cc16", "lat": 38.89966966666667, "fusion_lon": 0.0, "fusion_lat": 0.0, "type": "electric_scooter", "name": "c145e9599a90ecc5be77081ee306cc16", "is_disabled": 0, "rental_uris": {"ios": "https://dc.lft.to/lastmile_qr_scan", "android": "https://dc.lft.to/lastmile_qr_scan"}, "is_reserved": 0}, {"lon": -77.03862716666667, "bike_id": "683353aadf0366bd99116c1f700d1cf3", "lat": 38.90649283333333, "fusion_lon": 0.0, "fusion_lat": 0.0, "type": "electric_scooter", "name": "683353aadf0366bd99116c1f700d1cf3", "is_disabled": 0, "rental_uris": {"ios": "https://dc.lft.to/lastmile_qr_scan", "android": "https://dc.lft.to/lastmile_qr_scan"}, "is_reserved": 0}, {"lon": -76.98836566666667, "bike_id": "72026d056af61077aa7ab51510c80e80", "lat": 38.901277, "fusion_lon": 0.0, "fusion_lat": 0.0, "type": "electric_scooter", "name": "72026d056af61077aa7ab51510c80e80", "is_disabled": 0, "rental_uris": {"ios": "https://dc.lft.to/lastmile_qr_scan", "android": "https://dc.lft.to/lastmile_qr_scan"}, "is_reserved": 0}, {"lon": -77.021054, "bike_id": "804811203bf1c4c6797fd6f38156db17", "lat": 38.927157666666666, "fusion_lon": 0.0, "fusion_lat": 0.0, "type": "electric_scooter", "name": "804811203bf1c4c6797fd6f38156db17", "is_disabled": 0, "rental_uris": {"ios": "https://dc.lft.to/lastmile_qr_scan", "android": "https://dc.lft.to/lastmile_qr_scan"}, "is_reserved": 0}, {"lon": -77.09496116666666, "bike_id": "9559482465875bd8fa40f209121a72f8", "lat": 38.8076685, "fusion_lon": 0.0, "fusion_lat": 0.0, "type": "electric_bike", "name": "9559482465875bd8fa40f209121a72f8", "is_disabled": 0, "rental_uris": {"ios": "https://dc.lft.to/lastmile_qr_scan", "android": "https://dc.lft.to/lastmile_qr_scan"}, "is_reserved": 0}, {"lon": -77.046719, "bike_id": "420cae534eb594fec0525052e40774b2", "lat": 38.895551, "fusion_lon": 0.0, "fusion_lat": 0.0, "type": "electric_scooter", "name": "420cae534eb594fec0525052e40774b2", "is_disabled": 0, "rental_uris": {"ios": "https://dc.lft.to/lastmile_qr_scan", "android": "https://dc.lft.to/lastmile_qr_scan"}, "is_reserved": 0}, {"lon": -77.0163105, "bike_id": "2c14cebff87835908bed0aeb394d9ac0", "lat": 38.929021, "fusion_lon": 0.0, "fusion_lat": 0.0, "type": "electric_scooter", "name": "2c14cebff87835908bed0aeb394d9ac0", "is_disabled": 0, "rental_uris": {"ios": "https://dc.lft.to/lastmile_qr_scan", "android": "https://dc.lft.to/lastmile_qr_scan"}, "is_reserved": 0}, {"lon": -77.04471916666667, "bike_id": "52b5ebcfcdae65234d221dddc3a0c278", "lat": 38.89226683333333, "fusion_lon": 0.0, "fusion_lat": 0.0, "type": "electric_scooter", "name": "52b5ebcfcdae65234d221dddc3a0c278", "is_disabled": 0, "rental_uris": {"ios": "https://dc.lft.to/lastmile_qr_scan", "android": "https://dc.lft.to/lastmile_qr_scan"}, "is_reserved": 0}, {"lon": -77.03642683333334, "bike_id": "1f8bb2ae1c0016467ad37e8eb27963fb", "lat": 38.924614, "fusion_lon": 0.0, "fusion_lat": 0.0, "type": "electric_scooter", "name": "1f8bb2ae1c0016467ad37e8eb27963fb", "is_disabled": 0, "rental_uris": {"ios": "https://dc.lft.to/lastmile_qr_scan", "android": "https://dc.lft.to/lastmile_qr_scan"}, "is_reserved": 0}, {"lon": -77.02400933333334, "bike_id": "bee11621c81740c2a99ccda48d219da8", "lat": 38.907027, "fusion_lon": 0.0, "fusion_lat": 0.0, "type": "electric_scooter", "name": "bee11621c81740c2a99ccda48d219da8", "is_disabled": 0, "rental_uris": {"ios": "https://dc.lft.to/lastmile_qr_scan", "android": "https://dc.lft.to/lastmile_qr_scan"}, "is_reserved": 0}, {"lon": -77.03201816666666, "bike_id": "81ffa572b7d39de8bfa6ce8bfed41615", "lat": 38.926786, "fusion_lon": 0.0, "fusion_lat": 0.0, "type": "electric_scooter", "name": "81ffa572b7d39de8bfa6ce8bfed41615", "is_disabled": 0, "rental_uris": {"ios": "https://dc.lft.to/lastmile_qr_scan", "android": "https://dc.lft.to/lastmile_qr_scan"}, "is_reserved": 0}, {"lon": -77.03850633333333, "bike_id": "686dcb3abb4c49d59854612cb8a77be8", "lat": 38.904264, "fusion_lon": 0.0, "fusion_lat": 0.0, "type": "electric_scooter", "name": "686dcb3abb4c49d59854612cb8a77be8", "is_disabled": 0, "rental_uris": {"ios": "https://dc.lft.to/lastmile_qr_scan", "android": "https://dc.lft.to/lastmile_qr_scan"}, "is_reserved": 0}, {"lon": -77.03195566666666, "bike_id": "11929cce61cb9e3fe2aedeba2c15a18c", "lat": 38.91303333333333, "fusion_lon": 0.0, "fusion_lat": 0.0, "type": "electric_scooter", "name": "11929cce61cb9e3fe2aedeba2c15a18c", "is_disabled": 0, "rental_uris": {"ios": "https://dc.lft.to/lastmile_qr_scan", "android": "https://dc.lft.to/lastmile_qr_scan"}, "is_reserved": 0}, {"lon": -77.05182316666667, "bike_id": "d07bb036fd89d6fd2ce7e758db9f4432", "lat": 38.9238555, "fusion_lon": 0.0, "fusion_lat": 0.0, "type": "electric_scooter", "name": "d07bb036fd89d6fd2ce7e758db9f4432", "is_disabled": 0, "rental_uris": {"ios": "https://dc.lft.to/lastmile_qr_scan", "android": "https://dc.lft.to/lastmile_qr_scan"}, "is_reserved": 0}, {"lon": -77.00585783333334, "bike_id": "776eb177a01d5a10210b83bc588cf045", "lat": 38.87309233333333, "fusion_lon": 0.0, "fusion_lat": 0.0, "type": "electric_scooter", "name": "776eb177a01d5a10210b83bc588cf045", "is_disabled": 0, "rental_uris": {"ios": "https://dc.lft.to/lastmile_qr_scan", "android": "https://dc.lft.to/lastmile_qr_scan"}, "is_reserved": 0}, {"lon": -77.0295975, "bike_id": "c61989d1235c7ce6455a0d0b1f9f1105", "lat": 38.898185166666664, "fusion_lon": 0.0, "fusion_lat": 0.0, "type": "electric_scooter", "name": "c61989d1235c7ce6455a0d0b1f9f1105", "is_disabled": 0, "rental_uris": {"ios": "https://dc.lft.to/lastmile_qr_scan", "android": "https://dc.lft.to/lastmile_qr_scan"}, "is_reserved": 0}, {"lon": -76.99932716666666, "bike_id": "712152b1137e377dc6b1b52bf53a889e", "lat": 38.8431615, "fusion_lon": 0.0, "fusion_lat": 0.0, "type": "electric_scooter", "name": "712152b1137e377dc6b1b52bf53a889e", "is_disabled": 0, "rental_uris": {"ios": "https://dc.lft.to/lastmile_qr_scan", "android": "https://dc.lft.to/lastmile_qr_scan"}, "is_reserved": 0}, {"lon": -77.0139605, "bike_id": "4a68ed84570e4ba580340a0973a888e6", "lat": 38.912188, "fusion_lon": 0.0, "fusion_lat": 0.0, "type": "electric_scooter", "name": "4a68ed84570e4ba580340a0973a888e6", "is_disabled": 0, "rental_uris": {"ios": "https://dc.lft.to/lastmile_qr_scan", "android": "https://dc.lft.to/lastmile_qr_scan"}, "is_reserved": 0}, {"lon": -77.02844133333333, "bike_id": "c4bf5939053bf73f0a306cc8bb88ed6c", "lat": 38.9341755, "fusion_lon": 0.0, "fusion_lat": 0.0, "type": "electric_scooter", "name": "c4bf5939053bf73f0a306cc8bb88ed6c", "is_disabled": 0, "rental_uris": {"ios": "https://dc.lft.to/lastmile_qr_scan", "android": "https://dc.lft.to/lastmile_qr_scan"}, "is_reserved": 0}, {"lon": -76.93733983333334, "bike_id": "f2b4b8e2fde80d264ef13ef2ca2df2fe", "lat": 38.890164166666665, "fusion_lon": 0.0, "fusion_lat": 0.0, "type": "electric_scooter", "name": "f2b4b8e2fde80d264ef13ef2ca2df2fe", "is_disabled": 0, "rental_uris": {"ios": "https://dc.lft.to/lastmile_qr_scan", "android": "https://dc.lft.to/lastmile_qr_scan"}, "is_reserved": 0}, {"lon": -77.07455733333333, "bike_id": "8252648fb5a579fc9dc56ec7fa3f8983", "lat": 38.945165333333335, "fusion_lon": 0.0, "fusion_lat": 0.0, "type": "electric_scooter", "name": "8252648fb5a579fc9dc56ec7fa3f8983", "is_disabled": 0, "rental_uris": {"ios": "https://dc.lft.to/lastmile_qr_scan", "android": "https://dc.lft.to/lastmile_qr_scan"}, "is_reserved": 0}, {"lon": -77.0333115, "bike_id": "83a0a4cefbec426193ad728504126623", "lat": 38.90331166666667, "fusion_lon": 0.0, "fusion_lat": 0.0, "type": "electric_scooter", "name": "83a0a4cefbec426193ad728504126623", "is_disabled": 0, "rental_uris": {"ios": "https://dc.lft.to/lastmile_qr_scan", "android": "https://dc.lft.to/lastmile_qr_scan"}, "is_reserved": 0}, {"lon": -77.043389, "bike_id": "0b8d2eb95a39f74ccb5096775a72825f", "lat": 38.8922465, "fusion_lon": 0.0, "fusion_lat": 0.0, "type": "electric_scooter", "name": "0b8d2eb95a39f74ccb5096775a72825f", "is_disabled": 0, "rental_uris": {"ios": "https://dc.lft.to/lastmile_qr_scan", "android": "https://dc.lft.to/lastmile_qr_scan"}, "is_reserved": 0}, {"lon": -77.03466166666666, "bike_id": "4fc6e9e4079a7924821baa073fd93b99", "lat": 38.902680833333335, "fusion_lon": 0.0, "fusion_lat": 0.0, "type": "electric_scooter", "name": "4fc6e9e4079a7924821baa073fd93b99", "is_disabled": 0, "rental_uris": {"ios": "https://dc.lft.to/lastmile_qr_scan", "android": "https://dc.lft.to/lastmile_qr_scan"}, "is_reserved": 0}, {"lon": -77.03206483333334, "bike_id": "24c3673b7f03de3541acb7ef0ed3a839", "lat": 38.90371283333333, "fusion_lon": 0.0, "fusion_lat": 0.0, "type": "electric_scooter", "name": "24c3673b7f03de3541acb7ef0ed3a839", "is_disabled": 0, "rental_uris": {"ios": "https://dc.lft.to/lastmile_qr_scan", "android": "https://dc.lft.to/lastmile_qr_scan"}, "is_reserved": 0}, {"lon": -77.04673933333333, "bike_id": "ce7f784a80cad01bbeb08975c2a78dd3", "lat": 38.8923125, "fusion_lon": 0.0, "fusion_lat": 0.0, "type": "electric_scooter", "name": "ce7f784a80cad01bbeb08975c2a78dd3", "is_disabled": 0, "rental_uris": {"ios": "https://dc.lft.to/lastmile_qr_scan", "android": "https://dc.lft.to/lastmile_qr_scan"}, "is_reserved": 0}, {"lon": -77.0308455, "bike_id": "9dde2529b33a80c8fad5fa0f9709c252", "lat": 38.8998375, "fusion_lon": 0.0, "fusion_lat": 0.0, "type": "electric_scooter", "name": "9dde2529b33a80c8fad5fa0f9709c252", "is_disabled": 0, "rental_uris": {"ios": "https://dc.lft.to/lastmile_qr_scan", "android": "https://dc.lft.to/lastmile_qr_scan"}, "is_reserved": 0}, {"lon": -77.031981, "bike_id": "98cfa92c4b3d654568abf6dc0bca6ac8", "lat": 38.921204, "fusion_lon": 0.0, "fusion_lat": 0.0, "type": "electric_scooter", "name": "98cfa92c4b3d654568abf6dc0bca6ac8", "is_disabled": 0, "rental_uris": {"ios": "https://dc.lft.to/lastmile_qr_scan", "android": "https://dc.lft.to/lastmile_qr_scan"}, "is_reserved": 0}, {"lon": -77.04376916666666, "bike_id": "ee53187812ba7c058ae98756a177fa2b", "lat": 38.892272, "fusion_lon": 0.0, "fusion_lat": 0.0, "type": "electric_scooter", "name": "ee53187812ba7c058ae98756a177fa2b", "is_disabled": 0, "rental_uris": {"ios": "https://dc.lft.to/lastmile_qr_scan", "android": "https://dc.lft.to/lastmile_qr_scan"}, "is_reserved": 0}, {"lon": -77.02494033333333, "bike_id": "051f3378788bb63f4a71c4073095eeff", "lat": 38.916943833333335, "fusion_lon": 0.0, "fusion_lat": 0.0, "type": "electric_scooter", "name": "051f3378788bb63f4a71c4073095eeff", "is_disabled": 0, "rental_uris": {"ios": "https://dc.lft.to/lastmile_qr_scan", "android": "https://dc.lft.to/lastmile_qr_scan"}, "is_reserved": 0}, {"lon": -77.12529683333334, "bike_id": "81c0f63f150ea778b7d5845e9d5e2ace", "lat": 39.05635, "fusion_lon": 0.0, "fusion_lat": 0.0, "type": "electric_bike", "name": "81c0f63f150ea778b7d5845e9d5e2ace", "is_disabled": 0, "rental_uris": {"ios": "https://dc.lft.to/lastmile_qr_scan", "android": "https://dc.lft.to/lastmile_qr_scan"}, "is_reserved": 0}, {"lon": -76.99008616666667, "bike_id": "266bd39ec7e8f66d051b038f95432a47", "lat": 38.882595, "fusion_lon": 0.0, "fusion_lat": 0.0, "type": "electric_scooter", "name": "266bd39ec7e8f66d051b038f95432a47", "is_disabled": 0, "rental_uris": {"ios": "https://dc.lft.to/lastmile_qr_scan", "android": "https://dc.lft.to/lastmile_qr_scan"}, "is_reserved": 0}, {"lon": -76.97862333333333, "bike_id": "b33f103d3ef7ed62bd6486159abd09e3", "lat": 38.8720175, "fusion_lon": 0.0, "fusion_lat": 0.0, "type": "electric_scooter", "name": "b33f103d3ef7ed62bd6486159abd09e3", "is_disabled": 0, "rental_uris": {"ios": "https://dc.lft.to/lastmile_qr_scan", "android": "https://dc.lft.to/lastmile_qr_scan"}, "is_reserved": 0}, {"lon": -77.03659366666666, "bike_id": "5b4c275158e1b02d71505a7965bc8a63", "lat": 38.903744333333336, "fusion_lon": 0.0, "fusion_lat": 0.0, "type": "electric_scooter", "name": "5b4c275158e1b02d71505a7965bc8a63", "is_disabled": 0, "rental_uris": {"ios": "https://dc.lft.to/lastmile_qr_scan", "android": "https://dc.lft.to/lastmile_qr_scan"}, "is_reserved": 0}, {"lon": -77.04446283333333, "bike_id": "052f45f4a8e18655741d62f1e72756ca", "lat": 38.9217685, "fusion_lon": 0.0, "fusion_lat": 0.0, "type": "electric_scooter", "name": "052f45f4a8e18655741d62f1e72756ca", "is_disabled": 0, "rental_uris": {"ios": "https://dc.lft.to/lastmile_qr_scan", "android": "https://dc.lft.to/lastmile_qr_scan"}, "is_reserved": 0}, {"lon": -77.05150683333333, "bike_id": "eb1dde12875c24f2e248c7e18002a784", "lat": 38.90516216666666, "fusion_lon": 0.0, "fusion_lat": 0.0, "type": "electric_scooter", "name": "eb1dde12875c24f2e248c7e18002a784", "is_disabled": 0, "rental_uris": {"ios": "https://dc.lft.to/lastmile_qr_scan", "android": "https://dc.lft.to/lastmile_qr_scan"}, "is_reserved": 0}, {"lon": -77.034463, "bike_id": "f6b205ccb1038398e739b8aeaebfaf4a", "lat": 38.908089333333336, "fusion_lon": 0.0, "fusion_lat": 0.0, "type": "electric_scooter", "name": "f6b205ccb1038398e739b8aeaebfaf4a", "is_disabled": 0, "rental_uris": {"ios": "https://dc.lft.to/lastmile_qr_scan", "android": "https://dc.lft.to/lastmile_qr_scan"}, "is_reserved": 0}, {"lon": -77.02216783333333, "bike_id": "3cfbb471da7a45e1bd3ad993a5d96c56", "lat": 38.88770516666666, "fusion_lon": 0.0, "fusion_lat": 0.0, "type": "electric_scooter", "name": "3cfbb471da7a45e1bd3ad993a5d96c56", "is_disabled": 0, "rental_uris": {"ios": "https://dc.lft.to/lastmile_qr_scan", "android": "https://dc.lft.to/lastmile_qr_scan"}, "is_reserved": 0}, {"lon": -77.025122, "bike_id": "a6e5f36e5a735f5c5b5543f89923b847", "lat": 38.892304833333334, "fusion_lon": 0.0, "fusion_lat": 0.0, "type": "electric_scooter", "name": "a6e5f36e5a735f5c5b5543f89923b847", "is_disabled": 0, "rental_uris": {"ios": "https://dc.lft.to/lastmile_qr_scan", "android": "https://dc.lft.to/lastmile_qr_scan"}, "is_reserved": 0}, {"lon": -77.00311933333333, "bike_id": "4df732e369a67dc0edf867d8f816344b", "lat": 38.923545, "fusion_lon": 0.0, "fusion_lat": 0.0, "type": "electric_scooter", "name": "4df732e369a67dc0edf867d8f816344b", "is_disabled": 0, "rental_uris": {"ios": "https://dc.lft.to/lastmile_qr_scan", "android": "https://dc.lft.to/lastmile_qr_scan"}, "is_reserved": 0}, {"lon": -77.03775516666667, "bike_id": "6d321750e1c1624133add188252ac740", "lat": 38.91701166666667, "fusion_lon": 0.0, "fusion_lat": 0.0, "type": "electric_scooter", "name": "6d321750e1c1624133add188252ac740", "is_disabled": 0, "rental_uris": {"ios": "https://dc.lft.to/lastmile_qr_scan", "android": "https://dc.lft.to/lastmile_qr_scan"}, "is_reserved": 0}, {"lon": -76.94636216666666, "bike_id": "d500a4dc8361f5af313e1ef83480dd50", "lat": 38.89834116666667, "fusion_lon": 0.0, "fusion_lat": 0.0, "type": "electric_scooter", "name": "d500a4dc8361f5af313e1ef83480dd50", "is_disabled": 0, "rental_uris": {"ios": "https://dc.lft.to/lastmile_qr_scan", "android": "https://dc.lft.to/lastmile_qr_scan"}, "is_reserved": 0}, {"lon": -77.01671066666667, "bike_id": "b1ce632a00bc0394d24600704b47ce86", "lat": 38.881251166666665, "fusion_lon": 0.0, "fusion_lat": 0.0, "type": "electric_scooter", "name": "b1ce632a00bc0394d24600704b47ce86", "is_disabled": 0, "rental_uris": {"ios": "https://dc.lft.to/lastmile_qr_scan", "android": "https://dc.lft.to/lastmile_qr_scan"}, "is_reserved": 0}, {"lon": -77.03084533333333, "bike_id": "35e623f7fef2ec5e5f6abb47a3187f8a", "lat": 38.90999983333333, "fusion_lon": 0.0, "fusion_lat": 0.0, "type": "electric_scooter", "name": "35e623f7fef2ec5e5f6abb47a3187f8a", "is_disabled": 0, "rental_uris": {"ios": "https://dc.lft.to/lastmile_qr_scan", "android": "https://dc.lft.to/lastmile_qr_scan"}, "is_reserved": 0}, {"lon": -76.98156666666667, "bike_id": "12f53667b7204bb2dc06860911a63731", "lat": 38.883305, "fusion_lon": 0.0, "fusion_lat": 0.0, "type": "electric_scooter", "name": "12f53667b7204bb2dc06860911a63731", "is_disabled": 0, "rental_uris": {"ios": "https://dc.lft.to/lastmile_qr_scan", "android": "https://dc.lft.to/lastmile_qr_scan"}, "is_reserved": 0}, {"lon": -77.04475616666667, "bike_id": "ce6bbdaefc8db5058dd352ada013cf7f", "lat": 38.892279, "fusion_lon": 0.0, "fusion_lat": 0.0, "type": "electric_scooter", "name": "ce6bbdaefc8db5058dd352ada013cf7f", "is_disabled": 0, "rental_uris": {"ios": "https://dc.lft.to/lastmile_qr_scan", "android": "https://dc.lft.to/lastmile_qr_scan"}, "is_reserved": 0}, {"lon": -77.068937, "bike_id": "3471950ea0a45470bb321a3edf666ac6", "lat": 38.905153, "fusion_lon": 0.0, "fusion_lat": 0.0, "type": "electric_scooter", "name": "3471950ea0a45470bb321a3edf666ac6", "is_disabled": 0, "rental_uris": {"ios": "https://dc.lft.to/lastmile_qr_scan", "android": "https://dc.lft.to/lastmile_qr_scan"}, "is_reserved": 0}, {"lon": -77.00042866666666, "bike_id": "aecdbea8902554534b78515814cd9437", "lat": 38.90700833333333, "fusion_lon": 0.0, "fusion_lat": 0.0, "type": "electric_scooter", "name": "aecdbea8902554534b78515814cd9437", "is_disabled": 0, "rental_uris": {"ios": "https://dc.lft.to/lastmile_qr_scan", "android": "https://dc.lft.to/lastmile_qr_scan"}, "is_reserved": 0}, {"lon": -77.03753016666667, "bike_id": "d8f5c710883ff52cd5f1ba1a088de669", "lat": 38.912617166666664, "fusion_lon": 0.0, "fusion_lat": 0.0, "type": "electric_scooter", "name": "d8f5c710883ff52cd5f1ba1a088de669", "is_disabled": 0, "rental_uris": {"ios": "https://dc.lft.to/lastmile_qr_scan", "android": "https://dc.lft.to/lastmile_qr_scan"}, "is_reserved": 0}, {"lon": -77.02186383333333, "bike_id": "53340c7909b27b9cdbec91f3429a580e", "lat": 38.88725916666667, "fusion_lon": 0.0, "fusion_lat": 0.0, "type": "electric_scooter", "name": "53340c7909b27b9cdbec91f3429a580e", "is_disabled": 0, "rental_uris": {"ios": "https://dc.lft.to/lastmile_qr_scan", "android": "https://dc.lft.to/lastmile_qr_scan"}, "is_reserved": 0}, {"lon": -77.03231616666666, "bike_id": "bbf37ac2c1367dbee78f7273631b2a21", "lat": 38.914077666666664, "fusion_lon": 0.0, "fusion_lat": 0.0, "type": "electric_scooter", "name": "bbf37ac2c1367dbee78f7273631b2a21", "is_disabled": 0, "rental_uris": {"ios": "https://dc.lft.to/lastmile_qr_scan", "android": "https://dc.lft.to/lastmile_qr_scan"}, "is_reserved": 0}, {"lon": -77.05667016666666, "bike_id": "4c3c3263c318c23f07782da7f642949a", "lat": 38.895463166666666, "fusion_lon": 0.0, "fusion_lat": 0.0, "type": "electric_scooter", "name": "4c3c3263c318c23f07782da7f642949a", "is_disabled": 0, "rental_uris": {"ios": "https://dc.lft.to/lastmile_qr_scan", "android": "https://dc.lft.to/lastmile_qr_scan"}, "is_reserved": 0}, {"lon": -77.22581616666666, "bike_id": "0f4f4256cf95274ff528f5284726082d", "lat": 38.92976316666667, "fusion_lon": 0.0, "fusion_lat": 0.0, "type": "electric_bike", "name": "0f4f4256cf95274ff528f5284726082d", "is_disabled": 0, "rental_uris": {"ios": "https://dc.lft.to/lastmile_qr_scan", "android": "https://dc.lft.to/lastmile_qr_scan"}, "is_reserved": 0}, {"lon": -77.05765733333334, "bike_id": "01125c042b02635030834a612e8c5492", "lat": 38.93388866666667, "fusion_lon": 0.0, "fusion_lat": 0.0, "type": "electric_scooter", "name": "01125c042b02635030834a612e8c5492", "is_disabled": 0, "rental_uris": {"ios": "https://dc.lft.to/lastmile_qr_scan", "android": "https://dc.lft.to/lastmile_qr_scan"}, "is_reserved": 0}, {"lon": -77.02581566666667, "bike_id": "4c75d0c228c9f11644a1009ed3ab84ce", "lat": 38.88738883333333, "fusion_lon": 0.0, "fusion_lat": 0.0, "type": "electric_scooter", "name": "4c75d0c228c9f11644a1009ed3ab84ce", "is_disabled": 0, "rental_uris": {"ios": "https://dc.lft.to/lastmile_qr_scan", "android": "https://dc.lft.to/lastmile_qr_scan"}, "is_reserved": 0}, {"lon": -76.994857, "bike_id": "89dc6ddd8ac832e149e2c50363e147f4", "lat": 38.886100666666664, "fusion_lon": 0.0, "fusion_lat": 0.0, "type": "electric_scooter", "name": "89dc6ddd8ac832e149e2c50363e147f4", "is_disabled": 0, "rental_uris": {"ios": "https://dc.lft.to/lastmile_qr_scan", "android": "https://dc.lft.to/lastmile_qr_scan"}, "is_reserved": 0}, {"lon": -77.06097483333333, "bike_id": "58b2da2fbf3986f14e4cba709e8cee03", "lat": 38.90526783333333, "fusion_lon": 0.0, "fusion_lat": 0.0, "type": "electric_scooter", "name": "58b2da2fbf3986f14e4cba709e8cee03", "is_disabled": 0, "rental_uris": {"ios": "https://dc.lft.to/lastmile_qr_scan", "android": "https://dc.lft.to/lastmile_qr_scan"}, "is_reserved": 0}, {"lon": -77.02378283333333, "bike_id": "9ef44eb6f6216d00f9a758b712fde9f1", "lat": 38.90956466666667, "fusion_lon": 0.0, "fusion_lat": 0.0, "type": "electric_scooter", "name": "9ef44eb6f6216d00f9a758b712fde9f1", "is_disabled": 0, "rental_uris": {"ios": "https://dc.lft.to/lastmile_qr_scan", "android": "https://dc.lft.to/lastmile_qr_scan"}, "is_reserved": 0}, {"lon": -77.00284766666667, "bike_id": "b56f6086f170c818faef7e108a68e760", "lat": 38.911841333333335, "fusion_lon": 0.0, "fusion_lat": 0.0, "type": "electric_bike", "name": "b56f6086f170c818faef7e108a68e760", "is_disabled": 0, "rental_uris": {"ios": "https://dc.lft.to/lastmile_qr_scan", "android": "https://dc.lft.to/lastmile_qr_scan"}, "is_reserved": 0}, {"lon": -77.01764983333334, "bike_id": "0b906690683dff8c096e07ab2f506206", "lat": 38.8839845, "fusion_lon": 0.0, "fusion_lat": 0.0, "type": "electric_scooter", "name": "0b906690683dff8c096e07ab2f506206", "is_disabled": 0, "rental_uris": {"ios": "https://dc.lft.to/lastmile_qr_scan", "android": "https://dc.lft.to/lastmile_qr_scan"}, "is_reserved": 0}, {"lon": -77.04878833333333, "bike_id": "8d1b0f9f50b69efa964106a8cd56c7f3", "lat": 38.89236533333333, "fusion_lon": 0.0, "fusion_lat": 0.0, "type": "electric_scooter", "name": "8d1b0f9f50b69efa964106a8cd56c7f3", "is_disabled": 0, "rental_uris": {"ios": "https://dc.lft.to/lastmile_qr_scan", "android": "https://dc.lft.to/lastmile_qr_scan"}, "is_reserved": 0}, {"lon": -77.02625183333333, "bike_id": "9c41097b99a02ad15dc9c6d2355a4904", "lat": 38.962295833333336, "fusion_lon": 0.0, "fusion_lat": 0.0, "type": "electric_bike", "name": "9c41097b99a02ad15dc9c6d2355a4904", "is_disabled": 0, "rental_uris": {"ios": "https://dc.lft.to/lastmile_qr_scan", "android": "https://dc.lft.to/lastmile_qr_scan"}, "is_reserved": 0}, {"lon": -76.99543083333333, "bike_id": "1b0f0e9e41ee64fb3a4d3d5b11c47b8f", "lat": 38.8316425, "fusion_lon": 0.0, "fusion_lat": 0.0, "type": "electric_bike", "name": "1b0f0e9e41ee64fb3a4d3d5b11c47b8f", "is_disabled": 0, "rental_uris": {"ios": "https://dc.lft.to/lastmile_qr_scan", "android": "https://dc.lft.to/lastmile_qr_scan"}, "is_reserved": 0}, {"lon": -77.00262483333333, "bike_id": "1056a3acfe637c86f99aaecf291a575f", "lat": 38.91188366666667, "fusion_lon": 0.0, "fusion_lat": 0.0, "type": "electric_scooter", "name": "1056a3acfe637c86f99aaecf291a575f", "is_disabled": 0, "rental_uris": {"ios": "https://dc.lft.to/lastmile_qr_scan", "android": "https://dc.lft.to/lastmile_qr_scan"}, "is_reserved": 0}, {"lon": -77.10096366666667, "bike_id": "cf913563464fd7643392e8bfce4ec2b7", "lat": 38.959602, "fusion_lon": 0.0, "fusion_lat": 0.0, "type": "electric_bike", "name": "cf913563464fd7643392e8bfce4ec2b7", "is_disabled": 0, "rental_uris": {"ios": "https://dc.lft.to/lastmile_qr_scan", "android": "https://dc.lft.to/lastmile_qr_scan"}, "is_reserved": 0}, {"lon": -76.95529783333333, "bike_id": "07a2642e18d353a5beadbdb1f66da360", "lat": 38.884716166666664, "fusion_lon": 0.0, "fusion_lat": 0.0, "type": "electric_scooter", "name": "07a2642e18d353a5beadbdb1f66da360", "is_disabled": 0, "rental_uris": {"ios": "https://dc.lft.to/lastmile_qr_scan", "android": "https://dc.lft.to/lastmile_qr_scan"}, "is_reserved": 0}, {"lon": -77.02303566666667, "bike_id": "679522270d1ad16392939fdc5ef5bcc9", "lat": 38.910764, "fusion_lon": 0.0, "fusion_lat": 0.0, "type": "electric_scooter", "name": "679522270d1ad16392939fdc5ef5bcc9", "is_disabled": 0, "rental_uris": {"ios": "https://dc.lft.to/lastmile_qr_scan", "android": "https://dc.lft.to/lastmile_qr_scan"}, "is_reserved": 0}, {"lon": -76.94294883333333, "bike_id": "03e54db3cf8d8a5836021d7f09b2eba3", "lat": 38.93870366666667, "fusion_lon": 0.0, "fusion_lat": 0.0, "type": "electric_bike", "name": "03e54db3cf8d8a5836021d7f09b2eba3", "is_disabled": 0, "rental_uris": {"ios": "https://dc.lft.to/lastmile_qr_scan", "android": "https://dc.lft.to/lastmile_qr_scan"}, "is_reserved": 0}, {"lon": -76.990299, "bike_id": "7d52626ff1bcaec6611f9a7ef5a6636d", "lat": 38.891756666666666, "fusion_lon": 0.0, "fusion_lat": 0.0, "type": "electric_scooter", "name": "7d52626ff1bcaec6611f9a7ef5a6636d", "is_disabled": 0, "rental_uris": {"ios": "https://dc.lft.to/lastmile_qr_scan", "android": "https://dc.lft.to/lastmile_qr_scan"}, "is_reserved": 0}, {"lon": -77.0353625, "bike_id": "48ab7d39d4489a5ba7007320f0f83193", "lat": 38.926272, "fusion_lon": 0.0, "fusion_lat": 0.0, "type": "electric_scooter", "name": "48ab7d39d4489a5ba7007320f0f83193", "is_disabled": 0, "rental_uris": {"ios": "https://dc.lft.to/lastmile_qr_scan", "android": "https://dc.lft.to/lastmile_qr_scan"}, "is_reserved": 0}, {"lon": -77.02383666666667, "bike_id": "bb622b0ce0e211e7cebc7791c6a05f11", "lat": 38.909555166666664, "fusion_lon": 0.0, "fusion_lat": 0.0, "type": "electric_scooter", "name": "bb622b0ce0e211e7cebc7791c6a05f11", "is_disabled": 0, "rental_uris": {"ios": "https://dc.lft.to/lastmile_qr_scan", "android": "https://dc.lft.to/lastmile_qr_scan"}, "is_reserved": 0}, {"lon": -77.02869483333333, "bike_id": "220dd12fbc38d8c54f80981be427f35f", "lat": 38.932806166666666, "fusion_lon": 0.0, "fusion_lat": 0.0, "type": "electric_scooter", "name": "220dd12fbc38d8c54f80981be427f35f", "is_disabled": 0, "rental_uris": {"ios": "https://dc.lft.to/lastmile_qr_scan", "android": "https://dc.lft.to/lastmile_qr_scan"}, "is_reserved": 0}, {"lon": -77.06254483333333, "bike_id": "9a97370ddfedb3ab0d9b20d0c7ff8691", "lat": 38.9441985, "fusion_lon": 0.0, "fusion_lat": 0.0, "type": "electric_scooter", "name": "9a97370ddfedb3ab0d9b20d0c7ff8691", "is_disabled": 0, "rental_uris": {"ios": "https://dc.lft.to/lastmile_qr_scan", "android": "https://dc.lft.to/lastmile_qr_scan"}, "is_reserved": 0}, {"lon": -76.98265533333333, "bike_id": "b7d6f45314fabc0b2557b404cae21f6e", "lat": 38.908534333333336, "fusion_lon": 0.0, "fusion_lat": 0.0, "type": "electric_scooter", "name": "b7d6f45314fabc0b2557b404cae21f6e", "is_disabled": 0, "rental_uris": {"ios": "https://dc.lft.to/lastmile_qr_scan", "android": "https://dc.lft.to/lastmile_qr_scan"}, "is_reserved": 0}, {"lon": -76.988958, "bike_id": "8c1f937d7c2c75e76019b90004f7abaa", "lat": 38.913465333333335, "fusion_lon": 0.0, "fusion_lat": 0.0, "type": "electric_scooter", "name": "8c1f937d7c2c75e76019b90004f7abaa", "is_disabled": 0, "rental_uris": {"ios": "https://dc.lft.to/lastmile_qr_scan", "android": "https://dc.lft.to/lastmile_qr_scan"}, "is_reserved": 0}, {"lon": -77.04196233333333, "bike_id": "62ac66b8134a53f76ddc2a2e7a28ea02", "lat": 38.8997765, "fusion_lon": 0.0, "fusion_lat": 0.0, "type": "electric_scooter", "name": "62ac66b8134a53f76ddc2a2e7a28ea02", "is_disabled": 0, "rental_uris": {"ios": "https://dc.lft.to/lastmile_qr_scan", "android": "https://dc.lft.to/lastmile_qr_scan"}, "is_reserved": 0}, {"lon": -77.02182016666667, "bike_id": "5b2820cf0278849ec1211f06ba8559e9", "lat": 38.88727883333333, "fusion_lon": 0.0, "fusion_lat": 0.0, "type": "electric_scooter", "name": "5b2820cf0278849ec1211f06ba8559e9", "is_disabled": 0, "rental_uris": {"ios": "https://dc.lft.to/lastmile_qr_scan", "android": "https://dc.lft.to/lastmile_qr_scan"}, "is_reserved": 0}, {"lon": -76.9892735, "bike_id": "2dead6a3a60b3f3f10abd41b3d0fae2e", "lat": 38.865740833333334, "fusion_lon": 0.0, "fusion_lat": 0.0, "type": "electric_scooter", "name": "2dead6a3a60b3f3f10abd41b3d0fae2e", "is_disabled": 0, "rental_uris": {"ios": "https://dc.lft.to/lastmile_qr_scan", "android": "https://dc.lft.to/lastmile_qr_scan"}, "is_reserved": 0}, {"lon": -77.0417315, "bike_id": "ef2dea123073fb2c0d32933e3dbcb45c", "lat": 38.9013885, "fusion_lon": 0.0, "fusion_lat": 0.0, "type": "electric_scooter", "name": "ef2dea123073fb2c0d32933e3dbcb45c", "is_disabled": 0, "rental_uris": {"ios": "https://dc.lft.to/lastmile_qr_scan", "android": "https://dc.lft.to/lastmile_qr_scan"}, "is_reserved": 0}, {"lon": -77.03269216666666, "bike_id": "0b9dfcda7522fb02feb98eb0471d7c3d", "lat": 38.928524, "fusion_lon": 0.0, "fusion_lat": 0.0, "type": "electric_scooter", "name": "0b9dfcda7522fb02feb98eb0471d7c3d", "is_disabled": 0, "rental_uris": {"ios": "https://dc.lft.to/lastmile_qr_scan", "android": "https://dc.lft.to/lastmile_qr_scan"}, "is_reserved": 0}, {"lon": -77.02698333333333, "bike_id": "65d39d1eb34fbd061e4f9f2cf277cfa2", "lat": 38.91167883333333, "fusion_lon": 0.0, "fusion_lat": 0.0, "type": "electric_scooter", "name": "65d39d1eb34fbd061e4f9f2cf277cfa2", "is_disabled": 0, "rental_uris": {"ios": "https://dc.lft.to/lastmile_qr_scan", "android": "https://dc.lft.to/lastmile_qr_scan"}, "is_reserved": 0}, {"lon": -77.00443583333333, "bike_id": "68fba80b1c11d7c6255f6daa14ad6bd1", "lat": 38.920908833333336, "fusion_lon": 0.0, "fusion_lat": 0.0, "type": "electric_scooter", "name": "68fba80b1c11d7c6255f6daa14ad6bd1", "is_disabled": 0, "rental_uris": {"ios": "https://dc.lft.to/lastmile_qr_scan", "android": "https://dc.lft.to/lastmile_qr_scan"}, "is_reserved": 0}, {"lon": -77.021986, "bike_id": "d28fd48c86d0febe53389ba8fa5b4c22", "lat": 38.91094483333333, "fusion_lon": 0.0, "fusion_lat": 0.0, "type": "electric_scooter", "name": "d28fd48c86d0febe53389ba8fa5b4c22", "is_disabled": 0, "rental_uris": {"ios": "https://dc.lft.to/lastmile_qr_scan", "android": "https://dc.lft.to/lastmile_qr_scan"}, "is_reserved": 0}, {"lon": -76.94976783333334, "bike_id": "ccff1a0f00ea2509a34a3cdd8008483f", "lat": 38.8937465, "fusion_lon": 0.0, "fusion_lat": 0.0, "type": "electric_scooter", "name": "ccff1a0f00ea2509a34a3cdd8008483f", "is_disabled": 0, "rental_uris": {"ios": "https://dc.lft.to/lastmile_qr_scan", "android": "https://dc.lft.to/lastmile_qr_scan"}, "is_reserved": 0}, {"lon": -77.04661066666667, "bike_id": "9f9bff2f951024d8d78c6fde219b3a41", "lat": 38.90517216666667, "fusion_lon": 0.0, "fusion_lat": 0.0, "type": "electric_scooter", "name": "9f9bff2f951024d8d78c6fde219b3a41", "is_disabled": 0, "rental_uris": {"ios": "https://dc.lft.to/lastmile_qr_scan", "android": "https://dc.lft.to/lastmile_qr_scan"}, "is_reserved": 0}, {"lon": -77.019606, "bike_id": "4ffa30b0791d1f7479438c1548c7671c", "lat": 38.921831, "fusion_lon": 0.0, "fusion_lat": 0.0, "type": "electric_scooter", "name": "4ffa30b0791d1f7479438c1548c7671c", "is_disabled": 0, "rental_uris": {"ios": "https://dc.lft.to/lastmile_qr_scan", "android": "https://dc.lft.to/lastmile_qr_scan"}, "is_reserved": 0}, {"lon": -77.02829783333334, "bike_id": "eebaa195537f85b673a6a6868d2a08f4", "lat": 38.93145033333333, "fusion_lon": 0.0, "fusion_lat": 0.0, "type": "electric_scooter", "name": "eebaa195537f85b673a6a6868d2a08f4", "is_disabled": 0, "rental_uris": {"ios": "https://dc.lft.to/lastmile_qr_scan", "android": "https://dc.lft.to/lastmile_qr_scan"}, "is_reserved": 0}, {"lon": -77.0857775, "bike_id": "fae6e74dc12923c0af11d33c87cf7a91", "lat": 38.84436633333333, "fusion_lon": 0.0, "fusion_lat": 0.0, "type": "electric_bike", "name": "fae6e74dc12923c0af11d33c87cf7a91", "is_disabled": 0, "rental_uris": {"ios": "https://dc.lft.to/lastmile_qr_scan", "android": "https://dc.lft.to/lastmile_qr_scan"}, "is_reserved": 0}, {"lon": -77.00460783333334, "bike_id": "738422271a499084b6b8283b24f5cf64", "lat": 38.914438, "fusion_lon": 0.0, "fusion_lat": 0.0, "type": "electric_scooter", "name": "738422271a499084b6b8283b24f5cf64", "is_disabled": 0, "rental_uris": {"ios": "https://dc.lft.to/lastmile_qr_scan", "android": "https://dc.lft.to/lastmile_qr_scan"}, "is_reserved": 0}, {"lon": -77.02624316666666, "bike_id": "fa0be9e72f73f1f087d3951a10a04a49", "lat": 38.892224, "fusion_lon": 0.0, "fusion_lat": 0.0, "type": "electric_scooter", "name": "fa0be9e72f73f1f087d3951a10a04a49", "is_disabled": 0, "rental_uris": {"ios": "https://dc.lft.to/lastmile_qr_scan", "android": "https://dc.lft.to/lastmile_qr_scan"}, "is_reserved": 0}, {"lon": -76.9820285, "bike_id": "6e2c424765d08d9f3f6dfaba1f3cc18b", "lat": 38.899443, "fusion_lon": 0.0, "fusion_lat": 0.0, "type": "electric_scooter", "name": "6e2c424765d08d9f3f6dfaba1f3cc18b", "is_disabled": 0, "rental_uris": {"ios": "https://dc.lft.to/lastmile_qr_scan", "android": "https://dc.lft.to/lastmile_qr_scan"}, "is_reserved": 0}, {"lon": -77.031723, "bike_id": "009e465ddb5b6f560cd237d036484854", "lat": 38.892033833333336, "fusion_lon": 0.0, "fusion_lat": 0.0, "type": "electric_scooter", "name": "009e465ddb5b6f560cd237d036484854", "is_disabled": 0, "rental_uris": {"ios": "https://dc.lft.to/lastmile_qr_scan", "android": "https://dc.lft.to/lastmile_qr_scan"}, "is_reserved": 0}, {"lon": -77.022255, "bike_id": "0efe8aaa81674343c4cfe12321f3bd86", "lat": 38.91258933333334, "fusion_lon": 0.0, "fusion_lat": 0.0, "type": "electric_scooter", "name": "0efe8aaa81674343c4cfe12321f3bd86", "is_disabled": 0, "rental_uris": {"ios": "https://dc.lft.to/lastmile_qr_scan", "android": "https://dc.lft.to/lastmile_qr_scan"}, "is_reserved": 0}, {"lon": -77.04617016666667, "bike_id": "c1ff738d8a28242429c84b22728c329e", "lat": 38.91547933333333, "fusion_lon": 0.0, "fusion_lat": 0.0, "type": "electric_scooter", "name": "c1ff738d8a28242429c84b22728c329e", "is_disabled": 0, "rental_uris": {"ios": "https://dc.lft.to/lastmile_qr_scan", "android": "https://dc.lft.to/lastmile_qr_scan"}, "is_reserved": 0}, {"lon": -77.0541385, "bike_id": "15f766a65b85f24b36285246b4b8e36c", "lat": 38.950511, "fusion_lon": 0.0, "fusion_lat": 0.0, "type": "electric_scooter", "name": "15f766a65b85f24b36285246b4b8e36c", "is_disabled": 0, "rental_uris": {"ios": "https://dc.lft.to/lastmile_qr_scan", "android": "https://dc.lft.to/lastmile_qr_scan"}, "is_reserved": 0}, {"lon": -76.93064766666667, "bike_id": "492bdc70790dab3d892abe2686452ca3", "lat": 38.8839805, "fusion_lon": 0.0, "fusion_lat": 0.0, "type": "electric_scooter", "name": "492bdc70790dab3d892abe2686452ca3", "is_disabled": 0, "rental_uris": {"ios": "https://dc.lft.to/lastmile_qr_scan", "android": "https://dc.lft.to/lastmile_qr_scan"}, "is_reserved": 0}, {"lon": -77.01579033333333, "bike_id": "cde1a653ff37b3c035faf027a406a5cd", "lat": 38.953255, "fusion_lon": 0.0, "fusion_lat": 0.0, "type": "electric_bike", "name": "cde1a653ff37b3c035faf027a406a5cd", "is_disabled": 0, "rental_uris": {"ios": "https://dc.lft.to/lastmile_qr_scan", "android": "https://dc.lft.to/lastmile_qr_scan"}, "is_reserved": 0}, {"lon": -77.02074716666667, "bike_id": "e6fc05e28336fd13366de518251f3e2e", "lat": 38.899854166666664, "fusion_lon": 0.0, "fusion_lat": 0.0, "type": "electric_scooter", "name": "e6fc05e28336fd13366de518251f3e2e", "is_disabled": 0, "rental_uris": {"ios": "https://dc.lft.to/lastmile_qr_scan", "android": "https://dc.lft.to/lastmile_qr_scan"}, "is_reserved": 0}, {"lon": -77.0204055, "bike_id": "966bc2afd4ee5e2b51b60028a62da067", "lat": 38.90864583333333, "fusion_lon": 0.0, "fusion_lat": 0.0, "type": "electric_scooter", "name": "966bc2afd4ee5e2b51b60028a62da067", "is_disabled": 0, "rental_uris": {"ios": "https://dc.lft.to/lastmile_qr_scan", "android": "https://dc.lft.to/lastmile_qr_scan"}, "is_reserved": 0}, {"lon": -77.01280916666667, "bike_id": "1be63c4db81dc2526ce2a28ff8226825", "lat": 38.91568016666667, "fusion_lon": 0.0, "fusion_lat": 0.0, "type": "electric_scooter", "name": "1be63c4db81dc2526ce2a28ff8226825", "is_disabled": 0, "rental_uris": {"ios": "https://dc.lft.to/lastmile_qr_scan", "android": "https://dc.lft.to/lastmile_qr_scan"}, "is_reserved": 0}, {"lon": -77.02661433333333, "bike_id": "c81d46f0243fe7dd4e14c3a919ab126a", "lat": 38.9171215, "fusion_lon": 0.0, "fusion_lat": 0.0, "type": "electric_scooter", "name": "c81d46f0243fe7dd4e14c3a919ab126a", "is_disabled": 0, "rental_uris": {"ios": "https://dc.lft.to/lastmile_qr_scan", "android": "https://dc.lft.to/lastmile_qr_scan"}, "is_reserved": 0}, {"lon": -77.022643, "bike_id": "fdb345089a942dd6ab45b201a428bc5c", "lat": 38.93770633333333, "fusion_lon": 0.0, "fusion_lat": 0.0, "type": "electric_scooter", "name": "fdb345089a942dd6ab45b201a428bc5c", "is_disabled": 0, "rental_uris": {"ios": "https://dc.lft.to/lastmile_qr_scan", "android": "https://dc.lft.to/lastmile_qr_scan"}, "is_reserved": 0}, {"lon": -77.02662, "bike_id": "7f3acae474ab94e00cff198e2d79f21a", "lat": 38.92182283333333, "fusion_lon": 0.0, "fusion_lat": 0.0, "type": "electric_scooter", "name": "7f3acae474ab94e00cff198e2d79f21a", "is_disabled": 0, "rental_uris": {"ios": "https://dc.lft.to/lastmile_qr_scan", "android": "https://dc.lft.to/lastmile_qr_scan"}, "is_reserved": 0}, {"lon": -77.04350983333333, "bike_id": "d0b85440aa944189c012dc0c69530247", "lat": 38.92177783333333, "fusion_lon": 0.0, "fusion_lat": 0.0, "type": "electric_scooter", "name": "d0b85440aa944189c012dc0c69530247", "is_disabled": 0, "rental_uris": {"ios": "https://dc.lft.to/lastmile_qr_scan", "android": "https://dc.lft.to/lastmile_qr_scan"}, "is_reserved": 0}, {"lon": -77.04486216666666, "bike_id": "d5a9d29f6ee3e28007c94ac8f5809c5d", "lat": 38.892252, "fusion_lon": 0.0, "fusion_lat": 0.0, "type": "electric_scooter", "name": "d5a9d29f6ee3e28007c94ac8f5809c5d", "is_disabled": 0, "rental_uris": {"ios": "https://dc.lft.to/lastmile_qr_scan", "android": "https://dc.lft.to/lastmile_qr_scan"}, "is_reserved": 0}, {"lon": -76.985275, "bike_id": "e5a58c534a26dfe126f472c9735f5bf4", "lat": 38.866871, "fusion_lon": 0.0, "fusion_lat": 0.0, "type": "electric_scooter", "name": "e5a58c534a26dfe126f472c9735f5bf4", "is_disabled": 0, "rental_uris": {"ios": "https://dc.lft.to/lastmile_qr_scan", "android": "https://dc.lft.to/lastmile_qr_scan"}, "is_reserved": 0}, {"lon": -77.04349916666666, "bike_id": "7c1484ab2c5d03ad8153325967ec130e", "lat": 38.913382, "fusion_lon": 0.0, "fusion_lat": 0.0, "type": "electric_scooter", "name": "7c1484ab2c5d03ad8153325967ec130e", "is_disabled": 0, "rental_uris": {"ios": "https://dc.lft.to/lastmile_qr_scan", "android": "https://dc.lft.to/lastmile_qr_scan"}, "is_reserved": 0}, {"lon": -77.00540783333334, "bike_id": "f60c59ed104ee9b58867e2afe68420d7", "lat": 38.929779, "fusion_lon": 0.0, "fusion_lat": 0.0, "type": "electric_scooter", "name": "f60c59ed104ee9b58867e2afe68420d7", "is_disabled": 0, "rental_uris": {"ios": "https://dc.lft.to/lastmile_qr_scan", "android": "https://dc.lft.to/lastmile_qr_scan"}, "is_reserved": 0}, {"lon": -76.9305905, "bike_id": "eb89a1149f23f89be8d6f33fe7c8b381", "lat": 38.90155633333333, "fusion_lon": 0.0, "fusion_lat": 0.0, "type": "electric_scooter", "name": "eb89a1149f23f89be8d6f33fe7c8b381", "is_disabled": 0, "rental_uris": {"ios": "https://dc.lft.to/lastmile_qr_scan", "android": "https://dc.lft.to/lastmile_qr_scan"}, "is_reserved": 0}, {"lon": -77.0297495, "bike_id": "2f734b204a2db627bbbb30c102631694", "lat": 38.916847833333335, "fusion_lon": 0.0, "fusion_lat": 0.0, "type": "electric_scooter", "name": "2f734b204a2db627bbbb30c102631694", "is_disabled": 0, "rental_uris": {"ios": "https://dc.lft.to/lastmile_qr_scan", "android": "https://dc.lft.to/lastmile_qr_scan"}, "is_reserved": 0}, {"lon": -77.05026033333333, "bike_id": "96fe64f3792d011746d8ec016b765b3c", "lat": 38.90367, "fusion_lon": 0.0, "fusion_lat": 0.0, "type": "electric_scooter", "name": "96fe64f3792d011746d8ec016b765b3c", "is_disabled": 0, "rental_uris": {"ios": "https://dc.lft.to/lastmile_qr_scan", "android": "https://dc.lft.to/lastmile_qr_scan"}, "is_reserved": 0}, {"lon": -77.03297983333333, "bike_id": "69afe782ce5e7209c8142c6e7aa7ed8f", "lat": 38.925586, "fusion_lon": 0.0, "fusion_lat": 0.0, "type": "electric_scooter", "name": "69afe782ce5e7209c8142c6e7aa7ed8f", "is_disabled": 0, "rental_uris": {"ios": "https://dc.lft.to/lastmile_qr_scan", "android": "https://dc.lft.to/lastmile_qr_scan"}, "is_reserved": 0}, {"lon": -77.047689, "bike_id": "1e0ff6194a962040675d76fdfbbc36f8", "lat": 38.921460833333335, "fusion_lon": 0.0, "fusion_lat": 0.0, "type": "electric_scooter", "name": "1e0ff6194a962040675d76fdfbbc36f8", "is_disabled": 0, "rental_uris": {"ios": "https://dc.lft.to/lastmile_qr_scan", "android": "https://dc.lft.to/lastmile_qr_scan"}, "is_reserved": 0}, {"lon": -77.00924933333333, "bike_id": "56fd6110febc43a5caa573db0153ba1b", "lat": 38.899786166666665, "fusion_lon": 0.0, "fusion_lat": 0.0, "type": "electric_scooter", "name": "56fd6110febc43a5caa573db0153ba1b", "is_disabled": 0, "rental_uris": {"ios": "https://dc.lft.to/lastmile_qr_scan", "android": "https://dc.lft.to/lastmile_qr_scan"}, "is_reserved": 0}, {"lon": -77.00254383333333, "bike_id": "3e11bd4d8e5f7a0a03269b7c5abfa16e", "lat": 38.894788, "fusion_lon": 0.0, "fusion_lat": 0.0, "type": "electric_scooter", "name": "3e11bd4d8e5f7a0a03269b7c5abfa16e", "is_disabled": 0, "rental_uris": {"ios": "https://dc.lft.to/lastmile_qr_scan", "android": "https://dc.lft.to/lastmile_qr_scan"}, "is_reserved": 0}, {"lon": -77.0193615, "bike_id": "9feb3c0b775034fde3f16da1030a24ca", "lat": 38.936892, "fusion_lon": 0.0, "fusion_lat": 0.0, "type": "electric_scooter", "name": "9feb3c0b775034fde3f16da1030a24ca", "is_disabled": 0, "rental_uris": {"ios": "https://dc.lft.to/lastmile_qr_scan", "android": "https://dc.lft.to/lastmile_qr_scan"}, "is_reserved": 0}, {"lon": -77.02117066666666, "bike_id": "770b83afa140d7d05ccf3f0e524c5b34", "lat": 38.91587116666667, "fusion_lon": 0.0, "fusion_lat": 0.0, "type": "electric_scooter", "name": "770b83afa140d7d05ccf3f0e524c5b34", "is_disabled": 0, "rental_uris": {"ios": "https://dc.lft.to/lastmile_qr_scan", "android": "https://dc.lft.to/lastmile_qr_scan"}, "is_reserved": 0}, {"lon": -77.02540283333333, "bike_id": "105b988c04d4adacc7562ea9539fff2c", "lat": 38.9930115, "fusion_lon": 0.0, "fusion_lat": 0.0, "type": "electric_bike", "name": "105b988c04d4adacc7562ea9539fff2c", "is_disabled": 0, "rental_uris": {"ios": "https://dc.lft.to/lastmile_qr_scan", "android": "https://dc.lft.to/lastmile_qr_scan"}, "is_reserved": 0}, {"lon": -77.0246805, "bike_id": "bef05a273525d0f0517403162151d5d4", "lat": 38.94198216666667, "fusion_lon": 0.0, "fusion_lat": 0.0, "type": "electric_scooter", "name": "bef05a273525d0f0517403162151d5d4", "is_disabled": 0, "rental_uris": {"ios": "https://dc.lft.to/lastmile_qr_scan", "android": "https://dc.lft.to/lastmile_qr_scan"}, "is_reserved": 0}, {"lon": -76.97631283333334, "bike_id": "174196cbd9ca9402d220949f5d5fbc97", "lat": 38.90573583333333, "fusion_lon": 0.0, "fusion_lat": 0.0, "type": "electric_scooter", "name": "174196cbd9ca9402d220949f5d5fbc97", "is_disabled": 0, "rental_uris": {"ios": "https://dc.lft.to/lastmile_qr_scan", "android": "https://dc.lft.to/lastmile_qr_scan"}, "is_reserved": 0}, {"lon": -77.03828016666667, "bike_id": "29c97a947c7d745029fcd45a1dcb2143", "lat": 38.9103115, "fusion_lon": 0.0, "fusion_lat": 0.0, "type": "electric_scooter", "name": "29c97a947c7d745029fcd45a1dcb2143", "is_disabled": 0, "rental_uris": {"ios": "https://dc.lft.to/lastmile_qr_scan", "android": "https://dc.lft.to/lastmile_qr_scan"}, "is_reserved": 0}, {"lon": -76.99501233333334, "bike_id": "b824327a062789a965feea5f6ff2d102", "lat": 38.86245233333333, "fusion_lon": 0.0, "fusion_lat": 0.0, "type": "electric_scooter", "name": "b824327a062789a965feea5f6ff2d102", "is_disabled": 0, "rental_uris": {"ios": "https://dc.lft.to/lastmile_qr_scan", "android": "https://dc.lft.to/lastmile_qr_scan"}, "is_reserved": 0}, {"lon": -77.043451, "bike_id": "0eb8d0e5a24d2d221cf88860297f0ff4", "lat": 38.908824, "fusion_lon": 0.0, "fusion_lat": 0.0, "type": "electric_scooter", "name": "0eb8d0e5a24d2d221cf88860297f0ff4", "is_disabled": 0, "rental_uris": {"ios": "https://dc.lft.to/lastmile_qr_scan", "android": "https://dc.lft.to/lastmile_qr_scan"}, "is_reserved": 0}, {"lon": -76.99911883333333, "bike_id": "3ca5714ae0cada1dcddef507fedb4826", "lat": 38.90746133333333, "fusion_lon": 0.0, "fusion_lat": 0.0, "type": "electric_scooter", "name": "3ca5714ae0cada1dcddef507fedb4826", "is_disabled": 0, "rental_uris": {"ios": "https://dc.lft.to/lastmile_qr_scan", "android": "https://dc.lft.to/lastmile_qr_scan"}, "is_reserved": 0}, {"lon": -77.062694, "bike_id": "fe42fbc94feed31f50bba45232e0313d", "lat": 38.943062, "fusion_lon": 0.0, "fusion_lat": 0.0, "type": "electric_scooter", "name": "fe42fbc94feed31f50bba45232e0313d", "is_disabled": 0, "rental_uris": {"ios": "https://dc.lft.to/lastmile_qr_scan", "android": "https://dc.lft.to/lastmile_qr_scan"}, "is_reserved": 0}, {"lon": -77.04335116666667, "bike_id": "be6ba3ac4abea0d62e06257c9f9b3c4b", "lat": 38.892275833333336, "fusion_lon": 0.0, "fusion_lat": 0.0, "type": "electric_scooter", "name": "be6ba3ac4abea0d62e06257c9f9b3c4b", "is_disabled": 0, "rental_uris": {"ios": "https://dc.lft.to/lastmile_qr_scan", "android": "https://dc.lft.to/lastmile_qr_scan"}, "is_reserved": 0}, {"lon": -76.93745266666667, "bike_id": "1a904886954de6ee00384d9f7d87d577", "lat": 38.8900985, "fusion_lon": 0.0, "fusion_lat": 0.0, "type": "electric_scooter", "name": "1a904886954de6ee00384d9f7d87d577", "is_disabled": 0, "rental_uris": {"ios": "https://dc.lft.to/lastmile_qr_scan", "android": "https://dc.lft.to/lastmile_qr_scan"}, "is_reserved": 0}, {"lon": -77.03962716666666, "bike_id": "6a59d045a8b857b7a3e4d1ad8fa0e5a3", "lat": 38.909637000000004, "fusion_lon": 0.0, "fusion_lat": 0.0, "type": "electric_scooter", "name": "6a59d045a8b857b7a3e4d1ad8fa0e5a3", "is_disabled": 0, "rental_uris": {"ios": "https://dc.lft.to/lastmile_qr_scan", "android": "https://dc.lft.to/lastmile_qr_scan"}, "is_reserved": 0}, {"lon": -77.04509966666667, "bike_id": "652a59af633fa9efd50431ddbb59b6a5", "lat": 38.903853833333336, "fusion_lon": 0.0, "fusion_lat": 0.0, "type": "electric_scooter", "name": "652a59af633fa9efd50431ddbb59b6a5", "is_disabled": 0, "rental_uris": {"ios": "https://dc.lft.to/lastmile_qr_scan", "android": "https://dc.lft.to/lastmile_qr_scan"}, "is_reserved": 0}, {"lon": -77.00141483333333, "bike_id": "0206b4fca0544305aafcf7eadd8299da", "lat": 38.894727, "fusion_lon": 0.0, "fusion_lat": 0.0, "type": "electric_scooter", "name": "0206b4fca0544305aafcf7eadd8299da", "is_disabled": 0, "rental_uris": {"ios": "https://dc.lft.to/lastmile_qr_scan", "android": "https://dc.lft.to/lastmile_qr_scan"}, "is_reserved": 0}, {"lon": -76.92668216666667, "bike_id": "2881a72dc45a6c994775a7085cc725c2", "lat": 38.88046516666667, "fusion_lon": 0.0, "fusion_lat": 0.0, "type": "electric_scooter", "name": "2881a72dc45a6c994775a7085cc725c2", "is_disabled": 0, "rental_uris": {"ios": "https://dc.lft.to/lastmile_qr_scan", "android": "https://dc.lft.to/lastmile_qr_scan"}, "is_reserved": 0}, {"lon": -77.045963, "bike_id": "23f378f5fec02ccba3a26e49a495222e", "lat": 38.90277833333333, "fusion_lon": 0.0, "fusion_lat": 0.0, "type": "electric_scooter", "name": "23f378f5fec02ccba3a26e49a495222e", "is_disabled": 0, "rental_uris": {"ios": "https://dc.lft.to/lastmile_qr_scan", "android": "https://dc.lft.to/lastmile_qr_scan"}, "is_reserved": 0}, {"lon": -77.02412966666667, "bike_id": "07aafba5393d95bb2a54e36120e013df", "lat": 38.895257, "fusion_lon": 0.0, "fusion_lat": 0.0, "type": "electric_scooter", "name": "07aafba5393d95bb2a54e36120e013df", "is_disabled": 0, "rental_uris": {"ios": "https://dc.lft.to/lastmile_qr_scan", "android": "https://dc.lft.to/lastmile_qr_scan"}, "is_reserved": 0}, {"lon": -77.12679633333333, "bike_id": "37e3d8c1a5c9c07a92b98e9cc245010b", "lat": 38.81517866666667, "fusion_lon": 0.0, "fusion_lat": 0.0, "type": "electric_bike", "name": "37e3d8c1a5c9c07a92b98e9cc245010b", "is_disabled": 0, "rental_uris": {"ios": "https://dc.lft.to/lastmile_qr_scan", "android": "https://dc.lft.to/lastmile_qr_scan"}, "is_reserved": 0}, {"lon": -77.02712833333334, "bike_id": "6cfbb68eae4764a6fd2b9dc8c38c491f", "lat": 38.9167405, "fusion_lon": 0.0, "fusion_lat": 0.0, "type": "electric_scooter", "name": "6cfbb68eae4764a6fd2b9dc8c38c491f", "is_disabled": 0, "rental_uris": {"ios": "https://dc.lft.to/lastmile_qr_scan", "android": "https://dc.lft.to/lastmile_qr_scan"}, "is_reserved": 0}, {"lon": -77.00453133333333, "bike_id": "485c45df5304679b7565fca7120f63da", "lat": 38.87662683333333, "fusion_lon": 0.0, "fusion_lat": 0.0, "type": "electric_scooter", "name": "485c45df5304679b7565fca7120f63da", "is_disabled": 0, "rental_uris": {"ios": "https://dc.lft.to/lastmile_qr_scan", "android": "https://dc.lft.to/lastmile_qr_scan"}, "is_reserved": 0}, {"lon": -76.93378733333333, "bike_id": "52e7b9ec18770c98165f9d4371e35646", "lat": 38.9103355, "fusion_lon": 0.0, "fusion_lat": 0.0, "type": "electric_scooter", "name": "52e7b9ec18770c98165f9d4371e35646", "is_disabled": 0, "rental_uris": {"ios": "https://dc.lft.to/lastmile_qr_scan", "android": "https://dc.lft.to/lastmile_qr_scan"}, "is_reserved": 0}, {"lon": -77.017724, "bike_id": "19c103aeeccb6379e199ce09e0edb2e3", "lat": 38.8841175, "fusion_lon": 0.0, "fusion_lat": 0.0, "type": "electric_scooter", "name": "19c103aeeccb6379e199ce09e0edb2e3", "is_disabled": 0, "rental_uris": {"ios": "https://dc.lft.to/lastmile_qr_scan", "android": "https://dc.lft.to/lastmile_qr_scan"}, "is_reserved": 0}, {"lon": -77.02684083333334, "bike_id": "3fa2a9c9a5bde4ed37baf3e562aa9a8e", "lat": 38.9432895, "fusion_lon": 0.0, "fusion_lat": 0.0, "type": "electric_scooter", "name": "3fa2a9c9a5bde4ed37baf3e562aa9a8e", "is_disabled": 0, "rental_uris": {"ios": "https://dc.lft.to/lastmile_qr_scan", "android": "https://dc.lft.to/lastmile_qr_scan"}, "is_reserved": 0}, {"lon": -77.02013233333334, "bike_id": "d6ed7eedf67baa8ead999472d8dd408f", "lat": 38.8948255, "fusion_lon": 0.0, "fusion_lat": 0.0, "type": "electric_scooter", "name": "d6ed7eedf67baa8ead999472d8dd408f", "is_disabled": 0, "rental_uris": {"ios": "https://dc.lft.to/lastmile_qr_scan", "android": "https://dc.lft.to/lastmile_qr_scan"}, "is_reserved": 0}, {"lon": -77.0318915, "bike_id": "f85712b43563385ef180e61e249c7c1b", "lat": 38.8922845, "fusion_lon": 0.0, "fusion_lat": 0.0, "type": "electric_scooter", "name": "f85712b43563385ef180e61e249c7c1b", "is_disabled": 0, "rental_uris": {"ios": "https://dc.lft.to/lastmile_qr_scan", "android": "https://dc.lft.to/lastmile_qr_scan"}, "is_reserved": 0}, {"lon": -76.98501916666666, "bike_id": "b649935ffde530331816862afa2e149b", "lat": 38.866716, "fusion_lon": 0.0, "fusion_lat": 0.0, "type": "electric_scooter", "name": "b649935ffde530331816862afa2e149b", "is_disabled": 0, "rental_uris": {"ios": "https://dc.lft.to/lastmile_qr_scan", "android": "https://dc.lft.to/lastmile_qr_scan"}, "is_reserved": 0}, {"lon": -76.98192183333333, "bike_id": "e311e24bf9aa88798800bc9b62288a98", "lat": 38.92606933333333, "fusion_lon": 0.0, "fusion_lat": 0.0, "type": "electric_scooter", "name": "e311e24bf9aa88798800bc9b62288a98", "is_disabled": 0, "rental_uris": {"ios": "https://dc.lft.to/lastmile_qr_scan", "android": "https://dc.lft.to/lastmile_qr_scan"}, "is_reserved": 0}, {"lon": -77.0448665, "bike_id": "b5ceac7d32438ab5e33cf1d37b3768db", "lat": 38.910262333333336, "fusion_lon": 0.0, "fusion_lat": 0.0, "type": "electric_scooter", "name": "b5ceac7d32438ab5e33cf1d37b3768db", "is_disabled": 0, "rental_uris": {"ios": "https://dc.lft.to/lastmile_qr_scan", "android": "https://dc.lft.to/lastmile_qr_scan"}, "is_reserved": 0}, {"lon": -76.98556983333333, "bike_id": "49c62895203acc2e1f9a29cf5cd7dd17", "lat": 38.89957183333333, "fusion_lon": 0.0, "fusion_lat": 0.0, "type": "electric_scooter", "name": "49c62895203acc2e1f9a29cf5cd7dd17", "is_disabled": 0, "rental_uris": {"ios": "https://dc.lft.to/lastmile_qr_scan", "android": "https://dc.lft.to/lastmile_qr_scan"}, "is_reserved": 0}, {"lon": -76.93353066666667, "bike_id": "f84934e060f1f117512db9932006478b", "lat": 38.899083166666664, "fusion_lon": 0.0, "fusion_lat": 0.0, "type": "electric_scooter", "name": "f84934e060f1f117512db9932006478b", "is_disabled": 0, "rental_uris": {"ios": "https://dc.lft.to/lastmile_qr_scan", "android": "https://dc.lft.to/lastmile_qr_scan"}, "is_reserved": 0}, {"lon": -77.04169066666667, "bike_id": "9c764c78e059cb09dfc48dc79582c570", "lat": 38.90547766666667, "fusion_lon": 0.0, "fusion_lat": 0.0, "type": "electric_scooter", "name": "9c764c78e059cb09dfc48dc79582c570", "is_disabled": 0, "rental_uris": {"ios": "https://dc.lft.to/lastmile_qr_scan", "android": "https://dc.lft.to/lastmile_qr_scan"}, "is_reserved": 0}, {"lon": -76.99108066666666, "bike_id": "a810d95619cca996253db67fcf41bfd7", "lat": 38.903239166666665, "fusion_lon": 0.0, "fusion_lat": 0.0, "type": "electric_scooter", "name": "a810d95619cca996253db67fcf41bfd7", "is_disabled": 0, "rental_uris": {"ios": "https://dc.lft.to/lastmile_qr_scan", "android": "https://dc.lft.to/lastmile_qr_scan"}, "is_reserved": 0}, {"lon": -76.969132, "bike_id": "2eb4cf584c7f0d6d386f194ea029c171", "lat": 38.8461365, "fusion_lon": 0.0, "fusion_lat": 0.0, "type": "electric_bike", "name": "2eb4cf584c7f0d6d386f194ea029c171", "is_disabled": 0, "rental_uris": {"ios": "https://dc.lft.to/lastmile_qr_scan", "android": "https://dc.lft.to/lastmile_qr_scan"}, "is_reserved": 0}, {"lon": -77.02724333333333, "bike_id": "3b820040cc1736035628f700d463f574", "lat": 38.924852333333334, "fusion_lon": 0.0, "fusion_lat": 0.0, "type": "electric_scooter", "name": "3b820040cc1736035628f700d463f574", "is_disabled": 0, "rental_uris": {"ios": "https://dc.lft.to/lastmile_qr_scan", "android": "https://dc.lft.to/lastmile_qr_scan"}, "is_reserved": 0}, {"lon": -77.04668133333334, "bike_id": "b1696cc885cbc9de690d1030a73f7021", "lat": 38.89663183333333, "fusion_lon": 0.0, "fusion_lat": 0.0, "type": "electric_scooter", "name": "b1696cc885cbc9de690d1030a73f7021", "is_disabled": 0, "rental_uris": {"ios": "https://dc.lft.to/lastmile_qr_scan", "android": "https://dc.lft.to/lastmile_qr_scan"}, "is_reserved": 0}, {"lon": -77.03267483333333, "bike_id": "438c3c4da1f3461bddc6c2591e36971a", "lat": 38.93780133333333, "fusion_lon": 0.0, "fusion_lat": 0.0, "type": "electric_scooter", "name": "438c3c4da1f3461bddc6c2591e36971a", "is_disabled": 0, "rental_uris": {"ios": "https://dc.lft.to/lastmile_qr_scan", "android": "https://dc.lft.to/lastmile_qr_scan"}, "is_reserved": 0}, {"lon": -77.03644733333333, "bike_id": "3735d981ad387fc9c065ab8db6018f6b", "lat": 38.913427666666664, "fusion_lon": 0.0, "fusion_lat": 0.0, "type": "electric_scooter", "name": "3735d981ad387fc9c065ab8db6018f6b", "is_disabled": 0, "rental_uris": {"ios": "https://dc.lft.to/lastmile_qr_scan", "android": "https://dc.lft.to/lastmile_qr_scan"}, "is_reserved": 0}, {"lon": -76.9833795, "bike_id": "038bcf8c80babb1132c1ce9337d15667", "lat": 38.895456833333334, "fusion_lon": 0.0, "fusion_lat": 0.0, "type": "electric_scooter", "name": "038bcf8c80babb1132c1ce9337d15667", "is_disabled": 0, "rental_uris": {"ios": "https://dc.lft.to/lastmile_qr_scan", "android": "https://dc.lft.to/lastmile_qr_scan"}, "is_reserved": 0}, {"lon": -76.9615135, "bike_id": "1c80f0414635bdf2bf73a681285dc018", "lat": 38.8835925, "fusion_lon": 0.0, "fusion_lat": 0.0, "type": "electric_scooter", "name": "1c80f0414635bdf2bf73a681285dc018", "is_disabled": 0, "rental_uris": {"ios": "https://dc.lft.to/lastmile_qr_scan", "android": "https://dc.lft.to/lastmile_qr_scan"}, "is_reserved": 0}, {"lon": -77.033521, "bike_id": "c249b31fbca2ddc88b3e101ac7aa68b4", "lat": 38.89896533333334, "fusion_lon": 0.0, "fusion_lat": 0.0, "type": "electric_scooter", "name": "c249b31fbca2ddc88b3e101ac7aa68b4", "is_disabled": 0, "rental_uris": {"ios": "https://dc.lft.to/lastmile_qr_scan", "android": "https://dc.lft.to/lastmile_qr_scan"}, "is_reserved": 0}, {"lon": -77.044517, "bike_id": "20bfb6cba9f049c41f390276e0489699", "lat": 38.897311, "fusion_lon": 0.0, "fusion_lat": 0.0, "type": "electric_scooter", "name": "20bfb6cba9f049c41f390276e0489699", "is_disabled": 0, "rental_uris": {"ios": "https://dc.lft.to/lastmile_qr_scan", "android": "https://dc.lft.to/lastmile_qr_scan"}, "is_reserved": 0}, {"lon": -77.06778283333334, "bike_id": "ff38661d2a4c464413a5d8ee865511bc", "lat": 38.903613166666666, "fusion_lon": 0.0, "fusion_lat": 0.0, "type": "electric_scooter", "name": "ff38661d2a4c464413a5d8ee865511bc", "is_disabled": 0, "rental_uris": {"ios": "https://dc.lft.to/lastmile_qr_scan", "android": "https://dc.lft.to/lastmile_qr_scan"}, "is_reserved": 0}, {"lon": -76.99885866666666, "bike_id": "0630b9b7853d1dcb12472c4a36518725", "lat": 38.92054783333333, "fusion_lon": 0.0, "fusion_lat": 0.0, "type": "electric_scooter", "name": "0630b9b7853d1dcb12472c4a36518725", "is_disabled": 0, "rental_uris": {"ios": "https://dc.lft.to/lastmile_qr_scan", "android": "https://dc.lft.to/lastmile_qr_scan"}, "is_reserved": 0}, {"lon": -77.04382633333333, "bike_id": "1e39dae2973bf682ed2f37801b216bc0", "lat": 38.920706, "fusion_lon": 0.0, "fusion_lat": 0.0, "type": "electric_scooter", "name": "1e39dae2973bf682ed2f37801b216bc0", "is_disabled": 0, "rental_uris": {"ios": "https://dc.lft.to/lastmile_qr_scan", "android": "https://dc.lft.to/lastmile_qr_scan"}, "is_reserved": 0}, {"lon": -77.02655316666667, "bike_id": "2235a413bc40f99e0f27827596da68ab", "lat": 38.938629166666665, "fusion_lon": 0.0, "fusion_lat": 0.0, "type": "electric_scooter", "name": "2235a413bc40f99e0f27827596da68ab", "is_disabled": 0, "rental_uris": {"ios": "https://dc.lft.to/lastmile_qr_scan", "android": "https://dc.lft.to/lastmile_qr_scan"}, "is_reserved": 0}, {"lon": -76.99356366666666, "bike_id": "a02b9ef0e6736df9032e876b5e541ebf", "lat": 38.84509383333334, "fusion_lon": 0.0, "fusion_lat": 0.0, "type": "electric_bike", "name": "a02b9ef0e6736df9032e876b5e541ebf", "is_disabled": 0, "rental_uris": {"ios": "https://dc.lft.to/lastmile_qr_scan", "android": "https://dc.lft.to/lastmile_qr_scan"}, "is_reserved": 0}, {"lon": -77.03210233333333, "bike_id": "73bac5d191f3eb7ffb2f8641bc1d3148", "lat": 38.91498716666667, "fusion_lon": 0.0, "fusion_lat": 0.0, "type": "electric_scooter", "name": "73bac5d191f3eb7ffb2f8641bc1d3148", "is_disabled": 0, "rental_uris": {"ios": "https://dc.lft.to/lastmile_qr_scan", "android": "https://dc.lft.to/lastmile_qr_scan"}, "is_reserved": 0}, {"lon": -77.02158283333333, "bike_id": "ad76fd611df8ef25fc85461a33d34d08", "lat": 38.9162345, "fusion_lon": 0.0, "fusion_lat": 0.0, "type": "electric_scooter", "name": "ad76fd611df8ef25fc85461a33d34d08", "is_disabled": 0, "rental_uris": {"ios": "https://dc.lft.to/lastmile_qr_scan", "android": "https://dc.lft.to/lastmile_qr_scan"}, "is_reserved": 0}, {"lon": -76.98359666666667, "bike_id": "664a3487f1a5e137be5a4cba82b0c89b", "lat": 38.9155075, "fusion_lon": 0.0, "fusion_lat": 0.0, "type": "electric_scooter", "name": "664a3487f1a5e137be5a4cba82b0c89b", "is_disabled": 0, "rental_uris": {"ios": "https://dc.lft.to/lastmile_qr_scan", "android": "https://dc.lft.to/lastmile_qr_scan"}, "is_reserved": 0}, {"lon": -77.03109516666666, "bike_id": "c0ac6ffb483365a94e440c046cba5fae", "lat": 38.91565283333333, "fusion_lon": 0.0, "fusion_lat": 0.0, "type": "electric_scooter", "name": "c0ac6ffb483365a94e440c046cba5fae", "is_disabled": 0, "rental_uris": {"ios": "https://dc.lft.to/lastmile_qr_scan", "android": "https://dc.lft.to/lastmile_qr_scan"}, "is_reserved": 0}, {"lon": -77.05901383333334, "bike_id": "30acd296329d3bcb7da8a43227cc3496", "lat": 38.9031195, "fusion_lon": 0.0, "fusion_lat": 0.0, "type": "electric_scooter", "name": "30acd296329d3bcb7da8a43227cc3496", "is_disabled": 0, "rental_uris": {"ios": "https://dc.lft.to/lastmile_qr_scan", "android": "https://dc.lft.to/lastmile_qr_scan"}, "is_reserved": 0}, {"lon": -77.02215383333333, "bike_id": "215c73bcc0603b2284e816b410d304a7", "lat": 38.887718166666666, "fusion_lon": 0.0, "fusion_lat": 0.0, "type": "electric_scooter", "name": "215c73bcc0603b2284e816b410d304a7", "is_disabled": 0, "rental_uris": {"ios": "https://dc.lft.to/lastmile_qr_scan", "android": "https://dc.lft.to/lastmile_qr_scan"}, "is_reserved": 0}, {"lon": -77.00070033333333, "bike_id": "7cd98f82b89fe276d8c32c76ba1f22f1", "lat": 38.886752333333334, "fusion_lon": 0.0, "fusion_lat": 0.0, "type": "electric_scooter", "name": "7cd98f82b89fe276d8c32c76ba1f22f1", "is_disabled": 0, "rental_uris": {"ios": "https://dc.lft.to/lastmile_qr_scan", "android": "https://dc.lft.to/lastmile_qr_scan"}, "is_reserved": 0}, {"lon": -77.0500605, "bike_id": "2df3f9def77fadfdf483a22c0c6077ed", "lat": 38.8919425, "fusion_lon": 0.0, "fusion_lat": 0.0, "type": "electric_scooter", "name": "2df3f9def77fadfdf483a22c0c6077ed", "is_disabled": 0, "rental_uris": {"ios": "https://dc.lft.to/lastmile_qr_scan", "android": "https://dc.lft.to/lastmile_qr_scan"}, "is_reserved": 0}, {"lon": -77.05245516666666, "bike_id": "ad048fa3e7aa25a1c7e80211737dc83b", "lat": 38.92548383333333, "fusion_lon": 0.0, "fusion_lat": 0.0, "type": "electric_scooter", "name": "ad048fa3e7aa25a1c7e80211737dc83b", "is_disabled": 0, "rental_uris": {"ios": "https://dc.lft.to/lastmile_qr_scan", "android": "https://dc.lft.to/lastmile_qr_scan"}, "is_reserved": 0}, {"lon": -76.98109466666666, "bike_id": "293201709f5c3e384b3b57e6bfc9e825", "lat": 38.87736983333333, "fusion_lon": 0.0, "fusion_lat": 0.0, "type": "electric_bike", "name": "293201709f5c3e384b3b57e6bfc9e825", "is_disabled": 0, "rental_uris": {"ios": "https://dc.lft.to/lastmile_qr_scan", "android": "https://dc.lft.to/lastmile_qr_scan"}, "is_reserved": 0}, {"lon": -77.05005766666666, "bike_id": "db9370b111a6e3c8faff7504c419480e", "lat": 38.89195683333333, "fusion_lon": 0.0, "fusion_lat": 0.0, "type": "electric_scooter", "name": "db9370b111a6e3c8faff7504c419480e", "is_disabled": 0, "rental_uris": {"ios": "https://dc.lft.to/lastmile_qr_scan", "android": "https://dc.lft.to/lastmile_qr_scan"}, "is_reserved": 0}, {"lon": -77.04336366666666, "bike_id": "f36b8e258dbe1d3e01e3d49ff9f4e180", "lat": 38.892267833333335, "fusion_lon": 0.0, "fusion_lat": 0.0, "type": "electric_scooter", "name": "f36b8e258dbe1d3e01e3d49ff9f4e180", "is_disabled": 0, "rental_uris": {"ios": "https://dc.lft.to/lastmile_qr_scan", "android": "https://dc.lft.to/lastmile_qr_scan"}, "is_reserved": 0},