{"data": {"bikes": [{"is_disabled": 0, "is_reserved": 0, "type": "electric_scooter", "lon": -77.02694916666667, "fusion_lon": 0.0, "lat": 38.90869216666667, "rental_uris": {"android": "https://dc.lft.to/lastmile_qr_scan", "ios": "https://dc.lft.to/lastmile_qr_scan"}, "fusion_lat": 0.0, "name": "15c994c081e0741faa672e2e6d90ee65", "bike_id": "15c994c081e0741faa672e2e6d90ee65"}, {"is_disabled": 0, "is_reserved": 0, "type": "electric_scooter", "lon": -77.06760833333334, "fusion_lon": 0.0, "lat": 38.94977316666667, "rental_uris": {"android": "https://dc.lft.to/lastmile_qr_scan", "ios": "https://dc.lft.to/lastmile_qr_scan"}, "fusion_lat": 0.0, "name": "894f65d886cd859b88ed789511ac5434", "bike_id": "894f65d886cd859b88ed789511ac5434"}, {"is_disabled": 0, "is_reserved": 0, "type": "electric_bike", "lon": -76.9722015, "fusion_lon": 0.0, "lat": 38.844787, "rental_uris": {"android": "https://dc.lft.to/lastmile_qr_scan", "ios": "https://dc.lft.to/lastmile_qr_scan"}, "fusion_lat": 0.0, "name": "d30ceca0ae65665fb1d82607d7513876", "bike_id": "d30ceca0ae65665fb1d82607d7513876"}, {"is_disabled": 0, "is_reserved": 0, "type": "electric_scooter", "lon": -77.05829833333334, "fusion_lon": 0.0, "lat": 38.9353675, "rental_uris": {"android": "https://dc.lft.to/lastmile_qr_scan", "ios": "https://dc.lft.to/lastmile_qr_scan"}, "fusion_lat": 0.0, "name": "80086d221efdbf377afccbe07d01f9ad", "bike_id": "80086d221efdbf377afccbe07d01f9ad"}, {"is_disabled": 0, "is_reserved": 0, "type": "electric_scooter", "lon": -77.05224616666666, "fusion_lon": 0.0, "lat": 38.9245635, "rental_uris": {"android": "https://dc.lft.to/lastmile_qr_scan", "ios": "https://dc.lft.to/lastmile_qr_scan"}, "fusion_lat": 0.0, "name": "ccc32b538b58aed2287bdfe8d35bdbf8", "bike_id": "ccc32b538b58aed2287bdfe8d35bdbf8"}, {"is_disabled": 0, "is_reserved": 0, "type": "electric_scooter", "lon": -77.04727266666667, "fusion_lon": 0.0, "lat": 38.898269166666665, "rental_uris": {"android": "https://dc.lft.to/lastmile_qr_scan", "ios": "https://dc.lft.to/lastmile_qr_scan"}, "fusion_lat": 0.0, "name": "0a5c3ca88bf00135cdc675b1a04df2e6", "bike_id": "0a5c3ca88bf00135cdc675b1a04df2e6"}, {"is_disabled": 0, "is_reserved": 0, "type": "electric_bike", "lon": -77.04023433333333, "fusion_lon": 0.0, "lat": 38.90109783333333, "rental_uris": {"android": "https://dc.lft.to/lastmile_qr_scan", "ios": "https://dc.lft.to/lastmile_qr_scan"}, "fusion_lat": 0.0, "name": "aef39064857edd14e5a8ec1db64dbd71", "bike_id": "aef39064857edd14e5a8ec1db64dbd71"}, {"is_disabled": 0, "is_reserved": 0, "type": "electric_scooter", "lon": -77.02149183333333, "fusion_lon": 0.0, "lat": 38.92600016666667, "rental_uris": {"android": "https://dc.lft.to/lastmile_qr_scan", "ios": "https://dc.lft.to/lastmile_qr_scan"}, "fusion_lat": 0.0, "name": "b01d1aaeb49824114d314e08d8a7fad1", "bike_id": "b01d1aaeb49824114d314e08d8a7fad1"}, {"is_disabled": 0, "is_reserved": 0, "type": "electric_bike", "lon": -77.0289185, "fusion_lon": 0.0, "lat": 38.99877166666667, "rental_uris": {"android": "https://dc.lft.to/lastmile_qr_scan", "ios": "https://dc.lft.to/lastmile_qr_scan"}, "fusion_lat": 0.0, "name": "02f68dc6cb7f9541960c5606b9dc55f0", "bike_id": "02f68dc6cb7f9541960c5606b9dc55f0"}, {"is_disabled": 0, "is_reserved": 0, "type": "electric_scooter", "lon": -77.041619, "fusion_lon": 0.0, "lat": 38.91312833333333, "rental_uris": {"android": "https://dc.lft.to/lastmile_qr_scan", "ios": "https://dc.lft.to/lastmile_qr_scan"}, "fusion_lat": 0.0, "name": "52b892e427f43db9eb3c6930b5ad6a90", "bike_id": "52b892e427f43db9eb3c6930b5ad6a90"}, {"is_disabled": 0, "is_reserved": 0, "type": "electric_scooter", "lon": -76.973466, "fusion_lon": 0.0, "lat": 38.865152, "rental_uris": {"android": "https://dc.lft.to/lastmile_qr_scan", "ios": "https://dc.lft.to/lastmile_qr_scan"}, "fusion_lat": 0.0, "name": "7e345212b329ad6349e72a001b49ae2e", "bike_id": "7e345212b329ad6349e72a001b49ae2e"}, {"is_disabled": 0, "is_reserved": 0, "type": "electric_scooter", "lon": -76.98989733333333, "fusion_lon": 0.0, "lat": 38.864323, "rental_uris": {"android": "https://dc.lft.to/lastmile_qr_scan", "ios": "https://dc.lft.to/lastmile_qr_scan"}, "fusion_lat": 0.0, "name": "5918732297c5d30aea00aaedda9a47ae", "bike_id": "5918732297c5d30aea00aaedda9a47ae"}, {"is_disabled": 0, "is_reserved": 0, "type": "electric_bike", "lon": -76.96377116666666, "fusion_lon": 0.0, "lat": 38.94892383333333, "rental_uris": {"android": "https://dc.lft.to/lastmile_qr_scan", "ios": "https://dc.lft.to/lastmile_qr_scan"}, "fusion_lat": 0.0, "name": "b3a5360e04be3f95c104e00249d4b9e7", "bike_id": "b3a5360e04be3f95c104e00249d4b9e7"}, {"is_disabled": 0, "is_reserved": 0, "type": "electric_scooter", "lon": -77.04159433333334, "fusion_lon": 0.0, "lat": 38.91748116666667, "rental_uris": {"android": "https://dc.lft.to/lastmile_qr_scan", "ios": "https://dc.lft.to/lastmile_qr_scan"}, "fusion_lat": 0.0, "name": "c040e8c21d43ddb896afdbbcfde2b909", "bike_id": "c040e8c21d43ddb896afdbbcfde2b909"}, {"is_disabled": 0, "is_reserved": 0, "type": "electric_scooter", "lon": -77.03179983333334, "fusion_lon": 0.0, "lat": 38.89994816666667, "rental_uris": {"android": "https://dc.lft.to/lastmile_qr_scan", "ios": "https://dc.lft.to/lastmile_qr_scan"}, "fusion_lat": 0.0, "name": "e2f5b7d0626a9f31aa46050869a98a19", "bike_id": "e2f5b7d0626a9f31aa46050869a98a19"}, {"is_disabled": 0, "is_reserved": 0, "type": "electric_bike", "lon": -77.02817033333334, "fusion_lon": 0.0, "lat": 38.993792, "rental_uris": {"android": "https://dc.lft.to/lastmile_qr_scan", "ios": "https://dc.lft.to/lastmile_qr_scan"}, "fusion_lat": 0.0, "name": "715f41deb65bbaf754cf16fdef2c324a", "bike_id": "715f41deb65bbaf754cf16fdef2c324a"}, {"is_disabled": 0, "is_reserved": 0, "type": "electric_scooter", "lon": -77.0283825, "fusion_lon": 0.0, "lat": 38.922372, "rental_uris": {"android": "https://dc.lft.to/lastmile_qr_scan", "ios": "https://dc.lft.to/lastmile_qr_scan"}, "fusion_lat": 0.0, "name": "088f15215f21ab37fa9f16434ccb2ed9", "bike_id": "088f15215f21ab37fa9f16434ccb2ed9"}, {"is_disabled": 0, "is_reserved": 0, "type": "electric_scooter", "lon": -77.02691133333333, "fusion_lon": 0.0, "lat": 38.93636266666667, "rental_uris": {"android": "https://dc.lft.to/lastmile_qr_scan", "ios": "https://dc.lft.to/lastmile_qr_scan"}, "fusion_lat": 0.0, "name": "47c4d3a6b250dd7ff3549fa0912cfa97", "bike_id": "47c4d3a6b250dd7ff3549fa0912cfa97"}, {"is_disabled": 0, "is_reserved": 0, "type": "electric_scooter", "lon": -76.94633533333334, "fusion_lon": 0.0, "lat": 38.898427166666664, "rental_uris": {"android": "https://dc.lft.to/lastmile_qr_scan", "ios": "https://dc.lft.to/lastmile_qr_scan"}, "fusion_lat": 0.0, "name": "1240620b2778541273f631c278473308", "bike_id": "1240620b2778541273f631c278473308"}, {"is_disabled": 0, "is_reserved": 0, "type": "electric_scooter", "lon": -77.044225, "fusion_lon": 0.0, "lat": 38.89403133333333, "rental_uris": {"android": "https://dc.lft.to/lastmile_qr_scan", "ios": "https://dc.lft.to/lastmile_qr_scan"}, "fusion_lat": 0.0, "name": "297eada03b76a03150950b4c20a290fa", "bike_id": "297eada03b76a03150950b4c20a290fa"}, {"is_disabled": 0, "is_reserved": 0, "type": "electric_scooter", "lon": -77.043584, "fusion_lon": 0.0, "lat": 38.904817, "rental_uris": {"android": "https://dc.lft.to/lastmile_qr_scan", "ios": "https://dc.lft.to/lastmile_qr_scan"}, "fusion_lat": 0.0, "name": "40dc5b66d67d6ea23b2ea87e11dcb32c", "bike_id": "40dc5b66d67d6ea23b2ea87e11dcb32c"}, {"is_disabled": 0, "is_reserved": 0, "type": "electric_scooter", "lon": -77.03948583333333, "fusion_lon": 0.0, "lat": 38.90969283333333, "rental_uris": {"android": "https://dc.lft.to/lastmile_qr_scan", "ios": "https://dc.lft.to/lastmile_qr_scan"}, "fusion_lat": 0.0, "name": "b5776e902993b4a263376b40c8f3bb08", "bike_id": "b5776e902993b4a263376b40c8f3bb08"}, {"is_disabled": 0, "is_reserved": 0, "type": "electric_scooter", "lon": -77.02387216666666, "fusion_lon": 0.0, "lat": 38.88730783333333, "rental_uris": {"android": "https://dc.lft.to/lastmile_qr_scan", "ios": "https://dc.lft.to/lastmile_qr_scan"}, "fusion_lat": 0.0, "name": "b9e415fe563e906dfdab61870e3dbb83", "bike_id": "b9e415fe563e906dfdab61870e3dbb83"}, {"is_disabled": 0, "is_reserved": 0, "type": "electric_scooter", "lon": -77.05007316666666, "fusion_lon": 0.0, "lat": 38.893629833333335, "rental_uris": {"android": "https://dc.lft.to/lastmile_qr_scan", "ios": "https://dc.lft.to/lastmile_qr_scan"}, "fusion_lat": 0.0, "name": "6ac6f54da8b7cc31842217b9fca038b0", "bike_id": "6ac6f54da8b7cc31842217b9fca038b0"}, {"is_disabled": 0, "is_reserved": 0, "type": "electric_scooter", "lon": -76.99367966666667, "fusion_lon": 0.0, "lat": 38.92398883333333, "rental_uris": {"android": "https://dc.lft.to/lastmile_qr_scan", "ios": "https://dc.lft.to/lastmile_qr_scan"}, "fusion_lat": 0.0, "name": "d4f29911937b944e528794da1dfa9e43", "bike_id": "d4f29911937b944e528794da1dfa9e43"}, {"is_disabled": 0, "is_reserved": 0, "type": "electric_scooter", "lon": -77.047185, "fusion_lon": 0.0, "lat": 38.905867666666666, "rental_uris": {"android": "https://dc.lft.to/lastmile_qr_scan", "ios": "https://dc.lft.to/lastmile_qr_scan"}, "fusion_lat": 0.0, "name": "bf22d751e04741cf00830ff784c36b15", "bike_id": "bf22d751e04741cf00830ff784c36b15"}, {"is_disabled": 0, "is_reserved": 0, "type": "electric_scooter", "lon": -77.02412633333333, "fusion_lon": 0.0, "lat": 38.91257233333333, "rental_uris": {"android": "https://dc.lft.to/lastmile_qr_scan", "ios": "https://dc.lft.to/lastmile_qr_scan"}, "fusion_lat": 0.0, "name": "8b3d75b54c6f3044e35a33c815a1640d", "bike_id": "8b3d75b54c6f3044e35a33c815a1640d"}, {"is_disabled": 0, "is_reserved": 0, "type": "electric_scooter", "lon": -77.03831533333333, "fusion_lon": 0.0, "lat": 38.911099166666666, "rental_uris": {"android": "https://dc.lft.to/lastmile_qr_scan", "ios": "https://dc.lft.to/lastmile_qr_scan"}, "fusion_lat": 0.0, "name": "8f0224fbbb938213c8b0f0dc57c1c786", "bike_id": "8f0224fbbb938213c8b0f0dc57c1c786"}, {"is_disabled": 0, "is_reserved": 0, "type": "electric_scooter", "lon": -77.04095833333334, "fusion_lon": 0.0, "lat": 38.899093666666666, "rental_uris": {"android": "https://dc.lft.to/lastmile_qr_scan", "ios": "https://dc.lft.to/lastmile_qr_scan"}, "fusion_lat": 0.0, "name": "99aa7bd33df41a171e4be2cccc5f2494", "bike_id": "99aa7bd33df41a171e4be2cccc5f2494"}, {"is_disabled": 0, "is_reserved": 0, "type": "electric_scooter", "lon": -77.0258435, "fusion_lon": 0.0, "lat": 38.942141166666666, "rental_uris": {"android": "https://dc.lft.to/lastmile_qr_scan", "ios": "https://dc.lft.to/lastmile_qr_scan"}, "fusion_lat": 0.0, "name": "83159bc070ab9bb8f0bb907ed209d3d5", "bike_id": "83159bc070ab9bb8f0bb907ed209d3d5"}, {"is_disabled": 0, "is_reserved": 0, "type": "electric_scooter", "lon": -77.04338916666667, "fusion_lon": 0.0, "lat": 38.908365333333336, "rental_uris": {"android": "https://dc.lft.to/lastmile_qr_scan", "ios": "https://dc.lft.to/lastmile_qr_scan"}, "fusion_lat": 0.0, "name": "b00bac0914c981d7c7a1bb1f2a088f34", "bike_id": "b00bac0914c981d7c7a1bb1f2a088f34"}, {"is_disabled": 0, "is_reserved": 0, "type": "electric_scooter", "lon": -77.02439066666666, "fusion_lon": 0.0, "lat": 38.920453333333334, "rental_uris": {"android": "https://dc.lft.to/lastmile_qr_scan", "ios": "https://dc.lft.to/lastmile_qr_scan"}, "fusion_lat": 0.0, "name": "b349930d92d5da624d2a29f098046677", "bike_id": "b349930d92d5da624d2a29f098046677"}, {"is_disabled": 0, "is_reserved": 0, "type": "electric_scooter", "lon": -77.0322295, "fusion_lon": 0.0, "lat": 38.9086415, "rental_uris": {"android": "https://dc.lft.to/lastmile_qr_scan", "ios": "https://dc.lft.to/lastmile_qr_scan"}, "fusion_lat": 0.0, "name": "9b1ca2335dc83fdfd9ea4bb178742a34", "bike_id": "9b1ca2335dc83fdfd9ea4bb178742a34"}, {"is_disabled": 0, "is_reserved": 0, "type": "electric_scooter", "lon": -76.98809666666666, "fusion_lon": 0.0, "lat": 38.908235166666664, "rental_uris": {"android": "https://dc.lft.to/lastmile_qr_scan", "ios": "https://dc.lft.to/lastmile_qr_scan"}, "fusion_lat": 0.0, "name": "4b7ed4fd90c1e7d52a9a48ae0cfab476", "bike_id": "4b7ed4fd90c1e7d52a9a48ae0cfab476"}, {"is_disabled": 0, "is_reserved": 0, "type": "electric_scooter", "lon": -77.0379335, "fusion_lon": 0.0, "lat": 38.93594366666667, "rental_uris": {"android": "https://dc.lft.to/lastmile_qr_scan", "ios": "https://dc.lft.to/lastmile_qr_scan"}, "fusion_lat": 0.0, "name": "a0ebe7ffc7556247a5a1a5f217784b36", "bike_id": "a0ebe7ffc7556247a5a1a5f217784b36"}, {"is_disabled": 0, "is_reserved": 0, "type": "electric_scooter", "lon": -76.91238616666666, "fusion_lon": 0.0, "lat": 38.893905833333335, "rental_uris": {"android": "https://dc.lft.to/lastmile_qr_scan", "ios": "https://dc.lft.to/lastmile_qr_scan"}, "fusion_lat": 0.0, "name": "85ec27fbfa06b78b00a8c3114e721e13", "bike_id": "85ec27fbfa06b78b00a8c3114e721e13"}, {"is_disabled": 0, "is_reserved": 0, "type": "electric_scooter", "lon": -77.02661616666667, "fusion_lon": 0.0, "lat": 38.93096716666667, "rental_uris": {"android": "https://dc.lft.to/lastmile_qr_scan", "ios": "https://dc.lft.to/lastmile_qr_scan"}, "fusion_lat": 0.0, "name": "3673edccb38a31042b6e042ffa4dba22", "bike_id": "3673edccb38a31042b6e042ffa4dba22"}, {"is_disabled": 0, "is_reserved": 0, "type": "electric_scooter", "lon": -77.02277616666667, "fusion_lon": 0.0, "lat": 38.89721483333334, "rental_uris": {"android": "https://dc.lft.to/lastmile_qr_scan", "ios": "https://dc.lft.to/lastmile_qr_scan"}, "fusion_lat": 0.0, "name": "1dbae7bd33b2813456f53bc9ea735920", "bike_id": "1dbae7bd33b2813456f53bc9ea735920"}, {"is_disabled": 0, "is_reserved": 0, "type": "electric_scooter", "lon": -77.044838, "fusion_lon": 0.0, "lat": 38.90674416666667, "rental_uris": {"android": "https://dc.lft.to/lastmile_qr_scan", "ios": "https://dc.lft.to/lastmile_qr_scan"}, "fusion_lat": 0.0, "name": "419347806b4cb70a85ece8dd07f0a4d2", "bike_id": "419347806b4cb70a85ece8dd07f0a4d2"}, {"is_disabled": 0, "is_reserved": 0, "type": "electric_scooter", "lon": -77.02120333333333, "fusion_lon": 0.0, "lat": 38.8921805, "rental_uris": {"android": "https://dc.lft.to/lastmile_qr_scan", "ios": "https://dc.lft.to/lastmile_qr_scan"}, "fusion_lat": 0.0, "name": "2ceff83d4f849c4cf321857e2ffefa5c", "bike_id": "2ceff83d4f849c4cf321857e2ffefa5c"}, {"is_disabled": 0, "is_reserved": 0, "type": "electric_scooter", "lon": -77.03524766666666, "fusion_lon": 0.0, "lat": 38.922628333333336, "rental_uris": {"android": "https://dc.lft.to/lastmile_qr_scan", "ios": "https://dc.lft.to/lastmile_qr_scan"}, "fusion_lat": 0.0, "name": "fff08f6c52ed3a057e177b9ca32e6370", "bike_id": "fff08f6c52ed3a057e177b9ca32e6370"}, {"is_disabled": 0, "is_reserved": 0, "type": "electric_scooter", "lon": -77.029745, "fusion_lon": 0.0, "lat": 38.91723483333333, "rental_uris": {"android": "https://dc.lft.to/lastmile_qr_scan", "ios": "https://dc.lft.to/lastmile_qr_scan"}, "fusion_lat": 0.0, "name": "9c152c81fd26ad2b1cb4f642524329a4", "bike_id": "9c152c81fd26ad2b1cb4f642524329a4"}, {"is_disabled": 0, "is_reserved": 0, "type": "electric_bike", "lon": -76.92916466666667, "fusion_lon": 0.0, "lat": 38.98022233333333, "rental_uris": {"android": "https://dc.lft.to/lastmile_qr_scan", "ios": "https://dc.lft.to/lastmile_qr_scan"}, "fusion_lat": 0.0, "name": "b38af69445f35b515bbb6a0a34a54327", "bike_id": "b38af69445f35b515bbb6a0a34a54327"}, {"is_disabled": 0, "is_reserved": 0, "type": "electric_scooter", "lon": -76.94639516666666, "fusion_lon": 0.0, "lat": 38.89843833333333, "rental_uris": {"android": "https://dc.lft.to/lastmile_qr_scan", "ios": "https://dc.lft.to/lastmile_qr_scan"}, "fusion_lat": 0.0, "name": "cfcb9e38b1f3e6a73f96e57283dd5611", "bike_id": "cfcb9e38b1f3e6a73f96e57283dd5611"}, {"is_disabled": 0, "is_reserved": 0, "type": "electric_scooter", "lon": -77.047723, "fusion_lon": 0.0, "lat": 38.9005505, "rental_uris": {"android": "https://dc.lft.to/lastmile_qr_scan", "ios": "https://dc.lft.to/lastmile_qr_scan"}, "fusion_lat": 0.0, "name": "12079292ecf0ab559eb48575d48ee720", "bike_id": "12079292ecf0ab559eb48575d48ee720"}, {"is_disabled": 0, "is_reserved": 0, "type": "electric_scooter", "lon": -77.02600416666667, "fusion_lon": 0.0, "lat": 38.902612166666664, "rental_uris": {"android": "https://dc.lft.to/lastmile_qr_scan", "ios": "https://dc.lft.to/lastmile_qr_scan"}, "fusion_lat": 0.0, "name": "273e6e1b177a34f5f143ade6c585b506", "bike_id": "273e6e1b177a34f5f143ade6c585b506"}, {"is_disabled": 0, "is_reserved": 0, "type": "electric_scooter", "lon": -77.04987116666666, "fusion_lon": 0.0, "lat": 38.90084516666667, "rental_uris": {"android": "https://dc.lft.to/lastmile_qr_scan", "ios": "https://dc.lft.to/lastmile_qr_scan"}, "fusion_lat": 0.0, "name": "26756ea57c48a0168db5ce077fe1476e", "bike_id": "26756ea57c48a0168db5ce077fe1476e"}, {"is_disabled": 0, "is_reserved": 0, "type": "electric_scooter", "lon": -76.99807716666666, "fusion_lon": 0.0, "lat": 38.87665283333333, "rental_uris": {"android": "https://dc.lft.to/lastmile_qr_scan", "ios": "https://dc.lft.to/lastmile_qr_scan"}, "fusion_lat": 0.0, "name": "dde41b200538f9319e5a3fcd8ef9d891", "bike_id": "dde41b200538f9319e5a3fcd8ef9d891"}, {"is_disabled": 0, "is_reserved": 0, "type": "electric_scooter", "lon": -77.03808016666666, "fusion_lon": 0.0, "lat": 38.905541666666664, "rental_uris": {"android": "https://dc.lft.to/lastmile_qr_scan", "ios": "https://dc.lft.to/lastmile_qr_scan"}, "fusion_lat": 0.0, "name": "1cf740f3e413b351e42152e960f9220e", "bike_id": "1cf740f3e413b351e42152e960f9220e"}, {"is_disabled": 0, "is_reserved": 0, "type": "electric_scooter", "lon": -77.04310783333334, "fusion_lon": 0.0, "lat": 38.918835333333334, "rental_uris": {"android": "https://dc.lft.to/lastmile_qr_scan", "ios": "https://dc.lft.to/lastmile_qr_scan"}, "fusion_lat": 0.0, "name": "23bde3b5db77cc198d0c789ed20a207b", "bike_id": "23bde3b5db77cc198d0c789ed20a207b"}, {"is_disabled": 0, "is_reserved": 0, "type": "electric_scooter", "lon": -77.0297645, "fusion_lon": 0.0, "lat": 38.92037583333333, "rental_uris": {"android": "https://dc.lft.to/lastmile_qr_scan", "ios": "https://dc.lft.to/lastmile_qr_scan"}, "fusion_lat": 0.0, "name": "2f1450586c497f0fa140ebbd5c5e2c4a", "bike_id": "2f1450586c497f0fa140ebbd5c5e2c4a"}, {"is_disabled": 0, "is_reserved": 0, "type": "electric_scooter", "lon": -77.045959, "fusion_lon": 0.0, "lat": 38.91719, "rental_uris": {"android": "https://dc.lft.to/lastmile_qr_scan", "ios": "https://dc.lft.to/lastmile_qr_scan"}, "fusion_lat": 0.0, "name": "ea323febc466a8bc440e66abb3378a64", "bike_id": "ea323febc466a8bc440e66abb3378a64"}, {"is_disabled": 0, "is_reserved": 0, "type": "electric_scooter", "lon": -77.042723, "fusion_lon": 0.0, "lat": 38.9081255, "rental_uris": {"android": "https://dc.lft.to/lastmile_qr_scan", "ios": "https://dc.lft.to/lastmile_qr_scan"}, "fusion_lat": 0.0, "name": "2cf00e0834e4d50385fcf664f02338ab", "bike_id": "2cf00e0834e4d50385fcf664f02338ab"}, {"is_disabled": 0, "is_reserved": 0, "type": "electric_scooter", "lon": -76.9446895, "fusion_lon": 0.0, "lat": 38.90279233333333, "rental_uris": {"android": "https://dc.lft.to/lastmile_qr_scan", "ios": "https://dc.lft.to/lastmile_qr_scan"}, "fusion_lat": 0.0, "name": "491089a2ba9c5354513590318d29016b", "bike_id": "491089a2ba9c5354513590318d29016b"}, {"is_disabled": 0, "is_reserved": 0, "type": "electric_scooter", "lon": -77.0249275, "fusion_lon": 0.0, "lat": 38.94181916666667, "rental_uris": {"android": "https://dc.lft.to/lastmile_qr_scan", "ios": "https://dc.lft.to/lastmile_qr_scan"}, "fusion_lat": 0.0, "name": "29f24b7ab8e442c4f4fd67d117e4c5be", "bike_id": "29f24b7ab8e442c4f4fd67d117e4c5be"}, {"is_disabled": 0, "is_reserved": 0, "type": "electric_scooter", "lon": -76.95002533333333, "fusion_lon": 0.0, "lat": 38.893913, "rental_uris": {"android": "https://dc.lft.to/lastmile_qr_scan", "ios": "https://dc.lft.to/lastmile_qr_scan"}, "fusion_lat": 0.0, "name": "ad8a754978baf4ef7b9c04f8fa470ce8", "bike_id": "ad8a754978baf4ef7b9c04f8fa470ce8"}, {"is_disabled": 0, "is_reserved": 0, "type": "electric_scooter", "lon": -77.021766, "fusion_lon": 0.0, "lat": 38.897391999999996, "rental_uris": {"android": "https://dc.lft.to/lastmile_qr_scan", "ios": "https://dc.lft.to/lastmile_qr_scan"}, "fusion_lat": 0.0, "name": "12efcb469daba67fe7bae04d151fd3ee", "bike_id": "12efcb469daba67fe7bae04d151fd3ee"}, {"is_disabled": 0, "is_reserved": 0, "type": "electric_bike", "lon": -77.175281, "fusion_lon": 0.0, "lat": 39.095984, "rental_uris": {"android": "https://dc.lft.to/lastmile_qr_scan", "ios": "https://dc.lft.to/lastmile_qr_scan"}, "fusion_lat": 0.0, "name": "be018ab7db86ee604d6f2ff72eb29584", "bike_id": "be018ab7db86ee604d6f2ff72eb29584"}, {"is_disabled": 0, "is_reserved": 0, "type": "electric_scooter", "lon": -77.02960433333334, "fusion_lon": 0.0, "lat": 38.89225233333333, "rental_uris": {"android": "https://dc.lft.to/lastmile_qr_scan", "ios": "https://dc.lft.to/lastmile_qr_scan"}, "fusion_lat": 0.0, "name": "d112a61e57ad46854ce5325da59a9d3d", "bike_id": "d112a61e57ad46854ce5325da59a9d3d"}, {"is_disabled": 0, "is_reserved": 0, "type": "electric_scooter", "lon": -77.04674083333333, "fusion_lon": 0.0, "lat": 38.8973145, "rental_uris": {"android": "https://dc.lft.to/lastmile_qr_scan", "ios": "https://dc.lft.to/lastmile_qr_scan"}, "fusion_lat": 0.0, "name": "aff0f386c7fcac522f8d9e88c455f052", "bike_id": "aff0f386c7fcac522f8d9e88c455f052"}, {"is_disabled": 0, "is_reserved": 0, "type": "electric_scooter", "lon": -77.027062, "fusion_lon": 0.0, "lat": 38.92878283333334, "rental_uris": {"android": "https://dc.lft.to/lastmile_qr_scan", "ios": "https://dc.lft.to/lastmile_qr_scan"}, "fusion_lat": 0.0, "name": "436f74b924e004c3a7709db9e1565ac8", "bike_id": "436f74b924e004c3a7709db9e1565ac8"}, {"is_disabled": 0, "is_reserved": 0, "type": "electric_bike", "lon": -77.029516, "fusion_lon": 0.0, "lat": 38.98946816666667, "rental_uris": {"android": "https://dc.lft.to/lastmile_qr_scan", "ios": "https://dc.lft.to/lastmile_qr_scan"}, "fusion_lat": 0.0, "name": "93ed95c2f8e89887267c3259f4d8f664", "bike_id": "93ed95c2f8e89887267c3259f4d8f664"}, {"is_disabled": 0, "is_reserved": 0, "type": "electric_scooter", "lon": -77.00741866666667, "fusion_lon": 0.0, "lat": 38.915494333333335, "rental_uris": {"android": "https://dc.lft.to/lastmile_qr_scan", "ios": "https://dc.lft.to/lastmile_qr_scan"}, "fusion_lat": 0.0, "name": "32eb6710c63e6c2d3b6ac9befbbe04cf", "bike_id": "32eb6710c63e6c2d3b6ac9befbbe04cf"}, {"is_disabled": 0, "is_reserved": 0, "type": "electric_scooter", "lon": -77.01514133333333, "fusion_lon": 0.0, "lat": 38.887317, "rental_uris": {"android": "https://dc.lft.to/lastmile_qr_scan", "ios": "https://dc.lft.to/lastmile_qr_scan"}, "fusion_lat": 0.0, "name": "30c215df927bd0ea2ee63d0e5b49cf1f", "bike_id": "30c215df927bd0ea2ee63d0e5b49cf1f"}, {"is_disabled": 0, "is_reserved": 0, "type": "electric_scooter", "lon": -77.03268483333333, "fusion_lon": 0.0, "lat": 38.921610333333334, "rental_uris": {"android": "https://dc.lft.to/lastmile_qr_scan", "ios": "https://dc.lft.to/lastmile_qr_scan"}, "fusion_lat": 0.0, "name": "5dc4a12e220220293b220a06e51c6216", "bike_id": "5dc4a12e220220293b220a06e51c6216"}, {"is_disabled": 0, "is_reserved": 0, "type": "electric_scooter", "lon": -77.06062, "fusion_lon": 0.0, "lat": 38.905141666666665, "rental_uris": {"android": "https://dc.lft.to/lastmile_qr_scan", "ios": "https://dc.lft.to/lastmile_qr_scan"}, "fusion_lat": 0.0, "name": "d010d21f9844d39aba101abb3fce8bd2", "bike_id": "d010d21f9844d39aba101abb3fce8bd2"}, {"is_disabled": 0, "is_reserved": 0, "type": "electric_scooter", "lon": -77.04064866666667, "fusion_lon": 0.0, "lat": 38.9254605, "rental_uris": {"android": "https://dc.lft.to/lastmile_qr_scan", "ios": "https://dc.lft.to/lastmile_qr_scan"}, "fusion_lat": 0.0, "name": "fd7e705e79d320c8b20cf35803ac881f", "bike_id": "fd7e705e79d320c8b20cf35803ac881f"}, {"is_disabled": 0, "is_reserved": 0, "type": "electric_scooter", "lon": -76.99820266666667, "fusion_lon": 0.0, "lat": 38.844304, "rental_uris": {"android": "https://dc.lft.to/lastmile_qr_scan", "ios": "https://dc.lft.to/lastmile_qr_scan"}, "fusion_lat": 0.0, "name": "738916c9f53baa6ac0722a1da8258ef8", "bike_id": "738916c9f53baa6ac0722a1da8258ef8"}, {"is_disabled": 0, "is_reserved": 0, "type": "electric_scooter", "lon": -77.031839, "fusion_lon": 0.0, "lat": 38.91921416666667, "rental_uris": {"android": "https://dc.lft.to/lastmile_qr_scan", "ios": "https://dc.lft.to/lastmile_qr_scan"}, "fusion_lat": 0.0, "name": "484914bd18061da573b255bbec080e6a", "bike_id": "484914bd18061da573b255bbec080e6a"}, {"is_disabled": 0, "is_reserved": 0, "type": "electric_scooter", "lon": -77.0212325, "fusion_lon": 0.0, "lat": 38.887420666666664, "rental_uris": {"android": "https://dc.lft.to/lastmile_qr_scan", "ios": "https://dc.lft.to/lastmile_qr_scan"}, "fusion_lat": 0.0, "name": "a27dde72738143514575e29cf0bc9064", "bike_id": "a27dde72738143514575e29cf0bc9064"}, {"is_disabled": 0, "is_reserved": 0, "type": "electric_bike", "lon": -77.12628516666666, "fusion_lon": 0.0, "lat": 39.058096166666665, "rental_uris": {"android": "https://dc.lft.to/lastmile_qr_scan", "ios": "https://dc.lft.to/lastmile_qr_scan"}, "fusion_lat": 0.0, "name": "00d8a8bfe500e53158b4acb5645d4835", "bike_id": "00d8a8bfe500e53158b4acb5645d4835"}, {"is_disabled": 0, "is_reserved": 0, "type": "electric_scooter", "lon": -77.02658916666667, "fusion_lon": 0.0, "lat": 38.93275516666667, "rental_uris": {"android": "https://dc.lft.to/lastmile_qr_scan", "ios": "https://dc.lft.to/lastmile_qr_scan"}, "fusion_lat": 0.0, "name": "c108b0cc1899a96b5e2c406f50e06679", "bike_id": "c108b0cc1899a96b5e2c406f50e06679"}, {"is_disabled": 0, "is_reserved": 0, "type": "electric_scooter", "lon": -77.04690883333333, "fusion_lon": 0.0, "lat": 38.89735366666667, "rental_uris": {"android": "https://dc.lft.to/lastmile_qr_scan", "ios": "https://dc.lft.to/lastmile_qr_scan"}, "fusion_lat": 0.0, "name": "864103c4613f231b7cdbbf0db9bef676", "bike_id": "864103c4613f231b7cdbbf0db9bef676"}, {"is_disabled": 0, "is_reserved": 0, "type": "electric_scooter", "lon": -76.98782366666667, "fusion_lon": 0.0, "lat": 38.844663, "rental_uris": {"android": "https://dc.lft.to/lastmile_qr_scan", "ios": "https://dc.lft.to/lastmile_qr_scan"}, "fusion_lat": 0.0, "name": "2713d67833dccb07c65f7f31f02e8b9e", "bike_id": "2713d67833dccb07c65f7f31f02e8b9e"}, {"is_disabled": 0, "is_reserved": 0, "type": "electric_bike", "lon": -76.98831233333334, "fusion_lon": 0.0, "lat": 38.985615, "rental_uris": {"android": "https://dc.lft.to/lastmile_qr_scan", "ios": "https://dc.lft.to/lastmile_qr_scan"}, "fusion_lat": 0.0, "name": "e5843ef134c21767a96e3bea7fe5dbe6", "bike_id": "e5843ef134c21767a96e3bea7fe5dbe6"}, {"is_disabled": 0, "is_reserved": 0, "type": "electric_scooter", "lon": -76.9903145, "fusion_lon": 0.0, "lat": 38.898505166666666, "rental_uris": {"android": "https://dc.lft.to/lastmile_qr_scan", "ios": "https://dc.lft.to/lastmile_qr_scan"}, "fusion_lat": 0.0, "name": "9b8266db24b25f6f74508f17db69fc49", "bike_id": "9b8266db24b25f6f74508f17db69fc49"}, {"is_disabled": 0, "is_reserved": 0, "type": "electric_scooter", "lon": -77.05085266666667, "fusion_lon": 0.0, "lat": 38.905206, "rental_uris": {"android": "https://dc.lft.to/lastmile_qr_scan", "ios": "https://dc.lft.to/lastmile_qr_scan"}, "fusion_lat": 0.0, "name": "550c72a9a665c7266741bf72d291a466", "bike_id": "550c72a9a665c7266741bf72d291a466"}, {"is_disabled": 0, "is_reserved": 0, "type": "electric_scooter", "lon": -77.02628616666667, "fusion_lon": 0.0, "lat": 38.979437833333336, "rental_uris": {"android": "https://dc.lft.to/lastmile_qr_scan", "ios": "https://dc.lft.to/lastmile_qr_scan"}, "fusion_lat": 0.0, "name": "3539ebd52d5bb31cd4e5ed5b8d914de0", "bike_id": "3539ebd52d5bb31cd4e5ed5b8d914de0"}, {"is_disabled": 0, "is_reserved": 0, "type": "electric_scooter", "lon": -77.02749983333334, "fusion_lon": 0.0, "lat": 38.943129, "rental_uris": {"android": "https://dc.lft.to/lastmile_qr_scan", "ios": "https://dc.lft.to/lastmile_qr_scan"}, "fusion_lat": 0.0, "name": "ee7742bcfdcee74ec343d4fcab196556", "bike_id": "ee7742bcfdcee74ec343d4fcab196556"}, {"is_disabled": 0, "is_reserved": 0, "type": "electric_scooter", "lon": -77.04619866666667, "fusion_lon": 0.0, "lat": 38.9231575, "rental_uris": {"android": "https://dc.lft.to/lastmile_qr_scan", "ios": "https://dc.lft.to/lastmile_qr_scan"}, "fusion_lat": 0.0, "name": "ae08013d045e1ba78354b40e9c94de4a", "bike_id": "ae08013d045e1ba78354b40e9c94de4a"}, {"is_disabled": 0, "is_reserved": 0, "type": "electric_scooter", "lon": -77.04021683333333, "fusion_lon": 0.0, "lat": 38.917977, "rental_uris": {"android": "https://dc.lft.to/lastmile_qr_scan", "ios": "https://dc.lft.to/lastmile_qr_scan"}, "fusion_lat": 0.0, "name": "93c6fa69430409ab7beda2802d4f2f67", "bike_id": "93c6fa69430409ab7beda2802d4f2f67"}, {"is_disabled": 0, "is_reserved": 0, "type": "electric_scooter", "lon": -76.9412225, "fusion_lon": 0.0, "lat": 38.88448616666667, "rental_uris": {"android": "https://dc.lft.to/lastmile_qr_scan", "ios": "https://dc.lft.to/lastmile_qr_scan"}, "fusion_lat": 0.0, "name": "a8a5c741d1bf8e3cf889448139c1d65c", "bike_id": "a8a5c741d1bf8e3cf889448139c1d65c"}, {"is_disabled": 0, "is_reserved": 0, "type": "electric_scooter", "lon": -77.04277033333334, "fusion_lon": 0.0, "lat": 38.910443666666666, "rental_uris": {"android": "https://dc.lft.to/lastmile_qr_scan", "ios": "https://dc.lft.to/lastmile_qr_scan"}, "fusion_lat": 0.0, "name": "2228f3a855aa9a4e50deca3240a72263", "bike_id": "2228f3a855aa9a4e50deca3240a72263"}, {"is_disabled": 0, "is_reserved": 0, "type": "electric_scooter", "lon": -77.02843533333333, "fusion_lon": 0.0, "lat": 38.932981833333336, "rental_uris": {"android": "https://dc.lft.to/lastmile_qr_scan", "ios": "https://dc.lft.to/lastmile_qr_scan"}, "fusion_lat": 0.0, "name": "f7a6fc81da96d07982fa7134a5ba22e3", "bike_id": "f7a6fc81da96d07982fa7134a5ba22e3"}, {"is_disabled": 0, "is_reserved": 0, "type": "electric_scooter", "lon": -77.038547, "fusion_lon": 0.0, "lat": 38.903876833333335, "rental_uris": {"android": "https://dc.lft.to/lastmile_qr_scan", "ios": "https://dc.lft.to/lastmile_qr_scan"}, "fusion_lat": 0.0, "name": "7eb20e580ad23ea1e4691749e1c9b47e", "bike_id": "7eb20e580ad23ea1e4691749e1c9b47e"}, {"is_disabled": 0, "is_reserved": 0, "type": "electric_scooter", "lon": -77.0299365, "fusion_lon": 0.0, "lat": 38.93238183333333, "rental_uris": {"android": "https://dc.lft.to/lastmile_qr_scan", "ios": "https://dc.lft.to/lastmile_qr_scan"}, "fusion_lat": 0.0, "name": "e05f3c104365b7cd17bb075eceec660e", "bike_id": "e05f3c104365b7cd17bb075eceec660e"}, {"is_disabled": 0, "is_reserved": 0, "type": "electric_scooter", "lon": -77.03896166666667, "fusion_lon": 0.0, "lat": 38.9249735, "rental_uris": {"android": "https://dc.lft.to/lastmile_qr_scan", "ios": "https://dc.lft.to/lastmile_qr_scan"}, "fusion_lat": 0.0, "name": "516ac51c75247051ebeb46be358bdd4e", "bike_id": "516ac51c75247051ebeb46be358bdd4e"}, {"is_disabled": 0, "is_reserved": 0, "type": "electric_scooter", "lon": -77.04409883333334, "fusion_lon": 0.0, "lat": 38.90897983333333, "rental_uris": {"android": "https://dc.lft.to/lastmile_qr_scan", "ios": "https://dc.lft.to/lastmile_qr_scan"}, "fusion_lat": 0.0, "name": "b1d9e1af55423772f8970a148daceaa0", "bike_id": "b1d9e1af55423772f8970a148daceaa0"}, {"is_disabled": 0, "is_reserved": 0, "type": "electric_bike", "lon": -76.968365, "fusion_lon": 0.0, "lat": 38.92444533333333, "rental_uris": {"android": "https://dc.lft.to/lastmile_qr_scan", "ios": "https://dc.lft.to/lastmile_qr_scan"}, "fusion_lat": 0.0, "name": "7a7ea8f247daf69dc872938e4ca18737", "bike_id": "7a7ea8f247daf69dc872938e4ca18737"}, {"is_disabled": 0, "is_reserved": 0, "type": "electric_scooter", "lon": -77.03452983333334, "fusion_lon": 0.0, "lat": 38.96426, "rental_uris": {"android": "https://dc.lft.to/lastmile_qr_scan", "ios": "https://dc.lft.to/lastmile_qr_scan"}, "fusion_lat": 0.0, "name": "4b5fe735723021251a53b7b8c008fb7b", "bike_id": "4b5fe735723021251a53b7b8c008fb7b"}, {"is_disabled": 0, "is_reserved": 0, "type": "electric_scooter", "lon": -76.98328066666667, "fusion_lon": 0.0, "lat": 38.861722666666665, "rental_uris": {"android": "https://dc.lft.to/lastmile_qr_scan", "ios": "https://dc.lft.to/lastmile_qr_scan"}, "fusion_lat": 0.0, "name": "7b0517f3119f72997d9f8a205cd80c51", "bike_id": "7b0517f3119f72997d9f8a205cd80c51"}, {"is_disabled": 0, "is_reserved": 0, "type": "electric_scooter", "lon": -77.047156, "fusion_lon": 0.0, "lat": 38.8996185, "rental_uris": {"android": "https://dc.lft.to/lastmile_qr_scan", "ios": "https://dc.lft.to/lastmile_qr_scan"}, "fusion_lat": 0.0, "name": "8401b3620cb7d91fe1cddc77d32162a8", "bike_id": "8401b3620cb7d91fe1cddc77d32162a8"}, {"is_disabled": 0, "is_reserved": 0, "type": "electric_scooter", "lon": -77.022492, "fusion_lon": 0.0, "lat": 38.892188166666664, "rental_uris": {"android": "https://dc.lft.to/lastmile_qr_scan", "ios": "https://dc.lft.to/lastmile_qr_scan"}, "fusion_lat": 0.0, "name": "074ec0eeab7e98c5c3fcc4b8eec4dbc7", "bike_id": "074ec0eeab7e98c5c3fcc4b8eec4dbc7"}, {"is_disabled": 0, "is_reserved": 0, "type": "electric_scooter", "lon": -77.0319365, "fusion_lon": 0.0, "lat": 38.903460333333335, "rental_uris": {"android": "https://dc.lft.to/lastmile_qr_scan", "ios": "https://dc.lft.to/lastmile_qr_scan"}, "fusion_lat": 0.0, "name": "14c37cd6f785cba39ffbc16f680af9f0", "bike_id": "14c37cd6f785cba39ffbc16f680af9f0"}, {"is_disabled": 0, "is_reserved": 0, "type": "electric_bike", "lon": -77.15269366666666, "fusion_lon": 0.0, "lat": 39.105652, "rental_uris": {"android": "https://dc.lft.to/lastmile_qr_scan", "ios": "https://dc.lft.to/lastmile_qr_scan"}, "fusion_lat": 0.0, "name": "b3ed39f5d05059458605a0743ab2c9b1", "bike_id": "b3ed39f5d05059458605a0743ab2c9b1"}, {"is_disabled": 0, "is_reserved": 0, "type": "electric_scooter", "lon": -77.04497666666667, "fusion_lon": 0.0, "lat": 38.8961445, "rental_uris": {"android": "https://dc.lft.to/lastmile_qr_scan", "ios": "https://dc.lft.to/lastmile_qr_scan"}, "fusion_lat": 0.0, "name": "e3fb95e48753e50d5aa43a2d3e98e782", "bike_id": "e3fb95e48753e50d5aa43a2d3e98e782"}, {"is_disabled": 0, "is_reserved": 0, "type": "electric_scooter", "lon": -77.0572875, "fusion_lon": 0.0, "lat": 38.933692666666666, "rental_uris": {"android": "https://dc.lft.to/lastmile_qr_scan", "ios": "https://dc.lft.to/lastmile_qr_scan"}, "fusion_lat": 0.0, "name": "4837f9133726afbe051dc8bfae58ea17", "bike_id": "4837f9133726afbe051dc8bfae58ea17"}, {"is_disabled": 0, "is_reserved": 0, "type": "electric_scooter", "lon": -77.03683316666667, "fusion_lon": 0.0, "lat": 38.916819, "rental_uris": {"android": "https://dc.lft.to/lastmile_qr_scan", "ios": "https://dc.lft.to/lastmile_qr_scan"}, "fusion_lat": 0.0, "name": "c778d792686d532d251c28fbef94676f", "bike_id": "c778d792686d532d251c28fbef94676f"}, {"is_disabled": 0, "is_reserved": 0, "type": "electric_scooter", "lon": -77.01094733333333, "fusion_lon": 0.0, "lat": 38.90558433333333, "rental_uris": {"android": "https://dc.lft.to/lastmile_qr_scan", "ios": "https://dc.lft.to/lastmile_qr_scan"}, "fusion_lat": 0.0, "name": "69e4881adeddf8412f6865e5035f776f", "bike_id": "69e4881adeddf8412f6865e5035f776f"}, {"is_disabled": 0, "is_reserved": 0, "type": "electric_bike", "lon": -77.07687383333334, "fusion_lon": 0.0, "lat": 38.831941666666665, "rental_uris": {"android": "https://dc.lft.to/lastmile_qr_scan", "ios": "https://dc.lft.to/lastmile_qr_scan"}, "fusion_lat": 0.0, "name": "5258e29770baf72c51a44a8fc07197fc", "bike_id": "5258e29770baf72c51a44a8fc07197fc"}, {"is_disabled": 0, "is_reserved": 0, "type": "electric_scooter", "lon": -77.03350366666666, "fusion_lon": 0.0, "lat": 38.892455, "rental_uris": {"android": "https://dc.lft.to/lastmile_qr_scan", "ios": "https://dc.lft.to/lastmile_qr_scan"}, "fusion_lat": 0.0, "name": "7cc8a3a42338c00643b9fc742b107f73", "bike_id": "7cc8a3a42338c00643b9fc742b107f73"}, {"is_disabled": 0, "is_reserved": 0, "type": "electric_bike", "lon": -76.9354065, "fusion_lon": 0.0, "lat": 38.955582166666666, "rental_uris": {"android": "https://dc.lft.to/lastmile_qr_scan", "ios": "https://dc.lft.to/lastmile_qr_scan"}, "fusion_lat": 0.0, "name": "9c7a42ecc17022ca56caf74d2639f6ab", "bike_id": "9c7a42ecc17022ca56caf74d2639f6ab"}, {"is_disabled": 0, "is_reserved": 0, "type": "electric_bike", "lon": -77.122605, "fusion_lon": 0.0, "lat": 38.88768616666667, "rental_uris": {"android": "https://dc.lft.to/lastmile_qr_scan", "ios": "https://dc.lft.to/lastmile_qr_scan"}, "fusion_lat": 0.0, "name": "fc8acf906b5e046661ff191afbcc3690", "bike_id": "fc8acf906b5e046661ff191afbcc3690"}, {"is_disabled": 0, "is_reserved": 0, "type": "electric_bike", "lon": -77.11223516666666, "fusion_lon": 0.0, "lat": 38.828724666666666, "rental_uris": {"android": "https://dc.lft.to/lastmile_qr_scan", "ios": "https://dc.lft.to/lastmile_qr_scan"}, "fusion_lat": 0.0, "name": "201d65d2bbda1126b086b838a469eeea", "bike_id": "201d65d2bbda1126b086b838a469eeea"}, {"is_disabled": 0, "is_reserved": 0, "type": "electric_scooter", "lon": -77.03477783333334, "fusion_lon": 0.0, "lat": 38.90571966666667, "rental_uris": {"android": "https://dc.lft.to/lastmile_qr_scan", "ios": "https://dc.lft.to/lastmile_qr_scan"}, "fusion_lat": 0.0, "name": "6243bbb5e826c6f5968adf83ed1f1366", "bike_id": "6243bbb5e826c6f5968adf83ed1f1366"}, {"is_disabled": 0, "is_reserved": 0, "type": "electric_scooter", "lon": -77.04685116666667, "fusion_lon": 0.0, "lat": 38.89730766666667, "rental_uris": {"android": "https://dc.lft.to/lastmile_qr_scan", "ios": "https://dc.lft.to/lastmile_qr_scan"}, "fusion_lat": 0.0, "name": "2ecc28e6a41c36a80cd9a8ca8fcc6696", "bike_id": "2ecc28e6a41c36a80cd9a8ca8fcc6696"}, {"is_disabled": 0, "is_reserved": 0, "type": "electric_scooter", "lon": -77.02227966666666, "fusion_lon": 0.0, "lat": 38.912684, "rental_uris": {"android": "https://dc.lft.to/lastmile_qr_scan", "ios": "https://dc.lft.to/lastmile_qr_scan"}, "fusion_lat": 0.0, "name": "db8db34745ae411cb2ed969d2fb01932", "bike_id": "db8db34745ae411cb2ed969d2fb01932"}, {"is_disabled": 0, "is_reserved": 0, "type": "electric_scooter", "lon": -77.0486185, "fusion_lon": 0.0, "lat": 38.91340233333333, "rental_uris": {"android": "https://dc.lft.to/lastmile_qr_scan", "ios": "https://dc.lft.to/lastmile_qr_scan"}, "fusion_lat": 0.0, "name": "80ceede587bba1f4fac9864c51cdbae2", "bike_id": "80ceede587bba1f4fac9864c51cdbae2"}, {"is_disabled": 0, "is_reserved": 0, "type": "electric_scooter", "lon": -77.076827, "fusion_lon": 0.0, "lat": 38.921685833333335, "rental_uris": {"android": "https://dc.lft.to/lastmile_qr_scan", "ios": "https://dc.lft.to/lastmile_qr_scan"}, "fusion_lat": 0.0, "name": "f28718d679d7291e8f9010bad38695be", "bike_id": "f28718d679d7291e8f9010bad38695be"}, {"is_disabled": 0, "is_reserved": 0, "type": "electric_scooter", "lon": -77.00623166666666, "fusion_lon": 0.0, "lat": 38.87193033333333, "rental_uris": {"android": "https://dc.lft.to/lastmile_qr_scan", "ios": "https://dc.lft.to/lastmile_qr_scan"}, "fusion_lat": 0.0, "name": "862c6dd558ec7c4e9b72fa1e38605778", "bike_id": "862c6dd558ec7c4e9b72fa1e38605778"}, {"is_disabled": 0, "is_reserved": 0, "type": "electric_scooter", "lon": -77.03201316666667, "fusion_lon": 0.0, "lat": 38.91473466666667, "rental_uris": {"android": "https://dc.lft.to/lastmile_qr_scan", "ios": "https://dc.lft.to/lastmile_qr_scan"}, "fusion_lat": 0.0, "name": "b6673a89afc96d493bd72c4f4217ffd1", "bike_id": "b6673a89afc96d493bd72c4f4217ffd1"}, {"is_disabled": 0, "is_reserved": 0, "type": "electric_scooter", "lon": -77.0420485, "fusion_lon": 0.0, "lat": 38.91128483333333, "rental_uris": {"android": "https://dc.lft.to/lastmile_qr_scan", "ios": "https://dc.lft.to/lastmile_qr_scan"}, "fusion_lat": 0.0, "name": "dbff09b3a76c30f1561d1f535df28620", "bike_id": "dbff09b3a76c30f1561d1f535df28620"}, {"is_disabled": 0, "is_reserved": 0, "type": "electric_scooter", "lon": -77.03191583333333, "fusion_lon": 0.0, "lat": 38.89781166666667, "rental_uris": {"android": "https://dc.lft.to/lastmile_qr_scan", "ios": "https://dc.lft.to/lastmile_qr_scan"}, "fusion_lat": 0.0, "name": "4ce85f8daa49304289328459e64aff0f", "bike_id": "4ce85f8daa49304289328459e64aff0f"}, {"is_disabled": 0, "is_reserved": 0, "type": "electric_scooter", "lon": -76.991794, "fusion_lon": 0.0, "lat": 38.88909966666667, "rental_uris": {"android": "https://dc.lft.to/lastmile_qr_scan", "ios": "https://dc.lft.to/lastmile_qr_scan"}, "fusion_lat": 0.0, "name": "7c505e4a35a362a1bc2f7263be4b6431", "bike_id": "7c505e4a35a362a1bc2f7263be4b6431"}, {"is_disabled": 0, "is_reserved": 0, "type": "electric_scooter", "lon": -77.02022516666666, "fusion_lon": 0.0, "lat": 38.89477816666667, "rental_uris": {"android": "https://dc.lft.to/lastmile_qr_scan", "ios": "https://dc.lft.to/lastmile_qr_scan"}, "fusion_lat": 0.0, "name": "85878a873635cc3a43fd84468b853803", "bike_id": "85878a873635cc3a43fd84468b853803"}, {"is_disabled": 0, "is_reserved": 0, "type": "electric_scooter", "lon": -77.0067725, "fusion_lon": 0.0, "lat": 38.900101, "rental_uris": {"android": "https://dc.lft.to/lastmile_qr_scan", "ios": "https://dc.lft.to/lastmile_qr_scan"}, "fusion_lat": 0.0, "name": "8334d24797b6d6f7b605e45a29fab61f", "bike_id": "8334d24797b6d6f7b605e45a29fab61f"}, {"is_disabled": 0, "is_reserved": 0, "type": "electric_scooter", "lon": -77.005669, "fusion_lon": 0.0, "lat": 38.88504016666667, "rental_uris": {"android": "https://dc.lft.to/lastmile_qr_scan", "ios": "https://dc.lft.to/lastmile_qr_scan"}, "fusion_lat": 0.0, "name": "82ea8187ca0dcb4860040cbf65cf932d", "bike_id": "82ea8187ca0dcb4860040cbf65cf932d"}, {"is_disabled": 0, "is_reserved": 0, "type": "electric_scooter", "lon": -77.04314333333333, "fusion_lon": 0.0, "lat": 38.903789833333335, "rental_uris": {"android": "https://dc.lft.to/lastmile_qr_scan", "ios": "https://dc.lft.to/lastmile_qr_scan"}, "fusion_lat": 0.0, "name": "de07050131eb0e439a4f58fa97518156", "bike_id": "de07050131eb0e439a4f58fa97518156"}, {"is_disabled": 0, "is_reserved": 0, "type": "electric_scooter", "lon": -77.02591833333334, "fusion_lon": 0.0, "lat": 38.89525783333333, "rental_uris": {"android": "https://dc.lft.to/lastmile_qr_scan", "ios": "https://dc.lft.to/lastmile_qr_scan"}, "fusion_lat": 0.0, "name": "eddcca8bca75f51534e38cdafee36ba6", "bike_id": "eddcca8bca75f51534e38cdafee36ba6"}, {"is_disabled": 0, "is_reserved": 0, "type": "electric_bike", "lon": -77.02887866666667, "fusion_lon": 0.0, "lat": 38.998506166666665, "rental_uris": {"android": "https://dc.lft.to/lastmile_qr_scan", "ios": "https://dc.lft.to/lastmile_qr_scan"}, "fusion_lat": 0.0, "name": "3901bb63eb15d3db982d2e3b2f72fce6", "bike_id": "3901bb63eb15d3db982d2e3b2f72fce6"}, {"is_disabled": 0, "is_reserved": 0, "type": "electric_scooter", "lon": -77.0222795, "fusion_lon": 0.0, "lat": 38.892192, "rental_uris": {"android": "https://dc.lft.to/lastmile_qr_scan", "ios": "https://dc.lft.to/lastmile_qr_scan"}, "fusion_lat": 0.0, "name": "c4901a1e528f85a91030ba8514c274b0", "bike_id": "c4901a1e528f85a91030ba8514c274b0"}, {"is_disabled": 0, "is_reserved": 0, "type": "electric_scooter", "lon": -77.01934416666667, "fusion_lon": 0.0, "lat": 38.9024765, "rental_uris": {"android": "https://dc.lft.to/lastmile_qr_scan", "ios": "https://dc.lft.to/lastmile_qr_scan"}, "fusion_lat": 0.0, "name": "c2524dd6fd2481928084701afbb7f4a7", "bike_id": "c2524dd6fd2481928084701afbb7f4a7"}, {"is_disabled": 0, "is_reserved": 0, "type": "electric_scooter", "lon": -77.038565, "fusion_lon": 0.0, "lat": 38.91660183333333, "rental_uris": {"android": "https://dc.lft.to/lastmile_qr_scan", "ios": "https://dc.lft.to/lastmile_qr_scan"}, "fusion_lat": 0.0, "name": "d2534a79eb830935805cd3b3ebf89107", "bike_id": "d2534a79eb830935805cd3b3ebf89107"}, {"is_disabled": 0, "is_reserved": 0, "type": "electric_bike", "lon": -77.122689, "fusion_lon": 0.0, "lat": 38.89732266666667, "rental_uris": {"android": "https://dc.lft.to/lastmile_qr_scan", "ios": "https://dc.lft.to/lastmile_qr_scan"}, "fusion_lat": 0.0, "name": "7f36060bfc0623dcb71c41c071b60503", "bike_id": "7f36060bfc0623dcb71c41c071b60503"}, {"is_disabled": 0, "is_reserved": 0, "type": "electric_scooter", "lon": -77.03604183333333, "fusion_lon": 0.0, "lat": 38.934843, "rental_uris": {"android": "https://dc.lft.to/lastmile_qr_scan", "ios": "https://dc.lft.to/lastmile_qr_scan"}, "fusion_lat": 0.0, "name": "8bd479e3dc4585d9f67c8c34e2838a8e", "bike_id": "8bd479e3dc4585d9f67c8c34e2838a8e"}, {"is_disabled": 0, "is_reserved": 0, "type": "electric_bike", "lon": -77.22935566666666, "fusion_lon": 0.0, "lat": 38.93189266666667, "rental_uris": {"android": "https://dc.lft.to/lastmile_qr_scan", "ios": "https://dc.lft.to/lastmile_qr_scan"}, "fusion_lat": 0.0, "name": "ba45b7fd18376fd143473d60307d22ae", "bike_id": "ba45b7fd18376fd143473d60307d22ae"}, {"is_disabled": 0, "is_reserved": 0, "type": "electric_scooter", "lon": -76.94248416666667, "fusion_lon": 0.0, "lat": 38.896798, "rental_uris": {"android": "https://dc.lft.to/lastmile_qr_scan", "ios": "https://dc.lft.to/lastmile_qr_scan"}, "fusion_lat": 0.0, "name": "67014d1a97fad7b924892d228d2f21dc", "bike_id": "67014d1a97fad7b924892d228d2f21dc"}, {"is_disabled": 0, "is_reserved": 0, "type": "electric_bike", "lon": -76.91658483333333, "fusion_lon": 0.0, "lat": 38.868586666666666, "rental_uris": {"android": "https://dc.lft.to/lastmile_qr_scan", "ios": "https://dc.lft.to/lastmile_qr_scan"}, "fusion_lat": 0.0, "name": "f658a6aebe8788f943fea213904a591b", "bike_id": "f658a6aebe8788f943fea213904a591b"}, {"is_disabled": 0, "is_reserved": 0, "type": "electric_bike", "lon": -77.02916633333334, "fusion_lon": 0.0, "lat": 38.8951605, "rental_uris": {"android": "https://dc.lft.to/lastmile_qr_scan", "ios": "https://dc.lft.to/lastmile_qr_scan"}, "fusion_lat": 0.0, "name": "b5ca97467e36c21ddd188a76d243a633", "bike_id": "b5ca97467e36c21ddd188a76d243a633"}, {"is_disabled": 0, "is_reserved": 0, "type": "electric_scooter", "lon": -77.03950333333333, "fusion_lon": 0.0, "lat": 38.91392616666667, "rental_uris": {"android": "https://dc.lft.to/lastmile_qr_scan", "ios": "https://dc.lft.to/lastmile_qr_scan"}, "fusion_lat": 0.0, "name": "b065867f07aba7d7a3408e91fa6fc0d7", "bike_id": "b065867f07aba7d7a3408e91fa6fc0d7"}, {"is_disabled": 0, "is_reserved": 0, "type": "electric_scooter", "lon": -77.03397866666667, "fusion_lon": 0.0, "lat": 38.907050166666664, "rental_uris": {"android": "https://dc.lft.to/lastmile_qr_scan", "ios": "https://dc.lft.to/lastmile_qr_scan"}, "fusion_lat": 0.0, "name": "600875800862e4807cb68a518380d5b1", "bike_id": "600875800862e4807cb68a518380d5b1"}, {"is_disabled": 0, "is_reserved": 0, "type": "electric_scooter", "lon": -77.04300766666667, "fusion_lon": 0.0, "lat": 38.913382666666664, "rental_uris": {"android": "https://dc.lft.to/lastmile_qr_scan", "ios": "https://dc.lft.to/lastmile_qr_scan"}, "fusion_lat": 0.0, "name": "c4470cf503cf6dee923e638cf827fb6d", "bike_id": "c4470cf503cf6dee923e638cf827fb6d"}, {"is_disabled": 0, "is_reserved": 0, "type": "electric_scooter", "lon": -77.04052583333333, "fusion_lon": 0.0, "lat": 38.905673666666665, "rental_uris": {"android": "https://dc.lft.to/lastmile_qr_scan", "ios": "https://dc.lft.to/lastmile_qr_scan"}, "fusion_lat": 0.0, "name": "eb6ec10a317f40607120f7817a651714", "bike_id": "eb6ec10a317f40607120f7817a651714"}, {"is_disabled": 0, "is_reserved": 0, "type": "electric_scooter", "lon": -77.04241316666666, "fusion_lon": 0.0, "lat": 38.919265833333334, "rental_uris": {"android": "https://dc.lft.to/lastmile_qr_scan", "ios": "https://dc.lft.to/lastmile_qr_scan"}, "fusion_lat": 0.0, "name": "49c0465db6bdca9915287a6b02958128", "bike_id": "49c0465db6bdca9915287a6b02958128"}, {"is_disabled": 0, "is_reserved": 0, "type": "electric_scooter", "lon": -77.01968016666666, "fusion_lon": 0.0, "lat": 38.893621833333334, "rental_uris": {"android": "https://dc.lft.to/lastmile_qr_scan", "ios": "https://dc.lft.to/lastmile_qr_scan"}, "fusion_lat": 0.0, "name": "8c14b3ea8a93a9214d7dddb4f4fdfc9b", "bike_id": "8c14b3ea8a93a9214d7dddb4f4fdfc9b"}, {"is_disabled": 0, "is_reserved": 0, "type": "electric_scooter", "lon": -77.02772916666666, "fusion_lon": 0.0, "lat": 38.91710166666667, "rental_uris": {"android": "https://dc.lft.to/lastmile_qr_scan", "ios": "https://dc.lft.to/lastmile_qr_scan"}, "fusion_lat": 0.0, "name": "4496e56364c18f3150bc09699854beb0", "bike_id": "4496e56364c18f3150bc09699854beb0"}, {"is_disabled": 0, "is_reserved": 0, "type": "electric_scooter", "lon": -77.01604483333334, "fusion_lon": 0.0, "lat": 38.887405333333334, "rental_uris": {"android": "https://dc.lft.to/lastmile_qr_scan", "ios": "https://dc.lft.to/lastmile_qr_scan"}, "fusion_lat": 0.0, "name": "2c441635679fffef0c032d98c96c7261", "bike_id": "2c441635679fffef0c032d98c96c7261"}, {"is_disabled": 0, "is_reserved": 0, "type": "electric_scooter", "lon": -77.08581216666667, "fusion_lon": 0.0, "lat": 38.933539333333336, "rental_uris": {"android": "https://dc.lft.to/lastmile_qr_scan", "ios": "https://dc.lft.to/lastmile_qr_scan"}, "fusion_lat": 0.0, "name": "b2dd1aca02861c455c9c96831ebbcdb2", "bike_id": "b2dd1aca02861c455c9c96831ebbcdb2"}, {"is_disabled": 0, "is_reserved": 0, "type": "electric_scooter", "lon": -77.03250266666667, "fusion_lon": 0.0, "lat": 38.9045645, "rental_uris": {"android": "https://dc.lft.to/lastmile_qr_scan", "ios": "https://dc.lft.to/lastmile_qr_scan"}, "fusion_lat": 0.0, "name": "f17504d18fbb96fc00df0477583797b2", "bike_id": "f17504d18fbb96fc00df0477583797b2"}, {"is_disabled": 0, "is_reserved": 0, "type": "electric_scooter", "lon": -76.99647, "fusion_lon": 0.0, "lat": 38.88719783333333, "rental_uris": {"android": "https://dc.lft.to/lastmile_qr_scan", "ios": "https://dc.lft.to/lastmile_qr_scan"}, "fusion_lat": 0.0, "name": "dca71a90fe1f5dc32ce42b2dc7c6d561", "bike_id": "dca71a90fe1f5dc32ce42b2dc7c6d561"}, {"is_disabled": 0, "is_reserved": 0, "type": "electric_scooter", "lon": -77.03154733333334, "fusion_lon": 0.0, "lat": 38.90366183333333, "rental_uris": {"android": "https://dc.lft.to/lastmile_qr_scan", "ios": "https://dc.lft.to/lastmile_qr_scan"}, "fusion_lat": 0.0, "name": "1e6f2ae2a1eeb8a3c6cbc58917fd1f3b", "bike_id": "1e6f2ae2a1eeb8a3c6cbc58917fd1f3b"}, {"is_disabled": 0, "is_reserved": 0, "type": "electric_scooter", "lon": -77.05783216666667, "fusion_lon": 0.0, "lat": 38.90508666666667, "rental_uris": {"android": "https://dc.lft.to/lastmile_qr_scan", "ios": "https://dc.lft.to/lastmile_qr_scan"}, "fusion_lat": 0.0, "name": "cf016af7a1b2c30f56e51aea852ba9a3", "bike_id": "cf016af7a1b2c30f56e51aea852ba9a3"}, {"is_disabled": 0, "is_reserved": 0, "type": "electric_scooter", "lon": -77.028587, "fusion_lon": 0.0, "lat": 38.9023335, "rental_uris": {"android": "https://dc.lft.to/lastmile_qr_scan", "ios": "https://dc.lft.to/lastmile_qr_scan"}, "fusion_lat": 0.0, "name": "868c23b2d2e5b68c3f409dc7d93eb9a1", "bike_id": "868c23b2d2e5b68c3f409dc7d93eb9a1"}, {"is_disabled": 0, "is_reserved": 0, "type": "electric_scooter", "lon": -77.018566, "fusion_lon": 0.0, "lat": 38.949203, "rental_uris": {"android": "https://dc.lft.to/lastmile_qr_scan", "ios": "https://dc.lft.to/lastmile_qr_scan"}, "fusion_lat": 0.0, "name": "678fc71d92064d3401e4761f7237a872", "bike_id": "678fc71d92064d3401e4761f7237a872"}, {"is_disabled": 0, "is_reserved": 0, "type": "electric_scooter", "lon": -77.04678633333333, "fusion_lon": 0.0, "lat": 38.903071, "rental_uris": {"android": "https://dc.lft.to/lastmile_qr_scan", "ios": "https://dc.lft.to/lastmile_qr_scan"}, "fusion_lat": 0.0, "name": "98c00c3f1e2ddc25c6b4e43ae159c2b0", "bike_id": "98c00c3f1e2ddc25c6b4e43ae159c2b0"}, {"is_disabled": 0, "is_reserved": 0, "type": "electric_scooter", "lon": -76.94887266666667, "fusion_lon": 0.0, "lat": 38.895074, "rental_uris": {"android": "https://dc.lft.to/lastmile_qr_scan", "ios": "https://dc.lft.to/lastmile_qr_scan"}, "fusion_lat": 0.0, "name": "161f35e4db39f15c87a0b0454969a7b0", "bike_id": "161f35e4db39f15c87a0b0454969a7b0"}, {"is_disabled": 0, "is_reserved": 0, "type": "electric_scooter", "lon": -77.0147005, "fusion_lon": 0.0, "lat": 38.9266315, "rental_uris": {"android": "https://dc.lft.to/lastmile_qr_scan", "ios": "https://dc.lft.to/lastmile_qr_scan"}, "fusion_lat": 0.0, "name": "8e86333e34470d3fcf29272202f30b2b", "bike_id": "8e86333e34470d3fcf29272202f30b2b"}, {"is_disabled": 0, "is_reserved": 0, "type": "electric_scooter", "lon": -77.0198925, "fusion_lon": 0.0, "lat": 38.8951435, "rental_uris": {"android": "https://dc.lft.to/lastmile_qr_scan", "ios": "https://dc.lft.to/lastmile_qr_scan"}, "fusion_lat": 0.0, "name": "b89178736a1eaf9b587325d2d96ccd92", "bike_id": "b89178736a1eaf9b587325d2d96ccd92"}, {"is_disabled": 0, "is_reserved": 0, "type": "electric_scooter", "lon": -77.04456483333334, "fusion_lon": 0.0, "lat": 38.914038, "rental_uris": {"android": "https://dc.lft.to/lastmile_qr_scan", "ios": "https://dc.lft.to/lastmile_qr_scan"}, "fusion_lat": 0.0, "name": "c404c3b1d7a8e8e9e2b4b3ba689c1424", "bike_id": "c404c3b1d7a8e8e9e2b4b3ba689c1424"}, {"is_disabled": 0, "is_reserved": 0, "type": "electric_scooter", "lon": -77.02941683333333, "fusion_lon": 0.0, "lat": 38.8961435, "rental_uris": {"android": "https://dc.lft.to/lastmile_qr_scan", "ios": "https://dc.lft.to/lastmile_qr_scan"}, "fusion_lat": 0.0, "name": "e655298a6e6f44277cb52896ae82ed6a", "bike_id": "e655298a6e6f44277cb52896ae82ed6a"}, {"is_disabled": 0, "is_reserved": 0, "type": "electric_scooter", "lon": -77.016907, "fusion_lon": 0.0, "lat": 38.90259866666667, "rental_uris": {"android": "https://dc.lft.to/lastmile_qr_scan", "ios": "https://dc.lft.to/lastmile_qr_scan"}, "fusion_lat": 0.0, "name": "14df1caccaa42310855d101860fd904a", "bike_id": "14df1caccaa42310855d101860fd904a"}, {"is_disabled": 0, "is_reserved": 0, "type": "electric_scooter", "lon": -77.06758033333334, "fusion_lon": 0.0, "lat": 38.905037, "rental_uris": {"android": "https://dc.lft.to/lastmile_qr_scan", "ios": "https://dc.lft.to/lastmile_qr_scan"}, "fusion_lat": 0.0, "name": "779c377f02101f43d00a83c7aedfebf1", "bike_id": "779c377f02101f43d00a83c7aedfebf1"}, {"is_disabled": 0, "is_reserved": 0, "type": "electric_scooter", "lon": -76.98050633333334, "fusion_lon": 0.0, "lat": 38.920350166666665, "rental_uris": {"android": "https://dc.lft.to/lastmile_qr_scan", "ios": "https://dc.lft.to/lastmile_qr_scan"}, "fusion_lat": 0.0, "name": "753887260dceefd6098431748787e952", "bike_id": "753887260dceefd6098431748787e952"}, {"is_disabled": 0, "is_reserved": 0, "type": "electric_scooter", "lon": -77.02980866666667, "fusion_lon": 0.0, "lat": 38.927269333333335, "rental_uris": {"android": "https://dc.lft.to/lastmile_qr_scan", "ios": "https://dc.lft.to/lastmile_qr_scan"}, "fusion_lat": 0.0, "name": "a985d4d76f1db59dff6152678285b7ac", "bike_id": "a985d4d76f1db59dff6152678285b7ac"}, {"is_disabled": 0, "is_reserved": 0, "type": "electric_scooter", "lon": -77.02083716666667, "fusion_lon": 0.0, "lat": 38.9300935, "rental_uris": {"android": "https://dc.lft.to/lastmile_qr_scan", "ios": "https://dc.lft.to/lastmile_qr_scan"}, "fusion_lat": 0.0, "name": "bebac45fecde818b2f53b29cd4d609da", "bike_id": "bebac45fecde818b2f53b29cd4d609da"}, {"is_disabled": 0, "is_reserved": 0, "type": "electric_bike", "lon": -76.95223166666666, "fusion_lon": 0.0, "lat": 38.8923385, "rental_uris": {"android": "https://dc.lft.to/lastmile_qr_scan", "ios": "https://dc.lft.to/lastmile_qr_scan"}, "fusion_lat": 0.0, "name": "9a391392d9380c108804d25fb4c0a029", "bike_id": "9a391392d9380c108804d25fb4c0a029"}, {"is_disabled": 0, "is_reserved": 0, "type": "electric_scooter", "lon": -77.05176233333333, "fusion_lon": 0.0, "lat": 38.90578633333333, "rental_uris": {"android": "https://dc.lft.to/lastmile_qr_scan", "ios": "https://dc.lft.to/lastmile_qr_scan"}, "fusion_lat": 0.0, "name": "7b28149eda38060fe67b40e99039921b", "bike_id": "7b28149eda38060fe67b40e99039921b"}, {"is_disabled": 0, "is_reserved": 0, "type": "electric_scooter", "lon": -77.01407316666666, "fusion_lon": 0.0, "lat": 38.928531166666666, "rental_uris": {"android": "https://dc.lft.to/lastmile_qr_scan", "ios": "https://dc.lft.to/lastmile_qr_scan"}, "fusion_lat": 0.0, "name": "46c2d1acb6b11270313828d88adf25f9", "bike_id": "46c2d1acb6b11270313828d88adf25f9"}, {"is_disabled": 0, "is_reserved": 0, "type": "electric_scooter", "lon": -77.00331966666667, "fusion_lon": 0.0, "lat": 38.893534333333335, "rental_uris": {"android": "https://dc.lft.to/lastmile_qr_scan", "ios": "https://dc.lft.to/lastmile_qr_scan"}, "fusion_lat": 0.0, "name": "7f132b94ce16ba0fd8b9a0ec8a2061d9", "bike_id": "7f132b94ce16ba0fd8b9a0ec8a2061d9"}, {"is_disabled": 0, "is_reserved": 0, "type": "electric_scooter", "lon": -77.0542515, "fusion_lon": 0.0, "lat": 38.899154, "rental_uris": {"android": "https://dc.lft.to/lastmile_qr_scan", "ios": "https://dc.lft.to/lastmile_qr_scan"}, "fusion_lat": 0.0, "name": "3e4e6f71431b3f2d6dfcb7daf343dd6b", "bike_id": "3e4e6f71431b3f2d6dfcb7daf343dd6b"}, {"is_disabled": 0, "is_reserved": 0, "type": "electric_scooter", "lon": -77.0083215, "fusion_lon": 0.0, "lat": 38.912591, "rental_uris": {"android": "https://dc.lft.to/lastmile_qr_scan", "ios": "https://dc.lft.to/lastmile_qr_scan"}, "fusion_lat": 0.0, "name": "74ebcdb05efbaa22bd69307c5f3a427b", "bike_id": "74ebcdb05efbaa22bd69307c5f3a427b"}, {"is_disabled": 0, "is_reserved": 0, "type": "electric_scooter", "lon": -77.03850466666667, "fusion_lon": 0.0, "lat": 38.903279833333336, "rental_uris": {"android": "https://dc.lft.to/lastmile_qr_scan", "ios": "https://dc.lft.to/lastmile_qr_scan"}, "fusion_lat": 0.0, "name": "953604a3f6c82c593793da6c4866e374", "bike_id": "953604a3f6c82c593793da6c4866e374"}, {"is_disabled": 0, "is_reserved": 0, "type": "electric_bike", "lon": -76.88905183333334, "fusion_lon": 0.0, "lat": 38.92594283333333, "rental_uris": {"android": "https://dc.lft.to/lastmile_qr_scan", "ios": "https://dc.lft.to/lastmile_qr_scan"}, "fusion_lat": 0.0, "name": "20b2039cea3d1c4af3dd8209f24e3e32", "bike_id": "20b2039cea3d1c4af3dd8209f24e3e32"}, {"is_disabled": 0, "is_reserved": 0, "type": "electric_scooter", "lon": -77.0435575, "fusion_lon": 0.0, "lat": 38.90343883333333, "rental_uris": {"android": "https://dc.lft.to/lastmile_qr_scan", "ios": "https://dc.lft.to/lastmile_qr_scan"}, "fusion_lat": 0.0, "name": "a49bc2a5e28726cb6c9369a964e80aa9", "bike_id": "a49bc2a5e28726cb6c9369a964e80aa9"}, {"is_disabled": 0, "is_reserved": 0, "type": "electric_scooter", "lon": -77.03196983333333, "fusion_lon": 0.0, "lat": 38.907683166666665, "rental_uris": {"android": "https://dc.lft.to/lastmile_qr_scan", "ios": "https://dc.lft.to/lastmile_qr_scan"}, "fusion_lat": 0.0, "name": "5ffbf3056f9232cee45909427ebfdee0", "bike_id": "5ffbf3056f9232cee45909427ebfdee0"}, {"is_disabled": 0, "is_reserved": 0, "type": "electric_scooter", "lon": -77.02436133333333, "fusion_lon": 0.0, "lat": 38.92043683333333, "rental_uris": {"android": "https://dc.lft.to/lastmile_qr_scan", "ios": "https://dc.lft.to/lastmile_qr_scan"}, "fusion_lat": 0.0, "name": "179bf9ce3fe9e52e7591c3a3a6ee3af7", "bike_id": "179bf9ce3fe9e52e7591c3a3a6ee3af7"}, {"is_disabled": 0, "is_reserved": 0, "type": "electric_bike", "lon": -76.87496466666667, "fusion_lon": 0.0, "lat": 38.99088533333333, "rental_uris": {"android": "https://dc.lft.to/lastmile_qr_scan", "ios": "https://dc.lft.to/lastmile_qr_scan"}, "fusion_lat": 0.0, "name": "98d30c461dd59870867b41df79580a86", "bike_id": "98d30c461dd59870867b41df79580a86"}, {"is_disabled": 0, "is_reserved": 0, "type": "electric_scooter", "lon": -77.02844533333334, "fusion_lon": 0.0, "lat": 38.90142566666667, "rental_uris": {"android": "https://dc.lft.to/lastmile_qr_scan", "ios": "https://dc.lft.to/lastmile_qr_scan"}, "fusion_lat": 0.0, "name": "a817139ccceed693b626e38de308d851", "bike_id": "a817139ccceed693b626e38de308d851"}, {"is_disabled": 0, "is_reserved": 0, "type": "electric_scooter", "lon": -77.03944533333333, "fusion_lon": 0.0, "lat": 38.9006625, "rental_uris": {"android": "https://dc.lft.to/lastmile_qr_scan", "ios": "https://dc.lft.to/lastmile_qr_scan"}, "fusion_lat": 0.0, "name": "1c823a77450dff3a026f275284733df4", "bike_id": "1c823a77450dff3a026f275284733df4"}, {"is_disabled": 0, "is_reserved": 0, "type": "electric_scooter", "lon": -76.93758783333334, "fusion_lon": 0.0, "lat": 38.89036866666667, "rental_uris": {"android": "https://dc.lft.to/lastmile_qr_scan", "ios": "https://dc.lft.to/lastmile_qr_scan"}, "fusion_lat": 0.0, "name": "0558b0f550e7ae59d1aeb705ac93684d", "bike_id": "0558b0f550e7ae59d1aeb705ac93684d"}, {"is_disabled": 0, "is_reserved": 0, "type": "electric_scooter", "lon": -77.027285, "fusion_lon": 0.0, "lat": 38.90149516666666, "rental_uris": {"android": "https://dc.lft.to/lastmile_qr_scan", "ios": "https://dc.lft.to/lastmile_qr_scan"}, "fusion_lat": 0.0, "name": "a81696bb78f901d4bccf2c1d2477ffa4", "bike_id": "a81696bb78f901d4bccf2c1d2477ffa4"}, {"is_disabled": 0, "is_reserved": 0, "type": "electric_bike", "lon": -77.11222033333334, "fusion_lon": 0.0, "lat": 38.8287485, "rental_uris": {"android": "https://dc.lft.to/lastmile_qr_scan", "ios": "https://dc.lft.to/lastmile_qr_scan"}, "fusion_lat": 0.0, "name": "81d510a06dc217fb4e293ff7e5312b57", "bike_id": "81d510a06dc217fb4e293ff7e5312b57"}, {"is_disabled": 0, "is_reserved": 0, "type": "electric_scooter", "lon": -77.0459815, "fusion_lon": 0.0, "lat": 38.896086833333335, "rental_uris": {"android": "https://dc.lft.to/lastmile_qr_scan", "ios": "https://dc.lft.to/lastmile_qr_scan"}, "fusion_lat": 0.0, "name": "c17ce81d3918d53961a3b333323e4708", "bike_id": "c17ce81d3918d53961a3b333323e4708"}, {"is_disabled": 0, "is_reserved": 0, "type": "electric_scooter", "lon": -77.031488, "fusion_lon": 0.0, "lat": 38.906280333333335, "rental_uris": {"android": "https://dc.lft.to/lastmile_qr_scan", "ios": "https://dc.lft.to/lastmile_qr_scan"}, "fusion_lat": 0.0, "name": "85ec4b62cc24f20d81a409f785f15832", "bike_id": "85ec4b62cc24f20d81a409f785f15832"}, {"is_disabled": 0, "is_reserved": 0, "type": "electric_scooter", "lon": -77.02787083333334, "fusion_lon": 0.0, "lat": 38.897332166666665, "rental_uris": {"android": "https://dc.lft.to/lastmile_qr_scan", "ios": "https://dc.lft.to/lastmile_qr_scan"}, "fusion_lat": 0.0, "name": "3a0c3a99dff227963736585ec37ef1ec", "bike_id": "3a0c3a99dff227963736585ec37ef1ec"}, {"is_disabled": 0, "is_reserved": 0, "type": "electric_scooter", "lon": -77.035632, "fusion_lon": 0.0, "lat": 38.92746983333333, "rental_uris": {"android": "https://dc.lft.to/lastmile_qr_scan", "ios": "https://dc.lft.to/lastmile_qr_scan"}, "fusion_lat": 0.0, "name": "63c031da5344ee4b409c3f4a0d38a14e", "bike_id": "63c031da5344ee4b409c3f4a0d38a14e"}, {"is_disabled": 0, "is_reserved": 0, "type": "electric_scooter", "lon": -77.03443016666667, "fusion_lon": 0.0, "lat": 38.93432883333333, "rental_uris": {"android": "https://dc.lft.to/lastmile_qr_scan", "ios": "https://dc.lft.to/lastmile_qr_scan"}, "fusion_lat": 0.0, "name": "13cb76fd5aac15f3565b30ffaca32d62", "bike_id": "13cb76fd5aac15f3565b30ffaca32d62"}, {"is_disabled": 0, "is_reserved": 0, "type": "electric_scooter", "lon": -77.00416733333333, "fusion_lon": 0.0, "lat": 38.8768935, "rental_uris": {"android": "https://dc.lft.to/lastmile_qr_scan", "ios": "https://dc.lft.to/lastmile_qr_scan"}, "fusion_lat": 0.0, "name": "386811baacf86f446e50a80a4464bcc5", "bike_id": "386811baacf86f446e50a80a4464bcc5"}, {"is_disabled": 0, "is_reserved": 0, "type": "electric_scooter", "lon": -77.02559366666667, "fusion_lon": 0.0, "lat": 38.89219216666667, "rental_uris": {"android": "https://dc.lft.to/lastmile_qr_scan", "ios": "https://dc.lft.to/lastmile_qr_scan"}, "fusion_lat": 0.0, "name": "5e174b9e9bf07e46a6a69c82ac53c575", "bike_id": "5e174b9e9bf07e46a6a69c82ac53c575"}, {"is_disabled": 0, "is_reserved": 0, "type": "electric_scooter", "lon": -77.02990233333334, "fusion_lon": 0.0, "lat": 38.89739333333333, "rental_uris": {"android": "https://dc.lft.to/lastmile_qr_scan", "ios": "https://dc.lft.to/lastmile_qr_scan"}, "fusion_lat": 0.0, "name": "8720d912e9c256581011c5da141ffec3", "bike_id": "8720d912e9c256581011c5da141ffec3"}, {"is_disabled": 0, "is_reserved": 0, "type": "electric_scooter", "lon": -77.021084, "fusion_lon": 0.0, "lat": 38.90182716666666, "rental_uris": {"android": "https://dc.lft.to/lastmile_qr_scan", "ios": "https://dc.lft.to/lastmile_qr_scan"}, "fusion_lat": 0.0, "name": "9f66e3deec0735761d32df65d40e98b8", "bike_id": "9f66e3deec0735761d32df65d40e98b8"}, {"is_disabled": 0, "is_reserved": 0, "type": "electric_scooter", "lon": -77.04672416666666, "fusion_lon": 0.0, "lat": 38.9073995, "rental_uris": {"android": "https://dc.lft.to/lastmile_qr_scan", "ios": "https://dc.lft.to/lastmile_qr_scan"}, "fusion_lat": 0.0, "name": "28c91e8909995acd95a27b9a7b405203", "bike_id": "28c91e8909995acd95a27b9a7b405203"}, {"is_disabled": 0, "is_reserved": 0, "type": "electric_scooter", "lon": -77.00357816666667, "fusion_lon": 0.0, "lat": 38.894981666666666, "rental_uris": {"android": "https://dc.lft.to/lastmile_qr_scan", "ios": "https://dc.lft.to/lastmile_qr_scan"}, "fusion_lat": 0.0, "name": "69fbd637554cbfa36c9efd583da0410d", "bike_id": "69fbd637554cbfa36c9efd583da0410d"}, {"is_disabled": 0, "is_reserved": 0, "type": "electric_scooter", "lon": -77.0348835, "fusion_lon": 0.0, "lat": 38.92144566666666, "rental_uris": {"android": "https://dc.lft.to/lastmile_qr_scan", "ios": "https://dc.lft.to/lastmile_qr_scan"}, "fusion_lat": 0.0, "name": "59b84d368bfe6da3563ba57eecaf1b9d", "bike_id": "59b84d368bfe6da3563ba57eecaf1b9d"}, {"is_disabled": 0, "is_reserved": 0, "type": "electric_scooter", "lon": -77.04699483333333, "fusion_lon": 0.0, "lat": 38.91572816666667, "rental_uris": {"android": "https://dc.lft.to/lastmile_qr_scan", "ios": "https://dc.lft.to/lastmile_qr_scan"}, "fusion_lat": 0.0, "name": "fff932211782c5894f122965d9d809d0", "bike_id": "fff932211782c5894f122965d9d809d0"}, {"is_disabled": 0, "is_reserved": 0, "type": "electric_scooter", "lon": -77.061181, "fusion_lon": 0.0, "lat": 38.94374066666666, "rental_uris": {"android": "https://dc.lft.to/lastmile_qr_scan", "ios": "https://dc.lft.to/lastmile_qr_scan"}, "fusion_lat": 0.0, "name": "e6d830a22afbff3ef78d5c70f2c296a8", "bike_id": "e6d830a22afbff3ef78d5c70f2c296a8"}, {"is_disabled": 0, "is_reserved": 0, "type": "electric_scooter", "lon": -77.03211883333333, "fusion_lon": 0.0, "lat": 38.916023, "rental_uris": {"android": "https://dc.lft.to/lastmile_qr_scan", "ios": "https://dc.lft.to/lastmile_qr_scan"}, "fusion_lat": 0.0, "name": "40ad530c8f3e6bf9d7b56e06df6e0a19", "bike_id": "40ad530c8f3e6bf9d7b56e06df6e0a19"}, {"is_disabled": 0, "is_reserved": 0, "type": "electric_bike", "lon": -77.08484116666666, "fusion_lon": 0.0, "lat": 38.890547166666664, "rental_uris": {"android": "https://dc.lft.to/lastmile_qr_scan", "ios": "https://dc.lft.to/lastmile_qr_scan"}, "fusion_lat": 0.0, "name": "c91df606722ed5b9c9dfdbd591fe1d73", "bike_id": "c91df606722ed5b9c9dfdbd591fe1d73"}, {"is_disabled": 0, "is_reserved": 0, "type": "electric_scooter", "lon": -77.03311733333334, "fusion_lon": 0.0, "lat": 38.956140833333336, "rental_uris": {"android": "https://dc.lft.to/lastmile_qr_scan", "ios": "https://dc.lft.to/lastmile_qr_scan"}, "fusion_lat": 0.0, "name": "8cee75edb3a59b994cd62ebc93843e1c", "bike_id": "8cee75edb3a59b994cd62ebc93843e1c"}, {"is_disabled": 0, "is_reserved": 0, "type": "electric_scooter", "lon": -77.00088683333334, "fusion_lon": 0.0, "lat": 38.894070666666664, "rental_uris": {"android": "https://dc.lft.to/lastmile_qr_scan", "ios": "https://dc.lft.to/lastmile_qr_scan"}, "fusion_lat": 0.0, "name": "02691781068be315f72ac4270344db80", "bike_id": "02691781068be315f72ac4270344db80"}, {"is_disabled": 0, "is_reserved": 0, "type": "electric_scooter", "lon": -77.02320216666666, "fusion_lon": 0.0, "lat": 38.8786895, "rental_uris": {"android": "https://dc.lft.to/lastmile_qr_scan", "ios": "https://dc.lft.to/lastmile_qr_scan"}, "fusion_lat": 0.0, "name": "8036b947fc3c70073f6dff2f22fc7d3b", "bike_id": "8036b947fc3c70073f6dff2f22fc7d3b"}, {"is_disabled": 0, "is_reserved": 0, "type": "electric_scooter", "lon": -77.0138015, "fusion_lon": 0.0, "lat": 38.9100995, "rental_uris": {"android": "https://dc.lft.to/lastmile_qr_scan", "ios": "https://dc.lft.to/lastmile_qr_scan"}, "fusion_lat": 0.0, "name": "31e84e5010ffa174325d31eb10fe27d0", "bike_id": "31e84e5010ffa174325d31eb10fe27d0"}, {"is_disabled": 0, "is_reserved": 0, "type": "electric_scooter", "lon": -77.0224445, "fusion_lon": 0.0, "lat": 38.892203, "rental_uris": {"android": "https://dc.lft.to/lastmile_qr_scan", "ios": "https://dc.lft.to/lastmile_qr_scan"}, "fusion_lat": 0.0, "name": "f816cff36025161c2d0fb6255bd02225", "bike_id": "f816cff36025161c2d0fb6255bd02225"}, {"is_disabled": 0, "is_reserved": 0, "type": "electric_scooter", "lon": -77.021562, "fusion_lon": 0.0, "lat": 38.92601283333333, "rental_uris": {"android": "https://dc.lft.to/lastmile_qr_scan", "ios": "https://dc.lft.to/lastmile_qr_scan"}, "fusion_lat": 0.0, "name": "3fb13000cb48e993e46dc386089b24e6", "bike_id": "3fb13000cb48e993e46dc386089b24e6"}, {"is_disabled": 0, "is_reserved": 0, "type": "electric_scooter", "lon": -77.07253083333333, "fusion_lon": 0.0, "lat": 38.907825833333334, "rental_uris": {"android": "https://dc.lft.to/lastmile_qr_scan", "ios": "https://dc.lft.to/lastmile_qr_scan"}, "fusion_lat": 0.0, "name": "e7ba18440802f0354ae4bd7ebebfc444", "bike_id": "e7ba18440802f0354ae4bd7ebebfc444"}, {"is_disabled": 0, "is_reserved": 0, "type": "electric_scooter", "lon": -77.033489, "fusion_lon": 0.0, "lat": 38.917007, "rental_uris": {"android": "https://dc.lft.to/lastmile_qr_scan", "ios": "https://dc.lft.to/lastmile_qr_scan"}, "fusion_lat": 0.0, "name": "5ef1c6e3c88acfca996f81fa980b1b3f", "bike_id": "5ef1c6e3c88acfca996f81fa980b1b3f"}, {"is_disabled": 0, "is_reserved": 0, "type": "electric_scooter", "lon": -77.0466145, "fusion_lon": 0.0, "lat": 38.893415166666664, "rental_uris": {"android": "https://dc.lft.to/lastmile_qr_scan", "ios": "https://dc.lft.to/lastmile_qr_scan"}, "fusion_lat": 0.0, "name": "dffebac012607c8ad16dfdf9e3b2769b", "bike_id": "dffebac012607c8ad16dfdf9e3b2769b"}, {"is_disabled": 0, "is_reserved": 0, "type": "electric_scooter", "lon": -77.026218, "fusion_lon": 0.0, "lat": 38.90567583333333, "rental_uris": {"android": "https://dc.lft.to/lastmile_qr_scan", "ios": "https://dc.lft.to/lastmile_qr_scan"}, "fusion_lat": 0.0, "name": "76f5e7803a03c7d61d322f1747d56e0c", "bike_id": "76f5e7803a03c7d61d322f1747d56e0c"}, {"is_disabled": 0, "is_reserved": 0, "type": "electric_scooter", "lon": -76.95756333333334, "fusion_lon": 0.0, "lat": 38.884266, "rental_uris": {"android": "https://dc.lft.to/lastmile_qr_scan", "ios": "https://dc.lft.to/lastmile_qr_scan"}, "fusion_lat": 0.0, "name": "78d55d884690a1f53a6d47542502824f", "bike_id": "78d55d884690a1f53a6d47542502824f"}, {"is_disabled": 0, "is_reserved": 0, "type": "electric_scooter", "lon": -77.0449905, "fusion_lon": 0.0, "lat": 38.90842633333333, "rental_uris": {"android": "https://dc.lft.to/lastmile_qr_scan", "ios": "https://dc.lft.to/lastmile_qr_scan"}, "fusion_lat": 0.0, "name": "613faf29b7b9ba336127fb7d7472e36f", "bike_id": "613faf29b7b9ba336127fb7d7472e36f"}, {"is_disabled": 0, "is_reserved": 0, "type": "electric_bike", "lon": -76.96688433333334, "fusion_lon": 0.0, "lat": 38.95883966666667, "rental_uris": {"android": "https://dc.lft.to/lastmile_qr_scan", "ios": "https://dc.lft.to/lastmile_qr_scan"}, "fusion_lat": 0.0, "name": "fc544c489b63ee18f0aa0ce7c6efe8f4", "bike_id": "fc544c489b63ee18f0aa0ce7c6efe8f4"}, {"is_disabled": 0, "is_reserved": 0, "type": "electric_scooter", "lon": -77.0199495, "fusion_lon": 0.0, "lat": 38.875726666666665, "rental_uris": {"android": "https://dc.lft.to/lastmile_qr_scan", "ios": "https://dc.lft.to/lastmile_qr_scan"}, "fusion_lat": 0.0, "name": "fcfd929e5c46b68d6390c390a82e9e2b", "bike_id": "fcfd929e5c46b68d6390c390a82e9e2b"}, {"is_disabled": 0, "is_reserved": 0, "type": "electric_scooter", "lon": -77.04349983333333, "fusion_lon": 0.0, "lat": 38.911214, "rental_uris": {"android": "https://dc.lft.to/lastmile_qr_scan", "ios": "https://dc.lft.to/lastmile_qr_scan"}, "fusion_lat": 0.0, "name": "be2e580d904d1a245e302af0a7f89afd", "bike_id": "be2e580d904d1a245e302af0a7f89afd"}, {"is_disabled": 0, "is_reserved": 0, "type": "electric_scooter", "lon": -77.03183183333333, "fusion_lon": 0.0, "lat": 38.892330666666666, "rental_uris": {"android": "https://dc.lft.to/lastmile_qr_scan", "ios": "https://dc.lft.to/lastmile_qr_scan"}, "fusion_lat": 0.0, "name": "6dd94c50e9174a88086409c17db4b257", "bike_id": "6dd94c50e9174a88086409c17db4b257"}, {"is_disabled": 0, "is_reserved": 0, "type": "electric_scooter", "lon": -77.05189816666666, "fusion_lon": 0.0, "lat": 38.9255165, "rental_uris": {"android": "https://dc.lft.to/lastmile_qr_scan", "ios": "https://dc.lft.to/lastmile_qr_scan"}, "fusion_lat": 0.0, "name": "5a7e588e5d510b32c42aebd86b052772", "bike_id": "5a7e588e5d510b32c42aebd86b052772"}, {"is_disabled": 0, "is_reserved": 0, "type": "electric_scooter", "lon": -77.01026833333333, "fusion_lon": 0.0, "lat": 38.911158666666665, "rental_uris": {"android": "https://dc.lft.to/lastmile_qr_scan", "ios": "https://dc.lft.to/lastmile_qr_scan"}, "fusion_lat": 0.0, "name": "380111afe9ecf59403189b690b45cd04", "bike_id": "380111afe9ecf59403189b690b45cd04"}, {"is_disabled": 0, "is_reserved": 0, "type": "electric_scooter", "lon": -77.02226583333334, "fusion_lon": 0.0, "lat": 38.887427833333334, "rental_uris": {"android": "https://dc.lft.to/lastmile_qr_scan", "ios": "https://dc.lft.to/lastmile_qr_scan"}, "fusion_lat": 0.0, "name": "e62e50e79f9bc96d196e79d67c64dd3f", "bike_id": "e62e50e79f9bc96d196e79d67c64dd3f"}, {"is_disabled": 0, "is_reserved": 0, "type": "electric_scooter", "lon": -77.04607133333333, "fusion_lon": 0.0, "lat": 38.917195166666666, "rental_uris": {"android": "https://dc.lft.to/lastmile_qr_scan", "ios": "https://dc.lft.to/lastmile_qr_scan"}, "fusion_lat": 0.0, "name": "c9d58c82b5da9f3251c5b474d19fd079", "bike_id": "c9d58c82b5da9f3251c5b474d19fd079"}, {"is_disabled": 0, "is_reserved": 0, "type": "electric_scooter", "lon": -77.0653395, "fusion_lon": 0.0, "lat": 38.90522583333333, "rental_uris": {"android": "https://dc.lft.to/lastmile_qr_scan", "ios": "https://dc.lft.to/lastmile_qr_scan"}, "fusion_lat": 0.0, "name": "0c7f589b4b6c388618c642cbec0438b6", "bike_id": "0c7f589b4b6c388618c642cbec0438b6"}, {"is_disabled": 0, "is_reserved": 0, "type": "electric_scooter", "lon": -77.03879633333334, "fusion_lon": 0.0, "lat": 38.9125975, "rental_uris": {"android": "https://dc.lft.to/lastmile_qr_scan", "ios": "https://dc.lft.to/lastmile_qr_scan"}, "fusion_lat": 0.0, "name": "8015e303638d56cb5b7e1c8c534e4338", "bike_id": "8015e303638d56cb5b7e1c8c534e4338"}, {"is_disabled": 0, "is_reserved": 0, "type": "electric_scooter", "lon": -77.034242, "fusion_lon": 0.0, "lat": 38.919222166666664, "rental_uris": {"android": "https://dc.lft.to/lastmile_qr_scan", "ios": "https://dc.lft.to/lastmile_qr_scan"}, "fusion_lat": 0.0, "name": "9f716f25add706673b030597fcb8be1d", "bike_id": "9f716f25add706673b030597fcb8be1d"}, {"is_disabled": 0, "is_reserved": 0, "type": "electric_bike", "lon": -77.08056216666667, "fusion_lon": 0.0, "lat": 38.8484735, "rental_uris": {"android": "https://dc.lft.to/lastmile_qr_scan", "ios": "https://dc.lft.to/lastmile_qr_scan"}, "fusion_lat": 0.0, "name": "edfdbe9d59b829818356b4d2a2810819", "bike_id": "edfdbe9d59b829818356b4d2a2810819"}, {"is_disabled": 0, "is_reserved": 0, "type": "electric_scooter", "lon": -77.03164716666667, "fusion_lon": 0.0, "lat": 38.916078, "rental_uris": {"android": "https://dc.lft.to/lastmile_qr_scan", "ios": "https://dc.lft.to/lastmile_qr_scan"}, "fusion_lat": 0.0, "name": "cf1cbc051e5b7818b5e1204faedf449d", "bike_id": "cf1cbc051e5b7818b5e1204faedf449d"}, {"is_disabled": 0, "is_reserved": 0, "type": "electric_scooter", "lon": -77.05414316666666, "fusion_lon": 0.0, "lat": 38.9282515, "rental_uris": {"android": "https://dc.lft.to/lastmile_qr_scan", "ios": "https://dc.lft.to/lastmile_qr_scan"}, "fusion_lat": 0.0, "name": "8debbaed858366ea0d1835ea00f655fb", "bike_id": "8debbaed858366ea0d1835ea00f655fb"}, {"is_disabled": 0, "is_reserved": 0, "type": "electric_scooter", "lon": -76.99820433333333, "fusion_lon": 0.0, "lat": 38.8443465, "rental_uris": {"android": "https://dc.lft.to/lastmile_qr_scan", "ios": "https://dc.lft.to/lastmile_qr_scan"}, "fusion_lat": 0.0, "name": "2069b0c0514b81708591fd3a76a8bb20", "bike_id": "2069b0c0514b81708591fd3a76a8bb20"}, {"is_disabled": 0, "is_reserved": 0, "type": "electric_scooter", "lon": -76.950014, "fusion_lon": 0.0, "lat": 38.893925, "rental_uris": {"android": "https://dc.lft.to/lastmile_qr_scan", "ios": "https://dc.lft.to/lastmile_qr_scan"}, "fusion_lat": 0.0, "name": "8efb547f85eb68550bc59a02cac5cfb2", "bike_id": "8efb547f85eb68550bc59a02cac5cfb2"}, {"is_disabled": 0, "is_reserved": 0, "type": "electric_bike", "lon": -76.98252933333333, "fusion_lon": 0.0, "lat": 38.9533405, "rental_uris": {"android": "https://dc.lft.to/lastmile_qr_scan", "ios": "https://dc.lft.to/lastmile_qr_scan"}, "fusion_lat": 0.0, "name": "eab108cbadc15d13db8b87a125bd8dba", "bike_id": "eab108cbadc15d13db8b87a125bd8dba"}, {"is_disabled": 0, "is_reserved": 0, "type": "electric_scooter", "lon": -77.03462766666667, "fusion_lon": 0.0, "lat": 38.90979433333333, "rental_uris": {"android": "https://dc.lft.to/lastmile_qr_scan", "ios": "https://dc.lft.to/lastmile_qr_scan"}, "fusion_lat": 0.0, "name": "7a3bf281afa7e006ebcf0f513241beed", "bike_id": "7a3bf281afa7e006ebcf0f513241beed"}, {"is_disabled": 0, "is_reserved": 0, "type": "electric_scooter", "lon": -76.9949815, "fusion_lon": 0.0, "lat": 38.862423666666665, "rental_uris": {"android": "https://dc.lft.to/lastmile_qr_scan", "ios": "https://dc.lft.to/lastmile_qr_scan"}, "fusion_lat": 0.0, "name": "ce459e68727a8577f017dab65efb9664", "bike_id": "ce459e68727a8577f017dab65efb9664"}, {"is_disabled": 0, "is_reserved": 0, "type": "electric_scooter", "lon": -77.04062833333333, "fusion_lon": 0.0, "lat": 38.925403, "rental_uris": {"android": "https://dc.lft.to/lastmile_qr_scan", "ios": "https://dc.lft.to/lastmile_qr_scan"}, "fusion_lat": 0.0, "name": "85760b64b9e4c6bd8a3d68da1150e1c1", "bike_id": "85760b64b9e4c6bd8a3d68da1150e1c1"}, {"is_disabled": 0, "is_reserved": 0, "type": "electric_scooter", "lon": -76.931515, "fusion_lon": 0.0, "lat": 38.8984605, "rental_uris": {"android": "https://dc.lft.to/lastmile_qr_scan", "ios": "https://dc.lft.to/lastmile_qr_scan"}, "fusion_lat": 0.0, "name": "efc241d6f8c3154650c821e953c2e66b", "bike_id": "efc241d6f8c3154650c821e953c2e66b"}, {"is_disabled": 0, "is_reserved": 0, "type": "electric_scooter", "lon": -76.980862, "fusion_lon": 0.0, "lat": 38.87011666666667, "rental_uris": {"android": "https://dc.lft.to/lastmile_qr_scan", "ios": "https://dc.lft.to/lastmile_qr_scan"}, "fusion_lat": 0.0, "name": "19a040458a65f169d669e0818a013059", "bike_id": "19a040458a65f169d669e0818a013059"}, {"is_disabled": 0, "is_reserved": 0, "type": "electric_scooter", "lon": -77.02213383333333, "fusion_lon": 0.0, "lat": 38.8873805, "rental_uris": {"android": "https://dc.lft.to/lastmile_qr_scan", "ios": "https://dc.lft.to/lastmile_qr_scan"}, "fusion_lat": 0.0, "name": "37880ecfda5fe029ecb1fcb6677867dd", "bike_id": "37880ecfda5fe029ecb1fcb6677867dd"}, {"is_disabled": 0, "is_reserved": 0, "type": "electric_scooter", "lon": -77.034776, "fusion_lon": 0.0, "lat": 38.903166166666665, "rental_uris": {"android": "https://dc.lft.to/lastmile_qr_scan", "ios": "https://dc.lft.to/lastmile_qr_scan"}, "fusion_lat": 0.0, "name": "9d117ac5732cf51caf7a3724caf137ab", "bike_id": "9d117ac5732cf51caf7a3724caf137ab"}, {"is_disabled": 0, "is_reserved": 0, "type": "electric_scooter", "lon": -76.98723633333333, "fusion_lon": 0.0, "lat": 38.86711283333333, "rental_uris": {"android": "https://dc.lft.to/lastmile_qr_scan", "ios": "https://dc.lft.to/lastmile_qr_scan"}, "fusion_lat": 0.0, "name": "d9b4ffc36fdb7ca2660e91577683ae0a", "bike_id": "d9b4ffc36fdb7ca2660e91577683ae0a"}, {"is_disabled": 0, "is_reserved": 0, "type": "electric_scooter", "lon": -77.03632783333333, "fusion_lon": 0.0, "lat": 38.918553, "rental_uris": {"android": "https://dc.lft.to/lastmile_qr_scan", "ios": "https://dc.lft.to/lastmile_qr_scan"}, "fusion_lat": 0.0, "name": "0b8745af4abc147e3eb21aefda17df41", "bike_id": "0b8745af4abc147e3eb21aefda17df41"}, {"is_disabled": 0, "is_reserved": 0, "type": "electric_scooter", "lon": -77.06661116666666, "fusion_lon": 0.0, "lat": 38.949632, "rental_uris": {"android": "https://dc.lft.to/lastmile_qr_scan", "ios": "https://dc.lft.to/lastmile_qr_scan"}, "fusion_lat": 0.0, "name": "c513a7eaefee0e74cb0fbb1441679805", "bike_id": "c513a7eaefee0e74cb0fbb1441679805"}, {"is_disabled": 0, "is_reserved": 0, "type": "electric_scooter", "lon": -77.04881333333333, "fusion_lon": 0.0, "lat": 38.904272, "rental_uris": {"android": "https://dc.lft.to/lastmile_qr_scan", "ios": "https://dc.lft.to/lastmile_qr_scan"}, "fusion_lat": 0.0, "name": "9e3d070231a5ce78cdb50166c06d847f", "bike_id": "9e3d070231a5ce78cdb50166c06d847f"}, {"is_disabled": 0, "is_reserved": 0, "type": "electric_scooter", "lon": -76.99085483333333, "fusion_lon": 0.0, "lat": 38.86234366666667, "rental_uris": {"android": "https://dc.lft.to/lastmile_qr_scan", "ios": "https://dc.lft.to/lastmile_qr_scan"}, "fusion_lat": 0.0, "name": "3d339d6caa3bc3aec99d9a7aa465422b", "bike_id": "3d339d6caa3bc3aec99d9a7aa465422b"}, {"is_disabled": 0, "is_reserved": 0, "type": "electric_scooter", "lon": -77.0244935, "fusion_lon": 0.0, "lat": 38.934134666666665, "rental_uris": {"android": "https://dc.lft.to/lastmile_qr_scan", "ios": "https://dc.lft.to/lastmile_qr_scan"}, "fusion_lat": 0.0, "name": "0a3b99349230e9b54eb0929efa0e82ac", "bike_id": "0a3b99349230e9b54eb0929efa0e82ac"}, {"is_disabled": 0, "is_reserved": 0, "type": "electric_scooter", "lon": -77.02941333333334, "fusion_lon": 0.0, "lat": 38.89808266666667, "rental_uris": {"android": "https://dc.lft.to/lastmile_qr_scan", "ios": "https://dc.lft.to/lastmile_qr_scan"}, "fusion_lat": 0.0, "name": "9b8fc1b0c8034607f93b868504fabac3", "bike_id": "9b8fc1b0c8034607f93b868504fabac3"}, {"is_disabled": 0, "is_reserved": 0, "type": "electric_scooter", "lon": -77.01101033333333, "fusion_lon": 0.0, "lat": 38.90779933333334, "rental_uris": {"android": "https://dc.lft.to/lastmile_qr_scan", "ios": "https://dc.lft.to/lastmile_qr_scan"}, "fusion_lat": 0.0, "name": "00ce9080902298597aad971592b40124", "bike_id": "00ce9080902298597aad971592b40124"}, {"is_disabled": 0, "is_reserved": 0, "type": "electric_scooter", "lon": -77.0287855, "fusion_lon": 0.0, "lat": 38.92240733333333, "rental_uris": {"android": "https://dc.lft.to/lastmile_qr_scan", "ios": "https://dc.lft.to/lastmile_qr_scan"}, "fusion_lat": 0.0, "name": "dcfcb30c2621c007e5284e5221a87516", "bike_id": "dcfcb30c2621c007e5284e5221a87516"}, {"is_disabled": 0, "is_reserved": 0, "type": "electric_scooter", "lon": -77.06022666666667, "fusion_lon": 0.0, "lat": 38.90528716666667, "rental_uris": {"android": "https://dc.lft.to/lastmile_qr_scan", "ios": "https://dc.lft.to/lastmile_qr_scan"}, "fusion_lat": 0.0, "name": "29c1b9e1641e04b2d3c5f66a11556462", "bike_id": "29c1b9e1641e04b2d3c5f66a11556462"}, {"is_disabled": 0, "is_reserved": 0, "type": "electric_scooter", "lon": -77.03847466666667, "fusion_lon": 0.0, "lat": 38.90293666666667, "rental_uris": {"android": "https://dc.lft.to/lastmile_qr_scan", "ios": "https://dc.lft.to/lastmile_qr_scan"}, "fusion_lat": 0.0, "name": "25f7fa0df318389a7a14337d4f1ab670", "bike_id": "25f7fa0df318389a7a14337d4f1ab670"}, {"is_disabled": 0, "is_reserved": 0, "type": "electric_scooter", "lon": -76.9905455, "fusion_lon": 0.0, "lat": 38.85894366666667, "rental_uris": {"android": "https://dc.lft.to/lastmile_qr_scan", "ios": "https://dc.lft.to/lastmile_qr_scan"}, "fusion_lat": 0.0, "name": "26c8b3f2dd8c801121cfd970ab14e40c", "bike_id": "26c8b3f2dd8c801121cfd970ab14e40c"}, {"is_disabled": 0, "is_reserved": 0, "type": "electric_scooter", "lon": -76.983041, "fusion_lon": 0.0, "lat": 38.86889033333333, "rental_uris": {"android": "https://dc.lft.to/lastmile_qr_scan", "ios": "https://dc.lft.to/lastmile_qr_scan"}, "fusion_lat": 0.0, "name": "42e643b1533df2cb0b2acdcdb159bd8a", "bike_id": "42e643b1533df2cb0b2acdcdb159bd8a"}, {"is_disabled": 0, "is_reserved": 0, "type": "electric_bike", "lon": -76.9546695, "fusion_lon": 0.0, "lat": 38.93568833333333, "rental_uris": {"android": "https://dc.lft.to/lastmile_qr_scan", "ios": "https://dc.lft.to/lastmile_qr_scan"}, "fusion_lat": 0.0, "name": "c0a117a8882ef960414c793736640cd6", "bike_id": "c0a117a8882ef960414c793736640cd6"}, {"is_disabled": 0, "is_reserved": 0, "type": "electric_scooter", "lon": -77.0049605, "fusion_lon": 0.0, "lat": 38.8969005, "rental_uris": {"android": "https://dc.lft.to/lastmile_qr_scan", "ios": "https://dc.lft.to/lastmile_qr_scan"}, "fusion_lat": 0.0, "name": "f18df16dfc9f6b700269e45cd151eccf", "bike_id": "f18df16dfc9f6b700269e45cd151eccf"}, {"is_disabled": 0, "is_reserved": 0, "type": "electric_scooter", "lon": -77.02837216666667, "fusion_lon": 0.0, "lat": 38.898253833333335, "rental_uris": {"android": "https://dc.lft.to/lastmile_qr_scan", "ios": "https://dc.lft.to/lastmile_qr_scan"}, "fusion_lat": 0.0, "name": "834de0717eb86246c77180ace73fb69a", "bike_id": "834de0717eb86246c77180ace73fb69a"}, {"is_disabled": 0, "is_reserved": 0, "type": "electric_scooter", "lon": -77.02726033333333, "fusion_lon": 0.0, "lat": 38.90845433333333, "rental_uris": {"android": "https://dc.lft.to/lastmile_qr_scan", "ios": "https://dc.lft.to/lastmile_qr_scan"}, "fusion_lat": 0.0, "name": "4c8ef815bdbcdef78537f18decce0130", "bike_id": "4c8ef815bdbcdef78537f18decce0130"}, {"is_disabled": 0, "is_reserved": 0, "type": "electric_scooter", "lon": -77.0098395, "fusion_lon": 0.0, "lat": 38.897257833333335, "rental_uris": {"android": "https://dc.lft.to/lastmile_qr_scan", "ios": "https://dc.lft.to/lastmile_qr_scan"}, "fusion_lat": 0.0, "name": "79df18c920e5aac89c0d32840c9af36d", "bike_id": "79df18c920e5aac89c0d32840c9af36d"}, {"is_disabled": 0, "is_reserved": 0, "type": "electric_scooter", "lon": -77.043531, "fusion_lon": 0.0, "lat": 38.904817, "rental_uris": {"android": "https://dc.lft.to/lastmile_qr_scan", "ios": "https://dc.lft.to/lastmile_qr_scan"}, "fusion_lat": 0.0, "name": "28231d09615791f86a657750dc4d2a7c", "bike_id": "28231d09615791f86a657750dc4d2a7c"}, {"is_disabled": 0, "is_reserved": 0, "type": "electric_scooter", "lon": -76.93348116666667, "fusion_lon": 0.0, "lat": 38.899011333333334, "rental_uris": {"android": "https://dc.lft.to/lastmile_qr_scan", "ios": "https://dc.lft.to/lastmile_qr_scan"}, "fusion_lat": 0.0, "name": "03d00c57ee11a5fbf979b2467afe7156", "bike_id": "03d00c57ee11a5fbf979b2467afe7156"}, {"is_disabled": 0, "is_reserved": 0, "type": "electric_bike", "lon": -77.085294, "fusion_lon": 0.0, "lat": 38.856484333333334, "rental_uris": {"android": "https://dc.lft.to/lastmile_qr_scan", "ios": "https://dc.lft.to/lastmile_qr_scan"}, "fusion_lat": 0.0, "name": "a3f47a8cad96d581ce2b435d7ff022f8", "bike_id": "a3f47a8cad96d581ce2b435d7ff022f8"}, {"is_disabled": 0, "is_reserved": 0, "type": "electric_scooter", "lon": -77.03186066666666, "fusion_lon": 0.0, "lat": 38.9168375, "rental_uris": {"android": "https://dc.lft.to/lastmile_qr_scan", "ios": "https://dc.lft.to/lastmile_qr_scan"}, "fusion_lat": 0.0, "name": "9f6a92e1ebed433ccf630bd41809762d", "bike_id": "9f6a92e1ebed433ccf630bd41809762d"}, {"is_disabled": 0, "is_reserved": 0, "type": "electric_scooter", "lon": -76.96532183333333, "fusion_lon": 0.0, "lat": 38.876259166666664, "rental_uris": {"android": "https://dc.lft.to/lastmile_qr_scan", "ios": "https://dc.lft.to/lastmile_qr_scan"}, "fusion_lat": 0.0, "name": "d83039f12e6ed1bd4ca07ada85b5152f", "bike_id": "d83039f12e6ed1bd4ca07ada85b5152f"}, {"is_disabled": 0, "is_reserved": 0, "type": "electric_scooter", "lon": -77.0315915, "fusion_lon": 0.0, "lat": 38.88757, "rental_uris": {"android": "https://dc.lft.to/lastmile_qr_scan", "ios": "https://dc.lft.to/lastmile_qr_scan"}, "fusion_lat": 0.0, "name": "d8d3d8b8bd50dc72217cfb26bd47c6ac", "bike_id": "d8d3d8b8bd50dc72217cfb26bd47c6ac"}, {"is_disabled": 0, "is_reserved": 0, "type": "electric_bike", "lon": -77.02632566666666, "fusion_lon": 0.0, "lat": 38.96213616666667, "rental_uris": {"android": "https://dc.lft.to/lastmile_qr_scan", "ios": "https://dc.lft.to/lastmile_qr_scan"}, "fusion_lat": 0.0, "name": "801c5ab45e781e91be946769813c4e77", "bike_id": "801c5ab45e781e91be946769813c4e77"}, {"is_disabled": 0, "is_reserved": 0, "type": "electric_scooter", "lon": -77.01120083333333, "fusion_lon": 0.0, "lat": 38.9035135, "rental_uris": {"android": "https://dc.lft.to/lastmile_qr_scan", "ios": "https://dc.lft.to/lastmile_qr_scan"}, "fusion_lat": 0.0, "name": "a53f44fe01c9c05d58214a9a036cbbc4", "bike_id": "a53f44fe01c9c05d58214a9a036cbbc4"}, {"is_disabled": 0, "is_reserved": 0, "type": "electric_scooter", "lon": -77.02302133333333, "fusion_lon": 0.0, "lat": 38.9178965, "rental_uris": {"android": "https://dc.lft.to/lastmile_qr_scan", "ios": "https://dc.lft.to/lastmile_qr_scan"}, "fusion_lat": 0.0, "name": "3f554676e9bdac4aee4e50014d0056f8", "bike_id": "3f554676e9bdac4aee4e50014d0056f8"}, {"is_disabled": 0, "is_reserved": 0, "type": "electric_scooter", "lon": -77.00371366666667, "fusion_lon": 0.0, "lat": 38.8774505, "rental_uris": {"android": "https://dc.lft.to/lastmile_qr_scan", "ios": "https://dc.lft.to/lastmile_qr_scan"}, "fusion_lat": 0.0, "name": "dfdd405afa4124fb7179f7a3c7b1b3d8", "bike_id": "dfdd405afa4124fb7179f7a3c7b1b3d8"}, {"is_disabled": 0, "is_reserved": 0, "type": "electric_scooter", "lon": -76.99617866666667, "fusion_lon": 0.0, "lat": 38.900374, "rental_uris": {"android": "https://dc.lft.to/lastmile_qr_scan", "ios": "https://dc.lft.to/lastmile_qr_scan"}, "fusion_lat": 0.0, "name": "09d9167f4e6680072bd5824c06eb99cc", "bike_id": "09d9167f4e6680072bd5824c06eb99cc"}, {"is_disabled": 0, "is_reserved": 0, "type": "electric_scooter", "lon": -77.02768216666666, "fusion_lon": 0.0, "lat": 38.881544, "rental_uris": {"android": "https://dc.lft.to/lastmile_qr_scan", "ios": "https://dc.lft.to/lastmile_qr_scan"}, "fusion_lat": 0.0, "name": "3ada490728daccc6d9f492436bf29f80", "bike_id": "3ada490728daccc6d9f492436bf29f80"}, {"is_disabled": 0, "is_reserved": 0, "type": "electric_scooter", "lon": -77.00582583333333, "fusion_lon": 0.0, "lat": 38.87522333333333, "rental_uris": {"android": "https://dc.lft.to/lastmile_qr_scan", "ios": "https://dc.lft.to/lastmile_qr_scan"}, "fusion_lat": 0.0, "name": "0f12ee9d1969433234b4afd7c5bb2b71", "bike_id": "0f12ee9d1969433234b4afd7c5bb2b71"}, {"is_disabled": 0, "is_reserved": 0, "type": "electric_bike", "lon": -77.13230483333334, "fusion_lon": 0.0, "lat": 38.86973616666667, "rental_uris": {"android": "https://dc.lft.to/lastmile_qr_scan", "ios": "https://dc.lft.to/lastmile_qr_scan"}, "fusion_lat": 0.0, "name": "8ebbb7318fb0fc549f535850e5346fec", "bike_id": "8ebbb7318fb0fc549f535850e5346fec"}, {"is_disabled": 0, "is_reserved": 0, "type": "electric_scooter", "lon": -77.02174133333334, "fusion_lon": 0.0, "lat": 38.94295316666667, "rental_uris": {"android": "https://dc.lft.to/lastmile_qr_scan", "ios": "https://dc.lft.to/lastmile_qr_scan"}, "fusion_lat": 0.0, "name": "455a04d12193f4e0063dcd0ea2783cc4", "bike_id": "455a04d12193f4e0063dcd0ea2783cc4"}, {"is_disabled": 0, "is_reserved": 0, "type": "electric_bike", "lon": -77.0121515, "fusion_lon": 0.0, "lat": 38.90032183333334, "rental_uris": {"android": "https://dc.lft.to/lastmile_qr_scan", "ios": "https://dc.lft.to/lastmile_qr_scan"}, "fusion_lat": 0.0, "name": "893f7eb3a00a836fe49efd1108627c79", "bike_id": "893f7eb3a00a836fe49efd1108627c79"}, {"is_disabled": 0, "is_reserved": 0, "type": "electric_scooter", "lon": -77.0512215, "fusion_lon": 0.0, "lat": 38.9234185, "rental_uris": {"android": "https://dc.lft.to/lastmile_qr_scan", "ios": "https://dc.lft.to/lastmile_qr_scan"}, "fusion_lat": 0.0, "name": "1c56c98f78ae7c6a6b5be157dd9523ed", "bike_id": "1c56c98f78ae7c6a6b5be157dd9523ed"}, {"is_disabled": 0, "is_reserved": 0, "type": "electric_scooter", "lon": -77.00409633333334, "fusion_lon": 0.0, "lat": 38.87695866666667, "rental_uris": {"android": "https://dc.lft.to/lastmile_qr_scan", "ios": "https://dc.lft.to/lastmile_qr_scan"}, "fusion_lat": 0.0, "name": "4029abeb493e1b72053147976c6c2067", "bike_id": "4029abeb493e1b72053147976c6c2067"}, {"is_disabled": 0, "is_reserved": 0, "type": "electric_scooter", "lon": -77.06619683333334, "fusion_lon": 0.0, "lat": 38.907337166666665, "rental_uris": {"android": "https://dc.lft.to/lastmile_qr_scan", "ios": "https://dc.lft.to/lastmile_qr_scan"}, "fusion_lat": 0.0, "name": "d8b6f2d08ea37527d444934ee61dbf10", "bike_id": "d8b6f2d08ea37527d444934ee61dbf10"}, {"is_disabled": 0, "is_reserved": 0, "type": "electric_scooter", "lon": -77.02539883333333, "fusion_lon": 0.0, "lat": 38.90066983333333, "rental_uris": {"android": "https://dc.lft.to/lastmile_qr_scan", "ios": "https://dc.lft.to/lastmile_qr_scan"}, "fusion_lat": 0.0, "name": "d7f76761143b4e480d8d21459f0bf97f", "bike_id": "d7f76761143b4e480d8d21459f0bf97f"}, {"is_disabled": 0, "is_reserved": 0, "type": "electric_scooter", "lon": -77.01538233333333, "fusion_lon": 0.0, "lat": 38.88618983333333, "rental_uris": {"android": "https://dc.lft.to/lastmile_qr_scan", "ios": "https://dc.lft.to/lastmile_qr_scan"}, "fusion_lat": 0.0, "name": "454cab83d53f164b6a8ad06b2b239398", "bike_id": "454cab83d53f164b6a8ad06b2b239398"}, {"is_disabled": 0, "is_reserved": 0, "type": "electric_scooter", "lon": -77.02806433333333, "fusion_lon": 0.0, "lat": 38.90738366666667, "rental_uris": {"android": "https://dc.lft.to/lastmile_qr_scan", "ios": "https://dc.lft.to/lastmile_qr_scan"}, "fusion_lat": 0.0, "name": "e7f689b20deb7e2aa10d185f381696c2", "bike_id": "e7f689b20deb7e2aa10d185f381696c2"}, {"is_disabled": 0, "is_reserved": 0, "type": "electric_bike", "lon": -77.1290125, "fusion_lon": 0.0, "lat": 38.8637515, "rental_uris": {"android": "https://dc.lft.to/lastmile_qr_scan", "ios": "https://dc.lft.to/lastmile_qr_scan"}, "fusion_lat": 0.0, "name": "87afb4fa6e12ad62d1690de926f42d55", "bike_id": "87afb4fa6e12ad62d1690de926f42d55"}, {"is_disabled": 0, "is_reserved": 0, "type": "electric_scooter", "lon": -77.04380683333333, "fusion_lon": 0.0, "lat": 38.920918666666665, "rental_uris": {"android": "https://dc.lft.to/lastmile_qr_scan", "ios": "https://dc.lft.to/lastmile_qr_scan"}, "fusion_lat": 0.0, "name": "38c6cad208ac10b0ac233a339d614dc7", "bike_id": "38c6cad208ac10b0ac233a339d614dc7"}, {"is_disabled": 0, "is_reserved": 0, "type": "electric_scooter", "lon": -77.04366116666667, "fusion_lon": 0.0, "lat": 38.900041333333334, "rental_uris": {"android": "https://dc.lft.to/lastmile_qr_scan", "ios": "https://dc.lft.to/lastmile_qr_scan"}, "fusion_lat": 0.0, "name": "2c81ff8cd6228af8680e1dc4836abc53", "bike_id": "2c81ff8cd6228af8680e1dc4836abc53"}, {"is_disabled": 0, "is_reserved": 0, "type": "electric_scooter", "lon": -76.99848333333334, "fusion_lon": 0.0, "lat": 38.9023855, "rental_uris": {"android": "https://dc.lft.to/lastmile_qr_scan", "ios": "https://dc.lft.to/lastmile_qr_scan"}, "fusion_lat": 0.0, "name": "ae8b880ee974a07de66a48806d69ce8d", "bike_id": "ae8b880ee974a07de66a48806d69ce8d"}, {"is_disabled": 0, "is_reserved": 0, "type": "electric_bike", "lon": -77.02105516666667, "fusion_lon": 0.0, "lat": 39.02294366666667, "rental_uris": {"android": "https://dc.lft.to/lastmile_qr_scan", "ios": "https://dc.lft.to/lastmile_qr_scan"}, "fusion_lat": 0.0, "name": "8d5db4e7435146c1c83fb3f6cd36cf4c", "bike_id": "8d5db4e7435146c1c83fb3f6cd36cf4c"}, {"is_disabled": 0, "is_reserved": 0, "type": "electric_scooter", "lon": -77.05860433333334, "fusion_lon": 0.0, "lat": 38.936099166666665, "rental_uris": {"android": "https://dc.lft.to/lastmile_qr_scan", "ios": "https://dc.lft.to/lastmile_qr_scan"}, "fusion_lat": 0.0, "name": "555af2396e44bb1e96b1700f5e43e2c6", "bike_id": "555af2396e44bb1e96b1700f5e43e2c6"}, {"is_disabled": 0, "is_reserved": 0, "type": "electric_scooter", "lon": -77.02722616666667, "fusion_lon": 0.0, "lat": 38.940842, "rental_uris": {"android": "https://dc.lft.to/lastmile_qr_scan", "ios": "https://dc.lft.to/lastmile_qr_scan"}, "fusion_lat": 0.0, "name": "0a34316527ae7e5315ae223c180a1275", "bike_id": "0a34316527ae7e5315ae223c180a1275"}, {"is_disabled": 0, "is_reserved": 0, "type": "electric_scooter", "lon": -77.02484116666666, "fusion_lon": 0.0, "lat": 38.91693133333333, "rental_uris": {"android": "https://dc.lft.to/lastmile_qr_scan", "ios": "https://dc.lft.to/lastmile_qr_scan"}, "fusion_lat": 0.0, "name": "9a8e3ba23fbda066d8ba4652e53aafd0", "bike_id": "9a8e3ba23fbda066d8ba4652e53aafd0"}, {"is_disabled": 0, "is_reserved": 0, "type": "electric_scooter", "lon": -77.04150266666667, "fusion_lon": 0.0, "lat": 38.90115216666667, "rental_uris": {"android": "https://dc.lft.to/lastmile_qr_scan", "ios": "https://dc.lft.to/lastmile_qr_scan"}, "fusion_lat": 0.0, "name": "d7b2c782efa399287b183f2d7399f5bb", "bike_id": "d7b2c782efa399287b183f2d7399f5bb"}, {"is_disabled": 0, "is_reserved": 0, "type": "electric_scooter", "lon": -77.02257683333333, "fusion_lon": 0.0, "lat": 38.898613833333336, "rental_uris": {"android": "https://dc.lft.to/lastmile_qr_scan", "ios": "https://dc.lft.to/lastmile_qr_scan"}, "fusion_lat": 0.0, "name": "94bf66063f55b8fe8e52b26320d5ce87", "bike_id": "94bf66063f55b8fe8e52b26320d5ce87"}, {"is_disabled": 0, "is_reserved": 0, "type": "electric_scooter", "lon": -77.0744225, "fusion_lon": 0.0, "lat": 38.9110205, "rental_uris": {"android": "https://dc.lft.to/lastmile_qr_scan", "ios": "https://dc.lft.to/lastmile_qr_scan"}, "fusion_lat": 0.0, "name": "4733271f96236d7d621bcf07ac51282c", "bike_id": "4733271f96236d7d621bcf07ac51282c"}, {"is_disabled": 0, "is_reserved": 0, "type": "electric_scooter", "lon": -77.026817, "fusion_lon": 0.0, "lat": 38.909648, "rental_uris": {"android": "https://dc.lft.to/lastmile_qr_scan", "ios": "https://dc.lft.to/lastmile_qr_scan"}, "fusion_lat": 0.0, "name": "2b7e28e7b88b5d102cd57cc42967e6a7", "bike_id": "2b7e28e7b88b5d102cd57cc42967e6a7"}, {"is_disabled": 0, "is_reserved": 0, "type": "electric_scooter", "lon": -77.00915783333333, "fusion_lon": 0.0, "lat": 38.959478833333336, "rental_uris": {"android": "https://dc.lft.to/lastmile_qr_scan", "ios": "https://dc.lft.to/lastmile_qr_scan"}, "fusion_lat": 0.0, "name": "7d6fce4fe9408f3ee7b4d7fc50c151df", "bike_id": "7d6fce4fe9408f3ee7b4d7fc50c151df"}, {"is_disabled": 0, "is_reserved": 0, "type": "electric_scooter", "lon": -77.01734283333333, "fusion_lon": 0.0, "lat": 38.921055, "rental_uris": {"android": "https://dc.lft.to/lastmile_qr_scan", "ios": "https://dc.lft.to/lastmile_qr_scan"}, "fusion_lat": 0.0, "name": "aeee140277451fe6cbfb19caf3fb8b87", "bike_id": "aeee140277451fe6cbfb19caf3fb8b87"}, {"is_disabled": 0, "is_reserved": 0, "type": "electric_scooter", "lon": -77.00382816666666, "fusion_lon": 0.0, "lat": 38.876375, "rental_uris": {"android": "https://dc.lft.to/lastmile_qr_scan", "ios": "https://dc.lft.to/lastmile_qr_scan"}, "fusion_lat": 0.0, "name": "197eac7259f6354431d695cf8695733c", "bike_id": "197eac7259f6354431d695cf8695733c"}, {"is_disabled": 0, "is_reserved": 0, "type": "electric_scooter", "lon": -77.00750616666667, "fusion_lon": 0.0, "lat": 38.900554, "rental_uris": {"android": "https://dc.lft.to/lastmile_qr_scan", "ios": "https://dc.lft.to/lastmile_qr_scan"}, "fusion_lat": 0.0, "name": "3278e5f6abba1af3567428f2a651b31e", "bike_id": "3278e5f6abba1af3567428f2a651b31e"}, {"is_disabled": 0, "is_reserved": 0, "type": "electric_scooter", "lon": -76.99538533333333, "fusion_lon": 0.0, "lat": 38.862540833333334, "rental_uris": {"android": "https://dc.lft.to/lastmile_qr_scan", "ios": "https://dc.lft.to/lastmile_qr_scan"}, "fusion_lat": 0.0, "name": "616eee343b81b2ede65127d823955afc", "bike_id": "616eee343b81b2ede65127d823955afc"}, {"is_disabled": 0, "is_reserved": 0, "type": "electric_scooter", "lon": -77.06352683333333, "fusion_lon": 0.0, "lat": 38.9444795, "rental_uris": {"android": "https://dc.lft.to/lastmile_qr_scan", "ios": "https://dc.lft.to/lastmile_qr_scan"}, "fusion_lat": 0.0, "name": "dc3913c871d016692fc8283005d27224", "bike_id": "dc3913c871d016692fc8283005d27224"},