{"data": {"bikes": [{"bike_id": "14f3b8ebbe38633f19ffe7642d4d65dc", "fusion_lon": 0.0, "name": "14f3b8ebbe38633f19ffe7642d4d65dc", "lat": 38.90979, "is_disabled": 0, "is_reserved": 0, "lon": -77.040534, "type": "electric_scooter", "fusion_lat": 0.0, "rental_uris": {"android": "https://dc.lft.to/lastmile_qr_scan", "ios": "https://dc.lft.to/lastmile_qr_scan"}}, {"bike_id": "9306a0add5bffc0d5cbae5c1929267c4", "fusion_lon": 0.0, "name": "9306a0add5bffc0d5cbae5c1929267c4", "lat": 38.908621833333335, "is_disabled": 0, "is_reserved": 0, "lon": -76.99945883333334, "type": "electric_scooter", "fusion_lat": 0.0, "rental_uris": {"android": "https://dc.lft.to/lastmile_qr_scan", "ios": "https://dc.lft.to/lastmile_qr_scan"}}, {"bike_id": "5e65ceac93d17f4aae02fed88aefe5b5", "fusion_lon": 0.0, "name": "5e65ceac93d17f4aae02fed88aefe5b5", "lat": 38.95634616666667, "is_disabled": 0, "is_reserved": 0, "lon": -77.03306, "type": "electric_scooter", "fusion_lat": 0.0, "rental_uris": {"android": "https://dc.lft.to/lastmile_qr_scan", "ios": "https://dc.lft.to/lastmile_qr_scan"}}, {"bike_id": "d1204eb518c921a0b0d4e7182d89790b", "fusion_lon": 0.0, "name": "d1204eb518c921a0b0d4e7182d89790b", "lat": 38.8922655, "is_disabled": 0, "is_reserved": 0, "lon": -77.0333055, "type": "electric_scooter", "fusion_lat": 0.0, "rental_uris": {"android": "https://dc.lft.to/lastmile_qr_scan", "ios": "https://dc.lft.to/lastmile_qr_scan"}}, {"bike_id": "4b3a4fd4c71bf5effbc7f71e479e465b", "fusion_lon": 0.0, "name": "4b3a4fd4c71bf5effbc7f71e479e465b", "lat": 38.911530666666664, "is_disabled": 0, "is_reserved": 0, "lon": -77.02379833333333, "type": "electric_scooter", "fusion_lat": 0.0, "rental_uris": {"android": "https://dc.lft.to/lastmile_qr_scan", "ios": "https://dc.lft.to/lastmile_qr_scan"}}, {"bike_id": "e8e062154c8a6a4b8cdf021f176428d4", "fusion_lon": 0.0, "name": "e8e062154c8a6a4b8cdf021f176428d4", "lat": 38.920407166666664, "is_disabled": 0, "is_reserved": 0, "lon": -77.01678283333334, "type": "electric_scooter", "fusion_lat": 0.0, "rental_uris": {"android": "https://dc.lft.to/lastmile_qr_scan", "ios": "https://dc.lft.to/lastmile_qr_scan"}}, {"bike_id": "580207de97c9b0c9c1b332b111b4faef", "fusion_lon": 0.0, "name": "580207de97c9b0c9c1b332b111b4faef", "lat": 38.902548333333336, "is_disabled": 0, "is_reserved": 0, "lon": -77.04359216666667, "type": "electric_scooter", "fusion_lat": 0.0, "rental_uris": {"android": "https://dc.lft.to/lastmile_qr_scan", "ios": "https://dc.lft.to/lastmile_qr_scan"}}, {"bike_id": "dbb19accdcf4137fc547bc9bade03a04", "fusion_lon": 0.0, "name": "dbb19accdcf4137fc547bc9bade03a04", "lat": 38.89546583333333, "is_disabled": 0, "is_reserved": 0, "lon": -77.047364, "type": "electric_scooter", "fusion_lat": 0.0, "rental_uris": {"android": "https://dc.lft.to/lastmile_qr_scan", "ios": "https://dc.lft.to/lastmile_qr_scan"}}, {"bike_id": "4e0854d09a9f699d3ae50a00c990393c", "fusion_lon": 0.0, "name": "4e0854d09a9f699d3ae50a00c990393c", "lat": 38.87712533333333, "is_disabled": 0, "is_reserved": 0, "lon": -77.00427016666667, "type": "electric_scooter", "fusion_lat": 0.0, "rental_uris": {"android": "https://dc.lft.to/lastmile_qr_scan", "ios": "https://dc.lft.to/lastmile_qr_scan"}}, {"bike_id": "3c32e1a7f6f3174146a3f78b5f39511e", "fusion_lon": 0.0, "name": "3c32e1a7f6f3174146a3f78b5f39511e", "lat": 38.87707183333333, "is_disabled": 0, "is_reserved": 0, "lon": -77.004254, "type": "electric_scooter", "fusion_lat": 0.0, "rental_uris": {"android": "https://dc.lft.to/lastmile_qr_scan", "ios": "https://dc.lft.to/lastmile_qr_scan"}}, {"bike_id": "e91be4190ef4af56ee603d7c8424de5b", "fusion_lon": 0.0, "name": "e91be4190ef4af56ee603d7c8424de5b", "lat": 38.91921983333334, "is_disabled": 0, "is_reserved": 0, "lon": -77.00982133333333, "type": "electric_scooter", "fusion_lat": 0.0, "rental_uris": {"android": "https://dc.lft.to/lastmile_qr_scan", "ios": "https://dc.lft.to/lastmile_qr_scan"}}, {"bike_id": "e5a45900f066305319423254b4d067db", "fusion_lon": 0.0, "name": "e5a45900f066305319423254b4d067db", "lat": 38.864492166666665, "is_disabled": 0, "is_reserved": 0, "lon": -77.10684883333333, "type": "electric_bike", "fusion_lat": 0.0, "rental_uris": {"android": "https://dc.lft.to/lastmile_qr_scan", "ios": "https://dc.lft.to/lastmile_qr_scan"}}, {"bike_id": "d1fdf494cc4f4a4c4b85faa75de1eccd", "fusion_lon": 0.0, "name": "d1fdf494cc4f4a4c4b85faa75de1eccd", "lat": 38.9415605, "is_disabled": 0, "is_reserved": 0, "lon": -77.09274966666666, "type": "electric_scooter", "fusion_lat": 0.0, "rental_uris": {"android": "https://dc.lft.to/lastmile_qr_scan", "ios": "https://dc.lft.to/lastmile_qr_scan"}}, {"bike_id": "03547fdc847ede2829ba109f45d14e24", "fusion_lon": 0.0, "name": "03547fdc847ede2829ba109f45d14e24", "lat": 38.91689, "is_disabled": 0, "is_reserved": 0, "lon": -77.03819983333334, "type": "electric_scooter", "fusion_lat": 0.0, "rental_uris": {"android": "https://dc.lft.to/lastmile_qr_scan", "ios": "https://dc.lft.to/lastmile_qr_scan"}}, {"bike_id": "061569655fdefee8d74950bb5b437bae", "fusion_lon": 0.0, "name": "061569655fdefee8d74950bb5b437bae", "lat": 38.8874535, "is_disabled": 0, "is_reserved": 0, "lon": -77.0284315, "type": "electric_scooter", "fusion_lat": 0.0, "rental_uris": {"android": "https://dc.lft.to/lastmile_qr_scan", "ios": "https://dc.lft.to/lastmile_qr_scan"}}, {"bike_id": "fc9f67facf848f5971dd1e01da1c78a8", "fusion_lon": 0.0, "name": "fc9f67facf848f5971dd1e01da1c78a8", "lat": 38.91194383333333, "is_disabled": 0, "is_reserved": 0, "lon": -77.03857566666667, "type": "electric_scooter", "fusion_lat": 0.0, "rental_uris": {"android": "https://dc.lft.to/lastmile_qr_scan", "ios": "https://dc.lft.to/lastmile_qr_scan"}}, {"bike_id": "7d2e95f1f87a1e3c3b6d14867e4dd033", "fusion_lon": 0.0, "name": "7d2e95f1f87a1e3c3b6d14867e4dd033", "lat": 38.90625, "is_disabled": 0, "is_reserved": 0, "lon": -77.01019533333333, "type": "electric_scooter", "fusion_lat": 0.0, "rental_uris": {"android": "https://dc.lft.to/lastmile_qr_scan", "ios": "https://dc.lft.to/lastmile_qr_scan"}}, {"bike_id": "55cb77fdd3acf3cb8d3bb4d22741f237", "fusion_lon": 0.0, "name": "55cb77fdd3acf3cb8d3bb4d22741f237", "lat": 38.90476533333333, "is_disabled": 0, "is_reserved": 0, "lon": -77.048656, "type": "electric_scooter", "fusion_lat": 0.0, "rental_uris": {"android": "https://dc.lft.to/lastmile_qr_scan", "ios": "https://dc.lft.to/lastmile_qr_scan"}}, {"bike_id": "b4712e8e8e7d9f9c96679ed31a83c3e5", "fusion_lon": 0.0, "name": "b4712e8e8e7d9f9c96679ed31a83c3e5", "lat": 38.920516166666665, "is_disabled": 0, "is_reserved": 0, "lon": -77.04185933333333, "type": "electric_scooter", "fusion_lat": 0.0, "rental_uris": {"android": "https://dc.lft.to/lastmile_qr_scan", "ios": "https://dc.lft.to/lastmile_qr_scan"}}, {"bike_id": "a8f51c23352d3540263686b118577960", "fusion_lon": 0.0, "name": "a8f51c23352d3540263686b118577960", "lat": 38.91626333333333, "is_disabled": 0, "is_reserved": 0, "lon": -77.03145183333334, "type": "electric_scooter", "fusion_lat": 0.0, "rental_uris": {"android": "https://dc.lft.to/lastmile_qr_scan", "ios": "https://dc.lft.to/lastmile_qr_scan"}}, {"bike_id": "a6f0e2b9d842c0ebd6fc39d90a69f3b5", "fusion_lon": 0.0, "name": "a6f0e2b9d842c0ebd6fc39d90a69f3b5", "lat": 38.876602166666665, "is_disabled": 0, "is_reserved": 0, "lon": -77.01612416666667, "type": "electric_scooter", "fusion_lat": 0.0, "rental_uris": {"android": "https://dc.lft.to/lastmile_qr_scan", "ios": "https://dc.lft.to/lastmile_qr_scan"}}, {"bike_id": "aba69e970029cff232419af71ebe68b0", "fusion_lon": 0.0, "name": "aba69e970029cff232419af71ebe68b0", "lat": 38.920449833333336, "is_disabled": 0, "is_reserved": 0, "lon": -77.0257825, "type": "electric_scooter", "fusion_lat": 0.0, "rental_uris": {"android": "https://dc.lft.to/lastmile_qr_scan", "ios": "https://dc.lft.to/lastmile_qr_scan"}}, {"bike_id": "40535d4a2d8e3d579414374b5fa66dc8", "fusion_lon": 0.0, "name": "40535d4a2d8e3d579414374b5fa66dc8", "lat": 38.857833666666664, "is_disabled": 0, "is_reserved": 0, "lon": -77.12022333333333, "type": "electric_bike", "fusion_lat": 0.0, "rental_uris": {"android": "https://dc.lft.to/lastmile_qr_scan", "ios": "https://dc.lft.to/lastmile_qr_scan"}}, {"bike_id": "f91615fc4b353a2cf899a224963faaff", "fusion_lon": 0.0, "name": "f91615fc4b353a2cf899a224963faaff", "lat": 38.964773, "is_disabled": 0, "is_reserved": 0, "lon": -77.01190616666666, "type": "electric_scooter", "fusion_lat": 0.0, "rental_uris": {"android": "https://dc.lft.to/lastmile_qr_scan", "ios": "https://dc.lft.to/lastmile_qr_scan"}}, {"bike_id": "1c81ca4e0fa833ab5ee1f92cbd05b475", "fusion_lon": 0.0, "name": "1c81ca4e0fa833ab5ee1f92cbd05b475", "lat": 38.992217, "is_disabled": 0, "is_reserved": 0, "lon": -76.94457766666666, "type": "electric_bike", "fusion_lat": 0.0, "rental_uris": {"android": "https://dc.lft.to/lastmile_qr_scan", "ios": "https://dc.lft.to/lastmile_qr_scan"}}, {"bike_id": "92662581b2ee2241d60f5a4411a5c179", "fusion_lon": 0.0, "name": "92662581b2ee2241d60f5a4411a5c179", "lat": 38.89217083333333, "is_disabled": 0, "is_reserved": 0, "lon": -76.95700883333333, "type": "electric_scooter", "fusion_lat": 0.0, "rental_uris": {"android": "https://dc.lft.to/lastmile_qr_scan", "ios": "https://dc.lft.to/lastmile_qr_scan"}}, {"bike_id": "487ab6f5c8bd4077eeb2639e95485d57", "fusion_lon": 0.0, "name": "487ab6f5c8bd4077eeb2639e95485d57", "lat": 38.887346666666666, "is_disabled": 0, "is_reserved": 0, "lon": -77.0153355, "type": "electric_scooter", "fusion_lat": 0.0, "rental_uris": {"android": "https://dc.lft.to/lastmile_qr_scan", "ios": "https://dc.lft.to/lastmile_qr_scan"}}, {"bike_id": "982f8fa11685dd7f9afcbbf75852ae87", "fusion_lon": 0.0, "name": "982f8fa11685dd7f9afcbbf75852ae87", "lat": 38.916644833333336, "is_disabled": 0, "is_reserved": 0, "lon": -77.02706833333333, "type": "electric_scooter", "fusion_lat": 0.0, "rental_uris": {"android": "https://dc.lft.to/lastmile_qr_scan", "ios": "https://dc.lft.to/lastmile_qr_scan"}}, {"bike_id": "39faa4d3c052c7311b92ed956dd31ed8", "fusion_lon": 0.0, "name": "39faa4d3c052c7311b92ed956dd31ed8", "lat": 38.9301845, "is_disabled": 0, "is_reserved": 0, "lon": -77.03782916666667, "type": "electric_scooter", "fusion_lat": 0.0, "rental_uris": {"android": "https://dc.lft.to/lastmile_qr_scan", "ios": "https://dc.lft.to/lastmile_qr_scan"}}, {"bike_id": "d71f595fa059eeefcfb46ef3c76a3773", "fusion_lon": 0.0, "name": "d71f595fa059eeefcfb46ef3c76a3773", "lat": 38.910359166666666, "is_disabled": 0, "is_reserved": 0, "lon": -77.03379516666666, "type": "electric_scooter", "fusion_lat": 0.0, "rental_uris": {"android": "https://dc.lft.to/lastmile_qr_scan", "ios": "https://dc.lft.to/lastmile_qr_scan"}}, {"bike_id": "aad3bc98f6322f78752212e6e8fbe421", "fusion_lon": 0.0, "name": "aad3bc98f6322f78752212e6e8fbe421", "lat": 38.89524, "is_disabled": 0, "is_reserved": 0, "lon": -77.02604716666667, "type": "electric_scooter", "fusion_lat": 0.0, "rental_uris": {"android": "https://dc.lft.to/lastmile_qr_scan", "ios": "https://dc.lft.to/lastmile_qr_scan"}}, {"bike_id": "8a8dc61e6928d06274e988cd4f3c789c", "fusion_lon": 0.0, "name": "8a8dc61e6928d06274e988cd4f3c789c", "lat": 38.85539416666667, "is_disabled": 0, "is_reserved": 0, "lon": -77.12088216666666, "type": "electric_bike", "fusion_lat": 0.0, "rental_uris": {"android": "https://dc.lft.to/lastmile_qr_scan", "ios": "https://dc.lft.to/lastmile_qr_scan"}}, {"bike_id": "d6f10b4b4d3ec2d108defa7705b8fb98", "fusion_lon": 0.0, "name": "d6f10b4b4d3ec2d108defa7705b8fb98", "lat": 38.90257, "is_disabled": 0, "is_reserved": 0, "lon": -77.00885216666667, "type": "electric_scooter", "fusion_lat": 0.0, "rental_uris": {"android": "https://dc.lft.to/lastmile_qr_scan", "ios": "https://dc.lft.to/lastmile_qr_scan"}}, {"bike_id": "9b72ae7ce183a14a30640bc7cdde2ed8", "fusion_lon": 0.0, "name": "9b72ae7ce183a14a30640bc7cdde2ed8", "lat": 38.90292633333333, "is_disabled": 0, "is_reserved": 0, "lon": -77.03177683333334, "type": "electric_scooter", "fusion_lat": 0.0, "rental_uris": {"android": "https://dc.lft.to/lastmile_qr_scan", "ios": "https://dc.lft.to/lastmile_qr_scan"}}, {"bike_id": "01bf08be37e851005f8af2cc5a63bd42", "fusion_lon": 0.0, "name": "01bf08be37e851005f8af2cc5a63bd42", "lat": 38.90406466666666, "is_disabled": 0, "is_reserved": 0, "lon": -76.99280966666667, "type": "electric_scooter", "fusion_lat": 0.0, "rental_uris": {"android": "https://dc.lft.to/lastmile_qr_scan", "ios": "https://dc.lft.to/lastmile_qr_scan"}}, {"bike_id": "5fa8ffa7617d9c8eb08104d418dfff3b", "fusion_lon": 0.0, "name": "5fa8ffa7617d9c8eb08104d418dfff3b", "lat": 38.91815783333333, "is_disabled": 0, "is_reserved": 0, "lon": -77.02474916666667, "type": "electric_scooter", "fusion_lat": 0.0, "rental_uris": {"android": "https://dc.lft.to/lastmile_qr_scan", "ios": "https://dc.lft.to/lastmile_qr_scan"}}, {"bike_id": "62752a8ced3df079329b819eb724c6cb", "fusion_lon": 0.0, "name": "62752a8ced3df079329b819eb724c6cb", "lat": 38.902390833333335, "is_disabled": 0, "is_reserved": 0, "lon": -77.0224955, "type": "electric_scooter", "fusion_lat": 0.0, "rental_uris": {"android": "https://dc.lft.to/lastmile_qr_scan", "ios": "https://dc.lft.to/lastmile_qr_scan"}}, {"bike_id": "9187b97d1dea2523ac0c0da65b9feb52", "fusion_lon": 0.0, "name": "9187b97d1dea2523ac0c0da65b9feb52", "lat": 38.89877033333333, "is_disabled": 0, "is_reserved": 0, "lon": -77.052879, "type": "electric_scooter", "fusion_lat": 0.0, "rental_uris": {"android": "https://dc.lft.to/lastmile_qr_scan", "ios": "https://dc.lft.to/lastmile_qr_scan"}}, {"bike_id": "1e6d4333e999764a493d3a2ee2b2132c", "fusion_lon": 0.0, "name": "1e6d4333e999764a493d3a2ee2b2132c", "lat": 38.94186216666667, "is_disabled": 0, "is_reserved": 0, "lon": -77.03837816666666, "type": "electric_scooter", "fusion_lat": 0.0, "rental_uris": {"android": "https://dc.lft.to/lastmile_qr_scan", "ios": "https://dc.lft.to/lastmile_qr_scan"}}, {"bike_id": "5d38a39096fbd7313da3a3b8cf2e42df", "fusion_lon": 0.0, "name": "5d38a39096fbd7313da3a3b8cf2e42df", "lat": 38.91819266666667, "is_disabled": 0, "is_reserved": 0, "lon": -77.01210233333333, "type": "electric_scooter", "fusion_lat": 0.0, "rental_uris": {"android": "https://dc.lft.to/lastmile_qr_scan", "ios": "https://dc.lft.to/lastmile_qr_scan"}}, {"bike_id": "e5614e09afd64620b25e5a926ce9b4a3", "fusion_lon": 0.0, "name": "e5614e09afd64620b25e5a926ce9b4a3", "lat": 38.815953, "is_disabled": 0, "is_reserved": 0, "lon": -77.05056816666666, "type": "electric_bike", "fusion_lat": 0.0, "rental_uris": {"android": "https://dc.lft.to/lastmile_qr_scan", "ios": "https://dc.lft.to/lastmile_qr_scan"}}, {"bike_id": "53b7aaa1e7212a6a814922fef46a6258", "fusion_lon": 0.0, "name": "53b7aaa1e7212a6a814922fef46a6258", "lat": 38.903282833333336, "is_disabled": 0, "is_reserved": 0, "lon": -76.9753025, "type": "electric_bike", "fusion_lat": 0.0, "rental_uris": {"android": "https://dc.lft.to/lastmile_qr_scan", "ios": "https://dc.lft.to/lastmile_qr_scan"}}, {"bike_id": "114c753eb61eb3a05bb4644958e10212", "fusion_lon": 0.0, "name": "114c753eb61eb3a05bb4644958e10212", "lat": 38.900215333333335, "is_disabled": 0, "is_reserved": 0, "lon": -77.03717433333334, "type": "electric_scooter", "fusion_lat": 0.0, "rental_uris": {"android": "https://dc.lft.to/lastmile_qr_scan", "ios": "https://dc.lft.to/lastmile_qr_scan"}}, {"bike_id": "016b40af8645653a9197395f5c4ca0e6", "fusion_lon": 0.0, "name": "016b40af8645653a9197395f5c4ca0e6", "lat": 38.89539466666667, "is_disabled": 0, "is_reserved": 0, "lon": -76.98208716666667, "type": "electric_scooter", "fusion_lat": 0.0, "rental_uris": {"android": "https://dc.lft.to/lastmile_qr_scan", "ios": "https://dc.lft.to/lastmile_qr_scan"}}, {"bike_id": "4a5379d435c4ba27df1f35482b6aa680", "fusion_lon": 0.0, "name": "4a5379d435c4ba27df1f35482b6aa680", "lat": 38.8970585, "is_disabled": 0, "is_reserved": 0, "lon": -77.0084745, "type": "electric_scooter", "fusion_lat": 0.0, "rental_uris": {"android": "https://dc.lft.to/lastmile_qr_scan", "ios": "https://dc.lft.to/lastmile_qr_scan"}}, {"bike_id": "272c6b8b3c6f90fff319e578c900a45a", "fusion_lon": 0.0, "name": "272c6b8b3c6f90fff319e578c900a45a", "lat": 38.922251333333335, "is_disabled": 0, "is_reserved": 0, "lon": -77.01819533333334, "type": "electric_scooter", "fusion_lat": 0.0, "rental_uris": {"android": "https://dc.lft.to/lastmile_qr_scan", "ios": "https://dc.lft.to/lastmile_qr_scan"}}, {"bike_id": "48c9d07ac8073a910619cbd47e8a0d52", "fusion_lon": 0.0, "name": "48c9d07ac8073a910619cbd47e8a0d52", "lat": 38.92709383333333, "is_disabled": 0, "is_reserved": 0, "lon": -77.020878, "type": "electric_scooter", "fusion_lat": 0.0, "rental_uris": {"android": "https://dc.lft.to/lastmile_qr_scan", "ios": "https://dc.lft.to/lastmile_qr_scan"}}, {"bike_id": "2bd33a5f5e9fc7647379ebcac77fc845", "fusion_lon": 0.0, "name": "2bd33a5f5e9fc7647379ebcac77fc845", "lat": 38.896108, "is_disabled": 0, "is_reserved": 0, "lon": -77.02155483333334, "type": "electric_scooter", "fusion_lat": 0.0, "rental_uris": {"android": "https://dc.lft.to/lastmile_qr_scan", "ios": "https://dc.lft.to/lastmile_qr_scan"}}, {"bike_id": "07c8bf9a2cb6f2975e8cf1d84128eeac", "fusion_lon": 0.0, "name": "07c8bf9a2cb6f2975e8cf1d84128eeac", "lat": 38.894452333333334, "is_disabled": 0, "is_reserved": 0, "lon": -77.03958233333333, "type": "electric_scooter", "fusion_lat": 0.0, "rental_uris": {"android": "https://dc.lft.to/lastmile_qr_scan", "ios": "https://dc.lft.to/lastmile_qr_scan"}}, {"bike_id": "251f3622d2186b458ab4db0acb802e51", "fusion_lon": 0.0, "name": "251f3622d2186b458ab4db0acb802e51", "lat": 38.92351016666667, "is_disabled": 0, "is_reserved": 0, "lon": -77.0503825, "type": "electric_scooter", "fusion_lat": 0.0, "rental_uris": {"android": "https://dc.lft.to/lastmile_qr_scan", "ios": "https://dc.lft.to/lastmile_qr_scan"}}, {"bike_id": "9c8b2e0d65ad3da404510d31fe7a98a4", "fusion_lon": 0.0, "name": "9c8b2e0d65ad3da404510d31fe7a98a4", "lat": 38.89220566666667, "is_disabled": 0, "is_reserved": 0, "lon": -77.02015316666666, "type": "electric_scooter", "fusion_lat": 0.0, "rental_uris": {"android": "https://dc.lft.to/lastmile_qr_scan", "ios": "https://dc.lft.to/lastmile_qr_scan"}}, {"bike_id": "ff4a8e5e173071b2dd80eb2e7bdfa3dd", "fusion_lon": 0.0, "name": "ff4a8e5e173071b2dd80eb2e7bdfa3dd", "lat": 38.90326983333333, "is_disabled": 0, "is_reserved": 0, "lon": -77.04468816666666, "type": "electric_scooter", "fusion_lat": 0.0, "rental_uris": {"android": "https://dc.lft.to/lastmile_qr_scan", "ios": "https://dc.lft.to/lastmile_qr_scan"}}, {"bike_id": "6d534caad5d2d6367f5f78b43cb252b3", "fusion_lon": 0.0, "name": "6d534caad5d2d6367f5f78b43cb252b3", "lat": 38.89599183333333, "is_disabled": 0, "is_reserved": 0, "lon": -77.02634866666666, "type": "electric_scooter", "fusion_lat": 0.0, "rental_uris": {"android": "https://dc.lft.to/lastmile_qr_scan", "ios": "https://dc.lft.to/lastmile_qr_scan"}}, {"bike_id": "ff9b4bd3841e5fec4d65462c588e2278", "fusion_lon": 0.0, "name": "ff9b4bd3841e5fec4d65462c588e2278", "lat": 38.898521, "is_disabled": 0, "is_reserved": 0, "lon": -77.02868466666666, "type": "electric_scooter", "fusion_lat": 0.0, "rental_uris": {"android": "https://dc.lft.to/lastmile_qr_scan", "ios": "https://dc.lft.to/lastmile_qr_scan"}}, {"bike_id": "c7941689bde69fd732277c72756488a3", "fusion_lon": 0.0, "name": "c7941689bde69fd732277c72756488a3", "lat": 38.93195566666667, "is_disabled": 0, "is_reserved": 0, "lon": -77.03855716666666, "type": "electric_scooter", "fusion_lat": 0.0, "rental_uris": {"android": "https://dc.lft.to/lastmile_qr_scan", "ios": "https://dc.lft.to/lastmile_qr_scan"}}, {"bike_id": "d53fae0cbbc0bf9eaba8ab9bc807c3fc", "fusion_lon": 0.0, "name": "d53fae0cbbc0bf9eaba8ab9bc807c3fc", "lat": 38.899177, "is_disabled": 0, "is_reserved": 0, "lon": -76.98536916666667, "type": "electric_scooter", "fusion_lat": 0.0, "rental_uris": {"android": "https://dc.lft.to/lastmile_qr_scan", "ios": "https://dc.lft.to/lastmile_qr_scan"}}, {"bike_id": "66686f93f2cc3558f619397bd47293ff", "fusion_lon": 0.0, "name": "66686f93f2cc3558f619397bd47293ff", "lat": 38.90796433333333, "is_disabled": 0, "is_reserved": 0, "lon": -77.0427055, "type": "electric_scooter", "fusion_lat": 0.0, "rental_uris": {"android": "https://dc.lft.to/lastmile_qr_scan", "ios": "https://dc.lft.to/lastmile_qr_scan"}}, {"bike_id": "6cc7dcdec27dbcab4022e7f181079a57", "fusion_lon": 0.0, "name": "6cc7dcdec27dbcab4022e7f181079a57", "lat": 38.855819833333335, "is_disabled": 0, "is_reserved": 0, "lon": -76.9665905, "type": "electric_scooter", "fusion_lat": 0.0, "rental_uris": {"android": "https://dc.lft.to/lastmile_qr_scan", "ios": "https://dc.lft.to/lastmile_qr_scan"}}, {"bike_id": "cb6e313a8a4900156cdc14b09377c609", "fusion_lon": 0.0, "name": "cb6e313a8a4900156cdc14b09377c609", "lat": 38.92493566666667, "is_disabled": 0, "is_reserved": 0, "lon": -77.05111716666667, "type": "electric_scooter", "fusion_lat": 0.0, "rental_uris": {"android": "https://dc.lft.to/lastmile_qr_scan", "ios": "https://dc.lft.to/lastmile_qr_scan"}}, {"bike_id": "57de89075576323447bf663a2c895d8e", "fusion_lon": 0.0, "name": "57de89075576323447bf663a2c895d8e", "lat": 38.899002333333335, "is_disabled": 0, "is_reserved": 0, "lon": -77.03941733333333, "type": "electric_scooter", "fusion_lat": 0.0, "rental_uris": {"android": "https://dc.lft.to/lastmile_qr_scan", "ios": "https://dc.lft.to/lastmile_qr_scan"}}, {"bike_id": "1dfba8ccdcca20c2dc94da6b1462989b", "fusion_lon": 0.0, "name": "1dfba8ccdcca20c2dc94da6b1462989b", "lat": 38.9181905, "is_disabled": 0, "is_reserved": 0, "lon": -77.0416675, "type": "electric_scooter", "fusion_lat": 0.0, "rental_uris": {"android": "https://dc.lft.to/lastmile_qr_scan", "ios": "https://dc.lft.to/lastmile_qr_scan"}}, {"bike_id": "c3a140d9e7f7a1b462849d19c47c5c5d", "fusion_lon": 0.0, "name": "c3a140d9e7f7a1b462849d19c47c5c5d", "lat": 38.91223383333333, "is_disabled": 0, "is_reserved": 0, "lon": -77.07696383333334, "type": "electric_scooter", "fusion_lat": 0.0, "rental_uris": {"android": "https://dc.lft.to/lastmile_qr_scan", "ios": "https://dc.lft.to/lastmile_qr_scan"}}, {"bike_id": "3c507f38bcc6dce6583a2ba101559c26", "fusion_lon": 0.0, "name": "3c507f38bcc6dce6583a2ba101559c26", "lat": 38.93253983333334, "is_disabled": 0, "is_reserved": 0, "lon": -77.03108266666666, "type": "electric_scooter", "fusion_lat": 0.0, "rental_uris": {"android": "https://dc.lft.to/lastmile_qr_scan", "ios": "https://dc.lft.to/lastmile_qr_scan"}}, {"bike_id": "8294e6bc9ed14a40264605f59cc2892a", "fusion_lon": 0.0, "name": "8294e6bc9ed14a40264605f59cc2892a", "lat": 38.924584, "is_disabled": 0, "is_reserved": 0, "lon": -77.02135616666666, "type": "electric_scooter", "fusion_lat": 0.0, "rental_uris": {"android": "https://dc.lft.to/lastmile_qr_scan", "ios": "https://dc.lft.to/lastmile_qr_scan"}}, {"bike_id": "7564b70e294db5072e6d5463a382ac44", "fusion_lon": 0.0, "name": "7564b70e294db5072e6d5463a382ac44", "lat": 38.90446433333334, "is_disabled": 0, "is_reserved": 0, "lon": -76.97424683333334, "type": "electric_scooter", "fusion_lat": 0.0, "rental_uris": {"android": "https://dc.lft.to/lastmile_qr_scan", "ios": "https://dc.lft.to/lastmile_qr_scan"}}, {"bike_id": "57ddfc82a3bdb321cadac3fa5deb3c6d", "fusion_lon": 0.0, "name": "57ddfc82a3bdb321cadac3fa5deb3c6d", "lat": 38.89605933333333, "is_disabled": 0, "is_reserved": 0, "lon": -76.99280516666667, "type": "electric_scooter", "fusion_lat": 0.0, "rental_uris": {"android": "https://dc.lft.to/lastmile_qr_scan", "ios": "https://dc.lft.to/lastmile_qr_scan"}}, {"bike_id": "7e7563c3a15cb660ed9c0f2fea852e73", "fusion_lon": 0.0, "name": "7e7563c3a15cb660ed9c0f2fea852e73", "lat": 38.9036855, "is_disabled": 0, "is_reserved": 0, "lon": -77.04658916666666, "type": "electric_scooter", "fusion_lat": 0.0, "rental_uris": {"android": "https://dc.lft.to/lastmile_qr_scan", "ios": "https://dc.lft.to/lastmile_qr_scan"}}, {"bike_id": "ba7abc7ccc9ffc67a71a70930033b313", "fusion_lon": 0.0, "name": "ba7abc7ccc9ffc67a71a70930033b313", "lat": 38.919780333333335, "is_disabled": 0, "is_reserved": 0, "lon": -77.02377333333334, "type": "electric_scooter", "fusion_lat": 0.0, "rental_uris": {"android": "https://dc.lft.to/lastmile_qr_scan", "ios": "https://dc.lft.to/lastmile_qr_scan"}}, {"bike_id": "1fc7f7c5b9059554c5d60a207c5d2500", "fusion_lon": 0.0, "name": "1fc7f7c5b9059554c5d60a207c5d2500", "lat": 38.90148033333333, "is_disabled": 0, "is_reserved": 0, "lon": -77.00914816666666, "type": "electric_scooter", "fusion_lat": 0.0, "rental_uris": {"android": "https://dc.lft.to/lastmile_qr_scan", "ios": "https://dc.lft.to/lastmile_qr_scan"}}, {"bike_id": "d1d65291e7a4611db37262bcc780da3e", "fusion_lon": 0.0, "name": "d1d65291e7a4611db37262bcc780da3e", "lat": 38.928579666666664, "is_disabled": 0, "is_reserved": 0, "lon": -77.03290333333334, "type": "electric_scooter", "fusion_lat": 0.0, "rental_uris": {"android": "https://dc.lft.to/lastmile_qr_scan", "ios": "https://dc.lft.to/lastmile_qr_scan"}}, {"bike_id": "ba963001a431f5ffd79173efa8af9aba", "fusion_lon": 0.0, "name": "ba963001a431f5ffd79173efa8af9aba", "lat": 38.9083395, "is_disabled": 0, "is_reserved": 0, "lon": -76.99188733333334, "type": "electric_scooter", "fusion_lat": 0.0, "rental_uris": {"android": "https://dc.lft.to/lastmile_qr_scan", "ios": "https://dc.lft.to/lastmile_qr_scan"}}, {"bike_id": "f53176d3b4cc9e04e4dcae71d000a0d1", "fusion_lon": 0.0, "name": "f53176d3b4cc9e04e4dcae71d000a0d1", "lat": 38.904150666666666, "is_disabled": 0, "is_reserved": 0, "lon": -76.99285983333333, "type": "electric_scooter", "fusion_lat": 0.0, "rental_uris": {"android": "https://dc.lft.to/lastmile_qr_scan", "ios": "https://dc.lft.to/lastmile_qr_scan"}}, {"bike_id": "9b05d99193751c6e0d927ac2b112371b", "fusion_lon": 0.0, "name": "9b05d99193751c6e0d927ac2b112371b", "lat": 38.90831, "is_disabled": 0, "is_reserved": 0, "lon": -76.9997155, "type": "electric_scooter", "fusion_lat": 0.0, "rental_uris": {"android": "https://dc.lft.to/lastmile_qr_scan", "ios": "https://dc.lft.to/lastmile_qr_scan"}}, {"bike_id": "34e20b1d96a97389943a1fe911bde954", "fusion_lon": 0.0, "name": "34e20b1d96a97389943a1fe911bde954", "lat": 38.92610216666667, "is_disabled": 0, "is_reserved": 0, "lon": -77.02162, "type": "electric_scooter", "fusion_lat": 0.0, "rental_uris": {"android": "https://dc.lft.to/lastmile_qr_scan", "ios": "https://dc.lft.to/lastmile_qr_scan"}}, {"bike_id": "4aac2495dd46a29bdb070035928ae20f", "fusion_lon": 0.0, "name": "4aac2495dd46a29bdb070035928ae20f", "lat": 38.93225533333333, "is_disabled": 0, "is_reserved": 0, "lon": -77.0296235, "type": "electric_scooter", "fusion_lat": 0.0, "rental_uris": {"android": "https://dc.lft.to/lastmile_qr_scan", "ios": "https://dc.lft.to/lastmile_qr_scan"}}, {"bike_id": "2062461ebb0250c1a6f4d8ffe36f50fa", "fusion_lon": 0.0, "name": "2062461ebb0250c1a6f4d8ffe36f50fa", "lat": 38.910310333333335, "is_disabled": 0, "is_reserved": 0, "lon": -77.02930816666667, "type": "electric_scooter", "fusion_lat": 0.0, "rental_uris": {"android": "https://dc.lft.to/lastmile_qr_scan", "ios": "https://dc.lft.to/lastmile_qr_scan"}}, {"bike_id": "efb5eb480c681633c7b2373e523f9ad6", "fusion_lon": 0.0, "name": "efb5eb480c681633c7b2373e523f9ad6", "lat": 38.898436833333335, "is_disabled": 0, "is_reserved": 0, "lon": -77.04160416666667, "type": "electric_scooter", "fusion_lat": 0.0, "rental_uris": {"android": "https://dc.lft.to/lastmile_qr_scan", "ios": "https://dc.lft.to/lastmile_qr_scan"}}, {"bike_id": "eecfba3da96b0462bf91c489fdcf51da", "fusion_lon": 0.0, "name": "eecfba3da96b0462bf91c489fdcf51da", "lat": 38.9240755, "is_disabled": 0, "is_reserved": 0, "lon": -77.01941716666667, "type": "electric_scooter", "fusion_lat": 0.0, "rental_uris": {"android": "https://dc.lft.to/lastmile_qr_scan", "ios": "https://dc.lft.to/lastmile_qr_scan"}}, {"bike_id": "3c2b43e75e47018a6483f3d6ee697e5f", "fusion_lon": 0.0, "name": "3c2b43e75e47018a6483f3d6ee697e5f", "lat": 38.92413116666667, "is_disabled": 0, "is_reserved": 0, "lon": -77.04455183333333, "type": "electric_scooter", "fusion_lat": 0.0, "rental_uris": {"android": "https://dc.lft.to/lastmile_qr_scan", "ios": "https://dc.lft.to/lastmile_qr_scan"}}, {"bike_id": "0d5752fc64054cfc0533118e2ba5c22e", "fusion_lon": 0.0, "name": "0d5752fc64054cfc0533118e2ba5c22e", "lat": 38.896129333333334, "is_disabled": 0, "is_reserved": 0, "lon": -76.90742533333334, "type": "electric_bike", "fusion_lat": 0.0, "rental_uris": {"android": "https://dc.lft.to/lastmile_qr_scan", "ios": "https://dc.lft.to/lastmile_qr_scan"}}, {"bike_id": "aea0777ae994cd45f26810a4b13eae0b", "fusion_lon": 0.0, "name": "aea0777ae994cd45f26810a4b13eae0b", "lat": 38.887175166666665, "is_disabled": 0, "is_reserved": 0, "lon": -76.99684883333333, "type": "electric_scooter", "fusion_lat": 0.0, "rental_uris": {"android": "https://dc.lft.to/lastmile_qr_scan", "ios": "https://dc.lft.to/lastmile_qr_scan"}}, {"bike_id": "b2390d186d9e66a5ba92f0cb5ef082af", "fusion_lon": 0.0, "name": "b2390d186d9e66a5ba92f0cb5ef082af", "lat": 38.920499666666664, "is_disabled": 0, "is_reserved": 0, "lon": -77.0418655, "type": "electric_scooter", "fusion_lat": 0.0, "rental_uris": {"android": "https://dc.lft.to/lastmile_qr_scan", "ios": "https://dc.lft.to/lastmile_qr_scan"}}, {"bike_id": "050e63afa588a42315c8308b48b2de0d", "fusion_lon": 0.0, "name": "050e63afa588a42315c8308b48b2de0d", "lat": 38.901911166666665, "is_disabled": 0, "is_reserved": 0, "lon": -77.016297, "type": "electric_scooter", "fusion_lat": 0.0, "rental_uris": {"android": "https://dc.lft.to/lastmile_qr_scan", "ios": "https://dc.lft.to/lastmile_qr_scan"}}, {"bike_id": "0c207d2d108a24b44dce2a0af9a02118", "fusion_lon": 0.0, "name": "0c207d2d108a24b44dce2a0af9a02118", "lat": 38.9051665, "is_disabled": 0, "is_reserved": 0, "lon": -77.04745066666666, "type": "electric_scooter", "fusion_lat": 0.0, "rental_uris": {"android": "https://dc.lft.to/lastmile_qr_scan", "ios": "https://dc.lft.to/lastmile_qr_scan"}}, {"bike_id": "84e03e5fd3b359c1972a4c13e86a3d10", "fusion_lon": 0.0, "name": "84e03e5fd3b359c1972a4c13e86a3d10", "lat": 38.926828666666665, "is_disabled": 0, "is_reserved": 0, "lon": -77.014793, "type": "electric_scooter", "fusion_lat": 0.0, "rental_uris": {"android": "https://dc.lft.to/lastmile_qr_scan", "ios": "https://dc.lft.to/lastmile_qr_scan"}}, {"bike_id": "ebb5e3a877e0b3e0d03d91cc9a932892", "fusion_lon": 0.0, "name": "ebb5e3a877e0b3e0d03d91cc9a932892", "lat": 38.879933666666666, "is_disabled": 0, "is_reserved": 0, "lon": -76.99497733333334, "type": "electric_scooter", "fusion_lat": 0.0, "rental_uris": {"android": "https://dc.lft.to/lastmile_qr_scan", "ios": "https://dc.lft.to/lastmile_qr_scan"}}, {"bike_id": "22e805fca2a72526393a472a6365f781", "fusion_lon": 0.0, "name": "22e805fca2a72526393a472a6365f781", "lat": 38.91817433333333, "is_disabled": 0, "is_reserved": 0, "lon": -77.040264, "type": "electric_scooter", "fusion_lat": 0.0, "rental_uris": {"android": "https://dc.lft.to/lastmile_qr_scan", "ios": "https://dc.lft.to/lastmile_qr_scan"}}, {"bike_id": "ebc667b2205e73db94c9f7639fcc39ca", "fusion_lon": 0.0, "name": "ebc667b2205e73db94c9f7639fcc39ca", "lat": 38.916647833333336, "is_disabled": 0, "is_reserved": 0, "lon": -77.03463566666667, "type": "electric_scooter", "fusion_lat": 0.0, "rental_uris": {"android": "https://dc.lft.to/lastmile_qr_scan", "ios": "https://dc.lft.to/lastmile_qr_scan"}}, {"bike_id": "2a204784fadaa06e3a3b9bd9c6837d3d", "fusion_lon": 0.0, "name": "2a204784fadaa06e3a3b9bd9c6837d3d", "lat": 38.940527333333335, "is_disabled": 0, "is_reserved": 0, "lon": -76.90419666666666, "type": "electric_bike", "fusion_lat": 0.0, "rental_uris": {"android": "https://dc.lft.to/lastmile_qr_scan", "ios": "https://dc.lft.to/lastmile_qr_scan"}}, {"bike_id": "7b3af5a18aada2e8bc795c68dca4efd0", "fusion_lon": 0.0, "name": "7b3af5a18aada2e8bc795c68dca4efd0", "lat": 38.917881333333334, "is_disabled": 0, "is_reserved": 0, "lon": -77.02304566666666, "type": "electric_scooter", "fusion_lat": 0.0, "rental_uris": {"android": "https://dc.lft.to/lastmile_qr_scan", "ios": "https://dc.lft.to/lastmile_qr_scan"}}, {"bike_id": "c8b5cf3626416829538d4a09498052ec", "fusion_lon": 0.0, "name": "c8b5cf3626416829538d4a09498052ec", "lat": 38.9751895, "is_disabled": 0, "is_reserved": 0, "lon": -77.0168605, "type": "electric_bike", "fusion_lat": 0.0, "rental_uris": {"android": "https://dc.lft.to/lastmile_qr_scan", "ios": "https://dc.lft.to/lastmile_qr_scan"}}, {"bike_id": "211a5a82d708faa6e1516b0e716c4948", "fusion_lon": 0.0, "name": "211a5a82d708faa6e1516b0e716c4948", "lat": 38.922838, "is_disabled": 0, "is_reserved": 0, "lon": -77.02965133333333, "type": "electric_scooter", "fusion_lat": 0.0, "rental_uris": {"android": "https://dc.lft.to/lastmile_qr_scan", "ios": "https://dc.lft.to/lastmile_qr_scan"}}, {"bike_id": "c39209d402a97ca3c2656d7bdc637f1c", "fusion_lon": 0.0, "name": "c39209d402a97ca3c2656d7bdc637f1c", "lat": 38.90328183333333, "is_disabled": 0, "is_reserved": 0, "lon": -77.0417475, "type": "electric_scooter", "fusion_lat": 0.0, "rental_uris": {"android": "https://dc.lft.to/lastmile_qr_scan", "ios": "https://dc.lft.to/lastmile_qr_scan"}}, {"bike_id": "b23ed54f57a57863f1f5fce0f19590da", "fusion_lon": 0.0, "name": "b23ed54f57a57863f1f5fce0f19590da", "lat": 38.90230483333333, "is_disabled": 0, "is_reserved": 0, "lon": -77.0404045, "type": "electric_scooter", "fusion_lat": 0.0, "rental_uris": {"android": "https://dc.lft.to/lastmile_qr_scan", "ios": "https://dc.lft.to/lastmile_qr_scan"}}, {"bike_id": "0d0cc040dd965f6b4468e7dbeb8ac651", "fusion_lon": 0.0, "name": "0d0cc040dd965f6b4468e7dbeb8ac651", "lat": 38.923993333333335, "is_disabled": 0, "is_reserved": 0, "lon": -77.0243355, "type": "electric_scooter", "fusion_lat": 0.0, "rental_uris": {"android": "https://dc.lft.to/lastmile_qr_scan", "ios": "https://dc.lft.to/lastmile_qr_scan"}}, {"bike_id": "dd6eee9a2f0a9a32e9a7de21eb6c4afd", "fusion_lon": 0.0, "name": "dd6eee9a2f0a9a32e9a7de21eb6c4afd", "lat": 38.902816, "is_disabled": 0, "is_reserved": 0, "lon": -77.03939283333334, "type": "electric_scooter", "fusion_lat": 0.0, "rental_uris": {"android": "https://dc.lft.to/lastmile_qr_scan", "ios": "https://dc.lft.to/lastmile_qr_scan"}}, {"bike_id": "add71e7867c4bdbb0c0e3688845d2f97", "fusion_lon": 0.0, "name": "add71e7867c4bdbb0c0e3688845d2f97", "lat": 38.994442166666666, "is_disabled": 0, "is_reserved": 0, "lon": -76.99589866666666, "type": "electric_bike", "fusion_lat": 0.0, "rental_uris": {"android": "https://dc.lft.to/lastmile_qr_scan", "ios": "https://dc.lft.to/lastmile_qr_scan"}}, {"bike_id": "97c94f52318aa0d580a4cefcd40fe150", "fusion_lon": 0.0, "name": "97c94f52318aa0d580a4cefcd40fe150", "lat": 38.905598833333336, "is_disabled": 0, "is_reserved": 0, "lon": -77.00585966666667, "type": "electric_scooter", "fusion_lat": 0.0, "rental_uris": {"android": "https://dc.lft.to/lastmile_qr_scan", "ios": "https://dc.lft.to/lastmile_qr_scan"}}, {"bike_id": "4961f3f46546c8d259c4c9c7cd8a0b74", "fusion_lon": 0.0, "name": "4961f3f46546c8d259c4c9c7cd8a0b74", "lat": 38.8922295, "is_disabled": 0, "is_reserved": 0, "lon": -77.0477265, "type": "electric_scooter", "fusion_lat": 0.0, "rental_uris": {"android": "https://dc.lft.to/lastmile_qr_scan", "ios": "https://dc.lft.to/lastmile_qr_scan"}}, {"bike_id": "30e37b75d25b9f45378928d5f2b775c2", "fusion_lon": 0.0, "name": "30e37b75d25b9f45378928d5f2b775c2", "lat": 38.89942633333333, "is_disabled": 0, "is_reserved": 0, "lon": -77.04174283333333, "type": "electric_scooter", "fusion_lat": 0.0, "rental_uris": {"android": "https://dc.lft.to/lastmile_qr_scan", "ios": "https://dc.lft.to/lastmile_qr_scan"}}, {"bike_id": "955e7b49ebe2632dca28dc45c1c660ed", "fusion_lon": 0.0, "name": "955e7b49ebe2632dca28dc45c1c660ed", "lat": 38.92027216666666, "is_disabled": 0, "is_reserved": 0, "lon": -77.01289466666667, "type": "electric_scooter", "fusion_lat": 0.0, "rental_uris": {"android": "https://dc.lft.to/lastmile_qr_scan", "ios": "https://dc.lft.to/lastmile_qr_scan"}}, {"bike_id": "71a7688c00d46cd7b8b05cfdcec0f6bc", "fusion_lon": 0.0, "name": "71a7688c00d46cd7b8b05cfdcec0f6bc", "lat": 38.923113666666666, "is_disabled": 0, "is_reserved": 0, "lon": -77.04180633333333, "type": "electric_scooter", "fusion_lat": 0.0, "rental_uris": {"android": "https://dc.lft.to/lastmile_qr_scan", "ios": "https://dc.lft.to/lastmile_qr_scan"}}, {"bike_id": "d4bd9db37f83a0d18195a7f2019ba4ff", "fusion_lon": 0.0, "name": "d4bd9db37f83a0d18195a7f2019ba4ff", "lat": 38.87134416666667, "is_disabled": 0, "is_reserved": 0, "lon": -77.1003135, "type": "electric_bike", "fusion_lat": 0.0, "rental_uris": {"android": "https://dc.lft.to/lastmile_qr_scan", "ios": "https://dc.lft.to/lastmile_qr_scan"}}, {"bike_id": "194151ad88c15a3c0a2f39eb34453c8e", "fusion_lon": 0.0, "name": "194151ad88c15a3c0a2f39eb34453c8e", "lat": 38.882558333333336, "is_disabled": 0, "is_reserved": 0, "lon": -76.99491366666666, "type": "electric_scooter", "fusion_lat": 0.0, "rental_uris": {"android": "https://dc.lft.to/lastmile_qr_scan", "ios": "https://dc.lft.to/lastmile_qr_scan"}}, {"bike_id": "538f65a45e3b23958f5bcd70da4bec02", "fusion_lon": 0.0, "name": "538f65a45e3b23958f5bcd70da4bec02", "lat": 38.865542833333336, "is_disabled": 0, "is_reserved": 0, "lon": -76.98354016666667, "type": "electric_scooter", "fusion_lat": 0.0, "rental_uris": {"android": "https://dc.lft.to/lastmile_qr_scan", "ios": "https://dc.lft.to/lastmile_qr_scan"}}, {"bike_id": "5e84204f70d1d84aec0b63196b6a8b10", "fusion_lon": 0.0, "name": "5e84204f70d1d84aec0b63196b6a8b10", "lat": 38.90735866666667, "is_disabled": 0, "is_reserved": 0, "lon": -77.04341633333334, "type": "electric_scooter", "fusion_lat": 0.0, "rental_uris": {"android": "https://dc.lft.to/lastmile_qr_scan", "ios": "https://dc.lft.to/lastmile_qr_scan"}}, {"bike_id": "83462f5f9be6b9039d5234731fcc22ac", "fusion_lon": 0.0, "name": "83462f5f9be6b9039d5234731fcc22ac", "lat": 38.877177, "is_disabled": 0, "is_reserved": 0, "lon": -77.0072145, "type": "electric_scooter", "fusion_lat": 0.0, "rental_uris": {"android": "https://dc.lft.to/lastmile_qr_scan", "ios": "https://dc.lft.to/lastmile_qr_scan"}}, {"bike_id": "5979af63fd06a11adb195e560c4ec74f", "fusion_lon": 0.0, "name": "5979af63fd06a11adb195e560c4ec74f", "lat": 38.89603816666666, "is_disabled": 0, "is_reserved": 0, "lon": -77.05438666666667, "type": "electric_scooter", "fusion_lat": 0.0, "rental_uris": {"android": "https://dc.lft.to/lastmile_qr_scan", "ios": "https://dc.lft.to/lastmile_qr_scan"}}, {"bike_id": "e86a615f1eb5ddd10dfd48d0f8e08fd9", "fusion_lon": 0.0, "name": "e86a615f1eb5ddd10dfd48d0f8e08fd9", "lat": 38.892221, "is_disabled": 0, "is_reserved": 0, "lon": -77.03374716666667, "type": "electric_scooter", "fusion_lat": 0.0, "rental_uris": {"android": "https://dc.lft.to/lastmile_qr_scan", "ios": "https://dc.lft.to/lastmile_qr_scan"}}, {"bike_id": "6c194839dcd832c0826efbecafeec231", "fusion_lon": 0.0, "name": "6c194839dcd832c0826efbecafeec231", "lat": 38.907215666666666, "is_disabled": 0, "is_reserved": 0, "lon": -77.034416, "type": "electric_scooter", "fusion_lat": 0.0, "rental_uris": {"android": "https://dc.lft.to/lastmile_qr_scan", "ios": "https://dc.lft.to/lastmile_qr_scan"}}, {"bike_id": "6c5582824c4cf448d4e540c1610938b0", "fusion_lon": 0.0, "name": "6c5582824c4cf448d4e540c1610938b0", "lat": 38.903684, "is_disabled": 0, "is_reserved": 0, "lon": -77.03204683333334, "type": "electric_scooter", "fusion_lat": 0.0, "rental_uris": {"android": "https://dc.lft.to/lastmile_qr_scan", "ios": "https://dc.lft.to/lastmile_qr_scan"}}, {"bike_id": "e8c7c28a6d8cf4d04c05d38dc9b16d07", "fusion_lon": 0.0, "name": "e8c7c28a6d8cf4d04c05d38dc9b16d07", "lat": 38.9056925, "is_disabled": 0, "is_reserved": 0, "lon": -77.02415166666667, "type": "electric_scooter", "fusion_lat": 0.0, "rental_uris": {"android": "https://dc.lft.to/lastmile_qr_scan", "ios": "https://dc.lft.to/lastmile_qr_scan"}}, {"bike_id": "3fd4b00fa490da523cff121fc784a877", "fusion_lon": 0.0, "name": "3fd4b00fa490da523cff121fc784a877", "lat": 38.912467, "is_disabled": 0, "is_reserved": 0, "lon": -77.0320385, "type": "electric_scooter", "fusion_lat": 0.0, "rental_uris": {"android": "https://dc.lft.to/lastmile_qr_scan", "ios": "https://dc.lft.to/lastmile_qr_scan"}}, {"bike_id": "e833fb0dad80fd4a013f487379fe8857", "fusion_lon": 0.0, "name": "e833fb0dad80fd4a013f487379fe8857", "lat": 38.88686033333333, "is_disabled": 0, "is_reserved": 0, "lon": -76.9764105, "type": "electric_scooter", "fusion_lat": 0.0, "rental_uris": {"android": "https://dc.lft.to/lastmile_qr_scan", "ios": "https://dc.lft.to/lastmile_qr_scan"}}, {"bike_id": "c2fa8b5e49217de52189bba66be8f7e1", "fusion_lon": 0.0, "name": "c2fa8b5e49217de52189bba66be8f7e1", "lat": 38.92470633333333, "is_disabled": 0, "is_reserved": 0, "lon": -77.0220445, "type": "electric_scooter", "fusion_lat": 0.0, "rental_uris": {"android": "https://dc.lft.to/lastmile_qr_scan", "ios": "https://dc.lft.to/lastmile_qr_scan"}}, {"bike_id": "31e0eb580dbfae8c551227d38a9283dd", "fusion_lon": 0.0, "name": "31e0eb580dbfae8c551227d38a9283dd", "lat": 38.857644666666666, "is_disabled": 0, "is_reserved": 0, "lon": -76.987678, "type": "electric_bike", "fusion_lat": 0.0, "rental_uris": {"android": "https://dc.lft.to/lastmile_qr_scan", "ios": "https://dc.lft.to/lastmile_qr_scan"}}, {"bike_id": "c42d57567641577a1b08695b783339c3", "fusion_lon": 0.0, "name": "c42d57567641577a1b08695b783339c3", "lat": 38.91240833333333, "is_disabled": 0, "is_reserved": 0, "lon": -77.048674, "type": "electric_scooter", "fusion_lat": 0.0, "rental_uris": {"android": "https://dc.lft.to/lastmile_qr_scan", "ios": "https://dc.lft.to/lastmile_qr_scan"}}, {"bike_id": "c4a1f140ceed6043c2b2b769b0e26a1a", "fusion_lon": 0.0, "name": "c4a1f140ceed6043c2b2b769b0e26a1a", "lat": 38.897257, "is_disabled": 0, "is_reserved": 0, "lon": -77.03964616666667, "type": "electric_scooter", "fusion_lat": 0.0, "rental_uris": {"android": "https://dc.lft.to/lastmile_qr_scan", "ios": "https://dc.lft.to/lastmile_qr_scan"}}, {"bike_id": "d02d76abbfdef003518ff411f97ca6e7", "fusion_lon": 0.0, "name": "d02d76abbfdef003518ff411f97ca6e7", "lat": 38.926727666666665, "is_disabled": 0, "is_reserved": 0, "lon": -77.0151055, "type": "electric_scooter", "fusion_lat": 0.0, "rental_uris": {"android": "https://dc.lft.to/lastmile_qr_scan", "ios": "https://dc.lft.to/lastmile_qr_scan"}}, {"bike_id": "28e8e00f98a89fb3fed3d8775bce3b66", "fusion_lon": 0.0, "name": "28e8e00f98a89fb3fed3d8775bce3b66", "lat": 38.90499, "is_disabled": 0, "is_reserved": 0, "lon": -77.02610933333334, "type": "electric_scooter", "fusion_lat": 0.0, "rental_uris": {"android": "https://dc.lft.to/lastmile_qr_scan", "ios": "https://dc.lft.to/lastmile_qr_scan"}}, {"bike_id": "df7f366c05b61f035def2ebf8a1d8977", "fusion_lon": 0.0, "name": "df7f366c05b61f035def2ebf8a1d8977", "lat": 38.9111855, "is_disabled": 0, "is_reserved": 0, "lon": -77.04238466666666, "type": "electric_scooter", "fusion_lat": 0.0, "rental_uris": {"android": "https://dc.lft.to/lastmile_qr_scan", "ios": "https://dc.lft.to/lastmile_qr_scan"}}, {"bike_id": "82bb1da532bfde137231286c8bb5e13a", "fusion_lon": 0.0, "name": "82bb1da532bfde137231286c8bb5e13a", "lat": 38.86198983333333, "is_disabled": 0, "is_reserved": 0, "lon": -77.059842, "type": "electric_bike", "fusion_lat": 0.0, "rental_uris": {"android": "https://dc.lft.to/lastmile_qr_scan", "ios": "https://dc.lft.to/lastmile_qr_scan"}}, {"bike_id": "1fb766fd09920461d2ac330455a45a36", "fusion_lon": 0.0, "name": "1fb766fd09920461d2ac330455a45a36", "lat": 38.919823, "is_disabled": 0, "is_reserved": 0, "lon": -77.02382416666667, "type": "electric_scooter", "fusion_lat": 0.0, "rental_uris": {"android": "https://dc.lft.to/lastmile_qr_scan", "ios": "https://dc.lft.to/lastmile_qr_scan"}}, {"bike_id": "79195c4e16f697cb18ac169b541a101a", "fusion_lon": 0.0, "name": "79195c4e16f697cb18ac169b541a101a", "lat": 38.8579115, "is_disabled": 0, "is_reserved": 0, "lon": -76.98911533333333, "type": "electric_scooter", "fusion_lat": 0.0, "rental_uris": {"android": "https://dc.lft.to/lastmile_qr_scan", "ios": "https://dc.lft.to/lastmile_qr_scan"}}, {"bike_id": "1e6b2e46ea3abd48c54bc06a5f605f55", "fusion_lon": 0.0, "name": "1e6b2e46ea3abd48c54bc06a5f605f55", "lat": 38.917112, "is_disabled": 0, "is_reserved": 0, "lon": -77.03144533333334, "type": "electric_scooter", "fusion_lat": 0.0, "rental_uris": {"android": "https://dc.lft.to/lastmile_qr_scan", "ios": "https://dc.lft.to/lastmile_qr_scan"}}, {"bike_id": "dacc9de797889acf35401d2462116634", "fusion_lon": 0.0, "name": "dacc9de797889acf35401d2462116634", "lat": 38.928757833333336, "is_disabled": 0, "is_reserved": 0, "lon": -77.01362366666666, "type": "electric_scooter", "fusion_lat": 0.0, "rental_uris": {"android": "https://dc.lft.to/lastmile_qr_scan", "ios": "https://dc.lft.to/lastmile_qr_scan"}}, {"bike_id": "e52703fb2f2d6c77315556b0807d1db5", "fusion_lon": 0.0, "name": "e52703fb2f2d6c77315556b0807d1db5", "lat": 38.879813, "is_disabled": 0, "is_reserved": 0, "lon": -77.02404133333333, "type": "electric_scooter", "fusion_lat": 0.0, "rental_uris": {"android": "https://dc.lft.to/lastmile_qr_scan", "ios": "https://dc.lft.to/lastmile_qr_scan"}}, {"bike_id": "2d8596463fd1a4ce13ae1288c5c0ea91", "fusion_lon": 0.0, "name": "2d8596463fd1a4ce13ae1288c5c0ea91", "lat": 38.857684666666664, "is_disabled": 0, "is_reserved": 0, "lon": -76.98753766666667, "type": "electric_bike", "fusion_lat": 0.0, "rental_uris": {"android": "https://dc.lft.to/lastmile_qr_scan", "ios": "https://dc.lft.to/lastmile_qr_scan"}}, {"bike_id": "fed1857643d6423bb59735ee45714390", "fusion_lon": 0.0, "name": "fed1857643d6423bb59735ee45714390", "lat": 38.939493, "is_disabled": 0, "is_reserved": 0, "lon": -77.085902, "type": "electric_scooter", "fusion_lat": 0.0, "rental_uris": {"android": "https://dc.lft.to/lastmile_qr_scan", "ios": "https://dc.lft.to/lastmile_qr_scan"}}, {"bike_id": "0eb2e8990e4a526a2dc6ff32a554aa7a", "fusion_lon": 0.0, "name": "0eb2e8990e4a526a2dc6ff32a554aa7a", "lat": 38.902808666666665, "is_disabled": 0, "is_reserved": 0, "lon": -77.03343666666666, "type": "electric_scooter", "fusion_lat": 0.0, "rental_uris": {"android": "https://dc.lft.to/lastmile_qr_scan", "ios": "https://dc.lft.to/lastmile_qr_scan"}}, {"bike_id": "1cf2e56c1c8f254d57d3efd61fed1b3f", "fusion_lon": 0.0, "name": "1cf2e56c1c8f254d57d3efd61fed1b3f", "lat": 38.905022333333335, "is_disabled": 0, "is_reserved": 0, "lon": -77.001064, "type": "electric_scooter", "fusion_lat": 0.0, "rental_uris": {"android": "https://dc.lft.to/lastmile_qr_scan", "ios": "https://dc.lft.to/lastmile_qr_scan"}}, {"bike_id": "d7dc1056194271859763128aa456a655", "fusion_lon": 0.0, "name": "d7dc1056194271859763128aa456a655", "lat": 38.915849, "is_disabled": 0, "is_reserved": 0, "lon": -77.04616, "type": "electric_scooter", "fusion_lat": 0.0, "rental_uris": {"android": "https://dc.lft.to/lastmile_qr_scan", "ios": "https://dc.lft.to/lastmile_qr_scan"}}, {"bike_id": "332d5aa3ac69a2cfa9305f83fa31c6e2", "fusion_lon": 0.0, "name": "332d5aa3ac69a2cfa9305f83fa31c6e2", "lat": 38.94430833333333, "is_disabled": 0, "is_reserved": 0, "lon": -77.02606133333333, "type": "electric_bike", "fusion_lat": 0.0, "rental_uris": {"android": "https://dc.lft.to/lastmile_qr_scan", "ios": "https://dc.lft.to/lastmile_qr_scan"}}, {"bike_id": "4b7f24232469d3596a374673c0124456", "fusion_lon": 0.0, "name": "4b7f24232469d3596a374673c0124456", "lat": 38.8872985, "is_disabled": 0, "is_reserved": 0, "lon": -77.028304, "type": "electric_scooter", "fusion_lat": 0.0, "rental_uris": {"android": "https://dc.lft.to/lastmile_qr_scan", "ios": "https://dc.lft.to/lastmile_qr_scan"}}, {"bike_id": "d9d2bf106c7f2bc59ee895bdf9a2422c", "fusion_lon": 0.0, "name": "d9d2bf106c7f2bc59ee895bdf9a2422c", "lat": 38.910692, "is_disabled": 0, "is_reserved": 0, "lon": -77.030288, "type": "electric_scooter", "fusion_lat": 0.0, "rental_uris": {"android": "https://dc.lft.to/lastmile_qr_scan", "ios": "https://dc.lft.to/lastmile_qr_scan"}}, {"bike_id": "311653bda9985bcca46e7ef0b71abf5c", "fusion_lon": 0.0, "name": "311653bda9985bcca46e7ef0b71abf5c", "lat": 38.935873666666666, "is_disabled": 0, "is_reserved": 0, "lon": -77.02857633333333, "type": "electric_scooter", "fusion_lat": 0.0, "rental_uris": {"android": "https://dc.lft.to/lastmile_qr_scan", "ios": "https://dc.lft.to/lastmile_qr_scan"}}, {"bike_id": "537978e90fbe45638b052be4f28483f6", "fusion_lon": 0.0, "name": "537978e90fbe45638b052be4f28483f6", "lat": 38.927178166666664, "is_disabled": 0, "is_reserved": 0, "lon": -77.02076433333333, "type": "electric_scooter", "fusion_lat": 0.0, "rental_uris": {"android": "https://dc.lft.to/lastmile_qr_scan", "ios": "https://dc.lft.to/lastmile_qr_scan"}}, {"bike_id": "3bf2259e94a032d6cb7ce16ecb783b76", "fusion_lon": 0.0, "name": "3bf2259e94a032d6cb7ce16ecb783b76", "lat": 38.79852316666667, "is_disabled": 0, "is_reserved": 0, "lon": -77.06305666666667, "type": "electric_bike", "fusion_lat": 0.0, "rental_uris": {"android": "https://dc.lft.to/lastmile_qr_scan", "ios": "https://dc.lft.to/lastmile_qr_scan"}}, {"bike_id": "fae4cd8145141f782bdd2bd6926a4506", "fusion_lon": 0.0, "name": "fae4cd8145141f782bdd2bd6926a4506", "lat": 38.89528933333333, "is_disabled": 0, "is_reserved": 0, "lon": -76.948906, "type": "electric_scooter", "fusion_lat": 0.0, "rental_uris": {"android": "https://dc.lft.to/lastmile_qr_scan", "ios": "https://dc.lft.to/lastmile_qr_scan"}}, {"bike_id": "f11c5933abc8be92922cc7563febf7d4", "fusion_lon": 0.0, "name": "f11c5933abc8be92922cc7563febf7d4", "lat": 38.92221416666667, "is_disabled": 0, "is_reserved": 0, "lon": -77.0424205, "type": "electric_scooter", "fusion_lat": 0.0, "rental_uris": {"android": "https://dc.lft.to/lastmile_qr_scan", "ios": "https://dc.lft.to/lastmile_qr_scan"}}, {"bike_id": "204e1d8b6ae7c7c9b26c4d06f74ddd97", "fusion_lon": 0.0, "name": "204e1d8b6ae7c7c9b26c4d06f74ddd97", "lat": 38.901244166666665, "is_disabled": 0, "is_reserved": 0, "lon": -77.0444945, "type": "electric_scooter", "fusion_lat": 0.0, "rental_uris": {"android": "https://dc.lft.to/lastmile_qr_scan", "ios": "https://dc.lft.to/lastmile_qr_scan"}}, {"bike_id": "c1ea89b9148e4aae458b0b5bf93c12e0", "fusion_lon": 0.0, "name": "c1ea89b9148e4aae458b0b5bf93c12e0", "lat": 38.94749933333333, "is_disabled": 0, "is_reserved": 0, "lon": -77.00717266666666, "type": "electric_scooter", "fusion_lat": 0.0, "rental_uris": {"android": "https://dc.lft.to/lastmile_qr_scan", "ios": "https://dc.lft.to/lastmile_qr_scan"}}, {"bike_id": "6bf2a66058c783183babe59b9d6bcde1", "fusion_lon": 0.0, "name": "6bf2a66058c783183babe59b9d6bcde1", "lat": 38.91703, "is_disabled": 0, "is_reserved": 0, "lon": -77.03172633333334, "type": "electric_scooter", "fusion_lat": 0.0, "rental_uris": {"android": "https://dc.lft.to/lastmile_qr_scan", "ios": "https://dc.lft.to/lastmile_qr_scan"}}, {"bike_id": "d9a7721a0f0019748ca85847dc282a46", "fusion_lon": 0.0, "name": "d9a7721a0f0019748ca85847dc282a46", "lat": 38.901301333333336, "is_disabled": 0, "is_reserved": 0, "lon": -77.0288045, "type": "electric_scooter", "fusion_lat": 0.0, "rental_uris": {"android": "https://dc.lft.to/lastmile_qr_scan", "ios": "https://dc.lft.to/lastmile_qr_scan"}}, {"bike_id": "cf3b5e0860b4bbd2a77e419a359f6bd5", "fusion_lon": 0.0, "name": "cf3b5e0860b4bbd2a77e419a359f6bd5", "lat": 38.9026385, "is_disabled": 0, "is_reserved": 0, "lon": -77.039685, "type": "electric_scooter", "fusion_lat": 0.0, "rental_uris": {"android": "https://dc.lft.to/lastmile_qr_scan", "ios": "https://dc.lft.to/lastmile_qr_scan"}}, {"bike_id": "b37b6da9e163ee940d0fc981bd96344d", "fusion_lon": 0.0, "name": "b37b6da9e163ee940d0fc981bd96344d", "lat": 38.92514933333333, "is_disabled": 0, "is_reserved": 0, "lon": -77.02287166666666, "type": "electric_scooter", "fusion_lat": 0.0, "rental_uris": {"android": "https://dc.lft.to/lastmile_qr_scan", "ios": "https://dc.lft.to/lastmile_qr_scan"}}, {"bike_id": "5a477798a529187f4c9214da56840229", "fusion_lon": 0.0, "name": "5a477798a529187f4c9214da56840229", "lat": 38.892340833333336, "is_disabled": 0, "is_reserved": 0, "lon": -77.026074, "type": "electric_scooter", "fusion_lat": 0.0, "rental_uris": {"android": "https://dc.lft.to/lastmile_qr_scan", "ios": "https://dc.lft.to/lastmile_qr_scan"}}, {"bike_id": "d7f203fff674a3cd9f4986e3226f840b", "fusion_lon": 0.0, "name": "d7f203fff674a3cd9f4986e3226f840b", "lat": 38.95221816666667, "is_disabled": 0, "is_reserved": 0, "lon": -77.0821925, "type": "electric_scooter", "fusion_lat": 0.0, "rental_uris": {"android": "https://dc.lft.to/lastmile_qr_scan", "ios": "https://dc.lft.to/lastmile_qr_scan"}}, {"bike_id": "67d7a3f24069909f75cb3e4d8c1203ce", "fusion_lon": 0.0, "name": "67d7a3f24069909f75cb3e4d8c1203ce", "lat": 38.9097105, "is_disabled": 0, "is_reserved": 0, "lon": -77.03382633333334, "type": "electric_scooter", "fusion_lat": 0.0, "rental_uris": {"android": "https://dc.lft.to/lastmile_qr_scan", "ios": "https://dc.lft.to/lastmile_qr_scan"}}, {"bike_id": "ff0a2c650d0e45674a79b9b250b7c82c", "fusion_lon": 0.0, "name": "ff0a2c650d0e45674a79b9b250b7c82c", "lat": 38.8953005, "is_disabled": 0, "is_reserved": 0, "lon": -76.94893666666667, "type": "electric_scooter", "fusion_lat": 0.0, "rental_uris": {"android": "https://dc.lft.to/lastmile_qr_scan", "ios": "https://dc.lft.to/lastmile_qr_scan"}}, {"bike_id": "e1a2848af44e8583be2052881103b32e", "fusion_lon": 0.0, "name": "e1a2848af44e8583be2052881103b32e", "lat": 38.88422883333333, "is_disabled": 0, "is_reserved": 0, "lon": -76.95758766666667, "type": "electric_scooter", "fusion_lat": 0.0, "rental_uris": {"android": "https://dc.lft.to/lastmile_qr_scan", "ios": "https://dc.lft.to/lastmile_qr_scan"}}, {"bike_id": "75ddc3ff8030cfd78a2e36d236f31508", "fusion_lon": 0.0, "name": "75ddc3ff8030cfd78a2e36d236f31508", "lat": 38.92405266666667, "is_disabled": 0, "is_reserved": 0, "lon": -76.99734716666667, "type": "electric_scooter", "fusion_lat": 0.0, "rental_uris": {"android": "https://dc.lft.to/lastmile_qr_scan", "ios": "https://dc.lft.to/lastmile_qr_scan"}}, {"bike_id": "31e76b2a10cba4282b869a92ec4898ba", "fusion_lon": 0.0, "name": "31e76b2a10cba4282b869a92ec4898ba", "lat": 38.92060216666667, "is_disabled": 0, "is_reserved": 0, "lon": -77.0422475, "type": "electric_scooter", "fusion_lat": 0.0, "rental_uris": {"android": "https://dc.lft.to/lastmile_qr_scan", "ios": "https://dc.lft.to/lastmile_qr_scan"}}, {"bike_id": "f97f8e85e0d170f8105e2e2467004179", "fusion_lon": 0.0, "name": "f97f8e85e0d170f8105e2e2467004179", "lat": 38.917014333333334, "is_disabled": 0, "is_reserved": 0, "lon": -77.02887816666667, "type": "electric_scooter", "fusion_lat": 0.0, "rental_uris": {"android": "https://dc.lft.to/lastmile_qr_scan", "ios": "https://dc.lft.to/lastmile_qr_scan"}}, {"bike_id": "d3d42a7be82edb075f89d8122d01de42", "fusion_lon": 0.0, "name": "d3d42a7be82edb075f89d8122d01de42", "lat": 38.89840783333333, "is_disabled": 0, "is_reserved": 0, "lon": -77.01334566666667, "type": "electric_scooter", "fusion_lat": 0.0, "rental_uris": {"android": "https://dc.lft.to/lastmile_qr_scan", "ios": "https://dc.lft.to/lastmile_qr_scan"}}, {"bike_id": "dc7758244d6ef36b553264c4e6603a16", "fusion_lon": 0.0, "name": "dc7758244d6ef36b553264c4e6603a16", "lat": 38.902556833333335, "is_disabled": 0, "is_reserved": 0, "lon": -77.03357733333333, "type": "electric_scooter", "fusion_lat": 0.0, "rental_uris": {"android": "https://dc.lft.to/lastmile_qr_scan", "ios": "https://dc.lft.to/lastmile_qr_scan"}}, {"bike_id": "88d9d58311ce18ae097bd5790d8e374b", "fusion_lon": 0.0, "name": "88d9d58311ce18ae097bd5790d8e374b", "lat": 38.927328333333335, "is_disabled": 0, "is_reserved": 0, "lon": -77.02310516666667, "type": "electric_scooter", "fusion_lat": 0.0, "rental_uris": {"android": "https://dc.lft.to/lastmile_qr_scan", "ios": "https://dc.lft.to/lastmile_qr_scan"}}, {"bike_id": "82e648b585c6f73c37367bec4b1326d7", "fusion_lon": 0.0, "name": "82e648b585c6f73c37367bec4b1326d7", "lat": 38.91693516666667, "is_disabled": 0, "is_reserved": 0, "lon": -77.03124616666666, "type": "electric_scooter", "fusion_lat": 0.0, "rental_uris": {"android": "https://dc.lft.to/lastmile_qr_scan", "ios": "https://dc.lft.to/lastmile_qr_scan"}}, {"bike_id": "03d0276fa53f636f746fdb7168464abf", "fusion_lon": 0.0, "name": "03d0276fa53f636f746fdb7168464abf", "lat": 38.89390216666666, "is_disabled": 0, "is_reserved": 0, "lon": -76.92309533333334, "type": "electric_scooter", "fusion_lat": 0.0, "rental_uris": {"android": "https://dc.lft.to/lastmile_qr_scan", "ios": "https://dc.lft.to/lastmile_qr_scan"}}, {"bike_id": "1930eacc622a07365e934ab61dd08de5", "fusion_lon": 0.0, "name": "1930eacc622a07365e934ab61dd08de5", "lat": 38.8844495, "is_disabled": 0, "is_reserved": 0, "lon": -77.02600883333334, "type": "electric_scooter", "fusion_lat": 0.0, "rental_uris": {"android": "https://dc.lft.to/lastmile_qr_scan", "ios": "https://dc.lft.to/lastmile_qr_scan"}}, {"bike_id": "164611cdfd6ba6d1b94fdcc031063157", "fusion_lon": 0.0, "name": "164611cdfd6ba6d1b94fdcc031063157", "lat": 38.936043833333336, "is_disabled": 0, "is_reserved": 0, "lon": -77.05857983333334, "type": "electric_scooter", "fusion_lat": 0.0, "rental_uris": {"android": "https://dc.lft.to/lastmile_qr_scan", "ios": "https://dc.lft.to/lastmile_qr_scan"}}, {"bike_id": "8bdd5eb55567857a6bc1320cc9c8cb51", "fusion_lon": 0.0, "name": "8bdd5eb55567857a6bc1320cc9c8cb51", "lat": 38.861708, "is_disabled": 0, "is_reserved": 0, "lon": -76.96907, "type": "electric_scooter", "fusion_lat": 0.0, "rental_uris": {"android": "https://dc.lft.to/lastmile_qr_scan", "ios": "https://dc.lft.to/lastmile_qr_scan"}}, {"bike_id": "b508f15b6bc5efd4b5be69faeda043fd", "fusion_lon": 0.0, "name": "b508f15b6bc5efd4b5be69faeda043fd", "lat": 38.8986655, "is_disabled": 0, "is_reserved": 0, "lon": -77.02839733333333, "type": "electric_scooter", "fusion_lat": 0.0, "rental_uris": {"android": "https://dc.lft.to/lastmile_qr_scan", "ios": "https://dc.lft.to/lastmile_qr_scan"}}, {"bike_id": "ffd193dd77b998122b81886bbcd68d64", "fusion_lon": 0.0, "name": "ffd193dd77b998122b81886bbcd68d64", "lat": 38.898613833333336, "is_disabled": 0, "is_reserved": 0, "lon": -76.94640716666666, "type": "electric_scooter", "fusion_lat": 0.0, "rental_uris": {"android": "https://dc.lft.to/lastmile_qr_scan", "ios": "https://dc.lft.to/lastmile_qr_scan"}}, {"bike_id": "a7a924f45a7f8b5e67c353b58d73b412", "fusion_lon": 0.0, "name": "a7a924f45a7f8b5e67c353b58d73b412", "lat": 38.907815666666664, "is_disabled": 0, "is_reserved": 0, "lon": -77.0725155, "type": "electric_scooter", "fusion_lat": 0.0, "rental_uris": {"android": "https://dc.lft.to/lastmile_qr_scan", "ios": "https://dc.lft.to/lastmile_qr_scan"}}, {"bike_id": "c8d35af9daa4d5ceeb717cdba088b6ef", "fusion_lon": 0.0, "name": "c8d35af9daa4d5ceeb717cdba088b6ef", "lat": 38.908645166666666, "is_disabled": 0, "is_reserved": 0, "lon": -76.99791916666666, "type": "electric_scooter", "fusion_lat": 0.0, "rental_uris": {"android": "https://dc.lft.to/lastmile_qr_scan", "ios": "https://dc.lft.to/lastmile_qr_scan"}}, {"bike_id": "ff3f33992291563dbf3c6dbc74666b22", "fusion_lon": 0.0, "name": "ff3f33992291563dbf3c6dbc74666b22", "lat": 38.949493, "is_disabled": 0, "is_reserved": 0, "lon": -77.023145, "type": "electric_scooter", "fusion_lat": 0.0, "rental_uris": {"android": "https://dc.lft.to/lastmile_qr_scan", "ios": "https://dc.lft.to/lastmile_qr_scan"}}, {"bike_id": "c7e82c6dbb9f7c623590fb5e8ac2e0c3", "fusion_lon": 0.0, "name": "c7e82c6dbb9f7c623590fb5e8ac2e0c3", "lat": 38.9338105, "is_disabled": 0, "is_reserved": 0, "lon": -77.02682416666667, "type": "electric_scooter", "fusion_lat": 0.0, "rental_uris": {"android": "https://dc.lft.to/lastmile_qr_scan", "ios": "https://dc.lft.to/lastmile_qr_scan"}}, {"bike_id": "106ff406bd5910658913f30437fca7c2", "fusion_lon": 0.0, "name": "106ff406bd5910658913f30437fca7c2", "lat": 39.056351, "is_disabled": 0, "is_reserved": 0, "lon": -77.1252835, "type": "electric_bike", "fusion_lat": 0.0, "rental_uris": {"android": "https://dc.lft.to/lastmile_qr_scan", "ios": "https://dc.lft.to/lastmile_qr_scan"}}, {"bike_id": "588237a56cab8b37bdd02d2ce17918cf", "fusion_lon": 0.0, "name": "588237a56cab8b37bdd02d2ce17918cf", "lat": 38.910561333333334, "is_disabled": 0, "is_reserved": 0, "lon": -77.0529235, "type": "electric_scooter", "fusion_lat": 0.0, "rental_uris": {"android": "https://dc.lft.to/lastmile_qr_scan", "ios": "https://dc.lft.to/lastmile_qr_scan"}}, {"bike_id": "ddf6508c92bbb999847d818ca07b4353", "fusion_lon": 0.0, "name": "ddf6508c92bbb999847d818ca07b4353", "lat": 38.8870365, "is_disabled": 0, "is_reserved": 0, "lon": -77.00244066666667, "type": "electric_scooter", "fusion_lat": 0.0, "rental_uris": {"android": "https://dc.lft.to/lastmile_qr_scan", "ios": "https://dc.lft.to/lastmile_qr_scan"}}, {"bike_id": "ea16eaef6c987336129445077bdf630b", "fusion_lon": 0.0, "name": "ea16eaef6c987336129445077bdf630b", "lat": 38.89826516666667, "is_disabled": 0, "is_reserved": 0, "lon": -76.94633883333333, "type": "electric_scooter", "fusion_lat": 0.0, "rental_uris": {"android": "https://dc.lft.to/lastmile_qr_scan", "ios": "https://dc.lft.to/lastmile_qr_scan"}}, {"bike_id": "a4bdd29f8c7126f90d41e3133e04f1bc", "fusion_lon": 0.0, "name": "a4bdd29f8c7126f90d41e3133e04f1bc", "lat": 38.82175083333333, "is_disabled": 0, "is_reserved": 0, "lon": -76.995162, "type": "electric_bike", "fusion_lat": 0.0, "rental_uris": {"android": "https://dc.lft.to/lastmile_qr_scan", "ios": "https://dc.lft.to/lastmile_qr_scan"}}, {"bike_id": "ff73fb6e6b54fdd68a2086f533768e57", "fusion_lon": 0.0, "name": "ff73fb6e6b54fdd68a2086f533768e57", "lat": 38.9241605, "is_disabled": 0, "is_reserved": 0, "lon": -77.02008816666667, "type": "electric_scooter", "fusion_lat": 0.0, "rental_uris": {"android": "https://dc.lft.to/lastmile_qr_scan", "ios": "https://dc.lft.to/lastmile_qr_scan"}}, {"bike_id": "7994696d91bbcd26abe1fe961d9b87a9", "fusion_lon": 0.0, "name": "7994696d91bbcd26abe1fe961d9b87a9", "lat": 38.91421283333333, "is_disabled": 0, "is_reserved": 0, "lon": -77.069256, "type": "electric_bike", "fusion_lat": 0.0, "rental_uris": {"android": "https://dc.lft.to/lastmile_qr_scan", "ios": "https://dc.lft.to/lastmile_qr_scan"}}, {"bike_id": "4948cc947cdba3568a38d8732bf73701", "fusion_lon": 0.0, "name": "4948cc947cdba3568a38d8732bf73701", "lat": 38.899133666666664, "is_disabled": 0, "is_reserved": 0, "lon": -77.0329805, "type": "electric_scooter", "fusion_lat": 0.0, "rental_uris": {"android": "https://dc.lft.to/lastmile_qr_scan", "ios": "https://dc.lft.to/lastmile_qr_scan"}}, {"bike_id": "8273ee047f1f895333be14b2a9db0b57", "fusion_lon": 0.0, "name": "8273ee047f1f895333be14b2a9db0b57", "lat": 38.907348999999996, "is_disabled": 0, "is_reserved": 0, "lon": -77.04343116666666, "type": "electric_scooter", "fusion_lat": 0.0, "rental_uris": {"android": "https://dc.lft.to/lastmile_qr_scan", "ios": "https://dc.lft.to/lastmile_qr_scan"}}, {"bike_id": "aaade89cc3791d934af37be6a7ef69f7", "fusion_lon": 0.0, "name": "aaade89cc3791d934af37be6a7ef69f7", "lat": 38.852442833333335, "is_disabled": 0, "is_reserved": 0, "lon": -77.10790733333333, "type": "electric_bike", "fusion_lat": 0.0, "rental_uris": {"android": "https://dc.lft.to/lastmile_qr_scan", "ios": "https://dc.lft.to/lastmile_qr_scan"}}, {"bike_id": "a75bc1e59e735d1b9e6247edba0923c6", "fusion_lon": 0.0, "name": "a75bc1e59e735d1b9e6247edba0923c6", "lat": 38.92338683333333, "is_disabled": 0, "is_reserved": 0, "lon": -77.03531533333333, "type": "electric_scooter", "fusion_lat": 0.0, "rental_uris": {"android": "https://dc.lft.to/lastmile_qr_scan", "ios": "https://dc.lft.to/lastmile_qr_scan"}}, {"bike_id": "2c863b4bf03ffb4c45b856c827371c1c", "fusion_lon": 0.0, "name": "2c863b4bf03ffb4c45b856c827371c1c", "lat": 38.804469833333336, "is_disabled": 0, "is_reserved": 0, "lon": -77.05385983333333, "type": "electric_bike", "fusion_lat": 0.0, "rental_uris": {"android": "https://dc.lft.to/lastmile_qr_scan", "ios": "https://dc.lft.to/lastmile_qr_scan"}}, {"bike_id": "e7ee5e8ed77f3c91c0446328d7bfb66b", "fusion_lon": 0.0, "name": "e7ee5e8ed77f3c91c0446328d7bfb66b", "lat": 38.879539666666666, "is_disabled": 0, "is_reserved": 0, "lon": -76.99009883333333, "type": "electric_scooter", "fusion_lat": 0.0, "rental_uris": {"android": "https://dc.lft.to/lastmile_qr_scan", "ios": "https://dc.lft.to/lastmile_qr_scan"}}, {"bike_id": "966914437e01c55afcda44f891330191", "fusion_lon": 0.0, "name": "966914437e01c55afcda44f891330191", "lat": 38.924573, "is_disabled": 0, "is_reserved": 0, "lon": -76.98360683333334, "type": "electric_scooter", "fusion_lat": 0.0, "rental_uris": {"android": "https://dc.lft.to/lastmile_qr_scan", "ios": "https://dc.lft.to/lastmile_qr_scan"}}, {"bike_id": "b9304668ba8deb514426fd86984100b9", "fusion_lon": 0.0, "name": "b9304668ba8deb514426fd86984100b9", "lat": 38.902959333333335, "is_disabled": 0, "is_reserved": 0, "lon": -77.04325583333333, "type": "electric_scooter", "fusion_lat": 0.0, "rental_uris": {"android": "https://dc.lft.to/lastmile_qr_scan", "ios": "https://dc.lft.to/lastmile_qr_scan"}}, {"bike_id": "7e860fffc4709c34f88fe15acdec78bb", "fusion_lon": 0.0, "name": "7e860fffc4709c34f88fe15acdec78bb", "lat": 38.92314533333333, "is_disabled": 0, "is_reserved": 0, "lon": -77.03919216666667, "type": "electric_scooter", "fusion_lat": 0.0, "rental_uris": {"android": "https://dc.lft.to/lastmile_qr_scan", "ios": "https://dc.lft.to/lastmile_qr_scan"}}, {"bike_id": "d422c2769b58ea37e3e6a9392d3e166e", "fusion_lon": 0.0, "name": "d422c2769b58ea37e3e6a9392d3e166e", "lat": 38.8832875, "is_disabled": 0, "is_reserved": 0, "lon": -77.01767983333333, "type": "electric_scooter", "fusion_lat": 0.0, "rental_uris": {"android": "https://dc.lft.to/lastmile_qr_scan", "ios": "https://dc.lft.to/lastmile_qr_scan"}}, {"bike_id": "413e66eb53d96b13107c77f319cc7fcc", "fusion_lon": 0.0, "name": "413e66eb53d96b13107c77f319cc7fcc", "lat": 38.907173666666665, "is_disabled": 0, "is_reserved": 0, "lon": -77.03437966666667, "type": "electric_scooter", "fusion_lat": 0.0, "rental_uris": {"android": "https://dc.lft.to/lastmile_qr_scan", "ios": "https://dc.lft.to/lastmile_qr_scan"}}, {"bike_id": "9f2dbddbe411b075e027ccc76953d642", "fusion_lon": 0.0, "name": "9f2dbddbe411b075e027ccc76953d642", "lat": 38.87678666666667, "is_disabled": 0, "is_reserved": 0, "lon": -77.01791866666667, "type": "electric_scooter", "fusion_lat": 0.0, "rental_uris": {"android": "https://dc.lft.to/lastmile_qr_scan", "ios": "https://dc.lft.to/lastmile_qr_scan"}}, {"bike_id": "eb348d4d3f2fd4f0b86e52c948b0fea4", "fusion_lon": 0.0, "name": "eb348d4d3f2fd4f0b86e52c948b0fea4", "lat": 38.9039345, "is_disabled": 0, "is_reserved": 0, "lon": -77.03824616666667, "type": "electric_scooter", "fusion_lat": 0.0, "rental_uris": {"android": "https://dc.lft.to/lastmile_qr_scan", "ios": "https://dc.lft.to/lastmile_qr_scan"}}, {"bike_id": "376f445f124e26772e414180804bb4a9", "fusion_lon": 0.0, "name": "376f445f124e26772e414180804bb4a9", "lat": 38.92601366666667, "is_disabled": 0, "is_reserved": 0, "lon": -77.0215685, "type": "electric_scooter", "fusion_lat": 0.0, "rental_uris": {"android": "https://dc.lft.to/lastmile_qr_scan", "ios": "https://dc.lft.to/lastmile_qr_scan"}}, {"bike_id": "d33ae311b426e7200767baca6c181875", "fusion_lon": 0.0, "name": "d33ae311b426e7200767baca6c181875", "lat": 38.91680183333333, "is_disabled": 0, "is_reserved": 0, "lon": -77.02971183333334, "type": "electric_scooter", "fusion_lat": 0.0, "rental_uris": {"android": "https://dc.lft.to/lastmile_qr_scan", "ios": "https://dc.lft.to/lastmile_qr_scan"}}, {"bike_id": "24ffd3c5556c5e7bb8e8614c81920d73", "fusion_lon": 0.0, "name": "24ffd3c5556c5e7bb8e8614c81920d73", "lat": 38.96080116666667, "is_disabled": 0, "is_reserved": 0, "lon": -77.02884466666667, "type": "electric_scooter", "fusion_lat": 0.0, "rental_uris": {"android": "https://dc.lft.to/lastmile_qr_scan", "ios": "https://dc.lft.to/lastmile_qr_scan"}}, {"bike_id": "92af3871ef11670271dae789acf4c5b4", "fusion_lon": 0.0, "name": "92af3871ef11670271dae789acf4c5b4", "lat": 38.887434166666665, "is_disabled": 0, "is_reserved": 0, "lon": -77.03159866666667, "type": "electric_scooter", "fusion_lat": 0.0, "rental_uris": {"android": "https://dc.lft.to/lastmile_qr_scan", "ios": "https://dc.lft.to/lastmile_qr_scan"}}, {"bike_id": "b6193bbb88bea9f4cd8637845412ddb4", "fusion_lon": 0.0, "name": "b6193bbb88bea9f4cd8637845412ddb4", "lat": 38.900127, "is_disabled": 0, "is_reserved": 0, "lon": -76.99311633333333, "type": "electric_scooter", "fusion_lat": 0.0, "rental_uris": {"android": "https://dc.lft.to/lastmile_qr_scan", "ios": "https://dc.lft.to/lastmile_qr_scan"}}, {"bike_id": "b83c0e862a27319f484894e3d0ef81e4", "fusion_lon": 0.0, "name": "b83c0e862a27319f484894e3d0ef81e4", "lat": 38.92713533333333, "is_disabled": 0, "is_reserved": 0, "lon": -77.02077066666666, "type": "electric_scooter", "fusion_lat": 0.0, "rental_uris": {"android": "https://dc.lft.to/lastmile_qr_scan", "ios": "https://dc.lft.to/lastmile_qr_scan"}}, {"bike_id": "725ce65cdeff28951e99917e841d27f2", "fusion_lon": 0.0, "name": "725ce65cdeff28951e99917e841d27f2", "lat": 38.922293, "is_disabled": 0, "is_reserved": 0, "lon": -77.029766, "type": "electric_scooter", "fusion_lat": 0.0, "rental_uris": {"android": "https://dc.lft.to/lastmile_qr_scan", "ios": "https://dc.lft.to/lastmile_qr_scan"}}, {"bike_id": "e8e2304297311253227e3f79eda9ceec", "fusion_lon": 0.0, "name": "e8e2304297311253227e3f79eda9ceec", "lat": 38.896321666666665, "is_disabled": 0, "is_reserved": 0, "lon": -77.033225, "type": "electric_scooter", "fusion_lat": 0.0, "rental_uris": {"android": "https://dc.lft.to/lastmile_qr_scan", "ios": "https://dc.lft.to/lastmile_qr_scan"}}, {"bike_id": "000f3c2f7d5588d87c582b29316ace09", "fusion_lon": 0.0, "name": "000f3c2f7d5588d87c582b29316ace09", "lat": 38.90574083333333, "is_disabled": 0, "is_reserved": 0, "lon": -77.0464215, "type": "electric_scooter", "fusion_lat": 0.0, "rental_uris": {"android": "https://dc.lft.to/lastmile_qr_scan", "ios": "https://dc.lft.to/lastmile_qr_scan"}}, {"bike_id": "8dc8a1674cf3b22b0a8a7a6b92003b4c", "fusion_lon": 0.0, "name": "8dc8a1674cf3b22b0a8a7a6b92003b4c", "lat": 38.943311, "is_disabled": 0, "is_reserved": 0, "lon": -77.02687066666667, "type": "electric_scooter", "fusion_lat": 0.0, "rental_uris": {"android": "https://dc.lft.to/lastmile_qr_scan", "ios": "https://dc.lft.to/lastmile_qr_scan"}}, {"bike_id": "bea14ea80f7902a2369497ffb54c82cf", "fusion_lon": 0.0, "name": "bea14ea80f7902a2369497ffb54c82cf", "lat": 38.90030216666667, "is_disabled": 0, "is_reserved": 0, "lon": -77.02382466666667, "type": "electric_scooter", "fusion_lat": 0.0, "rental_uris": {"android": "https://dc.lft.to/lastmile_qr_scan", "ios": "https://dc.lft.to/lastmile_qr_scan"}}, {"bike_id": "f99d4c0f3a98241aa94807b922a3a5b2", "fusion_lon": 0.0, "name": "f99d4c0f3a98241aa94807b922a3a5b2", "lat": 38.93875033333333, "is_disabled": 0, "is_reserved": 0, "lon": -77.03085166666666, "type": "electric_scooter", "fusion_lat": 0.0, "rental_uris": {"android": "https://dc.lft.to/lastmile_qr_scan", "ios": "https://dc.lft.to/lastmile_qr_scan"}}, {"bike_id": "6e3adf1c3d33ac0a8f56e992d011ff11", "fusion_lon": 0.0, "name": "6e3adf1c3d33ac0a8f56e992d011ff11", "lat": 38.899179, "is_disabled": 0, "is_reserved": 0, "lon": -77.071899, "type": "electric_scooter", "fusion_lat": 0.0, "rental_uris": {"android": "https://dc.lft.to/lastmile_qr_scan", "ios": "https://dc.lft.to/lastmile_qr_scan"}}, {"bike_id": "5733782106592c1161681438757b569e", "fusion_lon": 0.0, "name": "5733782106592c1161681438757b569e", "lat": 38.916346, "is_disabled": 0, "is_reserved": 0, "lon": -77.04789233333334, "type": "electric_scooter", "fusion_lat": 0.0, "rental_uris": {"android": "https://dc.lft.to/lastmile_qr_scan", "ios": "https://dc.lft.to/lastmile_qr_scan"}}, {"bike_id": "b80343a830a437e23482edfbe6d8d58d", "fusion_lon": 0.0, "name": "b80343a830a437e23482edfbe6d8d58d", "lat": 38.8991195, "is_disabled": 0, "is_reserved": 0, "lon": -77.03298583333333, "type": "electric_scooter", "fusion_lat": 0.0, "rental_uris": {"android": "https://dc.lft.to/lastmile_qr_scan", "ios": "https://dc.lft.to/lastmile_qr_scan"}}, {"bike_id": "fda54e00959cf296a634b7c2e37c4538", "fusion_lon": 0.0, "name": "fda54e00959cf296a634b7c2e37c4538", "lat": 38.92103916666667, "is_disabled": 0, "is_reserved": 0, "lon": -77.01321816666666, "type": "electric_scooter", "fusion_lat": 0.0, "rental_uris": {"android": "https://dc.lft.to/lastmile_qr_scan", "ios": "https://dc.lft.to/lastmile_qr_scan"}}, {"bike_id": "d0db25382218f5f93a17fe00cbfdd4d0", "fusion_lon": 0.0, "name": "d0db25382218f5f93a17fe00cbfdd4d0", "lat": 38.917057, "is_disabled": 0, "is_reserved": 0, "lon": -77.0346965, "type": "electric_scooter", "fusion_lat": 0.0, "rental_uris": {"android": "https://dc.lft.to/lastmile_qr_scan", "ios": "https://dc.lft.to/lastmile_qr_scan"}}, {"bike_id": "a47606948a09722639d5892bb88db0df", "fusion_lon": 0.0, "name": "a47606948a09722639d5892bb88db0df", "lat": 38.921176333333335, "is_disabled": 0, "is_reserved": 0, "lon": -77.04387333333334, "type": "electric_scooter", "fusion_lat": 0.0, "rental_uris": {"android": "https://dc.lft.to/lastmile_qr_scan", "ios": "https://dc.lft.to/lastmile_qr_scan"}}, {"bike_id": "13790e2666ad1303417c152a4d66c9de", "fusion_lon": 0.0, "name": "13790e2666ad1303417c152a4d66c9de", "lat": 38.884666333333335, "is_disabled": 0, "is_reserved": 0, "lon": -76.94977583333333, "type": "electric_scooter", "fusion_lat": 0.0, "rental_uris": {"android": "https://dc.lft.to/lastmile_qr_scan", "ios": "https://dc.lft.to/lastmile_qr_scan"}}, {"bike_id": "a464b2d910c020145535713a3d079231", "fusion_lon": 0.0, "name": "a464b2d910c020145535713a3d079231", "lat": 38.93673033333334, "is_disabled": 0, "is_reserved": 0, "lon": -77.035907, "type": "electric_scooter", "fusion_lat": 0.0, "rental_uris": {"android": "https://dc.lft.to/lastmile_qr_scan", "ios": "https://dc.lft.to/lastmile_qr_scan"}}, {"bike_id": "7c055e7c4d41168e3acb5e67242d5b7e", "fusion_lon": 0.0, "name": "7c055e7c4d41168e3acb5e67242d5b7e", "lat": 38.902405333333334, "is_disabled": 0, "is_reserved": 0, "lon": -77.04608166666667, "type": "electric_scooter", "fusion_lat": 0.0, "rental_uris": {"android": "https://dc.lft.to/lastmile_qr_scan", "ios": "https://dc.lft.to/lastmile_qr_scan"}}, {"bike_id": "e70712002dafa92fcedb63ea967a089b", "fusion_lon": 0.0, "name": "e70712002dafa92fcedb63ea967a089b", "lat": 38.88331783333334, "is_disabled": 0, "is_reserved": 0, "lon": -77.01767733333334, "type": "electric_scooter", "fusion_lat": 0.0, "rental_uris": {"android": "https://dc.lft.to/lastmile_qr_scan", "ios": "https://dc.lft.to/lastmile_qr_scan"}}, {"bike_id": "879881c966920fd3dc33633a2ded2fae", "fusion_lon": 0.0, "name": "879881c966920fd3dc33633a2ded2fae", "lat": 38.89508416666666, "is_disabled": 0, "is_reserved": 0, "lon": -77.02202383333334, "type": "electric_scooter", "fusion_lat": 0.0, "rental_uris": {"android": "https://dc.lft.to/lastmile_qr_scan", "ios": "https://dc.lft.to/lastmile_qr_scan"}}, {"bike_id": "a2ed6da4f436164a1367d6d24eb0f51d", "fusion_lon": 0.0, "name": "a2ed6da4f436164a1367d6d24eb0f51d", "lat": 38.91728466666667, "is_disabled": 0, "is_reserved": 0, "lon": -77.0230045, "type": "electric_scooter", "fusion_lat": 0.0, "rental_uris": {"android": "https://dc.lft.to/lastmile_qr_scan", "ios": "https://dc.lft.to/lastmile_qr_scan"}}, {"bike_id": "752c43b1b2e07bd85ce57e544315e597", "fusion_lon": 0.0, "name": "752c43b1b2e07bd85ce57e544315e597", "lat": 38.91422683333333, "is_disabled": 0, "is_reserved": 0, "lon": -77.03925583333333, "type": "electric_scooter", "fusion_lat": 0.0, "rental_uris": {"android": "https://dc.lft.to/lastmile_qr_scan", "ios": "https://dc.lft.to/lastmile_qr_scan"}}, {"bike_id": "2be16937e0afb27629388ca4207c31ba", "fusion_lon": 0.0, "name": "2be16937e0afb27629388ca4207c31ba", "lat": 38.918829, "is_disabled": 0, "is_reserved": 0, "lon": -77.02969333333333, "type": "electric_scooter", "fusion_lat": 0.0, "rental_uris": {"android": "https://dc.lft.to/lastmile_qr_scan", "ios": "https://dc.lft.to/lastmile_qr_scan"}}, {"bike_id": "6a5f7d2c001a35968b2dcb973d9537d7", "fusion_lon": 0.0, "name": "6a5f7d2c001a35968b2dcb973d9537d7", "lat": 38.846084, "is_disabled": 0, "is_reserved": 0, "lon": -76.96909033333333, "type": "electric_bike", "fusion_lat": 0.0, "rental_uris": {"android": "https://dc.lft.to/lastmile_qr_scan", "ios": "https://dc.lft.to/lastmile_qr_scan"}}, {"bike_id": "d61a445a90199c0029a4295c1264d352", "fusion_lon": 0.0, "name": "d61a445a90199c0029a4295c1264d352", "lat": 38.87488533333333, "is_disabled": 0, "is_reserved": 0, "lon": -77.21122616666666, "type": "electric_bike", "fusion_lat": 0.0, "rental_uris": {"android": "https://dc.lft.to/lastmile_qr_scan", "ios": "https://dc.lft.to/lastmile_qr_scan"}}, {"bike_id": "2688702dfc8c1271401da0834884611f", "fusion_lon": 0.0, "name": "2688702dfc8c1271401da0834884611f", "lat": 38.89218666666667, "is_disabled": 0, "is_reserved": 0, "lon": -77.04307883333334, "type": "electric_scooter", "fusion_lat": 0.0, "rental_uris": {"android": "https://dc.lft.to/lastmile_qr_scan", "ios": "https://dc.lft.to/lastmile_qr_scan"}}, {"bike_id": "448adf573c9f92f8d7619da079daa8d8", "fusion_lon": 0.0, "name": "448adf573c9f92f8d7619da079daa8d8", "lat": 38.91691266666667, "is_disabled": 0, "is_reserved": 0, "lon": -77.02594666666667, "type": "electric_scooter", "fusion_lat": 0.0, "rental_uris": {"android": "https://dc.lft.to/lastmile_qr_scan", "ios": "https://dc.lft.to/lastmile_qr_scan"}}, {"bike_id": "63e4e350719b42ecfb0fa264e1663a9f", "fusion_lon": 0.0, "name": "63e4e350719b42ecfb0fa264e1663a9f", "lat": 38.896108166666664, "is_disabled": 0, "is_reserved": 0, "lon": -76.9074075, "type": "electric_bike", "fusion_lat": 0.0, "rental_uris": {"android": "https://dc.lft.to/lastmile_qr_scan", "ios": "https://dc.lft.to/lastmile_qr_scan"}}, {"bike_id": "586c9b0123a4188d469ab514b8f7f76c", "fusion_lon": 0.0, "name": "586c9b0123a4188d469ab514b8f7f76c", "lat": 38.925988333333336, "is_disabled": 0, "is_reserved": 0, "lon": -77.021552, "type": "electric_scooter", "fusion_lat": 0.0, "rental_uris": {"android": "https://dc.lft.to/lastmile_qr_scan", "ios": "https://dc.lft.to/lastmile_qr_scan"}}, {"bike_id": "19e6fc3ff4ee83418a4d53550ab3072e", "fusion_lon": 0.0, "name": "19e6fc3ff4ee83418a4d53550ab3072e", "lat": 38.9056385, "is_disabled": 0, "is_reserved": 0, "lon": -77.0058925, "type": "electric_scooter", "fusion_lat": 0.0, "rental_uris": {"android": "https://dc.lft.to/lastmile_qr_scan", "ios": "https://dc.lft.to/lastmile_qr_scan"}}, {"bike_id": "7135b52441105ba56dea11d0b9e9fa3c", "fusion_lon": 0.0, "name": "7135b52441105ba56dea11d0b9e9fa3c", "lat": 38.897351666666665, "is_disabled": 0, "is_reserved": 0, "lon": -77.04541183333333, "type": "electric_scooter", "fusion_lat": 0.0, "rental_uris": {"android": "https://dc.lft.to/lastmile_qr_scan", "ios": "https://dc.lft.to/lastmile_qr_scan"}}, {"bike_id": "2c3a1240ad29edc90b665bc3e4fbc959", "fusion_lon": 0.0, "name": "2c3a1240ad29edc90b665bc3e4fbc959", "lat": 38.942212833333336, "is_disabled": 0, "is_reserved": 0, "lon": -77.07683316666666, "type": "electric_scooter", "fusion_lat": 0.0, "rental_uris": {"android": "https://dc.lft.to/lastmile_qr_scan", "ios": "https://dc.lft.to/lastmile_qr_scan"}}, {"bike_id": "b9f8acc2e481d631a1cdaac8a4856ee5", "fusion_lon": 0.0, "name": "b9f8acc2e481d631a1cdaac8a4856ee5", "lat": 38.908161, "is_disabled": 0, "is_reserved": 0, "lon": -77.0424365, "type": "electric_scooter", "fusion_lat": 0.0, "rental_uris": {"android": "https://dc.lft.to/lastmile_qr_scan", "ios": "https://dc.lft.to/lastmile_qr_scan"}}, {"bike_id": "7a6310849478ed7d1312df03ad92ac54", "fusion_lon": 0.0, "name": "7a6310849478ed7d1312df03ad92ac54", "lat": 38.911159166666664, "is_disabled": 0, "is_reserved": 0, "lon": -77.03432516666666, "type": "electric_scooter", "fusion_lat": 0.0, "rental_uris": {"android": "https://dc.lft.to/lastmile_qr_scan", "ios": "https://dc.lft.to/lastmile_qr_scan"}}, {"bike_id": "f4988d85314bcf2a8b3b1bfae3ec6755", "fusion_lon": 0.0, "name": "f4988d85314bcf2a8b3b1bfae3ec6755", "lat": 38.839473166666664, "is_disabled": 0, "is_reserved": 0, "lon": -77.08759683333334, "type": "electric_bike", "fusion_lat": 0.0, "rental_uris": {"android": "https://dc.lft.to/lastmile_qr_scan", "ios": "https://dc.lft.to/lastmile_qr_scan"}}, {"bike_id": "8a4804698c8fdd005704ba5c76d2de59", "fusion_lon": 0.0, "name": "8a4804698c8fdd005704ba5c76d2de59", "lat": 38.927023166666665, "is_disabled": 0, "is_reserved": 0, "lon": -77.024427, "type": "electric_scooter", "fusion_lat": 0.0, "rental_uris": {"android": "https://dc.lft.to/lastmile_qr_scan", "ios": "https://dc.lft.to/lastmile_qr_scan"}}, {"bike_id": "71770d4c6c678584e5e54b98857d58c2", "fusion_lon": 0.0, "name": "71770d4c6c678584e5e54b98857d58c2", "lat": 38.92110616666667, "is_disabled": 0, "is_reserved": 0, "lon": -77.0203565, "type": "electric_scooter", "fusion_lat": 0.0, "rental_uris": {"android": "https://dc.lft.to/lastmile_qr_scan", "ios": "https://dc.lft.to/lastmile_qr_scan"}}, {"bike_id": "95c369670a09526ce7a51c58189a2dec", "fusion_lon": 0.0, "name": "95c369670a09526ce7a51c58189a2dec", "lat": 38.911346333333334, "is_disabled": 0, "is_reserved": 0, "lon": -77.02801433333333, "type": "electric_scooter", "fusion_lat": 0.0, "rental_uris": {"android": "https://dc.lft.to/lastmile_qr_scan", "ios": "https://dc.lft.to/lastmile_qr_scan"}}, {"bike_id": "fbe346091240e67bb8e582328222c0c6", "fusion_lon": 0.0, "name": "fbe346091240e67bb8e582328222c0c6", "lat": 38.9080445, "is_disabled": 0, "is_reserved": 0, "lon": -77.04328816666667, "type": "electric_scooter", "fusion_lat": 0.0, "rental_uris": {"android": "https://dc.lft.to/lastmile_qr_scan", "ios": "https://dc.lft.to/lastmile_qr_scan"}}, {"bike_id": "d5cccc0469e1bcff8bb5e9de3e3750ab", "fusion_lon": 0.0, "name": "d5cccc0469e1bcff8bb5e9de3e3750ab", "lat": 38.909373333333335, "is_disabled": 0, "is_reserved": 0, "lon": -77.03851316666666, "type": "electric_scooter", "fusion_lat": 0.0, "rental_uris": {"android": "https://dc.lft.to/lastmile_qr_scan", "ios": "https://dc.lft.to/lastmile_qr_scan"}}, {"bike_id": "24e1253b3dc8e194b566327bd5c61528", "fusion_lon": 0.0, "name": "24e1253b3dc8e194b566327bd5c61528", "lat": 38.88486116666667, "is_disabled": 0, "is_reserved": 0, "lon": -76.9564195, "type": "electric_scooter", "fusion_lat": 0.0, "rental_uris": {"android": "https://dc.lft.to/lastmile_qr_scan", "ios": "https://dc.lft.to/lastmile_qr_scan"}}, {"bike_id": "38b4f4f206f105162477910fb4793437", "fusion_lon": 0.0, "name": "38b4f4f206f105162477910fb4793437", "lat": 38.91342266666667, "is_disabled": 0, "is_reserved": 0, "lon": -77.031767, "type": "electric_scooter", "fusion_lat": 0.0, "rental_uris": {"android": "https://dc.lft.to/lastmile_qr_scan", "ios": "https://dc.lft.to/lastmile_qr_scan"}}, {"bike_id": "78a93adb44555d6a6b502f8e1686f2d9", "fusion_lon": 0.0, "name": "78a93adb44555d6a6b502f8e1686f2d9", "lat": 38.90037433333333, "is_disabled": 0, "is_reserved": 0, "lon": -77.0238095, "type": "electric_scooter", "fusion_lat": 0.0, "rental_uris": {"android": "https://dc.lft.to/lastmile_qr_scan", "ios": "https://dc.lft.to/lastmile_qr_scan"}}, {"bike_id": "b568f83619d04c4d84e26daf4d11f93c", "fusion_lon": 0.0, "name": "b568f83619d04c4d84e26daf4d11f93c", "lat": 38.87832733333333, "is_disabled": 0, "is_reserved": 0, "lon": -76.99031166666667, "type": "electric_scooter", "fusion_lat": 0.0, "rental_uris": {"android": "https://dc.lft.to/lastmile_qr_scan", "ios": "https://dc.lft.to/lastmile_qr_scan"}}, {"bike_id": "446649de7f1653679991c2997dfeef78", "fusion_lon": 0.0, "name": "446649de7f1653679991c2997dfeef78", "lat": 38.838659666666665, "is_disabled": 0, "is_reserved": 0, "lon": -76.99698983333333, "type": "electric_scooter", "fusion_lat": 0.0, "rental_uris": {"android": "https://dc.lft.to/lastmile_qr_scan", "ios": "https://dc.lft.to/lastmile_qr_scan"}}, {"bike_id": "17e1bd7e40c842f732e4ac25abe8632e", "fusion_lon": 0.0, "name": "17e1bd7e40c842f732e4ac25abe8632e", "lat": 38.92130233333334, "is_disabled": 0, "is_reserved": 0, "lon": -77.04126, "type": "electric_scooter", "fusion_lat": 0.0, "rental_uris": {"android": "https://dc.lft.to/lastmile_qr_scan", "ios": "https://dc.lft.to/lastmile_qr_scan"}}, {"bike_id": "202d937552b2f52bce8133588831fd12", "fusion_lon": 0.0, "name": "202d937552b2f52bce8133588831fd12", "lat": 38.905672333333335, "is_disabled": 0, "is_reserved": 0, "lon": -77.00398066666666, "type": "electric_scooter", "fusion_lat": 0.0, "rental_uris": {"android": "https://dc.lft.to/lastmile_qr_scan", "ios": "https://dc.lft.to/lastmile_qr_scan"}}, {"bike_id": "cb7db4af595f1e4576e29d80bd2542aa", "fusion_lon": 0.0, "name": "cb7db4af595f1e4576e29d80bd2542aa", "lat": 38.923103833333336, "is_disabled": 0, "is_reserved": 0, "lon": -77.045189, "type": "electric_scooter", "fusion_lat": 0.0, "rental_uris": {"android": "https://dc.lft.to/lastmile_qr_scan", "ios": "https://dc.lft.to/lastmile_qr_scan"}}, {"bike_id": "ffb7b7083e05f09454e46d10b9e68f61", "fusion_lon": 0.0, "name": "ffb7b7083e05f09454e46d10b9e68f61", "lat": 38.920446166666665, "is_disabled": 0, "is_reserved": 0, "lon": -77.00205316666667, "type": "electric_scooter", "fusion_lat": 0.0, "rental_uris": {"android": "https://dc.lft.to/lastmile_qr_scan", "ios": "https://dc.lft.to/lastmile_qr_scan"}}, {"bike_id": "c6327fc7ba9635d6e37e1f9664ea39e8", "fusion_lon": 0.0, "name": "c6327fc7ba9635d6e37e1f9664ea39e8", "lat": 38.901768, "is_disabled": 0, "is_reserved": 0, "lon": -76.92902433333333, "type": "electric_scooter", "fusion_lat": 0.0, "rental_uris": {"android": "https://dc.lft.to/lastmile_qr_scan", "ios": "https://dc.lft.to/lastmile_qr_scan"}}, {"bike_id": "4ba0fffbb628445ba2ee67a97e2b500a", "fusion_lon": 0.0, "name": "4ba0fffbb628445ba2ee67a97e2b500a", "lat": 38.90138733333333, "is_disabled": 0, "is_reserved": 0, "lon": -77.04892216666667, "type": "electric_scooter", "fusion_lat": 0.0, "rental_uris": {"android": "https://dc.lft.to/lastmile_qr_scan", "ios": "https://dc.lft.to/lastmile_qr_scan"}}, {"bike_id": "2d876fbfe295768ecd8484ef72b617e1", "fusion_lon": 0.0, "name": "2d876fbfe295768ecd8484ef72b617e1", "lat": 38.89219633333333, "is_disabled": 0, "is_reserved": 0, "lon": -77.04806133333334, "type": "electric_scooter", "fusion_lat": 0.0, "rental_uris": {"android": "https://dc.lft.to/lastmile_qr_scan", "ios": "https://dc.lft.to/lastmile_qr_scan"}}, {"bike_id": "db7cfe8271ad60b239e0eedad2d79ec2", "fusion_lon": 0.0, "name": "db7cfe8271ad60b239e0eedad2d79ec2", "lat": 38.8921885, "is_disabled": 0, "is_reserved": 0, "lon": -77.02228133333334, "type": "electric_scooter", "fusion_lat": 0.0, "rental_uris": {"android": "https://dc.lft.to/lastmile_qr_scan", "ios": "https://dc.lft.to/lastmile_qr_scan"}}, {"bike_id": "e517961c12dd13d0fc3a007b2de621a5", "fusion_lon": 0.0, "name": "e517961c12dd13d0fc3a007b2de621a5", "lat": 38.88631816666667, "is_disabled": 0, "is_reserved": 0, "lon": -76.9258565, "type": "electric_scooter", "fusion_lat": 0.0, "rental_uris": {"android": "https://dc.lft.to/lastmile_qr_scan", "ios": "https://dc.lft.to/lastmile_qr_scan"}}, {"bike_id": "91f175c7c05e5dfd3e08bcdee00c3431", "fusion_lon": 0.0, "name": "91f175c7c05e5dfd3e08bcdee00c3431", "lat": 38.92825966666667, "is_disabled": 0, "is_reserved": 0, "lon": -77.05435633333333, "type": "electric_scooter", "fusion_lat": 0.0, "rental_uris": {"android": "https://dc.lft.to/lastmile_qr_scan", "ios": "https://dc.lft.to/lastmile_qr_scan"}}, {"bike_id": "7d759658753ba5963c3b8bc0d1e16d78", "fusion_lon": 0.0, "name": "7d759658753ba5963c3b8bc0d1e16d78", "lat": 38.876046, "is_disabled": 0, "is_reserved": 0, "lon": -76.96568183333333, "type": "electric_scooter", "fusion_lat": 0.0, "rental_uris": {"android": "https://dc.lft.to/lastmile_qr_scan", "ios": "https://dc.lft.to/lastmile_qr_scan"}}, {"bike_id": "c601af9d9c4846b82f11f1b9aab1d8d8", "fusion_lon": 0.0, "name": "c601af9d9c4846b82f11f1b9aab1d8d8", "lat": 38.89722483333333, "is_disabled": 0, "is_reserved": 0, "lon": -77.02706783333333, "type": "electric_scooter", "fusion_lat": 0.0, "rental_uris": {"android": "https://dc.lft.to/lastmile_qr_scan", "ios": "https://dc.lft.to/lastmile_qr_scan"}}, {"bike_id": "558910fc5d96f4ceb1eb4f300c43331a", "fusion_lon": 0.0, "name": "558910fc5d96f4ceb1eb4f300c43331a", "lat": 38.87993866666667, "is_disabled": 0, "is_reserved": 0, "lon": -76.98538383333333, "type": "electric_scooter", "fusion_lat": 0.0, "rental_uris": {"android": "https://dc.lft.to/lastmile_qr_scan", "ios": "https://dc.lft.to/lastmile_qr_scan"}}, {"bike_id": "b3a6383111ce18f841fa9c2004b9cb50", "fusion_lon": 0.0, "name": "b3a6383111ce18f841fa9c2004b9cb50", "lat": 38.85510416666666, "is_disabled": 0, "is_reserved": 0, "lon": -77.10539533333333, "type": "electric_bike", "fusion_lat": 0.0, "rental_uris": {"android": "https://dc.lft.to/lastmile_qr_scan", "ios": "https://dc.lft.to/lastmile_qr_scan"}}, {"bike_id": "97343a11010034e714753c82d3f71be5", "fusion_lon": 0.0, "name": "97343a11010034e714753c82d3f71be5", "lat": 38.91695683333333, "is_disabled": 0, "is_reserved": 0, "lon": -77.03156516666667, "type": "electric_scooter", "fusion_lat": 0.0, "rental_uris": {"android": "https://dc.lft.to/lastmile_qr_scan", "ios": "https://dc.lft.to/lastmile_qr_scan"}}, {"bike_id": "f7a050dab8ce18e9a5de30f72b6fd0da", "fusion_lon": 0.0, "name": "f7a050dab8ce18e9a5de30f72b6fd0da", "lat": 38.907197333333336, "is_disabled": 0, "is_reserved": 0, "lon": -77.025436, "type": "electric_scooter", "fusion_lat": 0.0, "rental_uris": {"android": "https://dc.lft.to/lastmile_qr_scan", "ios": "https://dc.lft.to/lastmile_qr_scan"}}, {"bike_id": "81ba5af3601bb889fce31252d2060b0f", "fusion_lon": 0.0, "name": "81ba5af3601bb889fce31252d2060b0f", "lat": 38.90877183333333, "is_disabled": 0, "is_reserved": 0, "lon": -77.07529216666667, "type": "electric_scooter", "fusion_lat": 0.0, "rental_uris": {"android": "https://dc.lft.to/lastmile_qr_scan", "ios": "https://dc.lft.to/lastmile_qr_scan"}}, {"bike_id": "b2cae38247f6c446637ae53aaa823a5b", "fusion_lon": 0.0, "name": "b2cae38247f6c446637ae53aaa823a5b", "lat": 38.928544333333335, "is_disabled": 0, "is_reserved": 0, "lon": -77.054393, "type": "electric_scooter", "fusion_lat": 0.0, "rental_uris": {"android": "https://dc.lft.to/lastmile_qr_scan", "ios": "https://dc.lft.to/lastmile_qr_scan"}}, {"bike_id": "5829b47befd32e28bfd14d1f97cf720f", "fusion_lon": 0.0, "name": "5829b47befd32e28bfd14d1f97cf720f", "lat": 38.8969285, "is_disabled": 0, "is_reserved": 0, "lon": -77.00761366666667, "type": "electric_scooter", "fusion_lat": 0.0, "rental_uris": {"android": "https://dc.lft.to/lastmile_qr_scan", "ios": "https://dc.lft.to/lastmile_qr_scan"}}, {"bike_id": "b3a1ef42f9ca49aa5b0707cb79828d1a", "fusion_lon": 0.0, "name": "b3a1ef42f9ca49aa5b0707cb79828d1a", "lat": 38.937454333333335, "is_disabled": 0, "is_reserved": 0, "lon": -77.0243435, "type": "electric_scooter", "fusion_lat": 0.0, "rental_uris": {"android": "https://dc.lft.to/lastmile_qr_scan", "ios": "https://dc.lft.to/lastmile_qr_scan"}}, {"bike_id": "79a80ae6fb6a34cbe2d646bada2f2ddc", "fusion_lon": 0.0, "name": "79a80ae6fb6a34cbe2d646bada2f2ddc", "lat": 38.92327616666667, "is_disabled": 0, "is_reserved": 0, "lon": -77.02047566666667, "type": "electric_scooter", "fusion_lat": 0.0, "rental_uris": {"android": "https://dc.lft.to/lastmile_qr_scan", "ios": "https://dc.lft.to/lastmile_qr_scan"}}, {"bike_id": "5744b5db8480d435c8a2a8fd47cb3ea3", "fusion_lon": 0.0, "name": "5744b5db8480d435c8a2a8fd47cb3ea3", "lat": 38.9210325, "is_disabled": 0, "is_reserved": 0, "lon": -77.04182283333333, "type": "electric_scooter", "fusion_lat": 0.0, "rental_uris": {"android": "https://dc.lft.to/lastmile_qr_scan", "ios": "https://dc.lft.to/lastmile_qr_scan"}}, {"bike_id": "1e88a1d2083eeeef99dfabea9e02ffbf", "fusion_lon": 0.0, "name": "1e88a1d2083eeeef99dfabea9e02ffbf", "lat": 38.927300833333334, "is_disabled": 0, "is_reserved": 0, "lon": -77.02310233333333, "type": "electric_scooter", "fusion_lat": 0.0, "rental_uris": {"android": "https://dc.lft.to/lastmile_qr_scan", "ios": "https://dc.lft.to/lastmile_qr_scan"}}, {"bike_id": "24351054fd4546ed03800671e4a558ec", "fusion_lon": 0.0, "name": "24351054fd4546ed03800671e4a558ec", "lat": 38.92330533333333, "is_disabled": 0, "is_reserved": 0, "lon": -77.01953233333333, "type": "electric_scooter", "fusion_lat": 0.0, "rental_uris": {"android": "https://dc.lft.to/lastmile_qr_scan", "ios": "https://dc.lft.to/lastmile_qr_scan"}}, {"bike_id": "56766170518d2867d4a2e36de5475232", "fusion_lon": 0.0, "name": "56766170518d2867d4a2e36de5475232", "lat": 38.926658833333335, "is_disabled": 0, "is_reserved": 0, "lon": -77.02925916666666, "type": "electric_scooter", "fusion_lat": 0.0, "rental_uris": {"android": "https://dc.lft.to/lastmile_qr_scan", "ios": "https://dc.lft.to/lastmile_qr_scan"}}, {"bike_id": "17da86881d9c019e74eb2254ecd674c4", "fusion_lon": 0.0, "name": "17da86881d9c019e74eb2254ecd674c4", "lat": 38.90203233333333, "is_disabled": 0, "is_reserved": 0, "lon": -77.04310516666666, "type": "electric_scooter", "fusion_lat": 0.0, "rental_uris": {"android": "https://dc.lft.to/lastmile_qr_scan", "ios": "https://dc.lft.to/lastmile_qr_scan"}}, {"bike_id": "7e43f15b5097f68add60242e9bb0a64d", "fusion_lon": 0.0, "name": "7e43f15b5097f68add60242e9bb0a64d", "lat": 38.889430833333336, "is_disabled": 0, "is_reserved": 0, "lon": -76.9916115, "type": "electric_scooter", "fusion_lat": 0.0, "rental_uris": {"android": "https://dc.lft.to/lastmile_qr_scan", "ios": "https://dc.lft.to/lastmile_qr_scan"}}, {"bike_id": "dc6428965e010010756ce41d92ec33e8", "fusion_lon": 0.0, "name": "dc6428965e010010756ce41d92ec33e8", "lat": 38.90001733333333, "is_disabled": 0, "is_reserved": 0, "lon": -77.040382, "type": "electric_scooter", "fusion_lat": 0.0, "rental_uris": {"android": "https://dc.lft.to/lastmile_qr_scan", "ios": "https://dc.lft.to/lastmile_qr_scan"}}, {"bike_id": "a85ff89ced113e71a9e7bf5fb1cd2a9e", "fusion_lon": 0.0, "name": "a85ff89ced113e71a9e7bf5fb1cd2a9e", "lat": 38.835449833333335, "is_disabled": 0, "is_reserved": 0, "lon": -76.9873105, "type": "electric_bike", "fusion_lat": 0.0, "rental_uris": {"android": "https://dc.lft.to/lastmile_qr_scan", "ios": "https://dc.lft.to/lastmile_qr_scan"}}, {"bike_id": "7fdfe32e740fd6c72f2ce371931cf3d3", "fusion_lon": 0.0, "name": "7fdfe32e740fd6c72f2ce371931cf3d3", "lat": 38.907598666666665, "is_disabled": 0, "is_reserved": 0, "lon": -77.04240216666666, "type": "electric_scooter", "fusion_lat": 0.0, "rental_uris": {"android": "https://dc.lft.to/lastmile_qr_scan", "ios": "https://dc.lft.to/lastmile_qr_scan"}}, {"bike_id": "757dd8fe764715fcf29bc384afe8e945", "fusion_lon": 0.0, "name": "757dd8fe764715fcf29bc384afe8e945", "lat": 38.89009183333334, "is_disabled": 0, "is_reserved": 0, "lon": -76.93740533333333, "type": "electric_scooter", "fusion_lat": 0.0, "rental_uris": {"android": "https://dc.lft.to/lastmile_qr_scan", "ios": "https://dc.lft.to/lastmile_qr_scan"}}, {"bike_id": "53c13a5bdf2893de768995dab1cd0699", "fusion_lon": 0.0, "name": "53c13a5bdf2893de768995dab1cd0699", "lat": 38.91914516666667, "is_disabled": 0, "is_reserved": 0, "lon": -77.07022883333333, "type": "electric_bike", "fusion_lat": 0.0, "rental_uris": {"android": "https://dc.lft.to/lastmile_qr_scan", "ios": "https://dc.lft.to/lastmile_qr_scan"}}, {"bike_id": "01b6c108a59677b96ad1d86a60853985", "fusion_lon": 0.0, "name": "01b6c108a59677b96ad1d86a60853985", "lat": 38.92839433333333, "is_disabled": 0, "is_reserved": 0, "lon": -77.03657483333333, "type": "electric_scooter", "fusion_lat": 0.0, "rental_uris": {"android": "https://dc.lft.to/lastmile_qr_scan", "ios": "https://dc.lft.to/lastmile_qr_scan"}}, {"bike_id": "d17f1336c9bd6f68b14dc65e2bd00f33", "fusion_lon": 0.0, "name": "d17f1336c9bd6f68b14dc65e2bd00f33", "lat": 38.897406, "is_disabled": 0, "is_reserved": 0, "lon": -77.0455645, "type": "electric_scooter", "fusion_lat": 0.0, "rental_uris": {"android": "https://dc.lft.to/lastmile_qr_scan", "ios": "https://dc.lft.to/lastmile_qr_scan"}}, {"bike_id": "f6e803ac8c70a4d1ed6c1c6ab976c02a", "fusion_lon": 0.0, "name": "f6e803ac8c70a4d1ed6c1c6ab976c02a", "lat": 38.938613, "is_disabled": 0, "is_reserved": 0, "lon": -77.03179683333333, "type": "electric_scooter", "fusion_lat": 0.0, "rental_uris": {"android": "https://dc.lft.to/lastmile_qr_scan", "ios": "https://dc.lft.to/lastmile_qr_scan"}}, {"bike_id": "234a455cd0b7522798c8234dd6774060", "fusion_lon": 0.0, "name": "234a455cd0b7522798c8234dd6774060", "lat": 38.886245333333335, "is_disabled": 0, "is_reserved": 0, "lon": -77.015291, "type": "electric_scooter", "fusion_lat": 0.0, "rental_uris": {"android": "https://dc.lft.to/lastmile_qr_scan", "ios": "https://dc.lft.to/lastmile_qr_scan"}}, {"bike_id": "8dabb80d7ea642ef4cbb51db8a36bb4e", "fusion_lon": 0.0, "name": "8dabb80d7ea642ef4cbb51db8a36bb4e", "lat": 38.923201, "is_disabled": 0, "is_reserved": 0, "lon": -77.02972666666666, "type": "electric_scooter", "fusion_lat": 0.0, "rental_uris": {"android": "https://dc.lft.to/lastmile_qr_scan", "ios": "https://dc.lft.to/lastmile_qr_scan"}}, {"bike_id": "3ec144d35baa1a80606c2fdd145f6170", "fusion_lon": 0.0, "name": "3ec144d35baa1a80606c2fdd145f6170", "lat": 38.892167, "is_disabled": 0, "is_reserved": 0, "lon": -77.0313565, "type": "electric_scooter", "fusion_lat": 0.0, "rental_uris": {"android": "https://dc.lft.to/lastmile_qr_scan", "ios": "https://dc.lft.to/lastmile_qr_scan"}}, {"bike_id": "a5bd7daf258627dd82b705a1ee3d504e", "fusion_lon": 0.0, "name": "a5bd7daf258627dd82b705a1ee3d504e", "lat": 38.9325075, "is_disabled": 0, "is_reserved": 0, "lon": -77.032825, "type": "electric_scooter", "fusion_lat": 0.0, "rental_uris": {"android": "https://dc.lft.to/lastmile_qr_scan", "ios": "https://dc.lft.to/lastmile_qr_scan"}}, {"bike_id": "d04db859a68169b99650ff88a27f1968", "fusion_lon": 0.0, "name": "d04db859a68169b99650ff88a27f1968", "lat": 38.843982, "is_disabled": 0, "is_reserved": 0, "lon": -76.98952716666666, "type": "electric_scooter", "fusion_lat": 0.0, "rental_uris": {"android": "https://dc.lft.to/lastmile_qr_scan", "ios": "https://dc.lft.to/lastmile_qr_scan"}}, {"bike_id": "1241afc0a4fd40f1e5bb14d8a8cc181e", "fusion_lon": 0.0, "name": "1241afc0a4fd40f1e5bb14d8a8cc181e", "lat": 38.916679333333335, "is_disabled": 0, "is_reserved": 0, "lon": -77.027112, "type": "electric_scooter", "fusion_lat": 0.0, "rental_uris": {"android": "https://dc.lft.to/lastmile_qr_scan", "ios": "https://dc.lft.to/lastmile_qr_scan"}}, {"bike_id": "05187575560c15b350bd0eca6a68e625", "fusion_lon": 0.0, "name": "05187575560c15b350bd0eca6a68e625", "lat": 38.934297666666666, "is_disabled": 0, "is_reserved": 0, "lon": -77.03988266666667, "type": "electric_scooter", "fusion_lat": 0.0, "rental_uris": {"android": "https://dc.lft.to/lastmile_qr_scan", "ios": "https://dc.lft.to/lastmile_qr_scan"}}, {"bike_id": "835b5b565d0c32dba2639240c4076b95", "fusion_lon": 0.0, "name": "835b5b565d0c32dba2639240c4076b95", "lat": 38.990485166666666, "is_disabled": 0, "is_reserved": 0, "lon": -77.03868133333333, "type": "electric_bike", "fusion_lat": 0.0, "rental_uris": {"android": "https://dc.lft.to/lastmile_qr_scan", "ios": "https://dc.lft.to/lastmile_qr_scan"}}, {"bike_id": "c88a03bf1d07910d9349affbb5c73e94", "fusion_lon": 0.0, "name": "c88a03bf1d07910d9349affbb5c73e94", "lat": 38.90021566666667, "is_disabled": 0, "is_reserved": 0, "lon": -77.0439, "type": "electric_scooter", "fusion_lat": 0.0, "rental_uris": {"android": "https://dc.lft.to/lastmile_qr_scan", "ios": "https://dc.lft.to/lastmile_qr_scan"}}, {"bike_id": "6b7ef6fa1e879f1b0cc6ba6fa2ef6764", "fusion_lon": 0.0, "name": "6b7ef6fa1e879f1b0cc6ba6fa2ef6764", "lat": 38.95958316666667, "is_disabled": 0, "is_reserved": 0, "lon": -76.98157383333333, "type": "electric_bike", "fusion_lat": 0.0, "rental_uris": {"android": "https://dc.lft.to/lastmile_qr_scan", "ios": "https://dc.lft.to/lastmile_qr_scan"}}, {"bike_id": "6ae9faf622fefdc4bd407677997f3bc0", "fusion_lon": 0.0, "name": "6ae9faf622fefdc4bd407677997f3bc0", "lat": 38.89847483333333, "is_disabled": 0, "is_reserved": 0, "lon": -77.03274166666667, "type": "electric_scooter", "fusion_lat": 0.0, "rental_uris": {"android": "https://dc.lft.to/lastmile_qr_scan", "ios": "https://dc.lft.to/lastmile_qr_scan"}},