{"data": {"bikes": [{"bike_id": "0894cab073bade5cf10936b33deccbc5", "is_reserved": 0, "fusion_lon": 0.0, "lat": 38.865646166666664, "is_disabled": 0, "name": "0894cab073bade5cf10936b33deccbc5", "fusion_lat": 0.0, "rental_uris": {"ios": "https://dc.lft.to/lastmile_qr_scan", "android": "https://dc.lft.to/lastmile_qr_scan"}, "lon": -76.9894155, "type": "electric_scooter"}, {"bike_id": "2f1c32f0890de0beb0ceee928dfe9ab6", "is_reserved": 0, "fusion_lon": 0.0, "lat": 38.900429833333334, "is_disabled": 0, "name": "2f1c32f0890de0beb0ceee928dfe9ab6", "fusion_lat": 0.0, "rental_uris": {"ios": "https://dc.lft.to/lastmile_qr_scan", "android": "https://dc.lft.to/lastmile_qr_scan"}, "lon": -77.00223283333334, "type": "electric_scooter"}, {"bike_id": "1bb68b1cbf00e78c5279bfd8bd26a85c", "is_reserved": 0, "fusion_lon": 0.0, "lat": 38.932379166666664, "is_disabled": 0, "name": "1bb68b1cbf00e78c5279bfd8bd26a85c", "fusion_lat": 0.0, "rental_uris": {"ios": "https://dc.lft.to/lastmile_qr_scan", "android": "https://dc.lft.to/lastmile_qr_scan"}, "lon": -77.03266916666666, "type": "electric_scooter"}, {"bike_id": "429a38d1b7eaf93579aabb9f038b6383", "is_reserved": 0, "fusion_lon": 0.0, "lat": 38.910552333333335, "is_disabled": 0, "name": "429a38d1b7eaf93579aabb9f038b6383", "fusion_lat": 0.0, "rental_uris": {"ios": "https://dc.lft.to/lastmile_qr_scan", "android": "https://dc.lft.to/lastmile_qr_scan"}, "lon": -77.01980866666666, "type": "electric_scooter"}, {"bike_id": "6fc801bd2d300528cd93ee2904223c0a", "is_reserved": 0, "fusion_lon": 0.0, "lat": 38.90562383333334, "is_disabled": 0, "name": "6fc801bd2d300528cd93ee2904223c0a", "fusion_lat": 0.0, "rental_uris": {"ios": "https://dc.lft.to/lastmile_qr_scan", "android": "https://dc.lft.to/lastmile_qr_scan"}, "lon": -77.024946, "type": "electric_scooter"}, {"bike_id": "70307b7d336e41dadb2cee0bdd87be20", "is_reserved": 0, "fusion_lon": 0.0, "lat": 38.90384616666667, "is_disabled": 0, "name": "70307b7d336e41dadb2cee0bdd87be20", "fusion_lat": 0.0, "rental_uris": {"ios": "https://dc.lft.to/lastmile_qr_scan", "android": "https://dc.lft.to/lastmile_qr_scan"}, "lon": -77.04380533333334, "type": "electric_scooter"}, {"bike_id": "182e3b460cf8372d248d49c838b81982", "is_reserved": 0, "fusion_lon": 0.0, "lat": 38.9592455, "is_disabled": 0, "name": "182e3b460cf8372d248d49c838b81982", "fusion_lat": 0.0, "rental_uris": {"ios": "https://dc.lft.to/lastmile_qr_scan", "android": "https://dc.lft.to/lastmile_qr_scan"}, "lon": -77.033203, "type": "electric_scooter"}, {"bike_id": "99a38cb1e18be52a3c29fe8f6ee55c77", "is_reserved": 0, "fusion_lon": 0.0, "lat": 38.90339383333333, "is_disabled": 0, "name": "99a38cb1e18be52a3c29fe8f6ee55c77", "fusion_lat": 0.0, "rental_uris": {"ios": "https://dc.lft.to/lastmile_qr_scan", "android": "https://dc.lft.to/lastmile_qr_scan"}, "lon": -77.0379105, "type": "electric_scooter"}, {"bike_id": "b562f314132d27f6e57fa833696f9b94", "is_reserved": 0, "fusion_lon": 0.0, "lat": 38.92168216666666, "is_disabled": 0, "name": "b562f314132d27f6e57fa833696f9b94", "fusion_lat": 0.0, "rental_uris": {"ios": "https://dc.lft.to/lastmile_qr_scan", "android": "https://dc.lft.to/lastmile_qr_scan"}, "lon": -77.03547233333333, "type": "electric_scooter"}, {"bike_id": "749c8ffbe4790d56c87bc5a9fab6c1c5", "is_reserved": 0, "fusion_lon": 0.0, "lat": 38.91845283333333, "is_disabled": 0, "name": "749c8ffbe4790d56c87bc5a9fab6c1c5", "fusion_lat": 0.0, "rental_uris": {"ios": "https://dc.lft.to/lastmile_qr_scan", "android": "https://dc.lft.to/lastmile_qr_scan"}, "lon": -77.02298716666667, "type": "electric_scooter"}, {"bike_id": "95f021179e669fca7f694d5e0a026868", "is_reserved": 0, "fusion_lon": 0.0, "lat": 38.9105345, "is_disabled": 0, "name": "95f021179e669fca7f694d5e0a026868", "fusion_lat": 0.0, "rental_uris": {"ios": "https://dc.lft.to/lastmile_qr_scan", "android": "https://dc.lft.to/lastmile_qr_scan"}, "lon": -77.02682433333334, "type": "electric_scooter"}, {"bike_id": "6ed29dace3ccfb1fa5cc4a23a4f7e3a0", "is_reserved": 0, "fusion_lon": 0.0, "lat": 38.9204315, "is_disabled": 0, "name": "6ed29dace3ccfb1fa5cc4a23a4f7e3a0", "fusion_lat": 0.0, "rental_uris": {"ios": "https://dc.lft.to/lastmile_qr_scan", "android": "https://dc.lft.to/lastmile_qr_scan"}, "lon": -76.97907433333333, "type": "electric_scooter"}, {"bike_id": "df0a3b5882f105c9df9c663015fa512b", "is_reserved": 0, "fusion_lon": 0.0, "lat": 38.90293783333333, "is_disabled": 0, "name": "df0a3b5882f105c9df9c663015fa512b", "fusion_lat": 0.0, "rental_uris": {"ios": "https://dc.lft.to/lastmile_qr_scan", "android": "https://dc.lft.to/lastmile_qr_scan"}, "lon": -77.03859166666666, "type": "electric_scooter"}, {"bike_id": "b5b0e4619249c5371279d978ddef008e", "is_reserved": 0, "fusion_lon": 0.0, "lat": 38.906291333333336, "is_disabled": 0, "name": "b5b0e4619249c5371279d978ddef008e", "fusion_lat": 0.0, "rental_uris": {"ios": "https://dc.lft.to/lastmile_qr_scan", "android": "https://dc.lft.to/lastmile_qr_scan"}, "lon": -77.03956033333333, "type": "electric_scooter"}, {"bike_id": "b4bed5ffe787ce08f671a00d80c8ee2d", "is_reserved": 0, "fusion_lon": 0.0, "lat": 38.884966666666664, "is_disabled": 0, "name": "b4bed5ffe787ce08f671a00d80c8ee2d", "fusion_lat": 0.0, "rental_uris": {"ios": "https://dc.lft.to/lastmile_qr_scan", "android": "https://dc.lft.to/lastmile_qr_scan"}, "lon": -77.00712216666666, "type": "electric_scooter"}, {"bike_id": "07e4573187e3deffcbdd09d14052194f", "is_reserved": 0, "fusion_lon": 0.0, "lat": 38.8992, "is_disabled": 0, "name": "07e4573187e3deffcbdd09d14052194f", "fusion_lat": 0.0, "rental_uris": {"ios": "https://dc.lft.to/lastmile_qr_scan", "android": "https://dc.lft.to/lastmile_qr_scan"}, "lon": -77.04647633333333, "type": "electric_scooter"}, {"bike_id": "4dd23987d19e9c080f39e87ba58e0d40", "is_reserved": 0, "fusion_lon": 0.0, "lat": 38.90261916666667, "is_disabled": 0, "name": "4dd23987d19e9c080f39e87ba58e0d40", "fusion_lat": 0.0, "rental_uris": {"ios": "https://dc.lft.to/lastmile_qr_scan", "android": "https://dc.lft.to/lastmile_qr_scan"}, "lon": -77.0281375, "type": "electric_scooter"}, {"bike_id": "f93f1daeef695583e4127892b247c4de", "is_reserved": 0, "fusion_lon": 0.0, "lat": 38.885040000000004, "is_disabled": 0, "name": "f93f1daeef695583e4127892b247c4de", "fusion_lat": 0.0, "rental_uris": {"ios": "https://dc.lft.to/lastmile_qr_scan", "android": "https://dc.lft.to/lastmile_qr_scan"}, "lon": -77.00566666666667, "type": "electric_scooter"}, {"bike_id": "a21d6fb86650b4ef504fbbf7ab44673d", "is_reserved": 0, "fusion_lon": 0.0, "lat": 38.937118, "is_disabled": 0, "name": "a21d6fb86650b4ef504fbbf7ab44673d", "fusion_lat": 0.0, "rental_uris": {"ios": "https://dc.lft.to/lastmile_qr_scan", "android": "https://dc.lft.to/lastmile_qr_scan"}, "lon": -77.02934966666666, "type": "electric_scooter"}, {"bike_id": "f0b2caed809978b661b168d190a1007a", "is_reserved": 0, "fusion_lon": 0.0, "lat": 38.898266, "is_disabled": 0, "name": "f0b2caed809978b661b168d190a1007a", "fusion_lat": 0.0, "rental_uris": {"ios": "https://dc.lft.to/lastmile_qr_scan", "android": "https://dc.lft.to/lastmile_qr_scan"}, "lon": -77.00768583333333, "type": "electric_scooter"}, {"bike_id": "0ffb7ce4762416d3b1cd8095de716c33", "is_reserved": 0, "fusion_lon": 0.0, "lat": 38.92854466666667, "is_disabled": 0, "name": "0ffb7ce4762416d3b1cd8095de716c33", "fusion_lat": 0.0, "rental_uris": {"ios": "https://dc.lft.to/lastmile_qr_scan", "android": "https://dc.lft.to/lastmile_qr_scan"}, "lon": -77.01336016666667, "type": "electric_scooter"}, {"bike_id": "6394fbc3f4c2fadc1da06a2116e20acb", "is_reserved": 0, "fusion_lon": 0.0, "lat": 38.904819833333335, "is_disabled": 0, "name": "6394fbc3f4c2fadc1da06a2116e20acb", "fusion_lat": 0.0, "rental_uris": {"ios": "https://dc.lft.to/lastmile_qr_scan", "android": "https://dc.lft.to/lastmile_qr_scan"}, "lon": -77.04038516666667, "type": "electric_scooter"}, {"bike_id": "cd5e8dec43846d7c9fd9a2b41d08eccf", "is_reserved": 0, "fusion_lon": 0.0, "lat": 38.893989833333336, "is_disabled": 0, "name": "cd5e8dec43846d7c9fd9a2b41d08eccf", "fusion_lat": 0.0, "rental_uris": {"ios": "https://dc.lft.to/lastmile_qr_scan", "android": "https://dc.lft.to/lastmile_qr_scan"}, "lon": -77.0227045, "type": "electric_scooter"}, {"bike_id": "14d038daad0283c4d2237f0f53e3dcf2", "is_reserved": 0, "fusion_lon": 0.0, "lat": 38.9397475, "is_disabled": 0, "name": "14d038daad0283c4d2237f0f53e3dcf2", "fusion_lat": 0.0, "rental_uris": {"ios": "https://dc.lft.to/lastmile_qr_scan", "android": "https://dc.lft.to/lastmile_qr_scan"}, "lon": -77.032582, "type": "electric_scooter"}, {"bike_id": "b489fe3f81b771a5ded7f0c02b69e2f3", "is_reserved": 0, "fusion_lon": 0.0, "lat": 38.89746933333333, "is_disabled": 0, "name": "b489fe3f81b771a5ded7f0c02b69e2f3", "fusion_lat": 0.0, "rental_uris": {"ios": "https://dc.lft.to/lastmile_qr_scan", "android": "https://dc.lft.to/lastmile_qr_scan"}, "lon": -77.00755833333334, "type": "electric_scooter"}, {"bike_id": "7ba80e0eedf8ba62501f033f4265c9fd", "is_reserved": 0, "fusion_lon": 0.0, "lat": 38.924814833333336, "is_disabled": 0, "name": "7ba80e0eedf8ba62501f033f4265c9fd", "fusion_lat": 0.0, "rental_uris": {"ios": "https://dc.lft.to/lastmile_qr_scan", "android": "https://dc.lft.to/lastmile_qr_scan"}, "lon": -77.02654733333334, "type": "electric_scooter"}, {"bike_id": "e47f8d0a94919ccd512c35a5af2c73ec", "is_reserved": 0, "fusion_lon": 0.0, "lat": 38.92178233333333, "is_disabled": 0, "name": "e47f8d0a94919ccd512c35a5af2c73ec", "fusion_lat": 0.0, "rental_uris": {"ios": "https://dc.lft.to/lastmile_qr_scan", "android": "https://dc.lft.to/lastmile_qr_scan"}, "lon": -77.040237, "type": "electric_scooter"}, {"bike_id": "821bf020c2ecea3057c1b415b080a7fc", "is_reserved": 0, "fusion_lon": 0.0, "lat": 38.885136, "is_disabled": 0, "name": "821bf020c2ecea3057c1b415b080a7fc", "fusion_lat": 0.0, "rental_uris": {"ios": "https://dc.lft.to/lastmile_qr_scan", "android": "https://dc.lft.to/lastmile_qr_scan"}, "lon": -77.00570866666666, "type": "electric_scooter"}, {"bike_id": "f6e0f945ca50c77a570a546f948989e6", "is_reserved": 0, "fusion_lon": 0.0, "lat": 38.88999066666667, "is_disabled": 0, "name": "f6e0f945ca50c77a570a546f948989e6", "fusion_lat": 0.0, "rental_uris": {"ios": "https://dc.lft.to/lastmile_qr_scan", "android": "https://dc.lft.to/lastmile_qr_scan"}, "lon": -76.95564766666666, "type": "electric_scooter"}, {"bike_id": "d07d5aff65f62d04bc301ced875aed61", "is_reserved": 0, "fusion_lon": 0.0, "lat": 38.93433983333333, "is_disabled": 0, "name": "d07d5aff65f62d04bc301ced875aed61", "fusion_lat": 0.0, "rental_uris": {"ios": "https://dc.lft.to/lastmile_qr_scan", "android": "https://dc.lft.to/lastmile_qr_scan"}, "lon": -77.039981, "type": "electric_scooter"}, {"bike_id": "f8c55042fd5e6fb6c2945299351d9aa0", "is_reserved": 0, "fusion_lon": 0.0, "lat": 38.95084533333333, "is_disabled": 0, "name": "f8c55042fd5e6fb6c2945299351d9aa0", "fusion_lat": 0.0, "rental_uris": {"ios": "https://dc.lft.to/lastmile_qr_scan", "android": "https://dc.lft.to/lastmile_qr_scan"}, "lon": -77.01232, "type": "electric_bike"}, {"bike_id": "d69b0179b38ffc268313858078d48568", "is_reserved": 0, "fusion_lon": 0.0, "lat": 38.9138825, "is_disabled": 0, "name": "d69b0179b38ffc268313858078d48568", "fusion_lat": 0.0, "rental_uris": {"ios": "https://dc.lft.to/lastmile_qr_scan", "android": "https://dc.lft.to/lastmile_qr_scan"}, "lon": -77.01701133333333, "type": "electric_scooter"}, {"bike_id": "d0362c77cbd1dde4bcdb8f67c30fcd65", "is_reserved": 0, "fusion_lon": 0.0, "lat": 38.89967466666667, "is_disabled": 0, "name": "d0362c77cbd1dde4bcdb8f67c30fcd65", "fusion_lat": 0.0, "rental_uris": {"ios": "https://dc.lft.to/lastmile_qr_scan", "android": "https://dc.lft.to/lastmile_qr_scan"}, "lon": -77.02034283333333, "type": "electric_scooter"}, {"bike_id": "11ca092a0ba340a31ee6b4dd7a3d2994", "is_reserved": 0, "fusion_lon": 0.0, "lat": 38.83728716666667, "is_disabled": 0, "name": "11ca092a0ba340a31ee6b4dd7a3d2994", "fusion_lat": 0.0, "rental_uris": {"ios": "https://dc.lft.to/lastmile_qr_scan", "android": "https://dc.lft.to/lastmile_qr_scan"}, "lon": -76.9975345, "type": "electric_bike"}, {"bike_id": "239b1b01d9cc3303f07aa0893231f7a7", "is_reserved": 0, "fusion_lon": 0.0, "lat": 38.85520016666667, "is_disabled": 0, "name": "239b1b01d9cc3303f07aa0893231f7a7", "fusion_lat": 0.0, "rental_uris": {"ios": "https://dc.lft.to/lastmile_qr_scan", "android": "https://dc.lft.to/lastmile_qr_scan"}, "lon": -76.98435183333333, "type": "electric_bike"}, {"bike_id": "d4ad3b3c5b2a001630cd5cbab05148df", "is_reserved": 0, "fusion_lon": 0.0, "lat": 38.884950333333336, "is_disabled": 0, "name": "d4ad3b3c5b2a001630cd5cbab05148df", "fusion_lat": 0.0, "rental_uris": {"ios": "https://dc.lft.to/lastmile_qr_scan", "android": "https://dc.lft.to/lastmile_qr_scan"}, "lon": -77.00341983333334, "type": "electric_scooter"}, {"bike_id": "7b6c0a6412205af623acdd648ae451ef", "is_reserved": 0, "fusion_lon": 0.0, "lat": 38.903461, "is_disabled": 0, "name": "7b6c0a6412205af623acdd648ae451ef", "fusion_lat": 0.0, "rental_uris": {"ios": "https://dc.lft.to/lastmile_qr_scan", "android": "https://dc.lft.to/lastmile_qr_scan"}, "lon": -77.02997083333334, "type": "electric_scooter"}, {"bike_id": "ea0685a0abe0cdd721a18a703f6a9b21", "is_reserved": 0, "fusion_lon": 0.0, "lat": 38.885047666666665, "is_disabled": 0, "name": "ea0685a0abe0cdd721a18a703f6a9b21", "fusion_lat": 0.0, "rental_uris": {"ios": "https://dc.lft.to/lastmile_qr_scan", "android": "https://dc.lft.to/lastmile_qr_scan"}, "lon": -77.00565483333334, "type": "electric_scooter"}, {"bike_id": "fa0a6bc0f6777ea157d0e0dbb6fd2a8c", "is_reserved": 0, "fusion_lon": 0.0, "lat": 38.8691735, "is_disabled": 0, "name": "fa0a6bc0f6777ea157d0e0dbb6fd2a8c", "fusion_lat": 0.0, "rental_uris": {"ios": "https://dc.lft.to/lastmile_qr_scan", "android": "https://dc.lft.to/lastmile_qr_scan"}, "lon": -76.98303333333334, "type": "electric_scooter"}, {"bike_id": "92aa0ff60c3b01a2af3223dd580fb907", "is_reserved": 0, "fusion_lon": 0.0, "lat": 38.8721865, "is_disabled": 0, "name": "92aa0ff60c3b01a2af3223dd580fb907", "fusion_lat": 0.0, "rental_uris": {"ios": "https://dc.lft.to/lastmile_qr_scan", "android": "https://dc.lft.to/lastmile_qr_scan"}, "lon": -77.00570666666667, "type": "electric_scooter"}, {"bike_id": "9a9487ff69640859bc912ab8dc3bd375", "is_reserved": 0, "fusion_lon": 0.0, "lat": 38.939791166666666, "is_disabled": 0, "name": "9a9487ff69640859bc912ab8dc3bd375", "fusion_lat": 0.0, "rental_uris": {"ios": "https://dc.lft.to/lastmile_qr_scan", "android": "https://dc.lft.to/lastmile_qr_scan"}, "lon": -77.036938, "type": "electric_scooter"}, {"bike_id": "3c5503a058e4048ea917c763921b0d9e", "is_reserved": 0, "fusion_lon": 0.0, "lat": 38.91269783333333, "is_disabled": 0, "name": "3c5503a058e4048ea917c763921b0d9e", "fusion_lat": 0.0, "rental_uris": {"ios": "https://dc.lft.to/lastmile_qr_scan", "android": "https://dc.lft.to/lastmile_qr_scan"}, "lon": -77.022711, "type": "electric_scooter"}, {"bike_id": "fdfd0f9c1415a517a59539cb566eac99", "is_reserved": 0, "fusion_lon": 0.0, "lat": 38.86658216666667, "is_disabled": 0, "name": "fdfd0f9c1415a517a59539cb566eac99", "fusion_lat": 0.0, "rental_uris": {"ios": "https://dc.lft.to/lastmile_qr_scan", "android": "https://dc.lft.to/lastmile_qr_scan"}, "lon": -76.98880683333333, "type": "electric_scooter"}, {"bike_id": "de6cdbd3d050d5f835c35466b0f6c869", "is_reserved": 0, "fusion_lon": 0.0, "lat": 38.903434833333336, "is_disabled": 0, "name": "de6cdbd3d050d5f835c35466b0f6c869", "fusion_lat": 0.0, "rental_uris": {"ios": "https://dc.lft.to/lastmile_qr_scan", "android": "https://dc.lft.to/lastmile_qr_scan"}, "lon": -77.04347933333334, "type": "electric_scooter"}, {"bike_id": "9c42eae9040b7cd8b3712955ec05c044", "is_reserved": 0, "fusion_lon": 0.0, "lat": 38.92228883333333, "is_disabled": 0, "name": "9c42eae9040b7cd8b3712955ec05c044", "fusion_lat": 0.0, "rental_uris": {"ios": "https://dc.lft.to/lastmile_qr_scan", "android": "https://dc.lft.to/lastmile_qr_scan"}, "lon": -77.04336933333333, "type": "electric_bike"}, {"bike_id": "e40b21e7fc727e114b82028e60afa60f", "is_reserved": 0, "fusion_lon": 0.0, "lat": 38.9211615, "is_disabled": 0, "name": "e40b21e7fc727e114b82028e60afa60f", "fusion_lat": 0.0, "rental_uris": {"ios": "https://dc.lft.to/lastmile_qr_scan", "android": "https://dc.lft.to/lastmile_qr_scan"}, "lon": -77.04583083333333, "type": "electric_scooter"}, {"bike_id": "6fa742ce25ff81a06ca55b2e3178867a", "is_reserved": 0, "fusion_lon": 0.0, "lat": 38.905796, "is_disabled": 0, "name": "6fa742ce25ff81a06ca55b2e3178867a", "fusion_lat": 0.0, "rental_uris": {"ios": "https://dc.lft.to/lastmile_qr_scan", "android": "https://dc.lft.to/lastmile_qr_scan"}, "lon": -77.0434535, "type": "electric_scooter"}, {"bike_id": "d327317b5d8913877a201f0b7abe9c00", "is_reserved": 0, "fusion_lon": 0.0, "lat": 38.88536033333333, "is_disabled": 0, "name": "d327317b5d8913877a201f0b7abe9c00", "fusion_lat": 0.0, "rental_uris": {"ios": "https://dc.lft.to/lastmile_qr_scan", "android": "https://dc.lft.to/lastmile_qr_scan"}, "lon": -76.99829566666666, "type": "electric_scooter"}, {"bike_id": "97fedcff52c45e03dc7c9f9a66e11871", "is_reserved": 0, "fusion_lon": 0.0, "lat": 38.84425133333333, "is_disabled": 0, "name": "97fedcff52c45e03dc7c9f9a66e11871", "fusion_lat": 0.0, "rental_uris": {"ios": "https://dc.lft.to/lastmile_qr_scan", "android": "https://dc.lft.to/lastmile_qr_scan"}, "lon": -76.99776616666666, "type": "electric_scooter"}, {"bike_id": "6a067b82a4779c4140cbc96508c7cbf7", "is_reserved": 0, "fusion_lon": 0.0, "lat": 38.907378666666666, "is_disabled": 0, "name": "6a067b82a4779c4140cbc96508c7cbf7", "fusion_lat": 0.0, "rental_uris": {"ios": "https://dc.lft.to/lastmile_qr_scan", "android": "https://dc.lft.to/lastmile_qr_scan"}, "lon": -76.9864985, "type": "electric_scooter"}, {"bike_id": "e62742fbb79a435622335ca0be8ba3bb", "is_reserved": 0, "fusion_lon": 0.0, "lat": 38.897306666666665, "is_disabled": 0, "name": "e62742fbb79a435622335ca0be8ba3bb", "fusion_lat": 0.0, "rental_uris": {"ios": "https://dc.lft.to/lastmile_qr_scan", "android": "https://dc.lft.to/lastmile_qr_scan"}, "lon": -77.041556, "type": "electric_scooter"}, {"bike_id": "61c9767fa39ca7319f43fa02536af067", "is_reserved": 0, "fusion_lon": 0.0, "lat": 38.8644665, "is_disabled": 0, "name": "61c9767fa39ca7319f43fa02536af067", "fusion_lat": 0.0, "rental_uris": {"ios": "https://dc.lft.to/lastmile_qr_scan", "android": "https://dc.lft.to/lastmile_qr_scan"}, "lon": -76.97368866666666, "type": "electric_scooter"}, {"bike_id": "f4b9867374f40580a3d4adbe42107c75", "is_reserved": 0, "fusion_lon": 0.0, "lat": 38.892254, "is_disabled": 0, "name": "f4b9867374f40580a3d4adbe42107c75", "fusion_lat": 0.0, "rental_uris": {"ios": "https://dc.lft.to/lastmile_qr_scan", "android": "https://dc.lft.to/lastmile_qr_scan"}, "lon": -77.02643416666666, "type": "electric_scooter"}, {"bike_id": "7ae9ffd00fce1774392b2dbdf9783cd4", "is_reserved": 0, "fusion_lon": 0.0, "lat": 38.9262885, "is_disabled": 0, "name": "7ae9ffd00fce1774392b2dbdf9783cd4", "fusion_lat": 0.0, "rental_uris": {"ios": "https://dc.lft.to/lastmile_qr_scan", "android": "https://dc.lft.to/lastmile_qr_scan"}, "lon": -77.03786516666666, "type": "electric_scooter"}, {"bike_id": "ada886f65afd207ce1171ec3324295ba", "is_reserved": 0, "fusion_lon": 0.0, "lat": 38.9336415, "is_disabled": 0, "name": "ada886f65afd207ce1171ec3324295ba", "fusion_lat": 0.0, "rental_uris": {"ios": "https://dc.lft.to/lastmile_qr_scan", "android": "https://dc.lft.to/lastmile_qr_scan"}, "lon": -77.05725466666667, "type": "electric_scooter"}, {"bike_id": "2e04e4bbb72875783701a973de59599b", "is_reserved": 0, "fusion_lon": 0.0, "lat": 38.897843, "is_disabled": 0, "name": "2e04e4bbb72875783701a973de59599b", "fusion_lat": 0.0, "rental_uris": {"ios": "https://dc.lft.to/lastmile_qr_scan", "android": "https://dc.lft.to/lastmile_qr_scan"}, "lon": -77.03177316666667, "type": "electric_scooter"}, {"bike_id": "59499d15dab1896ee909bdbe76a4fd86", "is_reserved": 0, "fusion_lon": 0.0, "lat": 38.82262466666667, "is_disabled": 0, "name": "59499d15dab1896ee909bdbe76a4fd86", "fusion_lat": 0.0, "rental_uris": {"ios": "https://dc.lft.to/lastmile_qr_scan", "android": "https://dc.lft.to/lastmile_qr_scan"}, "lon": -77.00551766666666, "type": "electric_bike"}, {"bike_id": "5dd8b8af46d6dd6b593df17034f91a05", "is_reserved": 0, "fusion_lon": 0.0, "lat": 38.921822666666664, "is_disabled": 0, "name": "5dd8b8af46d6dd6b593df17034f91a05", "fusion_lat": 0.0, "rental_uris": {"ios": "https://dc.lft.to/lastmile_qr_scan", "android": "https://dc.lft.to/lastmile_qr_scan"}, "lon": -76.99794766666666, "type": "electric_scooter"}, {"bike_id": "d6fa8b2c71b9c4eacc9c056c21913a0c", "is_reserved": 0, "fusion_lon": 0.0, "lat": 38.916769333333335, "is_disabled": 0, "name": "d6fa8b2c71b9c4eacc9c056c21913a0c", "fusion_lat": 0.0, "rental_uris": {"ios": "https://dc.lft.to/lastmile_qr_scan", "android": "https://dc.lft.to/lastmile_qr_scan"}, "lon": -77.02970333333333, "type": "electric_scooter"}, {"bike_id": "a88e4109478048b7c01efb6f664acd1e", "is_reserved": 0, "fusion_lon": 0.0, "lat": 38.9058645, "is_disabled": 0, "name": "a88e4109478048b7c01efb6f664acd1e", "fusion_lat": 0.0, "rental_uris": {"ios": "https://dc.lft.to/lastmile_qr_scan", "android": "https://dc.lft.to/lastmile_qr_scan"}, "lon": -77.040293, "type": "electric_scooter"}, {"bike_id": "31c5624be74d50767d63f2a19ca03086", "is_reserved": 0, "fusion_lon": 0.0, "lat": 38.894547333333335, "is_disabled": 0, "name": "31c5624be74d50767d63f2a19ca03086", "fusion_lat": 0.0, "rental_uris": {"ios": "https://dc.lft.to/lastmile_qr_scan", "android": "https://dc.lft.to/lastmile_qr_scan"}, "lon": -76.970348, "type": "electric_bike"}, {"bike_id": "438762a84f5ff3bd2b7e48ffac2efab5", "is_reserved": 0, "fusion_lon": 0.0, "lat": 38.885926166666664, "is_disabled": 0, "name": "438762a84f5ff3bd2b7e48ffac2efab5", "fusion_lat": 0.0, "rental_uris": {"ios": "https://dc.lft.to/lastmile_qr_scan", "android": "https://dc.lft.to/lastmile_qr_scan"}, "lon": -77.01764966666667, "type": "electric_scooter"}, {"bike_id": "ae04340b0655fd6e3eaae43a654e35de", "is_reserved": 0, "fusion_lon": 0.0, "lat": 38.9164485, "is_disabled": 0, "name": "ae04340b0655fd6e3eaae43a654e35de", "fusion_lat": 0.0, "rental_uris": {"ios": "https://dc.lft.to/lastmile_qr_scan", "android": "https://dc.lft.to/lastmile_qr_scan"}, "lon": -77.04778783333333, "type": "electric_scooter"}, {"bike_id": "278b09c0d918759751f963bbb698b2cd", "is_reserved": 0, "fusion_lon": 0.0, "lat": 38.9308715, "is_disabled": 0, "name": "278b09c0d918759751f963bbb698b2cd", "fusion_lat": 0.0, "rental_uris": {"ios": "https://dc.lft.to/lastmile_qr_scan", "android": "https://dc.lft.to/lastmile_qr_scan"}, "lon": -77.03412933333334, "type": "electric_scooter"}, {"bike_id": "2e79d85a8c2d3e411a132a226f8b3127", "is_reserved": 0, "fusion_lon": 0.0, "lat": 38.89263283333333, "is_disabled": 0, "name": "2e79d85a8c2d3e411a132a226f8b3127", "fusion_lat": 0.0, "rental_uris": {"ios": "https://dc.lft.to/lastmile_qr_scan", "android": "https://dc.lft.to/lastmile_qr_scan"}, "lon": -76.94159083333334, "type": "electric_scooter"}, {"bike_id": "b0e45527745338a2ff4450358bd53c5c", "is_reserved": 0, "fusion_lon": 0.0, "lat": 38.917129333333335, "is_disabled": 0, "name": "b0e45527745338a2ff4450358bd53c5c", "fusion_lat": 0.0, "rental_uris": {"ios": "https://dc.lft.to/lastmile_qr_scan", "android": "https://dc.lft.to/lastmile_qr_scan"}, "lon": -77.03467566666667, "type": "electric_scooter"}, {"bike_id": "9b09bf352bdc7227e794f77ef64b9bed", "is_reserved": 0, "fusion_lon": 0.0, "lat": 38.9166305, "is_disabled": 0, "name": "9b09bf352bdc7227e794f77ef64b9bed", "fusion_lat": 0.0, "rental_uris": {"ios": "https://dc.lft.to/lastmile_qr_scan", "android": "https://dc.lft.to/lastmile_qr_scan"}, "lon": -77.02707183333334, "type": "electric_scooter"}, {"bike_id": "d4fabf78bb8493d6fcb1d28d9b512e85", "is_reserved": 0, "fusion_lon": 0.0, "lat": 38.921842166666664, "is_disabled": 0, "name": "d4fabf78bb8493d6fcb1d28d9b512e85", "fusion_lat": 0.0, "rental_uris": {"ios": "https://dc.lft.to/lastmile_qr_scan", "android": "https://dc.lft.to/lastmile_qr_scan"}, "lon": -77.0183625, "type": "electric_scooter"}, {"bike_id": "84073d75abc403dbf73a2d0d4f5e4b05", "is_reserved": 0, "fusion_lon": 0.0, "lat": 38.9047785, "is_disabled": 0, "name": "84073d75abc403dbf73a2d0d4f5e4b05", "fusion_lat": 0.0, "rental_uris": {"ios": "https://dc.lft.to/lastmile_qr_scan", "android": "https://dc.lft.to/lastmile_qr_scan"}, "lon": -77.06012616666666, "type": "electric_scooter"}, {"bike_id": "2a44c6bf4ae8c7897814269dd58e38fd", "is_reserved": 0, "fusion_lon": 0.0, "lat": 38.90141, "is_disabled": 0, "name": "2a44c6bf4ae8c7897814269dd58e38fd", "fusion_lat": 0.0, "rental_uris": {"ios": "https://dc.lft.to/lastmile_qr_scan", "android": "https://dc.lft.to/lastmile_qr_scan"}, "lon": -76.998003, "type": "electric_scooter"}, {"bike_id": "ba0725dd0e6f77c812144f0397614170", "is_reserved": 0, "fusion_lon": 0.0, "lat": 38.92482116666667, "is_disabled": 0, "name": "ba0725dd0e6f77c812144f0397614170", "fusion_lat": 0.0, "rental_uris": {"ios": "https://dc.lft.to/lastmile_qr_scan", "android": "https://dc.lft.to/lastmile_qr_scan"}, "lon": -77.05207016666667, "type": "electric_scooter"}, {"bike_id": "47a37e0adbaa259935e21f0a5fa48038", "is_reserved": 0, "fusion_lon": 0.0, "lat": 39.03046533333333, "is_disabled": 0, "name": "47a37e0adbaa259935e21f0a5fa48038", "fusion_lat": 0.0, "rental_uris": {"ios": "https://dc.lft.to/lastmile_qr_scan", "android": "https://dc.lft.to/lastmile_qr_scan"}, "lon": -77.0948075, "type": "electric_bike"}, {"bike_id": "bc614006e3b998e788bddac0670b008c", "is_reserved": 0, "fusion_lon": 0.0, "lat": 38.99271316666667, "is_disabled": 0, "name": "bc614006e3b998e788bddac0670b008c", "fusion_lat": 0.0, "rental_uris": {"ios": "https://dc.lft.to/lastmile_qr_scan", "android": "https://dc.lft.to/lastmile_qr_scan"}, "lon": -76.87708183333334, "type": "electric_bike"}, {"bike_id": "1fed4b663232efad2b9e3905e1a31798", "is_reserved": 0, "fusion_lon": 0.0, "lat": 38.9077035, "is_disabled": 0, "name": "1fed4b663232efad2b9e3905e1a31798", "fusion_lat": 0.0, "rental_uris": {"ios": "https://dc.lft.to/lastmile_qr_scan", "android": "https://dc.lft.to/lastmile_qr_scan"}, "lon": -77.069168, "type": "electric_scooter"}, {"bike_id": "7f35b7d3fde104b0c724121dcb457f74", "is_reserved": 0, "fusion_lon": 0.0, "lat": 38.90013916666667, "is_disabled": 0, "name": "7f35b7d3fde104b0c724121dcb457f74", "fusion_lat": 0.0, "rental_uris": {"ios": "https://dc.lft.to/lastmile_qr_scan", "android": "https://dc.lft.to/lastmile_qr_scan"}, "lon": -77.000428, "type": "electric_scooter"}, {"bike_id": "8bace5800d23db9ff778b11d52fc6e02", "is_reserved": 0, "fusion_lon": 0.0, "lat": 38.930896, "is_disabled": 0, "name": "8bace5800d23db9ff778b11d52fc6e02", "fusion_lat": 0.0, "rental_uris": {"ios": "https://dc.lft.to/lastmile_qr_scan", "android": "https://dc.lft.to/lastmile_qr_scan"}, "lon": -76.9671725, "type": "electric_scooter"}, {"bike_id": "27da60f0fec66b02218813bacd28d9da", "is_reserved": 0, "fusion_lon": 0.0, "lat": 38.8954635, "is_disabled": 0, "name": "27da60f0fec66b02218813bacd28d9da", "fusion_lat": 0.0, "rental_uris": {"ios": "https://dc.lft.to/lastmile_qr_scan", "android": "https://dc.lft.to/lastmile_qr_scan"}, "lon": -76.98066516666667, "type": "electric_scooter"}, {"bike_id": "5dafa1cd6af45b636dfa348b02f5c0f3", "is_reserved": 0, "fusion_lon": 0.0, "lat": 38.89625066666667, "is_disabled": 0, "name": "5dafa1cd6af45b636dfa348b02f5c0f3", "fusion_lat": 0.0, "rental_uris": {"ios": "https://dc.lft.to/lastmile_qr_scan", "android": "https://dc.lft.to/lastmile_qr_scan"}, "lon": -76.99579833333334, "type": "electric_scooter"}, {"bike_id": "23c05985fc77b9fcf22b08e79bea951c", "is_reserved": 0, "fusion_lon": 0.0, "lat": 38.861663, "is_disabled": 0, "name": "23c05985fc77b9fcf22b08e79bea951c", "fusion_lat": 0.0, "rental_uris": {"ios": "https://dc.lft.to/lastmile_qr_scan", "android": "https://dc.lft.to/lastmile_qr_scan"}, "lon": -77.13094883333333, "type": "electric_bike"}, {"bike_id": "36941bb9fa27087eda88de79fc77ef99", "is_reserved": 0, "fusion_lon": 0.0, "lat": 38.901036, "is_disabled": 0, "name": "36941bb9fa27087eda88de79fc77ef99", "fusion_lat": 0.0, "rental_uris": {"ios": "https://dc.lft.to/lastmile_qr_scan", "android": "https://dc.lft.to/lastmile_qr_scan"}, "lon": -77.04385116666667, "type": "electric_scooter"}, {"bike_id": "2c413848a93174eff092b5b7ba6180fb", "is_reserved": 0, "fusion_lon": 0.0, "lat": 38.919817, "is_disabled": 0, "name": "2c413848a93174eff092b5b7ba6180fb", "fusion_lat": 0.0, "rental_uris": {"ios": "https://dc.lft.to/lastmile_qr_scan", "android": "https://dc.lft.to/lastmile_qr_scan"}, "lon": -77.0249735, "type": "electric_scooter"}, {"bike_id": "9ff5fa3959099a0d3c263cc88cdfe1e9", "is_reserved": 0, "fusion_lon": 0.0, "lat": 38.892267, "is_disabled": 0, "name": "9ff5fa3959099a0d3c263cc88cdfe1e9", "fusion_lat": 0.0, "rental_uris": {"ios": "https://dc.lft.to/lastmile_qr_scan", "android": "https://dc.lft.to/lastmile_qr_scan"}, "lon": -77.03337083333334, "type": "electric_scooter"}, {"bike_id": "fa5b0c2de5e9339112e8efc5d9bc7363", "is_reserved": 0, "fusion_lon": 0.0, "lat": 38.900234, "is_disabled": 0, "name": "fa5b0c2de5e9339112e8efc5d9bc7363", "fusion_lat": 0.0, "rental_uris": {"ios": "https://dc.lft.to/lastmile_qr_scan", "android": "https://dc.lft.to/lastmile_qr_scan"}, "lon": -77.04470283333333, "type": "electric_scooter"}, {"bike_id": "f027a4636957c761f7fe6cfb24201ae1", "is_reserved": 0, "fusion_lon": 0.0, "lat": 38.9676435, "is_disabled": 0, "name": "f027a4636957c761f7fe6cfb24201ae1", "fusion_lat": 0.0, "rental_uris": {"ios": "https://dc.lft.to/lastmile_qr_scan", "android": "https://dc.lft.to/lastmile_qr_scan"}, "lon": -77.091616, "type": "electric_bike"}, {"bike_id": "e354e8800f4d6621fe49434e1a23f423", "is_reserved": 0, "fusion_lon": 0.0, "lat": 38.903074, "is_disabled": 0, "name": "e354e8800f4d6621fe49434e1a23f423", "fusion_lat": 0.0, "rental_uris": {"ios": "https://dc.lft.to/lastmile_qr_scan", "android": "https://dc.lft.to/lastmile_qr_scan"}, "lon": -77.02582233333334, "type": "electric_scooter"}, {"bike_id": "95046ef419d60126bf9a3384fb22375c", "is_reserved": 0, "fusion_lon": 0.0, "lat": 38.9156225, "is_disabled": 0, "name": "95046ef419d60126bf9a3384fb22375c", "fusion_lat": 0.0, "rental_uris": {"ios": "https://dc.lft.to/lastmile_qr_scan", "android": "https://dc.lft.to/lastmile_qr_scan"}, "lon": -77.03239133333334, "type": "electric_scooter"}, {"bike_id": "78fdaa431d7156f23e9476c167237d70", "is_reserved": 0, "fusion_lon": 0.0, "lat": 38.91336416666667, "is_disabled": 0, "name": "78fdaa431d7156f23e9476c167237d70", "fusion_lat": 0.0, "rental_uris": {"ios": "https://dc.lft.to/lastmile_qr_scan", "android": "https://dc.lft.to/lastmile_qr_scan"}, "lon": -77.03444716666667, "type": "electric_scooter"}, {"bike_id": "69a2269516d7f21781ceaa0d2c5c6879", "is_reserved": 0, "fusion_lon": 0.0, "lat": 38.9535385, "is_disabled": 0, "name": "69a2269516d7f21781ceaa0d2c5c6879", "fusion_lat": 0.0, "rental_uris": {"ios": "https://dc.lft.to/lastmile_qr_scan", "android": "https://dc.lft.to/lastmile_qr_scan"}, "lon": -76.98091333333333, "type": "electric_bike"}, {"bike_id": "6eaa06ddfe46fa882cbcf958832953c7", "is_reserved": 0, "fusion_lon": 0.0, "lat": 38.84615383333333, "is_disabled": 0, "name": "6eaa06ddfe46fa882cbcf958832953c7", "fusion_lat": 0.0, "rental_uris": {"ios": "https://dc.lft.to/lastmile_qr_scan", "android": "https://dc.lft.to/lastmile_qr_scan"}, "lon": -76.96907566666667, "type": "electric_bike"}, {"bike_id": "c1e2115fb1e3bad84933d33264fd20e7", "is_reserved": 0, "fusion_lon": 0.0, "lat": 38.909205666666665, "is_disabled": 0, "name": "c1e2115fb1e3bad84933d33264fd20e7", "fusion_lat": 0.0, "rental_uris": {"ios": "https://dc.lft.to/lastmile_qr_scan", "android": "https://dc.lft.to/lastmile_qr_scan"}, "lon": -76.99970166666667, "type": "electric_scooter"}, {"bike_id": "93b08bbbde4e67eb10db7a580a340a84", "is_reserved": 0, "fusion_lon": 0.0, "lat": 38.9099615, "is_disabled": 0, "name": "93b08bbbde4e67eb10db7a580a340a84", "fusion_lat": 0.0, "rental_uris": {"ios": "https://dc.lft.to/lastmile_qr_scan", "android": "https://dc.lft.to/lastmile_qr_scan"}, "lon": -77.00916616666666, "type": "electric_scooter"}, {"bike_id": "74533cbdd7db08353f2a5e5df3508bbd", "is_reserved": 0, "fusion_lon": 0.0, "lat": 38.8963115, "is_disabled": 0, "name": "74533cbdd7db08353f2a5e5df3508bbd", "fusion_lat": 0.0, "rental_uris": {"ios": "https://dc.lft.to/lastmile_qr_scan", "android": "https://dc.lft.to/lastmile_qr_scan"}, "lon": -77.04050516666666, "type": "electric_scooter"}, {"bike_id": "ce9b0f0ae306b8bb1cf9136733930c45", "is_reserved": 0, "fusion_lon": 0.0, "lat": 38.895578666666665, "is_disabled": 0, "name": "ce9b0f0ae306b8bb1cf9136733930c45", "fusion_lat": 0.0, "rental_uris": {"ios": "https://dc.lft.to/lastmile_qr_scan", "android": "https://dc.lft.to/lastmile_qr_scan"}, "lon": -76.93040933333333, "type": "electric_scooter"}, {"bike_id": "c5931654d3a897e03ec5549d70f0ecf8", "is_reserved": 0, "fusion_lon": 0.0, "lat": 38.846124833333334, "is_disabled": 0, "name": "c5931654d3a897e03ec5549d70f0ecf8", "fusion_lat": 0.0, "rental_uris": {"ios": "https://dc.lft.to/lastmile_qr_scan", "android": "https://dc.lft.to/lastmile_qr_scan"}, "lon": -76.978252, "type": "electric_bike"}, {"bike_id": "1b2b244030311e1df60a9090c4d5fdfa", "is_reserved": 0, "fusion_lon": 0.0, "lat": 39.05815066666667, "is_disabled": 0, "name": "1b2b244030311e1df60a9090c4d5fdfa", "fusion_lat": 0.0, "rental_uris": {"ios": "https://dc.lft.to/lastmile_qr_scan", "android": "https://dc.lft.to/lastmile_qr_scan"}, "lon": -77.12626366666667, "type": "electric_bike"}, {"bike_id": "8aecdfc32b15cea798c877747df6aedd", "is_reserved": 0, "fusion_lon": 0.0, "lat": 38.92502533333333, "is_disabled": 0, "name": "8aecdfc32b15cea798c877747df6aedd", "fusion_lat": 0.0, "rental_uris": {"ios": "https://dc.lft.to/lastmile_qr_scan", "android": "https://dc.lft.to/lastmile_qr_scan"}, "lon": -77.02178216666667, "type": "electric_scooter"}, {"bike_id": "d48b9aec0629fa4fc99325c40a3688b7", "is_reserved": 0, "fusion_lon": 0.0, "lat": 38.91480583333333, "is_disabled": 0, "name": "d48b9aec0629fa4fc99325c40a3688b7", "fusion_lat": 0.0, "rental_uris": {"ios": "https://dc.lft.to/lastmile_qr_scan", "android": "https://dc.lft.to/lastmile_qr_scan"}, "lon": -76.98575833333334, "type": "electric_scooter"}, {"bike_id": "6ecd21717042cf52f13debae6c02b5f4", "is_reserved": 0, "fusion_lon": 0.0, "lat": 38.91049916666667, "is_disabled": 0, "name": "6ecd21717042cf52f13debae6c02b5f4", "fusion_lat": 0.0, "rental_uris": {"ios": "https://dc.lft.to/lastmile_qr_scan", "android": "https://dc.lft.to/lastmile_qr_scan"}, "lon": -77.01509316666667, "type": "electric_scooter"}, {"bike_id": "d10ec8b7fbe4738a41dfb4c6c99e1b86", "is_reserved": 0, "fusion_lon": 0.0, "lat": 38.90201733333333, "is_disabled": 0, "name": "d10ec8b7fbe4738a41dfb4c6c99e1b86", "fusion_lat": 0.0, "rental_uris": {"ios": "https://dc.lft.to/lastmile_qr_scan", "android": "https://dc.lft.to/lastmile_qr_scan"}, "lon": -77.06121483333334, "type": "electric_scooter"}, {"bike_id": "55a3de33d16757c19e25b7ead9e022cf", "is_reserved": 0, "fusion_lon": 0.0, "lat": 38.9593955, "is_disabled": 0, "name": "55a3de33d16757c19e25b7ead9e022cf", "fusion_lat": 0.0, "rental_uris": {"ios": "https://dc.lft.to/lastmile_qr_scan", "android": "https://dc.lft.to/lastmile_qr_scan"}, "lon": -77.03122016666667, "type": "electric_scooter"}, {"bike_id": "cbde20bc3ce550131a070227718b4916", "is_reserved": 0, "fusion_lon": 0.0, "lat": 38.922594333333336, "is_disabled": 0, "name": "cbde20bc3ce550131a070227718b4916", "fusion_lat": 0.0, "rental_uris": {"ios": "https://dc.lft.to/lastmile_qr_scan", "android": "https://dc.lft.to/lastmile_qr_scan"}, "lon": -77.04301666666667, "type": "electric_scooter"}, {"bike_id": "4cc9a5191a808beeb435807c43d7d1e6", "is_reserved": 0, "fusion_lon": 0.0, "lat": 38.89741983333333, "is_disabled": 0, "name": "4cc9a5191a808beeb435807c43d7d1e6", "fusion_lat": 0.0, "rental_uris": {"ios": "https://dc.lft.to/lastmile_qr_scan", "android": "https://dc.lft.to/lastmile_qr_scan"}, "lon": -77.04497883333333, "type": "electric_scooter"}, {"bike_id": "d7e2709549a278b02145cf1570821d20", "is_reserved": 0, "fusion_lon": 0.0, "lat": 38.905002, "is_disabled": 0, "name": "d7e2709549a278b02145cf1570821d20", "fusion_lat": 0.0, "rental_uris": {"ios": "https://dc.lft.to/lastmile_qr_scan", "android": "https://dc.lft.to/lastmile_qr_scan"}, "lon": -76.990197, "type": "electric_scooter"}, {"bike_id": "633a6badb344cedb7cfc713ae6e91955", "is_reserved": 0, "fusion_lon": 0.0, "lat": 38.9203305, "is_disabled": 0, "name": "633a6badb344cedb7cfc713ae6e91955", "fusion_lat": 0.0, "rental_uris": {"ios": "https://dc.lft.to/lastmile_qr_scan", "android": "https://dc.lft.to/lastmile_qr_scan"}, "lon": -77.01787, "type": "electric_scooter"}, {"bike_id": "49ad2d52cc3c58801e7d1e644e0e4b69", "is_reserved": 0, "fusion_lon": 0.0, "lat": 38.9067985, "is_disabled": 0, "name": "49ad2d52cc3c58801e7d1e644e0e4b69", "fusion_lat": 0.0, "rental_uris": {"ios": "https://dc.lft.to/lastmile_qr_scan", "android": "https://dc.lft.to/lastmile_qr_scan"}, "lon": -77.00054033333333, "type": "electric_scooter"}, {"bike_id": "3572d20ace5b22b4dfaea616b3e5b3f1", "is_reserved": 0, "fusion_lon": 0.0, "lat": 38.892278166666664, "is_disabled": 0, "name": "3572d20ace5b22b4dfaea616b3e5b3f1", "fusion_lat": 0.0, "rental_uris": {"ios": "https://dc.lft.to/lastmile_qr_scan", "android": "https://dc.lft.to/lastmile_qr_scan"}, "lon": -77.04650983333333, "type": "electric_scooter"}, {"bike_id": "f904146b5c1c63115b5e2b0d0c508244", "is_reserved": 0, "fusion_lon": 0.0, "lat": 38.904069, "is_disabled": 0, "name": "f904146b5c1c63115b5e2b0d0c508244", "fusion_lat": 0.0, "rental_uris": {"ios": "https://dc.lft.to/lastmile_qr_scan", "android": "https://dc.lft.to/lastmile_qr_scan"}, "lon": -77.0206535, "type": "electric_scooter"}, {"bike_id": "87e11d26e5c32b796997f31d052e8eeb", "is_reserved": 0, "fusion_lon": 0.0, "lat": 38.93535583333333, "is_disabled": 0, "name": "87e11d26e5c32b796997f31d052e8eeb", "fusion_lat": 0.0, "rental_uris": {"ios": "https://dc.lft.to/lastmile_qr_scan", "android": "https://dc.lft.to/lastmile_qr_scan"}, "lon": -77.0236045, "type": "electric_scooter"}, {"bike_id": "610fe5b2f70da7d30326718a624e14a6", "is_reserved": 0, "fusion_lon": 0.0, "lat": 38.920347666666665, "is_disabled": 0, "name": "610fe5b2f70da7d30326718a624e14a6", "fusion_lat": 0.0, "rental_uris": {"ios": "https://dc.lft.to/lastmile_qr_scan", "android": "https://dc.lft.to/lastmile_qr_scan"}, "lon": -77.03136533333333, "type": "electric_scooter"}, {"bike_id": "0d19dcbca39f29a05faea36f4395f261", "is_reserved": 0, "fusion_lon": 0.0, "lat": 38.90411316666667, "is_disabled": 0, "name": "0d19dcbca39f29a05faea36f4395f261", "fusion_lat": 0.0, "rental_uris": {"ios": "https://dc.lft.to/lastmile_qr_scan", "android": "https://dc.lft.to/lastmile_qr_scan"}, "lon": -77.03242516666667, "type": "electric_scooter"}, {"bike_id": "58a62f398dd8a304f2ae27c70dd23312", "is_reserved": 0, "fusion_lon": 0.0, "lat": 38.8919655, "is_disabled": 0, "name": "58a62f398dd8a304f2ae27c70dd23312", "fusion_lat": 0.0, "rental_uris": {"ios": "https://dc.lft.to/lastmile_qr_scan", "android": "https://dc.lft.to/lastmile_qr_scan"}, "lon": -77.02836916666666, "type": "electric_scooter"}, {"bike_id": "d1bd882a5c5d5ed1e0fd45fc40b649ca", "is_reserved": 0, "fusion_lon": 0.0, "lat": 38.89732466666667, "is_disabled": 0, "name": "d1bd882a5c5d5ed1e0fd45fc40b649ca", "fusion_lat": 0.0, "rental_uris": {"ios": "https://dc.lft.to/lastmile_qr_scan", "android": "https://dc.lft.to/lastmile_qr_scan"}, "lon": -77.05472183333333, "type": "electric_scooter"}, {"bike_id": "b8ab1f5bfbdf2e7ff9a56f7fe3eef9d3", "is_reserved": 0, "fusion_lon": 0.0, "lat": 38.99153183333333, "is_disabled": 0, "name": "b8ab1f5bfbdf2e7ff9a56f7fe3eef9d3", "fusion_lat": 0.0, "rental_uris": {"ios": "https://dc.lft.to/lastmile_qr_scan", "android": "https://dc.lft.to/lastmile_qr_scan"}, "lon": -77.04740733333334, "type": "electric_scooter"}, {"bike_id": "a4c06c4a3b4e214035786e9fd40656a4", "is_reserved": 0, "fusion_lon": 0.0, "lat": 38.90859783333333, "is_disabled": 0, "name": "a4c06c4a3b4e214035786e9fd40656a4", "fusion_lat": 0.0, "rental_uris": {"ios": "https://dc.lft.to/lastmile_qr_scan", "android": "https://dc.lft.to/lastmile_qr_scan"}, "lon": -77.08079666666667, "type": "electric_bike"}, {"bike_id": "b61c4d21fc2269c092f2bc291b4f428d", "is_reserved": 0, "fusion_lon": 0.0, "lat": 38.8876675, "is_disabled": 0, "name": "b61c4d21fc2269c092f2bc291b4f428d", "fusion_lat": 0.0, "rental_uris": {"ios": "https://dc.lft.to/lastmile_qr_scan", "android": "https://dc.lft.to/lastmile_qr_scan"}, "lon": -77.03129316666667, "type": "electric_scooter"}, {"bike_id": "4c93e2652df961699c6c22bd8110331f", "is_reserved": 0, "fusion_lon": 0.0, "lat": 38.9027365, "is_disabled": 0, "name": "4c93e2652df961699c6c22bd8110331f", "fusion_lat": 0.0, "rental_uris": {"ios": "https://dc.lft.to/lastmile_qr_scan", "android": "https://dc.lft.to/lastmile_qr_scan"}, "lon": -77.02803283333333, "type": "electric_scooter"}, {"bike_id": "3473ceed7ebfbf54f659b323e32c57a1", "is_reserved": 0, "fusion_lon": 0.0, "lat": 38.935367666666664, "is_disabled": 0, "name": "3473ceed7ebfbf54f659b323e32c57a1", "fusion_lat": 0.0, "rental_uris": {"ios": "https://dc.lft.to/lastmile_qr_scan", "android": "https://dc.lft.to/lastmile_qr_scan"}, "lon": -77.02347333333333, "type": "electric_scooter"}, {"bike_id": "25a5e476bdc13208e1e8faac2faa31a5", "is_reserved": 0, "fusion_lon": 0.0, "lat": 38.90091183333333, "is_disabled": 0, "name": "25a5e476bdc13208e1e8faac2faa31a5", "fusion_lat": 0.0, "rental_uris": {"ios": "https://dc.lft.to/lastmile_qr_scan", "android": "https://dc.lft.to/lastmile_qr_scan"}, "lon": -77.02529566666666, "type": "electric_scooter"}, {"bike_id": "5ac6577ae320f09250db4e44b1ceec65", "is_reserved": 0, "fusion_lon": 0.0, "lat": 38.883704333333334, "is_disabled": 0, "name": "5ac6577ae320f09250db4e44b1ceec65", "fusion_lat": 0.0, "rental_uris": {"ios": "https://dc.lft.to/lastmile_qr_scan", "android": "https://dc.lft.to/lastmile_qr_scan"}, "lon": -76.99530166666666, "type": "electric_scooter"}, {"bike_id": "ce4013fa90faea1a6a680b3af386bd4f", "is_reserved": 0, "fusion_lon": 0.0, "lat": 38.912583, "is_disabled": 0, "name": "ce4013fa90faea1a6a680b3af386bd4f", "fusion_lat": 0.0, "rental_uris": {"ios": "https://dc.lft.to/lastmile_qr_scan", "android": "https://dc.lft.to/lastmile_qr_scan"}, "lon": -77.01203883333334, "type": "electric_scooter"}, {"bike_id": "1e9e6d457a120dd9885768c5823ffa54", "is_reserved": 0, "fusion_lon": 0.0, "lat": 38.95389766666667, "is_disabled": 0, "name": "1e9e6d457a120dd9885768c5823ffa54", "fusion_lat": 0.0, "rental_uris": {"ios": "https://dc.lft.to/lastmile_qr_scan", "android": "https://dc.lft.to/lastmile_qr_scan"}, "lon": -76.99923066666666, "type": "electric_scooter"}, {"bike_id": "752ea3721c1105aebcebba14fe9a1a54", "is_reserved": 0, "fusion_lon": 0.0, "lat": 38.882339, "is_disabled": 0, "name": "752ea3721c1105aebcebba14fe9a1a54", "fusion_lat": 0.0, "rental_uris": {"ios": "https://dc.lft.to/lastmile_qr_scan", "android": "https://dc.lft.to/lastmile_qr_scan"}, "lon": -76.990908, "type": "electric_scooter"}, {"bike_id": "316545c25535fe15c5a64a56b248c5c7", "is_reserved": 0, "fusion_lon": 0.0, "lat": 38.9199105, "is_disabled": 0, "name": "316545c25535fe15c5a64a56b248c5c7", "fusion_lat": 0.0, "rental_uris": {"ios": "https://dc.lft.to/lastmile_qr_scan", "android": "https://dc.lft.to/lastmile_qr_scan"}, "lon": -76.9731105, "type": "electric_scooter"}, {"bike_id": "c1e9b3a323497bc6a08a927883be5b0f", "is_reserved": 0, "fusion_lon": 0.0, "lat": 38.88748, "is_disabled": 0, "name": "c1e9b3a323497bc6a08a927883be5b0f", "fusion_lat": 0.0, "rental_uris": {"ios": "https://dc.lft.to/lastmile_qr_scan", "android": "https://dc.lft.to/lastmile_qr_scan"}, "lon": -77.020249, "type": "electric_scooter"}, {"bike_id": "b941e5f0b455f074e4891a9d645e2d88", "is_reserved": 0, "fusion_lon": 0.0, "lat": 38.9508625, "is_disabled": 0, "name": "b941e5f0b455f074e4891a9d645e2d88", "fusion_lat": 0.0, "rental_uris": {"ios": "https://dc.lft.to/lastmile_qr_scan", "android": "https://dc.lft.to/lastmile_qr_scan"}, "lon": -77.01253516666667, "type": "electric_bike"}, {"bike_id": "0a3e6a176318a5ae0fd8ef9bf37f2958", "is_reserved": 0, "fusion_lon": 0.0, "lat": 38.897895, "is_disabled": 0, "name": "0a3e6a176318a5ae0fd8ef9bf37f2958", "fusion_lat": 0.0, "rental_uris": {"ios": "https://dc.lft.to/lastmile_qr_scan", "android": "https://dc.lft.to/lastmile_qr_scan"}, "lon": -77.0317375, "type": "electric_scooter"}, {"bike_id": "37393f7eedfee22a157e64ca9b456bc6", "is_reserved": 0, "fusion_lon": 0.0, "lat": 38.8857985, "is_disabled": 0, "name": "37393f7eedfee22a157e64ca9b456bc6", "fusion_lat": 0.0, "rental_uris": {"ios": "https://dc.lft.to/lastmile_qr_scan", "android": "https://dc.lft.to/lastmile_qr_scan"}, "lon": -77.015443, "type": "electric_scooter"}, {"bike_id": "695846c341b1b2fe1cd6c895e684fea6", "is_reserved": 0, "fusion_lon": 0.0, "lat": 38.92578533333333, "is_disabled": 0, "name": "695846c341b1b2fe1cd6c895e684fea6", "fusion_lat": 0.0, "rental_uris": {"ios": "https://dc.lft.to/lastmile_qr_scan", "android": "https://dc.lft.to/lastmile_qr_scan"}, "lon": -77.03917033333333, "type": "electric_scooter"}, {"bike_id": "1a09947dbbf1df57e0d2276f4b1b677b", "is_reserved": 0, "fusion_lon": 0.0, "lat": 38.928022666666664, "is_disabled": 0, "name": "1a09947dbbf1df57e0d2276f4b1b677b", "fusion_lat": 0.0, "rental_uris": {"ios": "https://dc.lft.to/lastmile_qr_scan", "android": "https://dc.lft.to/lastmile_qr_scan"}, "lon": -77.05534466666667, "type": "electric_scooter"}, {"bike_id": "9ffeb1e12a0232b49e8ea220d99006de", "is_reserved": 0, "fusion_lon": 0.0, "lat": 38.89803, "is_disabled": 0, "name": "9ffeb1e12a0232b49e8ea220d99006de", "fusion_lat": 0.0, "rental_uris": {"ios": "https://dc.lft.to/lastmile_qr_scan", "android": "https://dc.lft.to/lastmile_qr_scan"}, "lon": -77.02941466666667, "type": "electric_scooter"}, {"bike_id": "343b014b0c8f9e63a960ad909442f5bc", "is_reserved": 0, "fusion_lon": 0.0, "lat": 38.8976605, "is_disabled": 0, "name": "343b014b0c8f9e63a960ad909442f5bc", "fusion_lat": 0.0, "rental_uris": {"ios": "https://dc.lft.to/lastmile_qr_scan", "android": "https://dc.lft.to/lastmile_qr_scan"}, "lon": -77.03029366666667, "type": "electric_scooter"}, {"bike_id": "f8139dd5160d17e0d97eece5c3a06d23", "is_reserved": 0, "fusion_lon": 0.0, "lat": 38.8985775, "is_disabled": 0, "name": "f8139dd5160d17e0d97eece5c3a06d23", "fusion_lat": 0.0, "rental_uris": {"ios": "https://dc.lft.to/lastmile_qr_scan", "android": "https://dc.lft.to/lastmile_qr_scan"}, "lon": -77.03282466666667, "type": "electric_scooter"}, {"bike_id": "91ebc8a3620e6fdbd64ea5ff8a64c592", "is_reserved": 0, "fusion_lon": 0.0, "lat": 38.9057265, "is_disabled": 0, "name": "91ebc8a3620e6fdbd64ea5ff8a64c592", "fusion_lat": 0.0, "rental_uris": {"ios": "https://dc.lft.to/lastmile_qr_scan", "android": "https://dc.lft.to/lastmile_qr_scan"}, "lon": -77.03446266666667, "type": "electric_scooter"}, {"bike_id": "f712015ab844a9d39a21065f0bb50274", "is_reserved": 0, "fusion_lon": 0.0, "lat": 38.9159485, "is_disabled": 0, "name": "f712015ab844a9d39a21065f0bb50274", "fusion_lat": 0.0, "rental_uris": {"ios": "https://dc.lft.to/lastmile_qr_scan", "android": "https://dc.lft.to/lastmile_qr_scan"}, "lon": -76.98374833333334, "type": "electric_scooter"}, {"bike_id": "fb6e947a7d37dd7290889d09eab19c57", "is_reserved": 0, "fusion_lon": 0.0, "lat": 38.91731466666667, "is_disabled": 0, "name": "fb6e947a7d37dd7290889d09eab19c57", "fusion_lat": 0.0, "rental_uris": {"ios": "https://dc.lft.to/lastmile_qr_scan", "android": "https://dc.lft.to/lastmile_qr_scan"}, "lon": -77.03109533333334, "type": "electric_scooter"}, {"bike_id": "a87c2a5cdf42abbeef52c7019cd004a9", "is_reserved": 0, "fusion_lon": 0.0, "lat": 38.88337333333333, "is_disabled": 0, "name": "a87c2a5cdf42abbeef52c7019cd004a9", "fusion_lat": 0.0, "rental_uris": {"ios": "https://dc.lft.to/lastmile_qr_scan", "android": "https://dc.lft.to/lastmile_qr_scan"}, "lon": -77.0174315, "type": "electric_scooter"}, {"bike_id": "01a93303ed9c90339d827c3f73be0f65", "is_reserved": 0, "fusion_lon": 0.0, "lat": 38.90593233333333, "is_disabled": 0, "name": "01a93303ed9c90339d827c3f73be0f65", "fusion_lat": 0.0, "rental_uris": {"ios": "https://dc.lft.to/lastmile_qr_scan", "android": "https://dc.lft.to/lastmile_qr_scan"}, "lon": -77.06283316666666, "type": "electric_scooter"}, {"bike_id": "a6299600563475908ee5b32c7b39cc32", "is_reserved": 0, "fusion_lon": 0.0, "lat": 38.904255166666665, "is_disabled": 0, "name": "a6299600563475908ee5b32c7b39cc32", "fusion_lat": 0.0, "rental_uris": {"ios": "https://dc.lft.to/lastmile_qr_scan", "android": "https://dc.lft.to/lastmile_qr_scan"}, "lon": -77.04355883333334, "type": "electric_scooter"}, {"bike_id": "2db94ee517595887e45bda404d2cb054", "is_reserved": 0, "fusion_lon": 0.0, "lat": 38.90242, "is_disabled": 0, "name": "2db94ee517595887e45bda404d2cb054", "fusion_lat": 0.0, "rental_uris": {"ios": "https://dc.lft.to/lastmile_qr_scan", "android": "https://dc.lft.to/lastmile_qr_scan"}, "lon": -77.0020315, "type": "electric_scooter"}, {"bike_id": "5a7f018f806fa061f278fd32229a93b0", "is_reserved": 0, "fusion_lon": 0.0, "lat": 38.933324, "is_disabled": 0, "name": "5a7f018f806fa061f278fd32229a93b0", "fusion_lat": 0.0, "rental_uris": {"ios": "https://dc.lft.to/lastmile_qr_scan", "android": "https://dc.lft.to/lastmile_qr_scan"}, "lon": -77.032821, "type": "electric_scooter"}, {"bike_id": "dea7fa76bd761c05a8b80c751dcb6377", "is_reserved": 0, "fusion_lon": 0.0, "lat": 38.92583966666667, "is_disabled": 0, "name": "dea7fa76bd761c05a8b80c751dcb6377", "fusion_lat": 0.0, "rental_uris": {"ios": "https://dc.lft.to/lastmile_qr_scan", "android": "https://dc.lft.to/lastmile_qr_scan"}, "lon": -77.05765966666667, "type": "electric_scooter"}, {"bike_id": "02ffe7183c46149c918b99fdb3739a95", "is_reserved": 0, "fusion_lon": 0.0, "lat": 38.90173, "is_disabled": 0, "name": "02ffe7183c46149c918b99fdb3739a95", "fusion_lat": 0.0, "rental_uris": {"ios": "https://dc.lft.to/lastmile_qr_scan", "android": "https://dc.lft.to/lastmile_qr_scan"}, "lon": -77.00025083333334, "type": "electric_scooter"}, {"bike_id": "e6e5e426c6da536eaabde19c0e04f5c1", "is_reserved": 0, "fusion_lon": 0.0, "lat": 38.864197, "is_disabled": 0, "name": "e6e5e426c6da536eaabde19c0e04f5c1", "fusion_lat": 0.0, "rental_uris": {"ios": "https://dc.lft.to/lastmile_qr_scan", "android": "https://dc.lft.to/lastmile_qr_scan"}, "lon": -77.01344283333333, "type": "electric_scooter"}, {"bike_id": "342cca36790168aafa34b747ed765fa2", "is_reserved": 0, "fusion_lon": 0.0, "lat": 38.892218666666665, "is_disabled": 0, "name": "342cca36790168aafa34b747ed765fa2", "fusion_lat": 0.0, "rental_uris": {"ios": "https://dc.lft.to/lastmile_qr_scan", "android": "https://dc.lft.to/lastmile_qr_scan"}, "lon": -77.04651533333333, "type": "electric_scooter"}, {"bike_id": "caa88fc3220f391584ba0f4eca227601", "is_reserved": 0, "fusion_lon": 0.0, "lat": 38.926253, "is_disabled": 0, "name": "caa88fc3220f391584ba0f4eca227601", "fusion_lat": 0.0, "rental_uris": {"ios": "https://dc.lft.to/lastmile_qr_scan", "android": "https://dc.lft.to/lastmile_qr_scan"}, "lon": -77.03786083333334, "type": "electric_scooter"}, {"bike_id": "aa3c3cb501ab270618cde0d762a6e80c", "is_reserved": 0, "fusion_lon": 0.0, "lat": 38.89025566666667, "is_disabled": 0, "name": "aa3c3cb501ab270618cde0d762a6e80c", "fusion_lat": 0.0, "rental_uris": {"ios": "https://dc.lft.to/lastmile_qr_scan", "android": "https://dc.lft.to/lastmile_qr_scan"}, "lon": -76.93599666666667, "type": "electric_scooter"}, {"bike_id": "a9d841dde8fe302055e1b07f5c9e8f3c", "is_reserved": 0, "fusion_lon": 0.0, "lat": 38.925044666666665, "is_disabled": 0, "name": "a9d841dde8fe302055e1b07f5c9e8f3c", "fusion_lat": 0.0, "rental_uris": {"ios": "https://dc.lft.to/lastmile_qr_scan", "android": "https://dc.lft.to/lastmile_qr_scan"}, "lon": -77.03882333333334, "type": "electric_scooter"}, {"bike_id": "d8d9fabc0e93cec4d4fe388fe445cc68", "is_reserved": 0, "fusion_lon": 0.0, "lat": 38.92624033333333, "is_disabled": 0, "name": "d8d9fabc0e93cec4d4fe388fe445cc68", "fusion_lat": 0.0, "rental_uris": {"ios": "https://dc.lft.to/lastmile_qr_scan", "android": "https://dc.lft.to/lastmile_qr_scan"}, "lon": -77.03933016666667, "type": "electric_bike"}, {"bike_id": "3c5bf75731d944b22c8be3ec95cdca00", "is_reserved": 0, "fusion_lon": 0.0, "lat": 38.900612833333334, "is_disabled": 0, "name": "3c5bf75731d944b22c8be3ec95cdca00", "fusion_lat": 0.0, "rental_uris": {"ios": "https://dc.lft.to/lastmile_qr_scan", "android": "https://dc.lft.to/lastmile_qr_scan"}, "lon": -77.00221183333333, "type": "electric_scooter"}, {"bike_id": "02c9977d40455bccd7ef5c0ecb3214b5", "is_reserved": 0, "fusion_lon": 0.0, "lat": 38.91683616666667, "is_disabled": 0, "name": "02c9977d40455bccd7ef5c0ecb3214b5", "fusion_lat": 0.0, "rental_uris": {"ios": "https://dc.lft.to/lastmile_qr_scan", "android": "https://dc.lft.to/lastmile_qr_scan"}, "lon": -77.02971816666667, "type": "electric_scooter"}, {"bike_id": "de6d55e61491222d84fc75bc5adf8eab", "is_reserved": 0, "fusion_lon": 0.0, "lat": 38.902721666666665, "is_disabled": 0, "name": "de6d55e61491222d84fc75bc5adf8eab", "fusion_lat": 0.0, "rental_uris": {"ios": "https://dc.lft.to/lastmile_qr_scan", "android": "https://dc.lft.to/lastmile_qr_scan"}, "lon": -77.0432235, "type": "electric_scooter"}, {"bike_id": "4d5ab94865c804c23459bc821119564f", "is_reserved": 0, "fusion_lon": 0.0, "lat": 38.92369383333333, "is_disabled": 0, "name": "4d5ab94865c804c23459bc821119564f", "fusion_lat": 0.0, "rental_uris": {"ios": "https://dc.lft.to/lastmile_qr_scan", "android": "https://dc.lft.to/lastmile_qr_scan"}, "lon": -77.22342366666666, "type": "electric_bike"}, {"bike_id": "36a9f04634bbea124ba09de2799be55e", "is_reserved": 0, "fusion_lon": 0.0, "lat": 38.913364, "is_disabled": 0, "name": "36a9f04634bbea124ba09de2799be55e", "fusion_lat": 0.0, "rental_uris": {"ios": "https://dc.lft.to/lastmile_qr_scan", "android": "https://dc.lft.to/lastmile_qr_scan"}, "lon": -77.048692, "type": "electric_scooter"}, {"bike_id": "329e3ed15947be28279a9d4773128cbe", "is_reserved": 0, "fusion_lon": 0.0, "lat": 38.89897583333333, "is_disabled": 0, "name": "329e3ed15947be28279a9d4773128cbe", "fusion_lat": 0.0, "rental_uris": {"ios": "https://dc.lft.to/lastmile_qr_scan", "android": "https://dc.lft.to/lastmile_qr_scan"}, "lon": -77.03294916666667, "type": "electric_scooter"}, {"bike_id": "91d6bc060e2fd586ae6be867c271ac11", "is_reserved": 0, "fusion_lon": 0.0, "lat": 38.865092, "is_disabled": 0, "name": "91d6bc060e2fd586ae6be867c271ac11", "fusion_lat": 0.0, "rental_uris": {"ios": "https://dc.lft.to/lastmile_qr_scan", "android": "https://dc.lft.to/lastmile_qr_scan"}, "lon": -76.98976133333333, "type": "electric_scooter"}, {"bike_id": "981a96c2dc8a166f46464bde4ef4012b", "is_reserved": 0, "fusion_lon": 0.0, "lat": 38.970930833333334, "is_disabled": 0, "name": "981a96c2dc8a166f46464bde4ef4012b", "fusion_lat": 0.0, "rental_uris": {"ios": "https://dc.lft.to/lastmile_qr_scan", "android": "https://dc.lft.to/lastmile_qr_scan"}, "lon": -77.0696755, "type": "electric_bike"}, {"bike_id": "8e3873a49e934b8afdb5a9fc7b041aaf", "is_reserved": 0, "fusion_lon": 0.0, "lat": 38.92585183333333, "is_disabled": 0, "name": "8e3873a49e934b8afdb5a9fc7b041aaf", "fusion_lat": 0.0, "rental_uris": {"ios": "https://dc.lft.to/lastmile_qr_scan", "android": "https://dc.lft.to/lastmile_qr_scan"}, "lon": -77.00471616666667, "type": "electric_scooter"}, {"bike_id": "fcb17cf6045cecee064e18cf27f13e0f", "is_reserved": 0, "fusion_lon": 0.0, "lat": 38.88506, "is_disabled": 0, "name": "fcb17cf6045cecee064e18cf27f13e0f", "fusion_lat": 0.0, "rental_uris": {"ios": "https://dc.lft.to/lastmile_qr_scan", "android": "https://dc.lft.to/lastmile_qr_scan"}, "lon": -77.01560016666667, "type": "electric_scooter"}, {"bike_id": "1ef6376e50ce88ce51b626b53c46fd36", "is_reserved": 0, "fusion_lon": 0.0, "lat": 38.893448, "is_disabled": 0, "name": "1ef6376e50ce88ce51b626b53c46fd36", "fusion_lat": 0.0, "rental_uris": {"ios": "https://dc.lft.to/lastmile_qr_scan", "android": "https://dc.lft.to/lastmile_qr_scan"}, "lon": -76.98455266666667, "type": "electric_scooter"}, {"bike_id": "d8e8eb1f945eb3f2f4b5d34359d6cc27", "is_reserved": 0, "fusion_lon": 0.0, "lat": 38.8786635, "is_disabled": 0, "name": "d8e8eb1f945eb3f2f4b5d34359d6cc27", "fusion_lat": 0.0, "rental_uris": {"ios": "https://dc.lft.to/lastmile_qr_scan", "android": "https://dc.lft.to/lastmile_qr_scan"}, "lon": -76.98989516666667, "type": "electric_scooter"}, {"bike_id": "a71a8e5774f9e298c53151ef8c597397", "is_reserved": 0, "fusion_lon": 0.0, "lat": 38.9100315, "is_disabled": 0, "name": "a71a8e5774f9e298c53151ef8c597397", "fusion_lat": 0.0, "rental_uris": {"ios": "https://dc.lft.to/lastmile_qr_scan", "android": "https://dc.lft.to/lastmile_qr_scan"}, "lon": -77.01651733333334, "type": "electric_scooter"}, {"bike_id": "cfa9883de648ab4731bc793a4828a4d6", "is_reserved": 0, "fusion_lon": 0.0, "lat": 38.90311633333334, "is_disabled": 0, "name": "cfa9883de648ab4731bc793a4828a4d6", "fusion_lat": 0.0, "rental_uris": {"ios": "https://dc.lft.to/lastmile_qr_scan", "android": "https://dc.lft.to/lastmile_qr_scan"}, "lon": -77.034425, "type": "electric_scooter"}, {"bike_id": "94d25856755e34f64fed20e0c30ab37e", "is_reserved": 0, "fusion_lon": 0.0, "lat": 38.90586283333333, "is_disabled": 0, "name": "94d25856755e34f64fed20e0c30ab37e", "fusion_lat": 0.0, "rental_uris": {"ios": "https://dc.lft.to/lastmile_qr_scan", "android": "https://dc.lft.to/lastmile_qr_scan"}, "lon": -77.041085, "type": "electric_scooter"}, {"bike_id": "24ea3f4a43fc8dc4ca2e4992669140ac", "is_reserved": 0, "fusion_lon": 0.0, "lat": 38.900521833333336, "is_disabled": 0, "name": "24ea3f4a43fc8dc4ca2e4992669140ac", "fusion_lat": 0.0, "rental_uris": {"ios": "https://dc.lft.to/lastmile_qr_scan", "android": "https://dc.lft.to/lastmile_qr_scan"}, "lon": -77.00068533333334, "type": "electric_scooter"}, {"bike_id": "92cb6bdabfe33294a41b12ede3150bcd", "is_reserved": 0, "fusion_lon": 0.0, "lat": 38.92819683333333, "is_disabled": 0, "name": "92cb6bdabfe33294a41b12ede3150bcd", "fusion_lat": 0.0, "rental_uris": {"ios": "https://dc.lft.to/lastmile_qr_scan", "android": "https://dc.lft.to/lastmile_qr_scan"}, "lon": -77.03702416666667, "type": "electric_scooter"}, {"bike_id": "3902ce0b5b7a5c11e56f9b6aca777dca", "is_reserved": 0, "fusion_lon": 0.0, "lat": 38.93269033333333, "is_disabled": 0, "name": "3902ce0b5b7a5c11e56f9b6aca777dca", "fusion_lat": 0.0, "rental_uris": {"ios": "https://dc.lft.to/lastmile_qr_scan", "android": "https://dc.lft.to/lastmile_qr_scan"}, "lon": -77.03262333333333, "type": "electric_scooter"}, {"bike_id": "ce02eec31f21923b3693261e9e4ebfb6", "is_reserved": 0, "fusion_lon": 0.0, "lat": 38.90036833333333, "is_disabled": 0, "name": "ce02eec31f21923b3693261e9e4ebfb6", "fusion_lat": 0.0, "rental_uris": {"ios": "https://dc.lft.to/lastmile_qr_scan", "android": "https://dc.lft.to/lastmile_qr_scan"}, "lon": -77.04328366666667, "type": "electric_scooter"}, {"bike_id": "a27a614e241a563637a55551f496c529", "is_reserved": 0, "fusion_lon": 0.0, "lat": 38.92351983333333, "is_disabled": 0, "name": "a27a614e241a563637a55551f496c529", "fusion_lat": 0.0, "rental_uris": {"ios": "https://dc.lft.to/lastmile_qr_scan", "android": "https://dc.lft.to/lastmile_qr_scan"}, "lon": -77.05350433333334, "type": "electric_scooter"}, {"bike_id": "08868008934749b6a7d1c14d60b59ba8", "is_reserved": 0, "fusion_lon": 0.0, "lat": 38.92257566666667, "is_disabled": 0, "name": "08868008934749b6a7d1c14d60b59ba8", "fusion_lat": 0.0, "rental_uris": {"ios": "https://dc.lft.to/lastmile_qr_scan", "android": "https://dc.lft.to/lastmile_qr_scan"}, "lon": -77.0319295, "type": "electric_scooter"}, {"bike_id": "c0cd8d51ecced1fe81e965348fccea75", "is_reserved": 0, "fusion_lon": 0.0, "lat": 38.921373833333334, "is_disabled": 0, "name": "c0cd8d51ecced1fe81e965348fccea75", "fusion_lat": 0.0, "rental_uris": {"ios": "https://dc.lft.to/lastmile_qr_scan", "android": "https://dc.lft.to/lastmile_qr_scan"}, "lon": -77.0412495, "type": "electric_scooter"}, {"bike_id": "53d4d08df8bea056221c9101d9aa9642", "is_reserved": 0, "fusion_lon": 0.0, "lat": 38.917304, "is_disabled": 0, "name": "53d4d08df8bea056221c9101d9aa9642", "fusion_lat": 0.0, "rental_uris": {"ios": "https://dc.lft.to/lastmile_qr_scan", "android": "https://dc.lft.to/lastmile_qr_scan"}, "lon": -77.00798366666666, "type": "electric_scooter"}, {"bike_id": "c84c55941213e494fe4421a249ac92be", "is_reserved": 0, "fusion_lon": 0.0, "lat": 38.877317, "is_disabled": 0, "name": "c84c55941213e494fe4421a249ac92be", "fusion_lat": 0.0, "rental_uris": {"ios": "https://dc.lft.to/lastmile_qr_scan", "android": "https://dc.lft.to/lastmile_qr_scan"}, "lon": -77.11843833333333, "type": "electric_bike"}, {"bike_id": "a908904003e1f2a3b5db72caf65521ec", "is_reserved": 0, "fusion_lon": 0.0, "lat": 38.94390666666666, "is_disabled": 0, "name": "a908904003e1f2a3b5db72caf65521ec", "fusion_lat": 0.0, "rental_uris": {"ios": "https://dc.lft.to/lastmile_qr_scan", "android": "https://dc.lft.to/lastmile_qr_scan"}, "lon": -76.9916295, "type": "electric_scooter"}, {"bike_id": "6b804f66a28aec92951c10aaf0cd1e77", "is_reserved": 0, "fusion_lon": 0.0, "lat": 38.89349333333333, "is_disabled": 0, "name": "6b804f66a28aec92951c10aaf0cd1e77", "fusion_lat": 0.0, "rental_uris": {"ios": "https://dc.lft.to/lastmile_qr_scan", "android": "https://dc.lft.to/lastmile_qr_scan"}, "lon": -76.94935266666667, "type": "electric_scooter"}, {"bike_id": "ec25a64be18e306bde9129ffe768ea81", "is_reserved": 0, "fusion_lon": 0.0, "lat": 38.885062, "is_disabled": 0, "name": "ec25a64be18e306bde9129ffe768ea81", "fusion_lat": 0.0, "rental_uris": {"ios": "https://dc.lft.to/lastmile_qr_scan", "android": "https://dc.lft.to/lastmile_qr_scan"}, "lon": -77.00566033333334, "type": "electric_scooter"}, {"bike_id": "16e3ba5fb6b990d09bd1eb3e452a5472", "is_reserved": 0, "fusion_lon": 0.0, "lat": 38.902850666666666, "is_disabled": 0, "name": "16e3ba5fb6b990d09bd1eb3e452a5472", "fusion_lat": 0.0, "rental_uris": {"ios": "https://dc.lft.to/lastmile_qr_scan", "android": "https://dc.lft.to/lastmile_qr_scan"}, "lon": -77.03864366666667, "type": "electric_scooter"}, {"bike_id": "dd2d5f143eb80748534745ff6540a866", "is_reserved": 0, "fusion_lon": 0.0, "lat": 38.89200316666667, "is_disabled": 0, "name": "dd2d5f143eb80748534745ff6540a866", "fusion_lat": 0.0, "rental_uris": {"ios": "https://dc.lft.to/lastmile_qr_scan", "android": "https://dc.lft.to/lastmile_qr_scan"}, "lon": -77.0238205, "type": "electric_scooter"}, {"bike_id": "37c95ff48e9fd51ed77efc1deba4b92c", "is_reserved": 0, "fusion_lon": 0.0, "lat": 38.82787416666667, "is_disabled": 0, "name": "37c95ff48e9fd51ed77efc1deba4b92c", "fusion_lat": 0.0, "rental_uris": {"ios": "https://dc.lft.to/lastmile_qr_scan", "android": "https://dc.lft.to/lastmile_qr_scan"}, "lon": -77.00906, "type": "electric_bike"}, {"bike_id": "ada82de579118342596a55ac4de5a00a", "is_reserved": 0, "fusion_lon": 0.0, "lat": 38.888873, "is_disabled": 0, "name": "ada82de579118342596a55ac4de5a00a", "fusion_lat": 0.0, "rental_uris": {"ios": "https://dc.lft.to/lastmile_qr_scan", "android": "https://dc.lft.to/lastmile_qr_scan"}, "lon": -77.015453, "type": "electric_scooter"}, {"bike_id": "1ce9d935366f8acc1d760a6b1b84b4ab", "is_reserved": 0, "fusion_lon": 0.0, "lat": 38.92706866666666, "is_disabled": 0, "name": "1ce9d935366f8acc1d760a6b1b84b4ab", "fusion_lat": 0.0, "rental_uris": {"ios": "https://dc.lft.to/lastmile_qr_scan", "android": "https://dc.lft.to/lastmile_qr_scan"}, "lon": -77.036264, "type": "electric_scooter"}, {"bike_id": "72f0c403ba3d2360a5e9e3557399a501", "is_reserved": 0, "fusion_lon": 0.0, "lat": 38.8309315, "is_disabled": 0, "name": "72f0c403ba3d2360a5e9e3557399a501", "fusion_lat": 0.0, "rental_uris": {"ios": "https://dc.lft.to/lastmile_qr_scan", "android": "https://dc.lft.to/lastmile_qr_scan"}, "lon": -77.04257783333334, "type": "electric_bike"}, {"bike_id": "6a3305570a34cc6c1788673db7fd6067", "is_reserved": 0, "fusion_lon": 0.0, "lat": 38.921484, "is_disabled": 0, "name": "6a3305570a34cc6c1788673db7fd6067", "fusion_lat": 0.0, "rental_uris": {"ios": "https://dc.lft.to/lastmile_qr_scan", "android": "https://dc.lft.to/lastmile_qr_scan"}, "lon": -77.04220316666667, "type": "electric_scooter"}, {"bike_id": "f1325d702760b763ab097e00a6f02cb7", "is_reserved": 0, "fusion_lon": 0.0, "lat": 38.86289083333333, "is_disabled": 0, "name": "f1325d702760b763ab097e00a6f02cb7", "fusion_lat": 0.0, "rental_uris": {"ios": "https://dc.lft.to/lastmile_qr_scan", "android": "https://dc.lft.to/lastmile_qr_scan"}, "lon": -76.992371, "type": "electric_scooter"}, {"bike_id": "59480fe79958115d7527345975c7df45", "is_reserved": 0, "fusion_lon": 0.0, "lat": 38.8984245, "is_disabled": 0, "name": "59480fe79958115d7527345975c7df45", "fusion_lat": 0.0, "rental_uris": {"ios": "https://dc.lft.to/lastmile_qr_scan", "android": "https://dc.lft.to/lastmile_qr_scan"}, "lon": -76.94482933333333, "type": "electric_scooter"}, {"bike_id": "8f981e2b570f05d17e9a6f738217100a", "is_reserved": 0, "fusion_lon": 0.0, "lat": 38.90350516666667, "is_disabled": 0, "name": "8f981e2b570f05d17e9a6f738217100a", "fusion_lat": 0.0, "rental_uris": {"ios": "https://dc.lft.to/lastmile_qr_scan", "android": "https://dc.lft.to/lastmile_qr_scan"}, "lon": -77.04522633333333, "type": "electric_scooter"}, {"bike_id": "b81530f05c9dab7481e2548a46cc4123", "is_reserved": 0, "fusion_lon": 0.0, "lat": 38.87262333333334, "is_disabled": 0, "name": "b81530f05c9dab7481e2548a46cc4123", "fusion_lat": 0.0, "rental_uris": {"ios": "https://dc.lft.to/lastmile_qr_scan", "android": "https://dc.lft.to/lastmile_qr_scan"}, "lon": -76.9790315, "type": "electric_bike"}, {"bike_id": "ba4de1d114d7197614cb0f0083b2f64e", "is_reserved": 0, "fusion_lon": 0.0, "lat": 38.91964466666667, "is_disabled": 0, "name": "ba4de1d114d7197614cb0f0083b2f64e", "fusion_lat": 0.0, "rental_uris": {"ios": "https://dc.lft.to/lastmile_qr_scan", "android": "https://dc.lft.to/lastmile_qr_scan"}, "lon": -77.01783766666667, "type": "electric_scooter"}, {"bike_id": "580f4b1f92eb37167071091d68bbfd7c", "is_reserved": 0, "fusion_lon": 0.0, "lat": 39.09438516666667, "is_disabled": 0, "name": "580f4b1f92eb37167071091d68bbfd7c", "fusion_lat": 0.0, "rental_uris": {"ios": "https://dc.lft.to/lastmile_qr_scan", "android": "https://dc.lft.to/lastmile_qr_scan"}, "lon": -77.13459216666666, "type": "electric_bike"}, {"bike_id": "585d6dc3bba858cbc490e4d50996b984", "is_reserved": 0, "fusion_lon": 0.0, "lat": 38.8982995, "is_disabled": 0, "name": "585d6dc3bba858cbc490e4d50996b984", "fusion_lat": 0.0, "rental_uris": {"ios": "https://dc.lft.to/lastmile_qr_scan", "android": "https://dc.lft.to/lastmile_qr_scan"}, "lon": -77.0502845, "type": "electric_scooter"}, {"bike_id": "1141cfea24ca1fa1c209fb25a1696894", "is_reserved": 0, "fusion_lon": 0.0, "lat": 38.922624666666664, "is_disabled": 0, "name": "1141cfea24ca1fa1c209fb25a1696894", "fusion_lat": 0.0, "rental_uris": {"ios": "https://dc.lft.to/lastmile_qr_scan", "android": "https://dc.lft.to/lastmile_qr_scan"}, "lon": -77.041379, "type": "electric_scooter"}, {"bike_id": "b47160c5c64b0f209a81678d52080232", "is_reserved": 0, "fusion_lon": 0.0, "lat": 38.90126733333334, "is_disabled": 0, "name": "b47160c5c64b0f209a81678d52080232", "fusion_lat": 0.0, "rental_uris": {"ios": "https://dc.lft.to/lastmile_qr_scan", "android": "https://dc.lft.to/lastmile_qr_scan"}, "lon": -77.0430625, "type": "electric_scooter"}, {"bike_id": "005fd47625a9d43698667f5e347f0724", "is_reserved": 0, "fusion_lon": 0.0, "lat": 38.895642333333335, "is_disabled": 0, "name": "005fd47625a9d43698667f5e347f0724", "fusion_lat": 0.0, "rental_uris": {"ios": "https://dc.lft.to/lastmile_qr_scan", "android": "https://dc.lft.to/lastmile_qr_scan"}, "lon": -77.12733216666666, "type": "electric_bike"}, {"bike_id": "4fdea96d78eeb67523963e63a3124925", "is_reserved": 0, "fusion_lon": 0.0, "lat": 38.89007333333333, "is_disabled": 0, "name": "4fdea96d78eeb67523963e63a3124925", "fusion_lat": 0.0, "rental_uris": {"ios": "https://dc.lft.to/lastmile_qr_scan", "android": "https://dc.lft.to/lastmile_qr_scan"}, "lon": -77.048945, "type": "electric_scooter"}, {"bike_id": "e49f4e6841ec5c1930873faa2c695fb9", "is_reserved": 0, "fusion_lon": 0.0, "lat": 38.90802733333334, "is_disabled": 0, "name": "e49f4e6841ec5c1930873faa2c695fb9", "fusion_lat": 0.0, "rental_uris": {"ios": "https://dc.lft.to/lastmile_qr_scan", "android": "https://dc.lft.to/lastmile_qr_scan"}, "lon": -77.04880016666667, "type": "electric_scooter"}, {"bike_id": "0e293c2943c9391f6354d343eca9cccf", "is_reserved": 0, "fusion_lon": 0.0, "lat": 38.902208333333334, "is_disabled": 0, "name": "0e293c2943c9391f6354d343eca9cccf", "fusion_lat": 0.0, "rental_uris": {"ios": "https://dc.lft.to/lastmile_qr_scan", "android": "https://dc.lft.to/lastmile_qr_scan"}, "lon": -76.950514, "type": "electric_bike"}, {"bike_id": "ea3f0838d548ab7ee26172399c10e2a6", "is_reserved": 0, "fusion_lon": 0.0, "lat": 38.916674666666665, "is_disabled": 0, "name": "ea3f0838d548ab7ee26172399c10e2a6", "fusion_lat": 0.0, "rental_uris": {"ios": "https://dc.lft.to/lastmile_qr_scan", "android": "https://dc.lft.to/lastmile_qr_scan"}, "lon": -77.02276916666666, "type": "electric_scooter"}, {"bike_id": "5c95fe317e105425f48a185c94006e8f", "is_reserved": 0, "fusion_lon": 0.0, "lat": 38.91270433333333, "is_disabled": 0, "name": "5c95fe317e105425f48a185c94006e8f", "fusion_lat": 0.0, "rental_uris": {"ios": "https://dc.lft.to/lastmile_qr_scan", "android": "https://dc.lft.to/lastmile_qr_scan"}, "lon": -77.031407, "type": "electric_scooter"}, {"bike_id": "da3910a27caf3e3b67e11e8a2a39eca6", "is_reserved": 0, "fusion_lon": 0.0, "lat": 38.9058725, "is_disabled": 0, "name": "da3910a27caf3e3b67e11e8a2a39eca6", "fusion_lat": 0.0, "rental_uris": {"ios": "https://dc.lft.to/lastmile_qr_scan", "android": "https://dc.lft.to/lastmile_qr_scan"}, "lon": -77.00298516666666, "type": "electric_scooter"}, {"bike_id": "04a945a1e5f6ed9a9ba5b7f580af4f28", "is_reserved": 0, "fusion_lon": 0.0, "lat": 38.921739333333335, "is_disabled": 0, "name": "04a945a1e5f6ed9a9ba5b7f580af4f28", "fusion_lat": 0.0, "rental_uris": {"ios": "https://dc.lft.to/lastmile_qr_scan", "android": "https://dc.lft.to/lastmile_qr_scan"}, "lon": -77.04350083333334, "type": "electric_scooter"}, {"bike_id": "daf434884af20ca782b6eaf5a83f18c9", "is_reserved": 0, "fusion_lon": 0.0, "lat": 38.954887166666666, "is_disabled": 0, "name": "daf434884af20ca782b6eaf5a83f18c9", "fusion_lat": 0.0, "rental_uris": {"ios": "https://dc.lft.to/lastmile_qr_scan", "android": "https://dc.lft.to/lastmile_qr_scan"}, "lon": -77.06563783333333, "type": "electric_scooter"}, {"bike_id": "1c8835d05f8b091ca9d1455c4382948e", "is_reserved": 0, "fusion_lon": 0.0, "lat": 38.884146666666666, "is_disabled": 0, "name": "1c8835d05f8b091ca9d1455c4382948e", "fusion_lat": 0.0, "rental_uris": {"ios": "https://dc.lft.to/lastmile_qr_scan", "android": "https://dc.lft.to/lastmile_qr_scan"}, "lon": -77.02591633333333, "type": "electric_scooter"}, {"bike_id": "0b7602a2edfb9d2ce39bb2a46ea63628", "is_reserved": 0, "fusion_lon": 0.0, "lat": 38.86656833333333, "is_disabled": 0, "name": "0b7602a2edfb9d2ce39bb2a46ea63628", "fusion_lat": 0.0, "rental_uris": {"ios": "https://dc.lft.to/lastmile_qr_scan", "android": "https://dc.lft.to/lastmile_qr_scan"}, "lon": -76.988823, "type": "electric_scooter"}, {"bike_id": "bfc80633dadd5e12e21cb3cf37cf9c56", "is_reserved": 0, "fusion_lon": 0.0, "lat": 38.8792295, "is_disabled": 0, "name": "bfc80633dadd5e12e21cb3cf37cf9c56", "fusion_lat": 0.0, "rental_uris": {"ios": "https://dc.lft.to/lastmile_qr_scan", "android": "https://dc.lft.to/lastmile_qr_scan"}, "lon": -77.0058625, "type": "electric_scooter"}, {"bike_id": "d1558e32cf3856850255eb7bbd824bbd", "is_reserved": 0, "fusion_lon": 0.0, "lat": 38.892232666666665, "is_disabled": 0, "name": "d1558e32cf3856850255eb7bbd824bbd", "fusion_lat": 0.0, "rental_uris": {"ios": "https://dc.lft.to/lastmile_qr_scan", "android": "https://dc.lft.to/lastmile_qr_scan"}, "lon": -77.031665, "type": "electric_scooter"}, {"bike_id": "2ae1bd92b5f701e46e1e5107932aa735", "is_reserved": 0, "fusion_lon": 0.0, "lat": 38.81251816666666, "is_disabled": 0, "name": "2ae1bd92b5f701e46e1e5107932aa735", "fusion_lat": 0.0, "rental_uris": {"ios": "https://dc.lft.to/lastmile_qr_scan", "android": "https://dc.lft.to/lastmile_qr_scan"}, "lon": -77.11760983333333, "type": "electric_bike"}, {"bike_id": "bcd9c11c70ba3efb8ed14ddee546b251", "is_reserved": 0, "fusion_lon": 0.0, "lat": 38.8654155, "is_disabled": 0, "name": "bcd9c11c70ba3efb8ed14ddee546b251", "fusion_lat": 0.0, "rental_uris": {"ios": "https://dc.lft.to/lastmile_qr_scan", "android": "https://dc.lft.to/lastmile_qr_scan"}, "lon": -76.98708166666667, "type": "electric_scooter"}, {"bike_id": "07af9f2ab84bb2afc227f5ff0a7b5018", "is_reserved": 0, "fusion_lon": 0.0, "lat": 38.89961, "is_disabled": 0, "name": "07af9f2ab84bb2afc227f5ff0a7b5018", "fusion_lat": 0.0, "rental_uris": {"ios": "https://dc.lft.to/lastmile_qr_scan", "android": "https://dc.lft.to/lastmile_qr_scan"}, "lon": -77.0218755, "type": "electric_scooter"}, {"bike_id": "e1b99b0ad59d1ddfd3fc17f6cd715f41", "is_reserved": 0, "fusion_lon": 0.0, "lat": 38.90399083333333, "is_disabled": 0, "name": "e1b99b0ad59d1ddfd3fc17f6cd715f41", "fusion_lat": 0.0, "rental_uris": {"ios": "https://dc.lft.to/lastmile_qr_scan", "android": "https://dc.lft.to/lastmile_qr_scan"}, "lon": -77.04326133333333, "type": "electric_scooter"}, {"bike_id": "4114bb06ff0ab4925d6d6e7b6feaff05", "is_reserved": 0, "fusion_lon": 0.0, "lat": 38.922983, "is_disabled": 0, "name": "4114bb06ff0ab4925d6d6e7b6feaff05", "fusion_lat": 0.0, "rental_uris": {"ios": "https://dc.lft.to/lastmile_qr_scan", "android": "https://dc.lft.to/lastmile_qr_scan"}, "lon": -77.0414765, "type": "electric_scooter"}, {"bike_id": "721ccec3da2c3358b5ba3cd7c4d882ad", "is_reserved": 0, "fusion_lon": 0.0, "lat": 38.90802633333333, "is_disabled": 0, "name": "721ccec3da2c3358b5ba3cd7c4d882ad", "fusion_lat": 0.0, "rental_uris": {"ios": "https://dc.lft.to/lastmile_qr_scan", "android": "https://dc.lft.to/lastmile_qr_scan"}, "lon": -77.03177383333333, "type": "electric_scooter"}, {"bike_id": "03ddbc1a124ddb487efd64933f5fd059", "is_reserved": 0, "fusion_lon": 0.0, "lat": 38.90327816666667, "is_disabled": 0, "name": "03ddbc1a124ddb487efd64933f5fd059", "fusion_lat": 0.0, "rental_uris": {"ios": "https://dc.lft.to/lastmile_qr_scan", "android": "https://dc.lft.to/lastmile_qr_scan"}, "lon": -77.0438075, "type": "electric_scooter"}, {"bike_id": "cb9f92f2178d0982899561292e1285ce", "is_reserved": 0, "fusion_lon": 0.0, "lat": 38.9055465, "is_disabled": 0, "name": "cb9f92f2178d0982899561292e1285ce", "fusion_lat": 0.0, "rental_uris": {"ios": "https://dc.lft.to/lastmile_qr_scan", "android": "https://dc.lft.to/lastmile_qr_scan"}, "lon": -77.03973566666667, "type": "electric_scooter"}, {"bike_id": "695839cb654994973ae04173580bf1ca", "is_reserved": 0, "fusion_lon": 0.0, "lat": 38.91267416666667, "is_disabled": 0, "name": "695839cb654994973ae04173580bf1ca", "fusion_lat": 0.0, "rental_uris": {"ios": "https://dc.lft.to/lastmile_qr_scan", "android": "https://dc.lft.to/lastmile_qr_scan"}, "lon": -77.00271583333334, "type": "electric_scooter"}, {"bike_id": "1af47d96ae6b38e341d2b5ac38becb43", "is_reserved": 0, "fusion_lon": 0.0, "lat": 38.92236333333334, "is_disabled": 0, "name": "1af47d96ae6b38e341d2b5ac38becb43", "fusion_lat": 0.0, "rental_uris": {"ios": "https://dc.lft.to/lastmile_qr_scan", "android": "https://dc.lft.to/lastmile_qr_scan"}, "lon": -77.02714866666666, "type": "electric_scooter"}, {"bike_id": "4255bbd5cd5909c0b25932deebb823b6", "is_reserved": 0, "fusion_lon": 0.0, "lat": 38.936077166666664, "is_disabled": 0, "name": "4255bbd5cd5909c0b25932deebb823b6", "fusion_lat": 0.0, "rental_uris": {"ios": "https://dc.lft.to/lastmile_qr_scan", "android": "https://dc.lft.to/lastmile_qr_scan"}, "lon": -77.058642, "type": "electric_scooter"}, {"bike_id": "5486d3788eb801d2a8cfcbb0ca5d91f3", "is_reserved": 0, "fusion_lon": 0.0, "lat": 38.8841075, "is_disabled": 0, "name": "5486d3788eb801d2a8cfcbb0ca5d91f3", "fusion_lat": 0.0, "rental_uris": {"ios": "https://dc.lft.to/lastmile_qr_scan", "android": "https://dc.lft.to/lastmile_qr_scan"}, "lon": -77.0152165, "type": "electric_scooter"}, {"bike_id": "c7a8be6097f4c152e9e3ff377b395b56", "is_reserved": 0, "fusion_lon": 0.0, "lat": 38.89218266666666, "is_disabled": 0, "name": "c7a8be6097f4c152e9e3ff377b395b56", "fusion_lat": 0.0, "rental_uris": {"ios": "https://dc.lft.to/lastmile_qr_scan", "android": "https://dc.lft.to/lastmile_qr_scan"}, "lon": -77.02605833333334, "type": "electric_scooter"}, {"bike_id": "6137c93b176984cb9c55ad4486533ee2", "is_reserved": 0, "fusion_lon": 0.0, "lat": 38.9907665, "is_disabled": 0, "name": "6137c93b176984cb9c55ad4486533ee2", "fusion_lat": 0.0, "rental_uris": {"ios": "https://dc.lft.to/lastmile_qr_scan", "android": "https://dc.lft.to/lastmile_qr_scan"}, "lon": -76.87468633333333, "type": "electric_bike"}, {"bike_id": "b92fab7dd3c94cbe457df10c010fd3da", "is_reserved": 0, "fusion_lon": 0.0, "lat": 38.8287515, "is_disabled": 0, "name": "b92fab7dd3c94cbe457df10c010fd3da", "fusion_lat": 0.0, "rental_uris": {"ios": "https://dc.lft.to/lastmile_qr_scan", "android": "https://dc.lft.to/lastmile_qr_scan"}, "lon": -77.11221633333334, "type": "electric_bike"}, {"bike_id": "f1b3ed9090c75c8292e4af750e1a2675", "is_reserved": 0, "fusion_lon": 0.0, "lat": 38.902686, "is_disabled": 0, "name": "f1b3ed9090c75c8292e4af750e1a2675", "fusion_lat": 0.0, "rental_uris": {"ios": "https://dc.lft.to/lastmile_qr_scan", "android": "https://dc.lft.to/lastmile_qr_scan"}, "lon": -77.0264575, "type": "electric_scooter"}, {"bike_id": "c848f331ce4724016a6714a4c3bf6955", "is_reserved": 0, "fusion_lon": 0.0, "lat": 38.9176575, "is_disabled": 0, "name": "c848f331ce4724016a6714a4c3bf6955", "fusion_lat": 0.0, "rental_uris": {"ios": "https://dc.lft.to/lastmile_qr_scan", "android": "https://dc.lft.to/lastmile_qr_scan"}, "lon": -77.0219995, "type": "electric_scooter"}, {"bike_id": "250975c1e81b3e400cc097fead298997", "is_reserved": 0, "fusion_lon": 0.0, "lat": 39.05201316666667, "is_disabled": 0, "name": "250975c1e81b3e400cc097fead298997", "fusion_lat": 0.0, "rental_uris": {"ios": "https://dc.lft.to/lastmile_qr_scan", "android": "https://dc.lft.to/lastmile_qr_scan"}, "lon": -77.10922516666666, "type": "electric_bike"}, {"bike_id": "7dfd1a88ec24ad88412685e1bcfbaa44", "is_reserved": 0, "fusion_lon": 0.0, "lat": 38.91553233333333, "is_disabled": 0, "name": "7dfd1a88ec24ad88412685e1bcfbaa44", "fusion_lat": 0.0, "rental_uris": {"ios": "https://dc.lft.to/lastmile_qr_scan", "android": "https://dc.lft.to/lastmile_qr_scan"}, "lon": -77.03932816666666, "type": "electric_scooter"}, {"bike_id": "cd76b542a77b638ddf336251c0ce58f1", "is_reserved": 0, "fusion_lon": 0.0, "lat": 38.93424683333333, "is_disabled": 0, "name": "cd76b542a77b638ddf336251c0ce58f1", "fusion_lat": 0.0, "rental_uris": {"ios": "https://dc.lft.to/lastmile_qr_scan", "android": "https://dc.lft.to/lastmile_qr_scan"}, "lon": -77.04318116666667, "type": "electric_scooter"}, {"bike_id": "4ed003168de54b73f74db4fc6e413a3b", "is_reserved": 0, "fusion_lon": 0.0, "lat": 38.88210683333333, "is_disabled": 0, "name": "4ed003168de54b73f74db4fc6e413a3b", "fusion_lat": 0.0, "rental_uris": {"ios": "https://dc.lft.to/lastmile_qr_scan", "android": "https://dc.lft.to/lastmile_qr_scan"}, "lon": -76.9269755, "type": "electric_scooter"}, {"bike_id": "51a3fce12c6de5ec1578589cf6d3fa40", "is_reserved": 0, "fusion_lon": 0.0, "lat": 38.90857333333334, "is_disabled": 0, "name": "51a3fce12c6de5ec1578589cf6d3fa40", "fusion_lat": 0.0, "rental_uris": {"ios": "https://dc.lft.to/lastmile_qr_scan", "android": "https://dc.lft.to/lastmile_qr_scan"}, "lon": -77.0118885, "type": "electric_scooter"}, {"bike_id": "db5e344a1ea900ea89462585e264d47c", "is_reserved": 0, "fusion_lon": 0.0, "lat": 38.927528, "is_disabled": 0, "name": "db5e344a1ea900ea89462585e264d47c", "fusion_lat": 0.0, "rental_uris": {"ios": "https://dc.lft.to/lastmile_qr_scan", "android": "https://dc.lft.to/lastmile_qr_scan"}, "lon": -77.03272983333333, "type": "electric_scooter"}, {"bike_id": "fd34157f9209b19b3f9844ceae412812", "is_reserved": 0, "fusion_lon": 0.0, "lat": 38.89610916666667, "is_disabled": 0, "name": "fd34157f9209b19b3f9844ceae412812", "fusion_lat": 0.0, "rental_uris": {"ios": "https://dc.lft.to/lastmile_qr_scan", "android": "https://dc.lft.to/lastmile_qr_scan"}, "lon": -77.00928083333334, "type": "electric_scooter"}, {"bike_id": "7464951018623c83895b850648c8e704", "is_reserved": 0, "fusion_lon": 0.0, "lat": 38.922133333333335, "is_disabled": 0, "name": "7464951018623c83895b850648c8e704", "fusion_lat": 0.0, "rental_uris": {"ios": "https://dc.lft.to/lastmile_qr_scan", "android": "https://dc.lft.to/lastmile_qr_scan"}, "lon": -77.036586, "type": "electric_scooter"}, {"bike_id": "1ed90e55caca331b24963e717d117307", "is_reserved": 0, "fusion_lon": 0.0, "lat": 38.90135983333333, "is_disabled": 0, "name": "1ed90e55caca331b24963e717d117307", "fusion_lat": 0.0, "rental_uris": {"ios": "https://dc.lft.to/lastmile_qr_scan", "android": "https://dc.lft.to/lastmile_qr_scan"}, "lon": -77.04230083333333, "type": "electric_scooter"}, {"bike_id": "7704098c6d479a96c79922f2c9574a20", "is_reserved": 0, "fusion_lon": 0.0, "lat": 38.89835883333333, "is_disabled": 0, "name": "7704098c6d479a96c79922f2c9574a20", "fusion_lat": 0.0, "rental_uris": {"ios": "https://dc.lft.to/lastmile_qr_scan", "android": "https://dc.lft.to/lastmile_qr_scan"}, "lon": -76.94635583333333, "type": "electric_scooter"}, {"bike_id": "063c52e0979765534f2a7fbdf8d7253e", "is_reserved": 0, "fusion_lon": 0.0, "lat": 38.93346866666667, "is_disabled": 0, "name": "063c52e0979765534f2a7fbdf8d7253e", "fusion_lat": 0.0, "rental_uris": {"ios": "https://dc.lft.to/lastmile_qr_scan", "android": "https://dc.lft.to/lastmile_qr_scan"}, "lon": -77.05865483333334, "type": "electric_scooter"}, {"bike_id": "17cd8a00ed58ee9e7c2f59645955b21f", "is_reserved": 0, "fusion_lon": 0.0, "lat": 38.90456916666667, "is_disabled": 0, "name": "17cd8a00ed58ee9e7c2f59645955b21f", "fusion_lat": 0.0, "rental_uris": {"ios": "https://dc.lft.to/lastmile_qr_scan", "android": "https://dc.lft.to/lastmile_qr_scan"}, "lon": -77.0403195, "type": "electric_scooter"}, {"bike_id": "f0af363f2c7134a07429fd3e33373cb7", "is_reserved": 0, "fusion_lon": 0.0, "lat": 38.926541666666665, "is_disabled": 0, "name": "f0af363f2c7134a07429fd3e33373cb7", "fusion_lat": 0.0, "rental_uris": {"ios": "https://dc.lft.to/lastmile_qr_scan", "android": "https://dc.lft.to/lastmile_qr_scan"}, "lon": -77.03713933333333, "type": "electric_scooter"}, {"bike_id": "8ffa67f5595d00fb711f7c39eca25ea0", "is_reserved": 0, "fusion_lon": 0.0, "lat": 38.90141216666667, "is_disabled": 0, "name": "8ffa67f5595d00fb711f7c39eca25ea0", "fusion_lat": 0.0, "rental_uris": {"ios": "https://dc.lft.to/lastmile_qr_scan", "android": "https://dc.lft.to/lastmile_qr_scan"}, "lon": -77.0448885, "type": "electric_scooter"}, {"bike_id": "d50aeb43342c9e864615daa0311282b0", "is_reserved": 0, "fusion_lon": 0.0, "lat": 38.9052285, "is_disabled": 0, "name": "d50aeb43342c9e864615daa0311282b0", "fusion_lat": 0.0, "rental_uris": {"ios": "https://dc.lft.to/lastmile_qr_scan", "android": "https://dc.lft.to/lastmile_qr_scan"}, "lon": -77.04158566666666, "type": "electric_scooter"}, {"bike_id": "414ce7cddb71c7427cc03486643bef75", "is_reserved": 0, "fusion_lon": 0.0, "lat": 38.898283, "is_disabled": 0, "name": "414ce7cddb71c7427cc03486643bef75", "fusion_lat": 0.0, "rental_uris": {"ios": "https://dc.lft.to/lastmile_qr_scan", "android": "https://dc.lft.to/lastmile_qr_scan"}, "lon": -77.03344833333334, "type": "electric_scooter"}, {"bike_id": "23869bb809651cb40d3bfbd7232f88a0", "is_reserved": 0, "fusion_lon": 0.0, "lat": 38.92635716666667, "is_disabled": 0, "name": "23869bb809651cb40d3bfbd7232f88a0", "fusion_lat": 0.0, "rental_uris": {"ios": "https://dc.lft.to/lastmile_qr_scan", "android": "https://dc.lft.to/lastmile_qr_scan"}, "lon": -77.03506066666667, "type": "electric_scooter"}, {"bike_id": "1dbf0ca755919d75ca8d9d6d716fd799", "is_reserved": 0, "fusion_lon": 0.0, "lat": 38.944362, "is_disabled": 0, "name": "1dbf0ca755919d75ca8d9d6d716fd799", "fusion_lat": 0.0, "rental_uris": {"ios": "https://dc.lft.to/lastmile_qr_scan", "android": "https://dc.lft.to/lastmile_qr_scan"}, "lon": -77.06350866666666, "type": "electric_scooter"}, {"bike_id": "fc85f39fc7f6865f8aed395ff966f789", "is_reserved": 0, "fusion_lon": 0.0, "lat": 38.913354, "is_disabled": 0, "name": "fc85f39fc7f6865f8aed395ff966f789", "fusion_lat": 0.0, "rental_uris": {"ios": "https://dc.lft.to/lastmile_qr_scan", "android": "https://dc.lft.to/lastmile_qr_scan"}, "lon": -77.04812333333334, "type": "electric_scooter"}, {"bike_id": "1eb79a37e74d3eefe87fad0f9526684b", "is_reserved": 0, "fusion_lon": 0.0, "lat": 38.8792395, "is_disabled": 0, "name": "1eb79a37e74d3eefe87fad0f9526684b", "fusion_lat": 0.0, "rental_uris": {"ios": "https://dc.lft.to/lastmile_qr_scan", "android": "https://dc.lft.to/lastmile_qr_scan"}, "lon": -76.992535, "type": "electric_scooter"}, {"bike_id": "c895ef42fbd723dc5ba73506f3350558", "is_reserved": 0, "fusion_lon": 0.0, "lat": 38.923163, "is_disabled": 0, "name": "c895ef42fbd723dc5ba73506f3350558", "fusion_lat": 0.0, "rental_uris": {"ios": "https://dc.lft.to/lastmile_qr_scan", "android": "https://dc.lft.to/lastmile_qr_scan"}, "lon": -77.041228, "type": "electric_scooter"}, {"bike_id": "87ba905de43a969ee78e017c665692a6", "is_reserved": 0, "fusion_lon": 0.0, "lat": 38.92469833333333, "is_disabled": 0, "name": "87ba905de43a969ee78e017c665692a6", "fusion_lat": 0.0, "rental_uris": {"ios": "https://dc.lft.to/lastmile_qr_scan", "android": "https://dc.lft.to/lastmile_qr_scan"}, "lon": -77.02712733333334, "type": "electric_scooter"}, {"bike_id": "6581ef9049a1b903e4d87e345ff7405c", "is_reserved": 0, "fusion_lon": 0.0, "lat": 38.90768416666667, "is_disabled": 0, "name": "6581ef9049a1b903e4d87e345ff7405c", "fusion_lat": 0.0, "rental_uris": {"ios": "https://dc.lft.to/lastmile_qr_scan", "android": "https://dc.lft.to/lastmile_qr_scan"}, "lon": -77.03838683333333, "type": "electric_scooter"}, {"bike_id": "f05bba4eaa231b442b1f3adfb3a1a48e", "is_reserved": 0, "fusion_lon": 0.0, "lat": 38.900495166666666, "is_disabled": 0, "name": "f05bba4eaa231b442b1f3adfb3a1a48e", "fusion_lat": 0.0, "rental_uris": {"ios": "https://dc.lft.to/lastmile_qr_scan", "android": "https://dc.lft.to/lastmile_qr_scan"}, "lon": -77.0023575, "type": "electric_scooter"}, {"bike_id": "b4fde18a9edc069453358aff170749f2", "is_reserved": 0, "fusion_lon": 0.0, "lat": 38.8849845, "is_disabled": 0, "name": "b4fde18a9edc069453358aff170749f2", "fusion_lat": 0.0, "rental_uris": {"ios": "https://dc.lft.to/lastmile_qr_scan", "android": "https://dc.lft.to/lastmile_qr_scan"}, "lon": -77.00728016666666, "type": "electric_scooter"}, {"bike_id": "9cc30281c015ea13c2241494c8ea30dc", "is_reserved": 0, "fusion_lon": 0.0, "lat": 38.91952333333333, "is_disabled": 0, "name": "9cc30281c015ea13c2241494c8ea30dc", "fusion_lat": 0.0, "rental_uris": {"ios": "https://dc.lft.to/lastmile_qr_scan", "android": "https://dc.lft.to/lastmile_qr_scan"}, "lon": -77.0248855, "type": "electric_scooter"}, {"bike_id": "65142fe59d4dcbd386d6dee1135f18b8", "is_reserved": 0, "fusion_lon": 0.0, "lat": 38.89705633333333, "is_disabled": 0, "name": "65142fe59d4dcbd386d6dee1135f18b8", "fusion_lat": 0.0, "rental_uris": {"ios": "https://dc.lft.to/lastmile_qr_scan", "android": "https://dc.lft.to/lastmile_qr_scan"}, "lon": -77.027141, "type": "electric_scooter"}, {"bike_id": "6713f543e7cc44aa1454c56b5cc59667", "is_reserved": 0, "fusion_lon": 0.0, "lat": 38.9026915, "is_disabled": 0, "name": "6713f543e7cc44aa1454c56b5cc59667", "fusion_lat": 0.0, "rental_uris": {"ios": "https://dc.lft.to/lastmile_qr_scan", "android": "https://dc.lft.to/lastmile_qr_scan"}, "lon": -77.033522, "type": "electric_scooter"}, {"bike_id": "00351d3577ff2f7333835995fb2f9c9f", "is_reserved": 0, "fusion_lon": 0.0, "lat": 38.895511166666665, "is_disabled": 0, "name": "00351d3577ff2f7333835995fb2f9c9f", "fusion_lat": 0.0, "rental_uris": {"ios": "https://dc.lft.to/lastmile_qr_scan", "android": "https://dc.lft.to/lastmile_qr_scan"}, "lon": -77.01891816666667, "type": "electric_scooter"}, {"bike_id": "7629026b19ed1d6003251244b400d383", "is_reserved": 0, "fusion_lon": 0.0, "lat": 38.90245683333333, "is_disabled": 0, "name": "7629026b19ed1d6003251244b400d383", "fusion_lat": 0.0, "rental_uris": {"ios": "https://dc.lft.to/lastmile_qr_scan", "android": "https://dc.lft.to/lastmile_qr_scan"}, "lon": -77.02694616666666, "type": "electric_scooter"}, {"bike_id": "07b7ed5a051af5464fdcf76e08c5fde5", "is_reserved": 0, "fusion_lon": 0.0, "lat": 38.896306333333335, "is_disabled": 0, "name": "07b7ed5a051af5464fdcf76e08c5fde5", "fusion_lat": 0.0, "rental_uris": {"ios": "https://dc.lft.to/lastmile_qr_scan", "android": "https://dc.lft.to/lastmile_qr_scan"}, "lon": -76.98499033333333, "type": "electric_scooter"}, {"bike_id": "231ff9ac4922b8c0175c2e8a2cd527f2", "is_reserved": 0, "fusion_lon": 0.0, "lat": 38.911978, "is_disabled": 0, "name": "231ff9ac4922b8c0175c2e8a2cd527f2", "fusion_lat": 0.0, "rental_uris": {"ios": "https://dc.lft.to/lastmile_qr_scan", "android": "https://dc.lft.to/lastmile_qr_scan"}, "lon": -77.0609605, "type": "electric_scooter"}, {"bike_id": "3500cfc008600cba1087626fb9e05c88", "is_reserved": 0, "fusion_lon": 0.0, "lat": 38.84426633333333, "is_disabled": 0, "name": "3500cfc008600cba1087626fb9e05c88", "fusion_lat": 0.0, "rental_uris": {"ios": "https://dc.lft.to/lastmile_qr_scan", "android": "https://dc.lft.to/lastmile_qr_scan"}, "lon": -76.99782183333333, "type": "electric_scooter"}, {"bike_id": "24681aec29c3ced251aaac724c74d35f", "is_reserved": 0, "fusion_lon": 0.0, "lat": 38.9038485, "is_disabled": 0, "name": "24681aec29c3ced251aaac724c74d35f", "fusion_lat": 0.0, "rental_uris": {"ios": "https://dc.lft.to/lastmile_qr_scan", "android": "https://dc.lft.to/lastmile_qr_scan"}, "lon": -77.0421085, "type": "electric_scooter"}, {"bike_id": "ae132baab1598aa005b170c310602c6e", "is_reserved": 0, "fusion_lon": 0.0, "lat": 38.9038545, "is_disabled": 0, "name": "ae132baab1598aa005b170c310602c6e", "fusion_lat": 0.0, "rental_uris": {"ios": "https://dc.lft.to/lastmile_qr_scan", "android": "https://dc.lft.to/lastmile_qr_scan"}, "lon": -77.04383466666667, "type": "electric_scooter"}, {"bike_id": "604f23d114a37792b37812376f8a16b0", "is_reserved": 0, "fusion_lon": 0.0, "lat": 38.928540166666664, "is_disabled": 0, "name": "604f23d114a37792b37812376f8a16b0", "fusion_lat": 0.0, "rental_uris": {"ios": "https://dc.lft.to/lastmile_qr_scan", "android": "https://dc.lft.to/lastmile_qr_scan"}, "lon": -77.01348066666667, "type": "electric_scooter"}, {"bike_id": "98f26c466c0da39adf987562dfb821d1", "is_reserved": 0, "fusion_lon": 0.0, "lat": 38.90467366666667, "is_disabled": 0, "name": "98f26c466c0da39adf987562dfb821d1", "fusion_lat": 0.0, "rental_uris": {"ios": "https://dc.lft.to/lastmile_qr_scan", "android": "https://dc.lft.to/lastmile_qr_scan"}, "lon": -77.03945333333333, "type": "electric_scooter"}, {"bike_id": "c9bab7735d47eb85df8c44b10fd12c2c", "is_reserved": 0, "fusion_lon": 0.0, "lat": 38.95957466666667, "is_disabled": 0, "name": "c9bab7735d47eb85df8c44b10fd12c2c", "fusion_lat": 0.0, "rental_uris": {"ios": "https://dc.lft.to/lastmile_qr_scan", "android": "https://dc.lft.to/lastmile_qr_scan"}, "lon": -77.10090483333333, "type": "electric_bike"}, {"bike_id": "117e9cbe138bd708f634dc14efc35c86", "is_reserved": 0, "fusion_lon": 0.0, "lat": 38.87184416666667, "is_disabled": 0, "name": "117e9cbe138bd708f634dc14efc35c86", "fusion_lat": 0.0, "rental_uris": {"ios": "https://dc.lft.to/lastmile_qr_scan", "android": "https://dc.lft.to/lastmile_qr_scan"}, "lon": -77.00609466666667, "type": "electric_scooter"}, {"bike_id": "c9ff31e2a210110cebf9c55a3a9af8a2", "is_reserved": 0, "fusion_lon": 0.0, "lat": 38.897881, "is_disabled": 0, "name": "c9ff31e2a210110cebf9c55a3a9af8a2", "fusion_lat": 0.0, "rental_uris": {"ios": "https://dc.lft.to/lastmile_qr_scan", "android": "https://dc.lft.to/lastmile_qr_scan"}, "lon": -76.99957733333333, "type": "electric_bike"}, {"bike_id": "0d4b33f5767889b2fef0d1fc5203944f", "is_reserved": 0, "fusion_lon": 0.0, "lat": 38.8962645, "is_disabled": 0, "name": "0d4b33f5767889b2fef0d1fc5203944f", "fusion_lat": 0.0, "rental_uris": {"ios": "https://dc.lft.to/lastmile_qr_scan", "android": "https://dc.lft.to/lastmile_qr_scan"}, "lon": -76.99852283333334, "type": "electric_scooter"}, {"bike_id": "55943476c546bc843d16e4474d4532c4", "is_reserved": 0, "fusion_lon": 0.0, "lat": 38.917092, "is_disabled": 0, "name": "55943476c546bc843d16e4474d4532c4", "fusion_lat": 0.0, "rental_uris": {"ios": "https://dc.lft.to/lastmile_qr_scan", "android": "https://dc.lft.to/lastmile_qr_scan"}, "lon": -77.0323775, "type": "electric_scooter"}, {"bike_id": "c2a12ef86cf7251fda3fcea6187c2408", "is_reserved": 0, "fusion_lon": 0.0, "lat": 38.895536, "is_disabled": 0, "name": "c2a12ef86cf7251fda3fcea6187c2408", "fusion_lat": 0.0, "rental_uris": {"ios": "https://dc.lft.to/lastmile_qr_scan", "android": "https://dc.lft.to/lastmile_qr_scan"}, "lon": -77.01105816666667, "type": "electric_scooter"}, {"bike_id": "138666867c449bf83adcf054d798e5ed", "is_reserved": 0, "fusion_lon": 0.0, "lat": 38.906398333333335, "is_disabled": 0, "name": "138666867c449bf83adcf054d798e5ed", "fusion_lat": 0.0, "rental_uris": {"ios": "https://dc.lft.to/lastmile_qr_scan", "android": "https://dc.lft.to/lastmile_qr_scan"}, "lon": -77.0463665, "type": "electric_scooter"}, {"bike_id": "96c0cc5b43bf3d5997b5797a941ff72b", "is_reserved": 0, "fusion_lon": 0.0, "lat": 38.9237145, "is_disabled": 0, "name": "96c0cc5b43bf3d5997b5797a941ff72b", "fusion_lat": 0.0, "rental_uris": {"ios": "https://dc.lft.to/lastmile_qr_scan", "android": "https://dc.lft.to/lastmile_qr_scan"}, "lon": -77.0411665, "type": "electric_scooter"}, {"bike_id": "50d07fe65e7c549b7cc7278e98b74a26", "is_reserved": 0, "fusion_lon": 0.0, "lat": 39.05635316666667, "is_disabled": 0, "name": "50d07fe65e7c549b7cc7278e98b74a26", "fusion_lat": 0.0, "rental_uris": {"ios": "https://dc.lft.to/lastmile_qr_scan", "android": "https://dc.lft.to/lastmile_qr_scan"}, "lon": -77.1252925, "type": "electric_bike"}, {"bike_id": "debc21c68e624fbbbca6b6380f3d5b2c", "is_reserved": 0, "fusion_lon": 0.0, "lat": 38.89232166666667, "is_disabled": 0, "name": "debc21c68e624fbbbca6b6380f3d5b2c", "fusion_lat": 0.0, "rental_uris": {"ios": "https://dc.lft.to/lastmile_qr_scan", "android": "https://dc.lft.to/lastmile_qr_scan"}, "lon": -77.02177816666666, "type": "electric_scooter"}, {"bike_id": "48cb5059f0f638d4842b49d265b2e62d", "is_reserved": 0, "fusion_lon": 0.0, "lat": 38.885152833333336, "is_disabled": 0, "name": "48cb5059f0f638d4842b49d265b2e62d", "fusion_lat": 0.0, "rental_uris": {"ios": "https://dc.lft.to/lastmile_qr_scan", "android": "https://dc.lft.to/lastmile_qr_scan"}, "lon": -77.00571183333334, "type": "electric_scooter"}, {"bike_id": "f39614f97e02d95cacb3049f337b1fc7", "is_reserved": 0, "fusion_lon": 0.0, "lat": 38.91869633333334, "is_disabled": 0, "name": "f39614f97e02d95cacb3049f337b1fc7", "fusion_lat": 0.0, "rental_uris": {"ios": "https://dc.lft.to/lastmile_qr_scan", "android": "https://dc.lft.to/lastmile_qr_scan"}, "lon": -77.04371566666667, "type": "electric_scooter"}, {"bike_id": "203d7703ba5320b85b00f593efe83d8f", "is_reserved": 0, "fusion_lon": 0.0, "lat": 38.882056, "is_disabled": 0, "name": "203d7703ba5320b85b00f593efe83d8f", "fusion_lat": 0.0, "rental_uris": {"ios": "https://dc.lft.to/lastmile_qr_scan", "android": "https://dc.lft.to/lastmile_qr_scan"}, "lon": -77.00607766666667, "type": "electric_scooter"}, {"bike_id": "878221a558daec5a9dff90c553a288ef", "is_reserved": 0, "fusion_lon": 0.0, "lat": 38.936016, "is_disabled": 0, "name": "878221a558daec5a9dff90c553a288ef", "fusion_lat": 0.0, "rental_uris": {"ios": "https://dc.lft.to/lastmile_qr_scan", "android": "https://dc.lft.to/lastmile_qr_scan"}, "lon": -77.05592816666666, "type": "electric_scooter"}, {"bike_id": "1d2571ae7cd077a742d48b72fcd6dc40", "is_reserved": 0, "fusion_lon": 0.0, "lat": 38.9015285, "is_disabled": 0, "name": "1d2571ae7cd077a742d48b72fcd6dc40", "fusion_lat": 0.0, "rental_uris": {"ios": "https://dc.lft.to/lastmile_qr_scan", "android": "https://dc.lft.to/lastmile_qr_scan"}, "lon": -77.03976966666667, "type": "electric_scooter"}, {"bike_id": "2c0ed0daaa0c4a93130556b3cd12e50f", "is_reserved": 0, "fusion_lon": 0.0, "lat": 38.92100083333333, "is_disabled": 0, "name": "2c0ed0daaa0c4a93130556b3cd12e50f", "fusion_lat": 0.0, "rental_uris": {"ios": "https://dc.lft.to/lastmile_qr_scan", "android": "https://dc.lft.to/lastmile_qr_scan"}, "lon": -77.02515716666667, "type": "electric_scooter"}, {"bike_id": "5be4c9961797c41e8ca69435305a8ec4", "is_reserved": 0, "fusion_lon": 0.0, "lat": 38.892014833333334, "is_disabled": 0, "name": "5be4c9961797c41e8ca69435305a8ec4", "fusion_lat": 0.0, "rental_uris": {"ios": "https://dc.lft.to/lastmile_qr_scan", "android": "https://dc.lft.to/lastmile_qr_scan"}, "lon": -77.02380633333334, "type": "electric_scooter"}, {"bike_id": "8d50c752c9d377ee9ba62354b1776e1c", "is_reserved": 0, "fusion_lon": 0.0, "lat": 38.898376999999996, "is_disabled": 0, "name": "8d50c752c9d377ee9ba62354b1776e1c", "fusion_lat": 0.0, "rental_uris": {"ios": "https://dc.lft.to/lastmile_qr_scan", "android": "https://dc.lft.to/lastmile_qr_scan"}, "lon": -77.04357183333333, "type": "electric_scooter"}, {"bike_id": "4f52ea86e35c42faefa0f48228405792", "is_reserved": 0, "fusion_lon": 0.0, "lat": 38.94068166666667, "is_disabled": 0, "name": "4f52ea86e35c42faefa0f48228405792", "fusion_lat": 0.0, "rental_uris": {"ios": "https://dc.lft.to/lastmile_qr_scan", "android": "https://dc.lft.to/lastmile_qr_scan"}, "lon": -76.99459633333333, "type": "electric_scooter"}, {"bike_id": "18af0efe17006a73be3e23dc6d617bfe", "is_reserved": 0, "fusion_lon": 0.0, "lat": 38.92230033333333, "is_disabled": 0, "name": "18af0efe17006a73be3e23dc6d617bfe", "fusion_lat": 0.0, "rental_uris": {"ios": "https://dc.lft.to/lastmile_qr_scan", "android": "https://dc.lft.to/lastmile_qr_scan"}, "lon": -77.03331316666667, "type": "electric_scooter"}, {"bike_id": "27692de185fdc56517d609b76c2f2b15", "is_reserved": 0, "fusion_lon": 0.0, "lat": 38.903482833333335, "is_disabled": 0, "name": "27692de185fdc56517d609b76c2f2b15", "fusion_lat": 0.0, "rental_uris": {"ios": "https://dc.lft.to/lastmile_qr_scan", "android": "https://dc.lft.to/lastmile_qr_scan"}, "lon": -77.0377435, "type": "electric_scooter"}, {"bike_id": "492f9a55e89948238fd3fe8ecaafa333", "is_reserved": 0, "fusion_lon": 0.0, "lat": 38.9096515, "is_disabled": 0, "name": "492f9a55e89948238fd3fe8ecaafa333", "fusion_lat": 0.0, "rental_uris": {"ios": "https://dc.lft.to/lastmile_qr_scan", "android": "https://dc.lft.to/lastmile_qr_scan"}, "lon": -77.031642, "type": "electric_scooter"}, {"bike_id": "a2c237f9615f716fc28066e0e877dc6c", "is_reserved": 0, "fusion_lon": 0.0, "lat": 38.90863366666667, "is_disabled": 0, "name": "a2c237f9615f716fc28066e0e877dc6c", "fusion_lat": 0.0, "rental_uris": {"ios": "https://dc.lft.to/lastmile_qr_scan", "android": "https://dc.lft.to/lastmile_qr_scan"}, "lon": -76.940081, "type": "electric_bike"}, {"bike_id": "6c343aea1f7b4c8ceffad16a87c69184", "is_reserved": 0, "fusion_lon": 0.0, "lat": 38.905725, "is_disabled": 0, "name": "6c343aea1f7b4c8ceffad16a87c69184", "fusion_lat": 0.0, "rental_uris": {"ios": "https://dc.lft.to/lastmile_qr_scan", "android": "https://dc.lft.to/lastmile_qr_scan"}, "lon": -77.03821633333334, "type": "electric_scooter"},