{"data": {"bikes": [{"rental_uris": {"ios": "https://dc.lft.to/lastmile_qr_scan", "android": "https://dc.lft.to/lastmile_qr_scan"}, "type": "electric_scooter", "name": "2c4c73ae834630e761d3c577b83ca925", "is_reserved": 0, "lon": -77.03069833333333, "is_disabled": 0, "fusion_lat": 0.0, "lat": 38.92248716666667, "bike_id": "2c4c73ae834630e761d3c577b83ca925", "fusion_lon": 0.0}, {"rental_uris": {"ios": "https://dc.lft.to/lastmile_qr_scan", "android": "https://dc.lft.to/lastmile_qr_scan"}, "type": "electric_scooter", "name": "117e53afbb318b4e7ab3038e7f24cb94", "is_reserved": 0, "lon": -77.02173633333334, "is_disabled": 0, "fusion_lat": 0.0, "lat": 38.89485533333333, "bike_id": "117e53afbb318b4e7ab3038e7f24cb94", "fusion_lon": 0.0}, {"rental_uris": {"ios": "https://dc.lft.to/lastmile_qr_scan", "android": "https://dc.lft.to/lastmile_qr_scan"}, "type": "electric_scooter", "name": "0fe7724e84ffb6069bbda0fd1bc43231", "is_reserved": 0, "lon": -77.02057866666667, "is_disabled": 0, "fusion_lat": 0.0, "lat": 38.92408316666667, "bike_id": "0fe7724e84ffb6069bbda0fd1bc43231", "fusion_lon": 0.0}, {"rental_uris": {"ios": "https://dc.lft.to/lastmile_qr_scan", "android": "https://dc.lft.to/lastmile_qr_scan"}, "type": "electric_scooter", "name": "75dc35585db2d59a4b3713c77dad9a64", "is_reserved": 0, "lon": -77.03046866666666, "is_disabled": 0, "fusion_lat": 0.0, "lat": 38.884362833333334, "bike_id": "75dc35585db2d59a4b3713c77dad9a64", "fusion_lon": 0.0}, {"rental_uris": {"ios": "https://dc.lft.to/lastmile_qr_scan", "android": "https://dc.lft.to/lastmile_qr_scan"}, "type": "electric_scooter", "name": "6f95174a17ff1eea6ebf9b77393feb17", "is_reserved": 0, "lon": -77.01591883333333, "is_disabled": 0, "fusion_lat": 0.0, "lat": 38.872255333333335, "bike_id": "6f95174a17ff1eea6ebf9b77393feb17", "fusion_lon": 0.0}, {"rental_uris": {"ios": "https://dc.lft.to/lastmile_qr_scan", "android": "https://dc.lft.to/lastmile_qr_scan"}, "type": "electric_scooter", "name": "bc3118769745ea4370a6551fea68a180", "is_reserved": 0, "lon": -77.0395655, "is_disabled": 0, "fusion_lat": 0.0, "lat": 38.892505166666666, "bike_id": "bc3118769745ea4370a6551fea68a180", "fusion_lon": 0.0}, {"rental_uris": {"ios": "https://dc.lft.to/lastmile_qr_scan", "android": "https://dc.lft.to/lastmile_qr_scan"}, "type": "electric_scooter", "name": "15648f8f350106af7593da1482eacb9d", "is_reserved": 0, "lon": -76.9849585, "is_disabled": 0, "fusion_lat": 0.0, "lat": 38.92014, "bike_id": "15648f8f350106af7593da1482eacb9d", "fusion_lon": 0.0}, {"rental_uris": {"ios": "https://dc.lft.to/lastmile_qr_scan", "android": "https://dc.lft.to/lastmile_qr_scan"}, "type": "electric_scooter", "name": "2d59dc46a7b1c90db579c68201e15967", "is_reserved": 0, "lon": -76.92953033333333, "is_disabled": 0, "fusion_lat": 0.0, "lat": 38.9033805, "bike_id": "2d59dc46a7b1c90db579c68201e15967", "fusion_lon": 0.0}, {"rental_uris": {"ios": "https://dc.lft.to/lastmile_qr_scan", "android": "https://dc.lft.to/lastmile_qr_scan"}, "type": "electric_scooter", "name": "ef45ea3b71d3b6e6c6b9e5d1c52c5d8e", "is_reserved": 0, "lon": -77.07597266666667, "is_disabled": 0, "fusion_lat": 0.0, "lat": 38.9375595, "bike_id": "ef45ea3b71d3b6e6c6b9e5d1c52c5d8e", "fusion_lon": 0.0}, {"rental_uris": {"ios": "https://dc.lft.to/lastmile_qr_scan", "android": "https://dc.lft.to/lastmile_qr_scan"}, "type": "electric_scooter", "name": "f08d2bff0d7e2146c86b340e884b09ec", "is_reserved": 0, "lon": -77.06607616666666, "is_disabled": 0, "fusion_lat": 0.0, "lat": 38.911148, "bike_id": "f08d2bff0d7e2146c86b340e884b09ec", "fusion_lon": 0.0}, {"rental_uris": {"ios": "https://dc.lft.to/lastmile_qr_scan", "android": "https://dc.lft.to/lastmile_qr_scan"}, "type": "electric_scooter", "name": "2e44b8f177adeab3c458ca15348f51d4", "is_reserved": 0, "lon": -77.05503483333334, "is_disabled": 0, "fusion_lat": 0.0, "lat": 38.929848, "bike_id": "2e44b8f177adeab3c458ca15348f51d4", "fusion_lon": 0.0}, {"rental_uris": {"ios": "https://dc.lft.to/lastmile_qr_scan", "android": "https://dc.lft.to/lastmile_qr_scan"}, "type": "electric_scooter", "name": "36692ecffbae7a7ae253aced06e8f849", "is_reserved": 0, "lon": -77.032081, "is_disabled": 0, "fusion_lat": 0.0, "lat": 38.90791816666667, "bike_id": "36692ecffbae7a7ae253aced06e8f849", "fusion_lon": 0.0}, {"rental_uris": {"ios": "https://dc.lft.to/lastmile_qr_scan", "android": "https://dc.lft.to/lastmile_qr_scan"}, "type": "electric_scooter", "name": "2180b7ee7090a17e95bf579c2a0f9372", "is_reserved": 0, "lon": -77.03448366666667, "is_disabled": 0, "fusion_lat": 0.0, "lat": 38.909996, "bike_id": "2180b7ee7090a17e95bf579c2a0f9372", "fusion_lon": 0.0}, {"rental_uris": {"ios": "https://dc.lft.to/lastmile_qr_scan", "android": "https://dc.lft.to/lastmile_qr_scan"}, "type": "electric_scooter", "name": "0819ba76b8816007500053ea2a3339cb", "is_reserved": 0, "lon": -77.05120083333334, "is_disabled": 0, "fusion_lat": 0.0, "lat": 38.925298166666664, "bike_id": "0819ba76b8816007500053ea2a3339cb", "fusion_lon": 0.0}, {"rental_uris": {"ios": "https://dc.lft.to/lastmile_qr_scan", "android": "https://dc.lft.to/lastmile_qr_scan"}, "type": "electric_scooter", "name": "25d78fd5c56dc56d63ca52c100f724e1", "is_reserved": 0, "lon": -77.046761, "is_disabled": 0, "fusion_lat": 0.0, "lat": 38.89283016666667, "bike_id": "25d78fd5c56dc56d63ca52c100f724e1", "fusion_lon": 0.0}, {"rental_uris": {"ios": "https://dc.lft.to/lastmile_qr_scan", "android": "https://dc.lft.to/lastmile_qr_scan"}, "type": "electric_bike", "name": "13860d81971991c0a4cd6b1701e25e6a", "is_reserved": 0, "lon": -77.05521566666667, "is_disabled": 0, "fusion_lat": 0.0, "lat": 38.94417983333334, "bike_id": "13860d81971991c0a4cd6b1701e25e6a", "fusion_lon": 0.0}, {"rental_uris": {"ios": "https://dc.lft.to/lastmile_qr_scan", "android": "https://dc.lft.to/lastmile_qr_scan"}, "type": "electric_bike", "name": "7716b2e410b4402ba5fa0e23151c40c9", "is_reserved": 0, "lon": -76.999261, "is_disabled": 0, "fusion_lat": 0.0, "lat": 38.9947505, "bike_id": "7716b2e410b4402ba5fa0e23151c40c9", "fusion_lon": 0.0}, {"rental_uris": {"ios": "https://dc.lft.to/lastmile_qr_scan", "android": "https://dc.lft.to/lastmile_qr_scan"}, "type": "electric_scooter", "name": "adedb2e5e6484ceeb3508497cbd727a9", "is_reserved": 0, "lon": -77.00379533333333, "is_disabled": 0, "fusion_lat": 0.0, "lat": 38.9406745, "bike_id": "adedb2e5e6484ceeb3508497cbd727a9", "fusion_lon": 0.0}, {"rental_uris": {"ios": "https://dc.lft.to/lastmile_qr_scan", "android": "https://dc.lft.to/lastmile_qr_scan"}, "type": "electric_scooter", "name": "45b2adfe0f85534068a1327f3e32ff67", "is_reserved": 0, "lon": -77.02916233333333, "is_disabled": 0, "fusion_lat": 0.0, "lat": 38.944427833333336, "bike_id": "45b2adfe0f85534068a1327f3e32ff67", "fusion_lon": 0.0}, {"rental_uris": {"ios": "https://dc.lft.to/lastmile_qr_scan", "android": "https://dc.lft.to/lastmile_qr_scan"}, "type": "electric_scooter", "name": "9bbc3cdf6970639e5e942cad2a8e8a3b", "is_reserved": 0, "lon": -77.04477466666667, "is_disabled": 0, "fusion_lat": 0.0, "lat": 38.9229485, "bike_id": "9bbc3cdf6970639e5e942cad2a8e8a3b", "fusion_lon": 0.0}, {"rental_uris": {"ios": "https://dc.lft.to/lastmile_qr_scan", "android": "https://dc.lft.to/lastmile_qr_scan"}, "type": "electric_scooter", "name": "9807a69bc0dd3e15372b9e8f93afb851", "is_reserved": 0, "lon": -77.02935233333334, "is_disabled": 0, "fusion_lat": 0.0, "lat": 38.907361333333334, "bike_id": "9807a69bc0dd3e15372b9e8f93afb851", "fusion_lon": 0.0}, {"rental_uris": {"ios": "https://dc.lft.to/lastmile_qr_scan", "android": "https://dc.lft.to/lastmile_qr_scan"}, "type": "electric_scooter", "name": "afb756e970c0f5e2afd75dca7bf78082", "is_reserved": 0, "lon": -77.04684433333334, "is_disabled": 0, "fusion_lat": 0.0, "lat": 38.892254, "bike_id": "afb756e970c0f5e2afd75dca7bf78082", "fusion_lon": 0.0}, {"rental_uris": {"ios": "https://dc.lft.to/lastmile_qr_scan", "android": "https://dc.lft.to/lastmile_qr_scan"}, "type": "electric_scooter", "name": "10c12adfe1a047a2717d8c096534047f", "is_reserved": 0, "lon": -77.02630266666667, "is_disabled": 0, "fusion_lat": 0.0, "lat": 38.89632566666667, "bike_id": "10c12adfe1a047a2717d8c096534047f", "fusion_lon": 0.0}, {"rental_uris": {"ios": "https://dc.lft.to/lastmile_qr_scan", "android": "https://dc.lft.to/lastmile_qr_scan"}, "type": "electric_scooter", "name": "9d59f977a209fc2dccf784819c57268f", "is_reserved": 0, "lon": -77.0653135, "is_disabled": 0, "fusion_lat": 0.0, "lat": 38.90544166666667, "bike_id": "9d59f977a209fc2dccf784819c57268f", "fusion_lon": 0.0}, {"rental_uris": {"ios": "https://dc.lft.to/lastmile_qr_scan", "android": "https://dc.lft.to/lastmile_qr_scan"}, "type": "electric_scooter", "name": "ad8b483af2edff66d9b0675d35754a81", "is_reserved": 0, "lon": -77.03382166666667, "is_disabled": 0, "fusion_lat": 0.0, "lat": 38.90118183333333, "bike_id": "ad8b483af2edff66d9b0675d35754a81", "fusion_lon": 0.0}, {"rental_uris": {"ios": "https://dc.lft.to/lastmile_qr_scan", "android": "https://dc.lft.to/lastmile_qr_scan"}, "type": "electric_scooter", "name": "229dbff1a3f88533667634178774672d", "is_reserved": 0, "lon": -77.01760583333333, "is_disabled": 0, "fusion_lat": 0.0, "lat": 38.877251666666666, "bike_id": "229dbff1a3f88533667634178774672d", "fusion_lon": 0.0}, {"rental_uris": {"ios": "https://dc.lft.to/lastmile_qr_scan", "android": "https://dc.lft.to/lastmile_qr_scan"}, "type": "electric_scooter", "name": "3f9908e27d4f2325fbf7d551afb58825", "is_reserved": 0, "lon": -77.03218466666667, "is_disabled": 0, "fusion_lat": 0.0, "lat": 38.91850316666667, "bike_id": "3f9908e27d4f2325fbf7d551afb58825", "fusion_lon": 0.0}, {"rental_uris": {"ios": "https://dc.lft.to/lastmile_qr_scan", "android": "https://dc.lft.to/lastmile_qr_scan"}, "type": "electric_scooter", "name": "113b25636b7fcda109f96c749ca789db", "is_reserved": 0, "lon": -77.02133166666667, "is_disabled": 0, "fusion_lat": 0.0, "lat": 38.924701666666664, "bike_id": "113b25636b7fcda109f96c749ca789db", "fusion_lon": 0.0}, {"rental_uris": {"ios": "https://dc.lft.to/lastmile_qr_scan", "android": "https://dc.lft.to/lastmile_qr_scan"}, "type": "electric_scooter", "name": "0276735db0e92ebfb507a4f85d32b37c", "is_reserved": 0, "lon": -77.01127083333333, "is_disabled": 0, "fusion_lat": 0.0, "lat": 38.91925916666667, "bike_id": "0276735db0e92ebfb507a4f85d32b37c", "fusion_lon": 0.0}, {"rental_uris": {"ios": "https://dc.lft.to/lastmile_qr_scan", "android": "https://dc.lft.to/lastmile_qr_scan"}, "type": "electric_scooter", "name": "894e7492f01ed3e591d601746fea5a0d", "is_reserved": 0, "lon": -76.98444383333333, "is_disabled": 0, "fusion_lat": 0.0, "lat": 38.914821833333335, "bike_id": "894e7492f01ed3e591d601746fea5a0d", "fusion_lon": 0.0}, {"rental_uris": {"ios": "https://dc.lft.to/lastmile_qr_scan", "android": "https://dc.lft.to/lastmile_qr_scan"}, "type": "electric_scooter", "name": "21a483c241409a8bf975a8c3f6f4c04d", "is_reserved": 0, "lon": -77.02562466666667, "is_disabled": 0, "fusion_lat": 0.0, "lat": 38.9238685, "bike_id": "21a483c241409a8bf975a8c3f6f4c04d", "fusion_lon": 0.0}, {"rental_uris": {"ios": "https://dc.lft.to/lastmile_qr_scan", "android": "https://dc.lft.to/lastmile_qr_scan"}, "type": "electric_scooter", "name": "d6f8bf00fe0960626d7980ade6a5e651", "is_reserved": 0, "lon": -77.0315265, "is_disabled": 0, "fusion_lat": 0.0, "lat": 38.911214666666666, "bike_id": "d6f8bf00fe0960626d7980ade6a5e651", "fusion_lon": 0.0}, {"rental_uris": {"ios": "https://dc.lft.to/lastmile_qr_scan", "android": "https://dc.lft.to/lastmile_qr_scan"}, "type": "electric_scooter", "name": "dddd03625162f5d95371c3a19476cbbd", "is_reserved": 0, "lon": -77.04151133333333, "is_disabled": 0, "fusion_lat": 0.0, "lat": 38.915576, "bike_id": "dddd03625162f5d95371c3a19476cbbd", "fusion_lon": 0.0}, {"rental_uris": {"ios": "https://dc.lft.to/lastmile_qr_scan", "android": "https://dc.lft.to/lastmile_qr_scan"}, "type": "electric_scooter", "name": "9fa93f61960a9d0b1d240c316df97cd1", "is_reserved": 0, "lon": -77.03391666666667, "is_disabled": 0, "fusion_lat": 0.0, "lat": 38.9011765, "bike_id": "9fa93f61960a9d0b1d240c316df97cd1", "fusion_lon": 0.0}, {"rental_uris": {"ios": "https://dc.lft.to/lastmile_qr_scan", "android": "https://dc.lft.to/lastmile_qr_scan"}, "type": "electric_bike", "name": "fbebc66a67cee21e1f66c5a65349b5b2", "is_reserved": 0, "lon": -77.094517, "is_disabled": 0, "fusion_lat": 0.0, "lat": 38.80757066666666, "bike_id": "fbebc66a67cee21e1f66c5a65349b5b2", "fusion_lon": 0.0}, {"rental_uris": {"ios": "https://dc.lft.to/lastmile_qr_scan", "android": "https://dc.lft.to/lastmile_qr_scan"}, "type": "electric_scooter", "name": "3c04c3e5a9bd34e9741c13364c5c1615", "is_reserved": 0, "lon": -77.04506483333333, "is_disabled": 0, "fusion_lat": 0.0, "lat": 38.89224466666667, "bike_id": "3c04c3e5a9bd34e9741c13364c5c1615", "fusion_lon": 0.0}, {"rental_uris": {"ios": "https://dc.lft.to/lastmile_qr_scan", "android": "https://dc.lft.to/lastmile_qr_scan"}, "type": "electric_scooter", "name": "0ffc470b1d340eb13877e20616bd00d7", "is_reserved": 0, "lon": -77.07879766666667, "is_disabled": 0, "fusion_lat": 0.0, "lat": 38.94615183333333, "bike_id": "0ffc470b1d340eb13877e20616bd00d7", "fusion_lon": 0.0}, {"rental_uris": {"ios": "https://dc.lft.to/lastmile_qr_scan", "android": "https://dc.lft.to/lastmile_qr_scan"}, "type": "electric_scooter", "name": "74bc15b2bd9f430b19ae4a1a09075325", "is_reserved": 0, "lon": -77.02158433333334, "is_disabled": 0, "fusion_lat": 0.0, "lat": 38.926074166666666, "bike_id": "74bc15b2bd9f430b19ae4a1a09075325", "fusion_lon": 0.0}, {"rental_uris": {"ios": "https://dc.lft.to/lastmile_qr_scan", "android": "https://dc.lft.to/lastmile_qr_scan"}, "type": "electric_scooter", "name": "94db50010267774f22b3c9cdc997046e", "is_reserved": 0, "lon": -77.02986983333334, "is_disabled": 0, "fusion_lat": 0.0, "lat": 38.91705683333333, "bike_id": "94db50010267774f22b3c9cdc997046e", "fusion_lon": 0.0}, {"rental_uris": {"ios": "https://dc.lft.to/lastmile_qr_scan", "android": "https://dc.lft.to/lastmile_qr_scan"}, "type": "electric_scooter", "name": "60c77c039a80db10e9740d14bad274f8", "is_reserved": 0, "lon": -77.00176883333333, "is_disabled": 0, "fusion_lat": 0.0, "lat": 38.875041833333334, "bike_id": "60c77c039a80db10e9740d14bad274f8", "fusion_lon": 0.0}, {"rental_uris": {"ios": "https://dc.lft.to/lastmile_qr_scan", "android": "https://dc.lft.to/lastmile_qr_scan"}, "type": "electric_scooter", "name": "2545b44886916d8d4cd57a88f34c8c7b", "is_reserved": 0, "lon": -77.038469, "is_disabled": 0, "fusion_lat": 0.0, "lat": 38.91547416666667, "bike_id": "2545b44886916d8d4cd57a88f34c8c7b", "fusion_lon": 0.0}, {"rental_uris": {"ios": "https://dc.lft.to/lastmile_qr_scan", "android": "https://dc.lft.to/lastmile_qr_scan"}, "type": "electric_scooter", "name": "19ebf6cc716165ae2060a6fc2c792758", "is_reserved": 0, "lon": -77.02205483333333, "is_disabled": 0, "fusion_lat": 0.0, "lat": 38.95153533333333, "bike_id": "19ebf6cc716165ae2060a6fc2c792758", "fusion_lon": 0.0}, {"rental_uris": {"ios": "https://dc.lft.to/lastmile_qr_scan", "android": "https://dc.lft.to/lastmile_qr_scan"}, "type": "electric_scooter", "name": "d070f56f27bead6fc222290a9b0b5802", "is_reserved": 0, "lon": -77.03436483333333, "is_disabled": 0, "fusion_lat": 0.0, "lat": 38.907426666666666, "bike_id": "d070f56f27bead6fc222290a9b0b5802", "fusion_lon": 0.0}, {"rental_uris": {"ios": "https://dc.lft.to/lastmile_qr_scan", "android": "https://dc.lft.to/lastmile_qr_scan"}, "type": "electric_scooter", "name": "2b3754366ff0690f660630e4fef0125a", "is_reserved": 0, "lon": -77.03222716666667, "is_disabled": 0, "fusion_lat": 0.0, "lat": 38.909686, "bike_id": "2b3754366ff0690f660630e4fef0125a", "fusion_lon": 0.0}, {"rental_uris": {"ios": "https://dc.lft.to/lastmile_qr_scan", "android": "https://dc.lft.to/lastmile_qr_scan"}, "type": "electric_scooter", "name": "a60fa76b62a21fb785881436e570cb5c", "is_reserved": 0, "lon": -77.00451933333333, "is_disabled": 0, "fusion_lat": 0.0, "lat": 38.837951833333335, "bike_id": "a60fa76b62a21fb785881436e570cb5c", "fusion_lon": 0.0}, {"rental_uris": {"ios": "https://dc.lft.to/lastmile_qr_scan", "android": "https://dc.lft.to/lastmile_qr_scan"}, "type": "electric_scooter", "name": "6660d41e965a12faffc964945068aa86", "is_reserved": 0, "lon": -77.03449783333333, "is_disabled": 0, "fusion_lat": 0.0, "lat": 38.919306666666664, "bike_id": "6660d41e965a12faffc964945068aa86", "fusion_lon": 0.0}, {"rental_uris": {"ios": "https://dc.lft.to/lastmile_qr_scan", "android": "https://dc.lft.to/lastmile_qr_scan"}, "type": "electric_bike", "name": "62d71e75bbb95637294fa8be107333e2", "is_reserved": 0, "lon": -76.93331633333334, "is_disabled": 0, "fusion_lat": 0.0, "lat": 38.95157783333333, "bike_id": "62d71e75bbb95637294fa8be107333e2", "fusion_lon": 0.0}, {"rental_uris": {"ios": "https://dc.lft.to/lastmile_qr_scan", "android": "https://dc.lft.to/lastmile_qr_scan"}, "type": "electric_scooter", "name": "e10dc005bf87cf8bc4fc77bfa63a2579", "is_reserved": 0, "lon": -76.996328, "is_disabled": 0, "fusion_lat": 0.0, "lat": 38.8774635, "bike_id": "e10dc005bf87cf8bc4fc77bfa63a2579", "fusion_lon": 0.0}, {"rental_uris": {"ios": "https://dc.lft.to/lastmile_qr_scan", "android": "https://dc.lft.to/lastmile_qr_scan"}, "type": "electric_scooter", "name": "02994727b20254d79b3b560ede92998a", "is_reserved": 0, "lon": -77.02981266666667, "is_disabled": 0, "fusion_lat": 0.0, "lat": 38.923178166666666, "bike_id": "02994727b20254d79b3b560ede92998a", "fusion_lon": 0.0}, {"rental_uris": {"ios": "https://dc.lft.to/lastmile_qr_scan", "android": "https://dc.lft.to/lastmile_qr_scan"}, "type": "electric_scooter", "name": "c826a42f24bc1455ba930b7ca28e28d9", "is_reserved": 0, "lon": -77.04013133333333, "is_disabled": 0, "fusion_lat": 0.0, "lat": 38.92255933333333, "bike_id": "c826a42f24bc1455ba930b7ca28e28d9", "fusion_lon": 0.0}, {"rental_uris": {"ios": "https://dc.lft.to/lastmile_qr_scan", "android": "https://dc.lft.to/lastmile_qr_scan"}, "type": "electric_scooter", "name": "7b3297d6009195ac53a56c16ee68c871", "is_reserved": 0, "lon": -77.03317416666667, "is_disabled": 0, "fusion_lat": 0.0, "lat": 38.92870116666667, "bike_id": "7b3297d6009195ac53a56c16ee68c871", "fusion_lon": 0.0}, {"rental_uris": {"ios": "https://dc.lft.to/lastmile_qr_scan", "android": "https://dc.lft.to/lastmile_qr_scan"}, "type": "electric_scooter", "name": "d971c418cb726b7d4334181dadc9ac15", "is_reserved": 0, "lon": -77.05000066666666, "is_disabled": 0, "fusion_lat": 0.0, "lat": 38.892356166666666, "bike_id": "d971c418cb726b7d4334181dadc9ac15", "fusion_lon": 0.0}, {"rental_uris": {"ios": "https://dc.lft.to/lastmile_qr_scan", "android": "https://dc.lft.to/lastmile_qr_scan"}, "type": "electric_scooter", "name": "16ffe5b66e1dda187821b110cc9c51b0", "is_reserved": 0, "lon": -76.9994465, "is_disabled": 0, "fusion_lat": 0.0, "lat": 38.90062366666667, "bike_id": "16ffe5b66e1dda187821b110cc9c51b0", "fusion_lon": 0.0}, {"rental_uris": {"ios": "https://dc.lft.to/lastmile_qr_scan", "android": "https://dc.lft.to/lastmile_qr_scan"}, "type": "electric_scooter", "name": "cd77a47b7287f735a0bb14504a968dff", "is_reserved": 0, "lon": -76.98732366666667, "is_disabled": 0, "fusion_lat": 0.0, "lat": 38.87852266666667, "bike_id": "cd77a47b7287f735a0bb14504a968dff", "fusion_lon": 0.0}, {"rental_uris": {"ios": "https://dc.lft.to/lastmile_qr_scan", "android": "https://dc.lft.to/lastmile_qr_scan"}, "type": "electric_scooter", "name": "58e19be098f37c14f662a43619daaa09", "is_reserved": 0, "lon": -76.99553716666667, "is_disabled": 0, "fusion_lat": 0.0, "lat": 38.8623285, "bike_id": "58e19be098f37c14f662a43619daaa09", "fusion_lon": 0.0}, {"rental_uris": {"ios": "https://dc.lft.to/lastmile_qr_scan", "android": "https://dc.lft.to/lastmile_qr_scan"}, "type": "electric_scooter", "name": "e8cebcc1fb5a9236a3c102f1367bf8ad", "is_reserved": 0, "lon": -77.07011816666666, "is_disabled": 0, "fusion_lat": 0.0, "lat": 38.893376833333335, "bike_id": "e8cebcc1fb5a9236a3c102f1367bf8ad", "fusion_lon": 0.0}, {"rental_uris": {"ios": "https://dc.lft.to/lastmile_qr_scan", "android": "https://dc.lft.to/lastmile_qr_scan"}, "type": "electric_scooter", "name": "0d9ffa1c463970e8b56f2757fc1c7c16", "is_reserved": 0, "lon": -77.02131366666667, "is_disabled": 0, "fusion_lat": 0.0, "lat": 38.92472, "bike_id": "0d9ffa1c463970e8b56f2757fc1c7c16", "fusion_lon": 0.0}, {"rental_uris": {"ios": "https://dc.lft.to/lastmile_qr_scan", "android": "https://dc.lft.to/lastmile_qr_scan"}, "type": "electric_scooter", "name": "910c8199e07a30f322d65c4d76d35bfe", "is_reserved": 0, "lon": -77.00756816666667, "is_disabled": 0, "fusion_lat": 0.0, "lat": 38.877597333333334, "bike_id": "910c8199e07a30f322d65c4d76d35bfe", "fusion_lon": 0.0}, {"rental_uris": {"ios": "https://dc.lft.to/lastmile_qr_scan", "android": "https://dc.lft.to/lastmile_qr_scan"}, "type": "electric_scooter", "name": "a1b60a9b797ca6e30e36908fb4fd5ded", "is_reserved": 0, "lon": -77.005973, "is_disabled": 0, "fusion_lat": 0.0, "lat": 38.905682666666664, "bike_id": "a1b60a9b797ca6e30e36908fb4fd5ded", "fusion_lon": 0.0}, {"rental_uris": {"ios": "https://dc.lft.to/lastmile_qr_scan", "android": "https://dc.lft.to/lastmile_qr_scan"}, "type": "electric_bike", "name": "493a57048999f55cd29c8e903b365941", "is_reserved": 0, "lon": -76.94150216666667, "is_disabled": 0, "fusion_lat": 0.0, "lat": 38.89023866666667, "bike_id": "493a57048999f55cd29c8e903b365941", "fusion_lon": 0.0}, {"rental_uris": {"ios": "https://dc.lft.to/lastmile_qr_scan", "android": "https://dc.lft.to/lastmile_qr_scan"}, "type": "electric_scooter", "name": "723a3d4f58f8c82423d5d55cb9484def", "is_reserved": 0, "lon": -77.03331883333334, "is_disabled": 0, "fusion_lat": 0.0, "lat": 38.925386, "bike_id": "723a3d4f58f8c82423d5d55cb9484def", "fusion_lon": 0.0}, {"rental_uris": {"ios": "https://dc.lft.to/lastmile_qr_scan", "android": "https://dc.lft.to/lastmile_qr_scan"}, "type": "electric_bike", "name": "a0f97cfcbc187598bab0d60e5cd8cde4", "is_reserved": 0, "lon": -76.94541883333333, "is_disabled": 0, "fusion_lat": 0.0, "lat": 38.86762316666667, "bike_id": "a0f97cfcbc187598bab0d60e5cd8cde4", "fusion_lon": 0.0}, {"rental_uris": {"ios": "https://dc.lft.to/lastmile_qr_scan", "android": "https://dc.lft.to/lastmile_qr_scan"}, "type": "electric_scooter", "name": "aa0ae8f0d643b1bfed87bafa00abd588", "is_reserved": 0, "lon": -77.03382133333334, "is_disabled": 0, "fusion_lat": 0.0, "lat": 38.90975983333333, "bike_id": "aa0ae8f0d643b1bfed87bafa00abd588", "fusion_lon": 0.0}, {"rental_uris": {"ios": "https://dc.lft.to/lastmile_qr_scan", "android": "https://dc.lft.to/lastmile_qr_scan"}, "type": "electric_scooter", "name": "d2a5ea046abcf0af327e84f0d9bcf059", "is_reserved": 0, "lon": -77.028449, "is_disabled": 0, "fusion_lat": 0.0, "lat": 38.89227183333333, "bike_id": "d2a5ea046abcf0af327e84f0d9bcf059", "fusion_lon": 0.0}, {"rental_uris": {"ios": "https://dc.lft.to/lastmile_qr_scan", "android": "https://dc.lft.to/lastmile_qr_scan"}, "type": "electric_scooter", "name": "8eca8306a153aef2c92cba709f5c1f88", "is_reserved": 0, "lon": -77.026995, "is_disabled": 0, "fusion_lat": 0.0, "lat": 38.924057833333336, "bike_id": "8eca8306a153aef2c92cba709f5c1f88", "fusion_lon": 0.0}, {"rental_uris": {"ios": "https://dc.lft.to/lastmile_qr_scan", "android": "https://dc.lft.to/lastmile_qr_scan"}, "type": "electric_scooter", "name": "17ab0677c67fc18dc473876fe6f463ad", "is_reserved": 0, "lon": -77.03963616666667, "is_disabled": 0, "fusion_lat": 0.0, "lat": 38.901332, "bike_id": "17ab0677c67fc18dc473876fe6f463ad", "fusion_lon": 0.0}, {"rental_uris": {"ios": "https://dc.lft.to/lastmile_qr_scan", "android": "https://dc.lft.to/lastmile_qr_scan"}, "type": "electric_bike", "name": "6eda6f75e968b60617839389ef774951", "is_reserved": 0, "lon": -76.98058266666666, "is_disabled": 0, "fusion_lat": 0.0, "lat": 38.9725645, "bike_id": "6eda6f75e968b60617839389ef774951", "fusion_lon": 0.0}, {"rental_uris": {"ios": "https://dc.lft.to/lastmile_qr_scan", "android": "https://dc.lft.to/lastmile_qr_scan"}, "type": "electric_scooter", "name": "fec68e85c8cfba77a62509854b457c3e", "is_reserved": 0, "lon": -77.01763566666666, "is_disabled": 0, "fusion_lat": 0.0, "lat": 38.880235666666664, "bike_id": "fec68e85c8cfba77a62509854b457c3e", "fusion_lon": 0.0}, {"rental_uris": {"ios": "https://dc.lft.to/lastmile_qr_scan", "android": "https://dc.lft.to/lastmile_qr_scan"}, "type": "electric_scooter", "name": "9d46e4873b297e0a0ae6297172356e1d", "is_reserved": 0, "lon": -77.024122, "is_disabled": 0, "fusion_lat": 0.0, "lat": 38.945115666666666, "bike_id": "9d46e4873b297e0a0ae6297172356e1d", "fusion_lon": 0.0}, {"rental_uris": {"ios": "https://dc.lft.to/lastmile_qr_scan", "android": "https://dc.lft.to/lastmile_qr_scan"}, "type": "electric_bike", "name": "8b727aaa9623340c59a27e7be70f5284", "is_reserved": 0, "lon": -77.11284416666666, "is_disabled": 0, "fusion_lat": 0.0, "lat": 38.83107583333334, "bike_id": "8b727aaa9623340c59a27e7be70f5284", "fusion_lon": 0.0}, {"rental_uris": {"ios": "https://dc.lft.to/lastmile_qr_scan", "android": "https://dc.lft.to/lastmile_qr_scan"}, "type": "electric_scooter", "name": "b48e704f3b4c0d8d9559a80244675936", "is_reserved": 0, "lon": -76.997438, "is_disabled": 0, "fusion_lat": 0.0, "lat": 38.90038583333333, "bike_id": "b48e704f3b4c0d8d9559a80244675936", "fusion_lon": 0.0}, {"rental_uris": {"ios": "https://dc.lft.to/lastmile_qr_scan", "android": "https://dc.lft.to/lastmile_qr_scan"}, "type": "electric_scooter", "name": "804f23d9ba0a1861ecaa198adc31ba3e", "is_reserved": 0, "lon": -77.0325005, "is_disabled": 0, "fusion_lat": 0.0, "lat": 38.917201, "bike_id": "804f23d9ba0a1861ecaa198adc31ba3e", "fusion_lon": 0.0}, {"rental_uris": {"ios": "https://dc.lft.to/lastmile_qr_scan", "android": "https://dc.lft.to/lastmile_qr_scan"}, "type": "electric_scooter", "name": "0fbf8af9430fec5207fc26a5899bef4d", "is_reserved": 0, "lon": -77.0211355, "is_disabled": 0, "fusion_lat": 0.0, "lat": 38.917423, "bike_id": "0fbf8af9430fec5207fc26a5899bef4d", "fusion_lon": 0.0}, {"rental_uris": {"ios": "https://dc.lft.to/lastmile_qr_scan", "android": "https://dc.lft.to/lastmile_qr_scan"}, "type": "electric_scooter", "name": "9fdc8fef645ae2c8fe80e68212683741", "is_reserved": 0, "lon": -77.08783016666666, "is_disabled": 0, "fusion_lat": 0.0, "lat": 38.93557233333333, "bike_id": "9fdc8fef645ae2c8fe80e68212683741", "fusion_lon": 0.0}, {"rental_uris": {"ios": "https://dc.lft.to/lastmile_qr_scan", "android": "https://dc.lft.to/lastmile_qr_scan"}, "type": "electric_scooter", "name": "04aa53a279faeb8956927f14015ad1a4", "is_reserved": 0, "lon": -77.03450216666667, "is_disabled": 0, "fusion_lat": 0.0, "lat": 38.910008166666664, "bike_id": "04aa53a279faeb8956927f14015ad1a4", "fusion_lon": 0.0}, {"rental_uris": {"ios": "https://dc.lft.to/lastmile_qr_scan", "android": "https://dc.lft.to/lastmile_qr_scan"}, "type": "electric_bike", "name": "79238c1fc26530116aa2fd507279d57b", "is_reserved": 0, "lon": -76.97083916666666, "is_disabled": 0, "fusion_lat": 0.0, "lat": 38.89223033333333, "bike_id": "79238c1fc26530116aa2fd507279d57b", "fusion_lon": 0.0}, {"rental_uris": {"ios": "https://dc.lft.to/lastmile_qr_scan", "android": "https://dc.lft.to/lastmile_qr_scan"}, "type": "electric_bike", "name": "9670008206cf34c9b22bca1dedec392b", "is_reserved": 0, "lon": -77.0025175, "is_disabled": 0, "fusion_lat": 0.0, "lat": 38.911144166666666, "bike_id": "9670008206cf34c9b22bca1dedec392b", "fusion_lon": 0.0}, {"rental_uris": {"ios": "https://dc.lft.to/lastmile_qr_scan", "android": "https://dc.lft.to/lastmile_qr_scan"}, "type": "electric_scooter", "name": "d2c61ea2c4088fd5710ec33f5c748bb3", "is_reserved": 0, "lon": -77.00759483333333, "is_disabled": 0, "fusion_lat": 0.0, "lat": 38.905947, "bike_id": "d2c61ea2c4088fd5710ec33f5c748bb3", "fusion_lon": 0.0}, {"rental_uris": {"ios": "https://dc.lft.to/lastmile_qr_scan", "android": "https://dc.lft.to/lastmile_qr_scan"}, "type": "electric_scooter", "name": "1ace87deeef8272c92648dbc3886ebfc", "is_reserved": 0, "lon": -77.063238, "is_disabled": 0, "fusion_lat": 0.0, "lat": 38.91343783333333, "bike_id": "1ace87deeef8272c92648dbc3886ebfc", "fusion_lon": 0.0}, {"rental_uris": {"ios": "https://dc.lft.to/lastmile_qr_scan", "android": "https://dc.lft.to/lastmile_qr_scan"}, "type": "electric_bike", "name": "8bce85d7f68e3c916e8a70657a4cc910", "is_reserved": 0, "lon": -77.03257416666666, "is_disabled": 0, "fusion_lat": 0.0, "lat": 38.93378466666667, "bike_id": "8bce85d7f68e3c916e8a70657a4cc910", "fusion_lon": 0.0}, {"rental_uris": {"ios": "https://dc.lft.to/lastmile_qr_scan", "android": "https://dc.lft.to/lastmile_qr_scan"}, "type": "electric_scooter", "name": "356a94c529faea271e8f419fd2112a40", "is_reserved": 0, "lon": -77.00502016666667, "is_disabled": 0, "fusion_lat": 0.0, "lat": 38.9441715, "bike_id": "356a94c529faea271e8f419fd2112a40", "fusion_lon": 0.0}, {"rental_uris": {"ios": "https://dc.lft.to/lastmile_qr_scan", "android": "https://dc.lft.to/lastmile_qr_scan"}, "type": "electric_scooter", "name": "6a2024dc3cd294c11be67c89d596348b", "is_reserved": 0, "lon": -77.01770266666666, "is_disabled": 0, "fusion_lat": 0.0, "lat": 38.887313, "bike_id": "6a2024dc3cd294c11be67c89d596348b", "fusion_lon": 0.0}, {"rental_uris": {"ios": "https://dc.lft.to/lastmile_qr_scan", "android": "https://dc.lft.to/lastmile_qr_scan"}, "type": "electric_scooter", "name": "a3357e4d68b4f51af33f99594c450cf9", "is_reserved": 0, "lon": -77.03863666666666, "is_disabled": 0, "fusion_lat": 0.0, "lat": 38.932550166666665, "bike_id": "a3357e4d68b4f51af33f99594c450cf9", "fusion_lon": 0.0}, {"rental_uris": {"ios": "https://dc.lft.to/lastmile_qr_scan", "android": "https://dc.lft.to/lastmile_qr_scan"}, "type": "electric_scooter", "name": "f1b83c5f1b4bb123f92ace641b73739d", "is_reserved": 0, "lon": -77.03200616666666, "is_disabled": 0, "fusion_lat": 0.0, "lat": 38.9099275, "bike_id": "f1b83c5f1b4bb123f92ace641b73739d", "fusion_lon": 0.0}, {"rental_uris": {"ios": "https://dc.lft.to/lastmile_qr_scan", "android": "https://dc.lft.to/lastmile_qr_scan"}, "type": "electric_scooter", "name": "8c6a31dba8c832ad194241619d63da23", "is_reserved": 0, "lon": -77.0177715, "is_disabled": 0, "fusion_lat": 0.0, "lat": 38.90279783333333, "bike_id": "8c6a31dba8c832ad194241619d63da23", "fusion_lon": 0.0}, {"rental_uris": {"ios": "https://dc.lft.to/lastmile_qr_scan", "android": "https://dc.lft.to/lastmile_qr_scan"}, "type": "electric_scooter", "name": "de00476298f2c825359fd1b5fdc9c3d6", "is_reserved": 0, "lon": -76.99035283333333, "is_disabled": 0, "fusion_lat": 0.0, "lat": 38.898554833333336, "bike_id": "de00476298f2c825359fd1b5fdc9c3d6", "fusion_lon": 0.0}, {"rental_uris": {"ios": "https://dc.lft.to/lastmile_qr_scan", "android": "https://dc.lft.to/lastmile_qr_scan"}, "type": "electric_bike", "name": "012739f5a89af3d51486ae2e80297fcf", "is_reserved": 0, "lon": -76.9497465, "is_disabled": 0, "fusion_lat": 0.0, "lat": 38.8830815, "bike_id": "012739f5a89af3d51486ae2e80297fcf", "fusion_lon": 0.0}, {"rental_uris": {"ios": "https://dc.lft.to/lastmile_qr_scan", "android": "https://dc.lft.to/lastmile_qr_scan"}, "type": "electric_scooter", "name": "96e7ba5f4ecbe3641b35414590798c06", "is_reserved": 0, "lon": -77.03540083333333, "is_disabled": 0, "fusion_lat": 0.0, "lat": 38.923456, "bike_id": "96e7ba5f4ecbe3641b35414590798c06", "fusion_lon": 0.0}, {"rental_uris": {"ios": "https://dc.lft.to/lastmile_qr_scan", "android": "https://dc.lft.to/lastmile_qr_scan"}, "type": "electric_scooter", "name": "4d6c74c87d824b0c744880369212c447", "is_reserved": 0, "lon": -77.02725366666667, "is_disabled": 0, "fusion_lat": 0.0, "lat": 38.924850166666666, "bike_id": "4d6c74c87d824b0c744880369212c447", "fusion_lon": 0.0}, {"rental_uris": {"ios": "https://dc.lft.to/lastmile_qr_scan", "android": "https://dc.lft.to/lastmile_qr_scan"}, "type": "electric_scooter", "name": "9b8b576f0609008d7f92212ef27d676e", "is_reserved": 0, "lon": -77.04834033333333, "is_disabled": 0, "fusion_lat": 0.0, "lat": 38.9211755, "bike_id": "9b8b576f0609008d7f92212ef27d676e", "fusion_lon": 0.0}, {"rental_uris": {"ios": "https://dc.lft.to/lastmile_qr_scan", "android": "https://dc.lft.to/lastmile_qr_scan"}, "type": "electric_scooter", "name": "ba4d89c4f7394db26ade7d8fe9be36ae", "is_reserved": 0, "lon": -76.94856633333333, "is_disabled": 0, "fusion_lat": 0.0, "lat": 38.8830655, "bike_id": "ba4d89c4f7394db26ade7d8fe9be36ae", "fusion_lon": 0.0}, {"rental_uris": {"ios": "https://dc.lft.to/lastmile_qr_scan", "android": "https://dc.lft.to/lastmile_qr_scan"}, "type": "electric_scooter", "name": "2fa3c52c94d5c956c1ca7676fba10918", "is_reserved": 0, "lon": -76.981994, "is_disabled": 0, "fusion_lat": 0.0, "lat": 38.90199633333334, "bike_id": "2fa3c52c94d5c956c1ca7676fba10918", "fusion_lon": 0.0}, {"rental_uris": {"ios": "https://dc.lft.to/lastmile_qr_scan", "android": "https://dc.lft.to/lastmile_qr_scan"}, "type": "electric_scooter", "name": "8d91f01e8fd35ada9b4f896c2454dc40", "is_reserved": 0, "lon": -77.00345666666666, "is_disabled": 0, "fusion_lat": 0.0, "lat": 38.892745, "bike_id": "8d91f01e8fd35ada9b4f896c2454dc40", "fusion_lon": 0.0}, {"rental_uris": {"ios": "https://dc.lft.to/lastmile_qr_scan", "android": "https://dc.lft.to/lastmile_qr_scan"}, "type": "electric_bike", "name": "986701576c67211434dcc68dbd3195bf", "is_reserved": 0, "lon": -76.95820033333334, "is_disabled": 0, "fusion_lat": 0.0, "lat": 38.920002833333335, "bike_id": "986701576c67211434dcc68dbd3195bf", "fusion_lon": 0.0}, {"rental_uris": {"ios": "https://dc.lft.to/lastmile_qr_scan", "android": "https://dc.lft.to/lastmile_qr_scan"}, "type": "electric_scooter", "name": "fd940dede6cd29a9933eb11373682dae", "is_reserved": 0, "lon": -77.01913066666667, "is_disabled": 0, "fusion_lat": 0.0, "lat": 38.894915833333336, "bike_id": "fd940dede6cd29a9933eb11373682dae", "fusion_lon": 0.0}, {"rental_uris": {"ios": "https://dc.lft.to/lastmile_qr_scan", "android": "https://dc.lft.to/lastmile_qr_scan"}, "type": "electric_scooter", "name": "6407bef26afc46945103f8321512d91b", "is_reserved": 0, "lon": -77.02124233333333, "is_disabled": 0, "fusion_lat": 0.0, "lat": 38.92382033333333, "bike_id": "6407bef26afc46945103f8321512d91b", "fusion_lon": 0.0}, {"rental_uris": {"ios": "https://dc.lft.to/lastmile_qr_scan", "android": "https://dc.lft.to/lastmile_qr_scan"}, "type": "electric_scooter", "name": "686dcecda97b0aa358e47dba860dd774", "is_reserved": 0, "lon": -77.02121266666667, "is_disabled": 0, "fusion_lat": 0.0, "lat": 38.92334133333333, "bike_id": "686dcecda97b0aa358e47dba860dd774", "fusion_lon": 0.0}, {"rental_uris": {"ios": "https://dc.lft.to/lastmile_qr_scan", "android": "https://dc.lft.to/lastmile_qr_scan"}, "type": "electric_scooter", "name": "29b7865b62a3db8ed89da4e06d3c1c86", "is_reserved": 0, "lon": -77.0318105, "is_disabled": 0, "fusion_lat": 0.0, "lat": 38.9135465, "bike_id": "29b7865b62a3db8ed89da4e06d3c1c86", "fusion_lon": 0.0}, {"rental_uris": {"ios": "https://dc.lft.to/lastmile_qr_scan", "android": "https://dc.lft.to/lastmile_qr_scan"}, "type": "electric_scooter", "name": "89ba97eb41731d98bf10309057b1898f", "is_reserved": 0, "lon": -77.046966, "is_disabled": 0, "fusion_lat": 0.0, "lat": 38.92112316666667, "bike_id": "89ba97eb41731d98bf10309057b1898f", "fusion_lon": 0.0}, {"rental_uris": {"ios": "https://dc.lft.to/lastmile_qr_scan", "android": "https://dc.lft.to/lastmile_qr_scan"}, "type": "electric_scooter", "name": "2e289ee8dd2c19efb08787c50a2a2530", "is_reserved": 0, "lon": -77.03450633333334, "is_disabled": 0, "fusion_lat": 0.0, "lat": 38.9193165, "bike_id": "2e289ee8dd2c19efb08787c50a2a2530", "fusion_lon": 0.0}, {"rental_uris": {"ios": "https://dc.lft.to/lastmile_qr_scan", "android": "https://dc.lft.to/lastmile_qr_scan"}, "type": "electric_scooter", "name": "0a2eef0da3a39b07ebf937e78aa49d21", "is_reserved": 0, "lon": -77.04047483333333, "is_disabled": 0, "fusion_lat": 0.0, "lat": 38.92432866666667, "bike_id": "0a2eef0da3a39b07ebf937e78aa49d21", "fusion_lon": 0.0}, {"rental_uris": {"ios": "https://dc.lft.to/lastmile_qr_scan", "android": "https://dc.lft.to/lastmile_qr_scan"}, "type": "electric_scooter", "name": "5688fbbde4eed4ec002021db2ca6429b", "is_reserved": 0, "lon": -77.021372, "is_disabled": 0, "fusion_lat": 0.0, "lat": 38.92421616666667, "bike_id": "5688fbbde4eed4ec002021db2ca6429b", "fusion_lon": 0.0}, {"rental_uris": {"ios": "https://dc.lft.to/lastmile_qr_scan", "android": "https://dc.lft.to/lastmile_qr_scan"}, "type": "electric_scooter", "name": "d3e10631fa20d1d71c20a36ce23d282d", "is_reserved": 0, "lon": -77.02170616666666, "is_disabled": 0, "fusion_lat": 0.0, "lat": 38.894873833333335, "bike_id": "d3e10631fa20d1d71c20a36ce23d282d", "fusion_lon": 0.0}, {"rental_uris": {"ios": "https://dc.lft.to/lastmile_qr_scan", "android": "https://dc.lft.to/lastmile_qr_scan"}, "type": "electric_scooter", "name": "0241e70bbc0ff76f40424ad6af257154", "is_reserved": 0, "lon": -77.04510066666667, "is_disabled": 0, "fusion_lat": 0.0, "lat": 38.8922765, "bike_id": "0241e70bbc0ff76f40424ad6af257154", "fusion_lon": 0.0}, {"rental_uris": {"ios": "https://dc.lft.to/lastmile_qr_scan", "android": "https://dc.lft.to/lastmile_qr_scan"}, "type": "electric_scooter", "name": "bd84c9c509dac70a3be6c837bfc91de0", "is_reserved": 0, "lon": -77.022057, "is_disabled": 0, "fusion_lat": 0.0, "lat": 38.92479733333333, "bike_id": "bd84c9c509dac70a3be6c837bfc91de0", "fusion_lon": 0.0}, {"rental_uris": {"ios": "https://dc.lft.to/lastmile_qr_scan", "android": "https://dc.lft.to/lastmile_qr_scan"}, "type": "electric_scooter", "name": "a058ed62851c6d033fc7f98574b2ae54", "is_reserved": 0, "lon": -76.98375866666666, "is_disabled": 0, "fusion_lat": 0.0, "lat": 38.8603735, "bike_id": "a058ed62851c6d033fc7f98574b2ae54", "fusion_lon": 0.0}, {"rental_uris": {"ios": "https://dc.lft.to/lastmile_qr_scan", "android": "https://dc.lft.to/lastmile_qr_scan"}, "type": "electric_scooter", "name": "c628e3b04a91fae39ac793330ee6a193", "is_reserved": 0, "lon": -77.01625633333333, "is_disabled": 0, "fusion_lat": 0.0, "lat": 38.88515483333333, "bike_id": "c628e3b04a91fae39ac793330ee6a193", "fusion_lon": 0.0}, {"rental_uris": {"ios": "https://dc.lft.to/lastmile_qr_scan", "android": "https://dc.lft.to/lastmile_qr_scan"}, "type": "electric_scooter", "name": "c196867d7ef1504f80a26fd27d4f08d6", "is_reserved": 0, "lon": -77.03559866666667, "is_disabled": 0, "fusion_lat": 0.0, "lat": 38.904917166666664, "bike_id": "c196867d7ef1504f80a26fd27d4f08d6", "fusion_lon": 0.0}, {"rental_uris": {"ios": "https://dc.lft.to/lastmile_qr_scan", "android": "https://dc.lft.to/lastmile_qr_scan"}, "type": "electric_scooter", "name": "1083943a5cc1872ef8aa4fa87a142b61", "is_reserved": 0, "lon": -77.04181083333333, "is_disabled": 0, "fusion_lat": 0.0, "lat": 38.92051716666667, "bike_id": "1083943a5cc1872ef8aa4fa87a142b61", "fusion_lon": 0.0}, {"rental_uris": {"ios": "https://dc.lft.to/lastmile_qr_scan", "android": "https://dc.lft.to/lastmile_qr_scan"}, "type": "electric_scooter", "name": "af13c983f70f596ea2c05b317a0732d8", "is_reserved": 0, "lon": -77.020069, "is_disabled": 0, "fusion_lat": 0.0, "lat": 38.92419616666667, "bike_id": "af13c983f70f596ea2c05b317a0732d8", "fusion_lon": 0.0}, {"rental_uris": {"ios": "https://dc.lft.to/lastmile_qr_scan", "android": "https://dc.lft.to/lastmile_qr_scan"}, "type": "electric_scooter", "name": "155debe486ecf52c82f37a34e7737177", "is_reserved": 0, "lon": -77.03212033333334, "is_disabled": 0, "fusion_lat": 0.0, "lat": 38.907136333333334, "bike_id": "155debe486ecf52c82f37a34e7737177", "fusion_lon": 0.0}, {"rental_uris": {"ios": "https://dc.lft.to/lastmile_qr_scan", "android": "https://dc.lft.to/lastmile_qr_scan"}, "type": "electric_scooter", "name": "ebd568acfb6907babdbaa5c9c33a7d05", "is_reserved": 0, "lon": -77.047813, "is_disabled": 0, "fusion_lat": 0.0, "lat": 38.8977505, "bike_id": "ebd568acfb6907babdbaa5c9c33a7d05", "fusion_lon": 0.0}, {"rental_uris": {"ios": "https://dc.lft.to/lastmile_qr_scan", "android": "https://dc.lft.to/lastmile_qr_scan"}, "type": "electric_scooter", "name": "303681c30b92ee3b7ae8963beb4b11bb", "is_reserved": 0, "lon": -77.01362666666667, "is_disabled": 0, "fusion_lat": 0.0, "lat": 38.9193445, "bike_id": "303681c30b92ee3b7ae8963beb4b11bb", "fusion_lon": 0.0}, {"rental_uris": {"ios": "https://dc.lft.to/lastmile_qr_scan", "android": "https://dc.lft.to/lastmile_qr_scan"}, "type": "electric_scooter", "name": "0d6f69b22fcd5799925d6d66e439ed4e", "is_reserved": 0, "lon": -77.0325395, "is_disabled": 0, "fusion_lat": 0.0, "lat": 38.89807716666667, "bike_id": "0d6f69b22fcd5799925d6d66e439ed4e", "fusion_lon": 0.0}, {"rental_uris": {"ios": "https://dc.lft.to/lastmile_qr_scan", "android": "https://dc.lft.to/lastmile_qr_scan"}, "type": "electric_scooter", "name": "4c6b146b8dc0e500a846606d9d17f205", "is_reserved": 0, "lon": -77.03195566666666, "is_disabled": 0, "fusion_lat": 0.0, "lat": 38.90132783333333, "bike_id": "4c6b146b8dc0e500a846606d9d17f205", "fusion_lon": 0.0}, {"rental_uris": {"ios": "https://dc.lft.to/lastmile_qr_scan", "android": "https://dc.lft.to/lastmile_qr_scan"}, "type": "electric_scooter", "name": "67482996ed2701760d4bcdb0d0b648b1", "is_reserved": 0, "lon": -77.067541, "is_disabled": 0, "fusion_lat": 0.0, "lat": 38.905265, "bike_id": "67482996ed2701760d4bcdb0d0b648b1", "fusion_lon": 0.0}, {"rental_uris": {"ios": "https://dc.lft.to/lastmile_qr_scan", "android": "https://dc.lft.to/lastmile_qr_scan"}, "type": "electric_scooter", "name": "345902124b7a428406d1a62a36b2a78c", "is_reserved": 0, "lon": -77.02475833333334, "is_disabled": 0, "fusion_lat": 0.0, "lat": 38.918194, "bike_id": "345902124b7a428406d1a62a36b2a78c", "fusion_lon": 0.0}, {"rental_uris": {"ios": "https://dc.lft.to/lastmile_qr_scan", "android": "https://dc.lft.to/lastmile_qr_scan"}, "type": "electric_scooter", "name": "5f958a076fac894e932dc47a5e1f6cdd", "is_reserved": 0, "lon": -77.04408116666667, "is_disabled": 0, "fusion_lat": 0.0, "lat": 38.90127666666667, "bike_id": "5f958a076fac894e932dc47a5e1f6cdd", "fusion_lon": 0.0}, {"rental_uris": {"ios": "https://dc.lft.to/lastmile_qr_scan", "android": "https://dc.lft.to/lastmile_qr_scan"}, "type": "electric_scooter", "name": "0f12161688176cb291453ec2ae44a8c0", "is_reserved": 0, "lon": -77.02621633333334, "is_disabled": 0, "fusion_lat": 0.0, "lat": 38.89631083333333, "bike_id": "0f12161688176cb291453ec2ae44a8c0", "fusion_lon": 0.0}, {"rental_uris": {"ios": "https://dc.lft.to/lastmile_qr_scan", "android": "https://dc.lft.to/lastmile_qr_scan"}, "type": "electric_scooter", "name": "1fa68a5c5891ff1e599edba4f684ec78", "is_reserved": 0, "lon": -77.0387105, "is_disabled": 0, "fusion_lat": 0.0, "lat": 38.903775833333334, "bike_id": "1fa68a5c5891ff1e599edba4f684ec78", "fusion_lon": 0.0}, {"rental_uris": {"ios": "https://dc.lft.to/lastmile_qr_scan", "android": "https://dc.lft.to/lastmile_qr_scan"}, "type": "electric_bike", "name": "6e9b9f5d01fbdae40ea7f34faeb581bf", "is_reserved": 0, "lon": -77.05912, "is_disabled": 0, "fusion_lat": 0.0, "lat": 38.905395, "bike_id": "6e9b9f5d01fbdae40ea7f34faeb581bf", "fusion_lon": 0.0}, {"rental_uris": {"ios": "https://dc.lft.to/lastmile_qr_scan", "android": "https://dc.lft.to/lastmile_qr_scan"}, "type": "electric_scooter", "name": "9dd9ed26b681ec76dc54ddb11e619173", "is_reserved": 0, "lon": -77.04255283333333, "is_disabled": 0, "fusion_lat": 0.0, "lat": 38.90961633333333, "bike_id": "9dd9ed26b681ec76dc54ddb11e619173", "fusion_lon": 0.0}, {"rental_uris": {"ios": "https://dc.lft.to/lastmile_qr_scan", "android": "https://dc.lft.to/lastmile_qr_scan"}, "type": "electric_scooter", "name": "1e0578ae946b93aa9fe3bd76d6b88284", "is_reserved": 0, "lon": -77.015313, "is_disabled": 0, "fusion_lat": 0.0, "lat": 38.917630833333334, "bike_id": "1e0578ae946b93aa9fe3bd76d6b88284", "fusion_lon": 0.0}, {"rental_uris": {"ios": "https://dc.lft.to/lastmile_qr_scan", "android": "https://dc.lft.to/lastmile_qr_scan"}, "type": "electric_scooter", "name": "9a1f9ba329e4460773537944844d2867", "is_reserved": 0, "lon": -76.985582, "is_disabled": 0, "fusion_lat": 0.0, "lat": 38.859990333333336, "bike_id": "9a1f9ba329e4460773537944844d2867", "fusion_lon": 0.0}, {"rental_uris": {"ios": "https://dc.lft.to/lastmile_qr_scan", "android": "https://dc.lft.to/lastmile_qr_scan"}, "type": "electric_scooter", "name": "5c66f00afaa27daf0244f2d501db4654", "is_reserved": 0, "lon": -77.06388033333333, "is_disabled": 0, "fusion_lat": 0.0, "lat": 38.90866966666667, "bike_id": "5c66f00afaa27daf0244f2d501db4654", "fusion_lon": 0.0}, {"rental_uris": {"ios": "https://dc.lft.to/lastmile_qr_scan", "android": "https://dc.lft.to/lastmile_qr_scan"}, "type": "electric_scooter", "name": "d43374e7a9f1253e507a27218479274d", "is_reserved": 0, "lon": -77.03284966666666, "is_disabled": 0, "fusion_lat": 0.0, "lat": 38.93887016666667, "bike_id": "d43374e7a9f1253e507a27218479274d", "fusion_lon": 0.0}, {"rental_uris": {"ios": "https://dc.lft.to/lastmile_qr_scan", "android": "https://dc.lft.to/lastmile_qr_scan"}, "type": "electric_scooter", "name": "619dc50dc52479e4d93ae845a84f745c", "is_reserved": 0, "lon": -77.03449883333333, "is_disabled": 0, "fusion_lat": 0.0, "lat": 38.919259, "bike_id": "619dc50dc52479e4d93ae845a84f745c", "fusion_lon": 0.0}, {"rental_uris": {"ios": "https://dc.lft.to/lastmile_qr_scan", "android": "https://dc.lft.to/lastmile_qr_scan"}, "type": "electric_scooter", "name": "46b8e401ea49076132a7776df7dcbe73", "is_reserved": 0, "lon": -77.0365815, "is_disabled": 0, "fusion_lat": 0.0, "lat": 38.91394233333333, "bike_id": "46b8e401ea49076132a7776df7dcbe73", "fusion_lon": 0.0}, {"rental_uris": {"ios": "https://dc.lft.to/lastmile_qr_scan", "android": "https://dc.lft.to/lastmile_qr_scan"}, "type": "electric_scooter", "name": "242a041a40d09dde36988f49adaf478c", "is_reserved": 0, "lon": -77.03225133333333, "is_disabled": 0, "fusion_lat": 0.0, "lat": 38.88713083333333, "bike_id": "242a041a40d09dde36988f49adaf478c", "fusion_lon": 0.0}, {"rental_uris": {"ios": "https://dc.lft.to/lastmile_qr_scan", "android": "https://dc.lft.to/lastmile_qr_scan"}, "type": "electric_scooter", "name": "aed28b9920bb0a00f8b640bd8e98d53f", "is_reserved": 0, "lon": -77.04343516666667, "is_disabled": 0, "fusion_lat": 0.0, "lat": 38.89696933333333, "bike_id": "aed28b9920bb0a00f8b640bd8e98d53f", "fusion_lon": 0.0}, {"rental_uris": {"ios": "https://dc.lft.to/lastmile_qr_scan", "android": "https://dc.lft.to/lastmile_qr_scan"}, "type": "electric_bike", "name": "d1d7309e541a68742577d4f1826a4985", "is_reserved": 0, "lon": -76.9688855, "is_disabled": 0, "fusion_lat": 0.0, "lat": 38.869882833333335, "bike_id": "d1d7309e541a68742577d4f1826a4985", "fusion_lon": 0.0}, {"rental_uris": {"ios": "https://dc.lft.to/lastmile_qr_scan", "android": "https://dc.lft.to/lastmile_qr_scan"}, "type": "electric_scooter", "name": "bffa34e2e1b4f4f3597e1c228c6c5e6c", "is_reserved": 0, "lon": -77.026489, "is_disabled": 0, "fusion_lat": 0.0, "lat": 38.931065333333336, "bike_id": "bffa34e2e1b4f4f3597e1c228c6c5e6c", "fusion_lon": 0.0}, {"rental_uris": {"ios": "https://dc.lft.to/lastmile_qr_scan", "android": "https://dc.lft.to/lastmile_qr_scan"}, "type": "electric_scooter", "name": "4ce93fb69fb289f7d7021094702c64d0", "is_reserved": 0, "lon": -77.0370075, "is_disabled": 0, "fusion_lat": 0.0, "lat": 38.93285616666667, "bike_id": "4ce93fb69fb289f7d7021094702c64d0", "fusion_lon": 0.0}, {"rental_uris": {"ios": "https://dc.lft.to/lastmile_qr_scan", "android": "https://dc.lft.to/lastmile_qr_scan"}, "type": "electric_scooter", "name": "9a021c486200cc57db9522ccc4417ff1", "is_reserved": 0, "lon": -77.05326766666667, "is_disabled": 0, "fusion_lat": 0.0, "lat": 38.9045975, "bike_id": "9a021c486200cc57db9522ccc4417ff1", "fusion_lon": 0.0}, {"rental_uris": {"ios": "https://dc.lft.to/lastmile_qr_scan", "android": "https://dc.lft.to/lastmile_qr_scan"}, "type": "electric_scooter", "name": "1253a3bc3464bc14dae44a928f95e736", "is_reserved": 0, "lon": -77.032289, "is_disabled": 0, "fusion_lat": 0.0, "lat": 38.89899116666667, "bike_id": "1253a3bc3464bc14dae44a928f95e736", "fusion_lon": 0.0}, {"rental_uris": {"ios": "https://dc.lft.to/lastmile_qr_scan", "android": "https://dc.lft.to/lastmile_qr_scan"}, "type": "electric_scooter", "name": "6877b66f236d97a120322439b117f447", "is_reserved": 0, "lon": -77.030691, "is_disabled": 0, "fusion_lat": 0.0, "lat": 38.90264883333333, "bike_id": "6877b66f236d97a120322439b117f447", "fusion_lon": 0.0}, {"rental_uris": {"ios": "https://dc.lft.to/lastmile_qr_scan", "android": "https://dc.lft.to/lastmile_qr_scan"}, "type": "electric_scooter", "name": "979fca616d42d63ab9926eedc978d0ed", "is_reserved": 0, "lon": -77.00124133333334, "is_disabled": 0, "fusion_lat": 0.0, "lat": 38.87383233333333, "bike_id": "979fca616d42d63ab9926eedc978d0ed", "fusion_lon": 0.0}, {"rental_uris": {"ios": "https://dc.lft.to/lastmile_qr_scan", "android": "https://dc.lft.to/lastmile_qr_scan"}, "type": "electric_scooter", "name": "ffcb40bc01da08c4449654828396fd7e", "is_reserved": 0, "lon": -77.025872, "is_disabled": 0, "fusion_lat": 0.0, "lat": 38.92041866666667, "bike_id": "ffcb40bc01da08c4449654828396fd7e", "fusion_lon": 0.0}, {"rental_uris": {"ios": "https://dc.lft.to/lastmile_qr_scan", "android": "https://dc.lft.to/lastmile_qr_scan"}, "type": "electric_scooter", "name": "ef227c8289670abfefcebdaff562c007", "is_reserved": 0, "lon": -77.04596533333333, "is_disabled": 0, "fusion_lat": 0.0, "lat": 38.91863933333333, "bike_id": "ef227c8289670abfefcebdaff562c007", "fusion_lon": 0.0}, {"rental_uris": {"ios": "https://dc.lft.to/lastmile_qr_scan", "android": "https://dc.lft.to/lastmile_qr_scan"}, "type": "electric_scooter", "name": "77e98609279546db0345d62072e65961", "is_reserved": 0, "lon": -77.0523275, "is_disabled": 0, "fusion_lat": 0.0, "lat": 38.89859083333333, "bike_id": "77e98609279546db0345d62072e65961", "fusion_lon": 0.0}, {"rental_uris": {"ios": "https://dc.lft.to/lastmile_qr_scan", "android": "https://dc.lft.to/lastmile_qr_scan"}, "type": "electric_scooter", "name": "7f32978c9922e5bdd8b2a5ed779f907a", "is_reserved": 0, "lon": -77.038307, "is_disabled": 0, "fusion_lat": 0.0, "lat": 38.91115216666667, "bike_id": "7f32978c9922e5bdd8b2a5ed779f907a", "fusion_lon": 0.0}, {"rental_uris": {"ios": "https://dc.lft.to/lastmile_qr_scan", "android": "https://dc.lft.to/lastmile_qr_scan"}, "type": "electric_scooter", "name": "17438743b20d5a143313cb9441f7af87", "is_reserved": 0, "lon": -77.02554983333333, "is_disabled": 0, "fusion_lat": 0.0, "lat": 38.9310135, "bike_id": "17438743b20d5a143313cb9441f7af87", "fusion_lon": 0.0}, {"rental_uris": {"ios": "https://dc.lft.to/lastmile_qr_scan", "android": "https://dc.lft.to/lastmile_qr_scan"}, "type": "electric_scooter", "name": "c5ac3febe631af60fef1af75ff15523d", "is_reserved": 0, "lon": -77.05270366666667, "is_disabled": 0, "fusion_lat": 0.0, "lat": 38.925644166666665, "bike_id": "c5ac3febe631af60fef1af75ff15523d", "fusion_lon": 0.0}, {"rental_uris": {"ios": "https://dc.lft.to/lastmile_qr_scan", "android": "https://dc.lft.to/lastmile_qr_scan"}, "type": "electric_scooter", "name": "2a8f60c10af4b50fa568c10636daf242", "is_reserved": 0, "lon": -77.039359, "is_disabled": 0, "fusion_lat": 0.0, "lat": 38.90166716666667, "bike_id": "2a8f60c10af4b50fa568c10636daf242", "fusion_lon": 0.0}, {"rental_uris": {"ios": "https://dc.lft.to/lastmile_qr_scan", "android": "https://dc.lft.to/lastmile_qr_scan"}, "type": "electric_scooter", "name": "3749f3fbb2371f0cf2d1d7be5705bc0c", "is_reserved": 0, "lon": -77.03218966666667, "is_disabled": 0, "fusion_lat": 0.0, "lat": 38.898511, "bike_id": "3749f3fbb2371f0cf2d1d7be5705bc0c", "fusion_lon": 0.0}, {"rental_uris": {"ios": "https://dc.lft.to/lastmile_qr_scan", "android": "https://dc.lft.to/lastmile_qr_scan"}, "type": "electric_scooter", "name": "67bb627ddbf8c9b517b13df6da198b44", "is_reserved": 0, "lon": -77.04764466666667, "is_disabled": 0, "fusion_lat": 0.0, "lat": 38.9186625, "bike_id": "67bb627ddbf8c9b517b13df6da198b44", "fusion_lon": 0.0}, {"rental_uris": {"ios": "https://dc.lft.to/lastmile_qr_scan", "android": "https://dc.lft.to/lastmile_qr_scan"}, "type": "electric_scooter", "name": "75cad77f0fc3df4156010c3f6e31075f", "is_reserved": 0, "lon": -77.0019635, "is_disabled": 0, "fusion_lat": 0.0, "lat": 38.90246716666667, "bike_id": "75cad77f0fc3df4156010c3f6e31075f", "fusion_lon": 0.0}, {"rental_uris": {"ios": "https://dc.lft.to/lastmile_qr_scan", "android": "https://dc.lft.to/lastmile_qr_scan"}, "type": "electric_scooter", "name": "525a7ed9568bc281683e39fc1072d877", "is_reserved": 0, "lon": -77.03317683333333, "is_disabled": 0, "fusion_lat": 0.0, "lat": 38.9181405, "bike_id": "525a7ed9568bc281683e39fc1072d877", "fusion_lon": 0.0}, {"rental_uris": {"ios": "https://dc.lft.to/lastmile_qr_scan", "android": "https://dc.lft.to/lastmile_qr_scan"}, "type": "electric_scooter", "name": "660cba7ed6e8a2b00def6bb2e56e1c68", "is_reserved": 0, "lon": -77.02510716666667, "is_disabled": 0, "fusion_lat": 0.0, "lat": 38.89751283333333, "bike_id": "660cba7ed6e8a2b00def6bb2e56e1c68", "fusion_lon": 0.0}, {"rental_uris": {"ios": "https://dc.lft.to/lastmile_qr_scan", "android": "https://dc.lft.to/lastmile_qr_scan"}, "type": "electric_scooter", "name": "cd065cf54c45dab14e2096b9ec14bf69", "is_reserved": 0, "lon": -77.03227833333334, "is_disabled": 0, "fusion_lat": 0.0, "lat": 38.9078985, "bike_id": "cd065cf54c45dab14e2096b9ec14bf69", "fusion_lon": 0.0}, {"rental_uris": {"ios": "https://dc.lft.to/lastmile_qr_scan", "android": "https://dc.lft.to/lastmile_qr_scan"}, "type": "electric_bike", "name": "5185de0cd10ef9eaf52cd262c73e9dbb", "is_reserved": 0, "lon": -77.00674833333333, "is_disabled": 0, "fusion_lat": 0.0, "lat": 38.945158, "bike_id": "5185de0cd10ef9eaf52cd262c73e9dbb", "fusion_lon": 0.0}, {"rental_uris": {"ios": "https://dc.lft.to/lastmile_qr_scan", "android": "https://dc.lft.to/lastmile_qr_scan"}, "type": "electric_scooter", "name": "666006f978cf9d0b811c38c1aa88cd6d", "is_reserved": 0, "lon": -77.05123533333334, "is_disabled": 0, "fusion_lat": 0.0, "lat": 38.898003833333334, "bike_id": "666006f978cf9d0b811c38c1aa88cd6d", "fusion_lon": 0.0}, {"rental_uris": {"ios": "https://dc.lft.to/lastmile_qr_scan", "android": "https://dc.lft.to/lastmile_qr_scan"}, "type": "electric_scooter", "name": "222063840146f0d4ebfc532352d56c67", "is_reserved": 0, "lon": -77.0070625, "is_disabled": 0, "fusion_lat": 0.0, "lat": 38.90566283333333, "bike_id": "222063840146f0d4ebfc532352d56c67", "fusion_lon": 0.0}, {"rental_uris": {"ios": "https://dc.lft.to/lastmile_qr_scan", "android": "https://dc.lft.to/lastmile_qr_scan"}, "type": "electric_scooter", "name": "0cf4eeb2bdeaa7f13a9c3fae103f6671", "is_reserved": 0, "lon": -77.03847883333333, "is_disabled": 0, "fusion_lat": 0.0, "lat": 38.91176166666666, "bike_id": "0cf4eeb2bdeaa7f13a9c3fae103f6671", "fusion_lon": 0.0}, {"rental_uris": {"ios": "https://dc.lft.to/lastmile_qr_scan", "android": "https://dc.lft.to/lastmile_qr_scan"}, "type": "electric_scooter", "name": "f81dd58de92407bc19f17dfe791c8d20", "is_reserved": 0, "lon": -77.03297533333334, "is_disabled": 0, "fusion_lat": 0.0, "lat": 38.89915333333333, "bike_id": "f81dd58de92407bc19f17dfe791c8d20", "fusion_lon": 0.0}, {"rental_uris": {"ios": "https://dc.lft.to/lastmile_qr_scan", "android": "https://dc.lft.to/lastmile_qr_scan"}, "type": "electric_scooter", "name": "5d7ba6d29f8cc909447c5bce70895f22", "is_reserved": 0, "lon": -77.01216633333334, "is_disabled": 0, "fusion_lat": 0.0, "lat": 38.8767225, "bike_id": "5d7ba6d29f8cc909447c5bce70895f22", "fusion_lon": 0.0}, {"rental_uris": {"ios": "https://dc.lft.to/lastmile_qr_scan", "android": "https://dc.lft.to/lastmile_qr_scan"}, "type": "electric_scooter", "name": "c49404f4465af25c42a8c937fd5bda6c", "is_reserved": 0, "lon": -77.0294645, "is_disabled": 0, "fusion_lat": 0.0, "lat": 38.907215666666666, "bike_id": "c49404f4465af25c42a8c937fd5bda6c", "fusion_lon": 0.0}, {"rental_uris": {"ios": "https://dc.lft.to/lastmile_qr_scan", "android": "https://dc.lft.to/lastmile_qr_scan"}, "type": "electric_scooter", "name": "97115016c36c34da5bd288d3d6fab570", "is_reserved": 0, "lon": -77.02091683333333, "is_disabled": 0, "fusion_lat": 0.0, "lat": 38.92319083333334, "bike_id": "97115016c36c34da5bd288d3d6fab570", "fusion_lon": 0.0}, {"rental_uris": {"ios": "https://dc.lft.to/lastmile_qr_scan", "android": "https://dc.lft.to/lastmile_qr_scan"}, "type": "electric_scooter", "name": "52abe52af49dd94584ce3a1ca9b7b02c", "is_reserved": 0, "lon": -77.04568483333334, "is_disabled": 0, "fusion_lat": 0.0, "lat": 38.91413266666667, "bike_id": "52abe52af49dd94584ce3a1ca9b7b02c", "fusion_lon": 0.0}, {"rental_uris": {"ios": "https://dc.lft.to/lastmile_qr_scan", "android": "https://dc.lft.to/lastmile_qr_scan"}, "type": "electric_scooter", "name": "cabee7ff7ee2485a6152256e16cdfdb0", "is_reserved": 0, "lon": -77.00708883333333, "is_disabled": 0, "fusion_lat": 0.0, "lat": 38.8849315, "bike_id": "cabee7ff7ee2485a6152256e16cdfdb0", "fusion_lon": 0.0}, {"rental_uris": {"ios": "https://dc.lft.to/lastmile_qr_scan", "android": "https://dc.lft.to/lastmile_qr_scan"}, "type": "electric_scooter", "name": "e982a71b476474b82a1be0bb21f23dce", "is_reserved": 0, "lon": -77.02445083333333, "is_disabled": 0, "fusion_lat": 0.0, "lat": 38.920454, "bike_id": "e982a71b476474b82a1be0bb21f23dce", "fusion_lon": 0.0}, {"rental_uris": {"ios": "https://dc.lft.to/lastmile_qr_scan", "android": "https://dc.lft.to/lastmile_qr_scan"}, "type": "electric_scooter", "name": "8b45308062647cef4ef27732c92f9bcf", "is_reserved": 0, "lon": -77.02944633333334, "is_disabled": 0, "fusion_lat": 0.0, "lat": 38.90508966666667, "bike_id": "8b45308062647cef4ef27732c92f9bcf", "fusion_lon": 0.0}, {"rental_uris": {"ios": "https://dc.lft.to/lastmile_qr_scan", "android": "https://dc.lft.to/lastmile_qr_scan"}, "type": "electric_scooter", "name": "e68ebbeb78f6b37a1659d0b2f2938f1e", "is_reserved": 0, "lon": -77.06118716666667, "is_disabled": 0, "fusion_lat": 0.0, "lat": 38.905052833333336, "bike_id": "e68ebbeb78f6b37a1659d0b2f2938f1e", "fusion_lon": 0.0}, {"rental_uris": {"ios": "https://dc.lft.to/lastmile_qr_scan", "android": "https://dc.lft.to/lastmile_qr_scan"}, "type": "electric_scooter", "name": "80250e25ffd6951d897b8baceb469b83", "is_reserved": 0, "lon": -77.02227366666666, "is_disabled": 0, "fusion_lat": 0.0, "lat": 38.89362716666667, "bike_id": "80250e25ffd6951d897b8baceb469b83", "fusion_lon": 0.0}, {"rental_uris": {"ios": "https://dc.lft.to/lastmile_qr_scan", "android": "https://dc.lft.to/lastmile_qr_scan"}, "type": "electric_scooter", "name": "e2621bdbbc11f6992cc40c0a16a166ed", "is_reserved": 0, "lon": -77.02590366666666, "is_disabled": 0, "fusion_lat": 0.0, "lat": 38.9054335, "bike_id": "e2621bdbbc11f6992cc40c0a16a166ed", "fusion_lon": 0.0}, {"rental_uris": {"ios": "https://dc.lft.to/lastmile_qr_scan", "android": "https://dc.lft.to/lastmile_qr_scan"}, "type": "electric_scooter", "name": "38779b301df5a5136fda128025be5608", "is_reserved": 0, "lon": -77.02095, "is_disabled": 0, "fusion_lat": 0.0, "lat": 38.930209833333336, "bike_id": "38779b301df5a5136fda128025be5608", "fusion_lon": 0.0}, {"rental_uris": {"ios": "https://dc.lft.to/lastmile_qr_scan", "android": "https://dc.lft.to/lastmile_qr_scan"}, "type": "electric_scooter", "name": "72396afe235c17c4bc0501cbe3675270", "is_reserved": 0, "lon": -77.0131145, "is_disabled": 0, "fusion_lat": 0.0, "lat": 38.90701083333333, "bike_id": "72396afe235c17c4bc0501cbe3675270", "fusion_lon": 0.0}, {"rental_uris": {"ios": "https://dc.lft.to/lastmile_qr_scan", "android": "https://dc.lft.to/lastmile_qr_scan"}, "type": "electric_scooter", "name": "31f63cf62463a61ed9ba49aa041f6b05", "is_reserved": 0, "lon": -77.041858, "is_disabled": 0, "fusion_lat": 0.0, "lat": 38.92056083333333, "bike_id": "31f63cf62463a61ed9ba49aa041f6b05", "fusion_lon": 0.0}, {"rental_uris": {"ios": "https://dc.lft.to/lastmile_qr_scan", "android": "https://dc.lft.to/lastmile_qr_scan"}, "type": "electric_bike", "name": "f2dc605a824a3211f2493fbc563985ae", "is_reserved": 0, "lon": -77.12840566666667, "is_disabled": 0, "fusion_lat": 0.0, "lat": 38.8005755, "bike_id": "f2dc605a824a3211f2493fbc563985ae", "fusion_lon": 0.0}, {"rental_uris": {"ios": "https://dc.lft.to/lastmile_qr_scan", "android": "https://dc.lft.to/lastmile_qr_scan"}, "type": "electric_scooter", "name": "ef4ca0954d89fa498b1817841f624994", "is_reserved": 0, "lon": -77.0323895, "is_disabled": 0, "fusion_lat": 0.0, "lat": 38.89822916666667, "bike_id": "ef4ca0954d89fa498b1817841f624994", "fusion_lon": 0.0}, {"rental_uris": {"ios": "https://dc.lft.to/lastmile_qr_scan", "android": "https://dc.lft.to/lastmile_qr_scan"}, "type": "electric_scooter", "name": "ada3f894b97c96d9a851b8355d95158d", "is_reserved": 0, "lon": -77.02370933333333, "is_disabled": 0, "fusion_lat": 0.0, "lat": 38.900435, "bike_id": "ada3f894b97c96d9a851b8355d95158d", "fusion_lon": 0.0}, {"rental_uris": {"ios": "https://dc.lft.to/lastmile_qr_scan", "android": "https://dc.lft.to/lastmile_qr_scan"}, "type": "electric_scooter", "name": "a12e36bf95e7907b63630d482d88cbaa", "is_reserved": 0, "lon": -77.03824783333333, "is_disabled": 0, "fusion_lat": 0.0, "lat": 38.912592, "bike_id": "a12e36bf95e7907b63630d482d88cbaa", "fusion_lon": 0.0}, {"rental_uris": {"ios": "https://dc.lft.to/lastmile_qr_scan", "android": "https://dc.lft.to/lastmile_qr_scan"}, "type": "electric_scooter", "name": "2017bbe6e3ed8d53cfa400759b4b7c5a", "is_reserved": 0, "lon": -77.03081683333333, "is_disabled": 0, "fusion_lat": 0.0, "lat": 38.935236833333335, "bike_id": "2017bbe6e3ed8d53cfa400759b4b7c5a", "fusion_lon": 0.0}, {"rental_uris": {"ios": "https://dc.lft.to/lastmile_qr_scan", "android": "https://dc.lft.to/lastmile_qr_scan"}, "type": "electric_scooter", "name": "4418213e733e6e4220445e2146c9d918", "is_reserved": 0, "lon": -77.04370166666666, "is_disabled": 0, "fusion_lat": 0.0, "lat": 38.89228333333333, "bike_id": "4418213e733e6e4220445e2146c9d918", "fusion_lon": 0.0}, {"rental_uris": {"ios": "https://dc.lft.to/lastmile_qr_scan", "android": "https://dc.lft.to/lastmile_qr_scan"}, "type": "electric_scooter", "name": "a874d67c6a84b47ed1a116c844b4b8a6", "is_reserved": 0, "lon": -77.02581433333333, "is_disabled": 0, "fusion_lat": 0.0, "lat": 38.92533516666667, "bike_id": "a874d67c6a84b47ed1a116c844b4b8a6", "fusion_lon": 0.0}, {"rental_uris": {"ios": "https://dc.lft.to/lastmile_qr_scan", "android": "https://dc.lft.to/lastmile_qr_scan"}, "type": "electric_scooter", "name": "37df6bab9b0f124c6c1e82b53e8540e0", "is_reserved": 0, "lon": -77.00183283333334, "is_disabled": 0, "fusion_lat": 0.0, "lat": 38.9003615, "bike_id": "37df6bab9b0f124c6c1e82b53e8540e0", "fusion_lon": 0.0}, {"rental_uris": {"ios": "https://dc.lft.to/lastmile_qr_scan", "android": "https://dc.lft.to/lastmile_qr_scan"}, "type": "electric_scooter", "name": "8a91ff7430cd76d14558de1a7c5e908b", "is_reserved": 0, "lon": -77.0456015, "is_disabled": 0, "fusion_lat": 0.0, "lat": 38.913281, "bike_id": "8a91ff7430cd76d14558de1a7c5e908b", "fusion_lon": 0.0}, {"rental_uris": {"ios": "https://dc.lft.to/lastmile_qr_scan", "android": "https://dc.lft.to/lastmile_qr_scan"}, "type": "electric_bike", "name": "4dc88265632b7701a57020c07501d69b", "is_reserved": 0, "lon": -76.97776233333333, "is_disabled": 0, "fusion_lat": 0.0, "lat": 38.85725133333333, "bike_id": "4dc88265632b7701a57020c07501d69b", "fusion_lon": 0.0}, {"rental_uris": {"ios": "https://dc.lft.to/lastmile_qr_scan", "android": "https://dc.lft.to/lastmile_qr_scan"}, "type": "electric_scooter", "name": "9246b0d2bd7bb1c8291cff20ab080076", "is_reserved": 0, "lon": -77.02505616666667, "is_disabled": 0, "fusion_lat": 0.0, "lat": 38.94211883333333, "bike_id": "9246b0d2bd7bb1c8291cff20ab080076", "fusion_lon": 0.0}, {"rental_uris": {"ios": "https://dc.lft.to/lastmile_qr_scan", "android": "https://dc.lft.to/lastmile_qr_scan"}, "type": "electric_scooter", "name": "e6e3ac5eaedeaead94f1f3fc7d8ea530", "is_reserved": 0, "lon": -77.0264435, "is_disabled": 0, "fusion_lat": 0.0, "lat": 38.907269166666666, "bike_id": "e6e3ac5eaedeaead94f1f3fc7d8ea530", "fusion_lon": 0.0}, {"rental_uris": {"ios": "https://dc.lft.to/lastmile_qr_scan", "android": "https://dc.lft.to/lastmile_qr_scan"}, "type": "electric_scooter", "name": "e58320fc78cfcc022c205bd975ac705d", "is_reserved": 0, "lon": -77.01759316666667, "is_disabled": 0, "fusion_lat": 0.0, "lat": 38.92111, "bike_id": "e58320fc78cfcc022c205bd975ac705d", "fusion_lon": 0.0}, {"rental_uris": {"ios": "https://dc.lft.to/lastmile_qr_scan", "android": "https://dc.lft.to/lastmile_qr_scan"}, "type": "electric_scooter", "name": "67a7e7ad17a3d47beff636088174144f", "is_reserved": 0, "lon": -77.00918333333334, "is_disabled": 0, "fusion_lat": 0.0, "lat": 38.881954666666665, "bike_id": "67a7e7ad17a3d47beff636088174144f", "fusion_lon": 0.0}, {"rental_uris": {"ios": "https://dc.lft.to/lastmile_qr_scan", "android": "https://dc.lft.to/lastmile_qr_scan"}, "type": "electric_scooter", "name": "76d0e85502809cdad63f5c9d83b72532", "is_reserved": 0, "lon": -77.03266833333333, "is_disabled": 0, "fusion_lat": 0.0, "lat": 38.91982633333333, "bike_id": "76d0e85502809cdad63f5c9d83b72532", "fusion_lon": 0.0}, {"rental_uris": {"ios": "https://dc.lft.to/lastmile_qr_scan", "android": "https://dc.lft.to/lastmile_qr_scan"}, "type": "electric_scooter", "name": "f8db80d8600ed4ca2e953c37d87994ff", "is_reserved": 0, "lon": -77.02090866666667, "is_disabled": 0, "fusion_lat": 0.0, "lat": 38.881915666666664, "bike_id": "f8db80d8600ed4ca2e953c37d87994ff", "fusion_lon": 0.0}, {"rental_uris": {"ios": "https://dc.lft.to/lastmile_qr_scan", "android": "https://dc.lft.to/lastmile_qr_scan"}, "type": "electric_scooter", "name": "1e9c8382a995301ebcb25581272ca016", "is_reserved": 0, "lon": -77.0122465, "is_disabled": 0, "fusion_lat": 0.0, "lat": 38.92039116666667, "bike_id": "1e9c8382a995301ebcb25581272ca016", "fusion_lon": 0.0}, {"rental_uris": {"ios": "https://dc.lft.to/lastmile_qr_scan", "android": "https://dc.lft.to/lastmile_qr_scan"}, "type": "electric_scooter", "name": "8b5c53cfaea7a5e46e4c45cedd57b039", "is_reserved": 0, "lon": -77.04646333333334, "is_disabled": 0, "fusion_lat": 0.0, "lat": 38.919818666666664, "bike_id": "8b5c53cfaea7a5e46e4c45cedd57b039", "fusion_lon": 0.0}, {"rental_uris": {"ios": "https://dc.lft.to/lastmile_qr_scan", "android": "https://dc.lft.to/lastmile_qr_scan"}, "type": "electric_scooter", "name": "b667c5e9c776fc0c24dec991eeb26622", "is_reserved": 0, "lon": -77.02138466666666, "is_disabled": 0, "fusion_lat": 0.0, "lat": 38.924036666666666, "bike_id": "b667c5e9c776fc0c24dec991eeb26622", "fusion_lon": 0.0}, {"rental_uris": {"ios": "https://dc.lft.to/lastmile_qr_scan", "android": "https://dc.lft.to/lastmile_qr_scan"}, "type": "electric_scooter", "name": "607b2aed8674e3f50b59bf5385b7e582", "is_reserved": 0, "lon": -77.036717, "is_disabled": 0, "fusion_lat": 0.0, "lat": 38.91324383333333, "bike_id": "607b2aed8674e3f50b59bf5385b7e582", "fusion_lon": 0.0}, {"rental_uris": {"ios": "https://dc.lft.to/lastmile_qr_scan", "android": "https://dc.lft.to/lastmile_qr_scan"}, "type": "electric_scooter", "name": "05c76690e6d407af18f8e877e76dea19", "is_reserved": 0, "lon": -77.03764133333334, "is_disabled": 0, "fusion_lat": 0.0, "lat": 38.92329633333333, "bike_id": "05c76690e6d407af18f8e877e76dea19", "fusion_lon": 0.0}, {"rental_uris": {"ios": "https://dc.lft.to/lastmile_qr_scan", "android": "https://dc.lft.to/lastmile_qr_scan"}, "type": "electric_scooter", "name": "404d654a165d37ec534f51a280114648", "is_reserved": 0, "lon": -77.0297795, "is_disabled": 0, "fusion_lat": 0.0, "lat": 38.922535, "bike_id": "404d654a165d37ec534f51a280114648", "fusion_lon": 0.0}, {"rental_uris": {"ios": "https://dc.lft.to/lastmile_qr_scan", "android": "https://dc.lft.to/lastmile_qr_scan"}, "type": "electric_scooter", "name": "8d1653a4a632f90069dc22096c3a96bf", "is_reserved": 0, "lon": -77.053728, "is_disabled": 0, "fusion_lat": 0.0, "lat": 38.923352333333334, "bike_id": "8d1653a4a632f90069dc22096c3a96bf", "fusion_lon": 0.0}, {"rental_uris": {"ios": "https://dc.lft.to/lastmile_qr_scan", "android": "https://dc.lft.to/lastmile_qr_scan"}, "type": "electric_scooter", "name": "c258d4d693a814f70779b3bf69630408", "is_reserved": 0, "lon": -76.99611266666666, "is_disabled": 0, "fusion_lat": 0.0, "lat": 38.90919516666666, "bike_id": "c258d4d693a814f70779b3bf69630408", "fusion_lon": 0.0}, {"rental_uris": {"ios": "https://dc.lft.to/lastmile_qr_scan", "android": "https://dc.lft.to/lastmile_qr_scan"}, "type": "electric_scooter", "name": "57c639fd8eeb2161f2e12944bc938538", "is_reserved": 0, "lon": -76.97155033333334, "is_disabled": 0, "fusion_lat": 0.0, "lat": 38.91621466666667, "bike_id": "57c639fd8eeb2161f2e12944bc938538", "fusion_lon": 0.0}, {"rental_uris": {"ios": "https://dc.lft.to/lastmile_qr_scan", "android": "https://dc.lft.to/lastmile_qr_scan"}, "type": "electric_scooter", "name": "a4020b8936949bf92dde8d933daab9eb", "is_reserved": 0, "lon": -77.01447066666667, "is_disabled": 0, "fusion_lat": 0.0, "lat": 38.90964816666666, "bike_id": "a4020b8936949bf92dde8d933daab9eb", "fusion_lon": 0.0}, {"rental_uris": {"ios": "https://dc.lft.to/lastmile_qr_scan", "android": "https://dc.lft.to/lastmile_qr_scan"}, "type": "electric_scooter", "name": "a5fc2f8f576e69e56662a47b39f45f6e", "is_reserved": 0, "lon": -77.0419845, "is_disabled": 0, "fusion_lat": 0.0, "lat": 38.9074325, "bike_id": "a5fc2f8f576e69e56662a47b39f45f6e", "fusion_lon": 0.0}, {"rental_uris": {"ios": "https://dc.lft.to/lastmile_qr_scan", "android": "https://dc.lft.to/lastmile_qr_scan"}, "type": "electric_scooter", "name": "96a5f1a3acbac88f1de1336335a5059a", "is_reserved": 0, "lon": -77.01114916666667, "is_disabled": 0, "fusion_lat": 0.0, "lat": 38.8954565, "bike_id": "96a5f1a3acbac88f1de1336335a5059a", "fusion_lon": 0.0}, {"rental_uris": {"ios": "https://dc.lft.to/lastmile_qr_scan", "android": "https://dc.lft.to/lastmile_qr_scan"}, "type": "electric_scooter", "name": "c5b55712c87344f67a6378de3d035b1d", "is_reserved": 0, "lon": -77.01273216666667, "is_disabled": 0, "fusion_lat": 0.0, "lat": 38.8974045, "bike_id": "c5b55712c87344f67a6378de3d035b1d", "fusion_lon": 0.0}, {"rental_uris": {"ios": "https://dc.lft.to/lastmile_qr_scan", "android": "https://dc.lft.to/lastmile_qr_scan"}, "type": "electric_scooter", "name": "32829bfcd01957e0a5f954e979e70347", "is_reserved": 0, "lon": -77.03860733333333, "is_disabled": 0, "fusion_lat": 0.0, "lat": 38.9037685, "bike_id": "32829bfcd01957e0a5f954e979e70347", "fusion_lon": 0.0}, {"rental_uris": {"ios": "https://dc.lft.to/lastmile_qr_scan", "android": "https://dc.lft.to/lastmile_qr_scan"}, "type": "electric_scooter", "name": "72ce9e4cc87496038b486511d34e8c85", "is_reserved": 0, "lon": -77.05322283333334, "is_disabled": 0, "fusion_lat": 0.0, "lat": 38.906413666666666, "bike_id": "72ce9e4cc87496038b486511d34e8c85", "fusion_lon": 0.0}, {"rental_uris": {"ios": "https://dc.lft.to/lastmile_qr_scan", "android": "https://dc.lft.to/lastmile_qr_scan"}, "type": "electric_scooter", "name": "9e038a4640116b5056e4164c3265f4e5", "is_reserved": 0, "lon": -77.02337133333333, "is_disabled": 0, "fusion_lat": 0.0, "lat": 38.92232816666667, "bike_id": "9e038a4640116b5056e4164c3265f4e5", "fusion_lon": 0.0}, {"rental_uris": {"ios": "https://dc.lft.to/lastmile_qr_scan", "android": "https://dc.lft.to/lastmile_qr_scan"}, "type": "electric_scooter", "name": "3b2a1aff56e8e3915d1d4a12cb6576fa", "is_reserved": 0, "lon": -77.00597916666666, "is_disabled": 0, "fusion_lat": 0.0, "lat": 38.90563783333333, "bike_id": "3b2a1aff56e8e3915d1d4a12cb6576fa", "fusion_lon": 0.0}, {"rental_uris": {"ios": "https://dc.lft.to/lastmile_qr_scan", "android": "https://dc.lft.to/lastmile_qr_scan"}, "type": "electric_scooter", "name": "37990b0c3d45828c88396b7935041c0b", "is_reserved": 0, "lon": -77.0339155, "is_disabled": 0, "fusion_lat": 0.0, "lat": 38.902749666666665, "bike_id": "37990b0c3d45828c88396b7935041c0b", "fusion_lon": 0.0}, {"rental_uris": {"ios": "https://dc.lft.to/lastmile_qr_scan", "android": "https://dc.lft.to/lastmile_qr_scan"}, "type": "electric_scooter", "name": "68b87cd91d90122277e91052b6bcb207", "is_reserved": 0, "lon": -77.02489416666667, "is_disabled": 0, "fusion_lat": 0.0, "lat": 38.902521666666665, "bike_id": "68b87cd91d90122277e91052b6bcb207", "fusion_lon": 0.0}, {"rental_uris": {"ios": "https://dc.lft.to/lastmile_qr_scan", "android": "https://dc.lft.to/lastmile_qr_scan"}, "type": "electric_bike", "name": "d09ae685c3246f29ddd1dd7c718af685", "is_reserved": 0, "lon": -76.97554783333334, "is_disabled": 0, "fusion_lat": 0.0, "lat": 38.90450383333334, "bike_id": "d09ae685c3246f29ddd1dd7c718af685", "fusion_lon": 0.0}, {"rental_uris": {"ios": "https://dc.lft.to/lastmile_qr_scan", "android": "https://dc.lft.to/lastmile_qr_scan"}, "type": "electric_scooter", "name": "285b0edd44f18da506ad83fe4cee7fbd", "is_reserved": 0, "lon": -77.04370583333333, "is_disabled": 0, "fusion_lat": 0.0, "lat": 38.8923045, "bike_id": "285b0edd44f18da506ad83fe4cee7fbd", "fusion_lon": 0.0}, {"rental_uris": {"ios": "https://dc.lft.to/lastmile_qr_scan", "android": "https://dc.lft.to/lastmile_qr_scan"}, "type": "electric_bike", "name": "fa9d1807a102e7abbdbcf1e630113ac2", "is_reserved": 0, "lon": -76.9515945, "is_disabled": 0, "fusion_lat": 0.0, "lat": 39.084428, "bike_id": "fa9d1807a102e7abbdbcf1e630113ac2", "fusion_lon": 0.0}, {"rental_uris": {"ios": "https://dc.lft.to/lastmile_qr_scan", "android": "https://dc.lft.to/lastmile_qr_scan"}, "type": "electric_scooter", "name": "7d723e6fd7b1819b8597550e695895ef", "is_reserved": 0, "lon": -77.01937716666667, "is_disabled": 0, "fusion_lat": 0.0, "lat": 38.9470585, "bike_id": "7d723e6fd7b1819b8597550e695895ef", "fusion_lon": 0.0}, {"rental_uris": {"ios": "https://dc.lft.to/lastmile_qr_scan", "android": "https://dc.lft.to/lastmile_qr_scan"}, "type": "electric_scooter", "name": "edf9488990526ff0d474a484eeaf400b", "is_reserved": 0, "lon": -77.01830183333334, "is_disabled": 0, "fusion_lat": 0.0, "lat": 38.900851, "bike_id": "edf9488990526ff0d474a484eeaf400b", "fusion_lon": 0.0}, {"rental_uris": {"ios": "https://dc.lft.to/lastmile_qr_scan", "android": "https://dc.lft.to/lastmile_qr_scan"}, "type": "electric_scooter", "name": "06170e8774f4453616f24c57f78b4403", "is_reserved": 0, "lon": -77.0308895, "is_disabled": 0, "fusion_lat": 0.0, "lat": 38.933114, "bike_id": "06170e8774f4453616f24c57f78b4403", "fusion_lon": 0.0}, {"rental_uris": {"ios": "https://dc.lft.to/lastmile_qr_scan", "android": "https://dc.lft.to/lastmile_qr_scan"}, "type": "electric_scooter", "name": "e23c8d134ef8c8b5ad00f304c91e1222", "is_reserved": 0, "lon": -77.0345095, "is_disabled": 0, "fusion_lat": 0.0, "lat": 38.90103533333333, "bike_id": "e23c8d134ef8c8b5ad00f304c91e1222", "fusion_lon": 0.0}, {"rental_uris": {"ios": "https://dc.lft.to/lastmile_qr_scan", "android": "https://dc.lft.to/lastmile_qr_scan"}, "type": "electric_scooter", "name": "1ae569c883eebba4105b2a0674eac154", "is_reserved": 0, "lon": -77.00156483333333, "is_disabled": 0, "fusion_lat": 0.0, "lat": 38.821363833333336, "bike_id": "1ae569c883eebba4105b2a0674eac154", "fusion_lon": 0.0}, {"rental_uris": {"ios": "https://dc.lft.to/lastmile_qr_scan", "android": "https://dc.lft.to/lastmile_qr_scan"}, "type": "electric_scooter", "name": "535f19af4927b31fb4e4293437540310", "is_reserved": 0, "lon": -77.0278655, "is_disabled": 0, "fusion_lat": 0.0, "lat": 38.892239000000004, "bike_id": "535f19af4927b31fb4e4293437540310", "fusion_lon": 0.0}, {"rental_uris": {"ios": "https://dc.lft.to/lastmile_qr_scan", "android": "https://dc.lft.to/lastmile_qr_scan"}, "type": "electric_scooter", "name": "2c21e93d05e08e07da22041c6fa727cc", "is_reserved": 0, "lon": -77.0077055, "is_disabled": 0, "fusion_lat": 0.0, "lat": 38.95247583333333, "bike_id": "2c21e93d05e08e07da22041c6fa727cc", "fusion_lon": 0.0}, {"rental_uris": {"ios": "https://dc.lft.to/lastmile_qr_scan", "android": "https://dc.lft.to/lastmile_qr_scan"}, "type": "electric_scooter", "name": "0e52f90f7a33c4d705ddaa0832809b24", "is_reserved": 0, "lon": -77.04336433333333, "is_disabled": 0, "fusion_lat": 0.0, "lat": 38.8922375, "bike_id": "0e52f90f7a33c4d705ddaa0832809b24", "fusion_lon": 0.0}, {"rental_uris": {"ios": "https://dc.lft.to/lastmile_qr_scan", "android": "https://dc.lft.to/lastmile_qr_scan"}, "type": "electric_bike", "name": "cf968852dbaec4d899f64c615bde599c", "is_reserved": 0, "lon": -77.228257, "is_disabled": 0, "fusion_lat": 0.0, "lat": 38.882714666666665, "bike_id": "cf968852dbaec4d899f64c615bde599c", "fusion_lon": 0.0}, {"rental_uris": {"ios": "https://dc.lft.to/lastmile_qr_scan", "android": "https://dc.lft.to/lastmile_qr_scan"}, "type": "electric_scooter", "name": "ff5f1db20459c0117bc23e7a4cb66974", "is_reserved": 0, "lon": -77.01819966666666, "is_disabled": 0, "fusion_lat": 0.0, "lat": 38.900807666666665, "bike_id": "ff5f1db20459c0117bc23e7a4cb66974", "fusion_lon": 0.0}, {"rental_uris": {"ios": "https://dc.lft.to/lastmile_qr_scan", "android": "https://dc.lft.to/lastmile_qr_scan"}, "type": "electric_bike", "name": "9412bfbb662ba6d41564bd061dd1251f", "is_reserved": 0, "lon": -77.01439933333333, "is_disabled": 0, "fusion_lat": 0.0, "lat": 38.876801, "bike_id": "9412bfbb662ba6d41564bd061dd1251f", "fusion_lon": 0.0}, {"rental_uris": {"ios": "https://dc.lft.to/lastmile_qr_scan", "android": "https://dc.lft.to/lastmile_qr_scan"}, "type": "electric_scooter", "name": "ea6e0ba382ea5031e4c4bb1d4843d7ff", "is_reserved": 0, "lon": -77.0283415, "is_disabled": 0, "fusion_lat": 0.0, "lat": 38.914124666666666, "bike_id": "ea6e0ba382ea5031e4c4bb1d4843d7ff", "fusion_lon": 0.0}, {"rental_uris": {"ios": "https://dc.lft.to/lastmile_qr_scan", "android": "https://dc.lft.to/lastmile_qr_scan"}, "type": "electric_scooter", "name": "38b02caf3ab8dd52312babecc524ffe5", "is_reserved": 0, "lon": -76.93040583333334, "is_disabled": 0, "fusion_lat": 0.0, "lat": 38.88388, "bike_id": "38b02caf3ab8dd52312babecc524ffe5", "fusion_lon": 0.0}, {"rental_uris": {"ios": "https://dc.lft.to/lastmile_qr_scan", "android": "https://dc.lft.to/lastmile_qr_scan"}, "type": "electric_scooter", "name": "fd16253f158732b3f995690b62349942", "is_reserved": 0, "lon": -77.04945583333334, "is_disabled": 0, "fusion_lat": 0.0, "lat": 38.92020933333333, "bike_id": "fd16253f158732b3f995690b62349942", "fusion_lon": 0.0}, {"rental_uris": {"ios": "https://dc.lft.to/lastmile_qr_scan", "android": "https://dc.lft.to/lastmile_qr_scan"}, "type": "electric_scooter", "name": "ba87222e15cfecefe9bf3c45b4974c4a", "is_reserved": 0, "lon": -76.94831083333334, "is_disabled": 0, "fusion_lat": 0.0, "lat": 38.8852075, "bike_id": "ba87222e15cfecefe9bf3c45b4974c4a", "fusion_lon": 0.0}, {"rental_uris": {"ios": "https://dc.lft.to/lastmile_qr_scan", "android": "https://dc.lft.to/lastmile_qr_scan"}, "type": "electric_scooter", "name": "b78f261915aa195ecbb8a71fe7706509", "is_reserved": 0, "lon": -77.044362, "is_disabled": 0, "fusion_lat": 0.0, "lat": 38.9013755, "bike_id": "b78f261915aa195ecbb8a71fe7706509", "fusion_lon": 0.0}, {"rental_uris": {"ios": "https://dc.lft.to/lastmile_qr_scan", "android": "https://dc.lft.to/lastmile_qr_scan"}, "type": "electric_scooter", "name": "0f67ef164cda2846ee927d774f701b88", "is_reserved": 0, "lon": -77.00921266666667, "is_disabled": 0, "fusion_lat": 0.0, "lat": 38.898827, "bike_id": "0f67ef164cda2846ee927d774f701b88", "fusion_lon": 0.0}, {"rental_uris": {"ios": "https://dc.lft.to/lastmile_qr_scan", "android": "https://dc.lft.to/lastmile_qr_scan"}, "type": "electric_scooter", "name": "9a87f860d43ad65378a0366960b46ad4", "is_reserved": 0, "lon": -77.02156833333333, "is_disabled": 0, "fusion_lat": 0.0, "lat": 38.926072, "bike_id": "9a87f860d43ad65378a0366960b46ad4", "fusion_lon": 0.0}, {"rental_uris": {"ios": "https://dc.lft.to/lastmile_qr_scan", "android": "https://dc.lft.to/lastmile_qr_scan"}, "type": "electric_scooter", "name": "7fd37c9810e2033072d5cb3c5be4e3b6", "is_reserved": 0, "lon": -77.0522385, "is_disabled": 0, "fusion_lat": 0.0, "lat": 38.90028616666667, "bike_id": "7fd37c9810e2033072d5cb3c5be4e3b6", "fusion_lon": 0.0}, {"rental_uris": {"ios": "https://dc.lft.to/lastmile_qr_scan", "android": "https://dc.lft.to/lastmile_qr_scan"}, "type": "electric_scooter", "name": "42ebaa4f0350c4b365da953dd706cd38", "is_reserved": 0, "lon": -77.06473833333334, "is_disabled": 0, "fusion_lat": 0.0, "lat": 38.910269, "bike_id": "42ebaa4f0350c4b365da953dd706cd38", "fusion_lon": 0.0}, {"rental_uris": {"ios": "https://dc.lft.to/lastmile_qr_scan", "android": "https://dc.lft.to/lastmile_qr_scan"}, "type": "electric_bike", "name": "afa9dcf23a58d07b4f3619ba3f005a68", "is_reserved": 0, "lon": -77.00140516666667, "is_disabled": 0, "fusion_lat": 0.0, "lat": 38.9950795, "bike_id": "afa9dcf23a58d07b4f3619ba3f005a68", "fusion_lon": 0.0}, {"rental_uris": {"ios": "https://dc.lft.to/lastmile_qr_scan", "android": "https://dc.lft.to/lastmile_qr_scan"}, "type": "electric_scooter", "name": "b9b0f210366502ca27202da69b9e6bc1", "is_reserved": 0, "lon": -77.004011, "is_disabled": 0, "fusion_lat": 0.0, "lat": 38.9056165, "bike_id": "b9b0f210366502ca27202da69b9e6bc1", "fusion_lon": 0.0}, {"rental_uris": {"ios": "https://dc.lft.to/lastmile_qr_scan", "android": "https://dc.lft.to/lastmile_qr_scan"}, "type": "electric_scooter", "name": "e26ad04607fae1f8fbc53838763ab7b6", "is_reserved": 0, "lon": -77.00213133333334, "is_disabled": 0, "fusion_lat": 0.0, "lat": 38.893295333333334, "bike_id": "e26ad04607fae1f8fbc53838763ab7b6", "fusion_lon": 0.0}, {"rental_uris": {"ios": "https://dc.lft.to/lastmile_qr_scan", "android": "https://dc.lft.to/lastmile_qr_scan"}, "type": "electric_scooter", "name": "7f271ecc94a6d5cbf462b40b8df97ca7", "is_reserved": 0, "lon": -77.02695666666666, "is_disabled": 0, "fusion_lat": 0.0, "lat": 38.923398166666665, "bike_id": "7f271ecc94a6d5cbf462b40b8df97ca7", "fusion_lon": 0.0}, {"rental_uris": {"ios": "https://dc.lft.to/lastmile_qr_scan", "android": "https://dc.lft.to/lastmile_qr_scan"}, "type": "electric_scooter", "name": "5cba4253fdb72fc1d0b4fcd056387b07", "is_reserved": 0, "lon": -77.04676, "is_disabled": 0, "fusion_lat": 0.0, "lat": 38.892344333333334, "bike_id": "5cba4253fdb72fc1d0b4fcd056387b07", "fusion_lon": 0.0}, {"rental_uris": {"ios": "https://dc.lft.to/lastmile_qr_scan", "android": "https://dc.lft.to/lastmile_qr_scan"}, "type": "electric_scooter", "name": "ee07b9ef3d955c6de6e5540f7a4b26b1", "is_reserved": 0, "lon": -77.04347566666667, "is_disabled": 0, "fusion_lat": 0.0, "lat": 38.908167666666664, "bike_id": "ee07b9ef3d955c6de6e5540f7a4b26b1", "fusion_lon": 0.0}, {"rental_uris": {"ios": "https://dc.lft.to/lastmile_qr_scan", "android": "https://dc.lft.to/lastmile_qr_scan"}, "type": "electric_scooter", "name": "8352de2376273ca28b2566ee60a700c1", "is_reserved": 0, "lon": -77.050642, "is_disabled": 0, "fusion_lat": 0.0, "lat": 38.900936333333334, "bike_id": "8352de2376273ca28b2566ee60a700c1", "fusion_lon": 0.0}, {"rental_uris": {"ios": "https://dc.lft.to/lastmile_qr_scan", "android": "https://dc.lft.to/lastmile_qr_scan"}, "type": "electric_scooter", "name": "93147a8fd8ab8db39aeb85c8a1277935", "is_reserved": 0, "lon": -77.04501966666666, "is_disabled": 0, "fusion_lat": 0.0, "lat": 38.89225616666667, "bike_id": "93147a8fd8ab8db39aeb85c8a1277935", "fusion_lon": 0.0}, {"rental_uris": {"ios": "https://dc.lft.to/lastmile_qr_scan", "android": "https://dc.lft.to/lastmile_qr_scan"}, "type": "electric_scooter", "name": "649cd0dc6999f58e1642211efb658424", "is_reserved": 0, "lon": -76.97937583333334, "is_disabled": 0, "fusion_lat": 0.0, "lat": 38.9066455, "bike_id": "649cd0dc6999f58e1642211efb658424", "fusion_lon": 0.0}, {"rental_uris": {"ios": "https://dc.lft.to/lastmile_qr_scan", "android": "https://dc.lft.to/lastmile_qr_scan"}, "type": "electric_scooter", "name": "89f5b44bea4c0ff24ca2b56f47984a34", "is_reserved": 0, "lon": -77.036591, "is_disabled": 0, "fusion_lat": 0.0, "lat": 38.92290366666667, "bike_id": "89f5b44bea4c0ff24ca2b56f47984a34", "fusion_lon": 0.0}, {"rental_uris": {"ios": "https://dc.lft.to/lastmile_qr_scan", "android": "https://dc.lft.to/lastmile_qr_scan"}, "type": "electric_scooter", "name": "e81e9ff890877aec86dc325fbfb1e6b7", "is_reserved": 0, "lon": -77.02205, "is_disabled": 0, "fusion_lat": 0.0, "lat": 38.895142166666666, "bike_id": "e81e9ff890877aec86dc325fbfb1e6b7", "fusion_lon": 0.0}, {"rental_uris": {"ios": "https://dc.lft.to/lastmile_qr_scan", "android": "https://dc.lft.to/lastmile_qr_scan"}, "type": "electric_scooter", "name": "e29dc50a57935079e2d97d251d5a228a", "is_reserved": 0, "lon": -77.04539016666666, "is_disabled": 0, "fusion_lat": 0.0, "lat": 38.907326833333336, "bike_id": "e29dc50a57935079e2d97d251d5a228a", "fusion_lon": 0.0}, {"rental_uris": {"ios": "https://dc.lft.to/lastmile_qr_scan", "android": "https://dc.lft.to/lastmile_qr_scan"}, "type": "electric_scooter", "name": "e8ca24ff8d3e3c7ac60ec15ff9580721", "is_reserved": 0, "lon": -77.0302935, "is_disabled": 0, "fusion_lat": 0.0, "lat": 38.92252583333333, "bike_id": "e8ca24ff8d3e3c7ac60ec15ff9580721", "fusion_lon": 0.0}, {"rental_uris": {"ios": "https://dc.lft.to/lastmile_qr_scan", "android": "https://dc.lft.to/lastmile_qr_scan"}, "type": "electric_scooter", "name": "54c947edcf3404aead32e56fc5205222", "is_reserved": 0, "lon": -77.023988, "is_disabled": 0, "fusion_lat": 0.0, "lat": 38.90678916666667, "bike_id": "54c947edcf3404aead32e56fc5205222", "fusion_lon": 0.0}, {"rental_uris": {"ios": "https://dc.lft.to/lastmile_qr_scan", "android": "https://dc.lft.to/lastmile_qr_scan"}, "type": "electric_scooter", "name": "2cac01d4480a1dfe4f30d341beaafa47", "is_reserved": 0, "lon": -77.03177566666666, "is_disabled": 0, "fusion_lat": 0.0, "lat": 38.919314, "bike_id": "2cac01d4480a1dfe4f30d341beaafa47", "fusion_lon": 0.0}, {"rental_uris": {"ios": "https://dc.lft.to/lastmile_qr_scan", "android": "https://dc.lft.to/lastmile_qr_scan"}, "type": "electric_scooter", "name": "b33f09da666c794e6a4da28b24975aa6", "is_reserved": 0, "lon": -76.99593783333333, "is_disabled": 0, "fusion_lat": 0.0, "lat": 38.9003365, "bike_id": "b33f09da666c794e6a4da28b24975aa6", "fusion_lon": 0.0}, {"rental_uris": {"ios": "https://dc.lft.to/lastmile_qr_scan", "android": "https://dc.lft.to/lastmile_qr_scan"}, "type": "electric_scooter", "name": "ffc78d849d6b035e96b2b59da6711e10", "is_reserved": 0, "lon": -77.03898066666666, "is_disabled": 0, "fusion_lat": 0.0, "lat": 38.91264616666667, "bike_id": "ffc78d849d6b035e96b2b59da6711e10", "fusion_lon": 0.0}, {"rental_uris": {"ios": "https://dc.lft.to/lastmile_qr_scan", "android": "https://dc.lft.to/lastmile_qr_scan"}, "type": "electric_scooter", "name": "9bd15b414c2a01daa4e08af502e1c45c", "is_reserved": 0, "lon": -77.06778483333333, "is_disabled": 0, "fusion_lat": 0.0, "lat": 38.904057333333334, "bike_id": "9bd15b414c2a01daa4e08af502e1c45c", "fusion_lon": 0.0}, {"rental_uris": {"ios": "https://dc.lft.to/lastmile_qr_scan", "android": "https://dc.lft.to/lastmile_qr_scan"}, "type": "electric_scooter", "name": "b423c899523f75887d59589baeee102c", "is_reserved": 0, "lon": -77.0271785, "is_disabled": 0, "fusion_lat": 0.0, "lat": 38.90457516666667, "bike_id": "b423c899523f75887d59589baeee102c", "fusion_lon": 0.0}, {"rental_uris": {"ios": "https://dc.lft.to/lastmile_qr_scan", "android": "https://dc.lft.to/lastmile_qr_scan"}, "type": "electric_scooter", "name": "7f27b03fd6c109c8c3303ef684bcc2f9", "is_reserved": 0, "lon": -77.0445935, "is_disabled": 0, "fusion_lat": 0.0, "lat": 38.9006135, "bike_id": "7f27b03fd6c109c8c3303ef684bcc2f9", "fusion_lon": 0.0}, {"rental_uris": {"ios": "https://dc.lft.to/lastmile_qr_scan", "android": "https://dc.lft.to/lastmile_qr_scan"}, "type": "electric_scooter", "name": "dc24664a9986b847e76a68e7387e2d8d", "is_reserved": 0, "lon": -77.0321565, "is_disabled": 0, "fusion_lat": 0.0, "lat": 38.898475, "bike_id": "dc24664a9986b847e76a68e7387e2d8d", "fusion_lon": 0.0}, {"rental_uris": {"ios": "https://dc.lft.to/lastmile_qr_scan", "android": "https://dc.lft.to/lastmile_qr_scan"}, "type": "electric_scooter", "name": "61f7d3eb9141b0ceeabab2cd59f23df3", "is_reserved": 0, "lon": -77.03972666666667, "is_disabled": 0, "fusion_lat": 0.0, "lat": 38.90190316666666, "bike_id": "61f7d3eb9141b0ceeabab2cd59f23df3", "fusion_lon": 0.0}, {"rental_uris": {"ios": "https://dc.lft.to/lastmile_qr_scan", "android": "https://dc.lft.to/lastmile_qr_scan"}, "type": "electric_scooter", "name": "a8979ced080646934fae5662e6139480", "is_reserved": 0, "lon": -77.01771233333334, "is_disabled": 0, "fusion_lat": 0.0, "lat": 38.88732066666667, "bike_id": "a8979ced080646934fae5662e6139480", "fusion_lon": 0.0}, {"rental_uris": {"ios": "https://dc.lft.to/lastmile_qr_scan", "android": "https://dc.lft.to/lastmile_qr_scan"}, "type": "electric_scooter", "name": "0005c70a8e9c97bc0185b7a09d3b79ec", "is_reserved": 0, "lon": -77.04546416666666, "is_disabled": 0, "fusion_lat": 0.0, "lat": 38.93398333333333, "bike_id": "0005c70a8e9c97bc0185b7a09d3b79ec", "fusion_lon": 0.0}, {"rental_uris": {"ios": "https://dc.lft.to/lastmile_qr_scan", "android": "https://dc.lft.to/lastmile_qr_scan"}, "type": "electric_scooter", "name": "e43ec577df1096d25abf7f4f7ebe19fa", "is_reserved": 0, "lon": -77.04500616666667, "is_disabled": 0, "fusion_lat": 0.0, "lat": 38.914571, "bike_id": "e43ec577df1096d25abf7f4f7ebe19fa", "fusion_lon": 0.0}, {"rental_uris": {"ios": "https://dc.lft.to/lastmile_qr_scan", "android": "https://dc.lft.to/lastmile_qr_scan"}, "type": "electric_scooter", "name": "9de51d15ee0ecbb5b3c6749c8c7bfba1", "is_reserved": 0, "lon": -77.032044, "is_disabled": 0, "fusion_lat": 0.0, "lat": 38.92018233333334, "bike_id": "9de51d15ee0ecbb5b3c6749c8c7bfba1", "fusion_lon": 0.0}, {"rental_uris": {"ios": "https://dc.lft.to/lastmile_qr_scan", "android": "https://dc.lft.to/lastmile_qr_scan"}, "type": "electric_scooter", "name": "f5475fd33cf9cb17f278661f4e4a6966", "is_reserved": 0, "lon": -77.046924, "is_disabled": 0, "fusion_lat": 0.0, "lat": 38.921669666666666, "bike_id": "f5475fd33cf9cb17f278661f4e4a6966", "fusion_lon": 0.0}, {"rental_uris": {"ios": "https://dc.lft.to/lastmile_qr_scan", "android": "https://dc.lft.to/lastmile_qr_scan"}, "type": "electric_scooter", "name": "87ff8e03a667fba220e963445c6020e4", "is_reserved": 0, "lon": -77.0433405, "is_disabled": 0, "fusion_lat": 0.0, "lat": 38.8923215, "bike_id": "87ff8e03a667fba220e963445c6020e4", "fusion_lon": 0.0}, {"rental_uris": {"ios": "https://dc.lft.to/lastmile_qr_scan", "android": "https://dc.lft.to/lastmile_qr_scan"}, "type": "electric_scooter", "name": "adb0f6006d5d2c3dfe07863e7e336192", "is_reserved": 0, "lon": -77.02516683333333, "is_disabled": 0, "fusion_lat": 0.0, "lat": 38.94008866666667, "bike_id": "adb0f6006d5d2c3dfe07863e7e336192", "fusion_lon": 0.0}, {"rental_uris": {"ios": "https://dc.lft.to/lastmile_qr_scan", "android": "https://dc.lft.to/lastmile_qr_scan"}, "type": "electric_scooter", "name": "6263d759482684ee6c6d8ccc22607362", "is_reserved": 0, "lon": -77.02690533333333, "is_disabled": 0, "fusion_lat": 0.0, "lat": 38.902458, "bike_id": "6263d759482684ee6c6d8ccc22607362", "fusion_lon": 0.0}, {"rental_uris": {"ios": "https://dc.lft.to/lastmile_qr_scan", "android": "https://dc.lft.to/lastmile_qr_scan"}, "type": "electric_scooter", "name": "b3706c31a4ef3f35c12f623d2fbe75ff", "is_reserved": 0, "lon": -77.00373316666666, "is_disabled": 0, "fusion_lat": 0.0, "lat": 38.899108, "bike_id": "b3706c31a4ef3f35c12f623d2fbe75ff", "fusion_lon": 0.0}, {"rental_uris": {"ios": "https://dc.lft.to/lastmile_qr_scan", "android": "https://dc.lft.to/lastmile_qr_scan"}, "type": "electric_scooter", "name": "6344f33dcfb400124d701f2e97668d26", "is_reserved": 0, "lon": -77.03135416666667, "is_disabled": 0, "fusion_lat": 0.0, "lat": 38.923846833333336, "bike_id": "6344f33dcfb400124d701f2e97668d26", "fusion_lon": 0.0}, {"rental_uris": {"ios": "https://dc.lft.to/lastmile_qr_scan", "android": "https://dc.lft.to/lastmile_qr_scan"}, "type": "electric_scooter", "name": "b775cedd93dc59960db0ed466d05e566", "is_reserved": 0, "lon": -77.04439633333334, "is_disabled": 0, "fusion_lat": 0.0, "lat": 38.90153033333333, "bike_id": "b775cedd93dc59960db0ed466d05e566", "fusion_lon": 0.0}, {"rental_uris": {"ios": "https://dc.lft.to/lastmile_qr_scan", "android": "https://dc.lft.to/lastmile_qr_scan"}, "type": "electric_scooter", "name": "dd1ba25b2f5e18b2ebfbab7833a1846a", "is_reserved": 0, "lon": -77.03777666666667, "is_disabled": 0, "fusion_lat": 0.0, "lat": 38.93973016666666, "bike_id": "dd1ba25b2f5e18b2ebfbab7833a1846a", "fusion_lon": 0.0}, {"rental_uris": {"ios": "https://dc.lft.to/lastmile_qr_scan", "android": "https://dc.lft.to/lastmile_qr_scan"}, "type": "electric_bike", "name": "034e9581975621a4ce1c7b114ef17218", "is_reserved": 0, "lon": -76.9846935, "is_disabled": 0, "fusion_lat": 0.0, "lat": 38.90973483333333, "bike_id": "034e9581975621a4ce1c7b114ef17218", "fusion_lon": 0.0}, {"rental_uris": {"ios": "https://dc.lft.to/lastmile_qr_scan", "android": "https://dc.lft.to/lastmile_qr_scan"}, "type": "electric_scooter", "name": "cdb71520e6f9fe4b2ebd9b21933ae16e", "is_reserved": 0, "lon": -77.0270695, "is_disabled": 0, "fusion_lat": 0.0, "lat": 38.89731833333333, "bike_id": "cdb71520e6f9fe4b2ebd9b21933ae16e", "fusion_lon": 0.0}, {"rental_uris": {"ios": "https://dc.lft.to/lastmile_qr_scan", "android": "https://dc.lft.to/lastmile_qr_scan"}, "type": "electric_scooter", "name": "4a63b0ecb73e649c1acaf1a6f59ec349", "is_reserved": 0, "lon": -77.00902783333333, "is_disabled": 0, "fusion_lat": 0.0, "lat": 38.8999595, "bike_id": "4a63b0ecb73e649c1acaf1a6f59ec349", "fusion_lon": 0.0}, {"rental_uris": {"ios": "https://dc.lft.to/lastmile_qr_scan", "android": "https://dc.lft.to/lastmile_qr_scan"}, "type": "electric_scooter", "name": "1f1eeeba6ac429d388773dd4ffe51a3b", "is_reserved": 0, "lon": -77.01681833333333, "is_disabled": 0, "fusion_lat": 0.0, "lat": 38.902410833333334, "bike_id": "1f1eeeba6ac429d388773dd4ffe51a3b", "fusion_lon": 0.0}, {"rental_uris": {"ios": "https://dc.lft.to/lastmile_qr_scan", "android": "https://dc.lft.to/lastmile_qr_scan"}, "type": "electric_scooter", "name": "7bfdcd75bfeecec18a5bc903b84bad26", "is_reserved": 0, "lon": -77.03851366666666, "is_disabled": 0, "fusion_lat": 0.0, "lat": 38.91186733333333, "bike_id": "7bfdcd75bfeecec18a5bc903b84bad26", "fusion_lon": 0.0}, {"rental_uris": {"ios": "https://dc.lft.to/lastmile_qr_scan", "android": "https://dc.lft.to/lastmile_qr_scan"}, "type": "electric_scooter", "name": "861997892280453d48d51f8805d69ca6", "is_reserved": 0, "lon": -77.04122466666666, "is_disabled": 0, "fusion_lat": 0.0, "lat": 38.933598, "bike_id": "861997892280453d48d51f8805d69ca6", "fusion_lon": 0.0}, {"rental_uris": {"ios": "https://dc.lft.to/lastmile_qr_scan", "android": "https://dc.lft.to/lastmile_qr_scan"}, "type": "electric_scooter", "name": "d469ae69fa7eaf90a842b7b1d462afeb", "is_reserved": 0, "lon": -77.00364216666667, "is_disabled": 0, "fusion_lat": 0.0, "lat": 38.899347666666664, "bike_id": "d469ae69fa7eaf90a842b7b1d462afeb", "fusion_lon": 0.0}, {"rental_uris": {"ios": "https://dc.lft.to/lastmile_qr_scan", "android": "https://dc.lft.to/lastmile_qr_scan"}, "type": "electric_scooter", "name": "62d46f994ea45cb6715071b5b40fa7a9", "is_reserved": 0, "lon": -77.04356016666667, "is_disabled": 0, "fusion_lat": 0.0, "lat": 38.926838000000004, "bike_id": "62d46f994ea45cb6715071b5b40fa7a9", "fusion_lon": 0.0}, {"rental_uris": {"ios": "https://dc.lft.to/lastmile_qr_scan", "android": "https://dc.lft.to/lastmile_qr_scan"}, "type": "electric_scooter", "name": "e9df0ca68c3dcef2057f05ba4a3b2edb", "is_reserved": 0, "lon": -77.02074783333333, "is_disabled": 0, "fusion_lat": 0.0, "lat": 38.92731716666667, "bike_id": "e9df0ca68c3dcef2057f05ba4a3b2edb", "fusion_lon": 0.0}, {"rental_uris": {"ios": "https://dc.lft.to/lastmile_qr_scan", "android": "https://dc.lft.to/lastmile_qr_scan"}, "type": "electric_bike", "name": "e631e20b6351505d321ea3c3e82eac3d", "is_reserved": 0, "lon": -76.91722816666666, "is_disabled": 0, "fusion_lat": 0.0, "lat": 38.880350166666666, "bike_id": "e631e20b6351505d321ea3c3e82eac3d", "fusion_lon": 0.0}, {"rental_uris": {"ios": "https://dc.lft.to/lastmile_qr_scan", "android": "https://dc.lft.to/lastmile_qr_scan"}, "type": "electric_scooter", "name": "04a76f2d98808143c55461f1c7e49e10", "is_reserved": 0, "lon": -77.0324825, "is_disabled": 0, "fusion_lat": 0.0, "lat": 38.919909833333335, "bike_id": "04a76f2d98808143c55461f1c7e49e10", "fusion_lon": 0.0}, {"rental_uris": {"ios": "https://dc.lft.to/lastmile_qr_scan", "android": "https://dc.lft.to/lastmile_qr_scan"}, "type": "electric_scooter", "name": "488f32dbfa49155a82aa7f3115af3523", "is_reserved": 0, "lon": -77.05321733333334, "is_disabled": 0, "fusion_lat": 0.0, "lat": 38.902696166666665, "bike_id": "488f32dbfa49155a82aa7f3115af3523", "fusion_lon": 0.0}, {"rental_uris": {"ios": "https://dc.lft.to/lastmile_qr_scan", "android": "https://dc.lft.to/lastmile_qr_scan"}, "type": "electric_scooter", "name": "8fa279a78a25492446cdf3772974c392", "is_reserved": 0, "lon": -77.02527383333333, "is_disabled": 0, "fusion_lat": 0.0, "lat": 38.929852833333335, "bike_id": "8fa279a78a25492446cdf3772974c392", "fusion_lon": 0.0}, {"rental_uris": {"ios": "https://dc.lft.to/lastmile_qr_scan", "android": "https://dc.lft.to/lastmile_qr_scan"}, "type": "electric_scooter", "name": "6d89d558e308e1f1d37a6b5b199c09a4", "is_reserved": 0, "lon": -76.99618966666667, "is_disabled": 0, "fusion_lat": 0.0, "lat": 38.885314, "bike_id": "6d89d558e308e1f1d37a6b5b199c09a4", "fusion_lon": 0.0}, {"rental_uris": {"ios": "https://dc.lft.to/lastmile_qr_scan", "android": "https://dc.lft.to/lastmile_qr_scan"}, "type": "electric_scooter", "name": "dd167ede94b677c1fb90da91a3a76601", "is_reserved": 0, "lon": -77.02492133333334, "is_disabled": 0, "fusion_lat": 0.0, "lat": 38.93971033333333, "bike_id": "dd167ede94b677c1fb90da91a3a76601", "fusion_lon": 0.0}, {"rental_uris": {"ios": "https://dc.lft.to/lastmile_qr_scan", "android": "https://dc.lft.to/lastmile_qr_scan"}, "type": "electric_scooter", "name": "edafa435c6edbac3a7a2f718774366cc", "is_reserved": 0, "lon": -77.02232, "is_disabled": 0, "fusion_lat": 0.0, "lat": 38.89227483333333, "bike_id": "edafa435c6edbac3a7a2f718774366cc", "fusion_lon": 0.0}, {"rental_uris": {"ios": "https://dc.lft.to/lastmile_qr_scan", "android": "https://dc.lft.to/lastmile_qr_scan"}, "type": "electric_scooter", "name": "c491896b0365e6f82e509fe06e4d147e", "is_reserved": 0, "lon": -77.03984666666666, "is_disabled": 0, "fusion_lat": 0.0, "lat": 38.902998333333336, "bike_id": "c491896b0365e6f82e509fe06e4d147e", "fusion_lon": 0.0}, {"rental_uris": {"ios": "https://dc.lft.to/lastmile_qr_scan", "android": "https://dc.lft.to/lastmile_qr_scan"}, "type": "electric_scooter", "name": "c24810f229d66b17592405823ce4bf3c", "is_reserved": 0, "lon": -77.02155683333334, "is_disabled": 0, "fusion_lat": 0.0, "lat": 38.910358333333335, "bike_id": "c24810f229d66b17592405823ce4bf3c", "fusion_lon": 0.0}, {"rental_uris": {"ios": "https://dc.lft.to/lastmile_qr_scan", "android": "https://dc.lft.to/lastmile_qr_scan"}, "type": "electric_scooter", "name": "da5b421ffe35a15da3232bda8ef8fb3b", "is_reserved": 0, "lon": -76.99232533333333, "is_disabled": 0, "fusion_lat": 0.0, "lat": 38.8875835, "bike_id": "da5b421ffe35a15da3232bda8ef8fb3b", "fusion_lon": 0.0}, {"rental_uris": {"ios": "https://dc.lft.to/lastmile_qr_scan", "android": "https://dc.lft.to/lastmile_qr_scan"}, "type": "electric_scooter", "name": "9e45c4aa4db16b9060059ce01775710e", "is_reserved": 0, "lon": -77.02477766666667, "is_disabled": 0, "fusion_lat": 0.0, "lat": 38.91815066666667, "bike_id": "9e45c4aa4db16b9060059ce01775710e", "fusion_lon": 0.0}, {"rental_uris": {"ios": "https://dc.lft.to/lastmile_qr_scan", "android": "https://dc.lft.to/lastmile_qr_scan"}, "type": "electric_bike", "name": "f91b05335882190b5086cbed7b4d59ff", "is_reserved": 0, "lon": -76.90736033333333, "is_disabled": 0, "fusion_lat": 0.0, "lat": 38.8961955, "bike_id": "f91b05335882190b5086cbed7b4d59ff", "fusion_lon": 0.0}, {"rental_uris": {"ios": "https://dc.lft.to/lastmile_qr_scan", "android": "https://dc.lft.to/lastmile_qr_scan"}, "type": "electric_scooter", "name": "23a4c849f53f6162daf884bf47b8e31d", "is_reserved": 0, "lon": -77.0175815, "is_disabled": 0, "fusion_lat": 0.0, "lat": 38.9026245, "bike_id": "23a4c849f53f6162daf884bf47b8e31d", "fusion_lon": 0.0},