{"data": {"bikes": [{"rental_uris": {"ios": "https://dc.lft.to/lastmile_qr_scan", "android": "https://dc.lft.to/lastmile_qr_scan"}, "lon": -77.00941133333333, "type": "electric_scooter", "fusion_lat": 0.0, "lat": 38.87194383333333, "name": "607c34ddf0ef0d5209047a756ee7247a", "fusion_lon": 0.0, "bike_id": "607c34ddf0ef0d5209047a756ee7247a", "is_disabled": 0, "is_reserved": 0}, {"rental_uris": {"ios": "https://dc.lft.to/lastmile_qr_scan", "android": "https://dc.lft.to/lastmile_qr_scan"}, "lon": -77.00134533333333, "type": "electric_scooter", "fusion_lat": 0.0, "lat": 38.90728633333333, "name": "9decf1244de6c7b54f9e4bd48175b148", "fusion_lon": 0.0, "bike_id": "9decf1244de6c7b54f9e4bd48175b148", "is_disabled": 0, "is_reserved": 0}, {"rental_uris": {"ios": "https://dc.lft.to/lastmile_qr_scan", "android": "https://dc.lft.to/lastmile_qr_scan"}, "lon": -76.97459066666667, "type": "electric_scooter", "fusion_lat": 0.0, "lat": 38.865415166666665, "name": "5760c9752202fb68b1b36701e338855c", "fusion_lon": 0.0, "bike_id": "5760c9752202fb68b1b36701e338855c", "is_disabled": 0, "is_reserved": 0}, {"rental_uris": {"ios": "https://dc.lft.to/lastmile_qr_scan", "android": "https://dc.lft.to/lastmile_qr_scan"}, "lon": -77.031771, "type": "electric_scooter", "fusion_lat": 0.0, "lat": 38.900243, "name": "b090669b154dc4798a296dbdcea22d91", "fusion_lon": 0.0, "bike_id": "b090669b154dc4798a296dbdcea22d91", "is_disabled": 0, "is_reserved": 0}, {"rental_uris": {"ios": "https://dc.lft.to/lastmile_qr_scan", "android": "https://dc.lft.to/lastmile_qr_scan"}, "lon": -76.99065183333333, "type": "electric_scooter", "fusion_lat": 0.0, "lat": 38.863554666666666, "name": "ea0f4a2bd5bec5ab7a6cafb57dada99a", "fusion_lon": 0.0, "bike_id": "ea0f4a2bd5bec5ab7a6cafb57dada99a", "is_disabled": 0, "is_reserved": 0}, {"rental_uris": {"ios": "https://dc.lft.to/lastmile_qr_scan", "android": "https://dc.lft.to/lastmile_qr_scan"}, "lon": -76.98790933333333, "type": "electric_bike", "fusion_lat": 0.0, "lat": 38.904141, "name": "c8cdb64c77f2f1e8f2179135cb74fab7", "fusion_lon": 0.0, "bike_id": "c8cdb64c77f2f1e8f2179135cb74fab7", "is_disabled": 0, "is_reserved": 0}, {"rental_uris": {"ios": "https://dc.lft.to/lastmile_qr_scan", "android": "https://dc.lft.to/lastmile_qr_scan"}, "lon": -77.022282, "type": "electric_scooter", "fusion_lat": 0.0, "lat": 38.912673, "name": "763c6b39a03c6825031c3c4f10c0d8f1", "fusion_lon": 0.0, "bike_id": "763c6b39a03c6825031c3c4f10c0d8f1", "is_disabled": 0, "is_reserved": 0}, {"rental_uris": {"ios": "https://dc.lft.to/lastmile_qr_scan", "android": "https://dc.lft.to/lastmile_qr_scan"}, "lon": -76.9546555, "type": "electric_bike", "fusion_lat": 0.0, "lat": 38.8864125, "name": "8993bc1daf763725d9b0cc799ab245ea", "fusion_lon": 0.0, "bike_id": "8993bc1daf763725d9b0cc799ab245ea", "is_disabled": 0, "is_reserved": 0}, {"rental_uris": {"ios": "https://dc.lft.to/lastmile_qr_scan", "android": "https://dc.lft.to/lastmile_qr_scan"}, "lon": -77.03391783333333, "type": "electric_scooter", "fusion_lat": 0.0, "lat": 38.921598833333334, "name": "12b75f4eab028b14906cb9723436225d", "fusion_lon": 0.0, "bike_id": "12b75f4eab028b14906cb9723436225d", "is_disabled": 0, "is_reserved": 0}, {"rental_uris": {"ios": "https://dc.lft.to/lastmile_qr_scan", "android": "https://dc.lft.to/lastmile_qr_scan"}, "lon": -77.02713516666667, "type": "electric_scooter", "fusion_lat": 0.0, "lat": 38.9182015, "name": "89eb8fed4e188bdea6b93b531911bada", "fusion_lon": 0.0, "bike_id": "89eb8fed4e188bdea6b93b531911bada", "is_disabled": 0, "is_reserved": 0}, {"rental_uris": {"ios": "https://dc.lft.to/lastmile_qr_scan", "android": "https://dc.lft.to/lastmile_qr_scan"}, "lon": -77.11797766666666, "type": "electric_bike", "fusion_lat": 0.0, "lat": 38.89833466666666, "name": "40ffde8ea8af6d5ad71af60dda2ad8d4", "fusion_lon": 0.0, "bike_id": "40ffde8ea8af6d5ad71af60dda2ad8d4", "is_disabled": 0, "is_reserved": 0}, {"rental_uris": {"ios": "https://dc.lft.to/lastmile_qr_scan", "android": "https://dc.lft.to/lastmile_qr_scan"}, "lon": -77.0598055, "type": "electric_scooter", "fusion_lat": 0.0, "lat": 38.9354875, "name": "aec3970c783939baf8b633d3683f59c2", "fusion_lon": 0.0, "bike_id": "aec3970c783939baf8b633d3683f59c2", "is_disabled": 0, "is_reserved": 0}, {"rental_uris": {"ios": "https://dc.lft.to/lastmile_qr_scan", "android": "https://dc.lft.to/lastmile_qr_scan"}, "lon": -77.012139, "type": "electric_scooter", "fusion_lat": 0.0, "lat": 38.91496083333333, "name": "c5ab917a595d99a5830d306346a96d75", "fusion_lon": 0.0, "bike_id": "c5ab917a595d99a5830d306346a96d75", "is_disabled": 0, "is_reserved": 0}, {"rental_uris": {"ios": "https://dc.lft.to/lastmile_qr_scan", "android": "https://dc.lft.to/lastmile_qr_scan"}, "lon": -77.03851866666666, "type": "electric_scooter", "fusion_lat": 0.0, "lat": 38.92644583333333, "name": "605f55c4bae0faad6ebdab89f4f9c523", "fusion_lon": 0.0, "bike_id": "605f55c4bae0faad6ebdab89f4f9c523", "is_disabled": 0, "is_reserved": 0}, {"rental_uris": {"ios": "https://dc.lft.to/lastmile_qr_scan", "android": "https://dc.lft.to/lastmile_qr_scan"}, "lon": -77.05233633333333, "type": "electric_scooter", "fusion_lat": 0.0, "lat": 38.89809066666667, "name": "c70f996b7052f095b8b936be567c2e68", "fusion_lon": 0.0, "bike_id": "c70f996b7052f095b8b936be567c2e68", "is_disabled": 0, "is_reserved": 0}, {"rental_uris": {"ios": "https://dc.lft.to/lastmile_qr_scan", "android": "https://dc.lft.to/lastmile_qr_scan"}, "lon": -77.01512666666666, "type": "electric_scooter", "fusion_lat": 0.0, "lat": 38.887367166666664, "name": "de3dbfe5b18f280a9dd0610ded57c52a", "fusion_lon": 0.0, "bike_id": "de3dbfe5b18f280a9dd0610ded57c52a", "is_disabled": 0, "is_reserved": 0}, {"rental_uris": {"ios": "https://dc.lft.to/lastmile_qr_scan", "android": "https://dc.lft.to/lastmile_qr_scan"}, "lon": -77.0462265, "type": "electric_scooter", "fusion_lat": 0.0, "lat": 38.91903883333333, "name": "c204cff69a54bb583e7711ce082b5170", "fusion_lon": 0.0, "bike_id": "c204cff69a54bb583e7711ce082b5170", "is_disabled": 0, "is_reserved": 0}, {"rental_uris": {"ios": "https://dc.lft.to/lastmile_qr_scan", "android": "https://dc.lft.to/lastmile_qr_scan"}, "lon": -77.02962866666667, "type": "electric_scooter", "fusion_lat": 0.0, "lat": 38.92566566666667, "name": "83023f12a197969a38cd591ff9ea6d18", "fusion_lon": 0.0, "bike_id": "83023f12a197969a38cd591ff9ea6d18", "is_disabled": 0, "is_reserved": 0}, {"rental_uris": {"ios": "https://dc.lft.to/lastmile_qr_scan", "android": "https://dc.lft.to/lastmile_qr_scan"}, "lon": -77.047974, "type": "electric_scooter", "fusion_lat": 0.0, "lat": 38.89365766666667, "name": "58f6ae58742593e34289e0953b19ba05", "fusion_lon": 0.0, "bike_id": "58f6ae58742593e34289e0953b19ba05", "is_disabled": 0, "is_reserved": 0}, {"rental_uris": {"ios": "https://dc.lft.to/lastmile_qr_scan", "android": "https://dc.lft.to/lastmile_qr_scan"}, "lon": -77.038623, "type": "electric_scooter", "fusion_lat": 0.0, "lat": 38.9155935, "name": "7227b0e6670523780fe0d9b7f2f7fa07", "fusion_lon": 0.0, "bike_id": "7227b0e6670523780fe0d9b7f2f7fa07", "is_disabled": 0, "is_reserved": 0}, {"rental_uris": {"ios": "https://dc.lft.to/lastmile_qr_scan", "android": "https://dc.lft.to/lastmile_qr_scan"}, "lon": -77.04017516666667, "type": "electric_scooter", "fusion_lat": 0.0, "lat": 38.93254733333333, "name": "cb97f1f0d2118d110a91926a7c6af17c", "fusion_lon": 0.0, "bike_id": "cb97f1f0d2118d110a91926a7c6af17c", "is_disabled": 0, "is_reserved": 0}, {"rental_uris": {"ios": "https://dc.lft.to/lastmile_qr_scan", "android": "https://dc.lft.to/lastmile_qr_scan"}, "lon": -76.967557, "type": "electric_bike", "fusion_lat": 0.0, "lat": 38.875492333333334, "name": "7e9826e28d8e14d6dde7712ea82e6ed1", "fusion_lon": 0.0, "bike_id": "7e9826e28d8e14d6dde7712ea82e6ed1", "is_disabled": 0, "is_reserved": 0}, {"rental_uris": {"ios": "https://dc.lft.to/lastmile_qr_scan", "android": "https://dc.lft.to/lastmile_qr_scan"}, "lon": -77.03470916666667, "type": "electric_scooter", "fusion_lat": 0.0, "lat": 38.91990116666667, "name": "1d0bf6ac30aa3e5c2583a6aed94d09d8", "fusion_lon": 0.0, "bike_id": "1d0bf6ac30aa3e5c2583a6aed94d09d8", "is_disabled": 0, "is_reserved": 0}, {"rental_uris": {"ios": "https://dc.lft.to/lastmile_qr_scan", "android": "https://dc.lft.to/lastmile_qr_scan"}, "lon": -77.02014983333333, "type": "electric_scooter", "fusion_lat": 0.0, "lat": 38.9164285, "name": "abe4295f6b5b09a6b545d1bee756bc2c", "fusion_lon": 0.0, "bike_id": "abe4295f6b5b09a6b545d1bee756bc2c", "is_disabled": 0, "is_reserved": 0}, {"rental_uris": {"ios": "https://dc.lft.to/lastmile_qr_scan", "android": "https://dc.lft.to/lastmile_qr_scan"}, "lon": -76.98260116666667, "type": "electric_scooter", "fusion_lat": 0.0, "lat": 38.8635005, "name": "d7dd67abf39a6e5fb420a021ce50b4d7", "fusion_lon": 0.0, "bike_id": "d7dd67abf39a6e5fb420a021ce50b4d7", "is_disabled": 0, "is_reserved": 0}, {"rental_uris": {"ios": "https://dc.lft.to/lastmile_qr_scan", "android": "https://dc.lft.to/lastmile_qr_scan"}, "lon": -76.99385466666666, "type": "electric_scooter", "fusion_lat": 0.0, "lat": 38.897459833333336, "name": "89f552be176186571e1c3faada4e72e1", "fusion_lon": 0.0, "bike_id": "89f552be176186571e1c3faada4e72e1", "is_disabled": 0, "is_reserved": 0}, {"rental_uris": {"ios": "https://dc.lft.to/lastmile_qr_scan", "android": "https://dc.lft.to/lastmile_qr_scan"}, "lon": -77.01115833333333, "type": "electric_scooter", "fusion_lat": 0.0, "lat": 38.90007083333333, "name": "63c4579e5387c070b8f5f62ddc6d5c43", "fusion_lon": 0.0, "bike_id": "63c4579e5387c070b8f5f62ddc6d5c43", "is_disabled": 0, "is_reserved": 0}, {"rental_uris": {"ios": "https://dc.lft.to/lastmile_qr_scan", "android": "https://dc.lft.to/lastmile_qr_scan"}, "lon": -77.04422616666666, "type": "electric_scooter", "fusion_lat": 0.0, "lat": 38.90581733333333, "name": "3aa7398ee043be7fb1eb5a074a5418df", "fusion_lon": 0.0, "bike_id": "3aa7398ee043be7fb1eb5a074a5418df", "is_disabled": 0, "is_reserved": 0}, {"rental_uris": {"ios": "https://dc.lft.to/lastmile_qr_scan", "android": "https://dc.lft.to/lastmile_qr_scan"}, "lon": -77.054393, "type": "electric_scooter", "fusion_lat": 0.0, "lat": 38.89606066666666, "name": "2544b769839af14e9dfcd32e1de76553", "fusion_lon": 0.0, "bike_id": "2544b769839af14e9dfcd32e1de76553", "is_disabled": 0, "is_reserved": 0}, {"rental_uris": {"ios": "https://dc.lft.to/lastmile_qr_scan", "android": "https://dc.lft.to/lastmile_qr_scan"}, "lon": -77.0389435, "type": "electric_scooter", "fusion_lat": 0.0, "lat": 38.943965666666664, "name": "58367a6629d5777a25c8cfa0ec11048f", "fusion_lon": 0.0, "bike_id": "58367a6629d5777a25c8cfa0ec11048f", "is_disabled": 0, "is_reserved": 0}, {"rental_uris": {"ios": "https://dc.lft.to/lastmile_qr_scan", "android": "https://dc.lft.to/lastmile_qr_scan"}, "lon": -76.99061866666666, "type": "electric_scooter", "fusion_lat": 0.0, "lat": 38.863551, "name": "e69643af917b200a143f1782420104bc", "fusion_lon": 0.0, "bike_id": "e69643af917b200a143f1782420104bc", "is_disabled": 0, "is_reserved": 0}, {"rental_uris": {"ios": "https://dc.lft.to/lastmile_qr_scan", "android": "https://dc.lft.to/lastmile_qr_scan"}, "lon": -76.93162433333333, "type": "electric_bike", "fusion_lat": 0.0, "lat": 38.908598833333336, "name": "f48b0109658c04d353822bdfb74ceb28", "fusion_lon": 0.0, "bike_id": "f48b0109658c04d353822bdfb74ceb28", "is_disabled": 0, "is_reserved": 0}, {"rental_uris": {"ios": "https://dc.lft.to/lastmile_qr_scan", "android": "https://dc.lft.to/lastmile_qr_scan"}, "lon": -77.02716466666666, "type": "electric_scooter", "fusion_lat": 0.0, "lat": 38.909073, "name": "844f4226dcf2a7748f749d40b3bd9015", "fusion_lon": 0.0, "bike_id": "844f4226dcf2a7748f749d40b3bd9015", "is_disabled": 0, "is_reserved": 0}, {"rental_uris": {"ios": "https://dc.lft.to/lastmile_qr_scan", "android": "https://dc.lft.to/lastmile_qr_scan"}, "lon": -77.003695, "type": "electric_scooter", "fusion_lat": 0.0, "lat": 38.838042, "name": "aac9a4bbf74b331cdca25c451a3f8434", "fusion_lon": 0.0, "bike_id": "aac9a4bbf74b331cdca25c451a3f8434", "is_disabled": 0, "is_reserved": 0}, {"rental_uris": {"ios": "https://dc.lft.to/lastmile_qr_scan", "android": "https://dc.lft.to/lastmile_qr_scan"}, "lon": -76.9414045, "type": "electric_scooter", "fusion_lat": 0.0, "lat": 38.896793, "name": "44e1d18da09b66bc422c0a70c0f4586a", "fusion_lon": 0.0, "bike_id": "44e1d18da09b66bc422c0a70c0f4586a", "is_disabled": 0, "is_reserved": 0}, {"rental_uris": {"ios": "https://dc.lft.to/lastmile_qr_scan", "android": "https://dc.lft.to/lastmile_qr_scan"}, "lon": -77.02806583333333, "type": "electric_scooter", "fusion_lat": 0.0, "lat": 38.961446333333335, "name": "b8caa49efa40ba35a41380c9a4d25fc0", "fusion_lon": 0.0, "bike_id": "b8caa49efa40ba35a41380c9a4d25fc0", "is_disabled": 0, "is_reserved": 0}, {"rental_uris": {"ios": "https://dc.lft.to/lastmile_qr_scan", "android": "https://dc.lft.to/lastmile_qr_scan"}, "lon": -77.02888633333333, "type": "electric_scooter", "fusion_lat": 0.0, "lat": 38.90714583333333, "name": "e15186438eacfb55fa74e7815a932071", "fusion_lon": 0.0, "bike_id": "e15186438eacfb55fa74e7815a932071", "is_disabled": 0, "is_reserved": 0}, {"rental_uris": {"ios": "https://dc.lft.to/lastmile_qr_scan", "android": "https://dc.lft.to/lastmile_qr_scan"}, "lon": -77.09550633333333, "type": "electric_bike", "fusion_lat": 0.0, "lat": 38.83730933333333, "name": "4bb982c15a59c2018effff9d1c367c7f", "fusion_lon": 0.0, "bike_id": "4bb982c15a59c2018effff9d1c367c7f", "is_disabled": 0, "is_reserved": 0}, {"rental_uris": {"ios": "https://dc.lft.to/lastmile_qr_scan", "android": "https://dc.lft.to/lastmile_qr_scan"}, "lon": -77.003714, "type": "electric_bike", "fusion_lat": 0.0, "lat": 38.836078666666666, "name": "def258d02418781265f7cff6e55afd59", "fusion_lon": 0.0, "bike_id": "def258d02418781265f7cff6e55afd59", "is_disabled": 0, "is_reserved": 0}, {"rental_uris": {"ios": "https://dc.lft.to/lastmile_qr_scan", "android": "https://dc.lft.to/lastmile_qr_scan"}, "lon": -76.957583, "type": "electric_scooter", "fusion_lat": 0.0, "lat": 38.88430066666667, "name": "d660e55f8d9e7fa855a633a737ec851f", "fusion_lon": 0.0, "bike_id": "d660e55f8d9e7fa855a633a737ec851f", "is_disabled": 0, "is_reserved": 0}, {"rental_uris": {"ios": "https://dc.lft.to/lastmile_qr_scan", "android": "https://dc.lft.to/lastmile_qr_scan"}, "lon": -77.04130616666667, "type": "electric_scooter", "fusion_lat": 0.0, "lat": 38.90015066666667, "name": "b271225b303f67d043149c03d4b0ea08", "fusion_lon": 0.0, "bike_id": "b271225b303f67d043149c03d4b0ea08", "is_disabled": 0, "is_reserved": 0}, {"rental_uris": {"ios": "https://dc.lft.to/lastmile_qr_scan", "android": "https://dc.lft.to/lastmile_qr_scan"}, "lon": -77.05497033333333, "type": "electric_scooter", "fusion_lat": 0.0, "lat": 38.929692833333334, "name": "6b6aa592c4b24376db0d5f5e6ce15d00", "fusion_lon": 0.0, "bike_id": "6b6aa592c4b24376db0d5f5e6ce15d00", "is_disabled": 0, "is_reserved": 0}, {"rental_uris": {"ios": "https://dc.lft.to/lastmile_qr_scan", "android": "https://dc.lft.to/lastmile_qr_scan"}, "lon": -77.05214483333333, "type": "electric_scooter", "fusion_lat": 0.0, "lat": 38.925893, "name": "c28f03419743ba9e6fcfbc72f0cb6237", "fusion_lon": 0.0, "bike_id": "c28f03419743ba9e6fcfbc72f0cb6237", "is_disabled": 0, "is_reserved": 0}, {"rental_uris": {"ios": "https://dc.lft.to/lastmile_qr_scan", "android": "https://dc.lft.to/lastmile_qr_scan"}, "lon": -77.03402483333333, "type": "electric_scooter", "fusion_lat": 0.0, "lat": 38.9226625, "name": "1e69b12a27e420ab714176b22b390728", "fusion_lon": 0.0, "bike_id": "1e69b12a27e420ab714176b22b390728", "is_disabled": 0, "is_reserved": 0}, {"rental_uris": {"ios": "https://dc.lft.to/lastmile_qr_scan", "android": "https://dc.lft.to/lastmile_qr_scan"}, "lon": -77.05420916666667, "type": "electric_scooter", "fusion_lat": 0.0, "lat": 38.923297, "name": "5f77ef3c8e08fce24f98740fb068aadf", "fusion_lon": 0.0, "bike_id": "5f77ef3c8e08fce24f98740fb068aadf", "is_disabled": 0, "is_reserved": 0}, {"rental_uris": {"ios": "https://dc.lft.to/lastmile_qr_scan", "android": "https://dc.lft.to/lastmile_qr_scan"}, "lon": -77.12507116666667, "type": "electric_bike", "fusion_lat": 0.0, "lat": 39.02423016666667, "name": "6fe675dd2d5c0daf4404da6c7a44a8df", "fusion_lon": 0.0, "bike_id": "6fe675dd2d5c0daf4404da6c7a44a8df", "is_disabled": 0, "is_reserved": 0}, {"rental_uris": {"ios": "https://dc.lft.to/lastmile_qr_scan", "android": "https://dc.lft.to/lastmile_qr_scan"}, "lon": -77.045824, "type": "electric_scooter", "fusion_lat": 0.0, "lat": 38.9156825, "name": "bb3c6b1cccb3cbc58617a37f17c9eb6e", "fusion_lon": 0.0, "bike_id": "bb3c6b1cccb3cbc58617a37f17c9eb6e", "is_disabled": 0, "is_reserved": 0}, {"rental_uris": {"ios": "https://dc.lft.to/lastmile_qr_scan", "android": "https://dc.lft.to/lastmile_qr_scan"}, "lon": -76.9900275, "type": "electric_scooter", "fusion_lat": 0.0, "lat": 38.90385083333334, "name": "eae45f4e1a7c61fc7597cda59f9cb434", "fusion_lon": 0.0, "bike_id": "eae45f4e1a7c61fc7597cda59f9cb434", "is_disabled": 0, "is_reserved": 0}, {"rental_uris": {"ios": "https://dc.lft.to/lastmile_qr_scan", "android": "https://dc.lft.to/lastmile_qr_scan"}, "lon": -77.0344545, "type": "electric_scooter", "fusion_lat": 0.0, "lat": 38.945135, "name": "0ea569b517471fe62cc2a59c91d55e10", "fusion_lon": 0.0, "bike_id": "0ea569b517471fe62cc2a59c91d55e10", "is_disabled": 0, "is_reserved": 0}, {"rental_uris": {"ios": "https://dc.lft.to/lastmile_qr_scan", "android": "https://dc.lft.to/lastmile_qr_scan"}, "lon": -77.03568516666667, "type": "electric_scooter", "fusion_lat": 0.0, "lat": 38.9274605, "name": "5f25e14c148d426844efb526c84666e8", "fusion_lon": 0.0, "bike_id": "5f25e14c148d426844efb526c84666e8", "is_disabled": 0, "is_reserved": 0}, {"rental_uris": {"ios": "https://dc.lft.to/lastmile_qr_scan", "android": "https://dc.lft.to/lastmile_qr_scan"}, "lon": -77.0102205, "type": "electric_scooter", "fusion_lat": 0.0, "lat": 38.91810683333333, "name": "a042f89ae240eb52f45dfff78ca64ddc", "fusion_lon": 0.0, "bike_id": "a042f89ae240eb52f45dfff78ca64ddc", "is_disabled": 0, "is_reserved": 0}, {"rental_uris": {"ios": "https://dc.lft.to/lastmile_qr_scan", "android": "https://dc.lft.to/lastmile_qr_scan"}, "lon": -77.028399, "type": "electric_scooter", "fusion_lat": 0.0, "lat": 38.9286065, "name": "adfd25c2f4e442ca4364f94836b11aba", "fusion_lon": 0.0, "bike_id": "adfd25c2f4e442ca4364f94836b11aba", "is_disabled": 0, "is_reserved": 0}, {"rental_uris": {"ios": "https://dc.lft.to/lastmile_qr_scan", "android": "https://dc.lft.to/lastmile_qr_scan"}, "lon": -77.0507105, "type": "electric_bike", "fusion_lat": 0.0, "lat": 39.061327, "name": "62ea9eebe0664305b487f044a694e9f2", "fusion_lon": 0.0, "bike_id": "62ea9eebe0664305b487f044a694e9f2", "is_disabled": 0, "is_reserved": 0}, {"rental_uris": {"ios": "https://dc.lft.to/lastmile_qr_scan", "android": "https://dc.lft.to/lastmile_qr_scan"}, "lon": -77.05926566666666, "type": "electric_scooter", "fusion_lat": 0.0, "lat": 38.90956083333333, "name": "fed13f851eee5900e91a47d3c87aa68a", "fusion_lon": 0.0, "bike_id": "fed13f851eee5900e91a47d3c87aa68a", "is_disabled": 0, "is_reserved": 0}, {"rental_uris": {"ios": "https://dc.lft.to/lastmile_qr_scan", "android": "https://dc.lft.to/lastmile_qr_scan"}, "lon": -77.0245635, "type": "electric_scooter", "fusion_lat": 0.0, "lat": 38.93737816666667, "name": "24266cea3d2bf48bf1d1b28902598b5c", "fusion_lon": 0.0, "bike_id": "24266cea3d2bf48bf1d1b28902598b5c", "is_disabled": 0, "is_reserved": 0}, {"rental_uris": {"ios": "https://dc.lft.to/lastmile_qr_scan", "android": "https://dc.lft.to/lastmile_qr_scan"}, "lon": -77.00565, "type": "electric_scooter", "fusion_lat": 0.0, "lat": 38.90543866666667, "name": "ed65adaf4382d3f8dda5027c67c80a5a", "fusion_lon": 0.0, "bike_id": "ed65adaf4382d3f8dda5027c67c80a5a", "is_disabled": 0, "is_reserved": 0}, {"rental_uris": {"ios": "https://dc.lft.to/lastmile_qr_scan", "android": "https://dc.lft.to/lastmile_qr_scan"}, "lon": -77.02335633333334, "type": "electric_scooter", "fusion_lat": 0.0, "lat": 38.93051083333334, "name": "85bddc924af7fab37b7ee3ae94a357eb", "fusion_lon": 0.0, "bike_id": "85bddc924af7fab37b7ee3ae94a357eb", "is_disabled": 0, "is_reserved": 0}, {"rental_uris": {"ios": "https://dc.lft.to/lastmile_qr_scan", "android": "https://dc.lft.to/lastmile_qr_scan"}, "lon": -77.04014733333334, "type": "electric_scooter", "fusion_lat": 0.0, "lat": 38.93249383333333, "name": "7a7b1e26dc33a57bd615459dd260a5bd", "fusion_lon": 0.0, "bike_id": "7a7b1e26dc33a57bd615459dd260a5bd", "is_disabled": 0, "is_reserved": 0}, {"rental_uris": {"ios": "https://dc.lft.to/lastmile_qr_scan", "android": "https://dc.lft.to/lastmile_qr_scan"}, "lon": -77.03725, "type": "electric_scooter", "fusion_lat": 0.0, "lat": 38.910444166666665, "name": "07202adea208f7310dc05986178cf8da", "fusion_lon": 0.0, "bike_id": "07202adea208f7310dc05986178cf8da", "is_disabled": 0, "is_reserved": 0}, {"rental_uris": {"ios": "https://dc.lft.to/lastmile_qr_scan", "android": "https://dc.lft.to/lastmile_qr_scan"}, "lon": -77.02121183333334, "type": "electric_scooter", "fusion_lat": 0.0, "lat": 38.91409633333333, "name": "c678045d479a8731e3d31306d6f56c8d", "fusion_lon": 0.0, "bike_id": "c678045d479a8731e3d31306d6f56c8d", "is_disabled": 0, "is_reserved": 0}, {"rental_uris": {"ios": "https://dc.lft.to/lastmile_qr_scan", "android": "https://dc.lft.to/lastmile_qr_scan"}, "lon": -76.99676833333334, "type": "electric_scooter", "fusion_lat": 0.0, "lat": 38.900415833333334, "name": "bca7d7a4c2cd5a5cfb7a69023f21881f", "fusion_lon": 0.0, "bike_id": "bca7d7a4c2cd5a5cfb7a69023f21881f", "is_disabled": 0, "is_reserved": 0}, {"rental_uris": {"ios": "https://dc.lft.to/lastmile_qr_scan", "android": "https://dc.lft.to/lastmile_qr_scan"}, "lon": -76.98596383333333, "type": "electric_scooter", "fusion_lat": 0.0, "lat": 38.899276, "name": "fff57f28a636669ae46b3fefc819b70e", "fusion_lon": 0.0, "bike_id": "fff57f28a636669ae46b3fefc819b70e", "is_disabled": 0, "is_reserved": 0}, {"rental_uris": {"ios": "https://dc.lft.to/lastmile_qr_scan", "android": "https://dc.lft.to/lastmile_qr_scan"}, "lon": -77.0007215, "type": "electric_scooter", "fusion_lat": 0.0, "lat": 38.9255185, "name": "53bf8688393ce60c27fc66194548f44d", "fusion_lon": 0.0, "bike_id": "53bf8688393ce60c27fc66194548f44d", "is_disabled": 0, "is_reserved": 0}, {"rental_uris": {"ios": "https://dc.lft.to/lastmile_qr_scan", "android": "https://dc.lft.to/lastmile_qr_scan"}, "lon": -77.04817466666667, "type": "electric_scooter", "fusion_lat": 0.0, "lat": 38.9203295, "name": "e981db7a1257fb3045f9366b92d292f8", "fusion_lon": 0.0, "bike_id": "e981db7a1257fb3045f9366b92d292f8", "is_disabled": 0, "is_reserved": 0}, {"rental_uris": {"ios": "https://dc.lft.to/lastmile_qr_scan", "android": "https://dc.lft.to/lastmile_qr_scan"}, "lon": -77.05686666666666, "type": "electric_scooter", "fusion_lat": 0.0, "lat": 38.937033, "name": "e7ac601f07182bfb7630fe8fd5efeb93", "fusion_lon": 0.0, "bike_id": "e7ac601f07182bfb7630fe8fd5efeb93", "is_disabled": 0, "is_reserved": 0}, {"rental_uris": {"ios": "https://dc.lft.to/lastmile_qr_scan", "android": "https://dc.lft.to/lastmile_qr_scan"}, "lon": -77.0482035, "type": "electric_scooter", "fusion_lat": 0.0, "lat": 38.897344, "name": "92e3a06a120bc9c9fba477dffdc175b9", "fusion_lon": 0.0, "bike_id": "92e3a06a120bc9c9fba477dffdc175b9", "is_disabled": 0, "is_reserved": 0}, {"rental_uris": {"ios": "https://dc.lft.to/lastmile_qr_scan", "android": "https://dc.lft.to/lastmile_qr_scan"}, "lon": -76.9987375, "type": "electric_scooter", "fusion_lat": 0.0, "lat": 38.90029066666666, "name": "bf54d5b5a1af09c92b06bd70e7659931", "fusion_lon": 0.0, "bike_id": "bf54d5b5a1af09c92b06bd70e7659931", "is_disabled": 0, "is_reserved": 0}, {"rental_uris": {"ios": "https://dc.lft.to/lastmile_qr_scan", "android": "https://dc.lft.to/lastmile_qr_scan"}, "lon": -77.001086, "type": "electric_scooter", "fusion_lat": 0.0, "lat": 38.873235666666666, "name": "d3cacb3ac17f35eb5fbdd92ce3321e8c", "fusion_lon": 0.0, "bike_id": "d3cacb3ac17f35eb5fbdd92ce3321e8c", "is_disabled": 0, "is_reserved": 0}, {"rental_uris": {"ios": "https://dc.lft.to/lastmile_qr_scan", "android": "https://dc.lft.to/lastmile_qr_scan"}, "lon": -77.035693, "type": "electric_scooter", "fusion_lat": 0.0, "lat": 38.9181185, "name": "c835665097e92f72f2731cbc6354c0a5", "fusion_lon": 0.0, "bike_id": "c835665097e92f72f2731cbc6354c0a5", "is_disabled": 0, "is_reserved": 0}, {"rental_uris": {"ios": "https://dc.lft.to/lastmile_qr_scan", "android": "https://dc.lft.to/lastmile_qr_scan"}, "lon": -77.03084783333334, "type": "electric_scooter", "fusion_lat": 0.0, "lat": 38.922476, "name": "8c7119a528e5fd358ad87b68e4cff7c2", "fusion_lon": 0.0, "bike_id": "8c7119a528e5fd358ad87b68e4cff7c2", "is_disabled": 0, "is_reserved": 0}, {"rental_uris": {"ios": "https://dc.lft.to/lastmile_qr_scan", "android": "https://dc.lft.to/lastmile_qr_scan"}, "lon": -76.97321933333333, "type": "electric_scooter", "fusion_lat": 0.0, "lat": 38.9047665, "name": "e331f892e1e050cc4242057dae25573e", "fusion_lon": 0.0, "bike_id": "e331f892e1e050cc4242057dae25573e", "is_disabled": 0, "is_reserved": 0}, {"rental_uris": {"ios": "https://dc.lft.to/lastmile_qr_scan", "android": "https://dc.lft.to/lastmile_qr_scan"}, "lon": -77.050908, "type": "electric_bike", "fusion_lat": 0.0, "lat": 38.8133305, "name": "1d3240b61ecbfd1905a1ee5b4208fc70", "fusion_lon": 0.0, "bike_id": "1d3240b61ecbfd1905a1ee5b4208fc70", "is_disabled": 0, "is_reserved": 0}, {"rental_uris": {"ios": "https://dc.lft.to/lastmile_qr_scan", "android": "https://dc.lft.to/lastmile_qr_scan"}, "lon": -76.93544616666667, "type": "electric_bike", "fusion_lat": 0.0, "lat": 38.95185033333333, "name": "6660cc15bac4ea5300842b15b9d495f0", "fusion_lon": 0.0, "bike_id": "6660cc15bac4ea5300842b15b9d495f0", "is_disabled": 0, "is_reserved": 0}, {"rental_uris": {"ios": "https://dc.lft.to/lastmile_qr_scan", "android": "https://dc.lft.to/lastmile_qr_scan"}, "lon": -77.05814116666667, "type": "electric_scooter", "fusion_lat": 0.0, "lat": 38.902964, "name": "a618e3268169c8c87645b777f1ff6b1f", "fusion_lon": 0.0, "bike_id": "a618e3268169c8c87645b777f1ff6b1f", "is_disabled": 0, "is_reserved": 0}, {"rental_uris": {"ios": "https://dc.lft.to/lastmile_qr_scan", "android": "https://dc.lft.to/lastmile_qr_scan"}, "lon": -77.024266, "type": "electric_bike", "fusion_lat": 0.0, "lat": 38.93350433333333, "name": "4907ca6227b85a75f5f08e9ec50fe7a5", "fusion_lon": 0.0, "bike_id": "4907ca6227b85a75f5f08e9ec50fe7a5", "is_disabled": 0, "is_reserved": 0}, {"rental_uris": {"ios": "https://dc.lft.to/lastmile_qr_scan", "android": "https://dc.lft.to/lastmile_qr_scan"}, "lon": -76.99554983333333, "type": "electric_scooter", "fusion_lat": 0.0, "lat": 38.923160833333334, "name": "4e4bce10b77fbcea1c86f5b2fc81b227", "fusion_lon": 0.0, "bike_id": "4e4bce10b77fbcea1c86f5b2fc81b227", "is_disabled": 0, "is_reserved": 0}, {"rental_uris": {"ios": "https://dc.lft.to/lastmile_qr_scan", "android": "https://dc.lft.to/lastmile_qr_scan"}, "lon": -77.005874, "type": "electric_scooter", "fusion_lat": 0.0, "lat": 38.9057225, "name": "4316fc101311fa5478a15a11499b54e1", "fusion_lon": 0.0, "bike_id": "4316fc101311fa5478a15a11499b54e1", "is_disabled": 0, "is_reserved": 0}, {"rental_uris": {"ios": "https://dc.lft.to/lastmile_qr_scan", "android": "https://dc.lft.to/lastmile_qr_scan"}, "lon": -77.0318765, "type": "electric_scooter", "fusion_lat": 0.0, "lat": 38.91928566666667, "name": "7c6503a3b10b64e5e4848dbb33d67997", "fusion_lon": 0.0, "bike_id": "7c6503a3b10b64e5e4848dbb33d67997", "is_disabled": 0, "is_reserved": 0}, {"rental_uris": {"ios": "https://dc.lft.to/lastmile_qr_scan", "android": "https://dc.lft.to/lastmile_qr_scan"}, "lon": -77.03865216666667, "type": "electric_scooter", "fusion_lat": 0.0, "lat": 38.907745, "name": "57191429dd2c76bab5d207cdac408134", "fusion_lon": 0.0, "bike_id": "57191429dd2c76bab5d207cdac408134", "is_disabled": 0, "is_reserved": 0}, {"rental_uris": {"ios": "https://dc.lft.to/lastmile_qr_scan", "android": "https://dc.lft.to/lastmile_qr_scan"}, "lon": -77.04330616666667, "type": "electric_scooter", "fusion_lat": 0.0, "lat": 38.89585733333333, "name": "9f0ce1fd1a1835b3145dea7c9bba4fe7", "fusion_lon": 0.0, "bike_id": "9f0ce1fd1a1835b3145dea7c9bba4fe7", "is_disabled": 0, "is_reserved": 0}, {"rental_uris": {"ios": "https://dc.lft.to/lastmile_qr_scan", "android": "https://dc.lft.to/lastmile_qr_scan"}, "lon": -77.03184083333333, "type": "electric_scooter", "fusion_lat": 0.0, "lat": 38.91798433333334, "name": "a1c22b9230e09e9d5c758aebaf4e68e4", "fusion_lon": 0.0, "bike_id": "a1c22b9230e09e9d5c758aebaf4e68e4", "is_disabled": 0, "is_reserved": 0}, {"rental_uris": {"ios": "https://dc.lft.to/lastmile_qr_scan", "android": "https://dc.lft.to/lastmile_qr_scan"}, "lon": -77.032608, "type": "electric_scooter", "fusion_lat": 0.0, "lat": 38.92549733333333, "name": "a4cd29cfec6852267abdcfac8fc6c7f9", "fusion_lon": 0.0, "bike_id": "a4cd29cfec6852267abdcfac8fc6c7f9", "is_disabled": 0, "is_reserved": 0}, {"rental_uris": {"ios": "https://dc.lft.to/lastmile_qr_scan", "android": "https://dc.lft.to/lastmile_qr_scan"}, "lon": -77.04031233333333, "type": "electric_scooter", "fusion_lat": 0.0, "lat": 38.9180545, "name": "5af091729ab6d0468ec24cafaa5427c0", "fusion_lon": 0.0, "bike_id": "5af091729ab6d0468ec24cafaa5427c0", "is_disabled": 0, "is_reserved": 0}, {"rental_uris": {"ios": "https://dc.lft.to/lastmile_qr_scan", "android": "https://dc.lft.to/lastmile_qr_scan"}, "lon": -77.091922, "type": "electric_scooter", "fusion_lat": 0.0, "lat": 38.913646666666665, "name": "c95eab6a16474d4a261549d0d331e1a1", "fusion_lon": 0.0, "bike_id": "c95eab6a16474d4a261549d0d331e1a1", "is_disabled": 0, "is_reserved": 0}, {"rental_uris": {"ios": "https://dc.lft.to/lastmile_qr_scan", "android": "https://dc.lft.to/lastmile_qr_scan"}, "lon": -77.03435733333333, "type": "electric_scooter", "fusion_lat": 0.0, "lat": 38.91682616666667, "name": "8bcd693ba22491108efb9c4330b477ab", "fusion_lon": 0.0, "bike_id": "8bcd693ba22491108efb9c4330b477ab", "is_disabled": 0, "is_reserved": 0}, {"rental_uris": {"ios": "https://dc.lft.to/lastmile_qr_scan", "android": "https://dc.lft.to/lastmile_qr_scan"}, "lon": -77.04666566666667, "type": "electric_scooter", "fusion_lat": 0.0, "lat": 38.9148, "name": "b938c16d626be33dde8a4dacc23d4d66", "fusion_lon": 0.0, "bike_id": "b938c16d626be33dde8a4dacc23d4d66", "is_disabled": 0, "is_reserved": 0}, {"rental_uris": {"ios": "https://dc.lft.to/lastmile_qr_scan", "android": "https://dc.lft.to/lastmile_qr_scan"}, "lon": -77.00584366666666, "type": "electric_bike", "fusion_lat": 0.0, "lat": 38.905776333333336, "name": "56780e64538b7ede9f4d0ab46a4a180f", "fusion_lon": 0.0, "bike_id": "56780e64538b7ede9f4d0ab46a4a180f", "is_disabled": 0, "is_reserved": 0}, {"rental_uris": {"ios": "https://dc.lft.to/lastmile_qr_scan", "android": "https://dc.lft.to/lastmile_qr_scan"}, "lon": -77.03509466666667, "type": "electric_scooter", "fusion_lat": 0.0, "lat": 38.921482, "name": "c09466f6f7d1b20b68c3f83b8639acb2", "fusion_lon": 0.0, "bike_id": "c09466f6f7d1b20b68c3f83b8639acb2", "is_disabled": 0, "is_reserved": 0}, {"rental_uris": {"ios": "https://dc.lft.to/lastmile_qr_scan", "android": "https://dc.lft.to/lastmile_qr_scan"}, "lon": -76.94881716666667, "type": "electric_scooter", "fusion_lat": 0.0, "lat": 38.895022166666664, "name": "389871cd71c263e66696350198156187", "fusion_lon": 0.0, "bike_id": "389871cd71c263e66696350198156187", "is_disabled": 0, "is_reserved": 0}, {"rental_uris": {"ios": "https://dc.lft.to/lastmile_qr_scan", "android": "https://dc.lft.to/lastmile_qr_scan"}, "lon": -77.02954733333333, "type": "electric_scooter", "fusion_lat": 0.0, "lat": 38.905205333333335, "name": "0dc774ec04de896514672b10bedc2417", "fusion_lon": 0.0, "bike_id": "0dc774ec04de896514672b10bedc2417", "is_disabled": 0, "is_reserved": 0}, {"rental_uris": {"ios": "https://dc.lft.to/lastmile_qr_scan", "android": "https://dc.lft.to/lastmile_qr_scan"}, "lon": -77.00661166666667, "type": "electric_scooter", "fusion_lat": 0.0, "lat": 38.944646666666664, "name": "bd0d91fd381011dbb929904ceee0bd77", "fusion_lon": 0.0, "bike_id": "bd0d91fd381011dbb929904ceee0bd77", "is_disabled": 0, "is_reserved": 0}, {"rental_uris": {"ios": "https://dc.lft.to/lastmile_qr_scan", "android": "https://dc.lft.to/lastmile_qr_scan"}, "lon": -77.10688466666667, "type": "electric_bike", "fusion_lat": 0.0, "lat": 38.93583116666667, "name": "7a9f3fd91db1736c2a1f54da0ec7bdb5", "fusion_lon": 0.0, "bike_id": "7a9f3fd91db1736c2a1f54da0ec7bdb5", "is_disabled": 0, "is_reserved": 0}, {"rental_uris": {"ios": "https://dc.lft.to/lastmile_qr_scan", "android": "https://dc.lft.to/lastmile_qr_scan"}, "lon": -77.04292716666667, "type": "electric_scooter", "fusion_lat": 0.0, "lat": 38.902885, "name": "852cc3b2947ace70cdcd6373cca5dba0", "fusion_lon": 0.0, "bike_id": "852cc3b2947ace70cdcd6373cca5dba0", "is_disabled": 0, "is_reserved": 0}, {"rental_uris": {"ios": "https://dc.lft.to/lastmile_qr_scan", "android": "https://dc.lft.to/lastmile_qr_scan"}, "lon": -77.04170283333333, "type": "electric_scooter", "fusion_lat": 0.0, "lat": 38.919520166666665, "name": "be40ec4cd86256bea4c94948f1f2298d", "fusion_lon": 0.0, "bike_id": "be40ec4cd86256bea4c94948f1f2298d", "is_disabled": 0, "is_reserved": 0}, {"rental_uris": {"ios": "https://dc.lft.to/lastmile_qr_scan", "android": "https://dc.lft.to/lastmile_qr_scan"}, "lon": -76.986599, "type": "electric_scooter", "fusion_lat": 0.0, "lat": 38.858057, "name": "3802840ba8314943c35a34cd6e968d90", "fusion_lon": 0.0, "bike_id": "3802840ba8314943c35a34cd6e968d90", "is_disabled": 0, "is_reserved": 0}, {"rental_uris": {"ios": "https://dc.lft.to/lastmile_qr_scan", "android": "https://dc.lft.to/lastmile_qr_scan"}, "lon": -77.04802433333333, "type": "electric_scooter", "fusion_lat": 0.0, "lat": 38.911078833333335, "name": "c6f04a4fdb6d15b71e57ec897970c385", "fusion_lon": 0.0, "bike_id": "c6f04a4fdb6d15b71e57ec897970c385", "is_disabled": 0, "is_reserved": 0}, {"rental_uris": {"ios": "https://dc.lft.to/lastmile_qr_scan", "android": "https://dc.lft.to/lastmile_qr_scan"}, "lon": -76.97926833333334, "type": "electric_scooter", "fusion_lat": 0.0, "lat": 38.9049705, "name": "464ce2e8577b53097b6fa3e48581f796", "fusion_lon": 0.0, "bike_id": "464ce2e8577b53097b6fa3e48581f796", "is_disabled": 0, "is_reserved": 0}, {"rental_uris": {"ios": "https://dc.lft.to/lastmile_qr_scan", "android": "https://dc.lft.to/lastmile_qr_scan"}, "lon": -76.98759733333333, "type": "electric_scooter", "fusion_lat": 0.0, "lat": 38.844974, "name": "b0dca351ab20437c3d62621d497291d8", "fusion_lon": 0.0, "bike_id": "b0dca351ab20437c3d62621d497291d8", "is_disabled": 0, "is_reserved": 0}, {"rental_uris": {"ios": "https://dc.lft.to/lastmile_qr_scan", "android": "https://dc.lft.to/lastmile_qr_scan"}, "lon": -77.03658633333333, "type": "electric_scooter", "fusion_lat": 0.0, "lat": 38.92206983333333, "name": "99e9dca3a47f6c01e4f3017ff78cb0bc", "fusion_lon": 0.0, "bike_id": "99e9dca3a47f6c01e4f3017ff78cb0bc", "is_disabled": 0, "is_reserved": 0}, {"rental_uris": {"ios": "https://dc.lft.to/lastmile_qr_scan", "android": "https://dc.lft.to/lastmile_qr_scan"}, "lon": -76.985682, "type": "electric_scooter", "fusion_lat": 0.0, "lat": 38.8562445, "name": "a1f4c93b4e75e9a375375791f37c950a", "fusion_lon": 0.0, "bike_id": "a1f4c93b4e75e9a375375791f37c950a", "is_disabled": 0, "is_reserved": 0}, {"rental_uris": {"ios": "https://dc.lft.to/lastmile_qr_scan", "android": "https://dc.lft.to/lastmile_qr_scan"}, "lon": -77.10030033333334, "type": "electric_bike", "fusion_lat": 0.0, "lat": 38.9906465, "name": "6023b257683df232aae8639a10f17c7b", "fusion_lon": 0.0, "bike_id": "6023b257683df232aae8639a10f17c7b", "is_disabled": 0, "is_reserved": 0}, {"rental_uris": {"ios": "https://dc.lft.to/lastmile_qr_scan", "android": "https://dc.lft.to/lastmile_qr_scan"}, "lon": -77.04184633333334, "type": "electric_scooter", "fusion_lat": 0.0, "lat": 38.92047, "name": "04ba775c0bbbc427584964cc2a82839d", "fusion_lon": 0.0, "bike_id": "04ba775c0bbbc427584964cc2a82839d", "is_disabled": 0, "is_reserved": 0}, {"rental_uris": {"ios": "https://dc.lft.to/lastmile_qr_scan", "android": "https://dc.lft.to/lastmile_qr_scan"}, "lon": -77.00349233333333, "type": "electric_scooter", "fusion_lat": 0.0, "lat": 38.897609333333335, "name": "cbba322ab54cfab5e951f50aa4af9f37", "fusion_lon": 0.0, "bike_id": "cbba322ab54cfab5e951f50aa4af9f37", "is_disabled": 0, "is_reserved": 0}, {"rental_uris": {"ios": "https://dc.lft.to/lastmile_qr_scan", "android": "https://dc.lft.to/lastmile_qr_scan"}, "lon": -77.023362, "type": "electric_scooter", "fusion_lat": 0.0, "lat": 38.930495666666665, "name": "d1d7ba67953f068b484a7fc91e860bd7", "fusion_lon": 0.0, "bike_id": "d1d7ba67953f068b484a7fc91e860bd7", "is_disabled": 0, "is_reserved": 0}, {"rental_uris": {"ios": "https://dc.lft.to/lastmile_qr_scan", "android": "https://dc.lft.to/lastmile_qr_scan"}, "lon": -77.02223216666667, "type": "electric_scooter", "fusion_lat": 0.0, "lat": 38.8935465, "name": "73753097a4dd79988bd568352a773e50", "fusion_lon": 0.0, "bike_id": "73753097a4dd79988bd568352a773e50", "is_disabled": 0, "is_reserved": 0}, {"rental_uris": {"ios": "https://dc.lft.to/lastmile_qr_scan", "android": "https://dc.lft.to/lastmile_qr_scan"}, "lon": -77.04902516666667, "type": "electric_bike", "fusion_lat": 0.0, "lat": 38.874969166666666, "name": "d5f099d3530fb121a8ae577a39d5a10d", "fusion_lon": 0.0, "bike_id": "d5f099d3530fb121a8ae577a39d5a10d", "is_disabled": 0, "is_reserved": 0}, {"rental_uris": {"ios": "https://dc.lft.to/lastmile_qr_scan", "android": "https://dc.lft.to/lastmile_qr_scan"}, "lon": -76.98572916666667, "type": "electric_scooter", "fusion_lat": 0.0, "lat": 38.89887433333333, "name": "a3b3f0ae4bdca3986b0b1af739960717", "fusion_lon": 0.0, "bike_id": "a3b3f0ae4bdca3986b0b1af739960717", "is_disabled": 0, "is_reserved": 0}, {"rental_uris": {"ios": "https://dc.lft.to/lastmile_qr_scan", "android": "https://dc.lft.to/lastmile_qr_scan"}, "lon": -76.986594, "type": "electric_scooter", "fusion_lat": 0.0, "lat": 38.8580675, "name": "c6d77b18996f8e3ccefb3bf357225588", "fusion_lon": 0.0, "bike_id": "c6d77b18996f8e3ccefb3bf357225588", "is_disabled": 0, "is_reserved": 0}, {"rental_uris": {"ios": "https://dc.lft.to/lastmile_qr_scan", "android": "https://dc.lft.to/lastmile_qr_scan"}, "lon": -76.9465445, "type": "electric_scooter", "fusion_lat": 0.0, "lat": 38.89828033333333, "name": "757f1675ca49e8b590dd236fe0cedb7e", "fusion_lon": 0.0, "bike_id": "757f1675ca49e8b590dd236fe0cedb7e", "is_disabled": 0, "is_reserved": 0}, {"rental_uris": {"ios": "https://dc.lft.to/lastmile_qr_scan", "android": "https://dc.lft.to/lastmile_qr_scan"}, "lon": -77.03122416666666, "type": "electric_scooter", "fusion_lat": 0.0, "lat": 38.963068, "name": "20e37a0dd126e598bc11cbab02f008a1", "fusion_lon": 0.0, "bike_id": "20e37a0dd126e598bc11cbab02f008a1", "is_disabled": 0, "is_reserved": 0}, {"rental_uris": {"ios": "https://dc.lft.to/lastmile_qr_scan", "android": "https://dc.lft.to/lastmile_qr_scan"}, "lon": -77.0268065, "type": "electric_scooter", "fusion_lat": 0.0, "lat": 38.90718716666667, "name": "5c7cad4bf385c0f3031e2a8c0bed318c", "fusion_lon": 0.0, "bike_id": "5c7cad4bf385c0f3031e2a8c0bed318c", "is_disabled": 0, "is_reserved": 0}, {"rental_uris": {"ios": "https://dc.lft.to/lastmile_qr_scan", "android": "https://dc.lft.to/lastmile_qr_scan"}, "lon": -77.063815, "type": "electric_scooter", "fusion_lat": 0.0, "lat": 38.908194, "name": "aa14f0fb3bd6348d3fe0de16ea10c3e6", "fusion_lon": 0.0, "bike_id": "aa14f0fb3bd6348d3fe0de16ea10c3e6", "is_disabled": 0, "is_reserved": 0}, {"rental_uris": {"ios": "https://dc.lft.to/lastmile_qr_scan", "android": "https://dc.lft.to/lastmile_qr_scan"}, "lon": -76.98006, "type": "electric_bike", "fusion_lat": 0.0, "lat": 38.862809, "name": "871b522ba4ed790fa627ec3b3932ec04", "fusion_lon": 0.0, "bike_id": "871b522ba4ed790fa627ec3b3932ec04", "is_disabled": 0, "is_reserved": 0}, {"rental_uris": {"ios": "https://dc.lft.to/lastmile_qr_scan", "android": "https://dc.lft.to/lastmile_qr_scan"}, "lon": -77.03304716666666, "type": "electric_scooter", "fusion_lat": 0.0, "lat": 38.928479, "name": "e7131089c6d486593f8e65c3fc67f3eb", "fusion_lon": 0.0, "bike_id": "e7131089c6d486593f8e65c3fc67f3eb", "is_disabled": 0, "is_reserved": 0}, {"rental_uris": {"ios": "https://dc.lft.to/lastmile_qr_scan", "android": "https://dc.lft.to/lastmile_qr_scan"}, "lon": -77.00768233333334, "type": "electric_scooter", "fusion_lat": 0.0, "lat": 38.91118433333333, "name": "f78fac3b936b75ebf536a311af94757e", "fusion_lon": 0.0, "bike_id": "f78fac3b936b75ebf536a311af94757e", "is_disabled": 0, "is_reserved": 0}, {"rental_uris": {"ios": "https://dc.lft.to/lastmile_qr_scan", "android": "https://dc.lft.to/lastmile_qr_scan"}, "lon": -76.93105216666666, "type": "electric_scooter", "fusion_lat": 0.0, "lat": 38.901418166666666, "name": "2aec4be51d8b508b578b679bed4b5bb3", "fusion_lon": 0.0, "bike_id": "2aec4be51d8b508b578b679bed4b5bb3", "is_disabled": 0, "is_reserved": 0}, {"rental_uris": {"ios": "https://dc.lft.to/lastmile_qr_scan", "android": "https://dc.lft.to/lastmile_qr_scan"}, "lon": -76.985547, "type": "electric_scooter", "fusion_lat": 0.0, "lat": 38.897671, "name": "4c47b1de84dcabc6336e4a7cadbe560b", "fusion_lon": 0.0, "bike_id": "4c47b1de84dcabc6336e4a7cadbe560b", "is_disabled": 0, "is_reserved": 0}, {"rental_uris": {"ios": "https://dc.lft.to/lastmile_qr_scan", "android": "https://dc.lft.to/lastmile_qr_scan"}, "lon": -77.05355416666667, "type": "electric_scooter", "fusion_lat": 0.0, "lat": 38.90249466666667, "name": "4e99d4fe5ffb218051aec74c9d3c2a80", "fusion_lon": 0.0, "bike_id": "4e99d4fe5ffb218051aec74c9d3c2a80", "is_disabled": 0, "is_reserved": 0}, {"rental_uris": {"ios": "https://dc.lft.to/lastmile_qr_scan", "android": "https://dc.lft.to/lastmile_qr_scan"}, "lon": -77.034214, "type": "electric_scooter", "fusion_lat": 0.0, "lat": 38.919183, "name": "e6aeadd0fa763286aa05d8ea29fc68c2", "fusion_lon": 0.0, "bike_id": "e6aeadd0fa763286aa05d8ea29fc68c2", "is_disabled": 0, "is_reserved": 0}, {"rental_uris": {"ios": "https://dc.lft.to/lastmile_qr_scan", "android": "https://dc.lft.to/lastmile_qr_scan"}, "lon": -77.00845283333334, "type": "electric_bike", "fusion_lat": 0.0, "lat": 38.949194, "name": "dd3a2fa86ef7ef432ad59e666fbf16ca", "fusion_lon": 0.0, "bike_id": "dd3a2fa86ef7ef432ad59e666fbf16ca", "is_disabled": 0, "is_reserved": 0}, {"rental_uris": {"ios": "https://dc.lft.to/lastmile_qr_scan", "android": "https://dc.lft.to/lastmile_qr_scan"}, "lon": -76.995229, "type": "electric_scooter", "fusion_lat": 0.0, "lat": 38.86260716666666, "name": "1028e13c48a19e2ff822faf296619e9c", "fusion_lon": 0.0, "bike_id": "1028e13c48a19e2ff822faf296619e9c", "is_disabled": 0, "is_reserved": 0}, {"rental_uris": {"ios": "https://dc.lft.to/lastmile_qr_scan", "android": "https://dc.lft.to/lastmile_qr_scan"}, "lon": -77.04172266666667, "type": "electric_scooter", "fusion_lat": 0.0, "lat": 38.917024166666664, "name": "f65535f1cdb839c191cb86e9dcc83faf", "fusion_lon": 0.0, "bike_id": "f65535f1cdb839c191cb86e9dcc83faf", "is_disabled": 0, "is_reserved": 0}, {"rental_uris": {"ios": "https://dc.lft.to/lastmile_qr_scan", "android": "https://dc.lft.to/lastmile_qr_scan"}, "lon": -77.0364245, "type": "electric_scooter", "fusion_lat": 0.0, "lat": 38.9173335, "name": "4e8399af177ff7604a88c85ccc424876", "fusion_lon": 0.0, "bike_id": "4e8399af177ff7604a88c85ccc424876", "is_disabled": 0, "is_reserved": 0}, {"rental_uris": {"ios": "https://dc.lft.to/lastmile_qr_scan", "android": "https://dc.lft.to/lastmile_qr_scan"}, "lon": -77.0108855, "type": "electric_scooter", "fusion_lat": 0.0, "lat": 38.91631116666667, "name": "eb408b932032f11b9816a89cc91f7269", "fusion_lon": 0.0, "bike_id": "eb408b932032f11b9816a89cc91f7269", "is_disabled": 0, "is_reserved": 0}, {"rental_uris": {"ios": "https://dc.lft.to/lastmile_qr_scan", "android": "https://dc.lft.to/lastmile_qr_scan"}, "lon": -77.018093, "type": "electric_scooter", "fusion_lat": 0.0, "lat": 38.94203533333334, "name": "931a6cd1539ff045b613ac6067bf6858", "fusion_lon": 0.0, "bike_id": "931a6cd1539ff045b613ac6067bf6858", "is_disabled": 0, "is_reserved": 0}, {"rental_uris": {"ios": "https://dc.lft.to/lastmile_qr_scan", "android": "https://dc.lft.to/lastmile_qr_scan"}, "lon": -77.02840433333333, "type": "electric_scooter", "fusion_lat": 0.0, "lat": 38.9347315, "name": "c42fe7a3cf0450b362dffc56ad5587f9", "fusion_lon": 0.0, "bike_id": "c42fe7a3cf0450b362dffc56ad5587f9", "is_disabled": 0, "is_reserved": 0}, {"rental_uris": {"ios": "https://dc.lft.to/lastmile_qr_scan", "android": "https://dc.lft.to/lastmile_qr_scan"}, "lon": -77.02978, "type": "electric_scooter", "fusion_lat": 0.0, "lat": 38.96228516666667, "name": "8f5ce48813161147e63492a995a0fb17", "fusion_lon": 0.0, "bike_id": "8f5ce48813161147e63492a995a0fb17", "is_disabled": 0, "is_reserved": 0}, {"rental_uris": {"ios": "https://dc.lft.to/lastmile_qr_scan", "android": "https://dc.lft.to/lastmile_qr_scan"}, "lon": -77.02383566666667, "type": "electric_scooter", "fusion_lat": 0.0, "lat": 38.920494833333336, "name": "fb884710dcb9c72fc877500ea9e79a3c", "fusion_lon": 0.0, "bike_id": "fb884710dcb9c72fc877500ea9e79a3c", "is_disabled": 0, "is_reserved": 0}, {"rental_uris": {"ios": "https://dc.lft.to/lastmile_qr_scan", "android": "https://dc.lft.to/lastmile_qr_scan"}, "lon": -77.03257916666666, "type": "electric_scooter", "fusion_lat": 0.0, "lat": 38.93809983333333, "name": "104779b37b312d8f83f10db8ab2467d5", "fusion_lon": 0.0, "bike_id": "104779b37b312d8f83f10db8ab2467d5", "is_disabled": 0, "is_reserved": 0}, {"rental_uris": {"ios": "https://dc.lft.to/lastmile_qr_scan", "android": "https://dc.lft.to/lastmile_qr_scan"}, "lon": -77.01350566666666, "type": "electric_scooter", "fusion_lat": 0.0, "lat": 38.871215166666666, "name": "2b2f08c5da2308c31957125db568a04b", "fusion_lon": 0.0, "bike_id": "2b2f08c5da2308c31957125db568a04b", "is_disabled": 0, "is_reserved": 0}, {"rental_uris": {"ios": "https://dc.lft.to/lastmile_qr_scan", "android": "https://dc.lft.to/lastmile_qr_scan"}, "lon": -77.02324916666667, "type": "electric_scooter", "fusion_lat": 0.0, "lat": 38.927623, "name": "a6595355753bcaa8ad385c17072ec3de", "fusion_lon": 0.0, "bike_id": "a6595355753bcaa8ad385c17072ec3de", "is_disabled": 0, "is_reserved": 0}, {"rental_uris": {"ios": "https://dc.lft.to/lastmile_qr_scan", "android": "https://dc.lft.to/lastmile_qr_scan"}, "lon": -77.03147683333333, "type": "electric_scooter", "fusion_lat": 0.0, "lat": 38.8829865, "name": "fefc50c85d6c4c2990380dccd57f7e31", "fusion_lon": 0.0, "bike_id": "fefc50c85d6c4c2990380dccd57f7e31", "is_disabled": 0, "is_reserved": 0}, {"rental_uris": {"ios": "https://dc.lft.to/lastmile_qr_scan", "android": "https://dc.lft.to/lastmile_qr_scan"}, "lon": -77.0177365, "type": "electric_bike", "fusion_lat": 0.0, "lat": 38.9148505, "name": "1ef548efc81cc05c59b5696f365c4fc5", "fusion_lon": 0.0, "bike_id": "1ef548efc81cc05c59b5696f365c4fc5", "is_disabled": 0, "is_reserved": 0}, {"rental_uris": {"ios": "https://dc.lft.to/lastmile_qr_scan", "android": "https://dc.lft.to/lastmile_qr_scan"}, "lon": -77.14121733333333, "type": "electric_bike", "fusion_lat": 0.0, "lat": 38.8160275, "name": "1fcb470702798e27aa38dbb84f566e7b", "fusion_lon": 0.0, "bike_id": "1fcb470702798e27aa38dbb84f566e7b", "is_disabled": 0, "is_reserved": 0}, {"rental_uris": {"ios": "https://dc.lft.to/lastmile_qr_scan", "android": "https://dc.lft.to/lastmile_qr_scan"}, "lon": -77.0326465, "type": "electric_scooter", "fusion_lat": 0.0, "lat": 38.937345666666666, "name": "0e2153c9847770f768c5ce375260062c", "fusion_lon": 0.0, "bike_id": "0e2153c9847770f768c5ce375260062c", "is_disabled": 0, "is_reserved": 0}, {"rental_uris": {"ios": "https://dc.lft.to/lastmile_qr_scan", "android": "https://dc.lft.to/lastmile_qr_scan"}, "lon": -77.0085545, "type": "electric_scooter", "fusion_lat": 0.0, "lat": 38.925933, "name": "7f2110f325f7f906106db8f3320d1500", "fusion_lon": 0.0, "bike_id": "7f2110f325f7f906106db8f3320d1500", "is_disabled": 0, "is_reserved": 0}, {"rental_uris": {"ios": "https://dc.lft.to/lastmile_qr_scan", "android": "https://dc.lft.to/lastmile_qr_scan"}, "lon": -77.01756483333334, "type": "electric_scooter", "fusion_lat": 0.0, "lat": 38.9389705, "name": "6cbaf678f22c490d1ce407bc5ecf4c16", "fusion_lon": 0.0, "bike_id": "6cbaf678f22c490d1ce407bc5ecf4c16", "is_disabled": 0, "is_reserved": 0}, {"rental_uris": {"ios": "https://dc.lft.to/lastmile_qr_scan", "android": "https://dc.lft.to/lastmile_qr_scan"}, "lon": -76.978903, "type": "electric_scooter", "fusion_lat": 0.0, "lat": 38.91673016666667, "name": "506ec4a8524f34733df12c55be2d286b", "fusion_lon": 0.0, "bike_id": "506ec4a8524f34733df12c55be2d286b", "is_disabled": 0, "is_reserved": 0}, {"rental_uris": {"ios": "https://dc.lft.to/lastmile_qr_scan", "android": "https://dc.lft.to/lastmile_qr_scan"}, "lon": -76.93795066666667, "type": "electric_scooter", "fusion_lat": 0.0, "lat": 38.912851, "name": "6bc7219e506ef047d57fd25cea41b241", "fusion_lon": 0.0, "bike_id": "6bc7219e506ef047d57fd25cea41b241", "is_disabled": 0, "is_reserved": 0}, {"rental_uris": {"ios": "https://dc.lft.to/lastmile_qr_scan", "android": "https://dc.lft.to/lastmile_qr_scan"}, "lon": -77.12745583333333, "type": "electric_bike", "fusion_lat": 0.0, "lat": 38.888243833333334, "name": "68439898912e837c364fa2712e864168", "fusion_lon": 0.0, "bike_id": "68439898912e837c364fa2712e864168", "is_disabled": 0, "is_reserved": 0}, {"rental_uris": {"ios": "https://dc.lft.to/lastmile_qr_scan", "android": "https://dc.lft.to/lastmile_qr_scan"}, "lon": -77.04242783333333, "type": "electric_scooter", "fusion_lat": 0.0, "lat": 38.9082195, "name": "26570a2ec8566c91e624a6aeefe54bc9", "fusion_lon": 0.0, "bike_id": "26570a2ec8566c91e624a6aeefe54bc9", "is_disabled": 0, "is_reserved": 0}, {"rental_uris": {"ios": "https://dc.lft.to/lastmile_qr_scan", "android": "https://dc.lft.to/lastmile_qr_scan"}, "lon": -77.04937966666667, "type": "electric_scooter", "fusion_lat": 0.0, "lat": 38.896740666666666, "name": "5b24149eb8da302828a278a5ba6b906f", "fusion_lon": 0.0, "bike_id": "5b24149eb8da302828a278a5ba6b906f", "is_disabled": 0, "is_reserved": 0}, {"rental_uris": {"ios": "https://dc.lft.to/lastmile_qr_scan", "android": "https://dc.lft.to/lastmile_qr_scan"}, "lon": -76.99573366666667, "type": "electric_scooter", "fusion_lat": 0.0, "lat": 38.92655883333333, "name": "604f86fbcbc24817767c579ea2bd8830", "fusion_lon": 0.0, "bike_id": "604f86fbcbc24817767c579ea2bd8830", "is_disabled": 0, "is_reserved": 0}, {"rental_uris": {"ios": "https://dc.lft.to/lastmile_qr_scan", "android": "https://dc.lft.to/lastmile_qr_scan"}, "lon": -76.98772966666667, "type": "electric_scooter", "fusion_lat": 0.0, "lat": 38.91173233333333, "name": "3ff3e571c4ebc6b8b006e7ae77b5498d", "fusion_lon": 0.0, "bike_id": "3ff3e571c4ebc6b8b006e7ae77b5498d", "is_disabled": 0, "is_reserved": 0}, {"rental_uris": {"ios": "https://dc.lft.to/lastmile_qr_scan", "android": "https://dc.lft.to/lastmile_qr_scan"}, "lon": -77.02609516666666, "type": "electric_scooter", "fusion_lat": 0.0, "lat": 38.9169255, "name": "1ed34b509bdee86db14a1c12270ea1ec", "fusion_lon": 0.0, "bike_id": "1ed34b509bdee86db14a1c12270ea1ec", "is_disabled": 0, "is_reserved": 0}, {"rental_uris": {"ios": "https://dc.lft.to/lastmile_qr_scan", "android": "https://dc.lft.to/lastmile_qr_scan"}, "lon": -77.0837465, "type": "electric_scooter", "fusion_lat": 0.0, "lat": 38.93029, "name": "44d20b5b5268a4c83ca8f602540ea805", "fusion_lon": 0.0, "bike_id": "44d20b5b5268a4c83ca8f602540ea805", "is_disabled": 0, "is_reserved": 0}, {"rental_uris": {"ios": "https://dc.lft.to/lastmile_qr_scan", "android": "https://dc.lft.to/lastmile_qr_scan"}, "lon": -77.048262, "type": "electric_scooter", "fusion_lat": 0.0, "lat": 38.896203666666665, "name": "496221fef18c107f4ef2a8bd2575f7b1", "fusion_lon": 0.0, "bike_id": "496221fef18c107f4ef2a8bd2575f7b1", "is_disabled": 0, "is_reserved": 0}, {"rental_uris": {"ios": "https://dc.lft.to/lastmile_qr_scan", "android": "https://dc.lft.to/lastmile_qr_scan"}, "lon": -77.030875, "type": "electric_scooter", "fusion_lat": 0.0, "lat": 38.93476783333333, "name": "0d8a29594ce6d8182fbf092c8d14f97f", "fusion_lon": 0.0, "bike_id": "0d8a29594ce6d8182fbf092c8d14f97f", "is_disabled": 0, "is_reserved": 0}, {"rental_uris": {"ios": "https://dc.lft.to/lastmile_qr_scan", "android": "https://dc.lft.to/lastmile_qr_scan"}, "lon": -77.02896533333333, "type": "electric_scooter", "fusion_lat": 0.0, "lat": 38.9036755, "name": "b83f80930ec1c064a7f1dae6e3b380e3", "fusion_lon": 0.0, "bike_id": "b83f80930ec1c064a7f1dae6e3b380e3", "is_disabled": 0, "is_reserved": 0}, {"rental_uris": {"ios": "https://dc.lft.to/lastmile_qr_scan", "android": "https://dc.lft.to/lastmile_qr_scan"}, "lon": -77.0359325, "type": "electric_scooter", "fusion_lat": 0.0, "lat": 38.93231433333333, "name": "b375e6de3e036d62c6989abaf0da7e03", "fusion_lon": 0.0, "bike_id": "b375e6de3e036d62c6989abaf0da7e03", "is_disabled": 0, "is_reserved": 0}, {"rental_uris": {"ios": "https://dc.lft.to/lastmile_qr_scan", "android": "https://dc.lft.to/lastmile_qr_scan"}, "lon": -77.015672, "type": "electric_scooter", "fusion_lat": 0.0, "lat": 38.8995105, "name": "d8daacf40bc7e41db2e3f10ec7fe035d", "fusion_lon": 0.0, "bike_id": "d8daacf40bc7e41db2e3f10ec7fe035d", "is_disabled": 0, "is_reserved": 0}, {"rental_uris": {"ios": "https://dc.lft.to/lastmile_qr_scan", "android": "https://dc.lft.to/lastmile_qr_scan"}, "lon": -77.06327683333333, "type": "electric_bike", "fusion_lat": 0.0, "lat": 38.921057166666664, "name": "5b52fbb9118450f7179c3bb062e314ed", "fusion_lon": 0.0, "bike_id": "5b52fbb9118450f7179c3bb062e314ed", "is_disabled": 0, "is_reserved": 0}, {"rental_uris": {"ios": "https://dc.lft.to/lastmile_qr_scan", "android": "https://dc.lft.to/lastmile_qr_scan"}, "lon": -77.0321965, "type": "electric_scooter", "fusion_lat": 0.0, "lat": 38.91693716666666, "name": "b53e4b7ddde175edf67cf64217276d68", "fusion_lon": 0.0, "bike_id": "b53e4b7ddde175edf67cf64217276d68", "is_disabled": 0, "is_reserved": 0}, {"rental_uris": {"ios": "https://dc.lft.to/lastmile_qr_scan", "android": "https://dc.lft.to/lastmile_qr_scan"}, "lon": -77.04824983333333, "type": "electric_scooter", "fusion_lat": 0.0, "lat": 38.907943, "name": "a0abc6f833fff90070197f0519be8c8e", "fusion_lon": 0.0, "bike_id": "a0abc6f833fff90070197f0519be8c8e", "is_disabled": 0, "is_reserved": 0}, {"rental_uris": {"ios": "https://dc.lft.to/lastmile_qr_scan", "android": "https://dc.lft.to/lastmile_qr_scan"}, "lon": -77.02174366666667, "type": "electric_scooter", "fusion_lat": 0.0, "lat": 38.942894333333335, "name": "457d1227708fb609409a6599c0eb4cf7", "fusion_lon": 0.0, "bike_id": "457d1227708fb609409a6599c0eb4cf7", "is_disabled": 0, "is_reserved": 0}, {"rental_uris": {"ios": "https://dc.lft.to/lastmile_qr_scan", "android": "https://dc.lft.to/lastmile_qr_scan"}, "lon": -76.9463255, "type": "electric_scooter", "fusion_lat": 0.0, "lat": 38.89843583333333, "name": "260466b70ae96a6a42050f70b8f184f6", "fusion_lon": 0.0, "bike_id": "260466b70ae96a6a42050f70b8f184f6", "is_disabled": 0, "is_reserved": 0}, {"rental_uris": {"ios": "https://dc.lft.to/lastmile_qr_scan", "android": "https://dc.lft.to/lastmile_qr_scan"}, "lon": -77.01369266666667, "type": "electric_scooter", "fusion_lat": 0.0, "lat": 38.863708333333335, "name": "f37f45282061a1bb74f55a8c635dc816", "fusion_lon": 0.0, "bike_id": "f37f45282061a1bb74f55a8c635dc816", "is_disabled": 0, "is_reserved": 0}, {"rental_uris": {"ios": "https://dc.lft.to/lastmile_qr_scan", "android": "https://dc.lft.to/lastmile_qr_scan"}, "lon": -77.05863516666666, "type": "electric_scooter", "fusion_lat": 0.0, "lat": 38.936019, "name": "dee192ca85b6e40727d6e86d14205a2e", "fusion_lon": 0.0, "bike_id": "dee192ca85b6e40727d6e86d14205a2e", "is_disabled": 0, "is_reserved": 0}, {"rental_uris": {"ios": "https://dc.lft.to/lastmile_qr_scan", "android": "https://dc.lft.to/lastmile_qr_scan"}, "lon": -77.0604195, "type": "electric_scooter", "fusion_lat": 0.0, "lat": 38.939070666666666, "name": "2696d47fd4e880440240c6a8941137e2", "fusion_lon": 0.0, "bike_id": "2696d47fd4e880440240c6a8941137e2", "is_disabled": 0, "is_reserved": 0}, {"rental_uris": {"ios": "https://dc.lft.to/lastmile_qr_scan", "android": "https://dc.lft.to/lastmile_qr_scan"}, "lon": -77.127335, "type": "electric_bike", "fusion_lat": 0.0, "lat": 38.89560983333333, "name": "41c85e7819de32e1b37930d90f464a23", "fusion_lon": 0.0, "bike_id": "41c85e7819de32e1b37930d90f464a23", "is_disabled": 0, "is_reserved": 0}, {"rental_uris": {"ios": "https://dc.lft.to/lastmile_qr_scan", "android": "https://dc.lft.to/lastmile_qr_scan"}, "lon": -77.0107395, "type": "electric_bike", "fusion_lat": 0.0, "lat": 38.9191045, "name": "82a93957bc3a3faff6066e98cd9b9617", "fusion_lon": 0.0, "bike_id": "82a93957bc3a3faff6066e98cd9b9617", "is_disabled": 0, "is_reserved": 0}, {"rental_uris": {"ios": "https://dc.lft.to/lastmile_qr_scan", "android": "https://dc.lft.to/lastmile_qr_scan"}, "lon": -77.00980283333334, "type": "electric_scooter", "fusion_lat": 0.0, "lat": 38.91408066666666, "name": "7b7b166c9a1de0493e678f7b90656700", "fusion_lon": 0.0, "bike_id": "7b7b166c9a1de0493e678f7b90656700", "is_disabled": 0, "is_reserved": 0}, {"rental_uris": {"ios": "https://dc.lft.to/lastmile_qr_scan", "android": "https://dc.lft.to/lastmile_qr_scan"}, "lon": -76.94859933333333, "type": "electric_scooter", "fusion_lat": 0.0, "lat": 38.895922166666665, "name": "fa4a9566ee4fff4995dbdf97b80434e2", "fusion_lon": 0.0, "bike_id": "fa4a9566ee4fff4995dbdf97b80434e2", "is_disabled": 0, "is_reserved": 0}, {"rental_uris": {"ios": "https://dc.lft.to/lastmile_qr_scan", "android": "https://dc.lft.to/lastmile_qr_scan"}, "lon": -77.033098, "type": "electric_scooter", "fusion_lat": 0.0, "lat": 38.9094915, "name": "23924211adb0d8041ed3559d88c8afd9", "fusion_lon": 0.0, "bike_id": "23924211adb0d8041ed3559d88c8afd9", "is_disabled": 0, "is_reserved": 0}, {"rental_uris": {"ios": "https://dc.lft.to/lastmile_qr_scan", "android": "https://dc.lft.to/lastmile_qr_scan"}, "lon": -77.01839333333334, "type": "electric_scooter", "fusion_lat": 0.0, "lat": 38.9087345, "name": "fc03573e3d9e78dd323b349695308e78", "fusion_lon": 0.0, "bike_id": "fc03573e3d9e78dd323b349695308e78", "is_disabled": 0, "is_reserved": 0}, {"rental_uris": {"ios": "https://dc.lft.to/lastmile_qr_scan", "android": "https://dc.lft.to/lastmile_qr_scan"}, "lon": -77.0280075, "type": "electric_scooter", "fusion_lat": 0.0, "lat": 38.910602833333336, "name": "ea9b55db7c2b449e6042074da9ae57ab", "fusion_lon": 0.0, "bike_id": "ea9b55db7c2b449e6042074da9ae57ab", "is_disabled": 0, "is_reserved": 0}, {"rental_uris": {"ios": "https://dc.lft.to/lastmile_qr_scan", "android": "https://dc.lft.to/lastmile_qr_scan"}, "lon": -77.0107045, "type": "electric_scooter", "fusion_lat": 0.0, "lat": 38.87474433333333, "name": "b9fc3a064f21882f0380f1a1698a65ab", "fusion_lon": 0.0, "bike_id": "b9fc3a064f21882f0380f1a1698a65ab", "is_disabled": 0, "is_reserved": 0}, {"rental_uris": {"ios": "https://dc.lft.to/lastmile_qr_scan", "android": "https://dc.lft.to/lastmile_qr_scan"}, "lon": -76.99005633333333, "type": "electric_scooter", "fusion_lat": 0.0, "lat": 38.9038965, "name": "9e13cc724534740b489de280245ff4ec", "fusion_lon": 0.0, "bike_id": "9e13cc724534740b489de280245ff4ec", "is_disabled": 0, "is_reserved": 0}, {"rental_uris": {"ios": "https://dc.lft.to/lastmile_qr_scan", "android": "https://dc.lft.to/lastmile_qr_scan"}, "lon": -76.91653216666667, "type": "electric_bike", "fusion_lat": 0.0, "lat": 38.868593833333335, "name": "d13e44f3cae1bf97e7df22dcbcbff930", "fusion_lon": 0.0, "bike_id": "d13e44f3cae1bf97e7df22dcbcbff930", "is_disabled": 0, "is_reserved": 0}, {"rental_uris": {"ios": "https://dc.lft.to/lastmile_qr_scan", "android": "https://dc.lft.to/lastmile_qr_scan"}, "lon": -77.027815, "type": "electric_scooter", "fusion_lat": 0.0, "lat": 38.896275333333335, "name": "38cc5c4732368b95d28e629e060aa0bc", "fusion_lon": 0.0, "bike_id": "38cc5c4732368b95d28e629e060aa0bc", "is_disabled": 0, "is_reserved": 0}, {"rental_uris": {"ios": "https://dc.lft.to/lastmile_qr_scan", "android": "https://dc.lft.to/lastmile_qr_scan"}, "lon": -77.04502666666667, "type": "electric_scooter", "fusion_lat": 0.0, "lat": 38.911116666666665, "name": "85209bf761c7fccb543ef535e2f32bd7", "fusion_lon": 0.0, "bike_id": "85209bf761c7fccb543ef535e2f32bd7", "is_disabled": 0, "is_reserved": 0}, {"rental_uris": {"ios": "https://dc.lft.to/lastmile_qr_scan", "android": "https://dc.lft.to/lastmile_qr_scan"}, "lon": -77.022333, "type": "electric_scooter", "fusion_lat": 0.0, "lat": 38.891969, "name": "7d37d848b701e8990445ecce3b2d2a09", "fusion_lon": 0.0, "bike_id": "7d37d848b701e8990445ecce3b2d2a09", "is_disabled": 0, "is_reserved": 0}, {"rental_uris": {"ios": "https://dc.lft.to/lastmile_qr_scan", "android": "https://dc.lft.to/lastmile_qr_scan"}, "lon": -77.03655233333333, "type": "electric_scooter", "fusion_lat": 0.0, "lat": 38.9293575, "name": "f0d571168bc50fd0216dd0ed90e815d6", "fusion_lon": 0.0, "bike_id": "f0d571168bc50fd0216dd0ed90e815d6", "is_disabled": 0, "is_reserved": 0}, {"rental_uris": {"ios": "https://dc.lft.to/lastmile_qr_scan", "android": "https://dc.lft.to/lastmile_qr_scan"}, "lon": -77.0755895, "type": "electric_scooter", "fusion_lat": 0.0, "lat": 38.91427983333333, "name": "a7645536040bcc9d37dbcf9bdb998bda", "fusion_lon": 0.0, "bike_id": "a7645536040bcc9d37dbcf9bdb998bda", "is_disabled": 0, "is_reserved": 0}, {"rental_uris": {"ios": "https://dc.lft.to/lastmile_qr_scan", "android": "https://dc.lft.to/lastmile_qr_scan"}, "lon": -77.07330133333333, "type": "electric_scooter", "fusion_lat": 0.0, "lat": 38.924961333333336, "name": "e3daf60059aa7e596dbd71e2e088ca95", "fusion_lon": 0.0, "bike_id": "e3daf60059aa7e596dbd71e2e088ca95", "is_disabled": 0, "is_reserved": 0}, {"rental_uris": {"ios": "https://dc.lft.to/lastmile_qr_scan", "android": "https://dc.lft.to/lastmile_qr_scan"}, "lon": -77.01749066666666, "type": "electric_scooter", "fusion_lat": 0.0, "lat": 38.9158505, "name": "51582aa126ab2f85b71d0bafe358c8e6", "fusion_lon": 0.0, "bike_id": "51582aa126ab2f85b71d0bafe358c8e6", "is_disabled": 0, "is_reserved": 0}, {"rental_uris": {"ios": "https://dc.lft.to/lastmile_qr_scan", "android": "https://dc.lft.to/lastmile_qr_scan"}, "lon": -77.00733033333333, "type": "electric_scooter", "fusion_lat": 0.0, "lat": 38.8784225, "name": "42a795f1bbb38b3ef4d8823c7e8657ae", "fusion_lon": 0.0, "bike_id": "42a795f1bbb38b3ef4d8823c7e8657ae", "is_disabled": 0, "is_reserved": 0}, {"rental_uris": {"ios": "https://dc.lft.to/lastmile_qr_scan", "android": "https://dc.lft.to/lastmile_qr_scan"}, "lon": -77.0479465, "type": "electric_scooter", "fusion_lat": 0.0, "lat": 38.916360166666664, "name": "cc9d7d0d0c3add55cc6efe6568ba59ac", "fusion_lon": 0.0, "bike_id": "cc9d7d0d0c3add55cc6efe6568ba59ac", "is_disabled": 0, "is_reserved": 0}, {"rental_uris": {"ios": "https://dc.lft.to/lastmile_qr_scan", "android": "https://dc.lft.to/lastmile_qr_scan"}, "lon": -77.04475633333334, "type": "electric_scooter", "fusion_lat": 0.0, "lat": 38.91119, "name": "8ebfb3ab1a2a65a6756634fa882e3694", "fusion_lon": 0.0, "bike_id": "8ebfb3ab1a2a65a6756634fa882e3694", "is_disabled": 0, "is_reserved": 0}, {"rental_uris": {"ios": "https://dc.lft.to/lastmile_qr_scan", "android": "https://dc.lft.to/lastmile_qr_scan"}, "lon": -77.02386766666666, "type": "electric_scooter", "fusion_lat": 0.0, "lat": 38.93764083333333, "name": "9215602f5d6d1687334dda5d54100bc6", "fusion_lon": 0.0, "bike_id": "9215602f5d6d1687334dda5d54100bc6", "is_disabled": 0, "is_reserved": 0}, {"rental_uris": {"ios": "https://dc.lft.to/lastmile_qr_scan", "android": "https://dc.lft.to/lastmile_qr_scan"}, "lon": -77.05744933333334, "type": "electric_scooter", "fusion_lat": 0.0, "lat": 38.93396216666667, "name": "91a7d53a9adcb5ae9b28db26290520ce", "fusion_lon": 0.0, "bike_id": "91a7d53a9adcb5ae9b28db26290520ce", "is_disabled": 0, "is_reserved": 0}, {"rental_uris": {"ios": "https://dc.lft.to/lastmile_qr_scan", "android": "https://dc.lft.to/lastmile_qr_scan"}, "lon": -77.03217866666667, "type": "electric_scooter", "fusion_lat": 0.0, "lat": 38.91990933333334, "name": "a4efa8aded7a1aefbbd2d742d5e1f1d0", "fusion_lon": 0.0, "bike_id": "a4efa8aded7a1aefbbd2d742d5e1f1d0", "is_disabled": 0, "is_reserved": 0}, {"rental_uris": {"ios": "https://dc.lft.to/lastmile_qr_scan", "android": "https://dc.lft.to/lastmile_qr_scan"}, "lon": -77.0318325, "type": "electric_scooter", "fusion_lat": 0.0, "lat": 38.91487216666667, "name": "3db2e5c2fa313e0e35d45d3e4efbf480", "fusion_lon": 0.0, "bike_id": "3db2e5c2fa313e0e35d45d3e4efbf480", "is_disabled": 0, "is_reserved": 0}, {"rental_uris": {"ios": "https://dc.lft.to/lastmile_qr_scan", "android": "https://dc.lft.to/lastmile_qr_scan"}, "lon": -77.115228, "type": "electric_bike", "fusion_lat": 0.0, "lat": 38.854898166666665, "name": "66406aae85d698a1d4c2a071541254e8", "fusion_lon": 0.0, "bike_id": "66406aae85d698a1d4c2a071541254e8", "is_disabled": 0, "is_reserved": 0}, {"rental_uris": {"ios": "https://dc.lft.to/lastmile_qr_scan", "android": "https://dc.lft.to/lastmile_qr_scan"}, "lon": -76.98202133333334, "type": "electric_scooter", "fusion_lat": 0.0, "lat": 38.903907333333336, "name": "5bacc995b3b00d4479fc462e8a69628b", "fusion_lon": 0.0, "bike_id": "5bacc995b3b00d4479fc462e8a69628b", "is_disabled": 0, "is_reserved": 0}, {"rental_uris": {"ios": "https://dc.lft.to/lastmile_qr_scan", "android": "https://dc.lft.to/lastmile_qr_scan"}, "lon": -77.03176216666667, "type": "electric_scooter", "fusion_lat": 0.0, "lat": 38.88547966666667, "name": "23837e65eaa24d3e68d79a3d18473324", "fusion_lon": 0.0, "bike_id": "23837e65eaa24d3e68d79a3d18473324", "is_disabled": 0, "is_reserved": 0}, {"rental_uris": {"ios": "https://dc.lft.to/lastmile_qr_scan", "android": "https://dc.lft.to/lastmile_qr_scan"}, "lon": -76.99257283333333, "type": "electric_scooter", "fusion_lat": 0.0, "lat": 38.91966083333333, "name": "7c553f85e176a23161d50496e980dc0e", "fusion_lon": 0.0, "bike_id": "7c553f85e176a23161d50496e980dc0e", "is_disabled": 0, "is_reserved": 0}, {"rental_uris": {"ios": "https://dc.lft.to/lastmile_qr_scan", "android": "https://dc.lft.to/lastmile_qr_scan"}, "lon": -77.037809, "type": "electric_scooter", "fusion_lat": 0.0, "lat": 38.90558516666667, "name": "c806384450b000ba466bc7838c2549a7", "fusion_lon": 0.0, "bike_id": "c806384450b000ba466bc7838c2549a7", "is_disabled": 0, "is_reserved": 0}, {"rental_uris": {"ios": "https://dc.lft.to/lastmile_qr_scan", "android": "https://dc.lft.to/lastmile_qr_scan"}, "lon": -77.12902366666667, "type": "electric_bike", "fusion_lat": 0.0, "lat": 38.863776333333334, "name": "e00fabdfd7bdbb3048176c88ea3ff0e7", "fusion_lon": 0.0, "bike_id": "e00fabdfd7bdbb3048176c88ea3ff0e7", "is_disabled": 0, "is_reserved": 0}, {"rental_uris": {"ios": "https://dc.lft.to/lastmile_qr_scan", "android": "https://dc.lft.to/lastmile_qr_scan"}, "lon": -77.05292833333333, "type": "electric_scooter", "fusion_lat": 0.0, "lat": 38.927840333333336, "name": "1b3d01f26507e44a4ab9bf5bd3300339", "fusion_lon": 0.0, "bike_id": "1b3d01f26507e44a4ab9bf5bd3300339", "is_disabled": 0, "is_reserved": 0}, {"rental_uris": {"ios": "https://dc.lft.to/lastmile_qr_scan", "android": "https://dc.lft.to/lastmile_qr_scan"}, "lon": -77.0322295, "type": "electric_scooter", "fusion_lat": 0.0, "lat": 38.926699, "name": "0f599fd7e3e846ba41886f1a1299c762", "fusion_lon": 0.0, "bike_id": "0f599fd7e3e846ba41886f1a1299c762", "is_disabled": 0, "is_reserved": 0}, {"rental_uris": {"ios": "https://dc.lft.to/lastmile_qr_scan", "android": "https://dc.lft.to/lastmile_qr_scan"}, "lon": -77.03267133333334, "type": "electric_scooter", "fusion_lat": 0.0, "lat": 38.9323315, "name": "10f1b71bdf4aef1c6db53dc9cee1897b", "fusion_lon": 0.0, "bike_id": "10f1b71bdf4aef1c6db53dc9cee1897b", "is_disabled": 0, "is_reserved": 0}, {"rental_uris": {"ios": "https://dc.lft.to/lastmile_qr_scan", "android": "https://dc.lft.to/lastmile_qr_scan"}, "lon": -77.04878033333334, "type": "electric_scooter", "fusion_lat": 0.0, "lat": 38.903029333333336, "name": "42caecdcd8edfff47ce6c0e1f1be16c7", "fusion_lon": 0.0, "bike_id": "42caecdcd8edfff47ce6c0e1f1be16c7", "is_disabled": 0, "is_reserved": 0}, {"rental_uris": {"ios": "https://dc.lft.to/lastmile_qr_scan", "android": "https://dc.lft.to/lastmile_qr_scan"}, "lon": -77.03553716666667, "type": "electric_bike", "fusion_lat": 0.0, "lat": 38.931811, "name": "4576f385ff742ff43da3020e2270deea", "fusion_lon": 0.0, "bike_id": "4576f385ff742ff43da3020e2270deea", "is_disabled": 0, "is_reserved": 0}, {"rental_uris": {"ios": "https://dc.lft.to/lastmile_qr_scan", "android": "https://dc.lft.to/lastmile_qr_scan"}, "lon": -76.98958583333334, "type": "electric_scooter", "fusion_lat": 0.0, "lat": 38.900283333333334, "name": "604dda0598ede528a41d7ba510eee428", "fusion_lon": 0.0, "bike_id": "604dda0598ede528a41d7ba510eee428", "is_disabled": 0, "is_reserved": 0}, {"rental_uris": {"ios": "https://dc.lft.to/lastmile_qr_scan", "android": "https://dc.lft.to/lastmile_qr_scan"}, "lon": -76.97203666666667, "type": "electric_scooter", "fusion_lat": 0.0, "lat": 38.91769033333333, "name": "a970d701a3dc7ad8e174031702cd068a", "fusion_lon": 0.0, "bike_id": "a970d701a3dc7ad8e174031702cd068a", "is_disabled": 0, "is_reserved": 0}, {"rental_uris": {"ios": "https://dc.lft.to/lastmile_qr_scan", "android": "https://dc.lft.to/lastmile_qr_scan"}, "lon": -77.03472866666667, "type": "electric_scooter", "fusion_lat": 0.0, "lat": 38.917121333333334, "name": "207e14368e8a29f3ef4d2e617168100b", "fusion_lon": 0.0, "bike_id": "207e14368e8a29f3ef4d2e617168100b", "is_disabled": 0, "is_reserved": 0}, {"rental_uris": {"ios": "https://dc.lft.to/lastmile_qr_scan", "android": "https://dc.lft.to/lastmile_qr_scan"}, "lon": -77.03904333333334, "type": "electric_scooter", "fusion_lat": 0.0, "lat": 38.89905666666667, "name": "0f1f3943ed12d4475a450e360e130935", "fusion_lon": 0.0, "bike_id": "0f1f3943ed12d4475a450e360e130935", "is_disabled": 0, "is_reserved": 0}, {"rental_uris": {"ios": "https://dc.lft.to/lastmile_qr_scan", "android": "https://dc.lft.to/lastmile_qr_scan"}, "lon": -77.03197133333333, "type": "electric_scooter", "fusion_lat": 0.0, "lat": 38.907513, "name": "f246a540a238b17ff91ca880cdcc268b", "fusion_lon": 0.0, "bike_id": "f246a540a238b17ff91ca880cdcc268b", "is_disabled": 0, "is_reserved": 0}, {"rental_uris": {"ios": "https://dc.lft.to/lastmile_qr_scan", "android": "https://dc.lft.to/lastmile_qr_scan"}, "lon": -77.02396166666666, "type": "electric_scooter", "fusion_lat": 0.0, "lat": 38.917204, "name": "b289b5ee22673a365b241e94db566a66", "fusion_lon": 0.0, "bike_id": "b289b5ee22673a365b241e94db566a66", "is_disabled": 0, "is_reserved": 0}, {"rental_uris": {"ios": "https://dc.lft.to/lastmile_qr_scan", "android": "https://dc.lft.to/lastmile_qr_scan"}, "lon": -77.02840933333333, "type": "electric_scooter", "fusion_lat": 0.0, "lat": 38.887338666666665, "name": "db6a18e27df1e0b256e9bbc111ad8eda", "fusion_lon": 0.0, "bike_id": "db6a18e27df1e0b256e9bbc111ad8eda", "is_disabled": 0, "is_reserved": 0}, {"rental_uris": {"ios": "https://dc.lft.to/lastmile_qr_scan", "android": "https://dc.lft.to/lastmile_qr_scan"}, "lon": -77.02660116666667, "type": "electric_scooter", "fusion_lat": 0.0, "lat": 38.896076666666666, "name": "3adae4e6492aed2192d12e0e1fdae358", "fusion_lon": 0.0, "bike_id": "3adae4e6492aed2192d12e0e1fdae358", "is_disabled": 0, "is_reserved": 0}, {"rental_uris": {"ios": "https://dc.lft.to/lastmile_qr_scan", "android": "https://dc.lft.to/lastmile_qr_scan"}, "lon": -77.03849016666666, "type": "electric_scooter", "fusion_lat": 0.0, "lat": 38.926510666666665, "name": "d039455f1ab7b6e5e1b0b415cbbb71cf", "fusion_lon": 0.0, "bike_id": "d039455f1ab7b6e5e1b0b415cbbb71cf", "is_disabled": 0, "is_reserved": 0}, {"rental_uris": {"ios": "https://dc.lft.to/lastmile_qr_scan", "android": "https://dc.lft.to/lastmile_qr_scan"}, "lon": -77.04692716666666, "type": "electric_scooter", "fusion_lat": 0.0, "lat": 38.90377983333333, "name": "798cb3845a4a6696d9166f8837e75731", "fusion_lon": 0.0, "bike_id": "798cb3845a4a6696d9166f8837e75731", "is_disabled": 0, "is_reserved": 0}, {"rental_uris": {"ios": "https://dc.lft.to/lastmile_qr_scan", "android": "https://dc.lft.to/lastmile_qr_scan"}, "lon": -77.04488833333333, "type": "electric_scooter", "fusion_lat": 0.0, "lat": 38.91868766666666, "name": "abb073e6b938572b2214cbc332bdffe8", "fusion_lon": 0.0, "bike_id": "abb073e6b938572b2214cbc332bdffe8", "is_disabled": 0, "is_reserved": 0}, {"rental_uris": {"ios": "https://dc.lft.to/lastmile_qr_scan", "android": "https://dc.lft.to/lastmile_qr_scan"}, "lon": -76.9988265, "type": "electric_scooter", "fusion_lat": 0.0, "lat": 38.907547, "name": "103b322600dce67a65cd0f2fb16bc5f0", "fusion_lon": 0.0, "bike_id": "103b322600dce67a65cd0f2fb16bc5f0", "is_disabled": 0, "is_reserved": 0}, {"rental_uris": {"ios": "https://dc.lft.to/lastmile_qr_scan", "android": "https://dc.lft.to/lastmile_qr_scan"}, "lon": -77.01504983333334, "type": "electric_scooter", "fusion_lat": 0.0, "lat": 38.90142066666667, "name": "3e933bf91118dd28e34d86d050e142e3", "fusion_lon": 0.0, "bike_id": "3e933bf91118dd28e34d86d050e142e3", "is_disabled": 0, "is_reserved": 0}, {"rental_uris": {"ios": "https://dc.lft.to/lastmile_qr_scan", "android": "https://dc.lft.to/lastmile_qr_scan"}, "lon": -76.97218933333333, "type": "electric_scooter", "fusion_lat": 0.0, "lat": 38.854959666666666, "name": "eae59c126636821914726b6e010cbfc8", "fusion_lon": 0.0, "bike_id": "eae59c126636821914726b6e010cbfc8", "is_disabled": 0, "is_reserved": 0}, {"rental_uris": {"ios": "https://dc.lft.to/lastmile_qr_scan", "android": "https://dc.lft.to/lastmile_qr_scan"}, "lon": -77.04329533333333, "type": "electric_scooter", "fusion_lat": 0.0, "lat": 38.89586216666667, "name": "45eb274b293e6b6838dfcbc23bad0254", "fusion_lon": 0.0, "bike_id": "45eb274b293e6b6838dfcbc23bad0254", "is_disabled": 0, "is_reserved": 0}, {"rental_uris": {"ios": "https://dc.lft.to/lastmile_qr_scan", "android": "https://dc.lft.to/lastmile_qr_scan"}, "lon": -76.94627566666666, "type": "electric_bike", "fusion_lat": 0.0, "lat": 38.946226333333335, "name": "8d414ff65b2bcc0e7d9077514cbb7cf7", "fusion_lon": 0.0, "bike_id": "8d414ff65b2bcc0e7d9077514cbb7cf7", "is_disabled": 0, "is_reserved": 0}, {"rental_uris": {"ios": "https://dc.lft.to/lastmile_qr_scan", "android": "https://dc.lft.to/lastmile_qr_scan"}, "lon": -76.97745833333333, "type": "electric_scooter", "fusion_lat": 0.0, "lat": 38.900096833333336, "name": "a602e3fd0b827539c970b89fe1010009", "fusion_lon": 0.0, "bike_id": "a602e3fd0b827539c970b89fe1010009", "is_disabled": 0, "is_reserved": 0}, {"rental_uris": {"ios": "https://dc.lft.to/lastmile_qr_scan", "android": "https://dc.lft.to/lastmile_qr_scan"}, "lon": -76.8782385, "type": "electric_bike", "fusion_lat": 0.0, "lat": 38.992277, "name": "962a04424d374db499d45b1060dca2b0", "fusion_lon": 0.0, "bike_id": "962a04424d374db499d45b1060dca2b0", "is_disabled": 0, "is_reserved": 0}, {"rental_uris": {"ios": "https://dc.lft.to/lastmile_qr_scan", "android": "https://dc.lft.to/lastmile_qr_scan"}, "lon": -76.97615966666666, "type": "electric_scooter", "fusion_lat": 0.0, "lat": 38.903828, "name": "80d50d55d6300efee221e716c4b8052d", "fusion_lon": 0.0, "bike_id": "80d50d55d6300efee221e716c4b8052d", "is_disabled": 0, "is_reserved": 0}, {"rental_uris": {"ios": "https://dc.lft.to/lastmile_qr_scan", "android": "https://dc.lft.to/lastmile_qr_scan"}, "lon": -77.00298416666666, "type": "electric_bike", "fusion_lat": 0.0, "lat": 38.916165, "name": "9473d4e7136c3f1a012a29c0954625ba", "fusion_lon": 0.0, "bike_id": "9473d4e7136c3f1a012a29c0954625ba", "is_disabled": 0, "is_reserved": 0}, {"rental_uris": {"ios": "https://dc.lft.to/lastmile_qr_scan", "android": "https://dc.lft.to/lastmile_qr_scan"}, "lon": -77.03236133333333, "type": "electric_scooter", "fusion_lat": 0.0, "lat": 38.9288285, "name": "3da3f9e34942af2a285f238f8c73d21c", "fusion_lon": 0.0, "bike_id": "3da3f9e34942af2a285f238f8c73d21c", "is_disabled": 0, "is_reserved": 0}, {"rental_uris": {"ios": "https://dc.lft.to/lastmile_qr_scan", "android": "https://dc.lft.to/lastmile_qr_scan"}, "lon": -77.0288425, "type": "electric_scooter", "fusion_lat": 0.0, "lat": 38.904233833333336, "name": "43468a4315d1f2aaaa4c436d3dc71e02", "fusion_lon": 0.0, "bike_id": "43468a4315d1f2aaaa4c436d3dc71e02", "is_disabled": 0, "is_reserved": 0}, {"rental_uris": {"ios": "https://dc.lft.to/lastmile_qr_scan", "android": "https://dc.lft.to/lastmile_qr_scan"}, "lon": -77.0275335, "type": "electric_scooter", "fusion_lat": 0.0, "lat": 38.8999205, "name": "bce1b9d157beab2b9ba59853d033e86a", "fusion_lon": 0.0, "bike_id": "bce1b9d157beab2b9ba59853d033e86a", "is_disabled": 0, "is_reserved": 0}, {"rental_uris": {"ios": "https://dc.lft.to/lastmile_qr_scan", "android": "https://dc.lft.to/lastmile_qr_scan"}, "lon": -76.94661316666667, "type": "electric_scooter", "fusion_lat": 0.0, "lat": 38.903399666666665, "name": "59af137b62dd36ee1a1d6aee8c3e6e9c", "fusion_lon": 0.0, "bike_id": "59af137b62dd36ee1a1d6aee8c3e6e9c", "is_disabled": 0, "is_reserved": 0}, {"rental_uris": {"ios": "https://dc.lft.to/lastmile_qr_scan", "android": "https://dc.lft.to/lastmile_qr_scan"}, "lon": -76.9952155, "type": "electric_scooter", "fusion_lat": 0.0, "lat": 38.894830166666665, "name": "ebb825cf62b658e6fafba487d305f992", "fusion_lon": 0.0, "bike_id": "ebb825cf62b658e6fafba487d305f992", "is_disabled": 0, "is_reserved": 0}, {"rental_uris": {"ios": "https://dc.lft.to/lastmile_qr_scan", "android": "https://dc.lft.to/lastmile_qr_scan"}, "lon": -76.9935995, "type": "electric_scooter", "fusion_lat": 0.0, "lat": 38.900363666666664, "name": "ad73cecd76f1c58464b34c8b9ed62b0c", "fusion_lon": 0.0, "bike_id": "ad73cecd76f1c58464b34c8b9ed62b0c", "is_disabled": 0, "is_reserved": 0}, {"rental_uris": {"ios": "https://dc.lft.to/lastmile_qr_scan", "android": "https://dc.lft.to/lastmile_qr_scan"}, "lon": -77.03213166666667, "type": "electric_scooter", "fusion_lat": 0.0, "lat": 38.93380483333333, "name": "a84e974299f7bec295814f4f04736134", "fusion_lon": 0.0, "bike_id": "a84e974299f7bec295814f4f04736134", "is_disabled": 0, "is_reserved": 0}, {"rental_uris": {"ios": "https://dc.lft.to/lastmile_qr_scan", "android": "https://dc.lft.to/lastmile_qr_scan"}, "lon": -76.9722115, "type": "electric_bike", "fusion_lat": 0.0, "lat": 38.844790833333334, "name": "55587b339c8849cc1b840d997441e0dd", "fusion_lon": 0.0, "bike_id": "55587b339c8849cc1b840d997441e0dd", "is_disabled": 0, "is_reserved": 0}, {"rental_uris": {"ios": "https://dc.lft.to/lastmile_qr_scan", "android": "https://dc.lft.to/lastmile_qr_scan"}, "lon": -77.03177683333334, "type": "electric_scooter", "fusion_lat": 0.0, "lat": 38.909823833333334, "name": "5ef76212f60b7557d03c3b5618c4e888", "fusion_lon": 0.0, "bike_id": "5ef76212f60b7557d03c3b5618c4e888", "is_disabled": 0, "is_reserved": 0}, {"rental_uris": {"ios": "https://dc.lft.to/lastmile_qr_scan", "android": "https://dc.lft.to/lastmile_qr_scan"}, "lon": -77.01119716666666, "type": "electric_scooter", "fusion_lat": 0.0, "lat": 38.912634, "name": "ebd0b01cc010d1c5148189f82630894d", "fusion_lon": 0.0, "bike_id": "ebd0b01cc010d1c5148189f82630894d", "is_disabled": 0, "is_reserved": 0}, {"rental_uris": {"ios": "https://dc.lft.to/lastmile_qr_scan", "android": "https://dc.lft.to/lastmile_qr_scan"}, "lon": -76.9443915, "type": "electric_bike", "fusion_lat": 0.0, "lat": 38.902959, "name": "70523593cd083c87c44292cf555f2dd7", "fusion_lon": 0.0, "bike_id": "70523593cd083c87c44292cf555f2dd7", "is_disabled": 0, "is_reserved": 0}, {"rental_uris": {"ios": "https://dc.lft.to/lastmile_qr_scan", "android": "https://dc.lft.to/lastmile_qr_scan"}, "lon": -77.0419125, "type": "electric_scooter", "fusion_lat": 0.0, "lat": 38.92047633333333, "name": "b22716410d156476f9ca18ca0129d95d", "fusion_lon": 0.0, "bike_id": "b22716410d156476f9ca18ca0129d95d", "is_disabled": 0, "is_reserved": 0}, {"rental_uris": {"ios": "https://dc.lft.to/lastmile_qr_scan", "android": "https://dc.lft.to/lastmile_qr_scan"}, "lon": -76.95189783333333, "type": "electric_bike", "fusion_lat": 0.0, "lat": 38.906837333333335, "name": "d67aaaf5713994576abcb9d300bba4fa", "fusion_lon": 0.0, "bike_id": "d67aaaf5713994576abcb9d300bba4fa", "is_disabled": 0, "is_reserved": 0}, {"rental_uris": {"ios": "https://dc.lft.to/lastmile_qr_scan", "android": "https://dc.lft.to/lastmile_qr_scan"}, "lon": -76.9590595, "type": "electric_scooter", "fusion_lat": 0.0, "lat": 38.92690616666667, "name": "6c5b100ed445839a65251e26a7fdbe2d", "fusion_lon": 0.0, "bike_id": "6c5b100ed445839a65251e26a7fdbe2d", "is_disabled": 0, "is_reserved": 0}, {"rental_uris": {"ios": "https://dc.lft.to/lastmile_qr_scan", "android": "https://dc.lft.to/lastmile_qr_scan"}, "lon": -77.01378616666666, "type": "electric_scooter", "fusion_lat": 0.0, "lat": 38.88653516666667, "name": "fe9a362e0569b61376903577326b1f38", "fusion_lon": 0.0, "bike_id": "fe9a362e0569b61376903577326b1f38", "is_disabled": 0, "is_reserved": 0}, {"rental_uris": {"ios": "https://dc.lft.to/lastmile_qr_scan", "android": "https://dc.lft.to/lastmile_qr_scan"}, "lon": -77.02384316666667, "type": "electric_scooter", "fusion_lat": 0.0, "lat": 38.93607766666667, "name": "9aa27e742888455ca7f35bbf6051c4b5", "fusion_lon": 0.0, "bike_id": "9aa27e742888455ca7f35bbf6051c4b5", "is_disabled": 0, "is_reserved": 0}, {"rental_uris": {"ios": "https://dc.lft.to/lastmile_qr_scan", "android": "https://dc.lft.to/lastmile_qr_scan"}, "lon": -77.04287516666666, "type": "electric_scooter", "fusion_lat": 0.0, "lat": 38.89530083333333, "name": "dd4ca5444a026c3710d7d5132d22ded8", "fusion_lon": 0.0, "bike_id": "dd4ca5444a026c3710d7d5132d22ded8", "is_disabled": 0, "is_reserved": 0}, {"rental_uris": {"ios": "https://dc.lft.to/lastmile_qr_scan", "android": "https://dc.lft.to/lastmile_qr_scan"}, "lon": -77.05259166666667, "type": "electric_scooter", "fusion_lat": 0.0, "lat": 38.93433066666667, "name": "8b22083733b6cb968a50291a2d09a36a", "fusion_lon": 0.0, "bike_id": "8b22083733b6cb968a50291a2d09a36a", "is_disabled": 0, "is_reserved": 0}, {"rental_uris": {"ios": "https://dc.lft.to/lastmile_qr_scan", "android": "https://dc.lft.to/lastmile_qr_scan"}, "lon": -77.038528, "type": "electric_scooter", "fusion_lat": 0.0, "lat": 38.9093175, "name": "7b903a44dcd2f7e6fe2f020155fd452d", "fusion_lon": 0.0, "bike_id": "7b903a44dcd2f7e6fe2f020155fd452d", "is_disabled": 0, "is_reserved": 0}, {"rental_uris": {"ios": "https://dc.lft.to/lastmile_qr_scan", "android": "https://dc.lft.to/lastmile_qr_scan"}, "lon": -77.028608, "type": "electric_scooter", "fusion_lat": 0.0, "lat": 38.9086505, "name": "49081d504cb6024153d8b92b1a3fc101", "fusion_lon": 0.0, "bike_id": "49081d504cb6024153d8b92b1a3fc101", "is_disabled": 0, "is_reserved": 0}, {"rental_uris": {"ios": "https://dc.lft.to/lastmile_qr_scan", "android": "https://dc.lft.to/lastmile_qr_scan"}, "lon": -77.00195333333333, "type": "electric_scooter", "fusion_lat": 0.0, "lat": 38.9003605, "name": "f9fc153b66ab2af4b60044aa5b9b17d4", "fusion_lon": 0.0, "bike_id": "f9fc153b66ab2af4b60044aa5b9b17d4", "is_disabled": 0, "is_reserved": 0}, {"rental_uris": {"ios": "https://dc.lft.to/lastmile_qr_scan", "android": "https://dc.lft.to/lastmile_qr_scan"}, "lon": -77.03284216666667, "type": "electric_scooter", "fusion_lat": 0.0, "lat": 38.938802833333334, "name": "bf6fa195825bb4708c644b5c7fed6f1a", "fusion_lon": 0.0, "bike_id": "bf6fa195825bb4708c644b5c7fed6f1a", "is_disabled": 0, "is_reserved": 0}, {"rental_uris": {"ios": "https://dc.lft.to/lastmile_qr_scan", "android": "https://dc.lft.to/lastmile_qr_scan"}, "lon": -76.9317915, "type": "electric_scooter", "fusion_lat": 0.0, "lat": 38.898796, "name": "e544fc0234009c1256c19ee629637ba0", "fusion_lon": 0.0, "bike_id": "e544fc0234009c1256c19ee629637ba0", "is_disabled": 0, "is_reserved": 0}, {"rental_uris": {"ios": "https://dc.lft.to/lastmile_qr_scan", "android": "https://dc.lft.to/lastmile_qr_scan"}, "lon": -77.03670866666667, "type": "electric_scooter", "fusion_lat": 0.0, "lat": 38.918706, "name": "8884b5dd825a41324404aef9ac129148", "fusion_lon": 0.0, "bike_id": "8884b5dd825a41324404aef9ac129148", "is_disabled": 0, "is_reserved": 0}, {"rental_uris": {"ios": "https://dc.lft.to/lastmile_qr_scan", "android": "https://dc.lft.to/lastmile_qr_scan"}, "lon": -77.04874366666667, "type": "electric_scooter", "fusion_lat": 0.0, "lat": 38.90590366666667, "name": "ebe157aeef5a854a2c3d24ff11504d1e", "fusion_lon": 0.0, "bike_id": "ebe157aeef5a854a2c3d24ff11504d1e", "is_disabled": 0, "is_reserved": 0}, {"rental_uris": {"ios": "https://dc.lft.to/lastmile_qr_scan", "android": "https://dc.lft.to/lastmile_qr_scan"}, "lon": -77.011139, "type": "electric_scooter", "fusion_lat": 0.0, "lat": 38.90356416666667, "name": "0ec46815f1dc74df7dac55afc583dcf5", "fusion_lon": 0.0, "bike_id": "0ec46815f1dc74df7dac55afc583dcf5", "is_disabled": 0, "is_reserved": 0}, {"rental_uris": {"ios": "https://dc.lft.to/lastmile_qr_scan", "android": "https://dc.lft.to/lastmile_qr_scan"}, "lon": -77.0442605, "type": "electric_scooter", "fusion_lat": 0.0, "lat": 38.91306266666667, "name": "6ec2c7a4907e633f4500f0a943d8aa80", "fusion_lon": 0.0, "bike_id": "6ec2c7a4907e633f4500f0a943d8aa80", "is_disabled": 0, "is_reserved": 0}, {"rental_uris": {"ios": "https://dc.lft.to/lastmile_qr_scan", "android": "https://dc.lft.to/lastmile_qr_scan"}, "lon": -76.98000566666667, "type": "electric_bike", "fusion_lat": 0.0, "lat": 38.900203166666664, "name": "4d074917eb84350ef7d9ec1ca56bf0df", "fusion_lon": 0.0, "bike_id": "4d074917eb84350ef7d9ec1ca56bf0df", "is_disabled": 0, "is_reserved": 0}, {"rental_uris": {"ios": "https://dc.lft.to/lastmile_qr_scan", "android": "https://dc.lft.to/lastmile_qr_scan"}, "lon": -77.013188, "type": "electric_scooter", "fusion_lat": 0.0, "lat": 38.89736633333333, "name": "5cf382185b50bc73ae86a18c167d0afc", "fusion_lon": 0.0, "bike_id": "5cf382185b50bc73ae86a18c167d0afc", "is_disabled": 0, "is_reserved": 0}, {"rental_uris": {"ios": "https://dc.lft.to/lastmile_qr_scan", "android": "https://dc.lft.to/lastmile_qr_scan"}, "lon": -77.01435683333334, "type": "electric_scooter", "fusion_lat": 0.0, "lat": 38.929888, "name": "6c626e7851a4b4206596229f53c4c46d", "fusion_lon": 0.0, "bike_id": "6c626e7851a4b4206596229f53c4c46d", "is_disabled": 0, "is_reserved": 0}, {"rental_uris": {"ios": "https://dc.lft.to/lastmile_qr_scan", "android": "https://dc.lft.to/lastmile_qr_scan"}, "lon": -77.03235466666666, "type": "electric_scooter", "fusion_lat": 0.0, "lat": 38.92760233333333, "name": "094dcbdd9ff00f94e1812a28333ac1c1", "fusion_lon": 0.0, "bike_id": "094dcbdd9ff00f94e1812a28333ac1c1", "is_disabled": 0, "is_reserved": 0}, {"rental_uris": {"ios": "https://dc.lft.to/lastmile_qr_scan", "android": "https://dc.lft.to/lastmile_qr_scan"}, "lon": -77.00198, "type": "electric_scooter", "fusion_lat": 0.0, "lat": 38.899820166666665, "name": "5b4b1c415e6c7472c0665fd187d39b23", "fusion_lon": 0.0, "bike_id": "5b4b1c415e6c7472c0665fd187d39b23", "is_disabled": 0, "is_reserved": 0}, {"rental_uris": {"ios": "https://dc.lft.to/lastmile_qr_scan", "android": "https://dc.lft.to/lastmile_qr_scan"}, "lon": -77.03187933333334, "type": "electric_scooter", "fusion_lat": 0.0, "lat": 38.9167725, "name": "484f09f6db5a2b0290c72be0ef1f4ef6", "fusion_lon": 0.0, "bike_id": "484f09f6db5a2b0290c72be0ef1f4ef6", "is_disabled": 0, "is_reserved": 0}, {"rental_uris": {"ios": "https://dc.lft.to/lastmile_qr_scan", "android": "https://dc.lft.to/lastmile_qr_scan"}, "lon": -77.04269966666666, "type": "electric_scooter", "fusion_lat": 0.0, "lat": 38.905626833333336, "name": "e97b61067c98c77d238fb423d71b7bef", "fusion_lon": 0.0, "bike_id": "e97b61067c98c77d238fb423d71b7bef", "is_disabled": 0, "is_reserved": 0}, {"rental_uris": {"ios": "https://dc.lft.to/lastmile_qr_scan", "android": "https://dc.lft.to/lastmile_qr_scan"}, "lon": -77.02797183333334, "type": "electric_scooter", "fusion_lat": 0.0, "lat": 38.896163666666666, "name": "45b9cb98ab9fe3959ced268787ace12f", "fusion_lon": 0.0, "bike_id": "45b9cb98ab9fe3959ced268787ace12f", "is_disabled": 0, "is_reserved": 0}, {"rental_uris": {"ios": "https://dc.lft.to/lastmile_qr_scan", "android": "https://dc.lft.to/lastmile_qr_scan"}, "lon": -76.989068, "type": "electric_scooter", "fusion_lat": 0.0, "lat": 38.866916333333336, "name": "6512240bf19432bbdbf530ffe7ec13d8", "fusion_lon": 0.0, "bike_id": "6512240bf19432bbdbf530ffe7ec13d8", "is_disabled": 0, "is_reserved": 0}, {"rental_uris": {"ios": "https://dc.lft.to/lastmile_qr_scan", "android": "https://dc.lft.to/lastmile_qr_scan"}, "lon": -77.04775166666667, "type": "electric_bike", "fusion_lat": 0.0, "lat": 39.053140166666665, "name": "2d1919a71ec2c92f417b9e71ed220b43", "fusion_lon": 0.0, "bike_id": "2d1919a71ec2c92f417b9e71ed220b43", "is_disabled": 0, "is_reserved": 0}, {"rental_uris": {"ios": "https://dc.lft.to/lastmile_qr_scan", "android": "https://dc.lft.to/lastmile_qr_scan"}, "lon": -76.9871315, "type": "electric_scooter", "fusion_lat": 0.0, "lat": 38.86700283333333, "name": "2f01451707103074c9ea849735609e55", "fusion_lon": 0.0, "bike_id": "2f01451707103074c9ea849735609e55", "is_disabled": 0, "is_reserved": 0}, {"rental_uris": {"ios": "https://dc.lft.to/lastmile_qr_scan", "android": "https://dc.lft.to/lastmile_qr_scan"}, "lon": -76.95356266666667, "type": "electric_bike", "fusion_lat": 0.0, "lat": 38.93951333333333, "name": "ffe26e8b5d163a42bb8bd534bc09c6b4", "fusion_lon": 0.0, "bike_id": "ffe26e8b5d163a42bb8bd534bc09c6b4", "is_disabled": 0, "is_reserved": 0}, {"rental_uris": {"ios": "https://dc.lft.to/lastmile_qr_scan", "android": "https://dc.lft.to/lastmile_qr_scan"}, "lon": -77.00126833333333, "type": "electric_scooter", "fusion_lat": 0.0, "lat": 38.8779815, "name": "1683d6e5e9fead1a13604d0b0231de0c", "fusion_lon": 0.0, "bike_id": "1683d6e5e9fead1a13604d0b0231de0c", "is_disabled": 0, "is_reserved": 0}, {"rental_uris": {"ios": "https://dc.lft.to/lastmile_qr_scan", "android": "https://dc.lft.to/lastmile_qr_scan"}, "lon": -77.03294266666667, "type": "electric_scooter", "fusion_lat": 0.0, "lat": 38.928468333333335, "name": "350d51ccce0093dd9d40884ab77f7fd1", "fusion_lon": 0.0, "bike_id": "350d51ccce0093dd9d40884ab77f7fd1", "is_disabled": 0, "is_reserved": 0}, {"rental_uris": {"ios": "https://dc.lft.to/lastmile_qr_scan", "android": "https://dc.lft.to/lastmile_qr_scan"}, "lon": -77.17839733333334, "type": "electric_bike", "fusion_lat": 0.0, "lat": 39.088528333333336, "name": "e8690984fd41fa237787ca9915a02d1b", "fusion_lon": 0.0, "bike_id": "e8690984fd41fa237787ca9915a02d1b", "is_disabled": 0, "is_reserved": 0}, {"rental_uris": {"ios": "https://dc.lft.to/lastmile_qr_scan", "android": "https://dc.lft.to/lastmile_qr_scan"}, "lon": -77.05698333333333, "type": "electric_scooter", "fusion_lat": 0.0, "lat": 38.905417166666666, "name": "c3104daf4eabd90b1fc04c05e2b185f0", "fusion_lon": 0.0, "bike_id": "c3104daf4eabd90b1fc04c05e2b185f0", "is_disabled": 0, "is_reserved": 0}, {"rental_uris": {"ios": "https://dc.lft.to/lastmile_qr_scan", "android": "https://dc.lft.to/lastmile_qr_scan"}, "lon": -77.04445166666666, "type": "electric_scooter", "fusion_lat": 0.0, "lat": 38.911005333333335, "name": "b14626deeab50032e5688c6c5e063219", "fusion_lon": 0.0, "bike_id": "b14626deeab50032e5688c6c5e063219", "is_disabled": 0, "is_reserved": 0}, {"rental_uris": {"ios": "https://dc.lft.to/lastmile_qr_scan", "android": "https://dc.lft.to/lastmile_qr_scan"}, "lon": -77.0220795, "type": "electric_scooter", "fusion_lat": 0.0, "lat": 38.90542683333334, "name": "ca182ec0e91b38702ebd5088d4c7d25a", "fusion_lon": 0.0, "bike_id": "ca182ec0e91b38702ebd5088d4c7d25a", "is_disabled": 0, "is_reserved": 0}, {"rental_uris": {"ios": "https://dc.lft.to/lastmile_qr_scan", "android": "https://dc.lft.to/lastmile_qr_scan"}, "lon": -77.03129866666667, "type": "electric_scooter", "fusion_lat": 0.0, "lat": 38.92368966666667, "name": "e43a34bf15ccc6d507468d1e435529ec", "fusion_lon": 0.0, "bike_id": "e43a34bf15ccc6d507468d1e435529ec", "is_disabled": 0, "is_reserved": 0}, {"rental_uris": {"ios": "https://dc.lft.to/lastmile_qr_scan", "android": "https://dc.lft.to/lastmile_qr_scan"}, "lon": -76.9937855, "type": "electric_scooter", "fusion_lat": 0.0, "lat": 38.887455333333335, "name": "db071a2c27e17b9b2a0cebeb7310b89b", "fusion_lon": 0.0, "bike_id": "db071a2c27e17b9b2a0cebeb7310b89b", "is_disabled": 0, "is_reserved": 0}, {"rental_uris": {"ios": "https://dc.lft.to/lastmile_qr_scan", "android": "https://dc.lft.to/lastmile_qr_scan"}, "lon": -77.03226333333333, "type": "electric_scooter", "fusion_lat": 0.0, "lat": 38.926665166666666, "name": "ebb1c80d4d3354f17f57e46249c8a04b", "fusion_lon": 0.0, "bike_id": "ebb1c80d4d3354f17f57e46249c8a04b", "is_disabled": 0, "is_reserved": 0}, {"rental_uris": {"ios": "https://dc.lft.to/lastmile_qr_scan", "android": "https://dc.lft.to/lastmile_qr_scan"}, "lon": -77.04145916666667, "type": "electric_scooter", "fusion_lat": 0.0, "lat": 38.9229355, "name": "10e07f41b090b9b6ce27dee56810c6f3", "fusion_lon": 0.0, "bike_id": "10e07f41b090b9b6ce27dee56810c6f3", "is_disabled": 0, "is_reserved": 0}, {"rental_uris": {"ios": "https://dc.lft.to/lastmile_qr_scan", "android": "https://dc.lft.to/lastmile_qr_scan"}, "lon": -76.94418466666667, "type": "electric_scooter", "fusion_lat": 0.0, "lat": 38.897944833333334, "name": "73ac0b221bac0c950561797a250b59a3", "fusion_lon": 0.0, "bike_id": "73ac0b221bac0c950561797a250b59a3", "is_disabled": 0, "is_reserved": 0}, {"rental_uris": {"ios": "https://dc.lft.to/lastmile_qr_scan", "android": "https://dc.lft.to/lastmile_qr_scan"}, "lon": -77.06497183333333, "type": "electric_bike", "fusion_lat": 0.0, "lat": 38.96495683333333, "name": "5c0d7fd84622e76b5edb116610133972", "fusion_lon": 0.0, "bike_id": "5c0d7fd84622e76b5edb116610133972", "is_disabled": 0, "is_reserved": 0}, {"rental_uris": {"ios": "https://dc.lft.to/lastmile_qr_scan", "android": "https://dc.lft.to/lastmile_qr_scan"}, "lon": -77.04202583333333, "type": "electric_scooter", "fusion_lat": 0.0, "lat": 38.92108983333333, "name": "41c8dea6bf255884748400c78f536cfe", "fusion_lon": 0.0, "bike_id": "41c8dea6bf255884748400c78f536cfe", "is_disabled": 0, "is_reserved": 0}, {"rental_uris": {"ios": "https://dc.lft.to/lastmile_qr_scan", "android": "https://dc.lft.to/lastmile_qr_scan"}, "lon": -77.03445283333333, "type": "electric_scooter", "fusion_lat": 0.0, "lat": 38.91873733333333, "name": "f450adee7cb040efeeb70e82884f6921", "fusion_lon": 0.0, "bike_id": "f450adee7cb040efeeb70e82884f6921", "is_disabled": 0, "is_reserved": 0}, {"rental_uris": {"ios": "https://dc.lft.to/lastmile_qr_scan", "android": "https://dc.lft.to/lastmile_qr_scan"}, "lon": -76.983503, "type": "electric_scooter", "fusion_lat": 0.0, "lat": 38.9153295, "name": "6c03c4a3db95b3ddf81d5e767c44e8c0", "fusion_lon": 0.0, "bike_id": "6c03c4a3db95b3ddf81d5e767c44e8c0", "is_disabled": 0, "is_reserved": 0}, {"rental_uris": {"ios": "https://dc.lft.to/lastmile_qr_scan", "android": "https://dc.lft.to/lastmile_qr_scan"}, "lon": -77.0322405, "type": "electric_scooter", "fusion_lat": 0.0, "lat": 38.9086725, "name": "d6f328b32a08806181b01fdf988af8ac", "fusion_lon": 0.0, "bike_id": "d6f328b32a08806181b01fdf988af8ac", "is_disabled": 0, "is_reserved": 0}, {"rental_uris": {"ios": "https://dc.lft.to/lastmile_qr_scan", "android": "https://dc.lft.to/lastmile_qr_scan"}, "lon": -77.034236, "type": "electric_scooter", "fusion_lat": 0.0, "lat": 38.91920666666667, "name": "eac239ed2583b727cc4271d3a35658dc", "fusion_lon": 0.0, "bike_id": "eac239ed2583b727cc4271d3a35658dc", "is_disabled": 0, "is_reserved": 0}, {"rental_uris": {"ios": "https://dc.lft.to/lastmile_qr_scan", "android": "https://dc.lft.to/lastmile_qr_scan"}, "lon": -77.0396705, "type": "electric_scooter", "fusion_lat": 0.0, "lat": 38.9197945, "name": "3c01a6e757474dd64c8052ad3bc60c23", "fusion_lon": 0.0, "bike_id": "3c01a6e757474dd64c8052ad3bc60c23", "is_disabled": 0, "is_reserved": 0}, {"rental_uris": {"ios": "https://dc.lft.to/lastmile_qr_scan", "android": "https://dc.lft.to/lastmile_qr_scan"}, "lon": -77.00983833333333, "type": "electric_scooter", "fusion_lat": 0.0, "lat": 38.91493166666667, "name": "67a12d39e0501ebb0621cf9714d6695f", "fusion_lon": 0.0, "bike_id": "67a12d39e0501ebb0621cf9714d6695f", "is_disabled": 0, "is_reserved": 0}, {"rental_uris": {"ios": "https://dc.lft.to/lastmile_qr_scan", "android": "https://dc.lft.to/lastmile_qr_scan"}, "lon": -77.03167033333334, "type": "electric_scooter", "fusion_lat": 0.0, "lat": 38.920965833333334, "name": "fe00fd3c70c503fd4438cf7d071bbf2e", "fusion_lon": 0.0, "bike_id": "fe00fd3c70c503fd4438cf7d071bbf2e", "is_disabled": 0, "is_reserved": 0}, {"rental_uris": {"ios": "https://dc.lft.to/lastmile_qr_scan", "android": "https://dc.lft.to/lastmile_qr_scan"}, "lon": -76.9289425, "type": "electric_scooter", "fusion_lat": 0.0, "lat": 38.893288166666665, "name": "aae2a5c9430a520d683b74bb559c59e5", "fusion_lon": 0.0, "bike_id": "aae2a5c9430a520d683b74bb559c59e5", "is_disabled": 0, "is_reserved": 0}, {"rental_uris": {"ios": "https://dc.lft.to/lastmile_qr_scan", "android": "https://dc.lft.to/lastmile_qr_scan"}, "lon": -77.02699633333333, "type": "electric_scooter", "fusion_lat": 0.0, "lat": 38.94978833333333, "name": "3eef08f3d94dbe11a0a1587d38cc82b9", "fusion_lon": 0.0, "bike_id": "3eef08f3d94dbe11a0a1587d38cc82b9", "is_disabled": 0, "is_reserved": 0}, {"rental_uris": {"ios": "https://dc.lft.to/lastmile_qr_scan", "android": "https://dc.lft.to/lastmile_qr_scan"}, "lon": -77.03176116666667, "type": "electric_scooter", "fusion_lat": 0.0, "lat": 38.89952433333333, "name": "2d7444072e124cf1f8af8c7720c4178b", "fusion_lon": 0.0, "bike_id": "2d7444072e124cf1f8af8c7720c4178b", "is_disabled": 0, "is_reserved": 0}, {"rental_uris": {"ios": "https://dc.lft.to/lastmile_qr_scan", "android": "https://dc.lft.to/lastmile_qr_scan"}, "lon": -77.01209033333333, "type": "electric_bike", "fusion_lat": 0.0, "lat": 38.87092283333333, "name": "43cde92afb90f48f925365ec802f5282", "fusion_lon": 0.0, "bike_id": "43cde92afb90f48f925365ec802f5282", "is_disabled": 0, "is_reserved": 0}, {"rental_uris": {"ios": "https://dc.lft.to/lastmile_qr_scan", "android": "https://dc.lft.to/lastmile_qr_scan"}, "lon": -77.02103416666667, "type": "electric_scooter", "fusion_lat": 0.0, "lat": 38.913138833333335, "name": "af28c9d4fae59e2b722e764a10ba330d", "fusion_lon": 0.0, "bike_id": "af28c9d4fae59e2b722e764a10ba330d", "is_disabled": 0, "is_reserved": 0}, {"rental_uris": {"ios": "https://dc.lft.to/lastmile_qr_scan", "android": "https://dc.lft.to/lastmile_qr_scan"}, "lon": -77.0464935, "type": "electric_scooter", "fusion_lat": 0.0, "lat": 38.90549683333333, "name": "9f27230e26a8b853a3b3da0cef57af06", "fusion_lon": 0.0, "bike_id": "9f27230e26a8b853a3b3da0cef57af06", "is_disabled": 0, "is_reserved": 0}, {"rental_uris": {"ios": "https://dc.lft.to/lastmile_qr_scan", "android": "https://dc.lft.to/lastmile_qr_scan"}, "lon": -77.01062166666667, "type": "electric_scooter", "fusion_lat": 0.0, "lat": 38.87937066666667, "name": "29c188a82f99d567bff68696536992e7", "fusion_lon": 0.0, "bike_id": "29c188a82f99d567bff68696536992e7", "is_disabled": 0, "is_reserved": 0}, {"rental_uris": {"ios": "https://dc.lft.to/lastmile_qr_scan", "android": "https://dc.lft.to/lastmile_qr_scan"}, "lon": -76.96630766666667, "type": "electric_bike", "fusion_lat": 0.0, "lat": 38.942006666666664, "name": "16b42bc6be05ca94f96b21f9b910441c", "fusion_lon": 0.0, "bike_id": "16b42bc6be05ca94f96b21f9b910441c", "is_disabled": 0, "is_reserved": 0}, {"rental_uris": {"ios": "https://dc.lft.to/lastmile_qr_scan", "android": "https://dc.lft.to/lastmile_qr_scan"}, "lon": -77.03560283333333, "type": "electric_scooter", "fusion_lat": 0.0, "lat": 38.91804533333333, "name": "39ec82b50c6a51ed5091b8a295e05443", "fusion_lon": 0.0, "bike_id": "39ec82b50c6a51ed5091b8a295e05443", "is_disabled": 0, "is_reserved": 0}, {"rental_uris": {"ios": "https://dc.lft.to/lastmile_qr_scan", "android": "https://dc.lft.to/lastmile_qr_scan"},