{"data": {"bikes": [{"is_disabled": 0, "is_reserved": 0, "fusion_lat": 0.0, "lat": 38.941807833333336, "fusion_lon": 0.0, "rental_uris": {"ios": "https://dc.lft.to/lastmile_qr_scan", "android": "https://dc.lft.to/lastmile_qr_scan"}, "lon": -77.03389066666666, "bike_id": "2fcfe10e391a6c42ed720609e2498e42", "type": "electric_scooter", "name": "2fcfe10e391a6c42ed720609e2498e42"}, {"is_disabled": 0, "is_reserved": 0, "fusion_lat": 0.0, "lat": 38.91910266666667, "fusion_lon": 0.0, "rental_uris": {"ios": "https://dc.lft.to/lastmile_qr_scan", "android": "https://dc.lft.to/lastmile_qr_scan"}, "lon": -77.009888, "bike_id": "8e1f28e499fe4861a2457ef90af2f728", "type": "electric_scooter", "name": "8e1f28e499fe4861a2457ef90af2f728"}, {"is_disabled": 0, "is_reserved": 0, "fusion_lat": 0.0, "lat": 38.90433933333333, "fusion_lon": 0.0, "rental_uris": {"ios": "https://dc.lft.to/lastmile_qr_scan", "android": "https://dc.lft.to/lastmile_qr_scan"}, "lon": -77.026074, "bike_id": "e3b79712f1a8b72324eec13c94a2eb37", "type": "electric_scooter", "name": "e3b79712f1a8b72324eec13c94a2eb37"}, {"is_disabled": 0, "is_reserved": 0, "fusion_lat": 0.0, "lat": 38.91804483333333, "fusion_lon": 0.0, "rental_uris": {"ios": "https://dc.lft.to/lastmile_qr_scan", "android": "https://dc.lft.to/lastmile_qr_scan"}, "lon": -77.03440033333334, "bike_id": "8c03d59a75e547ee7b898a314c37f9d5", "type": "electric_scooter", "name": "8c03d59a75e547ee7b898a314c37f9d5"}, {"is_disabled": 0, "is_reserved": 0, "fusion_lat": 0.0, "lat": 38.903732, "fusion_lon": 0.0, "rental_uris": {"ios": "https://dc.lft.to/lastmile_qr_scan", "android": "https://dc.lft.to/lastmile_qr_scan"}, "lon": -77.04838766666667, "bike_id": "d1e2a249b8f7a27dad9ecfc2603a917c", "type": "electric_scooter", "name": "d1e2a249b8f7a27dad9ecfc2603a917c"}, {"is_disabled": 0, "is_reserved": 0, "fusion_lat": 0.0, "lat": 38.93250533333333, "fusion_lon": 0.0, "rental_uris": {"ios": "https://dc.lft.to/lastmile_qr_scan", "android": "https://dc.lft.to/lastmile_qr_scan"}, "lon": -77.02963216666667, "bike_id": "e5f55145e683a140e06929ac46c62fb5", "type": "electric_scooter", "name": "e5f55145e683a140e06929ac46c62fb5"}, {"is_disabled": 0, "is_reserved": 0, "fusion_lat": 0.0, "lat": 38.999885666666664, "fusion_lon": 0.0, "rental_uris": {"ios": "https://dc.lft.to/lastmile_qr_scan", "android": "https://dc.lft.to/lastmile_qr_scan"}, "lon": -76.92489316666666, "bike_id": "cd465b58c85791f5201ffe02908758c7", "type": "electric_bike", "name": "cd465b58c85791f5201ffe02908758c7"}, {"is_disabled": 0, "is_reserved": 0, "fusion_lat": 0.0, "lat": 38.92478166666667, "fusion_lon": 0.0, "rental_uris": {"ios": "https://dc.lft.to/lastmile_qr_scan", "android": "https://dc.lft.to/lastmile_qr_scan"}, "lon": -77.027928, "bike_id": "4b23955d86b7824621b322046d70a65e", "type": "electric_scooter", "name": "4b23955d86b7824621b322046d70a65e"}, {"is_disabled": 0, "is_reserved": 0, "fusion_lat": 0.0, "lat": 38.95314916666667, "fusion_lon": 0.0, "rental_uris": {"ios": "https://dc.lft.to/lastmile_qr_scan", "android": "https://dc.lft.to/lastmile_qr_scan"}, "lon": -76.99459233333333, "bike_id": "144d59e6438989e75baa6334297a2ec8", "type": "electric_scooter", "name": "144d59e6438989e75baa6334297a2ec8"}, {"is_disabled": 0, "is_reserved": 0, "fusion_lat": 0.0, "lat": 38.92432483333333, "fusion_lon": 0.0, "rental_uris": {"ios": "https://dc.lft.to/lastmile_qr_scan", "android": "https://dc.lft.to/lastmile_qr_scan"}, "lon": -77.02706483333333, "bike_id": "5a58631d4b33b2410801357f3ff6c32e", "type": "electric_scooter", "name": "5a58631d4b33b2410801357f3ff6c32e"}, {"is_disabled": 0, "is_reserved": 0, "fusion_lat": 0.0, "lat": 38.92129583333333, "fusion_lon": 0.0, "rental_uris": {"ios": "https://dc.lft.to/lastmile_qr_scan", "android": "https://dc.lft.to/lastmile_qr_scan"}, "lon": -77.001896, "bike_id": "6588976d1bc3dd95cf4a20953879d40f", "type": "electric_bike", "name": "6588976d1bc3dd95cf4a20953879d40f"}, {"is_disabled": 0, "is_reserved": 0, "fusion_lat": 0.0, "lat": 38.885205, "fusion_lon": 0.0, "rental_uris": {"ios": "https://dc.lft.to/lastmile_qr_scan", "android": "https://dc.lft.to/lastmile_qr_scan"}, "lon": -76.977079, "bike_id": "15dcff9a914ddb49bcdd4b78e88edc67", "type": "electric_scooter", "name": "15dcff9a914ddb49bcdd4b78e88edc67"}, {"is_disabled": 0, "is_reserved": 0, "fusion_lat": 0.0, "lat": 38.91806666666667, "fusion_lon": 0.0, "rental_uris": {"ios": "https://dc.lft.to/lastmile_qr_scan", "android": "https://dc.lft.to/lastmile_qr_scan"}, "lon": -77.01139083333334, "bike_id": "67889746cbaf5df874f11efb561e75fe", "type": "electric_scooter", "name": "67889746cbaf5df874f11efb561e75fe"}, {"is_disabled": 0, "is_reserved": 0, "fusion_lat": 0.0, "lat": 38.90850966666667, "fusion_lon": 0.0, "rental_uris": {"ios": "https://dc.lft.to/lastmile_qr_scan", "android": "https://dc.lft.to/lastmile_qr_scan"}, "lon": -76.999599, "bike_id": "4cc4e827df952007b297324c7c29f3df", "type": "electric_scooter", "name": "4cc4e827df952007b297324c7c29f3df"}, {"is_disabled": 0, "is_reserved": 0, "fusion_lat": 0.0, "lat": 38.918231166666665, "fusion_lon": 0.0, "rental_uris": {"ios": "https://dc.lft.to/lastmile_qr_scan", "android": "https://dc.lft.to/lastmile_qr_scan"}, "lon": -77.0271855, "bike_id": "d0468b7fdee038c15a696de8d3f8bb22", "type": "electric_scooter", "name": "d0468b7fdee038c15a696de8d3f8bb22"}, {"is_disabled": 0, "is_reserved": 0, "fusion_lat": 0.0, "lat": 38.884963666666664, "fusion_lon": 0.0, "rental_uris": {"ios": "https://dc.lft.to/lastmile_qr_scan", "android": "https://dc.lft.to/lastmile_qr_scan"}, "lon": -76.945501, "bike_id": "abde42eb035f3048e6883169219261be", "type": "electric_scooter", "name": "abde42eb035f3048e6883169219261be"}, {"is_disabled": 0, "is_reserved": 0, "fusion_lat": 0.0, "lat": 38.9274195, "fusion_lon": 0.0, "rental_uris": {"ios": "https://dc.lft.to/lastmile_qr_scan", "android": "https://dc.lft.to/lastmile_qr_scan"}, "lon": -77.03301666666667, "bike_id": "f7f40d5aa5dc0f51845330dfa6288fb5", "type": "electric_scooter", "name": "f7f40d5aa5dc0f51845330dfa6288fb5"}, {"is_disabled": 0, "is_reserved": 0, "fusion_lat": 0.0, "lat": 38.93699316666667, "fusion_lon": 0.0, "rental_uris": {"ios": "https://dc.lft.to/lastmile_qr_scan", "android": "https://dc.lft.to/lastmile_qr_scan"}, "lon": -77.0559845, "bike_id": "cc31278ebc53bc52a2fc10de36e4c87b", "type": "electric_scooter", "name": "cc31278ebc53bc52a2fc10de36e4c87b"}, {"is_disabled": 0, "is_reserved": 0, "fusion_lat": 0.0, "lat": 38.87172533333333, "fusion_lon": 0.0, "rental_uris": {"ios": "https://dc.lft.to/lastmile_qr_scan", "android": "https://dc.lft.to/lastmile_qr_scan"}, "lon": -77.2339175, "bike_id": "09e5f9c6dd83016d1ad5c30aab9e473e", "type": "electric_bike", "name": "09e5f9c6dd83016d1ad5c30aab9e473e"}, {"is_disabled": 0, "is_reserved": 0, "fusion_lat": 0.0, "lat": 38.807674, "fusion_lon": 0.0, "rental_uris": {"ios": "https://dc.lft.to/lastmile_qr_scan", "android": "https://dc.lft.to/lastmile_qr_scan"}, "lon": -77.05740933333334, "bike_id": "c50154a72dc846d22d0a4a00e5b7aaa5", "type": "electric_bike", "name": "c50154a72dc846d22d0a4a00e5b7aaa5"}, {"is_disabled": 0, "is_reserved": 0, "fusion_lat": 0.0, "lat": 38.89609166666666, "fusion_lon": 0.0, "rental_uris": {"ios": "https://dc.lft.to/lastmile_qr_scan", "android": "https://dc.lft.to/lastmile_qr_scan"}, "lon": -77.0453255, "bike_id": "8214e4993ab183ed5069785f3cced007", "type": "electric_scooter", "name": "8214e4993ab183ed5069785f3cced007"}, {"is_disabled": 0, "is_reserved": 0, "fusion_lat": 0.0, "lat": 38.8668425, "fusion_lon": 0.0, "rental_uris": {"ios": "https://dc.lft.to/lastmile_qr_scan", "android": "https://dc.lft.to/lastmile_qr_scan"}, "lon": -76.94855266666667, "bike_id": "d8f0ef9d49f50fed49cf247a41b06188", "type": "electric_scooter", "name": "d8f0ef9d49f50fed49cf247a41b06188"}, {"is_disabled": 0, "is_reserved": 0, "fusion_lat": 0.0, "lat": 38.92440166666667, "fusion_lon": 0.0, "rental_uris": {"ios": "https://dc.lft.to/lastmile_qr_scan", "android": "https://dc.lft.to/lastmile_qr_scan"}, "lon": -77.03400166666667, "bike_id": "477534b2071683ed02b561ad06e1e09c", "type": "electric_scooter", "name": "477534b2071683ed02b561ad06e1e09c"}, {"is_disabled": 0, "is_reserved": 0, "fusion_lat": 0.0, "lat": 38.857120333333334, "fusion_lon": 0.0, "rental_uris": {"ios": "https://dc.lft.to/lastmile_qr_scan", "android": "https://dc.lft.to/lastmile_qr_scan"}, "lon": -76.980977, "bike_id": "3eae2977cbb0db81b033ce081ba11a72", "type": "electric_scooter", "name": "3eae2977cbb0db81b033ce081ba11a72"}, {"is_disabled": 0, "is_reserved": 0, "fusion_lat": 0.0, "lat": 38.871706, "fusion_lon": 0.0, "rental_uris": {"ios": "https://dc.lft.to/lastmile_qr_scan", "android": "https://dc.lft.to/lastmile_qr_scan"}, "lon": -77.006237, "bike_id": "1c9c6eaa647593f2315a69ddf62d7cdd", "type": "electric_scooter", "name": "1c9c6eaa647593f2315a69ddf62d7cdd"}, {"is_disabled": 0, "is_reserved": 0, "fusion_lat": 0.0, "lat": 38.884895666666665, "fusion_lon": 0.0, "rental_uris": {"ios": "https://dc.lft.to/lastmile_qr_scan", "android": "https://dc.lft.to/lastmile_qr_scan"}, "lon": -77.02639166666667, "bike_id": "6bcd67cc975648f0c471ab3d335c7f00", "type": "electric_scooter", "name": "6bcd67cc975648f0c471ab3d335c7f00"}, {"is_disabled": 0, "is_reserved": 0, "fusion_lat": 0.0, "lat": 38.9340235, "fusion_lon": 0.0, "rental_uris": {"ios": "https://dc.lft.to/lastmile_qr_scan", "android": "https://dc.lft.to/lastmile_qr_scan"}, "lon": -77.03537283333333, "bike_id": "bf1d979e93aa0f4cc06d2c2dccf807bc", "type": "electric_bike", "name": "bf1d979e93aa0f4cc06d2c2dccf807bc"}, {"is_disabled": 0, "is_reserved": 0, "fusion_lat": 0.0, "lat": 38.90507616666667, "fusion_lon": 0.0, "rental_uris": {"ios": "https://dc.lft.to/lastmile_qr_scan", "android": "https://dc.lft.to/lastmile_qr_scan"}, "lon": -77.00693883333334, "bike_id": "e4a940944d0f1a4fc9c296eb392e9b2b", "type": "electric_scooter", "name": "e4a940944d0f1a4fc9c296eb392e9b2b"}, {"is_disabled": 0, "is_reserved": 0, "fusion_lat": 0.0, "lat": 38.902597, "fusion_lon": 0.0, "rental_uris": {"ios": "https://dc.lft.to/lastmile_qr_scan", "android": "https://dc.lft.to/lastmile_qr_scan"}, "lon": -77.01759666666666, "bike_id": "a2fcfb28f6822e74949c8f6f451099ea", "type": "electric_scooter", "name": "a2fcfb28f6822e74949c8f6f451099ea"}, {"is_disabled": 0, "is_reserved": 0, "fusion_lat": 0.0, "lat": 38.907788, "fusion_lon": 0.0, "rental_uris": {"ios": "https://dc.lft.to/lastmile_qr_scan", "android": "https://dc.lft.to/lastmile_qr_scan"}, "lon": -77.04216483333333, "bike_id": "c0495b9e0b38d1354885616b9ba10fab", "type": "electric_scooter", "name": "c0495b9e0b38d1354885616b9ba10fab"}, {"is_disabled": 0, "is_reserved": 0, "fusion_lat": 0.0, "lat": 38.89734816666667, "fusion_lon": 0.0, "rental_uris": {"ios": "https://dc.lft.to/lastmile_qr_scan", "android": "https://dc.lft.to/lastmile_qr_scan"}, "lon": -77.02129216666667, "bike_id": "c61492989e129ed094c9bc7d27106cef", "type": "electric_scooter", "name": "c61492989e129ed094c9bc7d27106cef"}, {"is_disabled": 0, "is_reserved": 0, "fusion_lat": 0.0, "lat": 38.904919666666665, "fusion_lon": 0.0, "rental_uris": {"ios": "https://dc.lft.to/lastmile_qr_scan", "android": "https://dc.lft.to/lastmile_qr_scan"}, "lon": -76.94951833333333, "bike_id": "d82ed3c3a8e931f64fcbede3fbf9af09", "type": "electric_scooter", "name": "d82ed3c3a8e931f64fcbede3fbf9af09"}, {"is_disabled": 0, "is_reserved": 0, "fusion_lat": 0.0, "lat": 38.94921883333333, "fusion_lon": 0.0, "rental_uris": {"ios": "https://dc.lft.to/lastmile_qr_scan", "android": "https://dc.lft.to/lastmile_qr_scan"}, "lon": -77.02311433333334, "bike_id": "ce56948c582879e8aaf55c2881e6024d", "type": "electric_scooter", "name": "ce56948c582879e8aaf55c2881e6024d"}, {"is_disabled": 0, "is_reserved": 0, "fusion_lat": 0.0, "lat": 38.93906416666667, "fusion_lon": 0.0, "rental_uris": {"ios": "https://dc.lft.to/lastmile_qr_scan", "android": "https://dc.lft.to/lastmile_qr_scan"}, "lon": -77.07758, "bike_id": "f6bdb0f1a396a1b58cec6bda62d765f6", "type": "electric_scooter", "name": "f6bdb0f1a396a1b58cec6bda62d765f6"}, {"is_disabled": 0, "is_reserved": 0, "fusion_lat": 0.0, "lat": 38.930214166666666, "fusion_lon": 0.0, "rental_uris": {"ios": "https://dc.lft.to/lastmile_qr_scan", "android": "https://dc.lft.to/lastmile_qr_scan"}, "lon": -77.023305, "bike_id": "b3fa5282fa28af6782b1f5b5294c3177", "type": "electric_scooter", "name": "b3fa5282fa28af6782b1f5b5294c3177"}, {"is_disabled": 0, "is_reserved": 0, "fusion_lat": 0.0, "lat": 38.943314666666666, "fusion_lon": 0.0, "rental_uris": {"ios": "https://dc.lft.to/lastmile_qr_scan", "android": "https://dc.lft.to/lastmile_qr_scan"}, "lon": -77.026895, "bike_id": "7d18b05ddaf98ef25ec58fb068af54fa", "type": "electric_scooter", "name": "7d18b05ddaf98ef25ec58fb068af54fa"}, {"is_disabled": 0, "is_reserved": 0, "fusion_lat": 0.0, "lat": 38.905123833333334, "fusion_lon": 0.0, "rental_uris": {"ios": "https://dc.lft.to/lastmile_qr_scan", "android": "https://dc.lft.to/lastmile_qr_scan"}, "lon": -76.95192733333333, "bike_id": "a7f1e4845f9a52ae413e04518f8d80dc", "type": "electric_scooter", "name": "a7f1e4845f9a52ae413e04518f8d80dc"}, {"is_disabled": 0, "is_reserved": 0, "fusion_lat": 0.0, "lat": 38.914148, "fusion_lon": 0.0, "rental_uris": {"ios": "https://dc.lft.to/lastmile_qr_scan", "android": "https://dc.lft.to/lastmile_qr_scan"}, "lon": -77.05209216666667, "bike_id": "c092680ae3b9f9d5289d4cfa34cd1bb2", "type": "electric_scooter", "name": "c092680ae3b9f9d5289d4cfa34cd1bb2"}, {"is_disabled": 0, "is_reserved": 0, "fusion_lat": 0.0, "lat": 38.88623366666667, "fusion_lon": 0.0, "rental_uris": {"ios": "https://dc.lft.to/lastmile_qr_scan", "android": "https://dc.lft.to/lastmile_qr_scan"}, "lon": -76.92631683333333, "bike_id": "c2503d250595a32e0353677f2a21f911", "type": "electric_scooter", "name": "c2503d250595a32e0353677f2a21f911"}, {"is_disabled": 0, "is_reserved": 0, "fusion_lat": 0.0, "lat": 38.9236015, "fusion_lon": 0.0, "rental_uris": {"ios": "https://dc.lft.to/lastmile_qr_scan", "android": "https://dc.lft.to/lastmile_qr_scan"}, "lon": -77.02139333333334, "bike_id": "09419297c6b7d265bbbf77f23c58efe2", "type": "electric_scooter", "name": "09419297c6b7d265bbbf77f23c58efe2"}, {"is_disabled": 0, "is_reserved": 0, "fusion_lat": 0.0, "lat": 38.90009233333333, "fusion_lon": 0.0, "rental_uris": {"ios": "https://dc.lft.to/lastmile_qr_scan", "android": "https://dc.lft.to/lastmile_qr_scan"}, "lon": -77.02708416666667, "bike_id": "00cb35447a6e836a8b220654096c59bd", "type": "electric_scooter", "name": "00cb35447a6e836a8b220654096c59bd"}, {"is_disabled": 0, "is_reserved": 0, "fusion_lat": 0.0, "lat": 38.93060416666667, "fusion_lon": 0.0, "rental_uris": {"ios": "https://dc.lft.to/lastmile_qr_scan", "android": "https://dc.lft.to/lastmile_qr_scan"}, "lon": -77.04045333333333, "bike_id": "6b87bdcec1e65776c1fcfa18e3a937e6", "type": "electric_scooter", "name": "6b87bdcec1e65776c1fcfa18e3a937e6"}, {"is_disabled": 0, "is_reserved": 0, "fusion_lat": 0.0, "lat": 38.914718666666666, "fusion_lon": 0.0, "rental_uris": {"ios": "https://dc.lft.to/lastmile_qr_scan", "android": "https://dc.lft.to/lastmile_qr_scan"}, "lon": -77.00914683333333, "bike_id": "a96812721fbfba363acae0faccc36f38", "type": "electric_scooter", "name": "a96812721fbfba363acae0faccc36f38"}, {"is_disabled": 0, "is_reserved": 0, "fusion_lat": 0.0, "lat": 38.92607133333333, "fusion_lon": 0.0, "rental_uris": {"ios": "https://dc.lft.to/lastmile_qr_scan", "android": "https://dc.lft.to/lastmile_qr_scan"}, "lon": -77.05306116666667, "bike_id": "f3674c06937df2171748fe74aea766ce", "type": "electric_scooter", "name": "f3674c06937df2171748fe74aea766ce"}, {"is_disabled": 0, "is_reserved": 0, "fusion_lat": 0.0, "lat": 39.02648, "fusion_lon": 0.0, "rental_uris": {"ios": "https://dc.lft.to/lastmile_qr_scan", "android": "https://dc.lft.to/lastmile_qr_scan"}, "lon": -77.03684933333334, "bike_id": "f9119e01c28de7d35d6245d47f7d76ab", "type": "electric_bike", "name": "f9119e01c28de7d35d6245d47f7d76ab"}, {"is_disabled": 0, "is_reserved": 0, "fusion_lat": 0.0, "lat": 38.91460266666667, "fusion_lon": 0.0, "rental_uris": {"ios": "https://dc.lft.to/lastmile_qr_scan", "android": "https://dc.lft.to/lastmile_qr_scan"}, "lon": -77.03206766666666, "bike_id": "5e90036258c8eed09e1def3b7eb66c8b", "type": "electric_scooter", "name": "5e90036258c8eed09e1def3b7eb66c8b"}, {"is_disabled": 0, "is_reserved": 0, "fusion_lat": 0.0, "lat": 38.915418333333335, "fusion_lon": 0.0, "rental_uris": {"ios": "https://dc.lft.to/lastmile_qr_scan", "android": "https://dc.lft.to/lastmile_qr_scan"}, "lon": -77.04446733333333, "bike_id": "fc46942c593a5dbd01f73d2c51990247", "type": "electric_scooter", "name": "fc46942c593a5dbd01f73d2c51990247"}, {"is_disabled": 0, "is_reserved": 0, "fusion_lat": 0.0, "lat": 38.952453, "fusion_lon": 0.0, "rental_uris": {"ios": "https://dc.lft.to/lastmile_qr_scan", "android": "https://dc.lft.to/lastmile_qr_scan"}, "lon": -76.98242516666667, "bike_id": "97af54735eb318c7431b229a45980e94", "type": "electric_bike", "name": "97af54735eb318c7431b229a45980e94"}, {"is_disabled": 0, "is_reserved": 0, "fusion_lat": 0.0, "lat": 38.93059816666667, "fusion_lon": 0.0, "rental_uris": {"ios": "https://dc.lft.to/lastmile_qr_scan", "android": "https://dc.lft.to/lastmile_qr_scan"}, "lon": -77.03939083333333, "bike_id": "a44dd85916eda208331d0e965af5e792", "type": "electric_scooter", "name": "a44dd85916eda208331d0e965af5e792"}, {"is_disabled": 0, "is_reserved": 0, "fusion_lat": 0.0, "lat": 38.87907633333333, "fusion_lon": 0.0, "rental_uris": {"ios": "https://dc.lft.to/lastmile_qr_scan", "android": "https://dc.lft.to/lastmile_qr_scan"}, "lon": -77.00845066666666, "bike_id": "02254e55f527de1a780b90aee291de35", "type": "electric_bike", "name": "02254e55f527de1a780b90aee291de35"}, {"is_disabled": 0, "is_reserved": 0, "fusion_lat": 0.0, "lat": 38.91577733333333, "fusion_lon": 0.0, "rental_uris": {"ios": "https://dc.lft.to/lastmile_qr_scan", "android": "https://dc.lft.to/lastmile_qr_scan"}, "lon": -77.02003433333333, "bike_id": "04f2f2387f63ef4e6e350226e9e694fe", "type": "electric_scooter", "name": "04f2f2387f63ef4e6e350226e9e694fe"}, {"is_disabled": 0, "is_reserved": 0, "fusion_lat": 0.0, "lat": 38.90062433333333, "fusion_lon": 0.0, "rental_uris": {"ios": "https://dc.lft.to/lastmile_qr_scan", "android": "https://dc.lft.to/lastmile_qr_scan"}, "lon": -76.94984483333333, "bike_id": "fe5fe3de4c55b9787610657820c698c1", "type": "electric_scooter", "name": "fe5fe3de4c55b9787610657820c698c1"}, {"is_disabled": 0, "is_reserved": 0, "fusion_lat": 0.0, "lat": 38.92058733333333, "fusion_lon": 0.0, "rental_uris": {"ios": "https://dc.lft.to/lastmile_qr_scan", "android": "https://dc.lft.to/lastmile_qr_scan"}, "lon": -77.023589, "bike_id": "f2b81ec2a46341e85c3d86fe8f25e104", "type": "electric_scooter", "name": "f2b81ec2a46341e85c3d86fe8f25e104"}, {"is_disabled": 0, "is_reserved": 0, "fusion_lat": 0.0, "lat": 38.9187735, "fusion_lon": 0.0, "rental_uris": {"ios": "https://dc.lft.to/lastmile_qr_scan", "android": "https://dc.lft.to/lastmile_qr_scan"}, "lon": -77.0350115, "bike_id": "19bffe9d63490b30be6573aa57005168", "type": "electric_scooter", "name": "19bffe9d63490b30be6573aa57005168"}, {"is_disabled": 0, "is_reserved": 0, "fusion_lat": 0.0, "lat": 38.92692516666666, "fusion_lon": 0.0, "rental_uris": {"ios": "https://dc.lft.to/lastmile_qr_scan", "android": "https://dc.lft.to/lastmile_qr_scan"}, "lon": -76.99786233333333, "bike_id": "a77ff0567934085464b31bc99299d247", "type": "electric_scooter", "name": "a77ff0567934085464b31bc99299d247"}, {"is_disabled": 0, "is_reserved": 0, "fusion_lat": 0.0, "lat": 38.925018, "fusion_lon": 0.0, "rental_uris": {"ios": "https://dc.lft.to/lastmile_qr_scan", "android": "https://dc.lft.to/lastmile_qr_scan"}, "lon": -77.02424983333333, "bike_id": "6c3c6b5a98f51edf9c7adb17a2d53e30", "type": "electric_scooter", "name": "6c3c6b5a98f51edf9c7adb17a2d53e30"}, {"is_disabled": 0, "is_reserved": 0, "fusion_lat": 0.0, "lat": 38.9065445, "fusion_lon": 0.0, "rental_uris": {"ios": "https://dc.lft.to/lastmile_qr_scan", "android": "https://dc.lft.to/lastmile_qr_scan"}, "lon": -77.00568316666667, "bike_id": "97fe44d395c7dcc2d3c55049a8e27cb0", "type": "electric_scooter", "name": "97fe44d395c7dcc2d3c55049a8e27cb0"}, {"is_disabled": 0, "is_reserved": 0, "fusion_lat": 0.0, "lat": 38.90196616666667, "fusion_lon": 0.0, "rental_uris": {"ios": "https://dc.lft.to/lastmile_qr_scan", "android": "https://dc.lft.to/lastmile_qr_scan"}, "lon": -77.05008316666667, "bike_id": "0eadfca92978301f1face76d5c93735b", "type": "electric_scooter", "name": "0eadfca92978301f1face76d5c93735b"}, {"is_disabled": 0, "is_reserved": 0, "fusion_lat": 0.0, "lat": 38.948158, "fusion_lon": 0.0, "rental_uris": {"ios": "https://dc.lft.to/lastmile_qr_scan", "android": "https://dc.lft.to/lastmile_qr_scan"}, "lon": -77.02536166666667, "bike_id": "b20c43b2b26ed88390b07be689713aa0", "type": "electric_scooter", "name": "b20c43b2b26ed88390b07be689713aa0"}, {"is_disabled": 0, "is_reserved": 0, "fusion_lat": 0.0, "lat": 38.93863916666667, "fusion_lon": 0.0, "rental_uris": {"ios": "https://dc.lft.to/lastmile_qr_scan", "android": "https://dc.lft.to/lastmile_qr_scan"}, "lon": -77.03035716666666, "bike_id": "01740ec3d97bf0009d4e438fdff70899", "type": "electric_scooter", "name": "01740ec3d97bf0009d4e438fdff70899"}, {"is_disabled": 0, "is_reserved": 0, "fusion_lat": 0.0, "lat": 38.9068285, "fusion_lon": 0.0, "rental_uris": {"ios": "https://dc.lft.to/lastmile_qr_scan", "android": "https://dc.lft.to/lastmile_qr_scan"}, "lon": -77.05323216666666, "bike_id": "66319bb4b290d53b2071cf16912ffd32", "type": "electric_scooter", "name": "66319bb4b290d53b2071cf16912ffd32"}, {"is_disabled": 0, "is_reserved": 0, "fusion_lat": 0.0, "lat": 38.920040666666665, "fusion_lon": 0.0, "rental_uris": {"ios": "https://dc.lft.to/lastmile_qr_scan", "android": "https://dc.lft.to/lastmile_qr_scan"}, "lon": -77.0416115, "bike_id": "aca574b19e1ca037b7ec1ea5348c5b11", "type": "electric_scooter", "name": "aca574b19e1ca037b7ec1ea5348c5b11"}, {"is_disabled": 0, "is_reserved": 0, "fusion_lat": 0.0, "lat": 38.905197666666666, "fusion_lon": 0.0, "rental_uris": {"ios": "https://dc.lft.to/lastmile_qr_scan", "android": "https://dc.lft.to/lastmile_qr_scan"}, "lon": -77.00696083333334, "bike_id": "054d935af9e193ad34a57ad5a0a9f519", "type": "electric_scooter", "name": "054d935af9e193ad34a57ad5a0a9f519"}, {"is_disabled": 0, "is_reserved": 0, "fusion_lat": 0.0, "lat": 38.90238933333333, "fusion_lon": 0.0, "rental_uris": {"ios": "https://dc.lft.to/lastmile_qr_scan", "android": "https://dc.lft.to/lastmile_qr_scan"}, "lon": -77.05877633333333, "bike_id": "b016d44b171466c9d103c853d8a8eb25", "type": "electric_scooter", "name": "b016d44b171466c9d103c853d8a8eb25"}, {"is_disabled": 0, "is_reserved": 0, "fusion_lat": 0.0, "lat": 38.85221516666667, "fusion_lon": 0.0, "rental_uris": {"ios": "https://dc.lft.to/lastmile_qr_scan", "android": "https://dc.lft.to/lastmile_qr_scan"}, "lon": -76.993742, "bike_id": "daa9d4b4c8aeb8478965641df3d81269", "type": "electric_bike", "name": "daa9d4b4c8aeb8478965641df3d81269"}, {"is_disabled": 0, "is_reserved": 0, "fusion_lat": 0.0, "lat": 38.9247015, "fusion_lon": 0.0, "rental_uris": {"ios": "https://dc.lft.to/lastmile_qr_scan", "android": "https://dc.lft.to/lastmile_qr_scan"}, "lon": -77.03536983333333, "bike_id": "07270ea5cba3a0d8a511ac6843bb40a4", "type": "electric_scooter", "name": "07270ea5cba3a0d8a511ac6843bb40a4"}, {"is_disabled": 0, "is_reserved": 0, "fusion_lat": 0.0, "lat": 38.88276316666666, "fusion_lon": 0.0, "rental_uris": {"ios": "https://dc.lft.to/lastmile_qr_scan", "android": "https://dc.lft.to/lastmile_qr_scan"}, "lon": -76.93231616666667, "bike_id": "8d7e2884812304408502b90912cffef7", "type": "electric_bike", "name": "8d7e2884812304408502b90912cffef7"}, {"is_disabled": 0, "is_reserved": 0, "fusion_lat": 0.0, "lat": 38.922877166666666, "fusion_lon": 0.0, "rental_uris": {"ios": "https://dc.lft.to/lastmile_qr_scan", "android": "https://dc.lft.to/lastmile_qr_scan"}, "lon": -77.04217483333333, "bike_id": "db45020ef0016195ddf6e13d3771af32", "type": "electric_scooter", "name": "db45020ef0016195ddf6e13d3771af32"}, {"is_disabled": 0, "is_reserved": 0, "fusion_lat": 0.0, "lat": 38.90256816666667, "fusion_lon": 0.0, "rental_uris": {"ios": "https://dc.lft.to/lastmile_qr_scan", "android": "https://dc.lft.to/lastmile_qr_scan"}, "lon": -77.00164666666667, "bike_id": "cf3e1967c09296ba871ea936781b4112", "type": "electric_scooter", "name": "cf3e1967c09296ba871ea936781b4112"}, {"is_disabled": 0, "is_reserved": 0, "fusion_lat": 0.0, "lat": 38.9083205, "fusion_lon": 0.0, "rental_uris": {"ios": "https://dc.lft.to/lastmile_qr_scan", "android": "https://dc.lft.to/lastmile_qr_scan"}, "lon": -77.07310516666666, "bike_id": "7c0cf3e79b831555eef2d44924bc1893", "type": "electric_scooter", "name": "7c0cf3e79b831555eef2d44924bc1893"}, {"is_disabled": 0, "is_reserved": 0, "fusion_lat": 0.0, "lat": 38.92477566666667, "fusion_lon": 0.0, "rental_uris": {"ios": "https://dc.lft.to/lastmile_qr_scan", "android": "https://dc.lft.to/lastmile_qr_scan"}, "lon": -77.02791283333333, "bike_id": "ea3533a56c2d2cd129f79ac81f62e0df", "type": "electric_scooter", "name": "ea3533a56c2d2cd129f79ac81f62e0df"}, {"is_disabled": 0, "is_reserved": 0, "fusion_lat": 0.0, "lat": 38.920569, "fusion_lon": 0.0, "rental_uris": {"ios": "https://dc.lft.to/lastmile_qr_scan", "android": "https://dc.lft.to/lastmile_qr_scan"}, "lon": -77.0250025, "bike_id": "e6c94f7c54e2ae887219c887aa855ac3", "type": "electric_scooter", "name": "e6c94f7c54e2ae887219c887aa855ac3"}, {"is_disabled": 0, "is_reserved": 0, "fusion_lat": 0.0, "lat": 38.92784733333333, "fusion_lon": 0.0, "rental_uris": {"ios": "https://dc.lft.to/lastmile_qr_scan", "android": "https://dc.lft.to/lastmile_qr_scan"}, "lon": -77.0314885, "bike_id": "7520721bde73503e24be182f289f3a0f", "type": "electric_scooter", "name": "7520721bde73503e24be182f289f3a0f"}, {"is_disabled": 0, "is_reserved": 0, "fusion_lat": 0.0, "lat": 38.934522333333334, "fusion_lon": 0.0, "rental_uris": {"ios": "https://dc.lft.to/lastmile_qr_scan", "android": "https://dc.lft.to/lastmile_qr_scan"}, "lon": -77.02834416666667, "bike_id": "8c1e0bd81788f39172e8b7deda7dc7d4", "type": "electric_scooter", "name": "8c1e0bd81788f39172e8b7deda7dc7d4"}, {"is_disabled": 0, "is_reserved": 0, "fusion_lat": 0.0, "lat": 38.89690783333333, "fusion_lon": 0.0, "rental_uris": {"ios": "https://dc.lft.to/lastmile_qr_scan", "android": "https://dc.lft.to/lastmile_qr_scan"}, "lon": -77.023938, "bike_id": "e55c680f155b8e1180ff98effdcdc1d7", "type": "electric_scooter", "name": "e55c680f155b8e1180ff98effdcdc1d7"}, {"is_disabled": 0, "is_reserved": 0, "fusion_lat": 0.0, "lat": 38.917335333333334, "fusion_lon": 0.0, "rental_uris": {"ios": "https://dc.lft.to/lastmile_qr_scan", "android": "https://dc.lft.to/lastmile_qr_scan"}, "lon": -77.03313683333333, "bike_id": "a3d08a8f629cdba6abd2afc9827e368d", "type": "electric_scooter", "name": "a3d08a8f629cdba6abd2afc9827e368d"}, {"is_disabled": 0, "is_reserved": 0, "fusion_lat": 0.0, "lat": 38.9059355, "fusion_lon": 0.0, "rental_uris": {"ios": "https://dc.lft.to/lastmile_qr_scan", "android": "https://dc.lft.to/lastmile_qr_scan"}, "lon": -77.05136816666666, "bike_id": "8ae9852ba0d73074d3b43c00c64addef", "type": "electric_scooter", "name": "8ae9852ba0d73074d3b43c00c64addef"}, {"is_disabled": 0, "is_reserved": 0, "fusion_lat": 0.0, "lat": 38.9058715, "fusion_lon": 0.0, "rental_uris": {"ios": "https://dc.lft.to/lastmile_qr_scan", "android": "https://dc.lft.to/lastmile_qr_scan"}, "lon": -77.02181316666666, "bike_id": "ce93ee699f7404029abd84f708ac9141", "type": "electric_scooter", "name": "ce93ee699f7404029abd84f708ac9141"}, {"is_disabled": 0, "is_reserved": 0, "fusion_lat": 0.0, "lat": 38.92581283333333, "fusion_lon": 0.0, "rental_uris": {"ios": "https://dc.lft.to/lastmile_qr_scan", "android": "https://dc.lft.to/lastmile_qr_scan"}, "lon": -77.040152, "bike_id": "9090cc8e615076631d254299704da3f2", "type": "electric_bike", "name": "9090cc8e615076631d254299704da3f2"}, {"is_disabled": 0, "is_reserved": 0, "fusion_lat": 0.0, "lat": 38.912553333333335, "fusion_lon": 0.0, "rental_uris": {"ios": "https://dc.lft.to/lastmile_qr_scan", "android": "https://dc.lft.to/lastmile_qr_scan"}, "lon": -77.0194265, "bike_id": "b6bee193bd06cbaa8af516ed8fd13815", "type": "electric_scooter", "name": "b6bee193bd06cbaa8af516ed8fd13815"}, {"is_disabled": 0, "is_reserved": 0, "fusion_lat": 0.0, "lat": 38.925461, "fusion_lon": 0.0, "rental_uris": {"ios": "https://dc.lft.to/lastmile_qr_scan", "android": "https://dc.lft.to/lastmile_qr_scan"}, "lon": -77.0225445, "bike_id": "b5fcadbf44d7b0f087f34cb779f6be7c", "type": "electric_scooter", "name": "b5fcadbf44d7b0f087f34cb779f6be7c"}, {"is_disabled": 0, "is_reserved": 0, "fusion_lat": 0.0, "lat": 38.88629816666667, "fusion_lon": 0.0, "rental_uris": {"ios": "https://dc.lft.to/lastmile_qr_scan", "android": "https://dc.lft.to/lastmile_qr_scan"}, "lon": -77.02825916666667, "bike_id": "19bbc0e9c3b77a45d24b631aae2e9088", "type": "electric_scooter", "name": "19bbc0e9c3b77a45d24b631aae2e9088"}, {"is_disabled": 0, "is_reserved": 0, "fusion_lat": 0.0, "lat": 38.9084365, "fusion_lon": 0.0, "rental_uris": {"ios": "https://dc.lft.to/lastmile_qr_scan", "android": "https://dc.lft.to/lastmile_qr_scan"}, "lon": -76.93441866666667, "bike_id": "cbce45fbe9e416ede26c58fa3e72e35f", "type": "electric_scooter", "name": "cbce45fbe9e416ede26c58fa3e72e35f"}, {"is_disabled": 0, "is_reserved": 0, "fusion_lat": 0.0, "lat": 38.92383483333333, "fusion_lon": 0.0, "rental_uris": {"ios": "https://dc.lft.to/lastmile_qr_scan", "android": "https://dc.lft.to/lastmile_qr_scan"}, "lon": -77.0309365, "bike_id": "a4df7fd10a7562c5b68451e9c5bd8f0b", "type": "electric_scooter", "name": "a4df7fd10a7562c5b68451e9c5bd8f0b"}, {"is_disabled": 0, "is_reserved": 0, "fusion_lat": 0.0, "lat": 38.91421533333333, "fusion_lon": 0.0, "rental_uris": {"ios": "https://dc.lft.to/lastmile_qr_scan", "android": "https://dc.lft.to/lastmile_qr_scan"}, "lon": -77.03170733333333, "bike_id": "52a7ac81564bba6a7fe8b90aed386ea5", "type": "electric_scooter", "name": "52a7ac81564bba6a7fe8b90aed386ea5"}, {"is_disabled": 0, "is_reserved": 0, "fusion_lat": 0.0, "lat": 38.92747116666666, "fusion_lon": 0.0, "rental_uris": {"ios": "https://dc.lft.to/lastmile_qr_scan", "android": "https://dc.lft.to/lastmile_qr_scan"}, "lon": -77.0329755, "bike_id": "9a461a209601105660ee9ea215a97545", "type": "electric_scooter", "name": "9a461a209601105660ee9ea215a97545"}, {"is_disabled": 0, "is_reserved": 0, "fusion_lat": 0.0, "lat": 38.968015, "fusion_lon": 0.0, "rental_uris": {"ios": "https://dc.lft.to/lastmile_qr_scan", "android": "https://dc.lft.to/lastmile_qr_scan"}, "lon": -77.02435166666666, "bike_id": "b794f14bf6b20541a392a785fe8bf9f9", "type": "electric_scooter", "name": "b794f14bf6b20541a392a785fe8bf9f9"}, {"is_disabled": 0, "is_reserved": 0, "fusion_lat": 0.0, "lat": 38.948409833333336, "fusion_lon": 0.0, "rental_uris": {"ios": "https://dc.lft.to/lastmile_qr_scan", "android": "https://dc.lft.to/lastmile_qr_scan"}, "lon": -77.07979016666667, "bike_id": "ec2320c67fb1cdf3999ed1835e9ea03d", "type": "electric_scooter", "name": "ec2320c67fb1cdf3999ed1835e9ea03d"}, {"is_disabled": 0, "is_reserved": 0, "fusion_lat": 0.0, "lat": 38.8923165, "fusion_lon": 0.0, "rental_uris": {"ios": "https://dc.lft.to/lastmile_qr_scan", "android": "https://dc.lft.to/lastmile_qr_scan"}, "lon": -77.05000033333333, "bike_id": "75198e79642d950366b8fd4e10a76ed1", "type": "electric_scooter", "name": "75198e79642d950366b8fd4e10a76ed1"}, {"is_disabled": 0, "is_reserved": 0, "fusion_lat": 0.0, "lat": 38.917576833333335, "fusion_lon": 0.0, "rental_uris": {"ios": "https://dc.lft.to/lastmile_qr_scan", "android": "https://dc.lft.to/lastmile_qr_scan"}, "lon": -77.03910883333333, "bike_id": "1ac9621c791e5274cb98d0f661e5ddf7", "type": "electric_scooter", "name": "1ac9621c791e5274cb98d0f661e5ddf7"}, {"is_disabled": 0, "is_reserved": 0, "fusion_lat": 0.0, "lat": 38.91995933333333, "fusion_lon": 0.0, "rental_uris": {"ios": "https://dc.lft.to/lastmile_qr_scan", "android": "https://dc.lft.to/lastmile_qr_scan"}, "lon": -77.04741, "bike_id": "a26af440c9e6e6614a2d19025aefc90e", "type": "electric_scooter", "name": "a26af440c9e6e6614a2d19025aefc90e"}, {"is_disabled": 0, "is_reserved": 0, "fusion_lat": 0.0, "lat": 38.88357833333333, "fusion_lon": 0.0, "rental_uris": {"ios": "https://dc.lft.to/lastmile_qr_scan", "android": "https://dc.lft.to/lastmile_qr_scan"}, "lon": -76.95764533333333, "bike_id": "14c4a39d291d2dbd5a80358316fd4f77", "type": "electric_scooter", "name": "14c4a39d291d2dbd5a80358316fd4f77"}, {"is_disabled": 0, "is_reserved": 0, "fusion_lat": 0.0, "lat": 38.94458816666667, "fusion_lon": 0.0, "rental_uris": {"ios": "https://dc.lft.to/lastmile_qr_scan", "android": "https://dc.lft.to/lastmile_qr_scan"}, "lon": -77.0064555, "bike_id": "4ad0c0d255fcd7b4fe3e775bc86db649", "type": "electric_scooter", "name": "4ad0c0d255fcd7b4fe3e775bc86db649"}, {"is_disabled": 0, "is_reserved": 0, "fusion_lat": 0.0, "lat": 38.898445, "fusion_lon": 0.0, "rental_uris": {"ios": "https://dc.lft.to/lastmile_qr_scan", "android": "https://dc.lft.to/lastmile_qr_scan"}, "lon": -76.942549, "bike_id": "e256f4e093177fc87053ce13282c5397", "type": "electric_bike", "name": "e256f4e093177fc87053ce13282c5397"}, {"is_disabled": 0, "is_reserved": 0, "fusion_lat": 0.0, "lat": 38.876322333333334, "fusion_lon": 0.0, "rental_uris": {"ios": "https://dc.lft.to/lastmile_qr_scan", "android": "https://dc.lft.to/lastmile_qr_scan"}, "lon": -77.00953366666667, "bike_id": "2d293957a3a4f20938fae1d68017ba97", "type": "electric_scooter", "name": "2d293957a3a4f20938fae1d68017ba97"}, {"is_disabled": 0, "is_reserved": 0, "fusion_lat": 0.0, "lat": 38.90971416666667, "fusion_lon": 0.0, "rental_uris": {"ios": "https://dc.lft.to/lastmile_qr_scan", "android": "https://dc.lft.to/lastmile_qr_scan"}, "lon": -77.01717433333333, "bike_id": "879341349750ed7ffcc11541a14d99a7", "type": "electric_scooter", "name": "879341349750ed7ffcc11541a14d99a7"}, {"is_disabled": 0, "is_reserved": 0, "fusion_lat": 0.0, "lat": 38.87671, "fusion_lon": 0.0, "rental_uris": {"ios": "https://dc.lft.to/lastmile_qr_scan", "android": "https://dc.lft.to/lastmile_qr_scan"}, "lon": -77.017569, "bike_id": "560dcabbd4efbe33eab77d88ba16d955", "type": "electric_scooter", "name": "560dcabbd4efbe33eab77d88ba16d955"}, {"is_disabled": 0, "is_reserved": 0, "fusion_lat": 0.0, "lat": 38.921031166666666, "fusion_lon": 0.0, "rental_uris": {"ios": "https://dc.lft.to/lastmile_qr_scan", "android": "https://dc.lft.to/lastmile_qr_scan"}, "lon": -77.04166766666667, "bike_id": "e56948e3f74c8bc0113fb473abe2e61f", "type": "electric_scooter", "name": "e56948e3f74c8bc0113fb473abe2e61f"}, {"is_disabled": 0, "is_reserved": 0, "fusion_lat": 0.0, "lat": 38.89394733333334, "fusion_lon": 0.0, "rental_uris": {"ios": "https://dc.lft.to/lastmile_qr_scan", "android": "https://dc.lft.to/lastmile_qr_scan"}, "lon": -77.04645716666667, "bike_id": "c7fe8e75ebee16ac4b92b3338fd6aef0", "type": "electric_scooter", "name": "c7fe8e75ebee16ac4b92b3338fd6aef0"}, {"is_disabled": 0, "is_reserved": 0, "fusion_lat": 0.0, "lat": 38.912327833333336, "fusion_lon": 0.0, "rental_uris": {"ios": "https://dc.lft.to/lastmile_qr_scan", "android": "https://dc.lft.to/lastmile_qr_scan"}, "lon": -77.03199616666667, "bike_id": "b89dc8496f1a7c8a3bd329d89298b4c5", "type": "electric_scooter", "name": "b89dc8496f1a7c8a3bd329d89298b4c5"}, {"is_disabled": 0, "is_reserved": 0, "fusion_lat": 0.0, "lat": 38.90517766666667, "fusion_lon": 0.0, "rental_uris": {"ios": "https://dc.lft.to/lastmile_qr_scan", "android": "https://dc.lft.to/lastmile_qr_scan"}, "lon": -77.029461, "bike_id": "d772648c339b532864c304fde8566b71", "type": "electric_scooter", "name": "d772648c339b532864c304fde8566b71"}, {"is_disabled": 0, "is_reserved": 0, "fusion_lat": 0.0, "lat": 38.91112183333333, "fusion_lon": 0.0, "rental_uris": {"ios": "https://dc.lft.to/lastmile_qr_scan", "android": "https://dc.lft.to/lastmile_qr_scan"}, "lon": -77.03834333333333, "bike_id": "d507e00e0517e91d310d89fe2adb59ef", "type": "electric_scooter", "name": "d507e00e0517e91d310d89fe2adb59ef"}, {"is_disabled": 0, "is_reserved": 0, "fusion_lat": 0.0, "lat": 38.9141125, "fusion_lon": 0.0, "rental_uris": {"ios": "https://dc.lft.to/lastmile_qr_scan", "android": "https://dc.lft.to/lastmile_qr_scan"}, "lon": -77.02000216666667, "bike_id": "beb4e65624397d175b0e0e0c64136455", "type": "electric_bike", "name": "beb4e65624397d175b0e0e0c64136455"}, {"is_disabled": 0, "is_reserved": 0, "fusion_lat": 0.0, "lat": 38.91698483333333, "fusion_lon": 0.0, "rental_uris": {"ios": "https://dc.lft.to/lastmile_qr_scan", "android": "https://dc.lft.to/lastmile_qr_scan"}, "lon": -77.0372795, "bike_id": "4021b407c91a0e36c5b0bcd1e8896415", "type": "electric_scooter", "name": "4021b407c91a0e36c5b0bcd1e8896415"}, {"is_disabled": 0, "is_reserved": 0, "fusion_lat": 0.0, "lat": 38.864911, "fusion_lon": 0.0, "rental_uris": {"ios": "https://dc.lft.to/lastmile_qr_scan", "android": "https://dc.lft.to/lastmile_qr_scan"}, "lon": -76.97745566666667, "bike_id": "5b6bd7ac33c889403c96062a612b4647", "type": "electric_bike", "name": "5b6bd7ac33c889403c96062a612b4647"}, {"is_disabled": 0, "is_reserved": 0, "fusion_lat": 0.0, "lat": 38.91052216666667, "fusion_lon": 0.0, "rental_uris": {"ios": "https://dc.lft.to/lastmile_qr_scan", "android": "https://dc.lft.to/lastmile_qr_scan"}, "lon": -77.02294216666667, "bike_id": "9099352cf75c09cc051923e93e90a54d", "type": "electric_scooter", "name": "9099352cf75c09cc051923e93e90a54d"}, {"is_disabled": 0, "is_reserved": 0, "fusion_lat": 0.0, "lat": 38.9368605, "fusion_lon": 0.0, "rental_uris": {"ios": "https://dc.lft.to/lastmile_qr_scan", "android": "https://dc.lft.to/lastmile_qr_scan"}, "lon": -77.03283983333333, "bike_id": "10a85b86c03d011f8a80e7cf33f82b41", "type": "electric_scooter", "name": "10a85b86c03d011f8a80e7cf33f82b41"}, {"is_disabled": 0, "is_reserved": 0, "fusion_lat": 0.0, "lat": 38.926134833333336, "fusion_lon": 0.0, "rental_uris": {"ios": "https://dc.lft.to/lastmile_qr_scan", "android": "https://dc.lft.to/lastmile_qr_scan"}, "lon": -77.02265033333333, "bike_id": "726955bf2faff380c4944f052c94a987", "type": "electric_scooter", "name": "726955bf2faff380c4944f052c94a987"}, {"is_disabled": 0, "is_reserved": 0, "fusion_lat": 0.0, "lat": 38.90682183333333, "fusion_lon": 0.0, "rental_uris": {"ios": "https://dc.lft.to/lastmile_qr_scan", "android": "https://dc.lft.to/lastmile_qr_scan"}, "lon": -77.02709116666666, "bike_id": "24aec9747f665e9676991e4868e81563", "type": "electric_scooter", "name": "24aec9747f665e9676991e4868e81563"}, {"is_disabled": 0, "is_reserved": 0, "fusion_lat": 0.0, "lat": 38.94291416666667, "fusion_lon": 0.0, "rental_uris": {"ios": "https://dc.lft.to/lastmile_qr_scan", "android": "https://dc.lft.to/lastmile_qr_scan"}, "lon": -77.0770095, "bike_id": "f1d4e7e914c92ca9f7f8c23b19332547", "type": "electric_scooter", "name": "f1d4e7e914c92ca9f7f8c23b19332547"}, {"is_disabled": 0, "is_reserved": 0, "fusion_lat": 0.0, "lat": 38.91625466666667, "fusion_lon": 0.0, "rental_uris": {"ios": "https://dc.lft.to/lastmile_qr_scan", "android": "https://dc.lft.to/lastmile_qr_scan"}, "lon": -77.0505845, "bike_id": "e006c4cd6e60a351a57a846f653757d2", "type": "electric_scooter", "name": "e006c4cd6e60a351a57a846f653757d2"}, {"is_disabled": 0, "is_reserved": 0, "fusion_lat": 0.0, "lat": 38.967680666666666, "fusion_lon": 0.0, "rental_uris": {"ios": "https://dc.lft.to/lastmile_qr_scan", "android": "https://dc.lft.to/lastmile_qr_scan"}, "lon": -77.0333525, "bike_id": "af79881907ef839bbd087e428e168e18", "type": "electric_scooter", "name": "af79881907ef839bbd087e428e168e18"}, {"is_disabled": 0, "is_reserved": 0, "fusion_lat": 0.0, "lat": 38.925123666666664, "fusion_lon": 0.0, "rental_uris": {"ios": "https://dc.lft.to/lastmile_qr_scan", "android": "https://dc.lft.to/lastmile_qr_scan"}, "lon": -77.02126416666667, "bike_id": "3a9c8358beae0097309da2ea26c487bd", "type": "electric_scooter", "name": "3a9c8358beae0097309da2ea26c487bd"}, {"is_disabled": 0, "is_reserved": 0, "fusion_lat": 0.0, "lat": 38.93637316666667, "fusion_lon": 0.0, "rental_uris": {"ios": "https://dc.lft.to/lastmile_qr_scan", "android": "https://dc.lft.to/lastmile_qr_scan"}, "lon": -77.03688966666667, "bike_id": "b8db164c7910a083cfde435323d6723f", "type": "electric_scooter", "name": "b8db164c7910a083cfde435323d6723f"}, {"is_disabled": 0, "is_reserved": 0, "fusion_lat": 0.0, "lat": 38.891999, "fusion_lon": 0.0, "rental_uris": {"ios": "https://dc.lft.to/lastmile_qr_scan", "android": "https://dc.lft.to/lastmile_qr_scan"}, "lon": -77.0439125, "bike_id": "dbc1445a0a81d99e82798e7738fd9cbd", "type": "electric_scooter", "name": "dbc1445a0a81d99e82798e7738fd9cbd"}, {"is_disabled": 0, "is_reserved": 0, "fusion_lat": 0.0, "lat": 38.921554666666665, "fusion_lon": 0.0, "rental_uris": {"ios": "https://dc.lft.to/lastmile_qr_scan", "android": "https://dc.lft.to/lastmile_qr_scan"}, "lon": -77.03375783333334, "bike_id": "3fce8ccc3664d3bc60bdd99f1e261cb1", "type": "electric_scooter", "name": "3fce8ccc3664d3bc60bdd99f1e261cb1"}, {"is_disabled": 0, "is_reserved": 0, "fusion_lat": 0.0, "lat": 38.9008825, "fusion_lon": 0.0, "rental_uris": {"ios": "https://dc.lft.to/lastmile_qr_scan", "android": "https://dc.lft.to/lastmile_qr_scan"}, "lon": -77.047497, "bike_id": "6b85df2f14325cd746079e1fb195714a", "type": "electric_scooter", "name": "6b85df2f14325cd746079e1fb195714a"}, {"is_disabled": 0, "is_reserved": 0, "fusion_lat": 0.0, "lat": 38.92771033333333, "fusion_lon": 0.0, "rental_uris": {"ios": "https://dc.lft.to/lastmile_qr_scan", "android": "https://dc.lft.to/lastmile_qr_scan"}, "lon": -77.0525655, "bike_id": "9a546be2a73ebb181e9401a252d6426f", "type": "electric_scooter", "name": "9a546be2a73ebb181e9401a252d6426f"}, {"is_disabled": 0, "is_reserved": 0, "fusion_lat": 0.0, "lat": 38.92064416666667, "fusion_lon": 0.0, "rental_uris": {"ios": "https://dc.lft.to/lastmile_qr_scan", "android": "https://dc.lft.to/lastmile_qr_scan"}, "lon": -77.028356, "bike_id": "9e8289b74ca592da4bf1a2528f3f4d16", "type": "electric_scooter", "name": "9e8289b74ca592da4bf1a2528f3f4d16"}, {"is_disabled": 0, "is_reserved": 0, "fusion_lat": 0.0, "lat": 38.956962833333336, "fusion_lon": 0.0, "rental_uris": {"ios": "https://dc.lft.to/lastmile_qr_scan", "android": "https://dc.lft.to/lastmile_qr_scan"}, "lon": -77.02223233333333, "bike_id": "6e4e36e453b297b59fed40d2d4cb97cf", "type": "electric_bike", "name": "6e4e36e453b297b59fed40d2d4cb97cf"}, {"is_disabled": 0, "is_reserved": 0, "fusion_lat": 0.0, "lat": 38.89222266666667, "fusion_lon": 0.0, "rental_uris": {"ios": "https://dc.lft.to/lastmile_qr_scan", "android": "https://dc.lft.to/lastmile_qr_scan"}, "lon": -77.03333833333333, "bike_id": "9816ca565fc582ac09a0161d3b56d7e5", "type": "electric_scooter", "name": "9816ca565fc582ac09a0161d3b56d7e5"}, {"is_disabled": 0, "is_reserved": 0, "fusion_lat": 0.0, "lat": 38.95729933333333, "fusion_lon": 0.0, "rental_uris": {"ios": "https://dc.lft.to/lastmile_qr_scan", "android": "https://dc.lft.to/lastmile_qr_scan"}, "lon": -77.02395783333333, "bike_id": "93572080fcc5dc7a26e6f412699a9aaf", "type": "electric_scooter", "name": "93572080fcc5dc7a26e6f412699a9aaf"}, {"is_disabled": 0, "is_reserved": 0, "fusion_lat": 0.0, "lat": 38.94967416666667, "fusion_lon": 0.0, "rental_uris": {"ios": "https://dc.lft.to/lastmile_qr_scan", "android": "https://dc.lft.to/lastmile_qr_scan"}, "lon": -77.06748666666667, "bike_id": "a5ceab2b13fcd294cdb7a4dd5f956b41", "type": "electric_scooter", "name": "a5ceab2b13fcd294cdb7a4dd5f956b41"}, {"is_disabled": 0, "is_reserved": 0, "fusion_lat": 0.0, "lat": 38.907338333333335, "fusion_lon": 0.0, "rental_uris": {"ios": "https://dc.lft.to/lastmile_qr_scan", "android": "https://dc.lft.to/lastmile_qr_scan"}, "lon": -77.027989, "bike_id": "afcc6195ef68d77a16e4c2f0f5022a18", "type": "electric_scooter", "name": "afcc6195ef68d77a16e4c2f0f5022a18"}, {"is_disabled": 0, "is_reserved": 0, "fusion_lat": 0.0, "lat": 38.914183333333334, "fusion_lon": 0.0, "rental_uris": {"ios": "https://dc.lft.to/lastmile_qr_scan", "android": "https://dc.lft.to/lastmile_qr_scan"}, "lon": -77.03177233333334, "bike_id": "a855f269e0a60603d61f8b428205a2b0", "type": "electric_scooter", "name": "a855f269e0a60603d61f8b428205a2b0"}, {"is_disabled": 0, "is_reserved": 0, "fusion_lat": 0.0, "lat": 38.91711083333333, "fusion_lon": 0.0, "rental_uris": {"ios": "https://dc.lft.to/lastmile_qr_scan", "android": "https://dc.lft.to/lastmile_qr_scan"}, "lon": -77.03856233333333, "bike_id": "9c364139c7d52a64ad76ebd0ee541f54", "type": "electric_scooter", "name": "9c364139c7d52a64ad76ebd0ee541f54"}, {"is_disabled": 0, "is_reserved": 0, "fusion_lat": 0.0, "lat": 38.8277585, "fusion_lon": 0.0, "rental_uris": {"ios": "https://dc.lft.to/lastmile_qr_scan", "android": "https://dc.lft.to/lastmile_qr_scan"}, "lon": -77.060101, "bike_id": "99a55b26562e1e1950d4a89691ec9920", "type": "electric_bike", "name": "99a55b26562e1e1950d4a89691ec9920"}, {"is_disabled": 0, "is_reserved": 0, "fusion_lat": 0.0, "lat": 38.9517435, "fusion_lon": 0.0, "rental_uris": {"ios": "https://dc.lft.to/lastmile_qr_scan", "android": "https://dc.lft.to/lastmile_qr_scan"}, "lon": -77.0184925, "bike_id": "44e0199c036426a076252af5f591abb6", "type": "electric_scooter", "name": "44e0199c036426a076252af5f591abb6"}, {"is_disabled": 0, "is_reserved": 0, "fusion_lat": 0.0, "lat": 38.907134166666665, "fusion_lon": 0.0, "rental_uris": {"ios": "https://dc.lft.to/lastmile_qr_scan", "android": "https://dc.lft.to/lastmile_qr_scan"}, "lon": -77.03203633333334, "bike_id": "7aebc4242f5d9e4afe45e577880e46db", "type": "electric_scooter", "name": "7aebc4242f5d9e4afe45e577880e46db"}, {"is_disabled": 0, "is_reserved": 0, "fusion_lat": 0.0, "lat": 38.922319, "fusion_lon": 0.0, "rental_uris": {"ios": "https://dc.lft.to/lastmile_qr_scan", "android": "https://dc.lft.to/lastmile_qr_scan"}, "lon": -77.03513383333333, "bike_id": "7c87ce21f3c3bd0a50dcd9af17edf18b", "type": "electric_scooter", "name": "7c87ce21f3c3bd0a50dcd9af17edf18b"}, {"is_disabled": 0, "is_reserved": 0, "fusion_lat": 0.0, "lat": 38.9573345, "fusion_lon": 0.0, "rental_uris": {"ios": "https://dc.lft.to/lastmile_qr_scan", "android": "https://dc.lft.to/lastmile_qr_scan"}, "lon": -77.02404683333333, "bike_id": "beda6cce30068d0c2d11fbff0da0c802", "type": "electric_scooter", "name": "beda6cce30068d0c2d11fbff0da0c802"}, {"is_disabled": 0, "is_reserved": 0, "fusion_lat": 0.0, "lat": 38.86214666666667, "fusion_lon": 0.0, "rental_uris": {"ios": "https://dc.lft.to/lastmile_qr_scan", "android": "https://dc.lft.to/lastmile_qr_scan"}, "lon": -76.99475683333333, "bike_id": "c3656e962c32c3fa23e2518889ba4ada", "type": "electric_scooter", "name": "c3656e962c32c3fa23e2518889ba4ada"}, {"is_disabled": 0, "is_reserved": 0, "fusion_lat": 0.0, "lat": 38.925641666666664, "fusion_lon": 0.0, "rental_uris": {"ios": "https://dc.lft.to/lastmile_qr_scan", "android": "https://dc.lft.to/lastmile_qr_scan"}, "lon": -77.02281133333334, "bike_id": "478891ca89003aa279cb78fffd7bfc60", "type": "electric_scooter", "name": "478891ca89003aa279cb78fffd7bfc60"}, {"is_disabled": 0, "is_reserved": 0, "fusion_lat": 0.0, "lat": 38.9125725, "fusion_lon": 0.0, "rental_uris": {"ios": "https://dc.lft.to/lastmile_qr_scan", "android": "https://dc.lft.to/lastmile_qr_scan"}, "lon": -77.0190375, "bike_id": "1d8fbe46e9d0c1d1929c754465a0119d", "type": "electric_scooter", "name": "1d8fbe46e9d0c1d1929c754465a0119d"}, {"is_disabled": 0, "is_reserved": 0, "fusion_lat": 0.0, "lat": 38.921092, "fusion_lon": 0.0, "rental_uris": {"ios": "https://dc.lft.to/lastmile_qr_scan", "android": "https://dc.lft.to/lastmile_qr_scan"}, "lon": -77.03170266666666, "bike_id": "ba03be90b4fcb515e4be75110709deae", "type": "electric_scooter", "name": "ba03be90b4fcb515e4be75110709deae"}, {"is_disabled": 0, "is_reserved": 0, "fusion_lat": 0.0, "lat": 38.911158666666665, "fusion_lon": 0.0, "rental_uris": {"ios": "https://dc.lft.to/lastmile_qr_scan", "android": "https://dc.lft.to/lastmile_qr_scan"}, "lon": -77.03829283333333, "bike_id": "1f8adaaa179c9e3ecebeb13e87704bc2", "type": "electric_scooter", "name": "1f8adaaa179c9e3ecebeb13e87704bc2"}, {"is_disabled": 0, "is_reserved": 0, "fusion_lat": 0.0, "lat": 38.86891383333333, "fusion_lon": 0.0, "rental_uris": {"ios": "https://dc.lft.to/lastmile_qr_scan", "android": "https://dc.lft.to/lastmile_qr_scan"}, "lon": -76.9899865, "bike_id": "5043d07186e1689bd322fb5e01b8f888", "type": "electric_scooter", "name": "5043d07186e1689bd322fb5e01b8f888"}, {"is_disabled": 0, "is_reserved": 0, "fusion_lat": 0.0, "lat": 38.88659333333333, "fusion_lon": 0.0, "rental_uris": {"ios": "https://dc.lft.to/lastmile_qr_scan", "android": "https://dc.lft.to/lastmile_qr_scan"}, "lon": -77.02831416666666, "bike_id": "c49c918fcf48987f58423327181dbf54", "type": "electric_scooter", "name": "c49c918fcf48987f58423327181dbf54"}, {"is_disabled": 0, "is_reserved": 0, "fusion_lat": 0.0, "lat": 38.896037, "fusion_lon": 0.0, "rental_uris": {"ios": "https://dc.lft.to/lastmile_qr_scan", "android": "https://dc.lft.to/lastmile_qr_scan"}, "lon": -76.98316883333334, "bike_id": "cd3152629e439c122301c6eacae1a937", "type": "electric_scooter", "name": "cd3152629e439c122301c6eacae1a937"}, {"is_disabled": 0, "is_reserved": 0, "fusion_lat": 0.0, "lat": 38.9044195, "fusion_lon": 0.0, "rental_uris": {"ios": "https://dc.lft.to/lastmile_qr_scan", "android": "https://dc.lft.to/lastmile_qr_scan"}, "lon": -77.0269335, "bike_id": "0cd2188925ca1f6a33ac709845dfd34d", "type": "electric_scooter", "name": "0cd2188925ca1f6a33ac709845dfd34d"}, {"is_disabled": 0, "is_reserved": 0, "fusion_lat": 0.0, "lat": 38.87566733333333, "fusion_lon": 0.0, "rental_uris": {"ios": "https://dc.lft.to/lastmile_qr_scan", "android": "https://dc.lft.to/lastmile_qr_scan"}, "lon": -77.00596116666667, "bike_id": "7c94ac9bc3cc206a56a464016b46a835", "type": "electric_scooter", "name": "7c94ac9bc3cc206a56a464016b46a835"}, {"is_disabled": 0, "is_reserved": 0, "fusion_lat": 0.0, "lat": 38.91573416666667, "fusion_lon": 0.0, "rental_uris": {"ios": "https://dc.lft.to/lastmile_qr_scan", "android": "https://dc.lft.to/lastmile_qr_scan"}, "lon": -77.0504085, "bike_id": "8030756f2aed7e7e935ca493af9391e6", "type": "electric_scooter", "name": "8030756f2aed7e7e935ca493af9391e6"}, {"is_disabled": 0, "is_reserved": 0, "fusion_lat": 0.0, "lat": 38.91120216666667, "fusion_lon": 0.0, "rental_uris": {"ios": "https://dc.lft.to/lastmile_qr_scan", "android": "https://dc.lft.to/lastmile_qr_scan"}, "lon": -77.03828666666666, "bike_id": "45b1c44a1c77412d421c28127bfbbfa0", "type": "electric_scooter", "name": "45b1c44a1c77412d421c28127bfbbfa0"}, {"is_disabled": 0, "is_reserved": 0, "fusion_lat": 0.0, "lat": 38.93629083333333, "fusion_lon": 0.0, "rental_uris": {"ios": "https://dc.lft.to/lastmile_qr_scan", "android": "https://dc.lft.to/lastmile_qr_scan"}, "lon": -77.03648733333333, "bike_id": "68a2d6c2fdff0df39471ad1625d48b71", "type": "electric_scooter", "name": "68a2d6c2fdff0df39471ad1625d48b71"}, {"is_disabled": 0, "is_reserved": 0, "fusion_lat": 0.0, "lat": 39.074669166666666, "fusion_lon": 0.0, "rental_uris": {"ios": "https://dc.lft.to/lastmile_qr_scan", "android": "https://dc.lft.to/lastmile_qr_scan"}, "lon": -77.11518283333334, "bike_id": "00d254ef5fb077253a052294f68f0363", "type": "electric_bike", "name": "00d254ef5fb077253a052294f68f0363"}, {"is_disabled": 0, "is_reserved": 0, "fusion_lat": 0.0, "lat": 38.930004833333335, "fusion_lon": 0.0, "rental_uris": {"ios": "https://dc.lft.to/lastmile_qr_scan", "android": "https://dc.lft.to/lastmile_qr_scan"}, "lon": -77.02213516666667, "bike_id": "8cfeef3da43ff90c93d17d2e09352732", "type": "electric_scooter", "name": "8cfeef3da43ff90c93d17d2e09352732"}, {"is_disabled": 0, "is_reserved": 0, "fusion_lat": 0.0, "lat": 38.89251983333333, "fusion_lon": 0.0, "rental_uris": {"ios": "https://dc.lft.to/lastmile_qr_scan", "android": "https://dc.lft.to/lastmile_qr_scan"}, "lon": -77.046548, "bike_id": "277721d063922e8f9d0007a3ba384aba", "type": "electric_scooter", "name": "277721d063922e8f9d0007a3ba384aba"}, {"is_disabled": 0, "is_reserved": 0, "fusion_lat": 0.0, "lat": 38.8559225, "fusion_lon": 0.0, "rental_uris": {"ios": "https://dc.lft.to/lastmile_qr_scan", "android": "https://dc.lft.to/lastmile_qr_scan"}, "lon": -76.97274483333334, "bike_id": "854154048ae85ec6c98eae0e78fbbfab", "type": "electric_bike", "name": "854154048ae85ec6c98eae0e78fbbfab"}, {"is_disabled": 0, "is_reserved": 0, "fusion_lat": 0.0, "lat": 38.935889833333334, "fusion_lon": 0.0, "rental_uris": {"ios": "https://dc.lft.to/lastmile_qr_scan", "android": "https://dc.lft.to/lastmile_qr_scan"}, "lon": -77.0240405, "bike_id": "09004549b1cc4dfa603bfc2b75b4a73e", "type": "electric_scooter", "name": "09004549b1cc4dfa603bfc2b75b4a73e"}, {"is_disabled": 0, "is_reserved": 0, "fusion_lat": 0.0, "lat": 38.90202516666667, "fusion_lon": 0.0, "rental_uris": {"ios": "https://dc.lft.to/lastmile_qr_scan", "android": "https://dc.lft.to/lastmile_qr_scan"}, "lon": -77.02177333333333, "bike_id": "111da3b3ebb37f74120a3b0167b7ca88", "type": "electric_scooter", "name": "111da3b3ebb37f74120a3b0167b7ca88"}, {"is_disabled": 0, "is_reserved": 0, "fusion_lat": 0.0, "lat": 38.9210695, "fusion_lon": 0.0, "rental_uris": {"ios": "https://dc.lft.to/lastmile_qr_scan", "android": "https://dc.lft.to/lastmile_qr_scan"}, "lon": -77.04696, "bike_id": "27fa4f7a1a0746e18fe8e85543b5e22e", "type": "electric_scooter", "name": "27fa4f7a1a0746e18fe8e85543b5e22e"}, {"is_disabled": 0, "is_reserved": 0, "fusion_lat": 0.0, "lat": 38.907897, "fusion_lon": 0.0, "rental_uris": {"ios": "https://dc.lft.to/lastmile_qr_scan", "android": "https://dc.lft.to/lastmile_qr_scan"}, "lon": -77.010621, "bike_id": "ea7eebfc858907ff595b1936d0fa9bec", "type": "electric_scooter", "name": "ea7eebfc858907ff595b1936d0fa9bec"}, {"is_disabled": 0, "is_reserved": 0, "fusion_lat": 0.0, "lat": 38.80403533333333, "fusion_lon": 0.0, "rental_uris": {"ios": "https://dc.lft.to/lastmile_qr_scan", "android": "https://dc.lft.to/lastmile_qr_scan"}, "lon": -77.11328633333333, "bike_id": "022a0314c4294c5860dc9aa6833793aa", "type": "electric_bike", "name": "022a0314c4294c5860dc9aa6833793aa"}, {"is_disabled": 0, "is_reserved": 0, "fusion_lat": 0.0, "lat": 38.947518, "fusion_lon": 0.0, "rental_uris": {"ios": "https://dc.lft.to/lastmile_qr_scan", "android": "https://dc.lft.to/lastmile_qr_scan"}, "lon": -77.02347266666666, "bike_id": "0ccc04f138d825e0335246f39b71d16a", "type": "electric_scooter", "name": "0ccc04f138d825e0335246f39b71d16a"}, {"is_disabled": 0, "is_reserved": 0, "fusion_lat": 0.0, "lat": 38.906822, "fusion_lon": 0.0, "rental_uris": {"ios": "https://dc.lft.to/lastmile_qr_scan", "android": "https://dc.lft.to/lastmile_qr_scan"}, "lon": -77.027055, "bike_id": "158a9d70bc58889fc9b8d9d87a5497fc", "type": "electric_scooter", "name": "158a9d70bc58889fc9b8d9d87a5497fc"}, {"is_disabled": 0, "is_reserved": 0, "fusion_lat": 0.0, "lat": 38.955960833333336, "fusion_lon": 0.0, "rental_uris": {"ios": "https://dc.lft.to/lastmile_qr_scan", "android": "https://dc.lft.to/lastmile_qr_scan"}, "lon": -77.02804883333333, "bike_id": "56605e0a2063164b6a5a6e93f8a48467", "type": "electric_scooter", "name": "56605e0a2063164b6a5a6e93f8a48467"}, {"is_disabled": 0, "is_reserved": 0, "fusion_lat": 0.0, "lat": 38.90732966666667, "fusion_lon": 0.0, "rental_uris": {"ios": "https://dc.lft.to/lastmile_qr_scan", "android": "https://dc.lft.to/lastmile_qr_scan"}, "lon": -77.02733816666667, "bike_id": "ba8a0ebee9ff4e8332c4b84c5f27f165", "type": "electric_scooter", "name": "ba8a0ebee9ff4e8332c4b84c5f27f165"}, {"is_disabled": 0, "is_reserved": 0, "fusion_lat": 0.0, "lat": 38.951386166666666, "fusion_lon": 0.0, "rental_uris": {"ios": "https://dc.lft.to/lastmile_qr_scan", "android": "https://dc.lft.to/lastmile_qr_scan"}, "lon": -76.9662105, "bike_id": "6bf1fdb481b14d0e6425d1de881a510b", "type": "electric_bike", "name": "6bf1fdb481b14d0e6425d1de881a510b"}, {"is_disabled": 0, "is_reserved": 0, "fusion_lat": 0.0, "lat": 38.85787333333333, "fusion_lon": 0.0, "rental_uris": {"ios": "https://dc.lft.to/lastmile_qr_scan", "android": "https://dc.lft.to/lastmile_qr_scan"}, "lon": -77.09959833333333, "bike_id": "847b32a7ebe99e3229d9f409eced2a6b", "type": "electric_bike", "name": "847b32a7ebe99e3229d9f409eced2a6b"}, {"is_disabled": 0, "is_reserved": 0, "fusion_lat": 0.0, "lat": 38.961853, "fusion_lon": 0.0, "rental_uris": {"ios": "https://dc.lft.to/lastmile_qr_scan", "android": "https://dc.lft.to/lastmile_qr_scan"}, "lon": -77.09897383333333, "bike_id": "8137faa1e8a3731d50ec15be90743939", "type": "electric_bike", "name": "8137faa1e8a3731d50ec15be90743939"}, {"is_disabled": 0, "is_reserved": 0, "fusion_lat": 0.0, "lat": 38.877129, "fusion_lon": 0.0, "rental_uris": {"ios": "https://dc.lft.to/lastmile_qr_scan", "android": "https://dc.lft.to/lastmile_qr_scan"}, "lon": -77.01655416666667, "bike_id": "9409ea7b591f98deff098094a35d4ebb", "type": "electric_scooter", "name": "9409ea7b591f98deff098094a35d4ebb"}, {"is_disabled": 0, "is_reserved": 0, "fusion_lat": 0.0, "lat": 38.89692616666667, "fusion_lon": 0.0, "rental_uris": {"ios": "https://dc.lft.to/lastmile_qr_scan", "android": "https://dc.lft.to/lastmile_qr_scan"}, "lon": -77.024044, "bike_id": "339d3fbe42923435b0e9ab991b0ab044", "type": "electric_scooter", "name": "339d3fbe42923435b0e9ab991b0ab044"}, {"is_disabled": 0, "is_reserved": 0, "fusion_lat": 0.0, "lat": 38.89222216666667, "fusion_lon": 0.0, "rental_uris": {"ios": "https://dc.lft.to/lastmile_qr_scan", "android": "https://dc.lft.to/lastmile_qr_scan"}, "lon": -77.04683516666667, "bike_id": "c17f9bea9b3b64b2146a07f913327dcc", "type": "electric_scooter", "name": "c17f9bea9b3b64b2146a07f913327dcc"}, {"is_disabled": 0, "is_reserved": 0, "fusion_lat": 0.0, "lat": 38.915600833333336, "fusion_lon": 0.0, "rental_uris": {"ios": "https://dc.lft.to/lastmile_qr_scan", "android": "https://dc.lft.to/lastmile_qr_scan"}, "lon": -77.03143583333333, "bike_id": "643f733aaa5126a90681fbe475475c1e", "type": "electric_scooter", "name": "643f733aaa5126a90681fbe475475c1e"}, {"is_disabled": 0, "is_reserved": 0, "fusion_lat": 0.0, "lat": 38.925216, "fusion_lon": 0.0, "rental_uris": {"ios": "https://dc.lft.to/lastmile_qr_scan", "android": "https://dc.lft.to/lastmile_qr_scan"}, "lon": -77.02951533333334, "bike_id": "6a600f23084de0e225f67f8dc8e9de1c", "type": "electric_scooter", "name": "6a600f23084de0e225f67f8dc8e9de1c"}, {"is_disabled": 0, "is_reserved": 0, "fusion_lat": 0.0, "lat": 38.8933535, "fusion_lon": 0.0, "rental_uris": {"ios": "https://dc.lft.to/lastmile_qr_scan", "android": "https://dc.lft.to/lastmile_qr_scan"}, "lon": -76.92889033333333, "bike_id": "6fc4da3acf7f5c6f20a84fc13c2a5736", "type": "electric_scooter", "name": "6fc4da3acf7f5c6f20a84fc13c2a5736"}, {"is_disabled": 0, "is_reserved": 0, "fusion_lat": 0.0, "lat": 38.88737066666667, "fusion_lon": 0.0, "rental_uris": {"ios": "https://dc.lft.to/lastmile_qr_scan", "android": "https://dc.lft.to/lastmile_qr_scan"}, "lon": -76.98356116666666, "bike_id": "2f2cea532b0c0cb362bee2f4658633e9", "type": "electric_bike", "name": "2f2cea532b0c0cb362bee2f4658633e9"}, {"is_disabled": 0, "is_reserved": 0, "fusion_lat": 0.0, "lat": 38.92735583333334, "fusion_lon": 0.0, "rental_uris": {"ios": "https://dc.lft.to/lastmile_qr_scan", "android": "https://dc.lft.to/lastmile_qr_scan"}, "lon": -77.0229945, "bike_id": "5bc2cbb268f1ca9abb5a54ffae63b4c4", "type": "electric_scooter", "name": "5bc2cbb268f1ca9abb5a54ffae63b4c4"}, {"is_disabled": 0, "is_reserved": 0, "fusion_lat": 0.0, "lat": 38.863723, "fusion_lon": 0.0, "rental_uris": {"ios": "https://dc.lft.to/lastmile_qr_scan", "android": "https://dc.lft.to/lastmile_qr_scan"}, "lon": -77.01365866666667, "bike_id": "7cb0d9c4fb709e5f624597a011f220fb", "type": "electric_scooter", "name": "7cb0d9c4fb709e5f624597a011f220fb"}, {"is_disabled": 0, "is_reserved": 0, "fusion_lat": 0.0, "lat": 38.85513733333333, "fusion_lon": 0.0, "rental_uris": {"ios": "https://dc.lft.to/lastmile_qr_scan", "android": "https://dc.lft.to/lastmile_qr_scan"}, "lon": -77.10154783333333, "bike_id": "309da2d07962e5be4ca0c103addc9c4f", "type": "electric_bike", "name": "309da2d07962e5be4ca0c103addc9c4f"}, {"is_disabled": 0, "is_reserved": 0, "fusion_lat": 0.0, "lat": 38.932502166666666, "fusion_lon": 0.0, "rental_uris": {"ios": "https://dc.lft.to/lastmile_qr_scan", "android": "https://dc.lft.to/lastmile_qr_scan"}, "lon": -77.03278233333333, "bike_id": "d6fda019451fae48e974b7434c43ffbb", "type": "electric_scooter", "name": "d6fda019451fae48e974b7434c43ffbb"}, {"is_disabled": 0, "is_reserved": 0, "fusion_lat": 0.0, "lat": 38.899991166666666, "fusion_lon": 0.0, "rental_uris": {"ios": "https://dc.lft.to/lastmile_qr_scan", "android": "https://dc.lft.to/lastmile_qr_scan"}, "lon": -77.027026, "bike_id": "8964db1fec01cffee831532ba36d7bbe", "type": "electric_scooter", "name": "8964db1fec01cffee831532ba36d7bbe"}, {"is_disabled": 0, "is_reserved": 0, "fusion_lat": 0.0, "lat": 38.927193833333334, "fusion_lon": 0.0, "rental_uris": {"ios": "https://dc.lft.to/lastmile_qr_scan", "android": "https://dc.lft.to/lastmile_qr_scan"}, "lon": -77.05138683333334, "bike_id": "82a4fd7fa6d579538313de8415da9ad2", "type": "electric_scooter", "name": "82a4fd7fa6d579538313de8415da9ad2"}, {"is_disabled": 0, "is_reserved": 0, "fusion_lat": 0.0, "lat": 38.892755, "fusion_lon": 0.0, "rental_uris": {"ios": "https://dc.lft.to/lastmile_qr_scan", "android": "https://dc.lft.to/lastmile_qr_scan"}, "lon": -77.046513, "bike_id": "a3be65c072b827c2fae2f88611c80c92", "type": "electric_scooter", "name": "a3be65c072b827c2fae2f88611c80c92"}, {"is_disabled": 0, "is_reserved": 0, "fusion_lat": 0.0, "lat": 38.92481866666667, "fusion_lon": 0.0, "rental_uris": {"ios": "https://dc.lft.to/lastmile_qr_scan", "android": "https://dc.lft.to/lastmile_qr_scan"}, "lon": -77.02616333333333, "bike_id": "876347d04bf907b748ccfc042b4a270c", "type": "electric_scooter", "name": "876347d04bf907b748ccfc042b4a270c"}, {"is_disabled": 0, "is_reserved": 0, "fusion_lat": 0.0, "lat": 38.87856933333333, "fusion_lon": 0.0, "rental_uris": {"ios": "https://dc.lft.to/lastmile_qr_scan", "android": "https://dc.lft.to/lastmile_qr_scan"}, "lon": -77.01872733333333, "bike_id": "03244779654e23fe77fbc4cd6fd495b8", "type": "electric_scooter", "name": "03244779654e23fe77fbc4cd6fd495b8"}, {"is_disabled": 0, "is_reserved": 0, "fusion_lat": 0.0, "lat": 38.876712166666664, "fusion_lon": 0.0, "rental_uris": {"ios": "https://dc.lft.to/lastmile_qr_scan", "android": "https://dc.lft.to/lastmile_qr_scan"}, "lon": -77.0144475, "bike_id": "74527de640a913bf34842a7a800e3ade", "type": "electric_bike", "name": "74527de640a913bf34842a7a800e3ade"}, {"is_disabled": 0, "is_reserved": 0, "fusion_lat": 0.0, "lat": 38.95080683333333, "fusion_lon": 0.0, "rental_uris": {"ios": "https://dc.lft.to/lastmile_qr_scan", "android": "https://dc.lft.to/lastmile_qr_scan"}, "lon": -77.01195733333333, "bike_id": "de964055f874ea4fbcbf2b3bf5f3333c", "type": "electric_bike", "name": "de964055f874ea4fbcbf2b3bf5f3333c"}, {"is_disabled": 0, "is_reserved": 0, "fusion_lat": 0.0, "lat": 38.848569, "fusion_lon": 0.0, "rental_uris": {"ios": "https://dc.lft.to/lastmile_qr_scan", "android": "https://dc.lft.to/lastmile_qr_scan"}, "lon": -77.0682695, "bike_id": "6df3889ce8e4e52ab6b97be04a0e4bf6", "type": "electric_bike", "name": "6df3889ce8e4e52ab6b97be04a0e4bf6"}, {"is_disabled": 0, "is_reserved": 0, "fusion_lat": 0.0, "lat": 38.92764616666667, "fusion_lon": 0.0, "rental_uris": {"ios": "https://dc.lft.to/lastmile_qr_scan", "android": "https://dc.lft.to/lastmile_qr_scan"}, "lon": -77.0288215, "bike_id": "3db3eb2998a3a15c2755662bb6af04bd", "type": "electric_scooter", "name": "3db3eb2998a3a15c2755662bb6af04bd"}, {"is_disabled": 0, "is_reserved": 0, "fusion_lat": 0.0, "lat": 38.8974265, "fusion_lon": 0.0, "rental_uris": {"ios": "https://dc.lft.to/lastmile_qr_scan", "android": "https://dc.lft.to/lastmile_qr_scan"}, "lon": -76.99216433333333, "bike_id": "07ab511d465127b4f7af1b03e7c3dbed", "type": "electric_bike", "name": "07ab511d465127b4f7af1b03e7c3dbed"}, {"is_disabled": 0, "is_reserved": 0, "fusion_lat": 0.0, "lat": 38.9359425, "fusion_lon": 0.0, "rental_uris": {"ios": "https://dc.lft.to/lastmile_qr_scan", "android": "https://dc.lft.to/lastmile_qr_scan"}, "lon": -77.02853183333333, "bike_id": "806c45828eca5b9c0dbf3325fc61f01d", "type": "electric_scooter", "name": "806c45828eca5b9c0dbf3325fc61f01d"}, {"is_disabled": 0, "is_reserved": 0, "fusion_lat": 0.0, "lat": 38.91550516666667, "fusion_lon": 0.0, "rental_uris": {"ios": "https://dc.lft.to/lastmile_qr_scan", "android": "https://dc.lft.to/lastmile_qr_scan"}, "lon": -77.03168233333334, "bike_id": "1d9329d6c33fea637e1b6dff554e337f", "type": "electric_scooter", "name": "1d9329d6c33fea637e1b6dff554e337f"}, {"is_disabled": 0, "is_reserved": 0, "fusion_lat": 0.0, "lat": 38.8972445, "fusion_lon": 0.0, "rental_uris": {"ios": "https://dc.lft.to/lastmile_qr_scan", "android": "https://dc.lft.to/lastmile_qr_scan"}, "lon": -77.02792316666667, "bike_id": "c254e67ac9ad8a0492e75293a182e950", "type": "electric_scooter", "name": "c254e67ac9ad8a0492e75293a182e950"}, {"is_disabled": 0, "is_reserved": 0, "fusion_lat": 0.0, "lat": 38.919541, "fusion_lon": 0.0, "rental_uris": {"ios": "https://dc.lft.to/lastmile_qr_scan", "android": "https://dc.lft.to/lastmile_qr_scan"}, "lon": -77.07871483333334, "bike_id": "54714822438bd63e55f68d780fa1859f", "type": "electric_scooter", "name": "54714822438bd63e55f68d780fa1859f"}, {"is_disabled": 0, "is_reserved": 0, "fusion_lat": 0.0, "lat": 38.907416166666664, "fusion_lon": 0.0, "rental_uris": {"ios": "https://dc.lft.to/lastmile_qr_scan", "android": "https://dc.lft.to/lastmile_qr_scan"}, "lon": -77.00172966666666, "bike_id": "c5e817769369950f16943d5c4e74d77d", "type": "electric_scooter", "name": "c5e817769369950f16943d5c4e74d77d"}, {"is_disabled": 0, "is_reserved": 0, "fusion_lat": 0.0, "lat": 38.91711633333333, "fusion_lon": 0.0, "rental_uris": {"ios": "https://dc.lft.to/lastmile_qr_scan", "android": "https://dc.lft.to/lastmile_qr_scan"}, "lon": -77.03856733333333, "bike_id": "dd0563374b8c5cd23019208c6262062b", "type": "electric_scooter", "name": "dd0563374b8c5cd23019208c6262062b"}, {"is_disabled": 0, "is_reserved": 0, "fusion_lat": 0.0, "lat": 38.92912583333333, "fusion_lon": 0.0, "rental_uris": {"ios": "https://dc.lft.to/lastmile_qr_scan", "android": "https://dc.lft.to/lastmile_qr_scan"}, "lon": -77.03229883333333, "bike_id": "4c25a1e21fc6b96d26be8db3ae157a69", "type": "electric_scooter", "name": "4c25a1e21fc6b96d26be8db3ae157a69"}, {"is_disabled": 0, "is_reserved": 0, "fusion_lat": 0.0, "lat": 38.879425499999996, "fusion_lon": 0.0, "rental_uris": {"ios": "https://dc.lft.to/lastmile_qr_scan", "android": "https://dc.lft.to/lastmile_qr_scan"}, "lon": -77.0078285, "bike_id": "fb247e6899d2ede562a2d57cc6c68230", "type": "electric_scooter", "name": "fb247e6899d2ede562a2d57cc6c68230"}, {"is_disabled": 0, "is_reserved": 0, "fusion_lat": 0.0, "lat": 38.920931333333336, "fusion_lon": 0.0, "rental_uris": {"ios": "https://dc.lft.to/lastmile_qr_scan", "android": "https://dc.lft.to/lastmile_qr_scan"}, "lon": -77.017718, "bike_id": "c49693a722729be178f7f0715f6559ee", "type": "electric_scooter", "name": "c49693a722729be178f7f0715f6559ee"}, {"is_disabled": 0, "is_reserved": 0, "fusion_lat": 0.0, "lat": 38.928418, "fusion_lon": 0.0, "rental_uris": {"ios": "https://dc.lft.to/lastmile_qr_scan", "android": "https://dc.lft.to/lastmile_qr_scan"}, "lon": -77.037258, "bike_id": "b7bd96c63dbd799efc0a7c286388da7a", "type": "electric_scooter", "name": "b7bd96c63dbd799efc0a7c286388da7a"}, {"is_disabled": 0, "is_reserved": 0, "fusion_lat": 0.0, "lat": 38.91681333333333, "fusion_lon": 0.0, "rental_uris": {"ios": "https://dc.lft.to/lastmile_qr_scan", "android": "https://dc.lft.to/lastmile_qr_scan"}, "lon": -77.02961516666667, "bike_id": "d65592c8d699724d187746f3e53f4b6a", "type": "electric_scooter", "name": "d65592c8d699724d187746f3e53f4b6a"}, {"is_disabled": 0, "is_reserved": 0, "fusion_lat": 0.0, "lat": 38.871714, "fusion_lon": 0.0, "rental_uris": {"ios": "https://dc.lft.to/lastmile_qr_scan", "android": "https://dc.lft.to/lastmile_qr_scan"}, "lon": -77.00624633333334, "bike_id": "650d46174be1c7e972c29d7ff93529b8", "type": "electric_scooter", "name": "650d46174be1c7e972c29d7ff93529b8"}, {"is_disabled": 0, "is_reserved": 0, "fusion_lat": 0.0, "lat": 38.93856683333333, "fusion_lon": 0.0, "rental_uris": {"ios": "https://dc.lft.to/lastmile_qr_scan", "android": "https://dc.lft.to/lastmile_qr_scan"}, "lon": -76.994273, "bike_id": "15eb778a36579f7d3f45d0999f8900ec", "type": "electric_scooter", "name": "15eb778a36579f7d3f45d0999f8900ec"}, {"is_disabled": 0, "is_reserved": 0, "fusion_lat": 0.0, "lat": 38.923355666666666, "fusion_lon": 0.0, "rental_uris": {"ios": "https://dc.lft.to/lastmile_qr_scan", "android": "https://dc.lft.to/lastmile_qr_scan"}, "lon": -77.05672633333333, "bike_id": "717de9d3b42b73e49f01a53e09241931", "type": "electric_scooter", "name": "717de9d3b42b73e49f01a53e09241931"}, {"is_disabled": 0, "is_reserved": 0, "fusion_lat": 0.0, "lat": 38.935558, "fusion_lon": 0.0, "rental_uris": {"ios": "https://dc.lft.to/lastmile_qr_scan", "android": "https://dc.lft.to/lastmile_qr_scan"}, "lon": -77.076971, "bike_id": "e64a8d0c64f2cbc0b6cef4c23fa50b6a", "type": "electric_scooter", "name": "e64a8d0c64f2cbc0b6cef4c23fa50b6a"}, {"is_disabled": 0, "is_reserved": 0, "fusion_lat": 0.0, "lat": 38.891782666666664, "fusion_lon": 0.0, "rental_uris": {"ios": "https://dc.lft.to/lastmile_qr_scan", "android": "https://dc.lft.to/lastmile_qr_scan"}, "lon": -77.03176833333333, "bike_id": "534494ced36de61061288003efc0ff62", "type": "electric_scooter", "name": "534494ced36de61061288003efc0ff62"}, {"is_disabled": 0, "is_reserved": 0, "fusion_lat": 0.0, "lat": 38.925907333333335, "fusion_lon": 0.0, "rental_uris": {"ios": "https://dc.lft.to/lastmile_qr_scan", "android": "https://dc.lft.to/lastmile_qr_scan"}, "lon": -77.0440825, "bike_id": "f5ee7a7556cf820e72d838dfc02a4185", "type": "electric_scooter", "name": "f5ee7a7556cf820e72d838dfc02a4185"}, {"is_disabled": 0, "is_reserved": 0, "fusion_lat": 0.0, "lat": 38.913214833333335, "fusion_lon": 0.0, "rental_uris": {"ios": "https://dc.lft.to/lastmile_qr_scan", "android": "https://dc.lft.to/lastmile_qr_scan"}, "lon": -77.031775, "bike_id": "b96b5a57679e1db1933b837bd763409d", "type": "electric_scooter", "name": "b96b5a57679e1db1933b837bd763409d"}, {"is_disabled": 0, "is_reserved": 0, "fusion_lat": 0.0, "lat": 38.89236283333334, "fusion_lon": 0.0, "rental_uris": {"ios": "https://dc.lft.to/lastmile_qr_scan", "android": "https://dc.lft.to/lastmile_qr_scan"}, "lon": -77.03172, "bike_id": "3107ec32ab466b89e7d723b7c28e61f3", "type": "electric_scooter", "name": "3107ec32ab466b89e7d723b7c28e61f3"}, {"is_disabled": 0, "is_reserved": 0, "fusion_lat": 0.0, "lat": 38.914147166666666, "fusion_lon": 0.0, "rental_uris": {"ios": "https://dc.lft.to/lastmile_qr_scan", "android": "https://dc.lft.to/lastmile_qr_scan"}, "lon": -77.03167133333334, "bike_id": "65a6352d2651f83b1fecf83dbbdd4549", "type": "electric_scooter", "name": "65a6352d2651f83b1fecf83dbbdd4549"}, {"is_disabled": 0, "is_reserved": 0, "fusion_lat": 0.0, "lat": 38.92480166666667, "fusion_lon": 0.0, "rental_uris": {"ios": "https://dc.lft.to/lastmile_qr_scan", "android": "https://dc.lft.to/lastmile_qr_scan"}, "lon": -77.02832983333333, "bike_id": "f5cec6c7d2a5434e2eaf41b556fde269", "type": "electric_scooter", "name": "f5cec6c7d2a5434e2eaf41b556fde269"}, {"is_disabled": 0, "is_reserved": 0, "fusion_lat": 0.0, "lat": 38.92823683333334, "fusion_lon": 0.0, "rental_uris": {"ios": "https://dc.lft.to/lastmile_qr_scan", "android": "https://dc.lft.to/lastmile_qr_scan"}, "lon": -77.02252583333333, "bike_id": "70402db8946b2c813b437a794d3f22e3", "type": "electric_scooter", "name": "70402db8946b2c813b437a794d3f22e3"}, {"is_disabled": 0, "is_reserved": 0, "fusion_lat": 0.0, "lat": 38.927087666666665, "fusion_lon": 0.0, "rental_uris": {"ios": "https://dc.lft.to/lastmile_qr_scan", "android": "https://dc.lft.to/lastmile_qr_scan"}, "lon": -77.03812483333333, "bike_id": "a2e57ebe5da346a5af71f5a948d639e1", "type": "electric_scooter", "name": "a2e57ebe5da346a5af71f5a948d639e1"}, {"is_disabled": 0, "is_reserved": 0, "fusion_lat": 0.0, "lat": 38.95745483333334, "fusion_lon": 0.0, "rental_uris": {"ios": "https://dc.lft.to/lastmile_qr_scan", "android": "https://dc.lft.to/lastmile_qr_scan"}, "lon": -77.0206065, "bike_id": "0c1a617304b3da90de4617ad6cf92f00", "type": "electric_scooter", "name": "0c1a617304b3da90de4617ad6cf92f00"}, {"is_disabled": 0, "is_reserved": 0, "fusion_lat": 0.0, "lat": 38.983672166666665, "fusion_lon": 0.0, "rental_uris": {"ios": "https://dc.lft.to/lastmile_qr_scan", "android": "https://dc.lft.to/lastmile_qr_scan"}, "lon": -76.9884815, "bike_id": "95912856fe824130cf8ac2f9af3f5c26", "type": "electric_bike", "name": "95912856fe824130cf8ac2f9af3f5c26"}, {"is_disabled": 0, "is_reserved": 0, "fusion_lat": 0.0, "lat": 38.923331, "fusion_lon": 0.0, "rental_uris": {"ios": "https://dc.lft.to/lastmile_qr_scan", "android": "https://dc.lft.to/lastmile_qr_scan"}, "lon": -77.05679, "bike_id": "03e27e73f086fc68bcbe3eff35a7a81a", "type": "electric_scooter", "name": "03e27e73f086fc68bcbe3eff35a7a81a"}, {"is_disabled": 0, "is_reserved": 0, "fusion_lat": 0.0, "lat": 38.856002333333336, "fusion_lon": 0.0, "rental_uris": {"ios": "https://dc.lft.to/lastmile_qr_scan", "android": "https://dc.lft.to/lastmile_qr_scan"}, "lon": -76.9855115, "bike_id": "c44d241ef2a98f44afa671bb3c6ad187", "type": "electric_scooter", "name": "c44d241ef2a98f44afa671bb3c6ad187"}, {"is_disabled": 0, "is_reserved": 0, "fusion_lat": 0.0, "lat": 38.918056666666665, "fusion_lon": 0.0, "rental_uris": {"ios": "https://dc.lft.to/lastmile_qr_scan", "android": "https://dc.lft.to/lastmile_qr_scan"}, "lon": -77.04002233333334, "bike_id": "af6faa97b9092ee7467ee19cfec5757a", "type": "electric_scooter", "name": "af6faa97b9092ee7467ee19cfec5757a"}, {"is_disabled": 0, "is_reserved": 0, "fusion_lat": 0.0, "lat": 38.894802, "fusion_lon": 0.0, "rental_uris": {"ios": "https://dc.lft.to/lastmile_qr_scan", "android": "https://dc.lft.to/lastmile_qr_scan"}, "lon": -77.041514, "bike_id": "1646ab1f30eb3f1fc8e91f861bd9d08d", "type": "electric_scooter", "name": "1646ab1f30eb3f1fc8e91f861bd9d08d"}, {"is_disabled": 0, "is_reserved": 0, "fusion_lat": 0.0, "lat": 38.91922316666667, "fusion_lon": 0.0, "rental_uris": {"ios": "https://dc.lft.to/lastmile_qr_scan", "android": "https://dc.lft.to/lastmile_qr_scan"}, "lon": -77.03420233333334, "bike_id": "eaa38b5d8dc44270b5c9f568f69a55f1", "type": "electric_scooter", "name": "eaa38b5d8dc44270b5c9f568f69a55f1"}, {"is_disabled": 0, "is_reserved": 0, "fusion_lat": 0.0, "lat": 38.85559966666667, "fusion_lon": 0.0, "rental_uris": {"ios": "https://dc.lft.to/lastmile_qr_scan", "android": "https://dc.lft.to/lastmile_qr_scan"}, "lon": -77.06404433333333, "bike_id": "f4927df5d17b33294b1a7cfedc423823", "type": "electric_bike", "name": "f4927df5d17b33294b1a7cfedc423823"}, {"is_disabled": 0, "is_reserved": 0, "fusion_lat": 0.0, "lat": 38.84225516666667, "fusion_lon": 0.0, "rental_uris": {"ios": "https://dc.lft.to/lastmile_qr_scan", "android": "https://dc.lft.to/lastmile_qr_scan"}, "lon": -76.94889483333333, "bike_id": "7dbc98be867571e5c0a2891916dd4daf", "type": "electric_bike", "name": "7dbc98be867571e5c0a2891916dd4daf"}, {"is_disabled": 0, "is_reserved": 0, "fusion_lat": 0.0, "lat": 38.922534166666665, "fusion_lon": 0.0, "rental_uris": {"ios": "https://dc.lft.to/lastmile_qr_scan", "android": "https://dc.lft.to/lastmile_qr_scan"}, "lon": -77.0365225, "bike_id": "6737bf071010867b09b55a3ef4ed2d92", "type": "electric_scooter", "name": "6737bf071010867b09b55a3ef4ed2d92"}, {"is_disabled": 0, "is_reserved": 0, "fusion_lat": 0.0, "lat": 38.9026105, "fusion_lon": 0.0, "rental_uris": {"ios": "https://dc.lft.to/lastmile_qr_scan", "android": "https://dc.lft.to/lastmile_qr_scan"}, "lon": -77.017551, "bike_id": "523365ed448c50a6bdf054da464a3fae", "type": "electric_scooter", "name": "523365ed448c50a6bdf054da464a3fae"}, {"is_disabled": 0, "is_reserved": 0, "fusion_lat": 0.0, "lat": 38.937476, "fusion_lon": 0.0, "rental_uris": {"ios": "https://dc.lft.to/lastmile_qr_scan", "android": "https://dc.lft.to/lastmile_qr_scan"}, "lon": -77.03431783333333, "bike_id": "00b34e03b785f86431638e94fd13b1f8", "type": "electric_scooter", "name": "00b34e03b785f86431638e94fd13b1f8"}, {"is_disabled": 0, "is_reserved": 0, "fusion_lat": 0.0, "lat": 38.923862, "fusion_lon": 0.0, "rental_uris": {"ios": "https://dc.lft.to/lastmile_qr_scan", "android": "https://dc.lft.to/lastmile_qr_scan"}, "lon": -77.04304433333333, "bike_id": "7a79df27c54cd1205fa3ca9b35797e8b", "type": "electric_scooter", "name": "7a79df27c54cd1205fa3ca9b35797e8b"}, {"is_disabled": 0, "is_reserved": 0, "fusion_lat": 0.0, "lat": 38.8972985, "fusion_lon": 0.0, "rental_uris": {"ios": "https://dc.lft.to/lastmile_qr_scan", "android": "https://dc.lft.to/lastmile_qr_scan"}, "lon": -77.04981383333333, "bike_id": "fa545d6399d233439e2c80be7448ce7b", "type": "electric_scooter", "name": "fa545d6399d233439e2c80be7448ce7b"}, {"is_disabled": 0, "is_reserved": 0, "fusion_lat": 0.0, "lat": 38.93918033333333, "fusion_lon": 0.0, "rental_uris": {"ios": "https://dc.lft.to/lastmile_qr_scan", "android": "https://dc.lft.to/lastmile_qr_scan"}, "lon": -77.03257016666667, "bike_id": "3dc53884b1af19fe57f704acaeba8bd6", "type": "electric_scooter", "name": "3dc53884b1af19fe57f704acaeba8bd6"}, {"is_disabled": 0, "is_reserved": 0, "fusion_lat": 0.0, "lat": 38.870682, "fusion_lon": 0.0, "rental_uris": {"ios": "https://dc.lft.to/lastmile_qr_scan", "android": "https://dc.lft.to/lastmile_qr_scan"}, "lon": -77.11030633333333, "bike_id": "5e6bac01c82ef1403a1f9915809a69c6", "type": "electric_bike", "name": "5e6bac01c82ef1403a1f9915809a69c6"}, {"is_disabled": 0, "is_reserved": 0, "fusion_lat": 0.0, "lat": 38.878630333333334, "fusion_lon": 0.0, "rental_uris": {"ios": "https://dc.lft.to/lastmile_qr_scan", "android": "https://dc.lft.to/lastmile_qr_scan"}, "lon": -77.01764983333334, "bike_id": "b6559f321f02c0dc50b6d166d98cd534", "type": "electric_scooter", "name": "b6559f321f02c0dc50b6d166d98cd534"}, {"is_disabled": 0, "is_reserved": 0, "fusion_lat": 0.0, "lat": 38.92388616666667, "fusion_lon": 0.0, "rental_uris": {"ios": "https://dc.lft.to/lastmile_qr_scan", "android": "https://dc.lft.to/lastmile_qr_scan"}, "lon": -77.0364785, "bike_id": "b7a60336b5544e3cf5c46b8f8d734018", "type": "electric_scooter", "name": "b7a60336b5544e3cf5c46b8f8d734018"}, {"is_disabled": 0, "is_reserved": 0, "fusion_lat": 0.0, "lat": 38.91797183333333, "fusion_lon": 0.0, "rental_uris": {"ios": "https://dc.lft.to/lastmile_qr_scan", "android": "https://dc.lft.to/lastmile_qr_scan"}, "lon": -77.0353965, "bike_id": "9f246daadebe44b6569bcd2448f05156", "type": "electric_scooter", "name": "9f246daadebe44b6569bcd2448f05156"}, {"is_disabled": 0, "is_reserved": 0, "fusion_lat": 0.0, "lat": 38.88715033333333, "fusion_lon": 0.0, "rental_uris": {"ios": "https://dc.lft.to/lastmile_qr_scan", "android": "https://dc.lft.to/lastmile_qr_scan"}, "lon": -76.99622366666667, "bike_id": "b32e2bc85949ce9ea8f335562067430b", "type": "electric_scooter", "name": "b32e2bc85949ce9ea8f335562067430b"}, {"is_disabled": 0, "is_reserved": 0, "fusion_lat": 0.0, "lat": 38.9155525, "fusion_lon": 0.0, "rental_uris": {"ios": "https://dc.lft.to/lastmile_qr_scan", "android": "https://dc.lft.to/lastmile_qr_scan"}, "lon": -77.03172816666667, "bike_id": "fd6487fd9cec5b479be6946b8e02fe3b", "type": "electric_scooter", "name": "fd6487fd9cec5b479be6946b8e02fe3b"}, {"is_disabled": 0, "is_reserved": 0, "fusion_lat": 0.0, "lat": 38.905205, "fusion_lon": 0.0, "rental_uris": {"ios": "https://dc.lft.to/lastmile_qr_scan", "android": "https://dc.lft.to/lastmile_qr_scan"}, "lon": -77.02945283333334, "bike_id": "83756e021035c82606a6cddac5aaafe2", "type": "electric_scooter", "name": "83756e021035c82606a6cddac5aaafe2"}, {"is_disabled": 0, "is_reserved": 0, "fusion_lat": 0.0, "lat": 38.9235415, "fusion_lon": 0.0, "rental_uris": {"ios": "https://dc.lft.to/lastmile_qr_scan", "android": "https://dc.lft.to/lastmile_qr_scan"}, "lon": -77.05276083333334, "bike_id": "24315fd1e68a829a3a35b3470af51547", "type": "electric_scooter", "name": "24315fd1e68a829a3a35b3470af51547"}, {"is_disabled": 0, "is_reserved": 0, "fusion_lat": 0.0, "lat": 38.890532666666665, "fusion_lon": 0.0, "rental_uris": {"ios": "https://dc.lft.to/lastmile_qr_scan", "android": "https://dc.lft.to/lastmile_qr_scan"}, "lon": -77.01967433333333, "bike_id": "ad0d226ef8e3c927447b3a1fc119be90", "type": "electric_scooter", "name": "ad0d226ef8e3c927447b3a1fc119be90"}, {"is_disabled": 0, "is_reserved": 0, "fusion_lat": 0.0, "lat": 38.868322, "fusion_lon": 0.0, "rental_uris": {"ios": "https://dc.lft.to/lastmile_qr_scan", "android": "https://dc.lft.to/lastmile_qr_scan"}, "lon": -76.98002366666667, "bike_id": "ef1e17544a19ba272f33b985b644cedf", "type": "electric_bike", "name": "ef1e17544a19ba272f33b985b644cedf"}, {"is_disabled": 0, "is_reserved": 0, "fusion_lat": 0.0, "lat": 38.952848, "fusion_lon": 0.0, "rental_uris": {"ios": "https://dc.lft.to/lastmile_qr_scan", "android": "https://dc.lft.to/lastmile_qr_scan"}, "lon": -77.06862533333333, "bike_id": "20ffa9f1997bb2cbf65695f2785cfb7d", "type": "electric_scooter", "name": "20ffa9f1997bb2cbf65695f2785cfb7d"}, {"is_disabled": 0, "is_reserved": 0, "fusion_lat": 0.0, "lat": 38.9604555, "fusion_lon": 0.0, "rental_uris": {"ios": "https://dc.lft.to/lastmile_qr_scan", "android": "https://dc.lft.to/lastmile_qr_scan"}, "lon": -77.00503166666667, "bike_id": "21cbe4873c6da26a009c923cb19ccee1", "type": "electric_scooter", "name": "21cbe4873c6da26a009c923cb19ccee1"}, {"is_disabled": 0, "is_reserved": 0, "fusion_lat": 0.0, "lat": 38.9638265, "fusion_lon": 0.0, "rental_uris": {"ios": "https://dc.lft.to/lastmile_qr_scan", "android": "https://dc.lft.to/lastmile_qr_scan"}, "lon": -77.01977833333333, "bike_id": "1ec1fb7b45ed627f6562355195f6f047", "type": "electric_bike", "name": "1ec1fb7b45ed627f6562355195f6f047"}, {"is_disabled": 0, "is_reserved": 0, "fusion_lat": 0.0, "lat": 38.9479015, "fusion_lon": 0.0, "rental_uris": {"ios": "https://dc.lft.to/lastmile_qr_scan", "android": "https://dc.lft.to/lastmile_qr_scan"}, "lon": -77.07900983333333, "bike_id": "f1d42e14d8d454f981355259f9eda9a2", "type": "electric_scooter", "name": "f1d42e14d8d454f981355259f9eda9a2"}, {"is_disabled": 0, "is_reserved": 0, "fusion_lat": 0.0, "lat": 38.92683383333333, "fusion_lon": 0.0, "rental_uris": {"ios": "https://dc.lft.to/lastmile_qr_scan", "android": "https://dc.lft.to/lastmile_qr_scan"}, "lon": -77.01461833333333, "bike_id": "67d20388e98cdffa5acbf1e5f9fe64c6", "type": "electric_scooter", "name": "67d20388e98cdffa5acbf1e5f9fe64c6"}, {"is_disabled": 0, "is_reserved": 0, "fusion_lat": 0.0, "lat": 38.8717015, "fusion_lon": 0.0, "rental_uris": {"ios": "https://dc.lft.to/lastmile_qr_scan", "android": "https://dc.lft.to/lastmile_qr_scan"}, "lon": -77.00622616666666, "bike_id": "7011e88d43e4108480c46eef6a12a3c6", "type": "electric_scooter", "name": "7011e88d43e4108480c46eef6a12a3c6"}, {"is_disabled": 0, "is_reserved": 0, "fusion_lat": 0.0, "lat": 38.8923645, "fusion_lon": 0.0, "rental_uris": {"ios": "https://dc.lft.to/lastmile_qr_scan", "android": "https://dc.lft.to/lastmile_qr_scan"}, "lon": -77.03170383333334, "bike_id": "85a4d2e0d48c4ca0ff54cc97ecc9d512", "type": "electric_scooter", "name": "85a4d2e0d48c4ca0ff54cc97ecc9d512"}, {"is_disabled": 0, "is_reserved": 0, "fusion_lat": 0.0, "lat": 38.899716166666664, "fusion_lon": 0.0, "rental_uris": {"ios": "https://dc.lft.to/lastmile_qr_scan", "android": "https://dc.lft.to/lastmile_qr_scan"}, "lon": -77.03316633333333, "bike_id": "0495ee8b0c5b3b146c22ceb5c8b2d00f", "type": "electric_scooter", "name": "0495ee8b0c5b3b146c22ceb5c8b2d00f"}, {"is_disabled": 0, "is_reserved": 0, "fusion_lat": 0.0, "lat": 38.920601166666664, "fusion_lon": 0.0, "rental_uris": {"ios": "https://dc.lft.to/lastmile_qr_scan", "android": "https://dc.lft.to/lastmile_qr_scan"}, "lon": -77.024299, "bike_id": "11ff2c306becb47d27f8935775a775d6", "type": "electric_scooter", "name": "11ff2c306becb47d27f8935775a775d6"}, {"is_disabled": 0, "is_reserved": 0, "fusion_lat": 0.0, "lat": 38.920758, "fusion_lon": 0.0, "rental_uris": {"ios": "https://dc.lft.to/lastmile_qr_scan", "android": "https://dc.lft.to/lastmile_qr_scan"}, "lon": -77.041832, "bike_id": "762dc5d543c03a1847448f9b09216cff", "type": "electric_scooter", "name": "762dc5d543c03a1847448f9b09216cff"}, {"is_disabled": 0, "is_reserved": 0, "fusion_lat": 0.0, "lat": 38.91252683333333, "fusion_lon": 0.0, "rental_uris": {"ios": "https://dc.lft.to/lastmile_qr_scan", "android": "https://dc.lft.to/lastmile_qr_scan"}, "lon": -77.01609866666666, "bike_id": "7f35e03345a4c84ce87ac9d7771b2711", "type": "electric_scooter", "name": "7f35e03345a4c84ce87ac9d7771b2711"}, {"is_disabled": 0, "is_reserved": 0, "fusion_lat": 0.0, "lat": 38.89220366666667, "fusion_lon": 0.0, "rental_uris": {"ios": "https://dc.lft.to/lastmile_qr_scan", "android": "https://dc.lft.to/lastmile_qr_scan"}, "lon": -77.02416216666667, "bike_id": "0c4fbbaf67783d570e06b6b6b37ed456", "type": "electric_scooter", "name": "0c4fbbaf67783d570e06b6b6b37ed456"}, {"is_disabled": 0, "is_reserved": 0, "fusion_lat": 0.0, "lat": 38.899575, "fusion_lon": 0.0, "rental_uris": {"ios": "https://dc.lft.to/lastmile_qr_scan", "android": "https://dc.lft.to/lastmile_qr_scan"}, "lon": -77.04779833333333, "bike_id": "48e2c959bccdf4100bd3c9f10307a7bf", "type": "electric_scooter", "name": "48e2c959bccdf4100bd3c9f10307a7bf"}, {"is_disabled": 0, "is_reserved": 0, "fusion_lat": 0.0, "lat": 38.9054255, "fusion_lon": 0.0, "rental_uris": {"ios": "https://dc.lft.to/lastmile_qr_scan", "android": "https://dc.lft.to/lastmile_qr_scan"}, "lon": -77.040928, "bike_id": "a371cd1bef7f4b4ab31d4ab6ab18dc71", "type": "electric_scooter", "name": "a371cd1bef7f4b4ab31d4ab6ab18dc71"}, {"is_disabled": 0, "is_reserved": 0, "fusion_lat": 0.0, "lat": 38.9301225, "fusion_lon": 0.0, "rental_uris": {"ios": "https://dc.lft.to/lastmile_qr_scan", "android": "https://dc.lft.to/lastmile_qr_scan"}, "lon": -77.02400516666667, "bike_id": "e1ce9ca565897a55300cf7eb5745b2c9", "type": "electric_scooter", "name": "e1ce9ca565897a55300cf7eb5745b2c9"}, {"is_disabled": 0, "is_reserved": 0, "fusion_lat": 0.0, "lat": 38.904336, "fusion_lon": 0.0, "rental_uris": {"ios": "https://dc.lft.to/lastmile_qr_scan", "android": "https://dc.lft.to/lastmile_qr_scan"}, "lon": -77.03112533333334, "bike_id": "d6bc9ca72a6beb2f75bba597e6671533", "type": "electric_scooter", "name": "d6bc9ca72a6beb2f75bba597e6671533"}, {"is_disabled": 0, "is_reserved": 0, "fusion_lat": 0.0, "lat": 38.90782316666667, "fusion_lon": 0.0, "rental_uris": {"ios": "https://dc.lft.to/lastmile_qr_scan", "android": "https://dc.lft.to/lastmile_qr_scan"}, "lon": -77.04506916666666, "bike_id": "740c1d28c9773013d4504bdbae0645e0", "type": "electric_scooter", "name": "740c1d28c9773013d4504bdbae0645e0"}, {"is_disabled": 0, "is_reserved": 0, "fusion_lat": 0.0, "lat": 38.916622833333335, "fusion_lon": 0.0, "rental_uris": {"ios": "https://dc.lft.to/lastmile_qr_scan", "android": "https://dc.lft.to/lastmile_qr_scan"}, "lon": -77.038465, "bike_id": "2f4f7fa3578b7e3c63b4ac865652397a", "type": "electric_scooter", "name": "2f4f7fa3578b7e3c63b4ac865652397a"}, {"is_disabled": 0, "is_reserved": 0, "fusion_lat": 0.0, "lat": 38.926044166666664, "fusion_lon": 0.0, "rental_uris": {"ios": "https://dc.lft.to/lastmile_qr_scan", "android": "https://dc.lft.to/lastmile_qr_scan"}, "lon": -77.079616, "bike_id": "df713a35df2b159c52b78a319bc83239", "type": "electric_scooter", "name": "df713a35df2b159c52b78a319bc83239"}, {"is_disabled": 0, "is_reserved": 0, "fusion_lat": 0.0, "lat": 38.914182833333335, "fusion_lon": 0.0, "rental_uris": {"ios": "https://dc.lft.to/lastmile_qr_scan", "android": "https://dc.lft.to/lastmile_qr_scan"}, "lon": -77.03174783333333, "bike_id": "a1e9e520d6da32fbec3ac6e1afebc244", "type": "electric_scooter", "name": "a1e9e520d6da32fbec3ac6e1afebc244"}, {"is_disabled": 0, "is_reserved": 0, "fusion_lat": 0.0, "lat": 38.91825566666667, "fusion_lon": 0.0, "rental_uris": {"ios": "https://dc.lft.to/lastmile_qr_scan", "android": "https://dc.lft.to/lastmile_qr_scan"}, "lon": -77.03439783333333, "bike_id": "51c101a6527896df7c6fe213d8781a56", "type": "electric_scooter", "name": "51c101a6527896df7c6fe213d8781a56"}, {"is_disabled": 0, "is_reserved": 0, "fusion_lat": 0.0, "lat": 38.923428333333334, "fusion_lon": 0.0, "rental_uris": {"ios": "https://dc.lft.to/lastmile_qr_scan", "android": "https://dc.lft.to/lastmile_qr_scan"}, "lon": -76.99871666666667, "bike_id": "6d00406daaacfc8333903c98c331069b", "type": "electric_scooter", "name": "6d00406daaacfc8333903c98c331069b"}, {"is_disabled": 0, "is_reserved": 0, "fusion_lat": 0.0, "lat": 38.85515933333333, "fusion_lon": 0.0, "rental_uris": {"ios": "https://dc.lft.to/lastmile_qr_scan", "android": "https://dc.lft.to/lastmile_qr_scan"}, "lon": -77.1199125, "bike_id": "7912389f9214e8c529d69a839ecd029d", "type": "electric_bike", "name": "7912389f9214e8c529d69a839ecd029d"}, {"is_disabled": 0, "is_reserved": 0, "fusion_lat": 0.0, "lat": 38.87445266666667, "fusion_lon": 0.0, "rental_uris": {"ios": "https://dc.lft.to/lastmile_qr_scan", "android": "https://dc.lft.to/lastmile_qr_scan"}, "lon": -77.0002035, "bike_id": "e8246a4039f3391017039520fc1fb361", "type": "electric_scooter", "name": "e8246a4039f3391017039520fc1fb361"}, {"is_disabled": 0, "is_reserved": 0, "fusion_lat": 0.0, "lat": 38.898037, "fusion_lon": 0.0, "rental_uris": {"ios": "https://dc.lft.to/lastmile_qr_scan", "android": "https://dc.lft.to/lastmile_qr_scan"}, "lon": -76.97951066666667, "bike_id": "3ab2085757fd337eaa5a1ce6eae8f96d", "type": "electric_scooter", "name": "3ab2085757fd337eaa5a1ce6eae8f96d"}, {"is_disabled": 0, "is_reserved": 0, "fusion_lat": 0.0, "lat": 38.930716333333336, "fusion_lon": 0.0, "rental_uris": {"ios": "https://dc.lft.to/lastmile_qr_scan", "android": "https://dc.lft.to/lastmile_qr_scan"}, "lon": -77.0215915, "bike_id": "3da07be87384b8f8d2e7d1f86533e55f", "type": "electric_scooter", "name": "3da07be87384b8f8d2e7d1f86533e55f"}, {"is_disabled": 0, "is_reserved": 0, "fusion_lat": 0.0, "lat": 38.89242766666667, "fusion_lon": 0.0, "rental_uris": {"ios": "https://dc.lft.to/lastmile_qr_scan", "android": "https://dc.lft.to/lastmile_qr_scan"}, "lon": -77.0320975, "bike_id": "e72438c0e0a052e9be7c71da43c8a8c6", "type": "electric_scooter", "name": "e72438c0e0a052e9be7c71da43c8a8c6"}, {"is_disabled": 0, "is_reserved": 0, "fusion_lat": 0.0, "lat": 38.89984166666667, "fusion_lon": 0.0, "rental_uris": {"ios": "https://dc.lft.to/lastmile_qr_scan", "android": "https://dc.lft.to/lastmile_qr_scan"}, "lon": -77.02706616666667, "bike_id": "1498a84a24eca64ac505368970899b6e", "type": "electric_bike", "name": "1498a84a24eca64ac505368970899b6e"}, {"is_disabled": 0, "is_reserved": 0, "fusion_lat": 0.0, "lat": 38.90024483333333, "fusion_lon": 0.0, "rental_uris": {"ios": "https://dc.lft.to/lastmile_qr_scan", "android": "https://dc.lft.to/lastmile_qr_scan"}, "lon": -76.99871616666667, "bike_id": "e87ca1f291b8faeb993f02ddbaeea42d", "type": "electric_scooter", "name": "e87ca1f291b8faeb993f02ddbaeea42d"}, {"is_disabled": 0, "is_reserved": 0, "fusion_lat": 0.0, "lat": 38.883987833333336, "fusion_lon": 0.0, "rental_uris": {"ios": "https://dc.lft.to/lastmile_qr_scan", "android": "https://dc.lft.to/lastmile_qr_scan"}, "lon": -77.02906616666667, "bike_id": "3fed7a5f9ae432d803a96811be13afec", "type": "electric_scooter", "name": "3fed7a5f9ae432d803a96811be13afec"}, {"is_disabled": 0, "is_reserved": 0, "fusion_lat": 0.0, "lat": 38.92356566666667, "fusion_lon": 0.0, "rental_uris": {"ios": "https://dc.lft.to/lastmile_qr_scan", "android": "https://dc.lft.to/lastmile_qr_scan"}, "lon": -77.03368666666667, "bike_id": "7dacc29176e4aa7b128cfc9891fd13a7", "type": "electric_scooter", "name": "7dacc29176e4aa7b128cfc9891fd13a7"}, {"is_disabled": 0, "is_reserved": 0, "fusion_lat": 0.0, "lat": 38.9141575, "fusion_lon": 0.0, "rental_uris": {"ios": "https://dc.lft.to/lastmile_qr_scan", "android": "https://dc.lft.to/lastmile_qr_scan"}, "lon": -77.02207816666666, "bike_id": "97f8fe9092faf9037a43b744abf0d65f", "type": "electric_scooter", "name": "97f8fe9092faf9037a43b744abf0d65f"}, {"is_disabled": 0, "is_reserved": 0, "fusion_lat": 0.0, "lat": 38.89888066666666, "fusion_lon": 0.0, "rental_uris": {"ios": "https://dc.lft.to/lastmile_qr_scan", "android": "https://dc.lft.to/lastmile_qr_scan"}, "lon": -77.0320825, "bike_id": "a265f751862319bd2d1c65cc8e2a8ba1", "type": "electric_scooter", "name": "a265f751862319bd2d1c65cc8e2a8ba1"}, {"is_disabled": 0, "is_reserved": 0, "fusion_lat": 0.0, "lat": 38.90626016666667, "fusion_lon": 0.0, "rental_uris": {"ios": "https://dc.lft.to/lastmile_qr_scan", "android": "https://dc.lft.to/lastmile_qr_scan"}, "lon": -76.98660583333333, "bike_id": "7850ac2fefad98c3511351772db42567", "type": "electric_scooter", "name": "7850ac2fefad98c3511351772db42567"}, {"is_disabled": 0, "is_reserved": 0, "fusion_lat": 0.0, "lat": 38.871629, "fusion_lon": 0.0, "rental_uris": {"ios": "https://dc.lft.to/lastmile_qr_scan", "android": "https://dc.lft.to/lastmile_qr_scan"}, "lon": -77.01357183333333, "bike_id": "126a83997f2e97dd91022ac76769a761", "type": "electric_scooter", "name": "126a83997f2e97dd91022ac76769a761"}, {"is_disabled": 0, "is_reserved": 0, "fusion_lat": 0.0, "lat": 38.9428585, "fusion_lon": 0.0, "rental_uris": {"ios": "https://dc.lft.to/lastmile_qr_scan", "android": "https://dc.lft.to/lastmile_qr_scan"}, "lon": -77.02167833333333, "bike_id": "0a69d2c4651782bbbe3cdfe8669b5b58", "type": "electric_scooter", "name": "0a69d2c4651782bbbe3cdfe8669b5b58"}, {"is_disabled": 0, "is_reserved": 0, "fusion_lat": 0.0, "lat": 38.92168183333333, "fusion_lon": 0.0, "rental_uris": {"ios": "https://dc.lft.to/lastmile_qr_scan", "android": "https://dc.lft.to/lastmile_qr_scan"}, "lon": -77.04225633333333, "bike_id": "2a88bb544c41f63fd4d79640599aa32a", "type": "electric_scooter", "name": "2a88bb544c41f63fd4d79640599aa32a"}, {"is_disabled": 0, "is_reserved": 0, "fusion_lat": 0.0, "lat": 38.914175666666665, "fusion_lon": 0.0, "rental_uris": {"ios": "https://dc.lft.to/lastmile_qr_scan", "android": "https://dc.lft.to/lastmile_qr_scan"}, "lon": -77.03178816666667, "bike_id": "da3094d5fab829881caf9f6be6f0e991", "type": "electric_scooter", "name": "da3094d5fab829881caf9f6be6f0e991"}, {"is_disabled": 0, "is_reserved": 0, "fusion_lat": 0.0, "lat": 38.89663633333333, "fusion_lon": 0.0, "rental_uris": {"ios": "https://dc.lft.to/lastmile_qr_scan", "android": "https://dc.lft.to/lastmile_qr_scan"}, "lon": -76.94898033333334, "bike_id": "851b082bfc483236d68ff1128cd57dcd", "type": "electric_scooter", "name": "851b082bfc483236d68ff1128cd57dcd"}, {"is_disabled": 0, "is_reserved": 0, "fusion_lat": 0.0, "lat": 38.9093755, "fusion_lon": 0.0, "rental_uris": {"ios": "https://dc.lft.to/lastmile_qr_scan", "android": "https://dc.lft.to/lastmile_qr_scan"}, "lon": -77.047199, "bike_id": "32f34f5f35c1862b880098402862fc9c", "type": "electric_scooter", "name": "32f34f5f35c1862b880098402862fc9c"}, {"is_disabled": 0, "is_reserved": 0, "fusion_lat": 0.0, "lat": 38.941788333333335, "fusion_lon": 0.0, "rental_uris": {"ios": "https://dc.lft.to/lastmile_qr_scan", "android": "https://dc.lft.to/lastmile_qr_scan"}, "lon": -77.015233, "bike_id": "c079e112d08e2ab7dbcfd22927a3b4d3", "type": "electric_scooter", "name": "c079e112d08e2ab7dbcfd22927a3b4d3"}, {"is_disabled": 0, "is_reserved": 0, "fusion_lat": 0.0, "lat": 38.90972, "fusion_lon": 0.0, "rental_uris": {"ios": "https://dc.lft.to/lastmile_qr_scan", "android": "https://dc.lft.to/lastmile_qr_scan"}, "lon": -77.02414683333333, "bike_id": "a4b0c849333b8dd56715b97e8cfeff2b", "type": "electric_scooter", "name": "a4b0c849333b8dd56715b97e8cfeff2b"}, {"is_disabled": 0, "is_reserved": 0, "fusion_lat": 0.0, "lat": 38.91481366666667, "fusion_lon": 0.0, "rental_uris": {"ios": "https://dc.lft.to/lastmile_qr_scan", "android": "https://dc.lft.to/lastmile_qr_scan"}, "lon": -77.018807, "bike_id": "3ab9302259835da3c318b9ec0b27fb3d", "type": "electric_scooter", "name": "3ab9302259835da3c318b9ec0b27fb3d"}, {"is_disabled": 0, "is_reserved": 0, "fusion_lat": 0.0, "lat": 38.915428, "fusion_lon": 0.0, "rental_uris": {"ios": "https://dc.lft.to/lastmile_qr_scan", "android": "https://dc.lft.to/lastmile_qr_scan"}, "lon": -77.04447366666666, "bike_id": "313ecda7fea56af374e82f598d3e2379", "type": "electric_scooter", "name": "313ecda7fea56af374e82f598d3e2379"}, {"is_disabled": 0, "is_reserved": 0, "fusion_lat": 0.0, "lat": 38.9536165, "fusion_lon": 0.0, "rental_uris": {"ios": "https://dc.lft.to/lastmile_qr_scan", "android": "https://dc.lft.to/lastmile_qr_scan"}, "lon": -76.94293616666667, "bike_id": "711822f54f067ec75573596bfa55901f", "type": "electric_bike", "name": "711822f54f067ec75573596bfa55901f"}, {"is_disabled": 0, "is_reserved": 0, "fusion_lat": 0.0, "lat": 38.89437266666667, "fusion_lon": 0.0, "rental_uris": {"ios": "https://dc.lft.to/lastmile_qr_scan", "android": "https://dc.lft.to/lastmile_qr_scan"}, "lon": -76.97983883333333, "bike_id": "5566c9f221a6177f444c507eba37c62c", "type": "electric_scooter", "name": "5566c9f221a6177f444c507eba37c62c"}, {"is_disabled": 0, "is_reserved": 0, "fusion_lat": 0.0, "lat": 38.93970483333333, "fusion_lon": 0.0, "rental_uris": {"ios": "https://dc.lft.to/lastmile_qr_scan", "android": "https://dc.lft.to/lastmile_qr_scan"}, "lon": -77.03428916666667, "bike_id": "165dadf24af00f9323aa9585b3da2feb", "type": "electric_scooter", "name": "165dadf24af00f9323aa9585b3da2feb"}, {"is_disabled": 0, "is_reserved": 0, "fusion_lat": 0.0, "lat": 38.837674166666666, "fusion_lon": 0.0, "rental_uris": {"ios": "https://dc.lft.to/lastmile_qr_scan", "android": "https://dc.lft.to/lastmile_qr_scan"}, "lon": -76.998558, "bike_id": "e3cb9b43daf44ef8f133d8682fbc5a10", "type": "electric_scooter", "name": "e3cb9b43daf44ef8f133d8682fbc5a10"}, {"is_disabled": 0, "is_reserved": 0, "fusion_lat": 0.0, "lat": 38.906109666666666, "fusion_lon": 0.0, "rental_uris": {"ios": "https://dc.lft.to/lastmile_qr_scan", "android": "https://dc.lft.to/lastmile_qr_scan"}, "lon": -77.04151083333333, "bike_id": "b3527b83b9f6b09ab3a16653bc0aa079", "type": "electric_scooter", "name": "b3527b83b9f6b09ab3a16653bc0aa079"}, {"is_disabled": 0, "is_reserved": 0, "fusion_lat": 0.0, "lat": 38.9034045, "fusion_lon": 0.0, "rental_uris": {"ios": "https://dc.lft.to/lastmile_qr_scan", "android": "https://dc.lft.to/lastmile_qr_scan"}, "lon": -76.9757205, "bike_id": "aa4af2bbdb049eafff08a0ad6676b863", "type": "electric_scooter", "name": "aa4af2bbdb049eafff08a0ad6676b863"}, {"is_disabled": 0, "is_reserved": 0, "fusion_lat": 0.0, "lat": 38.9006185, "fusion_lon": 0.0, "rental_uris": {"ios": "https://dc.lft.to/lastmile_qr_scan", "android": "https://dc.lft.to/lastmile_qr_scan"}, "lon": -77.050682, "bike_id": "bd662b6dd12a668fa55cd8ea670eca44", "type": "electric_scooter", "name": "bd662b6dd12a668fa55cd8ea670eca44"}, {"is_disabled": 0, "is_reserved": 0, "fusion_lat": 0.0, "lat": 39.00386133333333, "fusion_lon": 0.0, "rental_uris": {"ios": "https://dc.lft.to/lastmile_qr_scan", "android": "https://dc.lft.to/lastmile_qr_scan"}, "lon": -77.01284483333333, "bike_id": "d622beaccdd6906ccfe8627009b5d162", "type": "electric_bike", "name": "d622beaccdd6906ccfe8627009b5d162"}, {"is_disabled": 0, "is_reserved": 0, "fusion_lat": 0.0, "lat": 38.9314545, "fusion_lon": 0.0, "rental_uris": {"ios": "https://dc.lft.to/lastmile_qr_scan", "android": "https://dc.lft.to/lastmile_qr_scan"}, "lon": -77.07846183333334, "bike_id": "c6ea8c1a8e125803f31d8d2c128961de", "type": "electric_scooter", "name": "c6ea8c1a8e125803f31d8d2c128961de"}, {"is_disabled": 0, "is_reserved": 0, "fusion_lat": 0.0, "lat": 38.8917395, "fusion_lon": 0.0, "rental_uris": {"ios": "https://dc.lft.to/lastmile_qr_scan", "android": "https://dc.lft.to/lastmile_qr_scan"},