{"data": {"bikes": [{"bike_id": "b45bdc1fd2fbad2e4e0c3cb6c2572e23", "is_reserved": 0, "fusion_lon": 0.0, "lat": 38.920798, "is_disabled": 0, "name": "b45bdc1fd2fbad2e4e0c3cb6c2572e23", "fusion_lat": 0.0, "rental_uris": {"ios": "https://dc.lft.to/lastmile_qr_scan", "android": "https://dc.lft.to/lastmile_qr_scan"}, "lon": -77.02219, "type": "electric_scooter"}, {"bike_id": "8cf96b039b1264a29e9a4edfa7b6ce7a", "is_reserved": 0, "fusion_lon": 0.0, "lat": 38.92003916666667, "is_disabled": 0, "name": "8cf96b039b1264a29e9a4edfa7b6ce7a", "fusion_lat": 0.0, "rental_uris": {"ios": "https://dc.lft.to/lastmile_qr_scan", "android": "https://dc.lft.to/lastmile_qr_scan"}, "lon": -77.04175766666667, "type": "electric_scooter"}, {"bike_id": "4971ba8e6e2126a7540bbada81c3ee07", "is_reserved": 0, "fusion_lon": 0.0, "lat": 38.935073833333334, "is_disabled": 0, "name": "4971ba8e6e2126a7540bbada81c3ee07", "fusion_lat": 0.0, "rental_uris": {"ios": "https://dc.lft.to/lastmile_qr_scan", "android": "https://dc.lft.to/lastmile_qr_scan"}, "lon": -77.03303583333333, "type": "electric_scooter"}, {"bike_id": "bc8878c6c91f7be6be47e596c4e85541", "is_reserved": 0, "fusion_lon": 0.0, "lat": 38.9287435, "is_disabled": 0, "name": "bc8878c6c91f7be6be47e596c4e85541", "fusion_lat": 0.0, "rental_uris": {"ios": "https://dc.lft.to/lastmile_qr_scan", "android": "https://dc.lft.to/lastmile_qr_scan"}, "lon": -77.033267, "type": "electric_scooter"}, {"bike_id": "9aca22bf8f7135e6380d813facdb3cc5", "is_reserved": 0, "fusion_lon": 0.0, "lat": 38.918177166666666, "is_disabled": 0, "name": "9aca22bf8f7135e6380d813facdb3cc5", "fusion_lat": 0.0, "rental_uris": {"ios": "https://dc.lft.to/lastmile_qr_scan", "android": "https://dc.lft.to/lastmile_qr_scan"}, "lon": -77.03527, "type": "electric_scooter"}, {"bike_id": "0ecc22a97381911db825a543912b1dac", "is_reserved": 0, "fusion_lon": 0.0, "lat": 38.919946833333334, "is_disabled": 0, "name": "0ecc22a97381911db825a543912b1dac", "fusion_lat": 0.0, "rental_uris": {"ios": "https://dc.lft.to/lastmile_qr_scan", "android": "https://dc.lft.to/lastmile_qr_scan"}, "lon": -77.03229466666667, "type": "electric_scooter"}, {"bike_id": "4148d074e9f951aa2a43820c349a5fe7", "is_reserved": 0, "fusion_lon": 0.0, "lat": 38.935854166666665, "is_disabled": 0, "name": "4148d074e9f951aa2a43820c349a5fe7", "fusion_lat": 0.0, "rental_uris": {"ios": "https://dc.lft.to/lastmile_qr_scan", "android": "https://dc.lft.to/lastmile_qr_scan"}, "lon": -77.0381035, "type": "electric_scooter"}, {"bike_id": "f5ca4641a29dfec9fbb93f55809caa88", "is_reserved": 0, "fusion_lon": 0.0, "lat": 38.89608616666666, "is_disabled": 0, "name": "f5ca4641a29dfec9fbb93f55809caa88", "fusion_lat": 0.0, "rental_uris": {"ios": "https://dc.lft.to/lastmile_qr_scan", "android": "https://dc.lft.to/lastmile_qr_scan"}, "lon": -77.03169916666667, "type": "electric_scooter"}, {"bike_id": "7382c4b4ff93b55e0a4488d8591de926", "is_reserved": 0, "fusion_lon": 0.0, "lat": 38.90354383333333, "is_disabled": 0, "name": "7382c4b4ff93b55e0a4488d8591de926", "fusion_lat": 0.0, "rental_uris": {"ios": "https://dc.lft.to/lastmile_qr_scan", "android": "https://dc.lft.to/lastmile_qr_scan"}, "lon": -77.04510983333333, "type": "electric_scooter"}, {"bike_id": "be2d76a4ac43c1eae3190f10afc30695", "is_reserved": 0, "fusion_lon": 0.0, "lat": 38.906574666666664, "is_disabled": 0, "name": "be2d76a4ac43c1eae3190f10afc30695", "fusion_lat": 0.0, "rental_uris": {"ios": "https://dc.lft.to/lastmile_qr_scan", "android": "https://dc.lft.to/lastmile_qr_scan"}, "lon": -77.00912833333334, "type": "electric_scooter"}, {"bike_id": "d77dc3d3fe0b355a353c9713ef5cfed2", "is_reserved": 0, "fusion_lon": 0.0, "lat": 38.90266883333334, "is_disabled": 0, "name": "d77dc3d3fe0b355a353c9713ef5cfed2", "fusion_lat": 0.0, "rental_uris": {"ios": "https://dc.lft.to/lastmile_qr_scan", "android": "https://dc.lft.to/lastmile_qr_scan"}, "lon": -77.03846183333333, "type": "electric_scooter"}, {"bike_id": "c75631b4bba084b46a1020ba92fd5e33", "is_reserved": 0, "fusion_lon": 0.0, "lat": 38.9024695, "is_disabled": 0, "name": "c75631b4bba084b46a1020ba92fd5e33", "fusion_lat": 0.0, "rental_uris": {"ios": "https://dc.lft.to/lastmile_qr_scan", "android": "https://dc.lft.to/lastmile_qr_scan"}, "lon": -77.03935983333334, "type": "electric_scooter"}, {"bike_id": "bf7b06f31e2d374e1c9fc68cd44f2898", "is_reserved": 0, "fusion_lon": 0.0, "lat": 38.84583683333334, "is_disabled": 0, "name": "bf7b06f31e2d374e1c9fc68cd44f2898", "fusion_lat": 0.0, "rental_uris": {"ios": "https://dc.lft.to/lastmile_qr_scan", "android": "https://dc.lft.to/lastmile_qr_scan"}, "lon": -76.981622, "type": "electric_scooter"}, {"bike_id": "3c2c62611d1f7c6a09b3f2df039fbb1d", "is_reserved": 0, "fusion_lon": 0.0, "lat": 38.90472316666666, "is_disabled": 0, "name": "3c2c62611d1f7c6a09b3f2df039fbb1d", "fusion_lat": 0.0, "rental_uris": {"ios": "https://dc.lft.to/lastmile_qr_scan", "android": "https://dc.lft.to/lastmile_qr_scan"}, "lon": -76.98911166666667, "type": "electric_scooter"}, {"bike_id": "44229365e2b28e61c19aa7d7843653fa", "is_reserved": 0, "fusion_lon": 0.0, "lat": 38.92063433333333, "is_disabled": 0, "name": "44229365e2b28e61c19aa7d7843653fa", "fusion_lat": 0.0, "rental_uris": {"ios": "https://dc.lft.to/lastmile_qr_scan", "android": "https://dc.lft.to/lastmile_qr_scan"}, "lon": -77.045662, "type": "electric_scooter"}, {"bike_id": "b00f22412e1afc26599d4a8d26a1e04b", "is_reserved": 0, "fusion_lon": 0.0, "lat": 38.9048925, "is_disabled": 0, "name": "b00f22412e1afc26599d4a8d26a1e04b", "fusion_lat": 0.0, "rental_uris": {"ios": "https://dc.lft.to/lastmile_qr_scan", "android": "https://dc.lft.to/lastmile_qr_scan"}, "lon": -77.06012083333333, "type": "electric_scooter"}, {"bike_id": "b3d0d2f090ee188a86fe33b3a340d0c2", "is_reserved": 0, "fusion_lon": 0.0, "lat": 38.9661765, "is_disabled": 0, "name": "b3d0d2f090ee188a86fe33b3a340d0c2", "fusion_lat": 0.0, "rental_uris": {"ios": "https://dc.lft.to/lastmile_qr_scan", "android": "https://dc.lft.to/lastmile_qr_scan"}, "lon": -77.03429433333334, "type": "electric_bike"}, {"bike_id": "c1d3a5363b306ef27b0d878e5d35ab4f", "is_reserved": 0, "fusion_lon": 0.0, "lat": 38.874783, "is_disabled": 0, "name": "c1d3a5363b306ef27b0d878e5d35ab4f", "fusion_lat": 0.0, "rental_uris": {"ios": "https://dc.lft.to/lastmile_qr_scan", "android": "https://dc.lft.to/lastmile_qr_scan"}, "lon": -76.96529483333333, "type": "electric_bike"}, {"bike_id": "2d5ffd2dcf744aa09215697d12910b49", "is_reserved": 0, "fusion_lon": 0.0, "lat": 38.9039425, "is_disabled": 0, "name": "2d5ffd2dcf744aa09215697d12910b49", "fusion_lat": 0.0, "rental_uris": {"ios": "https://dc.lft.to/lastmile_qr_scan", "android": "https://dc.lft.to/lastmile_qr_scan"}, "lon": -77.03998333333334, "type": "electric_scooter"}, {"bike_id": "a72ec39dda00b829728684dd3ac8aeeb", "is_reserved": 0, "fusion_lon": 0.0, "lat": 38.90416116666667, "is_disabled": 0, "name": "a72ec39dda00b829728684dd3ac8aeeb", "fusion_lat": 0.0, "rental_uris": {"ios": "https://dc.lft.to/lastmile_qr_scan", "android": "https://dc.lft.to/lastmile_qr_scan"}, "lon": -77.04656933333334, "type": "electric_scooter"}, {"bike_id": "f7fe9289d460e54eef79e91771997048", "is_reserved": 0, "fusion_lon": 0.0, "lat": 38.90972716666667, "is_disabled": 0, "name": "f7fe9289d460e54eef79e91771997048", "fusion_lat": 0.0, "rental_uris": {"ios": "https://dc.lft.to/lastmile_qr_scan", "android": "https://dc.lft.to/lastmile_qr_scan"}, "lon": -77.0218525, "type": "electric_scooter"}, {"bike_id": "c2a4ea2b2a0d4395dff4629b9f887beb", "is_reserved": 0, "fusion_lon": 0.0, "lat": 38.91687066666667, "is_disabled": 0, "name": "c2a4ea2b2a0d4395dff4629b9f887beb", "fusion_lat": 0.0, "rental_uris": {"ios": "https://dc.lft.to/lastmile_qr_scan", "android": "https://dc.lft.to/lastmile_qr_scan"}, "lon": -77.03485216666667, "type": "electric_scooter"}, {"bike_id": "4043f8c2b54d8c5c9a97c8a5f7518a05", "is_reserved": 0, "fusion_lon": 0.0, "lat": 38.92409283333333, "is_disabled": 0, "name": "4043f8c2b54d8c5c9a97c8a5f7518a05", "fusion_lat": 0.0, "rental_uris": {"ios": "https://dc.lft.to/lastmile_qr_scan", "android": "https://dc.lft.to/lastmile_qr_scan"}, "lon": -77.03551433333334, "type": "electric_scooter"}, {"bike_id": "1aa9513c2f6b761953e9a14e0cf994d3", "is_reserved": 0, "fusion_lon": 0.0, "lat": 38.9602675, "is_disabled": 0, "name": "1aa9513c2f6b761953e9a14e0cf994d3", "fusion_lat": 0.0, "rental_uris": {"ios": "https://dc.lft.to/lastmile_qr_scan", "android": "https://dc.lft.to/lastmile_qr_scan"}, "lon": -77.03381766666666, "type": "electric_bike"}, {"bike_id": "4317c2120b294293c0d66b202e0a61ab", "is_reserved": 0, "fusion_lon": 0.0, "lat": 38.910003, "is_disabled": 0, "name": "4317c2120b294293c0d66b202e0a61ab", "fusion_lat": 0.0, "rental_uris": {"ios": "https://dc.lft.to/lastmile_qr_scan", "android": "https://dc.lft.to/lastmile_qr_scan"}, "lon": -77.021013, "type": "electric_scooter"}, {"bike_id": "b7ba729355ccdec816f4b08dab657897", "is_reserved": 0, "fusion_lon": 0.0, "lat": 38.9225075, "is_disabled": 0, "name": "b7ba729355ccdec816f4b08dab657897", "fusion_lat": 0.0, "rental_uris": {"ios": "https://dc.lft.to/lastmile_qr_scan", "android": "https://dc.lft.to/lastmile_qr_scan"}, "lon": -77.02981, "type": "electric_scooter"}, {"bike_id": "e03fd9a260fad88527210c63d03a53ed", "is_reserved": 0, "fusion_lon": 0.0, "lat": 38.92381866666667, "is_disabled": 0, "name": "e03fd9a260fad88527210c63d03a53ed", "fusion_lat": 0.0, "rental_uris": {"ios": "https://dc.lft.to/lastmile_qr_scan", "android": "https://dc.lft.to/lastmile_qr_scan"}, "lon": -77.02757, "type": "electric_scooter"}, {"bike_id": "b911a5835e6f697572fb39fef115e530", "is_reserved": 0, "fusion_lon": 0.0, "lat": 38.908118333333334, "is_disabled": 0, "name": "b911a5835e6f697572fb39fef115e530", "fusion_lat": 0.0, "rental_uris": {"ios": "https://dc.lft.to/lastmile_qr_scan", "android": "https://dc.lft.to/lastmile_qr_scan"}, "lon": -76.998466, "type": "electric_scooter"}, {"bike_id": "b442fa2910bf267450e63ad9a8b27ec5", "is_reserved": 0, "fusion_lon": 0.0, "lat": 38.892599833333335, "is_disabled": 0, "name": "b442fa2910bf267450e63ad9a8b27ec5", "fusion_lat": 0.0, "rental_uris": {"ios": "https://dc.lft.to/lastmile_qr_scan", "android": "https://dc.lft.to/lastmile_qr_scan"}, "lon": -76.94922083333333, "type": "electric_scooter"}, {"bike_id": "ed7f9e940236fb41468c582ede993844", "is_reserved": 0, "fusion_lon": 0.0, "lat": 38.9044195, "is_disabled": 0, "name": "ed7f9e940236fb41468c582ede993844", "fusion_lat": 0.0, "rental_uris": {"ios": "https://dc.lft.to/lastmile_qr_scan", "android": "https://dc.lft.to/lastmile_qr_scan"}, "lon": -76.996232, "type": "electric_scooter"}, {"bike_id": "3f6450bcbe4c8e16aa22cb46c2089ae6", "is_reserved": 0, "fusion_lon": 0.0, "lat": 38.92257983333333, "is_disabled": 0, "name": "3f6450bcbe4c8e16aa22cb46c2089ae6", "fusion_lat": 0.0, "rental_uris": {"ios": "https://dc.lft.to/lastmile_qr_scan", "android": "https://dc.lft.to/lastmile_qr_scan"}, "lon": -77.01830116666666, "type": "electric_scooter"}, {"bike_id": "2e684b691eaf54124bdf2b894fcf4c3e", "is_reserved": 0, "fusion_lon": 0.0, "lat": 38.917692, "is_disabled": 0, "name": "2e684b691eaf54124bdf2b894fcf4c3e", "fusion_lat": 0.0, "rental_uris": {"ios": "https://dc.lft.to/lastmile_qr_scan", "android": "https://dc.lft.to/lastmile_qr_scan"}, "lon": -77.04099566666666, "type": "electric_scooter"}, {"bike_id": "a9468d518053ff7cc5c5bd6fade542aa", "is_reserved": 0, "fusion_lon": 0.0, "lat": 38.87625666666667, "is_disabled": 0, "name": "a9468d518053ff7cc5c5bd6fade542aa", "fusion_lat": 0.0, "rental_uris": {"ios": "https://dc.lft.to/lastmile_qr_scan", "android": "https://dc.lft.to/lastmile_qr_scan"}, "lon": -76.96524216666667, "type": "electric_scooter"}, {"bike_id": "d913f8f20f912cfd161bf590e552ccae", "is_reserved": 0, "fusion_lon": 0.0, "lat": 38.84293183333333, "is_disabled": 0, "name": "d913f8f20f912cfd161bf590e552ccae", "fusion_lat": 0.0, "rental_uris": {"ios": "https://dc.lft.to/lastmile_qr_scan", "android": "https://dc.lft.to/lastmile_qr_scan"}, "lon": -76.9994905, "type": "electric_scooter"}, {"bike_id": "936b3663d60b75ccc8c7d88a4576f0da", "is_reserved": 0, "fusion_lon": 0.0, "lat": 38.91195033333333, "is_disabled": 0, "name": "936b3663d60b75ccc8c7d88a4576f0da", "fusion_lat": 0.0, "rental_uris": {"ios": "https://dc.lft.to/lastmile_qr_scan", "android": "https://dc.lft.to/lastmile_qr_scan"}, "lon": -77.01619433333333, "type": "electric_scooter"}, {"bike_id": "6e05818f9689718addbab6147aabfae6", "is_reserved": 0, "fusion_lon": 0.0, "lat": 38.92118, "is_disabled": 0, "name": "6e05818f9689718addbab6147aabfae6", "fusion_lat": 0.0, "rental_uris": {"ios": "https://dc.lft.to/lastmile_qr_scan", "android": "https://dc.lft.to/lastmile_qr_scan"}, "lon": -77.0121005, "type": "electric_scooter"}, {"bike_id": "6b382d9a1ca056a69759f2abe4aa5db9", "is_reserved": 0, "fusion_lon": 0.0, "lat": 38.9417435, "is_disabled": 0, "name": "6b382d9a1ca056a69759f2abe4aa5db9", "fusion_lat": 0.0, "rental_uris": {"ios": "https://dc.lft.to/lastmile_qr_scan", "android": "https://dc.lft.to/lastmile_qr_scan"}, "lon": -77.0250115, "type": "electric_scooter"}, {"bike_id": "128703d0c237c7e778fe387db16d10b2", "is_reserved": 0, "fusion_lon": 0.0, "lat": 38.902917, "is_disabled": 0, "name": "128703d0c237c7e778fe387db16d10b2", "fusion_lat": 0.0, "rental_uris": {"ios": "https://dc.lft.to/lastmile_qr_scan", "android": "https://dc.lft.to/lastmile_qr_scan"}, "lon": -76.998552, "type": "electric_scooter"}, {"bike_id": "25b69e4efb02d8c303d71fe02d618dbb", "is_reserved": 0, "fusion_lon": 0.0, "lat": 38.89357066666667, "is_disabled": 0, "name": "25b69e4efb02d8c303d71fe02d618dbb", "fusion_lat": 0.0, "rental_uris": {"ios": "https://dc.lft.to/lastmile_qr_scan", "android": "https://dc.lft.to/lastmile_qr_scan"}, "lon": -76.9497435, "type": "electric_scooter"}, {"bike_id": "20588a7bd67b941235ddd8ee7651d012", "is_reserved": 0, "fusion_lon": 0.0, "lat": 38.9027475, "is_disabled": 0, "name": "20588a7bd67b941235ddd8ee7651d012", "fusion_lat": 0.0, "rental_uris": {"ios": "https://dc.lft.to/lastmile_qr_scan", "android": "https://dc.lft.to/lastmile_qr_scan"}, "lon": -77.03356183333334, "type": "electric_scooter"}, {"bike_id": "53289623eef53fdeedef6a382da421e8", "is_reserved": 0, "fusion_lon": 0.0, "lat": 38.92646516666667, "is_disabled": 0, "name": "53289623eef53fdeedef6a382da421e8", "fusion_lat": 0.0, "rental_uris": {"ios": "https://dc.lft.to/lastmile_qr_scan", "android": "https://dc.lft.to/lastmile_qr_scan"}, "lon": -77.037286, "type": "electric_scooter"}, {"bike_id": "07d6233f91584eb605c32402a64d0874", "is_reserved": 0, "fusion_lon": 0.0, "lat": 38.92469233333333, "is_disabled": 0, "name": "07d6233f91584eb605c32402a64d0874", "fusion_lat": 0.0, "rental_uris": {"ios": "https://dc.lft.to/lastmile_qr_scan", "android": "https://dc.lft.to/lastmile_qr_scan"}, "lon": -77.05217583333334, "type": "electric_scooter"}, {"bike_id": "88407c458fe04ba46be86f0cf0b50021", "is_reserved": 0, "fusion_lon": 0.0, "lat": 38.89823033333333, "is_disabled": 0, "name": "88407c458fe04ba46be86f0cf0b50021", "fusion_lat": 0.0, "rental_uris": {"ios": "https://dc.lft.to/lastmile_qr_scan", "android": "https://dc.lft.to/lastmile_qr_scan"}, "lon": -77.03261, "type": "electric_scooter"}, {"bike_id": "a73e1e73692c71be36349a9524bfcbde", "is_reserved": 0, "fusion_lon": 0.0, "lat": 38.863738833333336, "is_disabled": 0, "name": "a73e1e73692c71be36349a9524bfcbde", "fusion_lat": 0.0, "rental_uris": {"ios": "https://dc.lft.to/lastmile_qr_scan", "android": "https://dc.lft.to/lastmile_qr_scan"}, "lon": -76.99059333333334, "type": "electric_scooter"}, {"bike_id": "e6dfb15b079e78142b5c01146b3d1300", "is_reserved": 0, "fusion_lon": 0.0, "lat": 38.900265, "is_disabled": 0, "name": "e6dfb15b079e78142b5c01146b3d1300", "fusion_lat": 0.0, "rental_uris": {"ios": "https://dc.lft.to/lastmile_qr_scan", "android": "https://dc.lft.to/lastmile_qr_scan"}, "lon": -76.99838983333333, "type": "electric_scooter"}, {"bike_id": "6f92719b19f5558294f4ea88657df25d", "is_reserved": 0, "fusion_lon": 0.0, "lat": 38.8567685, "is_disabled": 0, "name": "6f92719b19f5558294f4ea88657df25d", "fusion_lat": 0.0, "rental_uris": {"ios": "https://dc.lft.to/lastmile_qr_scan", "android": "https://dc.lft.to/lastmile_qr_scan"}, "lon": -77.0856955, "type": "electric_bike"}, {"bike_id": "805d96ea6469350d45f52f3a471f3aa6", "is_reserved": 0, "fusion_lon": 0.0, "lat": 38.8528275, "is_disabled": 0, "name": "805d96ea6469350d45f52f3a471f3aa6", "fusion_lat": 0.0, "rental_uris": {"ios": "https://dc.lft.to/lastmile_qr_scan", "android": "https://dc.lft.to/lastmile_qr_scan"}, "lon": -77.05276283333333, "type": "electric_bike"}, {"bike_id": "ccd9164b353377b96adf89400b9a74a6", "is_reserved": 0, "fusion_lon": 0.0, "lat": 38.86520733333333, "is_disabled": 0, "name": "ccd9164b353377b96adf89400b9a74a6", "fusion_lat": 0.0, "rental_uris": {"ios": "https://dc.lft.to/lastmile_qr_scan", "android": "https://dc.lft.to/lastmile_qr_scan"}, "lon": -76.99036983333333, "type": "electric_scooter"}, {"bike_id": "1486fd0330c9f25038ddeed7d80853e3", "is_reserved": 0, "fusion_lon": 0.0, "lat": 38.91028566666667, "is_disabled": 0, "name": "1486fd0330c9f25038ddeed7d80853e3", "fusion_lat": 0.0, "rental_uris": {"ios": "https://dc.lft.to/lastmile_qr_scan", "android": "https://dc.lft.to/lastmile_qr_scan"}, "lon": -77.03856766666667, "type": "electric_scooter"}, {"bike_id": "727a3bc4420b8912dc1a70bb0484c4c5", "is_reserved": 0, "fusion_lon": 0.0, "lat": 38.88367683333333, "is_disabled": 0, "name": "727a3bc4420b8912dc1a70bb0484c4c5", "fusion_lat": 0.0, "rental_uris": {"ios": "https://dc.lft.to/lastmile_qr_scan", "android": "https://dc.lft.to/lastmile_qr_scan"}, "lon": -76.99519599999999, "type": "electric_scooter"}, {"bike_id": "b045dce8cd29eed08ec0d61213b7a69c", "is_reserved": 0, "fusion_lon": 0.0, "lat": 38.87108216666667, "is_disabled": 0, "name": "b045dce8cd29eed08ec0d61213b7a69c", "fusion_lat": 0.0, "rental_uris": {"ios": "https://dc.lft.to/lastmile_qr_scan", "android": "https://dc.lft.to/lastmile_qr_scan"}, "lon": -76.97746816666667, "type": "electric_scooter"}, {"bike_id": "1bf2c2edbb152a60e79af371bdcf3f41", "is_reserved": 0, "fusion_lon": 0.0, "lat": 38.9416215, "is_disabled": 0, "name": "1bf2c2edbb152a60e79af371bdcf3f41", "fusion_lat": 0.0, "rental_uris": {"ios": "https://dc.lft.to/lastmile_qr_scan", "android": "https://dc.lft.to/lastmile_qr_scan"}, "lon": -77.04126166666667, "type": "electric_scooter"}, {"bike_id": "f008ff68484a396ce5dbd0888d00b99e", "is_reserved": 0, "fusion_lon": 0.0, "lat": 38.892190166666666, "is_disabled": 0, "name": "f008ff68484a396ce5dbd0888d00b99e", "fusion_lat": 0.0, "rental_uris": {"ios": "https://dc.lft.to/lastmile_qr_scan", "android": "https://dc.lft.to/lastmile_qr_scan"}, "lon": -77.0436655, "type": "electric_scooter"}, {"bike_id": "9454cfe210e8dda52f3c27cae6c2c936", "is_reserved": 0, "fusion_lon": 0.0, "lat": 38.90679733333333, "is_disabled": 0, "name": "9454cfe210e8dda52f3c27cae6c2c936", "fusion_lat": 0.0, "rental_uris": {"ios": "https://dc.lft.to/lastmile_qr_scan", "android": "https://dc.lft.to/lastmile_qr_scan"}, "lon": -77.0635555, "type": "electric_scooter"}, {"bike_id": "65bb94b0db0953dde04f2e2af7e151af", "is_reserved": 0, "fusion_lon": 0.0, "lat": 38.911362833333335, "is_disabled": 0, "name": "65bb94b0db0953dde04f2e2af7e151af", "fusion_lat": 0.0, "rental_uris": {"ios": "https://dc.lft.to/lastmile_qr_scan", "android": "https://dc.lft.to/lastmile_qr_scan"}, "lon": -77.021994, "type": "electric_scooter"}, {"bike_id": "f83c118ec0e0d1b480e7e5870ef1a312", "is_reserved": 0, "fusion_lon": 0.0, "lat": 38.92141133333333, "is_disabled": 0, "name": "f83c118ec0e0d1b480e7e5870ef1a312", "fusion_lat": 0.0, "rental_uris": {"ios": "https://dc.lft.to/lastmile_qr_scan", "android": "https://dc.lft.to/lastmile_qr_scan"}, "lon": -77.03492983333334, "type": "electric_scooter"}, {"bike_id": "c8c5f5e3e7760e0fdbf847a4da15f6be", "is_reserved": 0, "fusion_lon": 0.0, "lat": 38.9289315, "is_disabled": 0, "name": "c8c5f5e3e7760e0fdbf847a4da15f6be", "fusion_lat": 0.0, "rental_uris": {"ios": "https://dc.lft.to/lastmile_qr_scan", "android": "https://dc.lft.to/lastmile_qr_scan"}, "lon": -77.054613, "type": "electric_scooter"}, {"bike_id": "09b10a06a7934f5b61722c5bfd7d2110", "is_reserved": 0, "fusion_lon": 0.0, "lat": 38.99812566666667, "is_disabled": 0, "name": "09b10a06a7934f5b61722c5bfd7d2110", "fusion_lat": 0.0, "rental_uris": {"ios": "https://dc.lft.to/lastmile_qr_scan", "android": "https://dc.lft.to/lastmile_qr_scan"}, "lon": -76.88375916666666, "type": "electric_bike"}, {"bike_id": "c8468f6e7ac1b0f7f3fdb5a313b50679", "is_reserved": 0, "fusion_lon": 0.0, "lat": 38.900127833333336, "is_disabled": 0, "name": "c8468f6e7ac1b0f7f3fdb5a313b50679", "fusion_lat": 0.0, "rental_uris": {"ios": "https://dc.lft.to/lastmile_qr_scan", "android": "https://dc.lft.to/lastmile_qr_scan"}, "lon": -76.9989735, "type": "electric_scooter"}, {"bike_id": "69d9780b9902c924a727419dfc676c30", "is_reserved": 0, "fusion_lon": 0.0, "lat": 38.87838833333333, "is_disabled": 0, "name": "69d9780b9902c924a727419dfc676c30", "fusion_lat": 0.0, "rental_uris": {"ios": "https://dc.lft.to/lastmile_qr_scan", "android": "https://dc.lft.to/lastmile_qr_scan"}, "lon": -77.01974283333334, "type": "electric_bike"}, {"bike_id": "28f466fecfa756dabad4628034096b7a", "is_reserved": 0, "fusion_lon": 0.0, "lat": 38.90362916666667, "is_disabled": 0, "name": "28f466fecfa756dabad4628034096b7a", "fusion_lat": 0.0, "rental_uris": {"ios": "https://dc.lft.to/lastmile_qr_scan", "android": "https://dc.lft.to/lastmile_qr_scan"}, "lon": -77.010969, "type": "electric_scooter"}, {"bike_id": "b9680e2d2bb6065bd1c348956a622764", "is_reserved": 0, "fusion_lon": 0.0, "lat": 38.90800183333333, "is_disabled": 0, "name": "b9680e2d2bb6065bd1c348956a622764", "fusion_lat": 0.0, "rental_uris": {"ios": "https://dc.lft.to/lastmile_qr_scan", "android": "https://dc.lft.to/lastmile_qr_scan"}, "lon": -77.04259133333333, "type": "electric_scooter"}, {"bike_id": "0b671827dcd89826128387e282a1c1ef", "is_reserved": 0, "fusion_lon": 0.0, "lat": 38.903383833333336, "is_disabled": 0, "name": "0b671827dcd89826128387e282a1c1ef", "fusion_lat": 0.0, "rental_uris": {"ios": "https://dc.lft.to/lastmile_qr_scan", "android": "https://dc.lft.to/lastmile_qr_scan"}, "lon": -77.0665545, "type": "electric_scooter"}, {"bike_id": "16319eb62f2ef1e046d131b6fb57eb7d", "is_reserved": 0, "fusion_lon": 0.0, "lat": 38.86379783333334, "is_disabled": 0, "name": "16319eb62f2ef1e046d131b6fb57eb7d", "fusion_lat": 0.0, "rental_uris": {"ios": "https://dc.lft.to/lastmile_qr_scan", "android": "https://dc.lft.to/lastmile_qr_scan"}, "lon": -76.98994066666667, "type": "electric_bike"}, {"bike_id": "81790376034516428a1b67bbd7379cb6", "is_reserved": 0, "fusion_lon": 0.0, "lat": 38.86660033333333, "is_disabled": 0, "name": "81790376034516428a1b67bbd7379cb6", "fusion_lat": 0.0, "rental_uris": {"ios": "https://dc.lft.to/lastmile_qr_scan", "android": "https://dc.lft.to/lastmile_qr_scan"}, "lon": -76.98900816666666, "type": "electric_scooter"}, {"bike_id": "e5089c0816ffcd4d53ab7a2055244ad2", "is_reserved": 0, "fusion_lon": 0.0, "lat": 38.9027395, "is_disabled": 0, "name": "e5089c0816ffcd4d53ab7a2055244ad2", "fusion_lat": 0.0, "rental_uris": {"ios": "https://dc.lft.to/lastmile_qr_scan", "android": "https://dc.lft.to/lastmile_qr_scan"}, "lon": -77.05993966666666, "type": "electric_scooter"}, {"bike_id": "3f19e05ebb3629af48351a1f528fcedf", "is_reserved": 0, "fusion_lon": 0.0, "lat": 38.91868983333333, "is_disabled": 0, "name": "3f19e05ebb3629af48351a1f528fcedf", "fusion_lat": 0.0, "rental_uris": {"ios": "https://dc.lft.to/lastmile_qr_scan", "android": "https://dc.lft.to/lastmile_qr_scan"}, "lon": -77.03895066666666, "type": "electric_scooter"}, {"bike_id": "db4193a3e39a5e18ad8b0886dc6ae385", "is_reserved": 0, "fusion_lon": 0.0, "lat": 38.910276, "is_disabled": 0, "name": "db4193a3e39a5e18ad8b0886dc6ae385", "fusion_lat": 0.0, "rental_uris": {"ios": "https://dc.lft.to/lastmile_qr_scan", "android": "https://dc.lft.to/lastmile_qr_scan"}, "lon": -77.04393183333333, "type": "electric_scooter"}, {"bike_id": "ff2df6be7ce708ab45e0c58b88035b91", "is_reserved": 0, "fusion_lon": 0.0, "lat": 38.8982925, "is_disabled": 0, "name": "ff2df6be7ce708ab45e0c58b88035b91", "fusion_lat": 0.0, "rental_uris": {"ios": "https://dc.lft.to/lastmile_qr_scan", "android": "https://dc.lft.to/lastmile_qr_scan"}, "lon": -76.9463535, "type": "electric_scooter"}, {"bike_id": "b0eb8ba76d5d78ae0b3d49cbced221c0", "is_reserved": 0, "fusion_lon": 0.0, "lat": 38.884312333333334, "is_disabled": 0, "name": "b0eb8ba76d5d78ae0b3d49cbced221c0", "fusion_lat": 0.0, "rental_uris": {"ios": "https://dc.lft.to/lastmile_qr_scan", "android": "https://dc.lft.to/lastmile_qr_scan"}, "lon": -76.95758816666667, "type": "electric_scooter"}, {"bike_id": "5b7b00207a535c9fc5ade145ed4ad357", "is_reserved": 0, "fusion_lon": 0.0, "lat": 38.931053666666664, "is_disabled": 0, "name": "5b7b00207a535c9fc5ade145ed4ad357", "fusion_lat": 0.0, "rental_uris": {"ios": "https://dc.lft.to/lastmile_qr_scan", "android": "https://dc.lft.to/lastmile_qr_scan"}, "lon": -77.02143683333334, "type": "electric_scooter"}, {"bike_id": "2df45e7a58ed0fba3e75e7dc8fdac817", "is_reserved": 0, "fusion_lon": 0.0, "lat": 38.92358766666667, "is_disabled": 0, "name": "2df45e7a58ed0fba3e75e7dc8fdac817", "fusion_lat": 0.0, "rental_uris": {"ios": "https://dc.lft.to/lastmile_qr_scan", "android": "https://dc.lft.to/lastmile_qr_scan"}, "lon": -77.05049666666666, "type": "electric_scooter"}, {"bike_id": "cc395b2275dae0d8a62a0c7b5ad351f1", "is_reserved": 0, "fusion_lon": 0.0, "lat": 38.93690633333333, "is_disabled": 0, "name": "cc395b2275dae0d8a62a0c7b5ad351f1", "fusion_lat": 0.0, "rental_uris": {"ios": "https://dc.lft.to/lastmile_qr_scan", "android": "https://dc.lft.to/lastmile_qr_scan"}, "lon": -77.0271705, "type": "electric_scooter"}, {"bike_id": "24e30d3b2f87064dfc934d9347aa6534", "is_reserved": 0, "fusion_lon": 0.0, "lat": 38.890153166666664, "is_disabled": 0, "name": "24e30d3b2f87064dfc934d9347aa6534", "fusion_lat": 0.0, "rental_uris": {"ios": "https://dc.lft.to/lastmile_qr_scan", "android": "https://dc.lft.to/lastmile_qr_scan"}, "lon": -76.93699033333333, "type": "electric_scooter"}, {"bike_id": "9e2fc6b2d5033e57f852a8bb44c2d9ba", "is_reserved": 0, "fusion_lon": 0.0, "lat": 38.913998666666664, "is_disabled": 0, "name": "9e2fc6b2d5033e57f852a8bb44c2d9ba", "fusion_lat": 0.0, "rental_uris": {"ios": "https://dc.lft.to/lastmile_qr_scan", "android": "https://dc.lft.to/lastmile_qr_scan"}, "lon": -77.025893, "type": "electric_scooter"}, {"bike_id": "b21e45d5c50fab740520cccabf2e1183", "is_reserved": 0, "fusion_lon": 0.0, "lat": 38.964967, "is_disabled": 0, "name": "b21e45d5c50fab740520cccabf2e1183", "fusion_lat": 0.0, "rental_uris": {"ios": "https://dc.lft.to/lastmile_qr_scan", "android": "https://dc.lft.to/lastmile_qr_scan"}, "lon": -77.06491033333333, "type": "electric_bike"}, {"bike_id": "ef64a2f19dd510f260464b447e93135b", "is_reserved": 0, "fusion_lon": 0.0, "lat": 38.90733783333334, "is_disabled": 0, "name": "ef64a2f19dd510f260464b447e93135b", "fusion_lat": 0.0, "rental_uris": {"ios": "https://dc.lft.to/lastmile_qr_scan", "android": "https://dc.lft.to/lastmile_qr_scan"}, "lon": -77.00059283333333, "type": "electric_scooter"}, {"bike_id": "37b4a479c7c12a70986e4e1d1ef6ace6", "is_reserved": 0, "fusion_lon": 0.0, "lat": 38.914251166666666, "is_disabled": 0, "name": "37b4a479c7c12a70986e4e1d1ef6ace6", "fusion_lat": 0.0, "rental_uris": {"ios": "https://dc.lft.to/lastmile_qr_scan", "android": "https://dc.lft.to/lastmile_qr_scan"}, "lon": -77.01713283333333, "type": "electric_scooter"}, {"bike_id": "7a75c45b8bf9c1ce8142336c903569ef", "is_reserved": 0, "fusion_lon": 0.0, "lat": 38.889308166666666, "is_disabled": 0, "name": "7a75c45b8bf9c1ce8142336c903569ef", "fusion_lat": 0.0, "rental_uris": {"ios": "https://dc.lft.to/lastmile_qr_scan", "android": "https://dc.lft.to/lastmile_qr_scan"}, "lon": -77.01508633333333, "type": "electric_scooter"}, {"bike_id": "15de94ece4bf9e85e3c72994b054f275", "is_reserved": 0, "fusion_lon": 0.0, "lat": 38.92466266666667, "is_disabled": 0, "name": "15de94ece4bf9e85e3c72994b054f275", "fusion_lat": 0.0, "rental_uris": {"ios": "https://dc.lft.to/lastmile_qr_scan", "android": "https://dc.lft.to/lastmile_qr_scan"}, "lon": -77.03540583333333, "type": "electric_scooter"}, {"bike_id": "5c1e57491b30d96d3d047c3aa9a8f86f", "is_reserved": 0, "fusion_lon": 0.0, "lat": 38.912374666666665, "is_disabled": 0, "name": "5c1e57491b30d96d3d047c3aa9a8f86f", "fusion_lat": 0.0, "rental_uris": {"ios": "https://dc.lft.to/lastmile_qr_scan", "android": "https://dc.lft.to/lastmile_qr_scan"}, "lon": -77.04496966666666, "type": "electric_scooter"}, {"bike_id": "977592e62716e6795d9df1d57878c9db", "is_reserved": 0, "fusion_lon": 0.0, "lat": 38.8208005, "is_disabled": 0, "name": "977592e62716e6795d9df1d57878c9db", "fusion_lat": 0.0, "rental_uris": {"ios": "https://dc.lft.to/lastmile_qr_scan", "android": "https://dc.lft.to/lastmile_qr_scan"}, "lon": -77.05367533333333, "type": "electric_bike"}, {"bike_id": "420364c24dd7ccfe83b6ad7ba47b7568", "is_reserved": 0, "fusion_lon": 0.0, "lat": 38.940798, "is_disabled": 0, "name": "420364c24dd7ccfe83b6ad7ba47b7568", "fusion_lat": 0.0, "rental_uris": {"ios": "https://dc.lft.to/lastmile_qr_scan", "android": "https://dc.lft.to/lastmile_qr_scan"}, "lon": -77.02725483333333, "type": "electric_scooter"}, {"bike_id": "c6fac6b0a2d836a454adb2ddc9bb2928", "is_reserved": 0, "fusion_lon": 0.0, "lat": 38.898869833333336, "is_disabled": 0, "name": "c6fac6b0a2d836a454adb2ddc9bb2928", "fusion_lat": 0.0, "rental_uris": {"ios": "https://dc.lft.to/lastmile_qr_scan", "android": "https://dc.lft.to/lastmile_qr_scan"}, "lon": -77.00745683333334, "type": "electric_scooter"}, {"bike_id": "f71d3d534f9150df06e8fd671989defd", "is_reserved": 0, "fusion_lon": 0.0, "lat": 38.919218666666666, "is_disabled": 0, "name": "f71d3d534f9150df06e8fd671989defd", "fusion_lat": 0.0, "rental_uris": {"ios": "https://dc.lft.to/lastmile_qr_scan", "android": "https://dc.lft.to/lastmile_qr_scan"}, "lon": -77.03204433333333, "type": "electric_scooter"}, {"bike_id": "5047feae6cf600bc979f93b48c46a9d2", "is_reserved": 0, "fusion_lon": 0.0, "lat": 38.905269, "is_disabled": 0, "name": "5047feae6cf600bc979f93b48c46a9d2", "fusion_lat": 0.0, "rental_uris": {"ios": "https://dc.lft.to/lastmile_qr_scan", "android": "https://dc.lft.to/lastmile_qr_scan"}, "lon": -77.06143283333333, "type": "electric_scooter"}, {"bike_id": "cc6b1ab9494dc2f98f0f2dda955cffe8", "is_reserved": 0, "fusion_lon": 0.0, "lat": 38.950829666666664, "is_disabled": 0, "name": "cc6b1ab9494dc2f98f0f2dda955cffe8", "fusion_lat": 0.0, "rental_uris": {"ios": "https://dc.lft.to/lastmile_qr_scan", "android": "https://dc.lft.to/lastmile_qr_scan"}, "lon": -77.02832466666666, "type": "electric_scooter"}, {"bike_id": "fe0cfda9f935fdc9876edeb76f8dbdeb", "is_reserved": 0, "fusion_lon": 0.0, "lat": 38.926375166666666, "is_disabled": 0, "name": "fe0cfda9f935fdc9876edeb76f8dbdeb", "fusion_lat": 0.0, "rental_uris": {"ios": "https://dc.lft.to/lastmile_qr_scan", "android": "https://dc.lft.to/lastmile_qr_scan"}, "lon": -77.01341416666666, "type": "electric_scooter"}, {"bike_id": "0d3366ce8499b69f67704ee8a236ddcd", "is_reserved": 0, "fusion_lon": 0.0, "lat": 38.91823216666667, "is_disabled": 0, "name": "0d3366ce8499b69f67704ee8a236ddcd", "fusion_lat": 0.0, "rental_uris": {"ios": "https://dc.lft.to/lastmile_qr_scan", "android": "https://dc.lft.to/lastmile_qr_scan"}, "lon": -77.03529883333333, "type": "electric_scooter"}, {"bike_id": "7ecbeba8d1579c4263398c7f59b07e89", "is_reserved": 0, "fusion_lon": 0.0, "lat": 38.921856, "is_disabled": 0, "name": "7ecbeba8d1579c4263398c7f59b07e89", "fusion_lat": 0.0, "rental_uris": {"ios": "https://dc.lft.to/lastmile_qr_scan", "android": "https://dc.lft.to/lastmile_qr_scan"}, "lon": -77.04251733333334, "type": "electric_scooter"}, {"bike_id": "b18775e6ea17995ec5708627c986c699", "is_reserved": 0, "fusion_lon": 0.0, "lat": 38.93530166666667, "is_disabled": 0, "name": "b18775e6ea17995ec5708627c986c699", "fusion_lat": 0.0, "rental_uris": {"ios": "https://dc.lft.to/lastmile_qr_scan", "android": "https://dc.lft.to/lastmile_qr_scan"}, "lon": -77.02350933333334, "type": "electric_scooter"}, {"bike_id": "e29d74bc82e2ffdafb88e147bbb76543", "is_reserved": 0, "fusion_lon": 0.0, "lat": 38.90229383333333, "is_disabled": 0, "name": "e29d74bc82e2ffdafb88e147bbb76543", "fusion_lat": 0.0, "rental_uris": {"ios": "https://dc.lft.to/lastmile_qr_scan", "android": "https://dc.lft.to/lastmile_qr_scan"}, "lon": -77.02678483333334, "type": "electric_scooter"}, {"bike_id": "9ff739f0efb36be26de07350a1fcafe3", "is_reserved": 0, "fusion_lon": 0.0, "lat": 38.919477, "is_disabled": 0, "name": "9ff739f0efb36be26de07350a1fcafe3", "fusion_lat": 0.0, "rental_uris": {"ios": "https://dc.lft.to/lastmile_qr_scan", "android": "https://dc.lft.to/lastmile_qr_scan"}, "lon": -77.03203783333333, "type": "electric_scooter"}, {"bike_id": "20de054b588f6213a1c064083837df10", "is_reserved": 0, "fusion_lon": 0.0, "lat": 38.91963333333333, "is_disabled": 0, "name": "20de054b588f6213a1c064083837df10", "fusion_lat": 0.0, "rental_uris": {"ios": "https://dc.lft.to/lastmile_qr_scan", "android": "https://dc.lft.to/lastmile_qr_scan"}, "lon": -77.03209483333333, "type": "electric_scooter"}, {"bike_id": "f2cc018ac9a75e64ef5754f6c76a9af8", "is_reserved": 0, "fusion_lon": 0.0, "lat": 38.9212325, "is_disabled": 0, "name": "f2cc018ac9a75e64ef5754f6c76a9af8", "fusion_lat": 0.0, "rental_uris": {"ios": "https://dc.lft.to/lastmile_qr_scan", "android": "https://dc.lft.to/lastmile_qr_scan"}, "lon": -77.04135733333334, "type": "electric_scooter"}, {"bike_id": "f1e52bec6876705e7a7442241b0c4842", "is_reserved": 0, "fusion_lon": 0.0, "lat": 38.881206, "is_disabled": 0, "name": "f1e52bec6876705e7a7442241b0c4842", "fusion_lat": 0.0, "rental_uris": {"ios": "https://dc.lft.to/lastmile_qr_scan", "android": "https://dc.lft.to/lastmile_qr_scan"}, "lon": -77.00101016666666, "type": "electric_scooter"}, {"bike_id": "a5751011edd504b989ab1ef57750a725", "is_reserved": 0, "fusion_lon": 0.0, "lat": 38.90044433333333, "is_disabled": 0, "name": "a5751011edd504b989ab1ef57750a725", "fusion_lat": 0.0, "rental_uris": {"ios": "https://dc.lft.to/lastmile_qr_scan", "android": "https://dc.lft.to/lastmile_qr_scan"}, "lon": -77.00064316666666, "type": "electric_scooter"}, {"bike_id": "3d0f78ee80ae0ac563362e0671630955", "is_reserved": 0, "fusion_lon": 0.0, "lat": 38.88500616666666, "is_disabled": 0, "name": "3d0f78ee80ae0ac563362e0671630955", "fusion_lat": 0.0, "rental_uris": {"ios": "https://dc.lft.to/lastmile_qr_scan", "android": "https://dc.lft.to/lastmile_qr_scan"}, "lon": -77.00568433333333, "type": "electric_scooter"}, {"bike_id": "4856845964e3bb3f18f0be96ec057a49", "is_reserved": 0, "fusion_lon": 0.0, "lat": 38.89343916666667, "is_disabled": 0, "name": "4856845964e3bb3f18f0be96ec057a49", "fusion_lat": 0.0, "rental_uris": {"ios": "https://dc.lft.to/lastmile_qr_scan", "android": "https://dc.lft.to/lastmile_qr_scan"}, "lon": -76.94936033333333, "type": "electric_scooter"}, {"bike_id": "4e75d74b9cbbda5f2c92eff51286b610", "is_reserved": 0, "fusion_lon": 0.0, "lat": 38.902705833333336, "is_disabled": 0, "name": "4e75d74b9cbbda5f2c92eff51286b610", "fusion_lat": 0.0, "rental_uris": {"ios": "https://dc.lft.to/lastmile_qr_scan", "android": "https://dc.lft.to/lastmile_qr_scan"}, "lon": -77.038544, "type": "electric_scooter"}, {"bike_id": "33b7495180205f5e473f1aa59d3648de", "is_reserved": 0, "fusion_lon": 0.0, "lat": 38.91946433333333, "is_disabled": 0, "name": "33b7495180205f5e473f1aa59d3648de", "fusion_lat": 0.0, "rental_uris": {"ios": "https://dc.lft.to/lastmile_qr_scan", "android": "https://dc.lft.to/lastmile_qr_scan"}, "lon": -77.04149216666667, "type": "electric_scooter"}, {"bike_id": "77cbd91c80e91fbce6a13f2f10422d15", "is_reserved": 0, "fusion_lon": 0.0, "lat": 38.873704000000004, "is_disabled": 0, "name": "77cbd91c80e91fbce6a13f2f10422d15", "fusion_lat": 0.0, "rental_uris": {"ios": "https://dc.lft.to/lastmile_qr_scan", "android": "https://dc.lft.to/lastmile_qr_scan"}, "lon": -77.11804033333334, "type": "electric_bike"}, {"bike_id": "de197938f28ddd44cec0cc130299cdea", "is_reserved": 0, "fusion_lon": 0.0, "lat": 38.9210495, "is_disabled": 0, "name": "de197938f28ddd44cec0cc130299cdea", "fusion_lat": 0.0, "rental_uris": {"ios": "https://dc.lft.to/lastmile_qr_scan", "android": "https://dc.lft.to/lastmile_qr_scan"}, "lon": -77.043856, "type": "electric_scooter"}, {"bike_id": "415afaedd0af422d01761e9647596d64", "is_reserved": 0, "fusion_lon": 0.0, "lat": 38.9656165, "is_disabled": 0, "name": "415afaedd0af422d01761e9647596d64", "fusion_lat": 0.0, "rental_uris": {"ios": "https://dc.lft.to/lastmile_qr_scan", "android": "https://dc.lft.to/lastmile_qr_scan"}, "lon": -77.02301683333333, "type": "electric_bike"}, {"bike_id": "ffc398c2e805db53de88f4b0abdddde6", "is_reserved": 0, "fusion_lon": 0.0, "lat": 38.878581833333335, "is_disabled": 0, "name": "ffc398c2e805db53de88f4b0abdddde6", "fusion_lat": 0.0, "rental_uris": {"ios": "https://dc.lft.to/lastmile_qr_scan", "android": "https://dc.lft.to/lastmile_qr_scan"}, "lon": -76.98989283333333, "type": "electric_scooter"}, {"bike_id": "5d14ff69f28de1046ab902ea4344c2db", "is_reserved": 0, "fusion_lon": 0.0, "lat": 38.944178, "is_disabled": 0, "name": "5d14ff69f28de1046ab902ea4344c2db", "fusion_lat": 0.0, "rental_uris": {"ios": "https://dc.lft.to/lastmile_qr_scan", "android": "https://dc.lft.to/lastmile_qr_scan"}, "lon": -76.99208383333334, "type": "electric_scooter"}, {"bike_id": "d6a0d32c0b0985321bf1ad9f761ec676", "is_reserved": 0, "fusion_lon": 0.0, "lat": 38.90599366666667, "is_disabled": 0, "name": "d6a0d32c0b0985321bf1ad9f761ec676", "fusion_lat": 0.0, "rental_uris": {"ios": "https://dc.lft.to/lastmile_qr_scan", "android": "https://dc.lft.to/lastmile_qr_scan"}, "lon": -77.04130566666667, "type": "electric_scooter"}, {"bike_id": "16f38fc4d837c85ffa915e4bc0ab9b53", "is_reserved": 0, "fusion_lon": 0.0, "lat": 38.89219333333333, "is_disabled": 0, "name": "16f38fc4d837c85ffa915e4bc0ab9b53", "fusion_lat": 0.0, "rental_uris": {"ios": "https://dc.lft.to/lastmile_qr_scan", "android": "https://dc.lft.to/lastmile_qr_scan"}, "lon": -77.03219083333333, "type": "electric_scooter"}, {"bike_id": "d8bb85f22635e76ddeaa052abb29e175", "is_reserved": 0, "fusion_lon": 0.0, "lat": 38.900289, "is_disabled": 0, "name": "d8bb85f22635e76ddeaa052abb29e175", "fusion_lat": 0.0, "rental_uris": {"ios": "https://dc.lft.to/lastmile_qr_scan", "android": "https://dc.lft.to/lastmile_qr_scan"}, "lon": -77.04339283333333, "type": "electric_scooter"}, {"bike_id": "c6a02b20ad3c32c9886402e8059f80fa", "is_reserved": 0, "fusion_lon": 0.0, "lat": 38.928187666666666, "is_disabled": 0, "name": "c6a02b20ad3c32c9886402e8059f80fa", "fusion_lat": 0.0, "rental_uris": {"ios": "https://dc.lft.to/lastmile_qr_scan", "android": "https://dc.lft.to/lastmile_qr_scan"}, "lon": -77.0370635, "type": "electric_scooter"}, {"bike_id": "e7e4dd18d628feda5fbfed0b8fa7f810", "is_reserved": 0, "fusion_lon": 0.0, "lat": 38.90281, "is_disabled": 0, "name": "e7e4dd18d628feda5fbfed0b8fa7f810", "fusion_lat": 0.0, "rental_uris": {"ios": "https://dc.lft.to/lastmile_qr_scan", "android": "https://dc.lft.to/lastmile_qr_scan"}, "lon": -77.03461733333333, "type": "electric_scooter"}, {"bike_id": "3909e996b9db46bbcffa588bdfc4d7e1", "is_reserved": 0, "fusion_lon": 0.0, "lat": 38.92253683333333, "is_disabled": 0, "name": "3909e996b9db46bbcffa588bdfc4d7e1", "fusion_lat": 0.0, "rental_uris": {"ios": "https://dc.lft.to/lastmile_qr_scan", "android": "https://dc.lft.to/lastmile_qr_scan"}, "lon": -77.031933, "type": "electric_scooter"}, {"bike_id": "15f927e4de37ac0075c4e98de4232474", "is_reserved": 0, "fusion_lon": 0.0, "lat": 38.91729616666667, "is_disabled": 0, "name": "15f927e4de37ac0075c4e98de4232474", "fusion_lat": 0.0, "rental_uris": {"ios": "https://dc.lft.to/lastmile_qr_scan", "android": "https://dc.lft.to/lastmile_qr_scan"}, "lon": -77.0079835, "type": "electric_scooter"}, {"bike_id": "9e0585426536a957103b4cab1438334e", "is_reserved": 0, "fusion_lon": 0.0, "lat": 38.8955225, "is_disabled": 0, "name": "9e0585426536a957103b4cab1438334e", "fusion_lat": 0.0, "rental_uris": {"ios": "https://dc.lft.to/lastmile_qr_scan", "android": "https://dc.lft.to/lastmile_qr_scan"}, "lon": -76.93355516666666, "type": "electric_scooter"}, {"bike_id": "eaa75c1d9840b1756fc70a0e5464359b", "is_reserved": 0, "fusion_lon": 0.0, "lat": 38.87105233333333, "is_disabled": 0, "name": "eaa75c1d9840b1756fc70a0e5464359b", "fusion_lat": 0.0, "rental_uris": {"ios": "https://dc.lft.to/lastmile_qr_scan", "android": "https://dc.lft.to/lastmile_qr_scan"}, "lon": -77.00751933333333, "type": "electric_scooter"}, {"bike_id": "3e4da77e6580d0e1deb18065845a1a22", "is_reserved": 0, "fusion_lon": 0.0, "lat": 38.920694, "is_disabled": 0, "name": "3e4da77e6580d0e1deb18065845a1a22", "fusion_lat": 0.0, "rental_uris": {"ios": "https://dc.lft.to/lastmile_qr_scan", "android": "https://dc.lft.to/lastmile_qr_scan"}, "lon": -77.04688983333334, "type": "electric_scooter"}, {"bike_id": "3e32c69ac462ab1325229daa460ef4bc", "is_reserved": 0, "fusion_lon": 0.0, "lat": 38.88073083333333, "is_disabled": 0, "name": "3e32c69ac462ab1325229daa460ef4bc", "fusion_lat": 0.0, "rental_uris": {"ios": "https://dc.lft.to/lastmile_qr_scan", "android": "https://dc.lft.to/lastmile_qr_scan"}, "lon": -77.08635416666667, "type": "electric_bike"}, {"bike_id": "5ab5c0cff1117aaa25807d2554945bd6", "is_reserved": 0, "fusion_lon": 0.0, "lat": 38.8801455, "is_disabled": 0, "name": "5ab5c0cff1117aaa25807d2554945bd6", "fusion_lat": 0.0, "rental_uris": {"ios": "https://dc.lft.to/lastmile_qr_scan", "android": "https://dc.lft.to/lastmile_qr_scan"}, "lon": -76.931326, "type": "electric_scooter"}, {"bike_id": "320ed1c1fcf8e0abfab48af3b00e90ae", "is_reserved": 0, "fusion_lon": 0.0, "lat": 38.901006833333334, "is_disabled": 0, "name": "320ed1c1fcf8e0abfab48af3b00e90ae", "fusion_lat": 0.0, "rental_uris": {"ios": "https://dc.lft.to/lastmile_qr_scan", "android": "https://dc.lft.to/lastmile_qr_scan"}, "lon": -77.04339983333334, "type": "electric_scooter"}, {"bike_id": "da3e9871ad29be0aec54d317495cb791", "is_reserved": 0, "fusion_lon": 0.0, "lat": 38.9208205, "is_disabled": 0, "name": "da3e9871ad29be0aec54d317495cb791", "fusion_lat": 0.0, "rental_uris": {"ios": "https://dc.lft.to/lastmile_qr_scan", "android": "https://dc.lft.to/lastmile_qr_scan"}, "lon": -77.04212716666666, "type": "electric_scooter"}, {"bike_id": "bbd319ab448ca3dda5869db737f3f66b", "is_reserved": 0, "fusion_lon": 0.0, "lat": 38.9084085, "is_disabled": 0, "name": "bbd319ab448ca3dda5869db737f3f66b", "fusion_lat": 0.0, "rental_uris": {"ios": "https://dc.lft.to/lastmile_qr_scan", "android": "https://dc.lft.to/lastmile_qr_scan"}, "lon": -77.03335933333334, "type": "electric_scooter"}, {"bike_id": "c89a770e6f4ed400f4bcd7e8b8e03d83", "is_reserved": 0, "fusion_lon": 0.0, "lat": 38.89696683333333, "is_disabled": 0, "name": "c89a770e6f4ed400f4bcd7e8b8e03d83", "fusion_lat": 0.0, "rental_uris": {"ios": "https://dc.lft.to/lastmile_qr_scan", "android": "https://dc.lft.to/lastmile_qr_scan"}, "lon": -76.9176905, "type": "electric_scooter"}, {"bike_id": "5a07b78548ae3c29864588c5174395f4", "is_reserved": 0, "fusion_lon": 0.0, "lat": 38.90437083333333, "is_disabled": 0, "name": "5a07b78548ae3c29864588c5174395f4", "fusion_lat": 0.0, "rental_uris": {"ios": "https://dc.lft.to/lastmile_qr_scan", "android": "https://dc.lft.to/lastmile_qr_scan"}, "lon": -77.04348916666666, "type": "electric_scooter"}, {"bike_id": "24f9b11e34899008c7b0b348b2e6f89b", "is_reserved": 0, "fusion_lon": 0.0, "lat": 38.9300355, "is_disabled": 0, "name": "24f9b11e34899008c7b0b348b2e6f89b", "fusion_lat": 0.0, "rental_uris": {"ios": "https://dc.lft.to/lastmile_qr_scan", "android": "https://dc.lft.to/lastmile_qr_scan"}, "lon": -77.0618905, "type": "electric_scooter"}, {"bike_id": "9bb1b2743808b08295b73d40c0010e7d", "is_reserved": 0, "fusion_lon": 0.0, "lat": 38.884773833333334, "is_disabled": 0, "name": "9bb1b2743808b08295b73d40c0010e7d", "fusion_lat": 0.0, "rental_uris": {"ios": "https://dc.lft.to/lastmile_qr_scan", "android": "https://dc.lft.to/lastmile_qr_scan"}, "lon": -77.03351366666666, "type": "electric_scooter"}, {"bike_id": "1cefbf7fba5b7416469085e0eafc9045", "is_reserved": 0, "fusion_lon": 0.0, "lat": 38.91881733333334, "is_disabled": 0, "name": "1cefbf7fba5b7416469085e0eafc9045", "fusion_lat": 0.0, "rental_uris": {"ios": "https://dc.lft.to/lastmile_qr_scan", "android": "https://dc.lft.to/lastmile_qr_scan"}, "lon": -77.01600716666667, "type": "electric_scooter"}, {"bike_id": "b644f0dfeff9edb3089416fa22c131c4", "is_reserved": 0, "fusion_lon": 0.0, "lat": 38.8995495, "is_disabled": 0, "name": "b644f0dfeff9edb3089416fa22c131c4", "fusion_lat": 0.0, "rental_uris": {"ios": "https://dc.lft.to/lastmile_qr_scan", "android": "https://dc.lft.to/lastmile_qr_scan"}, "lon": -77.04720533333334, "type": "electric_scooter"}, {"bike_id": "96c75248f32964f3d6bacdd8766c5031", "is_reserved": 0, "fusion_lon": 0.0, "lat": 38.91686416666667, "is_disabled": 0, "name": "96c75248f32964f3d6bacdd8766c5031", "fusion_lat": 0.0, "rental_uris": {"ios": "https://dc.lft.to/lastmile_qr_scan", "android": "https://dc.lft.to/lastmile_qr_scan"}, "lon": -77.02279766666666, "type": "electric_scooter"}, {"bike_id": "89e2fd87a43e41edd32c81b1cfcb854f", "is_reserved": 0, "fusion_lon": 0.0, "lat": 38.925163, "is_disabled": 0, "name": "89e2fd87a43e41edd32c81b1cfcb854f", "fusion_lat": 0.0, "rental_uris": {"ios": "https://dc.lft.to/lastmile_qr_scan", "android": "https://dc.lft.to/lastmile_qr_scan"}, "lon": -77.05130866666667, "type": "electric_scooter"}, {"bike_id": "8e2f1acb61f86588448d87cc1f6ed308", "is_reserved": 0, "fusion_lon": 0.0, "lat": 38.89239333333333, "is_disabled": 0, "name": "8e2f1acb61f86588448d87cc1f6ed308", "fusion_lat": 0.0, "rental_uris": {"ios": "https://dc.lft.to/lastmile_qr_scan", "android": "https://dc.lft.to/lastmile_qr_scan"}, "lon": -77.03957533333333, "type": "electric_scooter"}, {"bike_id": "ac57a3518666e580a7635d7dca39c7dd", "is_reserved": 0, "fusion_lon": 0.0, "lat": 38.8841855, "is_disabled": 0, "name": "ac57a3518666e580a7635d7dca39c7dd", "fusion_lat": 0.0, "rental_uris": {"ios": "https://dc.lft.to/lastmile_qr_scan", "android": "https://dc.lft.to/lastmile_qr_scan"}, "lon": -77.023858, "type": "electric_scooter"}, {"bike_id": "1495b74c79c62c88c01eed59e067ea8b", "is_reserved": 0, "fusion_lon": 0.0, "lat": 38.9048045, "is_disabled": 0, "name": "1495b74c79c62c88c01eed59e067ea8b", "fusion_lat": 0.0, "rental_uris": {"ios": "https://dc.lft.to/lastmile_qr_scan", "android": "https://dc.lft.to/lastmile_qr_scan"}, "lon": -77.043466, "type": "electric_scooter"}, {"bike_id": "3a41d51c0489df8bd3cc6a3b3a5683f2", "is_reserved": 0, "fusion_lon": 0.0, "lat": 38.8272605, "is_disabled": 0, "name": "3a41d51c0489df8bd3cc6a3b3a5683f2", "fusion_lat": 0.0, "rental_uris": {"ios": "https://dc.lft.to/lastmile_qr_scan", "android": "https://dc.lft.to/lastmile_qr_scan"}, "lon": -77.00868066666666, "type": "electric_bike"}, {"bike_id": "05070962358edc35037b8baf22eeac8a", "is_reserved": 0, "fusion_lon": 0.0, "lat": 38.886626166666666, "is_disabled": 0, "name": "05070962358edc35037b8baf22eeac8a", "fusion_lat": 0.0, "rental_uris": {"ios": "https://dc.lft.to/lastmile_qr_scan", "android": "https://dc.lft.to/lastmile_qr_scan"}, "lon": -77.03390583333334, "type": "electric_scooter"}, {"bike_id": "283f6ce69ba6a73212c0fb4d2b12aab6", "is_reserved": 0, "fusion_lon": 0.0, "lat": 38.8990415, "is_disabled": 0, "name": "283f6ce69ba6a73212c0fb4d2b12aab6", "fusion_lat": 0.0, "rental_uris": {"ios": "https://dc.lft.to/lastmile_qr_scan", "android": "https://dc.lft.to/lastmile_qr_scan"}, "lon": -77.00365716666667, "type": "electric_scooter"}, {"bike_id": "454f43448422c2963c2ce0c12eaab95e", "is_reserved": 0, "fusion_lon": 0.0, "lat": 38.93389916666667, "is_disabled": 0, "name": "454f43448422c2963c2ce0c12eaab95e", "fusion_lat": 0.0, "rental_uris": {"ios": "https://dc.lft.to/lastmile_qr_scan", "android": "https://dc.lft.to/lastmile_qr_scan"}, "lon": -77.02060833333333, "type": "electric_scooter"}, {"bike_id": "6ab19945e51a9ebe3742b3393a9fb0de", "is_reserved": 0, "fusion_lon": 0.0, "lat": 38.96152133333333, "is_disabled": 0, "name": "6ab19945e51a9ebe3742b3393a9fb0de", "fusion_lat": 0.0, "rental_uris": {"ios": "https://dc.lft.to/lastmile_qr_scan", "android": "https://dc.lft.to/lastmile_qr_scan"}, "lon": -76.99773833333333, "type": "electric_scooter"}, {"bike_id": "32e985f376c31555687b782c68323269", "is_reserved": 0, "fusion_lon": 0.0, "lat": 38.924687666666664, "is_disabled": 0, "name": "32e985f376c31555687b782c68323269", "fusion_lat": 0.0, "rental_uris": {"ios": "https://dc.lft.to/lastmile_qr_scan", "android": "https://dc.lft.to/lastmile_qr_scan"}, "lon": -77.03205083333333, "type": "electric_scooter"}, {"bike_id": "8a0af03cc2686884ed104cc58098fb08", "is_reserved": 0, "fusion_lon": 0.0, "lat": 38.940437, "is_disabled": 0, "name": "8a0af03cc2686884ed104cc58098fb08", "fusion_lat": 0.0, "rental_uris": {"ios": "https://dc.lft.to/lastmile_qr_scan", "android": "https://dc.lft.to/lastmile_qr_scan"}, "lon": -77.029781, "type": "electric_scooter"}, {"bike_id": "820f788ba1670c3dd7cf2e531f2e5886", "is_reserved": 0, "fusion_lon": 0.0, "lat": 38.8531945, "is_disabled": 0, "name": "820f788ba1670c3dd7cf2e531f2e5886", "fusion_lat": 0.0, "rental_uris": {"ios": "https://dc.lft.to/lastmile_qr_scan", "android": "https://dc.lft.to/lastmile_qr_scan"}, "lon": -76.9800405, "type": "electric_scooter"}, {"bike_id": "f63143445761aeb0409d0722cd1f8da4", "is_reserved": 0, "fusion_lon": 0.0, "lat": 38.922174166666665, "is_disabled": 0, "name": "f63143445761aeb0409d0722cd1f8da4", "fusion_lat": 0.0, "rental_uris": {"ios": "https://dc.lft.to/lastmile_qr_scan", "android": "https://dc.lft.to/lastmile_qr_scan"}, "lon": -77.0431835, "type": "electric_scooter"}, {"bike_id": "1b9af49d1d38f6392ae80fc556e979a7", "is_reserved": 0, "fusion_lon": 0.0, "lat": 38.9114455, "is_disabled": 0, "name": "1b9af49d1d38f6392ae80fc556e979a7", "fusion_lat": 0.0, "rental_uris": {"ios": "https://dc.lft.to/lastmile_qr_scan", "android": "https://dc.lft.to/lastmile_qr_scan"}, "lon": -77.02694716666667, "type": "electric_scooter"}, {"bike_id": "8e63c12e958e2e343562c529fa253579", "is_reserved": 0, "fusion_lon": 0.0, "lat": 38.9180925, "is_disabled": 0, "name": "8e63c12e958e2e343562c529fa253579", "fusion_lat": 0.0, "rental_uris": {"ios": "https://dc.lft.to/lastmile_qr_scan", "android": "https://dc.lft.to/lastmile_qr_scan"}, "lon": -77.02478116666667, "type": "electric_scooter"}, {"bike_id": "526ec13dbacc9db0c87fe7199d3d27d4", "is_reserved": 0, "fusion_lon": 0.0, "lat": 38.922477666666666, "is_disabled": 0, "name": "526ec13dbacc9db0c87fe7199d3d27d4", "fusion_lat": 0.0, "rental_uris": {"ios": "https://dc.lft.to/lastmile_qr_scan", "android": "https://dc.lft.to/lastmile_qr_scan"}, "lon": -77.04132783333333, "type": "electric_scooter"}, {"bike_id": "678df2dd5cc22d6d7a09fa4f0a8ebfae", "is_reserved": 0, "fusion_lon": 0.0, "lat": 38.870822, "is_disabled": 0, "name": "678df2dd5cc22d6d7a09fa4f0a8ebfae", "fusion_lat": 0.0, "rental_uris": {"ios": "https://dc.lft.to/lastmile_qr_scan", "android": "https://dc.lft.to/lastmile_qr_scan"}, "lon": -77.01206116666667, "type": "electric_scooter"}, {"bike_id": "b182dd626874aaf01d7bba76da37bed8", "is_reserved": 0, "fusion_lon": 0.0, "lat": 38.89604416666667, "is_disabled": 0, "name": "b182dd626874aaf01d7bba76da37bed8", "fusion_lat": 0.0, "rental_uris": {"ios": "https://dc.lft.to/lastmile_qr_scan", "android": "https://dc.lft.to/lastmile_qr_scan"}, "lon": -77.042453, "type": "electric_scooter"}, {"bike_id": "5702246d9f29d06cd688d715c47095b5", "is_reserved": 0, "fusion_lon": 0.0, "lat": 38.937191, "is_disabled": 0, "name": "5702246d9f29d06cd688d715c47095b5", "fusion_lat": 0.0, "rental_uris": {"ios": "https://dc.lft.to/lastmile_qr_scan", "android": "https://dc.lft.to/lastmile_qr_scan"}, "lon": -77.02440983333334, "type": "electric_scooter"}, {"bike_id": "a9b90cae9eca8c842a6ecd92560967d9", "is_reserved": 0, "fusion_lon": 0.0, "lat": 38.90552533333333, "is_disabled": 0, "name": "a9b90cae9eca8c842a6ecd92560967d9", "fusion_lat": 0.0, "rental_uris": {"ios": "https://dc.lft.to/lastmile_qr_scan", "android": "https://dc.lft.to/lastmile_qr_scan"}, "lon": -77.02214866666667, "type": "electric_scooter"}, {"bike_id": "1ada691d2d2d93610b6012fcd1baba82", "is_reserved": 0, "fusion_lon": 0.0, "lat": 38.923018666666664, "is_disabled": 0, "name": "1ada691d2d2d93610b6012fcd1baba82", "fusion_lat": 0.0, "rental_uris": {"ios": "https://dc.lft.to/lastmile_qr_scan", "android": "https://dc.lft.to/lastmile_qr_scan"}, "lon": -77.0423225, "type": "electric_scooter"}, {"bike_id": "de9cb819583a877d73e11e8c21872fb0", "is_reserved": 0, "fusion_lon": 0.0, "lat": 38.90326, "is_disabled": 0, "name": "de9cb819583a877d73e11e8c21872fb0", "fusion_lat": 0.0, "rental_uris": {"ios": "https://dc.lft.to/lastmile_qr_scan", "android": "https://dc.lft.to/lastmile_qr_scan"}, "lon": -77.0331515, "type": "electric_scooter"}, {"bike_id": "6cbe278900d221823dcdde56647e6227", "is_reserved": 0, "fusion_lon": 0.0, "lat": 38.934888, "is_disabled": 0, "name": "6cbe278900d221823dcdde56647e6227", "fusion_lat": 0.0, "rental_uris": {"ios": "https://dc.lft.to/lastmile_qr_scan", "android": "https://dc.lft.to/lastmile_qr_scan"}, "lon": -77.02847233333334, "type": "electric_scooter"}, {"bike_id": "b7e0688da4e9df2d64b674cca6a6b0c7", "is_reserved": 0, "fusion_lon": 0.0, "lat": 38.925649666666665, "is_disabled": 0, "name": "b7e0688da4e9df2d64b674cca6a6b0c7", "fusion_lat": 0.0, "rental_uris": {"ios": "https://dc.lft.to/lastmile_qr_scan", "android": "https://dc.lft.to/lastmile_qr_scan"}, "lon": -77.03793416666667, "type": "electric_scooter"}, {"bike_id": "bfb79a9dced52eab219afa5598ac118c", "is_reserved": 0, "fusion_lon": 0.0, "lat": 38.844220166666666, "is_disabled": 0, "name": "bfb79a9dced52eab219afa5598ac118c", "fusion_lat": 0.0, "rental_uris": {"ios": "https://dc.lft.to/lastmile_qr_scan", "android": "https://dc.lft.to/lastmile_qr_scan"}, "lon": -76.99778, "type": "electric_scooter"}, {"bike_id": "a8fcce10ad611bf727746b47753852ad", "is_reserved": 0, "fusion_lon": 0.0, "lat": 38.8543555, "is_disabled": 0, "name": "a8fcce10ad611bf727746b47753852ad", "fusion_lat": 0.0, "rental_uris": {"ios": "https://dc.lft.to/lastmile_qr_scan", "android": "https://dc.lft.to/lastmile_qr_scan"}, "lon": -76.909664, "type": "electric_bike"}, {"bike_id": "34dcbbb619a5729ce87832f8b0ddf661", "is_reserved": 0, "fusion_lon": 0.0, "lat": 38.916267166666664, "is_disabled": 0, "name": "34dcbbb619a5729ce87832f8b0ddf661", "fusion_lat": 0.0, "rental_uris": {"ios": "https://dc.lft.to/lastmile_qr_scan", "android": "https://dc.lft.to/lastmile_qr_scan"}, "lon": -77.031654, "type": "electric_scooter"}, {"bike_id": "e71ddff51105bbd4697e406051e24fec", "is_reserved": 0, "fusion_lon": 0.0, "lat": 38.903765666666665, "is_disabled": 0, "name": "e71ddff51105bbd4697e406051e24fec", "fusion_lat": 0.0, "rental_uris": {"ios": "https://dc.lft.to/lastmile_qr_scan", "android": "https://dc.lft.to/lastmile_qr_scan"}, "lon": -77.05312283333333, "type": "electric_scooter"}, {"bike_id": "6febd694dd5ade7885bb1a2c30b6aeb9", "is_reserved": 0, "fusion_lon": 0.0, "lat": 38.89223716666667, "is_disabled": 0, "name": "6febd694dd5ade7885bb1a2c30b6aeb9", "fusion_lat": 0.0, "rental_uris": {"ios": "https://dc.lft.to/lastmile_qr_scan", "android": "https://dc.lft.to/lastmile_qr_scan"}, "lon": -77.04863416666667, "type": "electric_scooter"}, {"bike_id": "7ea06aeedafafed229bfece67e6650f2", "is_reserved": 0, "fusion_lon": 0.0, "lat": 38.8104585, "is_disabled": 0, "name": "7ea06aeedafafed229bfece67e6650f2", "fusion_lat": 0.0, "rental_uris": {"ios": "https://dc.lft.to/lastmile_qr_scan", "android": "https://dc.lft.to/lastmile_qr_scan"}, "lon": -77.08510883333334, "type": "electric_bike"}, {"bike_id": "ffbe45d9353be778bd6241eb87acef8c", "is_reserved": 0, "fusion_lon": 0.0, "lat": 38.877425, "is_disabled": 0, "name": "ffbe45d9353be778bd6241eb87acef8c", "fusion_lat": 0.0, "rental_uris": {"ios": "https://dc.lft.to/lastmile_qr_scan", "android": "https://dc.lft.to/lastmile_qr_scan"}, "lon": -76.980544, "type": "electric_bike"}, {"bike_id": "7910af1107a4dc67013c03b2d4535166", "is_reserved": 0, "fusion_lon": 0.0, "lat": 38.92784966666667, "is_disabled": 0, "name": "7910af1107a4dc67013c03b2d4535166", "fusion_lat": 0.0, "rental_uris": {"ios": "https://dc.lft.to/lastmile_qr_scan", "android": "https://dc.lft.to/lastmile_qr_scan"}, "lon": -77.02313933333333, "type": "electric_scooter"}, {"bike_id": "216a577db9becb3d133c283c9deb542e", "is_reserved": 0, "fusion_lon": 0.0, "lat": 38.89824383333333, "is_disabled": 0, "name": "216a577db9becb3d133c283c9deb542e", "fusion_lat": 0.0, "rental_uris": {"ios": "https://dc.lft.to/lastmile_qr_scan", "android": "https://dc.lft.to/lastmile_qr_scan"}, "lon": -77.03267533333333, "type": "electric_scooter"}, {"bike_id": "ad76ea8b3572bf680ccbb07effa6749b", "is_reserved": 0, "fusion_lon": 0.0, "lat": 38.898471666666666, "is_disabled": 0, "name": "ad76ea8b3572bf680ccbb07effa6749b", "fusion_lat": 0.0, "rental_uris": {"ios": "https://dc.lft.to/lastmile_qr_scan", "android": "https://dc.lft.to/lastmile_qr_scan"}, "lon": -77.00741033333334, "type": "electric_scooter"}, {"bike_id": "967b27c529d6dc9d8b3c05430d597095", "is_reserved": 0, "fusion_lon": 0.0, "lat": 38.876324, "is_disabled": 0, "name": "967b27c529d6dc9d8b3c05430d597095", "fusion_lat": 0.0, "rental_uris": {"ios": "https://dc.lft.to/lastmile_qr_scan", "android": "https://dc.lft.to/lastmile_qr_scan"}, "lon": -76.96525133333333, "type": "electric_scooter"}, {"bike_id": "55a2a65375832078c7b62f17f238e62c", "is_reserved": 0, "fusion_lon": 0.0, "lat": 38.87389433333333, "is_disabled": 0, "name": "55a2a65375832078c7b62f17f238e62c", "fusion_lat": 0.0, "rental_uris": {"ios": "https://dc.lft.to/lastmile_qr_scan", "android": "https://dc.lft.to/lastmile_qr_scan"}, "lon": -77.00088933333333, "type": "electric_scooter"}, {"bike_id": "90050f66cca5c9f2e50b9986c7aa3ebc", "is_reserved": 0, "fusion_lon": 0.0, "lat": 38.89323983333333, "is_disabled": 0, "name": "90050f66cca5c9f2e50b9986c7aa3ebc", "fusion_lat": 0.0, "rental_uris": {"ios": "https://dc.lft.to/lastmile_qr_scan", "android": "https://dc.lft.to/lastmile_qr_scan"}, "lon": -76.9299295, "type": "electric_scooter"}, {"bike_id": "6179ea2c2bdfb3c9a6c72c900659faa6", "is_reserved": 0, "fusion_lon": 0.0, "lat": 38.90510733333333, "is_disabled": 0, "name": "6179ea2c2bdfb3c9a6c72c900659faa6", "fusion_lat": 0.0, "rental_uris": {"ios": "https://dc.lft.to/lastmile_qr_scan", "android": "https://dc.lft.to/lastmile_qr_scan"}, "lon": -77.05124, "type": "electric_scooter"}, {"bike_id": "6f2808b91a3e543b772f2bbfcbb3b3fe", "is_reserved": 0, "fusion_lon": 0.0, "lat": 38.91687533333333, "is_disabled": 0, "name": "6f2808b91a3e543b772f2bbfcbb3b3fe", "fusion_lat": 0.0, "rental_uris": {"ios": "https://dc.lft.to/lastmile_qr_scan", "android": "https://dc.lft.to/lastmile_qr_scan"}, "lon": -77.0322205, "type": "electric_scooter"}, {"bike_id": "040f4eb5dca75db3c47d02127df6e7f2", "is_reserved": 0, "fusion_lon": 0.0, "lat": 38.9154475, "is_disabled": 0, "name": "040f4eb5dca75db3c47d02127df6e7f2", "fusion_lat": 0.0, "rental_uris": {"ios": "https://dc.lft.to/lastmile_qr_scan", "android": "https://dc.lft.to/lastmile_qr_scan"}, "lon": -77.02159216666666, "type": "electric_scooter"}, {"bike_id": "d1b0d4fd5f77f0cad5ae48912c7a5863", "is_reserved": 0, "fusion_lon": 0.0, "lat": 38.908493166666666, "is_disabled": 0, "name": "d1b0d4fd5f77f0cad5ae48912c7a5863", "fusion_lat": 0.0, "rental_uris": {"ios": "https://dc.lft.to/lastmile_qr_scan", "android": "https://dc.lft.to/lastmile_qr_scan"}, "lon": -77.055375, "type": "electric_bike"}, {"bike_id": "dfa45efe10f3062c8c6a5b2daa33f539", "is_reserved": 0, "fusion_lon": 0.0, "lat": 38.90303333333333, "is_disabled": 0, "name": "dfa45efe10f3062c8c6a5b2daa33f539", "fusion_lat": 0.0, "rental_uris": {"ios": "https://dc.lft.to/lastmile_qr_scan", "android": "https://dc.lft.to/lastmile_qr_scan"}, "lon": -77.0517705, "type": "electric_scooter"}, {"bike_id": "dc1b75fdd2061baaa8a7e95dd0173cf2", "is_reserved": 0, "fusion_lon": 0.0, "lat": 38.8972765, "is_disabled": 0, "name": "dc1b75fdd2061baaa8a7e95dd0173cf2", "fusion_lat": 0.0, "rental_uris": {"ios": "https://dc.lft.to/lastmile_qr_scan", "android": "https://dc.lft.to/lastmile_qr_scan"}, "lon": -77.05576866666667, "type": "electric_scooter"}, {"bike_id": "00996d90bb967fac508289a3248aea0d", "is_reserved": 0, "fusion_lon": 0.0, "lat": 38.926636, "is_disabled": 0, "name": "00996d90bb967fac508289a3248aea0d", "fusion_lat": 0.0, "rental_uris": {"ios": "https://dc.lft.to/lastmile_qr_scan", "android": "https://dc.lft.to/lastmile_qr_scan"}, "lon": -76.99539533333333, "type": "electric_scooter"}, {"bike_id": "0a7f178aaed9d2ffad6f9fa4cbdf2a6f", "is_reserved": 0, "fusion_lon": 0.0, "lat": 38.90360733333333, "is_disabled": 0, "name": "0a7f178aaed9d2ffad6f9fa4cbdf2a6f", "fusion_lat": 0.0, "rental_uris": {"ios": "https://dc.lft.to/lastmile_qr_scan", "android": "https://dc.lft.to/lastmile_qr_scan"}, "lon": -77.04336233333333, "type": "electric_scooter"}, {"bike_id": "d4005d40d75e4651e3f6e1bd7d960411", "is_reserved": 0, "fusion_lon": 0.0, "lat": 38.887673, "is_disabled": 0, "name": "d4005d40d75e4651e3f6e1bd7d960411", "fusion_lat": 0.0, "rental_uris": {"ios": "https://dc.lft.to/lastmile_qr_scan", "android": "https://dc.lft.to/lastmile_qr_scan"}, "lon": -77.02231416666666, "type": "electric_scooter"}, {"bike_id": "57f7279204ec69e47f3a6db6e659ba6a", "is_reserved": 0, "fusion_lon": 0.0, "lat": 38.884290666666665, "is_disabled": 0, "name": "57f7279204ec69e47f3a6db6e659ba6a", "fusion_lat": 0.0, "rental_uris": {"ios": "https://dc.lft.to/lastmile_qr_scan", "android": "https://dc.lft.to/lastmile_qr_scan"}, "lon": -76.95758366666666, "type": "electric_scooter"}, {"bike_id": "30058e1b4c47c37a5de37f3191318ca9", "is_reserved": 0, "fusion_lon": 0.0, "lat": 38.921883, "is_disabled": 0, "name": "30058e1b4c47c37a5de37f3191318ca9", "fusion_lat": 0.0, "rental_uris": {"ios": "https://dc.lft.to/lastmile_qr_scan", "android": "https://dc.lft.to/lastmile_qr_scan"}, "lon": -77.02409983333334, "type": "electric_scooter"}, {"bike_id": "c4d21698c2eba43ac21efc2fe967fc80", "is_reserved": 0, "fusion_lon": 0.0, "lat": 38.909662833333336, "is_disabled": 0, "name": "c4d21698c2eba43ac21efc2fe967fc80", "fusion_lat": 0.0, "rental_uris": {"ios": "https://dc.lft.to/lastmile_qr_scan", "android": "https://dc.lft.to/lastmile_qr_scan"}, "lon": -77.03277783333333, "type": "electric_scooter"}, {"bike_id": "6ca82db161781013c4804253fc6e2661", "is_reserved": 0, "fusion_lon": 0.0, "lat": 38.900589833333335, "is_disabled": 0, "name": "6ca82db161781013c4804253fc6e2661", "fusion_lat": 0.0, "rental_uris": {"ios": "https://dc.lft.to/lastmile_qr_scan", "android": "https://dc.lft.to/lastmile_qr_scan"}, "lon": -76.93386866666667, "type": "electric_scooter"}, {"bike_id": "9924c4ce2c837983f48af93a1f1a4f57", "is_reserved": 0, "fusion_lon": 0.0, "lat": 38.92287266666666, "is_disabled": 0, "name": "9924c4ce2c837983f48af93a1f1a4f57", "fusion_lat": 0.0, "rental_uris": {"ios": "https://dc.lft.to/lastmile_qr_scan", "android": "https://dc.lft.to/lastmile_qr_scan"}, "lon": -77.020661, "type": "electric_scooter"}, {"bike_id": "196ebe8e07645c6d80c44b9999987218", "is_reserved": 0, "fusion_lon": 0.0, "lat": 38.99071333333333, "is_disabled": 0, "name": "196ebe8e07645c6d80c44b9999987218", "fusion_lat": 0.0, "rental_uris": {"ios": "https://dc.lft.to/lastmile_qr_scan", "android": "https://dc.lft.to/lastmile_qr_scan"}, "lon": -76.8747445, "type": "electric_bike"}, {"bike_id": "14812ec5d911f414291cd0ba2ac681bc", "is_reserved": 0, "fusion_lon": 0.0, "lat": 38.866942, "is_disabled": 0, "name": "14812ec5d911f414291cd0ba2ac681bc", "fusion_lat": 0.0, "rental_uris": {"ios": "https://dc.lft.to/lastmile_qr_scan", "android": "https://dc.lft.to/lastmile_qr_scan"}, "lon": -76.98711383333334, "type": "electric_scooter"}, {"bike_id": "858a6420389b95a8a457df2e9cd9c0e0", "is_reserved": 0, "fusion_lon": 0.0, "lat": 38.91630983333334, "is_disabled": 0, "name": "858a6420389b95a8a457df2e9cd9c0e0", "fusion_lat": 0.0, "rental_uris": {"ios": "https://dc.lft.to/lastmile_qr_scan", "android": "https://dc.lft.to/lastmile_qr_scan"}, "lon": -77.03210316666667, "type": "electric_scooter"}, {"bike_id": "0c683330a4ddc8961439ba0ea6f4b8e9", "is_reserved": 0, "fusion_lon": 0.0, "lat": 38.931022, "is_disabled": 0, "name": "0c683330a4ddc8961439ba0ea6f4b8e9", "fusion_lat": 0.0, "rental_uris": {"ios": "https://dc.lft.to/lastmile_qr_scan", "android": "https://dc.lft.to/lastmile_qr_scan"}, "lon": -77.018537, "type": "electric_scooter"}, {"bike_id": "c4250c5b8c58ca71ae38ee6f3871744b", "is_reserved": 0, "fusion_lon": 0.0, "lat": 38.968199166666665, "is_disabled": 0, "name": "c4250c5b8c58ca71ae38ee6f3871744b", "fusion_lat": 0.0, "rental_uris": {"ios": "https://dc.lft.to/lastmile_qr_scan", "android": "https://dc.lft.to/lastmile_qr_scan"}, "lon": -77.017883, "type": "electric_scooter"}, {"bike_id": "f32fdec49c0030c926ab07e4551b59c1", "is_reserved": 0, "fusion_lon": 0.0, "lat": 38.905100166666664, "is_disabled": 0, "name": "f32fdec49c0030c926ab07e4551b59c1", "fusion_lat": 0.0, "rental_uris": {"ios": "https://dc.lft.to/lastmile_qr_scan", "android": "https://dc.lft.to/lastmile_qr_scan"}, "lon": -77.05031716666667, "type": "electric_scooter"}, {"bike_id": "cf972e0cc14cf298ae9bd0ef24cee641", "is_reserved": 0, "fusion_lon": 0.0, "lat": 38.924904833333336, "is_disabled": 0, "name": "cf972e0cc14cf298ae9bd0ef24cee641", "fusion_lat": 0.0, "rental_uris": {"ios": "https://dc.lft.to/lastmile_qr_scan", "android": "https://dc.lft.to/lastmile_qr_scan"}, "lon": -77.022734, "type": "electric_scooter"}, {"bike_id": "0721dacf15a2ffb4f675e45ffb7a270f", "is_reserved": 0, "fusion_lon": 0.0, "lat": 38.8695185, "is_disabled": 0, "name": "0721dacf15a2ffb4f675e45ffb7a270f", "fusion_lat": 0.0, "rental_uris": {"ios": "https://dc.lft.to/lastmile_qr_scan", "android": "https://dc.lft.to/lastmile_qr_scan"}, "lon": -77.01375466666667, "type": "electric_scooter"}, {"bike_id": "69bf1c718fd056a661d064bd98c39b89", "is_reserved": 0, "fusion_lon": 0.0, "lat": 38.902602, "is_disabled": 0, "name": "69bf1c718fd056a661d064bd98c39b89", "fusion_lat": 0.0, "rental_uris": {"ios": "https://dc.lft.to/lastmile_qr_scan", "android": "https://dc.lft.to/lastmile_qr_scan"}, "lon": -77.06015433333333, "type": "electric_scooter"}, {"bike_id": "7a3bb48b9d034cf14f33b38e403e5900", "is_reserved": 0, "fusion_lon": 0.0, "lat": 38.926085, "is_disabled": 0, "name": "7a3bb48b9d034cf14f33b38e403e5900", "fusion_lat": 0.0, "rental_uris": {"ios": "https://dc.lft.to/lastmile_qr_scan", "android": "https://dc.lft.to/lastmile_qr_scan"}, "lon": -77.03959716666667, "type": "electric_scooter"}, {"bike_id": "f2a4d69c2d432d3a5f3a4e4ed93c856b", "is_reserved": 0, "fusion_lon": 0.0, "lat": 38.90460366666667, "is_disabled": 0, "name": "f2a4d69c2d432d3a5f3a4e4ed93c856b", "fusion_lat": 0.0, "rental_uris": {"ios": "https://dc.lft.to/lastmile_qr_scan", "android": "https://dc.lft.to/lastmile_qr_scan"}, "lon": -76.9950225, "type": "electric_scooter"}, {"bike_id": "55d2076af0675d08adfe5c848629b924", "is_reserved": 0, "fusion_lon": 0.0, "lat": 38.87454983333333, "is_disabled": 0, "name": "55d2076af0675d08adfe5c848629b924", "fusion_lat": 0.0, "rental_uris": {"ios": "https://dc.lft.to/lastmile_qr_scan", "android": "https://dc.lft.to/lastmile_qr_scan"}, "lon": -77.00316183333334, "type": "electric_scooter"}, {"bike_id": "51f9e4f1f250dca26d335a312a4c2d12", "is_reserved": 0, "fusion_lon": 0.0, "lat": 38.90172483333333, "is_disabled": 0, "name": "51f9e4f1f250dca26d335a312a4c2d12", "fusion_lat": 0.0, "rental_uris": {"ios": "https://dc.lft.to/lastmile_qr_scan", "android": "https://dc.lft.to/lastmile_qr_scan"}, "lon": -77.02483933333333, "type": "electric_scooter"}, {"bike_id": "0f2ca1f7962bcd0d4db36176a9d00f4b", "is_reserved": 0, "fusion_lon": 0.0, "lat": 38.876317, "is_disabled": 0, "name": "0f2ca1f7962bcd0d4db36176a9d00f4b", "fusion_lat": 0.0, "rental_uris": {"ios": "https://dc.lft.to/lastmile_qr_scan", "android": "https://dc.lft.to/lastmile_qr_scan"}, "lon": -76.9959055, "type": "electric_scooter"}, {"bike_id": "b87a804e2d3377a3b89c445557635f84", "is_reserved": 0, "fusion_lon": 0.0, "lat": 38.89823916666667, "is_disabled": 0, "name": "b87a804e2d3377a3b89c445557635f84", "fusion_lat": 0.0, "rental_uris": {"ios": "https://dc.lft.to/lastmile_qr_scan", "android": "https://dc.lft.to/lastmile_qr_scan"}, "lon": -77.03312266666667, "type": "electric_scooter"}, {"bike_id": "02db3661e2a062dc734c63ebd6081356", "is_reserved": 0, "fusion_lon": 0.0, "lat": 38.998384333333334, "is_disabled": 0, "name": "02db3661e2a062dc734c63ebd6081356", "fusion_lat": 0.0, "rental_uris": {"ios": "https://dc.lft.to/lastmile_qr_scan", "android": "https://dc.lft.to/lastmile_qr_scan"}, "lon": -77.02899416666666, "type": "electric_bike"}, {"bike_id": "35238ab9b58c9296bafd38b5e569fdf3", "is_reserved": 0, "fusion_lon": 0.0, "lat": 38.885440833333334, "is_disabled": 0, "name": "35238ab9b58c9296bafd38b5e569fdf3", "fusion_lat": 0.0, "rental_uris": {"ios": "https://dc.lft.to/lastmile_qr_scan", "android": "https://dc.lft.to/lastmile_qr_scan"}, "lon": -77.11788433333334, "type": "electric_bike"}, {"bike_id": "96958d9d674be3d310d6c5a54abe52c7", "is_reserved": 0, "fusion_lon": 0.0, "lat": 38.934229, "is_disabled": 0, "name": "96958d9d674be3d310d6c5a54abe52c7", "fusion_lat": 0.0, "rental_uris": {"ios": "https://dc.lft.to/lastmile_qr_scan", "android": "https://dc.lft.to/lastmile_qr_scan"}, "lon": -76.96509483333334, "type": "electric_scooter"}, {"bike_id": "650c9ab3a95db2673655973dbc429dbb", "is_reserved": 0, "fusion_lon": 0.0, "lat": 38.9237855, "is_disabled": 0, "name": "650c9ab3a95db2673655973dbc429dbb", "fusion_lat": 0.0, "rental_uris": {"ios": "https://dc.lft.to/lastmile_qr_scan", "android": "https://dc.lft.to/lastmile_qr_scan"}, "lon": -77.0274155, "type": "electric_bike"}, {"bike_id": "c9ec015712c0600ed8e34579aecb1b0c", "is_reserved": 0, "fusion_lon": 0.0, "lat": 38.90663133333334, "is_disabled": 0, "name": "c9ec015712c0600ed8e34579aecb1b0c", "fusion_lat": 0.0, "rental_uris": {"ios": "https://dc.lft.to/lastmile_qr_scan", "android": "https://dc.lft.to/lastmile_qr_scan"}, "lon": -77.02711633333334, "type": "electric_scooter"}, {"bike_id": "8c83a816b1b55a6b8bc2a5d2a86ed560", "is_reserved": 0, "fusion_lon": 0.0, "lat": 38.92213533333333, "is_disabled": 0, "name": "8c83a816b1b55a6b8bc2a5d2a86ed560", "fusion_lat": 0.0, "rental_uris": {"ios": "https://dc.lft.to/lastmile_qr_scan", "android": "https://dc.lft.to/lastmile_qr_scan"}, "lon": -77.03655383333333, "type": "electric_scooter"}, {"bike_id": "d7a613840cea30ea36942833bf17d17a", "is_reserved": 0, "fusion_lon": 0.0, "lat": 38.914199333333336, "is_disabled": 0, "name": "d7a613840cea30ea36942833bf17d17a", "fusion_lat": 0.0, "rental_uris": {"ios": "https://dc.lft.to/lastmile_qr_scan", "android": "https://dc.lft.to/lastmile_qr_scan"}, "lon": -77.01708833333333, "type": "electric_bike"}, {"bike_id": "f7c1d67803818b83cce5e3efcac81043", "is_reserved": 0, "fusion_lon": 0.0, "lat": 38.891631, "is_disabled": 0, "name": "f7c1d67803818b83cce5e3efcac81043", "fusion_lat": 0.0, "rental_uris": {"ios": "https://dc.lft.to/lastmile_qr_scan", "android": "https://dc.lft.to/lastmile_qr_scan"}, "lon": -77.01546733333333, "type": "electric_scooter"}, {"bike_id": "8ffa5fdc05b9676ca00a161befb4a44d", "is_reserved": 0, "fusion_lon": 0.0, "lat": 38.9409105, "is_disabled": 0, "name": "8ffa5fdc05b9676ca00a161befb4a44d", "fusion_lat": 0.0, "rental_uris": {"ios": "https://dc.lft.to/lastmile_qr_scan", "android": "https://dc.lft.to/lastmile_qr_scan"}, "lon": -77.02546016666666, "type": "electric_scooter"}, {"bike_id": "db5bd6a4a5dfe464a12a5b1a1a8165bf", "is_reserved": 0, "fusion_lon": 0.0, "lat": 38.92860866666667, "is_disabled": 0, "name": "db5bd6a4a5dfe464a12a5b1a1a8165bf", "fusion_lat": 0.0, "rental_uris": {"ios": "https://dc.lft.to/lastmile_qr_scan", "android": "https://dc.lft.to/lastmile_qr_scan"}, "lon": -77.033232, "type": "electric_scooter"}, {"bike_id": "6868a5edc9295e4b08558bc2d20204d9", "is_reserved": 0, "fusion_lon": 0.0, "lat": 38.90951066666667, "is_disabled": 0, "name": "6868a5edc9295e4b08558bc2d20204d9", "fusion_lat": 0.0, "rental_uris": {"ios": "https://dc.lft.to/lastmile_qr_scan", "android": "https://dc.lft.to/lastmile_qr_scan"}, "lon": -77.04829083333334, "type": "electric_scooter"}, {"bike_id": "0b7296e7da1f7a26e58f5a621c543e96", "is_reserved": 0, "fusion_lon": 0.0, "lat": 38.9071435, "is_disabled": 0, "name": "0b7296e7da1f7a26e58f5a621c543e96", "fusion_lat": 0.0, "rental_uris": {"ios": "https://dc.lft.to/lastmile_qr_scan", "android": "https://dc.lft.to/lastmile_qr_scan"}, "lon": -76.99799466666667, "type": "electric_scooter"}, {"bike_id": "05ea4252e8247bb9e88ad8c72ffae67f", "is_reserved": 0, "fusion_lon": 0.0, "lat": 38.935997, "is_disabled": 0, "name": "05ea4252e8247bb9e88ad8c72ffae67f", "fusion_lat": 0.0, "rental_uris": {"ios": "https://dc.lft.to/lastmile_qr_scan", "android": "https://dc.lft.to/lastmile_qr_scan"}, "lon": -77.02332883333334, "type": "electric_scooter"}, {"bike_id": "ae4f3e862d2a3bb309d49b589a0d35b3", "is_reserved": 0, "fusion_lon": 0.0, "lat": 38.88288, "is_disabled": 0, "name": "ae4f3e862d2a3bb309d49b589a0d35b3", "fusion_lat": 0.0, "rental_uris": {"ios": "https://dc.lft.to/lastmile_qr_scan", "android": "https://dc.lft.to/lastmile_qr_scan"}, "lon": -76.991478, "type": "electric_scooter"}, {"bike_id": "735665cbc654b90b2d35f5c22ddf044a", "is_reserved": 0, "fusion_lon": 0.0, "lat": 38.8580885, "is_disabled": 0, "name": "735665cbc654b90b2d35f5c22ddf044a", "fusion_lat": 0.0, "rental_uris": {"ios": "https://dc.lft.to/lastmile_qr_scan", "android": "https://dc.lft.to/lastmile_qr_scan"}, "lon": -76.98654066666667, "type": "electric_scooter"}, {"bike_id": "f7089b5d57088e692c2ddc6513980210", "is_reserved": 0, "fusion_lon": 0.0, "lat": 38.93416333333333, "is_disabled": 0, "name": "f7089b5d57088e692c2ddc6513980210", "fusion_lat": 0.0, "rental_uris": {"ios": "https://dc.lft.to/lastmile_qr_scan", "android": "https://dc.lft.to/lastmile_qr_scan"}, "lon": -77.03409916666666, "type": "electric_scooter"}, {"bike_id": "a1b34ce14d3823c20df41f3467e94fd7", "is_reserved": 0, "fusion_lon": 0.0, "lat": 38.90270483333333, "is_disabled": 0, "name": "a1b34ce14d3823c20df41f3467e94fd7", "fusion_lat": 0.0, "rental_uris": {"ios": "https://dc.lft.to/lastmile_qr_scan", "android": "https://dc.lft.to/lastmile_qr_scan"}, "lon": -77.04115366666667, "type": "electric_scooter"}, {"bike_id": "b279b61dc2de3cb1ddb8421ad8e30c1d", "is_reserved": 0, "fusion_lon": 0.0, "lat": 38.90359133333333, "is_disabled": 0, "name": "b279b61dc2de3cb1ddb8421ad8e30c1d", "fusion_lat": 0.0, "rental_uris": {"ios": "https://dc.lft.to/lastmile_qr_scan", "android": "https://dc.lft.to/lastmile_qr_scan"}, "lon": -77.03990366666666, "type": "electric_scooter"}, {"bike_id": "3e1b83b4fd926796debc41f33a509f96", "is_reserved": 0, "fusion_lon": 0.0, "lat": 38.89186816666667, "is_disabled": 0, "name": "3e1b83b4fd926796debc41f33a509f96", "fusion_lat": 0.0, "rental_uris": {"ios": "https://dc.lft.to/lastmile_qr_scan", "android": "https://dc.lft.to/lastmile_qr_scan"}, "lon": -77.1226165, "type": "electric_bike"}, {"bike_id": "329dfa0c80810363d1cadb473fc84782", "is_reserved": 0, "fusion_lon": 0.0, "lat": 38.935092833333336, "is_disabled": 0, "name": "329dfa0c80810363d1cadb473fc84782", "fusion_lat": 0.0, "rental_uris": {"ios": "https://dc.lft.to/lastmile_qr_scan", "android": "https://dc.lft.to/lastmile_qr_scan"}, "lon": -77.05820433333334, "type": "electric_scooter"}, {"bike_id": "2d8ed2f6a74f79a3e3b6404166238db8", "is_reserved": 0, "fusion_lon": 0.0, "lat": 38.924744833333335, "is_disabled": 0, "name": "2d8ed2f6a74f79a3e3b6404166238db8", "fusion_lat": 0.0, "rental_uris": {"ios": "https://dc.lft.to/lastmile_qr_scan", "android": "https://dc.lft.to/lastmile_qr_scan"}, "lon": -77.052183, "type": "electric_scooter"}, {"bike_id": "0fc2cffde0468c925320c6ec17c3b54b", "is_reserved": 0, "fusion_lon": 0.0, "lat": 38.890189666666664, "is_disabled": 0, "name": "0fc2cffde0468c925320c6ec17c3b54b", "fusion_lat": 0.0, "rental_uris": {"ios": "https://dc.lft.to/lastmile_qr_scan", "android": "https://dc.lft.to/lastmile_qr_scan"}, "lon": -76.941171, "type": "electric_scooter"}, {"bike_id": "1565413245a3a7c38750f6c6b3a12fdf", "is_reserved": 0, "fusion_lon": 0.0, "lat": 38.90915316666667, "is_disabled": 0, "name": "1565413245a3a7c38750f6c6b3a12fdf", "fusion_lat": 0.0, "rental_uris": {"ios": "https://dc.lft.to/lastmile_qr_scan", "android": "https://dc.lft.to/lastmile_qr_scan"}, "lon": -76.99965516666667, "type": "electric_scooter"}, {"bike_id": "48be0223451c2b1d042062d910efa785", "is_reserved": 0, "fusion_lon": 0.0, "lat": 38.90356883333333, "is_disabled": 0, "name": "48be0223451c2b1d042062d910efa785", "fusion_lat": 0.0, "rental_uris": {"ios": "https://dc.lft.to/lastmile_qr_scan", "android": "https://dc.lft.to/lastmile_qr_scan"}, "lon": -77.0390285, "type": "electric_scooter"}, {"bike_id": "b229a20e7045530976c83e5155beb4ee", "is_reserved": 0, "fusion_lon": 0.0, "lat": 39.05811166666667, "is_disabled": 0, "name": "b229a20e7045530976c83e5155beb4ee", "fusion_lat": 0.0, "rental_uris": {"ios": "https://dc.lft.to/lastmile_qr_scan", "android": "https://dc.lft.to/lastmile_qr_scan"}, "lon": -77.12626783333333, "type": "electric_bike"}, {"bike_id": "332718ce6aca885a2a4cfa7eb147b4e6", "is_reserved": 0, "fusion_lon": 0.0, "lat": 38.84605283333333, "is_disabled": 0, "name": "332718ce6aca885a2a4cfa7eb147b4e6", "fusion_lat": 0.0, "rental_uris": {"ios": "https://dc.lft.to/lastmile_qr_scan", "android": "https://dc.lft.to/lastmile_qr_scan"}, "lon": -76.9781915, "type": "electric_bike"}, {"bike_id": "5e950ca7fd5b6db71a50a20bdd54bdff", "is_reserved": 0, "fusion_lon": 0.0, "lat": 38.9534855, "is_disabled": 0, "name": "5e950ca7fd5b6db71a50a20bdd54bdff", "fusion_lat": 0.0, "rental_uris": {"ios": "https://dc.lft.to/lastmile_qr_scan", "android": "https://dc.lft.to/lastmile_qr_scan"}, "lon": -76.98091233333334, "type": "electric_bike"}, {"bike_id": "3e73d7142ec1c8c75931102bdbde958b", "is_reserved": 0, "fusion_lon": 0.0, "lat": 38.89555266666667, "is_disabled": 0, "name": "3e73d7142ec1c8c75931102bdbde958b", "fusion_lat": 0.0, "rental_uris": {"ios": "https://dc.lft.to/lastmile_qr_scan", "android": "https://dc.lft.to/lastmile_qr_scan"}, "lon": -76.93042983333333, "type": "electric_scooter"}, {"bike_id": "43bef8db58b2a8e6dfe81e6bb17be5cf", "is_reserved": 0, "fusion_lon": 0.0, "lat": 38.90988816666667, "is_disabled": 0, "name": "43bef8db58b2a8e6dfe81e6bb17be5cf", "fusion_lat": 0.0, "rental_uris": {"ios": "https://dc.lft.to/lastmile_qr_scan", "android": "https://dc.lft.to/lastmile_qr_scan"}, "lon": -77.00918816666666, "type": "electric_scooter"}, {"bike_id": "c4f9717350e478de2430778dfcd0e828", "is_reserved": 0, "fusion_lon": 0.0, "lat": 38.911349666666666, "is_disabled": 0, "name": "c4f9717350e478de2430778dfcd0e828", "fusion_lat": 0.0, "rental_uris": {"ios": "https://dc.lft.to/lastmile_qr_scan", "android": "https://dc.lft.to/lastmile_qr_scan"}, "lon": -77.019834, "type": "electric_scooter"}, {"bike_id": "681d19ea469122ca0bffaf7f5a395e24", "is_reserved": 0, "fusion_lon": 0.0, "lat": 38.89866166666667, "is_disabled": 0, "name": "681d19ea469122ca0bffaf7f5a395e24", "fusion_lat": 0.0, "rental_uris": {"ios": "https://dc.lft.to/lastmile_qr_scan", "android": "https://dc.lft.to/lastmile_qr_scan"}, "lon": -77.0489655, "type": "electric_scooter"}, {"bike_id": "e51a84851bf9c5baa3289f67ec3a82b3", "is_reserved": 0, "fusion_lon": 0.0, "lat": 38.89609766666667, "is_disabled": 0, "name": "e51a84851bf9c5baa3289f67ec3a82b3", "fusion_lat": 0.0, "rental_uris": {"ios": "https://dc.lft.to/lastmile_qr_scan", "android": "https://dc.lft.to/lastmile_qr_scan"}, "lon": -77.040526, "type": "electric_scooter"}, {"bike_id": "d5305aaca5f20eef2353f06a14f554d5", "is_reserved": 0, "fusion_lon": 0.0, "lat": 38.92500483333333, "is_disabled": 0, "name": "d5305aaca5f20eef2353f06a14f554d5", "fusion_lat": 0.0, "rental_uris": {"ios": "https://dc.lft.to/lastmile_qr_scan", "android": "https://dc.lft.to/lastmile_qr_scan"}, "lon": -77.021727, "type": "electric_scooter"}, {"bike_id": "89cb4304b8201373616b350a273e2b06", "is_reserved": 0, "fusion_lon": 0.0, "lat": 38.846047, "is_disabled": 0, "name": "89cb4304b8201373616b350a273e2b06", "fusion_lat": 0.0, "rental_uris": {"ios": "https://dc.lft.to/lastmile_qr_scan", "android": "https://dc.lft.to/lastmile_qr_scan"}, "lon": -76.96909583333333, "type": "electric_bike"}, {"bike_id": "567d9a1ea2ac8347a27f0829f15e24f5", "is_reserved": 0, "fusion_lon": 0.0, "lat": 38.9147125, "is_disabled": 0, "name": "567d9a1ea2ac8347a27f0829f15e24f5", "fusion_lat": 0.0, "rental_uris": {"ios": "https://dc.lft.to/lastmile_qr_scan", "android": "https://dc.lft.to/lastmile_qr_scan"}, "lon": -76.98585016666667, "type": "electric_scooter"}, {"bike_id": "647bd606fe42a15fce38c1226045ea06", "is_reserved": 0, "fusion_lon": 0.0, "lat": 38.91709616666667, "is_disabled": 0, "name": "647bd606fe42a15fce38c1226045ea06", "fusion_lat": 0.0, "rental_uris": {"ios": "https://dc.lft.to/lastmile_qr_scan", "android": "https://dc.lft.to/lastmile_qr_scan"}, "lon": -77.024036, "type": "electric_scooter"}, {"bike_id": "5ca0fce345702181be750d6ffbdf7216", "is_reserved": 0, "fusion_lon": 0.0, "lat": 38.914041, "is_disabled": 0, "name": "5ca0fce345702181be750d6ffbdf7216", "fusion_lat": 0.0, "rental_uris": {"ios": "https://dc.lft.to/lastmile_qr_scan", "android": "https://dc.lft.to/lastmile_qr_scan"}, "lon": -77.03154266666667, "type": "electric_scooter"}, {"bike_id": "4da46166d4757f4bdbeb26b8f919fe5c", "is_reserved": 0, "fusion_lon": 0.0, "lat": 38.860519833333335, "is_disabled": 0, "name": "4da46166d4757f4bdbeb26b8f919fe5c", "fusion_lat": 0.0, "rental_uris": {"ios": "https://dc.lft.to/lastmile_qr_scan", "android": "https://dc.lft.to/lastmile_qr_scan"}, "lon": -77.05635333333333, "type": "electric_bike"}, {"bike_id": "3ab4f69b33f53c894c6f27cd0fef4bc1", "is_reserved": 0, "fusion_lon": 0.0, "lat": 38.91982733333333, "is_disabled": 0, "name": "3ab4f69b33f53c894c6f27cd0fef4bc1", "fusion_lat": 0.0, "rental_uris": {"ios": "https://dc.lft.to/lastmile_qr_scan", "android": "https://dc.lft.to/lastmile_qr_scan"}, "lon": -76.97308033333333, "type": "electric_scooter"}, {"bike_id": "c8e624d23b40780f4ccd4964f5f7085e", "is_reserved": 0, "fusion_lon": 0.0, "lat": 38.886390166666665, "is_disabled": 0, "name": "c8e624d23b40780f4ccd4964f5f7085e", "fusion_lat": 0.0, "rental_uris": {"ios": "https://dc.lft.to/lastmile_qr_scan", "android": "https://dc.lft.to/lastmile_qr_scan"}, "lon": -77.02137883333333, "type": "electric_scooter"}, {"bike_id": "d811ec8b985bff9211c1eee6eac2f82d", "is_reserved": 0, "fusion_lon": 0.0, "lat": 38.91115683333334, "is_disabled": 0, "name": "d811ec8b985bff9211c1eee6eac2f82d", "fusion_lat": 0.0, "rental_uris": {"ios": "https://dc.lft.to/lastmile_qr_scan", "android": "https://dc.lft.to/lastmile_qr_scan"}, "lon": -76.99714783333333, "type": "electric_scooter"}, {"bike_id": "b9e0f787d2240c1f90ea9308578f8656", "is_reserved": 0, "fusion_lon": 0.0, "lat": 38.91973766666667, "is_disabled": 0, "name": "b9e0f787d2240c1f90ea9308578f8656", "fusion_lat": 0.0, "rental_uris": {"ios": "https://dc.lft.to/lastmile_qr_scan", "android": "https://dc.lft.to/lastmile_qr_scan"}, "lon": -77.04179766666667, "type": "electric_scooter"}, {"bike_id": "8c3cae6450b78fd48a9ef06f465054e4", "is_reserved": 0, "fusion_lon": 0.0, "lat": 38.820463, "is_disabled": 0, "name": "8c3cae6450b78fd48a9ef06f465054e4", "fusion_lat": 0.0, "rental_uris": {"ios": "https://dc.lft.to/lastmile_qr_scan", "android": "https://dc.lft.to/lastmile_qr_scan"}, "lon": -77.053161, "type": "electric_bike"}, {"bike_id": "70dcf25eb2dbf7a841f3b431da14ee5c", "is_reserved": 0, "fusion_lon": 0.0, "lat": 38.950718333333334, "is_disabled": 0, "name": "70dcf25eb2dbf7a841f3b431da14ee5c", "fusion_lat": 0.0, "rental_uris": {"ios": "https://dc.lft.to/lastmile_qr_scan", "android": "https://dc.lft.to/lastmile_qr_scan"}, "lon": -77.01194666666666, "type": "electric_bike"}, {"bike_id": "ace36c621fdac60fb5be87265a723bd0", "is_reserved": 0, "fusion_lon": 0.0, "lat": 38.91774516666667, "is_disabled": 0, "name": "ace36c621fdac60fb5be87265a723bd0", "fusion_lat": 0.0, "rental_uris": {"ios": "https://dc.lft.to/lastmile_qr_scan", "android": "https://dc.lft.to/lastmile_qr_scan"}, "lon": -76.97317316666667, "type": "electric_scooter"}, {"bike_id": "a28a0e9127d3b2b468b9665c41d0e0c2", "is_reserved": 0, "fusion_lon": 0.0, "lat": 38.91713433333334, "is_disabled": 0, "name": "a28a0e9127d3b2b468b9665c41d0e0c2", "fusion_lat": 0.0, "rental_uris": {"ios": "https://dc.lft.to/lastmile_qr_scan", "android": "https://dc.lft.to/lastmile_qr_scan"}, "lon": -77.02898533333334, "type": "electric_scooter"}, {"bike_id": "6c0f8338b11d594c3a1b9a13ededc490", "is_reserved": 0, "fusion_lon": 0.0, "lat": 38.92230933333333, "is_disabled": 0, "name": "6c0f8338b11d594c3a1b9a13ededc490", "fusion_lat": 0.0, "rental_uris": {"ios": "https://dc.lft.to/lastmile_qr_scan", "android": "https://dc.lft.to/lastmile_qr_scan"}, "lon": -77.04266216666667, "type": "electric_scooter"}, {"bike_id": "eaa626c1bc4471364b297af63fb8202a", "is_reserved": 0, "fusion_lon": 0.0, "lat": 38.905217666666665, "is_disabled": 0, "name": "eaa626c1bc4471364b297af63fb8202a", "fusion_lat": 0.0, "rental_uris": {"ios": "https://dc.lft.to/lastmile_qr_scan", "android": "https://dc.lft.to/lastmile_qr_scan"}, "lon": -77.06537383333334, "type": "electric_scooter"}, {"bike_id": "ba2ca4f2126c2413185384223d2a2d81", "is_reserved": 0, "fusion_lon": 0.0, "lat": 39.03045433333333, "is_disabled": 0, "name": "ba2ca4f2126c2413185384223d2a2d81", "fusion_lat": 0.0, "rental_uris": {"ios": "https://dc.lft.to/lastmile_qr_scan", "android": "https://dc.lft.to/lastmile_qr_scan"}, "lon": -77.0948195, "type": "electric_bike"}, {"bike_id": "016172026511717763c71304ee548406", "is_reserved": 0, "fusion_lon": 0.0, "lat": 38.92179766666667, "is_disabled": 0, "name": "016172026511717763c71304ee548406", "fusion_lat": 0.0, "rental_uris": {"ios": "https://dc.lft.to/lastmile_qr_scan", "android": "https://dc.lft.to/lastmile_qr_scan"}, "lon": -77.04229433333333, "type": "electric_scooter"}, {"bike_id": "3107f636e2312aed7aa8e884cf6950d8", "is_reserved": 0, "fusion_lon": 0.0, "lat": 38.91548516666667, "is_disabled": 0, "name": "3107f636e2312aed7aa8e884cf6950d8", "fusion_lat": 0.0, "rental_uris": {"ios": "https://dc.lft.to/lastmile_qr_scan", "android": "https://dc.lft.to/lastmile_qr_scan"}, "lon": -77.0351205, "type": "electric_scooter"}, {"bike_id": "373c1228a2f547a46228b931859bc649", "is_reserved": 0, "fusion_lon": 0.0, "lat": 38.889629, "is_disabled": 0, "name": "373c1228a2f547a46228b931859bc649", "fusion_lat": 0.0, "rental_uris": {"ios": "https://dc.lft.to/lastmile_qr_scan", "android": "https://dc.lft.to/lastmile_qr_scan"}, "lon": -76.98037366666667, "type": "electric_scooter"}, {"bike_id": "17916024447f20ee8987ca5cfd390ea5", "is_reserved": 0, "fusion_lon": 0.0, "lat": 38.89827583333334, "is_disabled": 0, "name": "17916024447f20ee8987ca5cfd390ea5", "fusion_lat": 0.0, "rental_uris": {"ios": "https://dc.lft.to/lastmile_qr_scan", "android": "https://dc.lft.to/lastmile_qr_scan"}, "lon": -76.980376, "type": "electric_scooter"}, {"bike_id": "1931d6ac3fd4f27ad5ff0ae0939bfb5f", "is_reserved": 0, "fusion_lon": 0.0, "lat": 38.9032735, "is_disabled": 0, "name": "1931d6ac3fd4f27ad5ff0ae0939bfb5f", "fusion_lat": 0.0, "rental_uris": {"ios": "https://dc.lft.to/lastmile_qr_scan", "android": "https://dc.lft.to/lastmile_qr_scan"}, "lon": -76.980178, "type": "electric_scooter"}, {"bike_id": "676988a8b480c468a891153dde52d7b5", "is_reserved": 0, "fusion_lon": 0.0, "lat": 38.887041333333336, "is_disabled": 0, "name": "676988a8b480c468a891153dde52d7b5", "fusion_lat": 0.0, "rental_uris": {"ios": "https://dc.lft.to/lastmile_qr_scan", "android": "https://dc.lft.to/lastmile_qr_scan"}, "lon": -77.00153316666666, "type": "electric_scooter"}, {"bike_id": "bd37f5ba9da51da37bd68ea9e18fd6e6", "is_reserved": 0, "fusion_lon": 0.0, "lat": 38.923075833333336, "is_disabled": 0, "name": "bd37f5ba9da51da37bd68ea9e18fd6e6", "fusion_lat": 0.0, "rental_uris": {"ios": "https://dc.lft.to/lastmile_qr_scan", "android": "https://dc.lft.to/lastmile_qr_scan"}, "lon": -77.0213035, "type": "electric_scooter"}, {"bike_id": "4d7587e3eb577e7fa41ff6dd01688ec7", "is_reserved": 0, "fusion_lon": 0.0, "lat": 38.896186166666666, "is_disabled": 0, "name": "4d7587e3eb577e7fa41ff6dd01688ec7", "fusion_lat": 0.0, "rental_uris": {"ios": "https://dc.lft.to/lastmile_qr_scan", "android": "https://dc.lft.to/lastmile_qr_scan"}, "lon": -77.00265766666666, "type": "electric_scooter"}, {"bike_id": "d9d4ff6893c7bf56fe42f92fe2f2b621", "is_reserved": 0, "fusion_lon": 0.0, "lat": 38.90868483333333, "is_disabled": 0, "name": "d9d4ff6893c7bf56fe42f92fe2f2b621", "fusion_lat": 0.0, "rental_uris": {"ios": "https://dc.lft.to/lastmile_qr_scan", "android": "https://dc.lft.to/lastmile_qr_scan"}, "lon": -77.0432575, "type": "electric_scooter"}, {"bike_id": "3f42c146e7954404e99b7ba0d74e2f84", "is_reserved": 0, "fusion_lon": 0.0, "lat": 38.901769333333334, "is_disabled": 0, "name": "3f42c146e7954404e99b7ba0d74e2f84", "fusion_lat": 0.0, "rental_uris": {"ios": "https://dc.lft.to/lastmile_qr_scan", "android": "https://dc.lft.to/lastmile_qr_scan"}, "lon": -76.98075033333333, "type": "electric_scooter"}, {"bike_id": "5c751d9ec1e3995e14d4e81067bb1108", "is_reserved": 0, "fusion_lon": 0.0, "lat": 38.934300666666665, "is_disabled": 0, "name": "5c751d9ec1e3995e14d4e81067bb1108", "fusion_lat": 0.0, "rental_uris": {"ios": "https://dc.lft.to/lastmile_qr_scan", "android": "https://dc.lft.to/lastmile_qr_scan"}, "lon": -77.03998216666666, "type": "electric_scooter"}, {"bike_id": "4c3d982d01ea2d712a039d7e17d68773", "is_reserved": 0, "fusion_lon": 0.0, "lat": 38.913799833333336, "is_disabled": 0, "name": "4c3d982d01ea2d712a039d7e17d68773", "fusion_lat": 0.0, "rental_uris": {"ios": "https://dc.lft.to/lastmile_qr_scan", "android": "https://dc.lft.to/lastmile_qr_scan"}, "lon": -77.01705966666667, "type": "electric_scooter"}, {"bike_id": "5be6cb04437465356f73f0e37b966415", "is_reserved": 0, "fusion_lon": 0.0, "lat": 38.884869333333334, "is_disabled": 0, "name": "5be6cb04437465356f73f0e37b966415", "fusion_lat": 0.0, "rental_uris": {"ios": "https://dc.lft.to/lastmile_qr_scan", "android": "https://dc.lft.to/lastmile_qr_scan"}, "lon": -77.003473, "type": "electric_scooter"}, {"bike_id": "b1d6107d49f958a4fa342c86da16fad1", "is_reserved": 0, "fusion_lon": 0.0, "lat": 38.836973666666665, "is_disabled": 0, "name": "b1d6107d49f958a4fa342c86da16fad1", "fusion_lat": 0.0, "rental_uris": {"ios": "https://dc.lft.to/lastmile_qr_scan", "android": "https://dc.lft.to/lastmile_qr_scan"}, "lon": -76.99782283333333, "type": "electric_bike"}, {"bike_id": "0acbd682614af1d2141ae8c01528240c", "is_reserved": 0, "fusion_lon": 0.0, "lat": 38.937065833333335, "is_disabled": 0, "name": "0acbd682614af1d2141ae8c01528240c", "fusion_lat": 0.0, "rental_uris": {"ios": "https://dc.lft.to/lastmile_qr_scan", "android": "https://dc.lft.to/lastmile_qr_scan"}, "lon": -77.029367, "type": "electric_scooter"}, {"bike_id": "a31e4e414ef5fcd7ca16c93cf96bc4b5", "is_reserved": 0, "fusion_lon": 0.0, "lat": 38.92266583333333, "is_disabled": 0, "name": "a31e4e414ef5fcd7ca16c93cf96bc4b5", "fusion_lat": 0.0, "rental_uris": {"ios": "https://dc.lft.to/lastmile_qr_scan", "android": "https://dc.lft.to/lastmile_qr_scan"}, "lon": -77.0330215, "type": "electric_scooter"}, {"bike_id": "d6f1a576696fa9b6327c7cc63136127d", "is_reserved": 0, "fusion_lon": 0.0, "lat": 38.9283995, "is_disabled": 0, "name": "d6f1a576696fa9b6327c7cc63136127d", "fusion_lat": 0.0, "rental_uris": {"ios": "https://dc.lft.to/lastmile_qr_scan", "android": "https://dc.lft.to/lastmile_qr_scan"}, "lon": -77.01351166666667, "type": "electric_scooter"}, {"bike_id": "b776be370a50f826cf69cb7a3f569fa2", "is_reserved": 0, "fusion_lon": 0.0, "lat": 38.90976416666667, "is_disabled": 0, "name": "b776be370a50f826cf69cb7a3f569fa2", "fusion_lat": 0.0, "rental_uris": {"ios": "https://dc.lft.to/lastmile_qr_scan", "android": "https://dc.lft.to/lastmile_qr_scan"}, "lon": -77.02185583333333, "type": "electric_scooter"}, {"bike_id": "e4a9d9aa2711866efebf9d219ad4218d", "is_reserved": 0, "fusion_lon": 0.0, "lat": 38.898328166666666, "is_disabled": 0, "name": "e4a9d9aa2711866efebf9d219ad4218d", "fusion_lat": 0.0, "rental_uris": {"ios": "https://dc.lft.to/lastmile_qr_scan", "android": "https://dc.lft.to/lastmile_qr_scan"}, "lon": -77.00751733333334, "type": "electric_scooter"}, {"bike_id": "044cb5023a6b484576967c824f20cb57", "is_reserved": 0, "fusion_lon": 0.0, "lat": 38.94468783333333, "is_disabled": 0, "name": "044cb5023a6b484576967c824f20cb57", "fusion_lat": 0.0, "rental_uris": {"ios": "https://dc.lft.to/lastmile_qr_scan", "android": "https://dc.lft.to/lastmile_qr_scan"}, "lon": -77.02295966666667, "type": "electric_bike"}, {"bike_id": "bf1c8054ab842f71fac8daa86b647e7b", "is_reserved": 0, "fusion_lon": 0.0, "lat": 38.88376433333333, "is_disabled": 0, "name": "bf1c8054ab842f71fac8daa86b647e7b", "fusion_lat": 0.0, "rental_uris": {"ios": "https://dc.lft.to/lastmile_qr_scan", "android": "https://dc.lft.to/lastmile_qr_scan"}, "lon": -77.04603933333334, "type": "electric_scooter"}, {"bike_id": "1e9d1b471ba11dcdb8bc089071fc4324", "is_reserved": 0, "fusion_lon": 0.0, "lat": 38.889924, "is_disabled": 0, "name": "1e9d1b471ba11dcdb8bc089071fc4324", "fusion_lat": 0.0, "rental_uris": {"ios": "https://dc.lft.to/lastmile_qr_scan", "android": "https://dc.lft.to/lastmile_qr_scan"}, "lon": -76.9557065, "type": "electric_scooter"}, {"bike_id": "aea979f0f8b3feec85ccc680b010b467", "is_reserved": 0, "fusion_lon": 0.0, "lat": 38.897468, "is_disabled": 0, "name": "aea979f0f8b3feec85ccc680b010b467", "fusion_lat": 0.0, "rental_uris": {"ios": "https://dc.lft.to/lastmile_qr_scan", "android": "https://dc.lft.to/lastmile_qr_scan"}, "lon": -77.00766516666667, "type": "electric_scooter"}, {"bike_id": "7083d59f097ecd5b39509920372eb575", "is_reserved": 0, "fusion_lon": 0.0, "lat": 38.917829833333336, "is_disabled": 0, "name": "7083d59f097ecd5b39509920372eb575", "fusion_lat": 0.0, "rental_uris": {"ios": "https://dc.lft.to/lastmile_qr_scan", "android": "https://dc.lft.to/lastmile_qr_scan"}, "lon": -77.0228295, "type": "electric_scooter"}, {"bike_id": "7ed31728c1a23515099afc0281e5f443", "is_reserved": 0, "fusion_lon": 0.0, "lat": 38.904628333333335, "is_disabled": 0, "name": "7ed31728c1a23515099afc0281e5f443", "fusion_lat": 0.0, "rental_uris": {"ios": "https://dc.lft.to/lastmile_qr_scan", "android": "https://dc.lft.to/lastmile_qr_scan"}, "lon": -77.04037366666667, "type": "electric_scooter"}, {"bike_id": "a205eac5c8f4273e90d957a9bf8ae912", "is_reserved": 0, "fusion_lon": 0.0, "lat": 38.85509033333334, "is_disabled": 0, "name": "a205eac5c8f4273e90d957a9bf8ae912", "fusion_lat": 0.0, "rental_uris": {"ios": "https://dc.lft.to/lastmile_qr_scan", "android": "https://dc.lft.to/lastmile_qr_scan"}, "lon": -76.9840585, "type": "electric_bike"}, {"bike_id": "6888485af5c2b57881841a47d93206dd", "is_reserved": 0, "fusion_lon": 0.0, "lat": 38.93968233333333, "is_disabled": 0, "name": "6888485af5c2b57881841a47d93206dd", "fusion_lat": 0.0, "rental_uris": {"ios": "https://dc.lft.to/lastmile_qr_scan", "android": "https://dc.lft.to/lastmile_qr_scan"}, "lon": -77.032541, "type": "electric_scooter"}, {"bike_id": "66cc1dfe1e496a17b8f9d304c20a643a", "is_reserved": 0, "fusion_lon": 0.0, "lat": 38.946760166666664, "is_disabled": 0, "name": "66cc1dfe1e496a17b8f9d304c20a643a", "fusion_lat": 0.0, "rental_uris": {"ios": "https://dc.lft.to/lastmile_qr_scan", "android": "https://dc.lft.to/lastmile_qr_scan"}, "lon": -77.020525, "type": "electric_bike"}, {"bike_id": "5c90d6a6d691b006171e143e17292168", "is_reserved": 0, "fusion_lon": 0.0, "lat": 38.88888733333334, "is_disabled": 0, "name": "5c90d6a6d691b006171e143e17292168", "fusion_lat": 0.0, "rental_uris": {"ios": "https://dc.lft.to/lastmile_qr_scan", "android": "https://dc.lft.to/lastmile_qr_scan"}, "lon": -77.01561866666667, "type": "electric_scooter"}, {"bike_id": "85739893e9f03ae55943ad3fe2c722a6", "is_reserved": 0, "fusion_lon": 0.0, "lat": 38.87259066666667, "is_disabled": 0, "name": "85739893e9f03ae55943ad3fe2c722a6", "fusion_lat": 0.0, "rental_uris": {"ios": "https://dc.lft.to/lastmile_qr_scan", "android": "https://dc.lft.to/lastmile_qr_scan"}, "lon": -76.9791205, "type": "electric_bike"}, {"bike_id": "4a304b3e8145fe5e6e2bd6a48efe385c", "is_reserved": 0, "fusion_lon": 0.0, "lat": 39.094411666666666, "is_disabled": 0, "name": "4a304b3e8145fe5e6e2bd6a48efe385c", "fusion_lat": 0.0, "rental_uris": {"ios": "https://dc.lft.to/lastmile_qr_scan", "android": "https://dc.lft.to/lastmile_qr_scan"}, "lon": -77.13460683333334, "type": "electric_bike"}, {"bike_id": "a745517371c5ffbc7aa2473a16a416e8", "is_reserved": 0, "fusion_lon": 0.0, "lat": 38.93061683333333, "is_disabled": 0, "name": "a745517371c5ffbc7aa2473a16a416e8", "fusion_lat": 0.0, "rental_uris": {"ios": "https://dc.lft.to/lastmile_qr_scan", "android": "https://dc.lft.to/lastmile_qr_scan"}, "lon": -77.02327483333333, "type": "electric_scooter"}, {"bike_id": "1fddfe49ac73047e294d88a02d90ad74", "is_reserved": 0, "fusion_lon": 0.0, "lat": 38.9070555, "is_disabled": 0, "name": "1fddfe49ac73047e294d88a02d90ad74", "fusion_lat": 0.0, "rental_uris": {"ios": "https://dc.lft.to/lastmile_qr_scan", "android": "https://dc.lft.to/lastmile_qr_scan"}, "lon": -77.05129533333333, "type": "electric_bike"}, {"bike_id": "ff59652782f041ff85301bcb575d9521", "is_reserved": 0, "fusion_lon": 0.0, "lat": 38.92136333333333, "is_disabled": 0, "name": "ff59652782f041ff85301bcb575d9521", "fusion_lat": 0.0, "rental_uris": {"ios": "https://dc.lft.to/lastmile_qr_scan", "android": "https://dc.lft.to/lastmile_qr_scan"}, "lon": -77.0422855, "type": "electric_scooter"}, {"bike_id": "b70afe2a4dc0cd244a7f007cea8088f5", "is_reserved": 0, "fusion_lon": 0.0, "lat": 38.86282466666667, "is_disabled": 0, "name": "b70afe2a4dc0cd244a7f007cea8088f5", "fusion_lat": 0.0, "rental_uris": {"ios": "https://dc.lft.to/lastmile_qr_scan", "android": "https://dc.lft.to/lastmile_qr_scan"}, "lon": -76.9923775, "type": "electric_scooter"}, {"bike_id": "de836d065ebe0ff5ae41ebae6c6a4c6c", "is_reserved": 0, "fusion_lon": 0.0, "lat": 38.82781716666667, "is_disabled": 0, "name": "de836d065ebe0ff5ae41ebae6c6a4c6c", "fusion_lat": 0.0, "rental_uris": {"ios": "https://dc.lft.to/lastmile_qr_scan", "android": "https://dc.lft.to/lastmile_qr_scan"}, "lon": -77.009084, "type": "electric_bike"}, {"bike_id": "653e9eb0141dcbecb7ae13c95b0e4129", "is_reserved": 0, "fusion_lon": 0.0, "lat": 38.92698766666667, "is_disabled": 0, "name": "653e9eb0141dcbecb7ae13c95b0e4129", "fusion_lat": 0.0, "rental_uris": {"ios": "https://dc.lft.to/lastmile_qr_scan", "android": "https://dc.lft.to/lastmile_qr_scan"}, "lon": -77.0364175, "type": "electric_scooter"}, {"bike_id": "546bb292bbecbe6d6480d352f882cd01", "is_reserved": 0, "fusion_lon": 0.0, "lat": 38.89839383333333, "is_disabled": 0, "name": "546bb292bbecbe6d6480d352f882cd01", "fusion_lat": 0.0, "rental_uris": {"ios": "https://dc.lft.to/lastmile_qr_scan", "android": "https://dc.lft.to/lastmile_qr_scan"}, "lon": -76.94481533333334, "type": "electric_scooter"}, {"bike_id": "117819f5dfc7ae9aad4ec1d8ec30c0de", "is_reserved": 0, "fusion_lon": 0.0, "lat": 38.89233333333333, "is_disabled": 0, "name": "117819f5dfc7ae9aad4ec1d8ec30c0de", "fusion_lat": 0.0, "rental_uris": {"ios": "https://dc.lft.to/lastmile_qr_scan", "android": "https://dc.lft.to/lastmile_qr_scan"}, "lon": -77.02385066666666, "type": "electric_scooter"},