{"data": {"bikes": [{"fusion_lat": 0.0, "type": "electric_scooter", "name": "16af7d61b5cbde0533872cfa0cf06d4b", "fusion_lon": 0.0, "bike_id": "16af7d61b5cbde0533872cfa0cf06d4b", "is_reserved": 0, "rental_uris": {"android": "https://dc.lft.to/lastmile_qr_scan", "ios": "https://dc.lft.to/lastmile_qr_scan"}, "lat": 38.9233515, "is_disabled": 0, "lon": -77.0351265}, {"fusion_lat": 0.0, "type": "electric_scooter", "name": "a7a653b58d40afa897efefc7b5cf8e37", "fusion_lon": 0.0, "bike_id": "a7a653b58d40afa897efefc7b5cf8e37", "is_reserved": 0, "rental_uris": {"android": "https://dc.lft.to/lastmile_qr_scan", "ios": "https://dc.lft.to/lastmile_qr_scan"}, "lat": 38.865079333333334, "is_disabled": 0, "lon": -76.99002716666666}, {"fusion_lat": 0.0, "type": "electric_bike", "name": "0ce8c7265b00dd70f4d1c6ef4f390a6f", "fusion_lon": 0.0, "bike_id": "0ce8c7265b00dd70f4d1c6ef4f390a6f", "is_reserved": 0, "rental_uris": {"android": "https://dc.lft.to/lastmile_qr_scan", "ios": "https://dc.lft.to/lastmile_qr_scan"}, "lat": 38.812052, "is_disabled": 0, "lon": -77.10841383333333}, {"fusion_lat": 0.0, "type": "electric_scooter", "name": "1f3e7275f72a04c4de48a2451f68bd3c", "fusion_lon": 0.0, "bike_id": "1f3e7275f72a04c4de48a2451f68bd3c", "is_reserved": 0, "rental_uris": {"android": "https://dc.lft.to/lastmile_qr_scan", "ios": "https://dc.lft.to/lastmile_qr_scan"}, "lat": 38.90374766666667, "is_disabled": 0, "lon": -77.01757066666667}, {"fusion_lat": 0.0, "type": "electric_scooter", "name": "929c63a2303ab7f04693cc37b464dea1", "fusion_lon": 0.0, "bike_id": "929c63a2303ab7f04693cc37b464dea1", "is_reserved": 0, "rental_uris": {"android": "https://dc.lft.to/lastmile_qr_scan", "ios": "https://dc.lft.to/lastmile_qr_scan"}, "lat": 38.89309733333333, "is_disabled": 0, "lon": -76.92919683333334}, {"fusion_lat": 0.0, "type": "electric_scooter", "name": "3984569e00c052d7ed15478fbd132672", "fusion_lon": 0.0, "bike_id": "3984569e00c052d7ed15478fbd132672", "is_reserved": 0, "rental_uris": {"android": "https://dc.lft.to/lastmile_qr_scan", "ios": "https://dc.lft.to/lastmile_qr_scan"}, "lat": 38.90736033333334, "is_disabled": 0, "lon": -77.000981}, {"fusion_lat": 0.0, "type": "electric_scooter", "name": "895466f18ca5ee3fd611de778291e11f", "fusion_lon": 0.0, "bike_id": "895466f18ca5ee3fd611de778291e11f", "is_reserved": 0, "rental_uris": {"android": "https://dc.lft.to/lastmile_qr_scan", "ios": "https://dc.lft.to/lastmile_qr_scan"}, "lat": 38.92668616666667, "is_disabled": 0, "lon": -77.02284466666667}, {"fusion_lat": 0.0, "type": "electric_scooter", "name": "3d25e0d720946693af96c1ffb43ca6d3", "fusion_lon": 0.0, "bike_id": "3d25e0d720946693af96c1ffb43ca6d3", "is_reserved": 0, "rental_uris": {"android": "https://dc.lft.to/lastmile_qr_scan", "ios": "https://dc.lft.to/lastmile_qr_scan"}, "lat": 38.9274425, "is_disabled": 0, "lon": -77.02262083333333}, {"fusion_lat": 0.0, "type": "electric_scooter", "name": "457e9647e97c3a8b110c910ebc0e7ec3", "fusion_lon": 0.0, "bike_id": "457e9647e97c3a8b110c910ebc0e7ec3", "is_reserved": 0, "rental_uris": {"android": "https://dc.lft.to/lastmile_qr_scan", "ios": "https://dc.lft.to/lastmile_qr_scan"}, "lat": 38.8925035, "is_disabled": 0, "lon": -77.0395855}, {"fusion_lat": 0.0, "type": "electric_scooter", "name": "aaa4d132c0ad04f6f08cca10a4a2cb23", "fusion_lon": 0.0, "bike_id": "aaa4d132c0ad04f6f08cca10a4a2cb23", "is_reserved": 0, "rental_uris": {"android": "https://dc.lft.to/lastmile_qr_scan", "ios": "https://dc.lft.to/lastmile_qr_scan"}, "lat": 38.8955855, "is_disabled": 0, "lon": -77.009172}, {"fusion_lat": 0.0, "type": "electric_scooter", "name": "cfcd60e6f85db4ebd4a16121c965bf2e", "fusion_lon": 0.0, "bike_id": "cfcd60e6f85db4ebd4a16121c965bf2e", "is_reserved": 0, "rental_uris": {"android": "https://dc.lft.to/lastmile_qr_scan", "ios": "https://dc.lft.to/lastmile_qr_scan"}, "lat": 38.89819933333333, "is_disabled": 0, "lon": -77.03305866666666}, {"fusion_lat": 0.0, "type": "electric_scooter", "name": "b6f7d966b9f215ded285dae89aa81964", "fusion_lon": 0.0, "bike_id": "b6f7d966b9f215ded285dae89aa81964", "is_reserved": 0, "rental_uris": {"android": "https://dc.lft.to/lastmile_qr_scan", "ios": "https://dc.lft.to/lastmile_qr_scan"}, "lat": 38.911038833333336, "is_disabled": 0, "lon": -77.002087}, {"fusion_lat": 0.0, "type": "electric_scooter", "name": "e54fc09dc8db6567b96fd1d261d9284e", "fusion_lon": 0.0, "bike_id": "e54fc09dc8db6567b96fd1d261d9284e", "is_reserved": 0, "rental_uris": {"android": "https://dc.lft.to/lastmile_qr_scan", "ios": "https://dc.lft.to/lastmile_qr_scan"}, "lat": 38.911302, "is_disabled": 0, "lon": -77.02690816666667}, {"fusion_lat": 0.0, "type": "electric_scooter", "name": "227b6caa208421e1cf65a6af58843c51", "fusion_lon": 0.0, "bike_id": "227b6caa208421e1cf65a6af58843c51", "is_reserved": 0, "rental_uris": {"android": "https://dc.lft.to/lastmile_qr_scan", "ios": "https://dc.lft.to/lastmile_qr_scan"}, "lat": 38.8901835, "is_disabled": 0, "lon": -76.93732983333334}, {"fusion_lat": 0.0, "type": "electric_scooter", "name": "b36b17b30fd028968eba7596498abaac", "fusion_lon": 0.0, "bike_id": "b36b17b30fd028968eba7596498abaac", "is_reserved": 0, "rental_uris": {"android": "https://dc.lft.to/lastmile_qr_scan", "ios": "https://dc.lft.to/lastmile_qr_scan"}, "lat": 38.93103466666667, "is_disabled": 0, "lon": -77.02655883333334}, {"fusion_lat": 0.0, "type": "electric_scooter", "name": "6e8b77ad8c0f0b3466d32dbcfd6298b5", "fusion_lon": 0.0, "bike_id": "6e8b77ad8c0f0b3466d32dbcfd6298b5", "is_reserved": 0, "rental_uris": {"android": "https://dc.lft.to/lastmile_qr_scan", "ios": "https://dc.lft.to/lastmile_qr_scan"}, "lat": 38.907386833333334, "is_disabled": 0, "lon": -77.0318295}, {"fusion_lat": 0.0, "type": "electric_scooter", "name": "356bf45c014b6292a991e423e9ba992b", "fusion_lon": 0.0, "bike_id": "356bf45c014b6292a991e423e9ba992b", "is_reserved": 0, "rental_uris": {"android": "https://dc.lft.to/lastmile_qr_scan", "ios": "https://dc.lft.to/lastmile_qr_scan"}, "lat": 38.862595166666665, "is_disabled": 0, "lon": -76.99610416666667}, {"fusion_lat": 0.0, "type": "electric_scooter", "name": "796781c5451ac1b77d85971dd199bf07", "fusion_lon": 0.0, "bike_id": "796781c5451ac1b77d85971dd199bf07", "is_reserved": 0, "rental_uris": {"android": "https://dc.lft.to/lastmile_qr_scan", "ios": "https://dc.lft.to/lastmile_qr_scan"}, "lat": 38.921451, "is_disabled": 0, "lon": -77.0365915}, {"fusion_lat": 0.0, "type": "electric_scooter", "name": "21d3100cbd9abbc8c0647bbbd786ef3f", "fusion_lon": 0.0, "bike_id": "21d3100cbd9abbc8c0647bbbd786ef3f", "is_reserved": 0, "rental_uris": {"android": "https://dc.lft.to/lastmile_qr_scan", "ios": "https://dc.lft.to/lastmile_qr_scan"}, "lat": 38.89724266666666, "is_disabled": 0, "lon": -77.02724883333333}, {"fusion_lat": 0.0, "type": "electric_scooter", "name": "08a68700853ad9ed7c0b0fef5adc32f7", "fusion_lon": 0.0, "bike_id": "08a68700853ad9ed7c0b0fef5adc32f7", "is_reserved": 0, "rental_uris": {"android": "https://dc.lft.to/lastmile_qr_scan", "ios": "https://dc.lft.to/lastmile_qr_scan"}, "lat": 38.9066135, "is_disabled": 0, "lon": -77.04867433333334}, {"fusion_lat": 0.0, "type": "electric_scooter", "name": "a6aff23dadb52c15c63b472bffeb0f69", "fusion_lon": 0.0, "bike_id": "a6aff23dadb52c15c63b472bffeb0f69", "is_reserved": 0, "rental_uris": {"android": "https://dc.lft.to/lastmile_qr_scan", "ios": "https://dc.lft.to/lastmile_qr_scan"}, "lat": 38.921691333333335, "is_disabled": 0, "lon": -77.03268666666666}, {"fusion_lat": 0.0, "type": "electric_bike", "name": "058ee65cad293389654c68042ccd0d36", "fusion_lon": 0.0, "bike_id": "058ee65cad293389654c68042ccd0d36", "is_reserved": 0, "rental_uris": {"android": "https://dc.lft.to/lastmile_qr_scan", "ios": "https://dc.lft.to/lastmile_qr_scan"}, "lat": 38.838136666666664, "is_disabled": 0, "lon": -77.09523566666667}, {"fusion_lat": 0.0, "type": "electric_bike", "name": "12f22fe3e6e7f4d0aecd20d7ded65cb5", "fusion_lon": 0.0, "bike_id": "12f22fe3e6e7f4d0aecd20d7ded65cb5", "is_reserved": 0, "rental_uris": {"android": "https://dc.lft.to/lastmile_qr_scan", "ios": "https://dc.lft.to/lastmile_qr_scan"}, "lat": 38.865236833333334, "is_disabled": 0, "lon": -76.97338533333334}, {"fusion_lat": 0.0, "type": "electric_scooter", "name": "397581897f3d748c69987f724e6c6833", "fusion_lon": 0.0, "bike_id": "397581897f3d748c69987f724e6c6833", "is_reserved": 0, "rental_uris": {"android": "https://dc.lft.to/lastmile_qr_scan", "ios": "https://dc.lft.to/lastmile_qr_scan"}, "lat": 38.86672766666667, "is_disabled": 0, "lon": -76.98510366666666}, {"fusion_lat": 0.0, "type": "electric_scooter", "name": "2f16f43e52556f80d115d14e13c045be", "fusion_lon": 0.0, "bike_id": "2f16f43e52556f80d115d14e13c045be", "is_reserved": 0, "rental_uris": {"android": "https://dc.lft.to/lastmile_qr_scan", "ios": "https://dc.lft.to/lastmile_qr_scan"}, "lat": 38.898064833333336, "is_disabled": 0, "lon": -76.991618}, {"fusion_lat": 0.0, "type": "electric_scooter", "name": "f159bdf7de900ca641482e23f7c73477", "fusion_lon": 0.0, "bike_id": "f159bdf7de900ca641482e23f7c73477", "is_reserved": 0, "rental_uris": {"android": "https://dc.lft.to/lastmile_qr_scan", "ios": "https://dc.lft.to/lastmile_qr_scan"}, "lat": 38.97541833333333, "is_disabled": 0, "lon": -77.01680483333334}, {"fusion_lat": 0.0, "type": "electric_scooter", "name": "d4e0e546ec114cf90d3c666949627ae6", "fusion_lon": 0.0, "bike_id": "d4e0e546ec114cf90d3c666949627ae6", "is_reserved": 0, "rental_uris": {"android": "https://dc.lft.to/lastmile_qr_scan", "ios": "https://dc.lft.to/lastmile_qr_scan"}, "lat": 38.9063205, "is_disabled": 0, "lon": -77.01001766666667}, {"fusion_lat": 0.0, "type": "electric_scooter", "name": "e5a855f81a632b2223e5fa1ca93631c0", "fusion_lon": 0.0, "bike_id": "e5a855f81a632b2223e5fa1ca93631c0", "is_reserved": 0, "rental_uris": {"android": "https://dc.lft.to/lastmile_qr_scan", "ios": "https://dc.lft.to/lastmile_qr_scan"}, "lat": 38.89221766666667, "is_disabled": 0, "lon": -77.03160333333334}, {"fusion_lat": 0.0, "type": "electric_scooter", "name": "15f52c962a5d0f5a316bfeb6571e0364", "fusion_lon": 0.0, "bike_id": "15f52c962a5d0f5a316bfeb6571e0364", "is_reserved": 0, "rental_uris": {"android": "https://dc.lft.to/lastmile_qr_scan", "ios": "https://dc.lft.to/lastmile_qr_scan"}, "lat": 38.897481666666664, "is_disabled": 0, "lon": -76.98980116666667}, {"fusion_lat": 0.0, "type": "electric_scooter", "name": "f613350f9cc3ba87771df59fb4b85eff", "fusion_lon": 0.0, "bike_id": "f613350f9cc3ba87771df59fb4b85eff", "is_reserved": 0, "rental_uris": {"android": "https://dc.lft.to/lastmile_qr_scan", "ios": "https://dc.lft.to/lastmile_qr_scan"}, "lat": 38.928161, "is_disabled": 0, "lon": -77.05447283333334}, {"fusion_lat": 0.0, "type": "electric_scooter", "name": "a315ab290f25621cc971a0f5c5da44a1", "fusion_lon": 0.0, "bike_id": "a315ab290f25621cc971a0f5c5da44a1", "is_reserved": 0, "rental_uris": {"android": "https://dc.lft.to/lastmile_qr_scan", "ios": "https://dc.lft.to/lastmile_qr_scan"}, "lat": 38.94992216666667, "is_disabled": 0, "lon": -77.02708883333334}, {"fusion_lat": 0.0, "type": "electric_scooter", "name": "94f3c49bda237bf1bbb8d8b87b738ed5", "fusion_lon": 0.0, "bike_id": "94f3c49bda237bf1bbb8d8b87b738ed5", "is_reserved": 0, "rental_uris": {"android": "https://dc.lft.to/lastmile_qr_scan", "ios": "https://dc.lft.to/lastmile_qr_scan"}, "lat": 38.916310833333334, "is_disabled": 0, "lon": -77.010805}, {"fusion_lat": 0.0, "type": "electric_scooter", "name": "cfb29abbc83dbb17d3913a10db3515f0", "fusion_lon": 0.0, "bike_id": "cfb29abbc83dbb17d3913a10db3515f0", "is_reserved": 0, "rental_uris": {"android": "https://dc.lft.to/lastmile_qr_scan", "ios": "https://dc.lft.to/lastmile_qr_scan"}, "lat": 38.87707733333333, "is_disabled": 0, "lon": -76.99384116666667}, {"fusion_lat": 0.0, "type": "electric_scooter", "name": "8e3f5cc2049653b61cdd964d097bcc3a", "fusion_lon": 0.0, "bike_id": "8e3f5cc2049653b61cdd964d097bcc3a", "is_reserved": 0, "rental_uris": {"android": "https://dc.lft.to/lastmile_qr_scan", "ios": "https://dc.lft.to/lastmile_qr_scan"}, "lat": 38.87155766666667, "is_disabled": 0, "lon": -76.97751}, {"fusion_lat": 0.0, "type": "electric_scooter", "name": "4ef6dc586e49e162e1f7fa0ce85dff5d", "fusion_lon": 0.0, "bike_id": "4ef6dc586e49e162e1f7fa0ce85dff5d", "is_reserved": 0, "rental_uris": {"android": "https://dc.lft.to/lastmile_qr_scan", "ios": "https://dc.lft.to/lastmile_qr_scan"}, "lat": 38.930997833333336, "is_disabled": 0, "lon": -77.024758}, {"fusion_lat": 0.0, "type": "electric_scooter", "name": "9577054c180af2bcb36f7c970a5f9ccf", "fusion_lon": 0.0, "bike_id": "9577054c180af2bcb36f7c970a5f9ccf", "is_reserved": 0, "rental_uris": {"android": "https://dc.lft.to/lastmile_qr_scan", "ios": "https://dc.lft.to/lastmile_qr_scan"}, "lat": 38.917111166666665, "is_disabled": 0, "lon": -77.00863383333333}, {"fusion_lat": 0.0, "type": "electric_scooter", "name": "674590d08d08e45d3d38602e8b7c0ef5", "fusion_lon": 0.0, "bike_id": "674590d08d08e45d3d38602e8b7c0ef5", "is_reserved": 0, "rental_uris": {"android": "https://dc.lft.to/lastmile_qr_scan", "ios": "https://dc.lft.to/lastmile_qr_scan"}, "lat": 38.955589333333336, "is_disabled": 0, "lon": -77.07002316666667}, {"fusion_lat": 0.0, "type": "electric_scooter", "name": "163a6d4b7a2e1fe17d2ad5a34315d359", "fusion_lon": 0.0, "bike_id": "163a6d4b7a2e1fe17d2ad5a34315d359", "is_reserved": 0, "rental_uris": {"android": "https://dc.lft.to/lastmile_qr_scan", "ios": "https://dc.lft.to/lastmile_qr_scan"}, "lat": 38.913948166666664, "is_disabled": 0, "lon": -77.0332625}, {"fusion_lat": 0.0, "type": "electric_scooter", "name": "c18c53a0b1a3112999f3c9274b84f0ca", "fusion_lon": 0.0, "bike_id": "c18c53a0b1a3112999f3c9274b84f0ca", "is_reserved": 0, "rental_uris": {"android": "https://dc.lft.to/lastmile_qr_scan", "ios": "https://dc.lft.to/lastmile_qr_scan"}, "lat": 38.95017983333334, "is_disabled": 0, "lon": -77.06744533333334}, {"fusion_lat": 0.0, "type": "electric_scooter", "name": "40ddf06d41106828402d1ae43d81fc67", "fusion_lon": 0.0, "bike_id": "40ddf06d41106828402d1ae43d81fc67", "is_reserved": 0, "rental_uris": {"android": "https://dc.lft.to/lastmile_qr_scan", "ios": "https://dc.lft.to/lastmile_qr_scan"}, "lat": 38.922775333333334, "is_disabled": 0, "lon": -77.03668483333334}, {"fusion_lat": 0.0, "type": "electric_scooter", "name": "df696043c7dc834b7af8ba6747a39585", "fusion_lon": 0.0, "bike_id": "df696043c7dc834b7af8ba6747a39585", "is_reserved": 0, "rental_uris": {"android": "https://dc.lft.to/lastmile_qr_scan", "ios": "https://dc.lft.to/lastmile_qr_scan"}, "lat": 38.93331416666667, "is_disabled": 0, "lon": -77.04404566666666}, {"fusion_lat": 0.0, "type": "electric_scooter", "name": "8b874d0c4e2892c441eb301b3f3a2a95", "fusion_lon": 0.0, "bike_id": "8b874d0c4e2892c441eb301b3f3a2a95", "is_reserved": 0, "rental_uris": {"android": "https://dc.lft.to/lastmile_qr_scan", "ios": "https://dc.lft.to/lastmile_qr_scan"}, "lat": 38.87463966666667, "is_disabled": 0, "lon": -77.00286166666666}, {"fusion_lat": 0.0, "type": "electric_scooter", "name": "8416fbc8c6934bd7de7ffc17b43a02c7", "fusion_lon": 0.0, "bike_id": "8416fbc8c6934bd7de7ffc17b43a02c7", "is_reserved": 0, "rental_uris": {"android": "https://dc.lft.to/lastmile_qr_scan", "ios": "https://dc.lft.to/lastmile_qr_scan"}, "lat": 38.88037683333334, "is_disabled": 0, "lon": -77.030804}, {"fusion_lat": 0.0, "type": "electric_scooter", "name": "8839e6f93dd089f4a913c2d9558e4176", "fusion_lon": 0.0, "bike_id": "8839e6f93dd089f4a913c2d9558e4176", "is_reserved": 0, "rental_uris": {"android": "https://dc.lft.to/lastmile_qr_scan", "ios": "https://dc.lft.to/lastmile_qr_scan"}, "lat": 38.922447166666664, "is_disabled": 0, "lon": -77.03078516666666}, {"fusion_lat": 0.0, "type": "electric_scooter", "name": "e2692db89a3de8e404a45bd7b571934e", "fusion_lon": 0.0, "bike_id": "e2692db89a3de8e404a45bd7b571934e", "is_reserved": 0, "rental_uris": {"android": "https://dc.lft.to/lastmile_qr_scan", "ios": "https://dc.lft.to/lastmile_qr_scan"}, "lat": 38.9533635, "is_disabled": 0, "lon": -76.99975616666667}, {"fusion_lat": 0.0, "type": "electric_scooter", "name": "a0f7020f75ad487a04cbd9e032785018", "fusion_lon": 0.0, "bike_id": "a0f7020f75ad487a04cbd9e032785018", "is_reserved": 0, "rental_uris": {"android": "https://dc.lft.to/lastmile_qr_scan", "ios": "https://dc.lft.to/lastmile_qr_scan"}, "lat": 38.93370983333333, "is_disabled": 0, "lon": -77.0573415}, {"fusion_lat": 0.0, "type": "electric_scooter", "name": "9fac6914f99f5ff615425417ff579161", "fusion_lon": 0.0, "bike_id": "9fac6914f99f5ff615425417ff579161", "is_reserved": 0, "rental_uris": {"android": "https://dc.lft.to/lastmile_qr_scan", "ios": "https://dc.lft.to/lastmile_qr_scan"}, "lat": 38.90270066666667, "is_disabled": 0, "lon": -77.0121305}, {"fusion_lat": 0.0, "type": "electric_bike", "name": "4290fbd596f70b642013551bc9ad9070", "fusion_lon": 0.0, "bike_id": "4290fbd596f70b642013551bc9ad9070", "is_reserved": 0, "rental_uris": {"android": "https://dc.lft.to/lastmile_qr_scan", "ios": "https://dc.lft.to/lastmile_qr_scan"}, "lat": 38.88872333333333, "is_disabled": 0, "lon": -77.08171833333333}, {"fusion_lat": 0.0, "type": "electric_scooter", "name": "73e33e53695736f172973b3b28518f57", "fusion_lon": 0.0, "bike_id": "73e33e53695736f172973b3b28518f57", "is_reserved": 0, "rental_uris": {"android": "https://dc.lft.to/lastmile_qr_scan", "ios": "https://dc.lft.to/lastmile_qr_scan"}, "lat": 38.91303383333333, "is_disabled": 0, "lon": -77.04555183333333}, {"fusion_lat": 0.0, "type": "electric_scooter", "name": "57b9fe180ca3e1147ba9f4dbc0f91c54", "fusion_lon": 0.0, "bike_id": "57b9fe180ca3e1147ba9f4dbc0f91c54", "is_reserved": 0, "rental_uris": {"android": "https://dc.lft.to/lastmile_qr_scan", "ios": "https://dc.lft.to/lastmile_qr_scan"}, "lat": 38.932452166666664, "is_disabled": 0, "lon": -77.0328325}, {"fusion_lat": 0.0, "type": "electric_scooter", "name": "0481849e41009758898b1ab770d7cc95", "fusion_lon": 0.0, "bike_id": "0481849e41009758898b1ab770d7cc95", "is_reserved": 0, "rental_uris": {"android": "https://dc.lft.to/lastmile_qr_scan", "ios": "https://dc.lft.to/lastmile_qr_scan"}, "lat": 38.928357166666665, "is_disabled": 0, "lon": -77.0141465}, {"fusion_lat": 0.0, "type": "electric_scooter", "name": "fccac1cc37ef7db688435707b422e011", "fusion_lon": 0.0, "bike_id": "fccac1cc37ef7db688435707b422e011", "is_reserved": 0, "rental_uris": {"android": "https://dc.lft.to/lastmile_qr_scan", "ios": "https://dc.lft.to/lastmile_qr_scan"}, "lat": 38.9175355, "is_disabled": 0, "lon": -77.014981}, {"fusion_lat": 0.0, "type": "electric_scooter", "name": "c083266c7a017ec865a885ef3b23da4a", "fusion_lon": 0.0, "bike_id": "c083266c7a017ec865a885ef3b23da4a", "is_reserved": 0, "rental_uris": {"android": "https://dc.lft.to/lastmile_qr_scan", "ios": "https://dc.lft.to/lastmile_qr_scan"}, "lat": 38.92683066666667, "is_disabled": 0, "lon": -77.02861266666666}, {"fusion_lat": 0.0, "type": "electric_scooter", "name": "aab422b432750cd5fab0c6392e9514ef", "fusion_lon": 0.0, "bike_id": "aab422b432750cd5fab0c6392e9514ef", "is_reserved": 0, "rental_uris": {"android": "https://dc.lft.to/lastmile_qr_scan", "ios": "https://dc.lft.to/lastmile_qr_scan"}, "lat": 38.908877833333335, "is_disabled": 0, "lon": -77.043253}, {"fusion_lat": 0.0, "type": "electric_scooter", "name": "b0883e3674227820124dc47656a0c8eb", "fusion_lon": 0.0, "bike_id": "b0883e3674227820124dc47656a0c8eb", "is_reserved": 0, "rental_uris": {"android": "https://dc.lft.to/lastmile_qr_scan", "ios": "https://dc.lft.to/lastmile_qr_scan"}, "lat": 38.93442483333333, "is_disabled": 0, "lon": -77.03656616666666}, {"fusion_lat": 0.0, "type": "electric_scooter", "name": "ad3b42a4f60c3684186fc236da9f7d4a", "fusion_lon": 0.0, "bike_id": "ad3b42a4f60c3684186fc236da9f7d4a", "is_reserved": 0, "rental_uris": {"android": "https://dc.lft.to/lastmile_qr_scan", "ios": "https://dc.lft.to/lastmile_qr_scan"}, "lat": 38.936127166666665, "is_disabled": 0, "lon": -77.05887483333333}, {"fusion_lat": 0.0, "type": "electric_scooter", "name": "bdf67386fd125daff4b094a6ac793fb3", "fusion_lon": 0.0, "bike_id": "bdf67386fd125daff4b094a6ac793fb3", "is_reserved": 0, "rental_uris": {"android": "https://dc.lft.to/lastmile_qr_scan", "ios": "https://dc.lft.to/lastmile_qr_scan"}, "lat": 38.9080975, "is_disabled": 0, "lon": -76.98736283333334}, {"fusion_lat": 0.0, "type": "electric_scooter", "name": "f6d7dc11c8ecc6c58edc87e11a8b8be8", "fusion_lon": 0.0, "bike_id": "f6d7dc11c8ecc6c58edc87e11a8b8be8", "is_reserved": 0, "rental_uris": {"android": "https://dc.lft.to/lastmile_qr_scan", "ios": "https://dc.lft.to/lastmile_qr_scan"}, "lat": 38.899590333333336, "is_disabled": 0, "lon": -77.0420995}, {"fusion_lat": 0.0, "type": "electric_scooter", "name": "714de913c058bfcbdb445db596c37adb", "fusion_lon": 0.0, "bike_id": "714de913c058bfcbdb445db596c37adb", "is_reserved": 0, "rental_uris": {"android": "https://dc.lft.to/lastmile_qr_scan", "ios": "https://dc.lft.to/lastmile_qr_scan"}, "lat": 38.905122666666664, "is_disabled": 0, "lon": -77.05320333333333}, {"fusion_lat": 0.0, "type": "electric_scooter", "name": "2b79a287390c20b32e970efb4d308ac1", "fusion_lon": 0.0, "bike_id": "2b79a287390c20b32e970efb4d308ac1", "is_reserved": 0, "rental_uris": {"android": "https://dc.lft.to/lastmile_qr_scan", "ios": "https://dc.lft.to/lastmile_qr_scan"}, "lat": 38.93980483333333, "is_disabled": 0, "lon": -77.03001766666667}, {"fusion_lat": 0.0, "type": "electric_scooter", "name": "b5b889780d54c7e5cb6125b73ca02369", "fusion_lon": 0.0, "bike_id": "b5b889780d54c7e5cb6125b73ca02369", "is_reserved": 0, "rental_uris": {"android": "https://dc.lft.to/lastmile_qr_scan", "ios": "https://dc.lft.to/lastmile_qr_scan"}, "lat": 38.8923115, "is_disabled": 0, "lon": -77.04335833333333}, {"fusion_lat": 0.0, "type": "electric_scooter", "name": "e7986b37a1c1bfb40214cf251c75a702", "fusion_lon": 0.0, "bike_id": "e7986b37a1c1bfb40214cf251c75a702", "is_reserved": 0, "rental_uris": {"android": "https://dc.lft.to/lastmile_qr_scan", "ios": "https://dc.lft.to/lastmile_qr_scan"}, "lat": 38.90978533333333, "is_disabled": 0, "lon": -77.03470766666666}, {"fusion_lat": 0.0, "type": "electric_scooter", "name": "a58275ad4c0f232cb8dbb56945ecee4b", "fusion_lon": 0.0, "bike_id": "a58275ad4c0f232cb8dbb56945ecee4b", "is_reserved": 0, "rental_uris": {"android": "https://dc.lft.to/lastmile_qr_scan", "ios": "https://dc.lft.to/lastmile_qr_scan"}, "lat": 38.92381616666667, "is_disabled": 0, "lon": -77.03098566666667}, {"fusion_lat": 0.0, "type": "electric_scooter", "name": "480847dce6bbd8c423ddb0bee3f81ec4", "fusion_lon": 0.0, "bike_id": "480847dce6bbd8c423ddb0bee3f81ec4", "is_reserved": 0, "rental_uris": {"android": "https://dc.lft.to/lastmile_qr_scan", "ios": "https://dc.lft.to/lastmile_qr_scan"}, "lat": 38.914792166666665, "is_disabled": 0, "lon": -77.025791}, {"fusion_lat": 0.0, "type": "electric_scooter", "name": "1b8df373c0e428e1d3853cd4840fb12b", "fusion_lon": 0.0, "bike_id": "1b8df373c0e428e1d3853cd4840fb12b", "is_reserved": 0, "rental_uris": {"android": "https://dc.lft.to/lastmile_qr_scan", "ios": "https://dc.lft.to/lastmile_qr_scan"}, "lat": 38.89885983333333, "is_disabled": 0, "lon": -77.053013}, {"fusion_lat": 0.0, "type": "electric_bike", "name": "8397cfbf1437620e3a89f4bc24851efe", "fusion_lon": 0.0, "bike_id": "8397cfbf1437620e3a89f4bc24851efe", "is_reserved": 0, "rental_uris": {"android": "https://dc.lft.to/lastmile_qr_scan", "ios": "https://dc.lft.to/lastmile_qr_scan"}, "lat": 38.9739645, "is_disabled": 0, "lon": -77.06452583333333}, {"fusion_lat": 0.0, "type": "electric_scooter", "name": "b7953d0d09d04127554edbd430811ffa", "fusion_lon": 0.0, "bike_id": "b7953d0d09d04127554edbd430811ffa", "is_reserved": 0, "rental_uris": {"android": "https://dc.lft.to/lastmile_qr_scan", "ios": "https://dc.lft.to/lastmile_qr_scan"}, "lat": 38.898452, "is_disabled": 0, "lon": -76.94643233333333}, {"fusion_lat": 0.0, "type": "electric_scooter", "name": "1f8091f0f1eab382c9079b1cbfbddb9e", "fusion_lon": 0.0, "bike_id": "1f8091f0f1eab382c9079b1cbfbddb9e", "is_reserved": 0, "rental_uris": {"android": "https://dc.lft.to/lastmile_qr_scan", "ios": "https://dc.lft.to/lastmile_qr_scan"}, "lat": 38.92360883333333, "is_disabled": 0, "lon": -77.05067283333334}, {"fusion_lat": 0.0, "type": "electric_scooter", "name": "3029abbb32c2180d225fe6f1419b55d9", "fusion_lon": 0.0, "bike_id": "3029abbb32c2180d225fe6f1419b55d9", "is_reserved": 0, "rental_uris": {"android": "https://dc.lft.to/lastmile_qr_scan", "ios": "https://dc.lft.to/lastmile_qr_scan"}, "lat": 38.88919683333334, "is_disabled": 0, "lon": -76.991333}, {"fusion_lat": 0.0, "type": "electric_scooter", "name": "6c363e46a12d4223c2e78acd6b927463", "fusion_lon": 0.0, "bike_id": "6c363e46a12d4223c2e78acd6b927463", "is_reserved": 0, "rental_uris": {"android": "https://dc.lft.to/lastmile_qr_scan", "ios": "https://dc.lft.to/lastmile_qr_scan"}, "lat": 38.94208966666667, "is_disabled": 0, "lon": -77.02515116666666}, {"fusion_lat": 0.0, "type": "electric_scooter", "name": "32b6896e83cf231b2407b517b3813634", "fusion_lon": 0.0, "bike_id": "32b6896e83cf231b2407b517b3813634", "is_reserved": 0, "rental_uris": {"android": "https://dc.lft.to/lastmile_qr_scan", "ios": "https://dc.lft.to/lastmile_qr_scan"}, "lat": 38.87812133333333, "is_disabled": 0, "lon": -77.01767266666667}, {"fusion_lat": 0.0, "type": "electric_scooter", "name": "bc25c6228a15100921133fd87cc9bfc6", "fusion_lon": 0.0, "bike_id": "bc25c6228a15100921133fd87cc9bfc6", "is_reserved": 0, "rental_uris": {"android": "https://dc.lft.to/lastmile_qr_scan", "ios": "https://dc.lft.to/lastmile_qr_scan"}, "lat": 38.8922075, "is_disabled": 0, "lon": -77.04304533333334}, {"fusion_lat": 0.0, "type": "electric_scooter", "name": "8ce844653d099d74e9b17d831122cb76", "fusion_lon": 0.0, "bike_id": "8ce844653d099d74e9b17d831122cb76", "is_reserved": 0, "rental_uris": {"android": "https://dc.lft.to/lastmile_qr_scan", "ios": "https://dc.lft.to/lastmile_qr_scan"}, "lat": 38.93085933333333, "is_disabled": 0, "lon": -77.027942}, {"fusion_lat": 0.0, "type": "electric_scooter", "name": "6c92f70aef59eebffc30747fd063f15d", "fusion_lon": 0.0, "bike_id": "6c92f70aef59eebffc30747fd063f15d", "is_reserved": 0, "rental_uris": {"android": "https://dc.lft.to/lastmile_qr_scan", "ios": "https://dc.lft.to/lastmile_qr_scan"}, "lat": 38.917919, "is_disabled": 0, "lon": -77.04548366666667}, {"fusion_lat": 0.0, "type": "electric_scooter", "name": "f73007ba35273b1cc278bc5da9b0fa1c", "fusion_lon": 0.0, "bike_id": "f73007ba35273b1cc278bc5da9b0fa1c", "is_reserved": 0, "rental_uris": {"android": "https://dc.lft.to/lastmile_qr_scan", "ios": "https://dc.lft.to/lastmile_qr_scan"}, "lat": 38.920918666666665, "is_disabled": 0, "lon": -77.0268045}, {"fusion_lat": 0.0, "type": "electric_scooter", "name": "56eaac9dd550eb683a1e2cf658a66fc6", "fusion_lon": 0.0, "bike_id": "56eaac9dd550eb683a1e2cf658a66fc6", "is_reserved": 0, "rental_uris": {"android": "https://dc.lft.to/lastmile_qr_scan", "ios": "https://dc.lft.to/lastmile_qr_scan"}, "lat": 38.911147666666665, "is_disabled": 0, "lon": -77.03319383333333}, {"fusion_lat": 0.0, "type": "electric_bike", "name": "dd5e21442c127fffff3ba27d577fa272", "fusion_lon": 0.0, "bike_id": "dd5e21442c127fffff3ba27d577fa272", "is_reserved": 0, "rental_uris": {"android": "https://dc.lft.to/lastmile_qr_scan", "ios": "https://dc.lft.to/lastmile_qr_scan"}, "lat": 39.042347666666664, "is_disabled": 0, "lon": -77.0307495}, {"fusion_lat": 0.0, "type": "electric_scooter", "name": "b90baf45cf6d799211fdab90a2ff4037", "fusion_lon": 0.0, "bike_id": "b90baf45cf6d799211fdab90a2ff4037", "is_reserved": 0, "rental_uris": {"android": "https://dc.lft.to/lastmile_qr_scan", "ios": "https://dc.lft.to/lastmile_qr_scan"}, "lat": 38.9097085, "is_disabled": 0, "lon": -77.02077433333334}, {"fusion_lat": 0.0, "type": "electric_scooter", "name": "f79774be015892c2977d2fcacd8d7887", "fusion_lon": 0.0, "bike_id": "f79774be015892c2977d2fcacd8d7887", "is_reserved": 0, "rental_uris": {"android": "https://dc.lft.to/lastmile_qr_scan", "ios": "https://dc.lft.to/lastmile_qr_scan"}, "lat": 38.92848, "is_disabled": 0, "lon": -77.03264133333333}, {"fusion_lat": 0.0, "type": "electric_bike", "name": "c954208821f71f9986381665584da988", "fusion_lon": 0.0, "bike_id": "c954208821f71f9986381665584da988", "is_reserved": 0, "rental_uris": {"android": "https://dc.lft.to/lastmile_qr_scan", "ios": "https://dc.lft.to/lastmile_qr_scan"}, "lat": 38.95501733333333, "is_disabled": 0, "lon": -76.9938185}, {"fusion_lat": 0.0, "type": "electric_scooter", "name": "cce57786d10cc287d589e81fa581075a", "fusion_lon": 0.0, "bike_id": "cce57786d10cc287d589e81fa581075a", "is_reserved": 0, "rental_uris": {"android": "https://dc.lft.to/lastmile_qr_scan", "ios": "https://dc.lft.to/lastmile_qr_scan"}, "lat": 38.958289, "is_disabled": 0, "lon": -77.01507216666667}, {"fusion_lat": 0.0, "type": "electric_scooter", "name": "1051a33ef1c5c3a7724b1c9e0c66b36c", "fusion_lon": 0.0, "bike_id": "1051a33ef1c5c3a7724b1c9e0c66b36c", "is_reserved": 0, "rental_uris": {"android": "https://dc.lft.to/lastmile_qr_scan", "ios": "https://dc.lft.to/lastmile_qr_scan"}, "lat": 38.90073066666667, "is_disabled": 0, "lon": -77.04533433333333}, {"fusion_lat": 0.0, "type": "electric_scooter", "name": "7f13ee340fd9d6f3e52981a02505ce48", "fusion_lon": 0.0, "bike_id": "7f13ee340fd9d6f3e52981a02505ce48", "is_reserved": 0, "rental_uris": {"android": "https://dc.lft.to/lastmile_qr_scan", "ios": "https://dc.lft.to/lastmile_qr_scan"}, "lat": 38.87645216666667, "is_disabled": 0, "lon": -76.96506316666667}, {"fusion_lat": 0.0, "type": "electric_scooter", "name": "4626801e15ddf1bc465afeb30e60d403", "fusion_lon": 0.0, "bike_id": "4626801e15ddf1bc465afeb30e60d403", "is_reserved": 0, "rental_uris": {"android": "https://dc.lft.to/lastmile_qr_scan", "ios": "https://dc.lft.to/lastmile_qr_scan"}, "lat": 38.897529166666665, "is_disabled": 0, "lon": -77.01356816666667}, {"fusion_lat": 0.0, "type": "electric_scooter", "name": "f287c155b50ef7e5ae2da1b66a86bc20", "fusion_lon": 0.0, "bike_id": "f287c155b50ef7e5ae2da1b66a86bc20", "is_reserved": 0, "rental_uris": {"android": "https://dc.lft.to/lastmile_qr_scan", "ios": "https://dc.lft.to/lastmile_qr_scan"}, "lat": 38.89738966666667, "is_disabled": 0, "lon": -77.01311716666666}, {"fusion_lat": 0.0, "type": "electric_scooter", "name": "5ca98bf76c33f4845aa95990b72e5202", "fusion_lon": 0.0, "bike_id": "5ca98bf76c33f4845aa95990b72e5202", "is_reserved": 0, "rental_uris": {"android": "https://dc.lft.to/lastmile_qr_scan", "ios": "https://dc.lft.to/lastmile_qr_scan"}, "lat": 38.8883065, "is_disabled": 0, "lon": -76.99370083333334}, {"fusion_lat": 0.0, "type": "electric_scooter", "name": "7d47696d0f544a135843c267c2b012e5", "fusion_lon": 0.0, "bike_id": "7d47696d0f544a135843c267c2b012e5", "is_reserved": 0, "rental_uris": {"android": "https://dc.lft.to/lastmile_qr_scan", "ios": "https://dc.lft.to/lastmile_qr_scan"}, "lat": 38.86685133333334, "is_disabled": 0, "lon": -76.98594083333333}, {"fusion_lat": 0.0, "type": "electric_scooter", "name": "bf45031f5408b13bee290935112ee3e8", "fusion_lon": 0.0, "bike_id": "bf45031f5408b13bee290935112ee3e8", "is_reserved": 0, "rental_uris": {"android": "https://dc.lft.to/lastmile_qr_scan", "ios": "https://dc.lft.to/lastmile_qr_scan"}, "lat": 38.908591333333334, "is_disabled": 0, "lon": -77.04265216666667}, {"fusion_lat": 0.0, "type": "electric_bike", "name": "63d9829b8d9936a44ff246d915670424", "fusion_lon": 0.0, "bike_id": "63d9829b8d9936a44ff246d915670424", "is_reserved": 0, "rental_uris": {"android": "https://dc.lft.to/lastmile_qr_scan", "ios": "https://dc.lft.to/lastmile_qr_scan"}, "lat": 38.96225066666667, "is_disabled": 0, "lon": -77.0263355}, {"fusion_lat": 0.0, "type": "electric_scooter", "name": "7eb8a4a464dc8b17d6b251b8b12b66eb", "fusion_lon": 0.0, "bike_id": "7eb8a4a464dc8b17d6b251b8b12b66eb", "is_reserved": 0, "rental_uris": {"android": "https://dc.lft.to/lastmile_qr_scan", "ios": "https://dc.lft.to/lastmile_qr_scan"}, "lat": 38.92753033333334, "is_disabled": 0, "lon": -77.02534816666666}, {"fusion_lat": 0.0, "type": "electric_scooter", "name": "44ba875fe136a10b0d1ab423a472480a", "fusion_lon": 0.0, "bike_id": "44ba875fe136a10b0d1ab423a472480a", "is_reserved": 0, "rental_uris": {"android": "https://dc.lft.to/lastmile_qr_scan", "ios": "https://dc.lft.to/lastmile_qr_scan"}, "lat": 38.923832833333336, "is_disabled": 0, "lon": -77.028009}, {"fusion_lat": 0.0, "type": "electric_scooter", "name": "68c979479d7061bde1c5dedc2261f75e", "fusion_lon": 0.0, "bike_id": "68c979479d7061bde1c5dedc2261f75e", "is_reserved": 0, "rental_uris": {"android": "https://dc.lft.to/lastmile_qr_scan", "ios": "https://dc.lft.to/lastmile_qr_scan"}, "lat": 38.90008783333333, "is_disabled": 0, "lon": -76.99307166666667}, {"fusion_lat": 0.0, "type": "electric_scooter", "name": "e3259a031887aef1a11fc46c1c3dd0ab", "fusion_lon": 0.0, "bike_id": "e3259a031887aef1a11fc46c1c3dd0ab", "is_reserved": 0, "rental_uris": {"android": "https://dc.lft.to/lastmile_qr_scan", "ios": "https://dc.lft.to/lastmile_qr_scan"}, "lat": 38.93708266666667, "is_disabled": 0, "lon": -77.061026}, {"fusion_lat": 0.0, "type": "electric_scooter", "name": "6df392122da83991429c6c8ceaa42525", "fusion_lon": 0.0, "bike_id": "6df392122da83991429c6c8ceaa42525", "is_reserved": 0, "rental_uris": {"android": "https://dc.lft.to/lastmile_qr_scan", "ios": "https://dc.lft.to/lastmile_qr_scan"}, "lat": 38.915727, "is_disabled": 0, "lon": -77.038517}, {"fusion_lat": 0.0, "type": "electric_scooter", "name": "596926ef16f4714db7ece99b7eded547", "fusion_lon": 0.0, "bike_id": "596926ef16f4714db7ece99b7eded547", "is_reserved": 0, "rental_uris": {"android": "https://dc.lft.to/lastmile_qr_scan", "ios": "https://dc.lft.to/lastmile_qr_scan"}, "lat": 38.907912833333334, "is_disabled": 0, "lon": -77.0110475}, {"fusion_lat": 0.0, "type": "electric_scooter", "name": "687ff96c87f1a3a071700b855c602054", "fusion_lon": 0.0, "bike_id": "687ff96c87f1a3a071700b855c602054", "is_reserved": 0, "rental_uris": {"android": "https://dc.lft.to/lastmile_qr_scan", "ios": "https://dc.lft.to/lastmile_qr_scan"}, "lat": 38.89368833333333, "is_disabled": 0, "lon": -77.0549305}, {"fusion_lat": 0.0, "type": "electric_scooter", "name": "7c7af3589fba9538e7cb5ecb2f24d1e7", "fusion_lon": 0.0, "bike_id": "7c7af3589fba9538e7cb5ecb2f24d1e7", "is_reserved": 0, "rental_uris": {"android": "https://dc.lft.to/lastmile_qr_scan", "ios": "https://dc.lft.to/lastmile_qr_scan"}, "lat": 38.90736, "is_disabled": 0, "lon": -77.03441266666667}, {"fusion_lat": 0.0, "type": "electric_scooter", "name": "11e83732114aa9bc2375f15de5f9f44d", "fusion_lon": 0.0, "bike_id": "11e83732114aa9bc2375f15de5f9f44d", "is_reserved": 0, "rental_uris": {"android": "https://dc.lft.to/lastmile_qr_scan", "ios": "https://dc.lft.to/lastmile_qr_scan"}, "lat": 38.9271635, "is_disabled": 0, "lon": -77.02388816666667}, {"fusion_lat": 0.0, "type": "electric_scooter", "name": "a77ede863fb1c1990c6d3de8831a801f", "fusion_lon": 0.0, "bike_id": "a77ede863fb1c1990c6d3de8831a801f", "is_reserved": 0, "rental_uris": {"android": "https://dc.lft.to/lastmile_qr_scan", "ios": "https://dc.lft.to/lastmile_qr_scan"}, "lat": 38.894292666666665, "is_disabled": 0, "lon": -76.94879633333333}, {"fusion_lat": 0.0, "type": "electric_scooter", "name": "fd7cf14c92f266a4074260fbe52cc71e", "fusion_lon": 0.0, "bike_id": "fd7cf14c92f266a4074260fbe52cc71e", "is_reserved": 0, "rental_uris": {"android": "https://dc.lft.to/lastmile_qr_scan", "ios": "https://dc.lft.to/lastmile_qr_scan"}, "lat": 38.892277166666666, "is_disabled": 0, "lon": -77.0321645}, {"fusion_lat": 0.0, "type": "electric_scooter", "name": "bac62235e9f1a372ec6715120a23ab5f", "fusion_lon": 0.0, "bike_id": "bac62235e9f1a372ec6715120a23ab5f", "is_reserved": 0, "rental_uris": {"android": "https://dc.lft.to/lastmile_qr_scan", "ios": "https://dc.lft.to/lastmile_qr_scan"}, "lat": 38.952650166666665, "is_disabled": 0, "lon": -77.0256675}, {"fusion_lat": 0.0, "type": "electric_scooter", "name": "a90d289fd40a113bda35f4851590ce40", "fusion_lon": 0.0, "bike_id": "a90d289fd40a113bda35f4851590ce40", "is_reserved": 0, "rental_uris": {"android": "https://dc.lft.to/lastmile_qr_scan", "ios": "https://dc.lft.to/lastmile_qr_scan"}, "lat": 38.92382333333333, "is_disabled": 0, "lon": -77.02741116666667}, {"fusion_lat": 0.0, "type": "electric_scooter", "name": "7cfc678bef29eaffd4396f4d967436a2", "fusion_lon": 0.0, "bike_id": "7cfc678bef29eaffd4396f4d967436a2", "is_reserved": 0, "rental_uris": {"android": "https://dc.lft.to/lastmile_qr_scan", "ios": "https://dc.lft.to/lastmile_qr_scan"}, "lat": 38.88608683333333, "is_disabled": 0, "lon": -76.95579216666667}, {"fusion_lat": 0.0, "type": "electric_scooter", "name": "288ea065cf2dd072998a9a35f1d1b64f", "fusion_lon": 0.0, "bike_id": "288ea065cf2dd072998a9a35f1d1b64f", "is_reserved": 0, "rental_uris": {"android": "https://dc.lft.to/lastmile_qr_scan", "ios": "https://dc.lft.to/lastmile_qr_scan"}, "lat": 38.892976, "is_disabled": 0, "lon": -76.99820216666667}, {"fusion_lat": 0.0, "type": "electric_scooter", "name": "39454a03c7aabcb8740af61ffdae72ed", "fusion_lon": 0.0, "bike_id": "39454a03c7aabcb8740af61ffdae72ed", "is_reserved": 0, "rental_uris": {"android": "https://dc.lft.to/lastmile_qr_scan", "ios": "https://dc.lft.to/lastmile_qr_scan"}, "lat": 38.92063733333333, "is_disabled": 0, "lon": -77.03452183333333}, {"fusion_lat": 0.0, "type": "electric_scooter", "name": "064cf471922f10ce6437655188452efc", "fusion_lon": 0.0, "bike_id": "064cf471922f10ce6437655188452efc", "is_reserved": 0, "rental_uris": {"android": "https://dc.lft.to/lastmile_qr_scan", "ios": "https://dc.lft.to/lastmile_qr_scan"}, "lat": 38.92340883333333, "is_disabled": 0, "lon": -77.024282}, {"fusion_lat": 0.0, "type": "electric_scooter", "name": "a4242d83dede3bdd27dbd28b71696f14", "fusion_lon": 0.0, "bike_id": "a4242d83dede3bdd27dbd28b71696f14", "is_reserved": 0, "rental_uris": {"android": "https://dc.lft.to/lastmile_qr_scan", "ios": "https://dc.lft.to/lastmile_qr_scan"}, "lat": 38.93412266666667, "is_disabled": 0, "lon": -77.0325525}, {"fusion_lat": 0.0, "type": "electric_scooter", "name": "fc1509985fa44c6cb4f74e62b787e65a", "fusion_lon": 0.0, "bike_id": "fc1509985fa44c6cb4f74e62b787e65a", "is_reserved": 0, "rental_uris": {"android": "https://dc.lft.to/lastmile_qr_scan", "ios": "https://dc.lft.to/lastmile_qr_scan"}, "lat": 38.91694616666667, "is_disabled": 0, "lon": -77.03489533333334}, {"fusion_lat": 0.0, "type": "electric_scooter", "name": "9cfd0189f5d2782cae0df5f88348abcc", "fusion_lon": 0.0, "bike_id": "9cfd0189f5d2782cae0df5f88348abcc", "is_reserved": 0, "rental_uris": {"android": "https://dc.lft.to/lastmile_qr_scan", "ios": "https://dc.lft.to/lastmile_qr_scan"}, "lat": 38.912686, "is_disabled": 0, "lon": -77.03309766666666}, {"fusion_lat": 0.0, "type": "electric_bike", "name": "6e43e5b826c53798920bd3dd00a84383", "fusion_lon": 0.0, "bike_id": "6e43e5b826c53798920bd3dd00a84383", "is_reserved": 0, "rental_uris": {"android": "https://dc.lft.to/lastmile_qr_scan", "ios": "https://dc.lft.to/lastmile_qr_scan"}, "lat": 38.9272505, "is_disabled": 0, "lon": -77.07327066666667}, {"fusion_lat": 0.0, "type": "electric_scooter", "name": "227db2a1d6ae947f421854c6511add89", "fusion_lon": 0.0, "bike_id": "227db2a1d6ae947f421854c6511add89", "is_reserved": 0, "rental_uris": {"android": "https://dc.lft.to/lastmile_qr_scan", "ios": "https://dc.lft.to/lastmile_qr_scan"}, "lat": 38.90889683333333, "is_disabled": 0, "lon": -77.02180666666666}, {"fusion_lat": 0.0, "type": "electric_scooter", "name": "77815f347e9ee512874a9181c145d52f", "fusion_lon": 0.0, "bike_id": "77815f347e9ee512874a9181c145d52f", "is_reserved": 0, "rental_uris": {"android": "https://dc.lft.to/lastmile_qr_scan", "ios": "https://dc.lft.to/lastmile_qr_scan"}, "lat": 38.9445725, "is_disabled": 0, "lon": -77.06022666666667}, {"fusion_lat": 0.0, "type": "electric_scooter", "name": "13ba8b4eba4be904a7fc2ec07ec8bc03", "fusion_lon": 0.0, "bike_id": "13ba8b4eba4be904a7fc2ec07ec8bc03", "is_reserved": 0, "rental_uris": {"android": "https://dc.lft.to/lastmile_qr_scan", "ios": "https://dc.lft.to/lastmile_qr_scan"}, "lat": 38.9071435, "is_disabled": 0, "lon": -76.998283}, {"fusion_lat": 0.0, "type": "electric_scooter", "name": "9268ee6a5f7d028f30470b4fc8a3c676", "fusion_lon": 0.0, "bike_id": "9268ee6a5f7d028f30470b4fc8a3c676", "is_reserved": 0, "rental_uris": {"android": "https://dc.lft.to/lastmile_qr_scan", "ios": "https://dc.lft.to/lastmile_qr_scan"}, "lat": 38.9023105, "is_disabled": 0, "lon": -77.05345466666667}, {"fusion_lat": 0.0, "type": "electric_scooter", "name": "c4f2ef616c369b7b448af4cdbb88928e", "fusion_lon": 0.0, "bike_id": "c4f2ef616c369b7b448af4cdbb88928e", "is_reserved": 0, "rental_uris": {"android": "https://dc.lft.to/lastmile_qr_scan", "ios": "https://dc.lft.to/lastmile_qr_scan"}, "lat": 38.9199775, "is_disabled": 0, "lon": -77.02425183333334}, {"fusion_lat": 0.0, "type": "electric_scooter", "name": "4ab9643b00c2e47c6d948858ff9e81f8", "fusion_lon": 0.0, "bike_id": "4ab9643b00c2e47c6d948858ff9e81f8", "is_reserved": 0, "rental_uris": {"android": "https://dc.lft.to/lastmile_qr_scan", "ios": "https://dc.lft.to/lastmile_qr_scan"}, "lat": 38.9170525, "is_disabled": 0, "lon": -77.034172}, {"fusion_lat": 0.0, "type": "electric_scooter", "name": "3d684b07460e92730c6dbd15df39b8ee", "fusion_lon": 0.0, "bike_id": "3d684b07460e92730c6dbd15df39b8ee", "is_reserved": 0, "rental_uris": {"android": "https://dc.lft.to/lastmile_qr_scan", "ios": "https://dc.lft.to/lastmile_qr_scan"}, "lat": 38.921519, "is_disabled": 0, "lon": -77.0204795}, {"fusion_lat": 0.0, "type": "electric_scooter", "name": "01993b9ef9ee9243b57c2a845bab1461", "fusion_lon": 0.0, "bike_id": "01993b9ef9ee9243b57c2a845bab1461", "is_reserved": 0, "rental_uris": {"android": "https://dc.lft.to/lastmile_qr_scan", "ios": "https://dc.lft.to/lastmile_qr_scan"}, "lat": 38.87767866666667, "is_disabled": 0, "lon": -77.0178705}, {"fusion_lat": 0.0, "type": "electric_scooter", "name": "a90c0e39635a907b90e05e9758fe4a1b", "fusion_lon": 0.0, "bike_id": "a90c0e39635a907b90e05e9758fe4a1b", "is_reserved": 0, "rental_uris": {"android": "https://dc.lft.to/lastmile_qr_scan", "ios": "https://dc.lft.to/lastmile_qr_scan"}, "lat": 38.9087165, "is_disabled": 0, "lon": -77.02175233333334}, {"fusion_lat": 0.0, "type": "electric_scooter", "name": "f21985864ae7096eb986b02f6eb8f2e4", "fusion_lon": 0.0, "bike_id": "f21985864ae7096eb986b02f6eb8f2e4", "is_reserved": 0, "rental_uris": {"android": "https://dc.lft.to/lastmile_qr_scan", "ios": "https://dc.lft.to/lastmile_qr_scan"}, "lat": 38.92088183333333, "is_disabled": 0, "lon": -77.01205966666667}, {"fusion_lat": 0.0, "type": "electric_scooter", "name": "8c499d95d5bd3ea9d6603a640fabd3bd", "fusion_lon": 0.0, "bike_id": "8c499d95d5bd3ea9d6603a640fabd3bd", "is_reserved": 0, "rental_uris": {"android": "https://dc.lft.to/lastmile_qr_scan", "ios": "https://dc.lft.to/lastmile_qr_scan"}, "lat": 38.9297385, "is_disabled": 0, "lon": -77.05499733333333}, {"fusion_lat": 0.0, "type": "electric_scooter", "name": "28fcc86235f43842251c969dade76e70", "fusion_lon": 0.0, "bike_id": "28fcc86235f43842251c969dade76e70", "is_reserved": 0, "rental_uris": {"android": "https://dc.lft.to/lastmile_qr_scan", "ios": "https://dc.lft.to/lastmile_qr_scan"}, "lat": 38.906614833333336, "is_disabled": 0, "lon": -77.03156533333333}, {"fusion_lat": 0.0, "type": "electric_scooter", "name": "5ee88cc2cf898fca95b2a9a98d0fe0f6", "fusion_lon": 0.0, "bike_id": "5ee88cc2cf898fca95b2a9a98d0fe0f6", "is_reserved": 0, "rental_uris": {"android": "https://dc.lft.to/lastmile_qr_scan", "ios": "https://dc.lft.to/lastmile_qr_scan"}, "lat": 38.91488566666666, "is_disabled": 0, "lon": -77.02570483333334}, {"fusion_lat": 0.0, "type": "electric_scooter", "name": "a852af6c08467125dddea724e400863b", "fusion_lon": 0.0, "bike_id": "a852af6c08467125dddea724e400863b", "is_reserved": 0, "rental_uris": {"android": "https://dc.lft.to/lastmile_qr_scan", "ios": "https://dc.lft.to/lastmile_qr_scan"}, "lat": 38.92938766666666, "is_disabled": 0, "lon": -77.037427}, {"fusion_lat": 0.0, "type": "electric_bike", "name": "a948c86ceddcd8694353f9669703453b", "fusion_lon": 0.0, "bike_id": "a948c86ceddcd8694353f9669703453b", "is_reserved": 0, "rental_uris": {"android": "https://dc.lft.to/lastmile_qr_scan", "ios": "https://dc.lft.to/lastmile_qr_scan"}, "lat": 38.813076, "is_disabled": 0, "lon": -77.1096945}, {"fusion_lat": 0.0, "type": "electric_scooter", "name": "ec7b298e02f7164f641669a5c49708a7", "fusion_lon": 0.0, "bike_id": "ec7b298e02f7164f641669a5c49708a7", "is_reserved": 0, "rental_uris": {"android": "https://dc.lft.to/lastmile_qr_scan", "ios": "https://dc.lft.to/lastmile_qr_scan"}, "lat": 38.89971966666667, "is_disabled": 0, "lon": -77.01571116666666}, {"fusion_lat": 0.0, "type": "electric_scooter", "name": "bf176c4bfe2e290c74e312158bb24cbb", "fusion_lon": 0.0, "bike_id": "bf176c4bfe2e290c74e312158bb24cbb", "is_reserved": 0, "rental_uris": {"android": "https://dc.lft.to/lastmile_qr_scan", "ios": "https://dc.lft.to/lastmile_qr_scan"}, "lat": 38.917032, "is_disabled": 0, "lon": -77.04257116666666}, {"fusion_lat": 0.0, "type": "electric_bike", "name": "295d378b1baa8a162da069ceddcaab69", "fusion_lon": 0.0, "bike_id": "295d378b1baa8a162da069ceddcaab69", "is_reserved": 0, "rental_uris": {"android": "https://dc.lft.to/lastmile_qr_scan", "ios": "https://dc.lft.to/lastmile_qr_scan"}, "lat": 38.945562833333334, "is_disabled": 0, "lon": -76.89540416666667}, {"fusion_lat": 0.0, "type": "electric_scooter", "name": "387ceae6c81c40638461650257880d9f", "fusion_lon": 0.0, "bike_id": "387ceae6c81c40638461650257880d9f", "is_reserved": 0, "rental_uris": {"android": "https://dc.lft.to/lastmile_qr_scan", "ios": "https://dc.lft.to/lastmile_qr_scan"}, "lat": 38.89631083333333, "is_disabled": 0, "lon": -77.02183783333334}, {"fusion_lat": 0.0, "type": "electric_bike", "name": "0c83201180e0bd77fbcf4f3ee8435997", "fusion_lon": 0.0, "bike_id": "0c83201180e0bd77fbcf4f3ee8435997", "is_reserved": 0, "rental_uris": {"android": "https://dc.lft.to/lastmile_qr_scan", "ios": "https://dc.lft.to/lastmile_qr_scan"}, "lat": 38.94974533333333, "is_disabled": 0, "lon": -77.07382666666666}, {"fusion_lat": 0.0, "type": "electric_scooter", "name": "39272f907b2016dcb6ec65e81fbcac01", "fusion_lon": 0.0, "bike_id": "39272f907b2016dcb6ec65e81fbcac01", "is_reserved": 0, "rental_uris": {"android": "https://dc.lft.to/lastmile_qr_scan", "ios": "https://dc.lft.to/lastmile_qr_scan"}, "lat": 38.94266916666667, "is_disabled": 0, "lon": -77.0284215}, {"fusion_lat": 0.0, "type": "electric_bike", "name": "39b0383ca57c5f814edad403d0917ab2", "fusion_lon": 0.0, "bike_id": "39b0383ca57c5f814edad403d0917ab2", "is_reserved": 0, "rental_uris": {"android": "https://dc.lft.to/lastmile_qr_scan", "ios": "https://dc.lft.to/lastmile_qr_scan"}, "lat": 38.945116666666664, "is_disabled": 0, "lon": -77.00668666666667}, {"fusion_lat": 0.0, "type": "electric_scooter", "name": "612e29e93e9e6c5806e40b46e1c3802d", "fusion_lon": 0.0, "bike_id": "612e29e93e9e6c5806e40b46e1c3802d", "is_reserved": 0, "rental_uris": {"android": "https://dc.lft.to/lastmile_qr_scan", "ios": "https://dc.lft.to/lastmile_qr_scan"}, "lat": 38.91350766666667, "is_disabled": 0, "lon": -77.031848}, {"fusion_lat": 0.0, "type": "electric_bike", "name": "6ccf4645a50c8083e6b74f4ac5b1a739", "fusion_lon": 0.0, "bike_id": "6ccf4645a50c8083e6b74f4ac5b1a739", "is_reserved": 0, "rental_uris": {"android": "https://dc.lft.to/lastmile_qr_scan", "ios": "https://dc.lft.to/lastmile_qr_scan"}, "lat": 38.929649833333336, "is_disabled": 0, "lon": -77.18562116666666}, {"fusion_lat": 0.0, "type": "electric_bike", "name": "163e7dc57ec9f0c87516f4e7183ded8e", "fusion_lon": 0.0, "bike_id": "163e7dc57ec9f0c87516f4e7183ded8e", "is_reserved": 0, "rental_uris": {"android": "https://dc.lft.to/lastmile_qr_scan", "ios": "https://dc.lft.to/lastmile_qr_scan"}, "lat": 38.954418833333335, "is_disabled": 0, "lon": -76.98913}, {"fusion_lat": 0.0, "type": "electric_bike", "name": "6cbb06cb8511d6870d9ab3c654032c59", "fusion_lon": 0.0, "bike_id": "6cbb06cb8511d6870d9ab3c654032c59", "is_reserved": 0, "rental_uris": {"android": "https://dc.lft.to/lastmile_qr_scan", "ios": "https://dc.lft.to/lastmile_qr_scan"}, "lat": 38.931700666666664, "is_disabled": 0, "lon": -76.88399083333333}, {"fusion_lat": 0.0, "type": "electric_bike", "name": "f952981834b0abe79d9c9e541218248d", "fusion_lon": 0.0, "bike_id": "f952981834b0abe79d9c9e541218248d", "is_reserved": 0, "rental_uris": {"android": "https://dc.lft.to/lastmile_qr_scan", "ios": "https://dc.lft.to/lastmile_qr_scan"}, "lat": 38.86493133333333, "is_disabled": 0, "lon": -76.97748116666666}, {"fusion_lat": 0.0, "type": "electric_scooter", "name": "ae0102338b5aa1ac4d3dc182cdd3ce84", "fusion_lon": 0.0, "bike_id": "ae0102338b5aa1ac4d3dc182cdd3ce84", "is_reserved": 0, "rental_uris": {"android": "https://dc.lft.to/lastmile_qr_scan", "ios": "https://dc.lft.to/lastmile_qr_scan"}, "lat": 38.902446833333336, "is_disabled": 0, "lon": -77.03962266666667}, {"fusion_lat": 0.0, "type": "electric_bike", "name": "5b85e5d722707aa8f66fcda332102c69", "fusion_lon": 0.0, "bike_id": "5b85e5d722707aa8f66fcda332102c69", "is_reserved": 0, "rental_uris": {"android": "https://dc.lft.to/lastmile_qr_scan", "ios": "https://dc.lft.to/lastmile_qr_scan"}, "lat": 38.953306833333336, "is_disabled": 0, "lon": -76.98243566666666}, {"fusion_lat": 0.0, "type": "electric_scooter", "name": "009df5f08c94762881ead6c7cebe1751", "fusion_lon": 0.0, "bike_id": "009df5f08c94762881ead6c7cebe1751", "is_reserved": 0, "rental_uris": {"android": "https://dc.lft.to/lastmile_qr_scan", "ios": "https://dc.lft.to/lastmile_qr_scan"}, "lat": 38.96028733333333, "is_disabled": 0, "lon": -77.00048666666666}, {"fusion_lat": 0.0, "type": "electric_bike", "name": "8e5a3f6019a2f6db2b7f83179a7a69c9", "fusion_lon": 0.0, "bike_id": "8e5a3f6019a2f6db2b7f83179a7a69c9", "is_reserved": 0, "rental_uris": {"android": "https://dc.lft.to/lastmile_qr_scan", "ios": "https://dc.lft.to/lastmile_qr_scan"}, "lat": 39.055014, "is_disabled": 0, "lon": -77.04645783333333}, {"fusion_lat": 0.0, "type": "electric_scooter", "name": "017311ca5a221298cec59a1cc3e48a49", "fusion_lon": 0.0, "bike_id": "017311ca5a221298cec59a1cc3e48a49", "is_reserved": 0, "rental_uris": {"android": "https://dc.lft.to/lastmile_qr_scan", "ios": "https://dc.lft.to/lastmile_qr_scan"}, "lat": 38.949523, "is_disabled": 0, "lon": -77.024507}, {"fusion_lat": 0.0, "type": "electric_scooter", "name": "a27eafc0b30724b74d96477f1922a570", "fusion_lon": 0.0, "bike_id": "a27eafc0b30724b74d96477f1922a570", "is_reserved": 0, "rental_uris": {"android": "https://dc.lft.to/lastmile_qr_scan", "ios": "https://dc.lft.to/lastmile_qr_scan"}, "lat": 38.91713983333333, "is_disabled": 0, "lon": -77.03866316666667}, {"fusion_lat": 0.0, "type": "electric_scooter", "name": "686dce33bea87927456580e4d68f8b54", "fusion_lon": 0.0, "bike_id": "686dce33bea87927456580e4d68f8b54", "is_reserved": 0, "rental_uris": {"android": "https://dc.lft.to/lastmile_qr_scan", "ios": "https://dc.lft.to/lastmile_qr_scan"}, "lat": 38.9490395, "is_disabled": 0, "lon": -77.02076716666667}, {"fusion_lat": 0.0, "type": "electric_scooter", "name": "52736b22e4f34288c01729a2a3a7c77e", "fusion_lon": 0.0, "bike_id": "52736b22e4f34288c01729a2a3a7c77e", "is_reserved": 0, "rental_uris": {"android": "https://dc.lft.to/lastmile_qr_scan", "ios": "https://dc.lft.to/lastmile_qr_scan"}, "lat": 38.892242333333336, "is_disabled": 0, "lon": -77.04310933333333}, {"fusion_lat": 0.0, "type": "electric_scooter", "name": "715427314e11627864eae9b153e74ce7", "fusion_lon": 0.0, "bike_id": "715427314e11627864eae9b153e74ce7", "is_reserved": 0, "rental_uris": {"android": "https://dc.lft.to/lastmile_qr_scan", "ios": "https://dc.lft.to/lastmile_qr_scan"}, "lat": 38.881152, "is_disabled": 0, "lon": -77.01663383333333}, {"fusion_lat": 0.0, "type": "electric_scooter", "name": "dca9f522874eb09624733485ba6e18b0", "fusion_lon": 0.0, "bike_id": "dca9f522874eb09624733485ba6e18b0", "is_reserved": 0, "rental_uris": {"android": "https://dc.lft.to/lastmile_qr_scan", "ios": "https://dc.lft.to/lastmile_qr_scan"}, "lat": 38.8997595, "is_disabled": 0, "lon": -77.0334}, {"fusion_lat": 0.0, "type": "electric_scooter", "name": "43dd9a5a1bb98163d9ce39bca22eaa3c", "fusion_lon": 0.0, "bike_id": "43dd9a5a1bb98163d9ce39bca22eaa3c", "is_reserved": 0, "rental_uris": {"android": "https://dc.lft.to/lastmile_qr_scan", "ios": "https://dc.lft.to/lastmile_qr_scan"}, "lat": 38.91268083333333, "is_disabled": 0, "lon": -77.03072833333333}, {"fusion_lat": 0.0, "type": "electric_scooter", "name": "9718144a8fdeec04e38f9ccf8b99aa52", "fusion_lon": 0.0, "bike_id": "9718144a8fdeec04e38f9ccf8b99aa52", "is_reserved": 0, "rental_uris": {"android": "https://dc.lft.to/lastmile_qr_scan", "ios": "https://dc.lft.to/lastmile_qr_scan"}, "lat": 38.9076445, "is_disabled": 0, "lon": -77.00279816666666}, {"fusion_lat": 0.0, "type": "electric_scooter", "name": "7cc5ea070f5e129ba641b27b25a02f17", "fusion_lon": 0.0, "bike_id": "7cc5ea070f5e129ba641b27b25a02f17", "is_reserved": 0, "rental_uris": {"android": "https://dc.lft.to/lastmile_qr_scan", "ios": "https://dc.lft.to/lastmile_qr_scan"}, "lat": 38.8719315, "is_disabled": 0, "lon": -77.00589283333333}, {"fusion_lat": 0.0, "type": "electric_scooter", "name": "0b4f32ee629a29a497bd038f0da53c9d", "fusion_lon": 0.0, "bike_id": "0b4f32ee629a29a497bd038f0da53c9d", "is_reserved": 0, "rental_uris": {"android": "https://dc.lft.to/lastmile_qr_scan", "ios": "https://dc.lft.to/lastmile_qr_scan"}, "lat": 38.8855595, "is_disabled": 0, "lon": -77.0200505}, {"fusion_lat": 0.0, "type": "electric_scooter", "name": "3a0250b5618b27875212eafc8ef7eedc", "fusion_lon": 0.0, "bike_id": "3a0250b5618b27875212eafc8ef7eedc", "is_reserved": 0, "rental_uris": {"android": "https://dc.lft.to/lastmile_qr_scan", "ios": "https://dc.lft.to/lastmile_qr_scan"}, "lat": 38.9126125, "is_disabled": 0, "lon": -77.0377425}, {"fusion_lat": 0.0, "type": "electric_scooter", "name": "103bc3f51ed77134232d4c8bc1c7f903", "fusion_lon": 0.0, "bike_id": "103bc3f51ed77134232d4c8bc1c7f903", "is_reserved": 0, "rental_uris": {"android": "https://dc.lft.to/lastmile_qr_scan", "ios": "https://dc.lft.to/lastmile_qr_scan"}, "lat": 38.92225, "is_disabled": 0, "lon": -77.04242316666667}, {"fusion_lat": 0.0, "type": "electric_scooter", "name": "95a149354b29d53ad6378cc5649ba58b", "fusion_lon": 0.0, "bike_id": "95a149354b29d53ad6378cc5649ba58b", "is_reserved": 0, "rental_uris": {"android": "https://dc.lft.to/lastmile_qr_scan", "ios": "https://dc.lft.to/lastmile_qr_scan"}, "lat": 38.89225316666667, "is_disabled": 0, "lon": -77.03102016666666}, {"fusion_lat": 0.0, "type": "electric_scooter", "name": "052d2e5c580674ee2fd711f83fde7fd9", "fusion_lon": 0.0, "bike_id": "052d2e5c580674ee2fd711f83fde7fd9", "is_reserved": 0, "rental_uris": {"android": "https://dc.lft.to/lastmile_qr_scan", "ios": "https://dc.lft.to/lastmile_qr_scan"}, "lat": 38.91116133333333, "is_disabled": 0, "lon": -77.03144933333333}, {"fusion_lat": 0.0, "type": "electric_scooter", "name": "9eea1e23ed90d0d6114cfbbe3969041a", "fusion_lon": 0.0, "bike_id": "9eea1e23ed90d0d6114cfbbe3969041a", "is_reserved": 0, "rental_uris": {"android": "https://dc.lft.to/lastmile_qr_scan", "ios": "https://dc.lft.to/lastmile_qr_scan"}, "lat": 38.93473, "is_disabled": 0, "lon": -77.08665183333333}, {"fusion_lat": 0.0, "type": "electric_scooter", "name": "ca62ac16f7f841d0b3b61d3e08a85b74", "fusion_lon": 0.0, "bike_id": "ca62ac16f7f841d0b3b61d3e08a85b74", "is_reserved": 0, "rental_uris": {"android": "https://dc.lft.to/lastmile_qr_scan", "ios": "https://dc.lft.to/lastmile_qr_scan"}, "lat": 38.892571833333335, "is_disabled": 0, "lon": -77.04659266666667}, {"fusion_lat": 0.0, "type": "electric_scooter", "name": "d164d6b7c14b678d3a8d9e9fbe780cef", "fusion_lon": 0.0, "bike_id": "d164d6b7c14b678d3a8d9e9fbe780cef", "is_reserved": 0, "rental_uris": {"android": "https://dc.lft.to/lastmile_qr_scan", "ios": "https://dc.lft.to/lastmile_qr_scan"}, "lat": 38.92689216666667, "is_disabled": 0, "lon": -77.0296715}, {"fusion_lat": 0.0, "type": "electric_scooter", "name": "f36632160bcfd3de13f41889e7798809", "fusion_lon": 0.0, "bike_id": "f36632160bcfd3de13f41889e7798809", "is_reserved": 0, "rental_uris": {"android": "https://dc.lft.to/lastmile_qr_scan", "ios": "https://dc.lft.to/lastmile_qr_scan"}, "lat": 38.95527, "is_disabled": 0, "lon": -77.0245335}, {"fusion_lat": 0.0, "type": "electric_scooter", "name": "ea94bbe5a19e315959e4faa0b61d838d", "fusion_lon": 0.0, "bike_id": "ea94bbe5a19e315959e4faa0b61d838d", "is_reserved": 0, "rental_uris": {"android": "https://dc.lft.to/lastmile_qr_scan", "ios": "https://dc.lft.to/lastmile_qr_scan"}, "lat": 38.892317, "is_disabled": 0, "lon": -77.050044}, {"fusion_lat": 0.0, "type": "electric_scooter", "name": "75840623fc9d27a37f75e8ac96e15184", "fusion_lon": 0.0, "bike_id": "75840623fc9d27a37f75e8ac96e15184", "is_reserved": 0, "rental_uris": {"android": "https://dc.lft.to/lastmile_qr_scan", "ios": "https://dc.lft.to/lastmile_qr_scan"}, "lat": 38.91971433333333, "is_disabled": 0, "lon": -77.0143645}, {"fusion_lat": 0.0, "type": "electric_bike", "name": "168803af16193a27a894d37e7acabf1e", "fusion_lon": 0.0, "bike_id": "168803af16193a27a894d37e7acabf1e", "is_reserved": 0, "rental_uris": {"android": "https://dc.lft.to/lastmile_qr_scan", "ios": "https://dc.lft.to/lastmile_qr_scan"}, "lat": 38.87279, "is_disabled": 0, "lon": -77.233294}, {"fusion_lat": 0.0, "type": "electric_scooter", "name": "fe67c086e2dc363e878e70ca7af9c017", "fusion_lon": 0.0, "bike_id": "fe67c086e2dc363e878e70ca7af9c017", "is_reserved": 0, "rental_uris": {"android": "https://dc.lft.to/lastmile_qr_scan", "ios": "https://dc.lft.to/lastmile_qr_scan"}, "lat": 38.898463166666666, "is_disabled": 0, "lon": -76.94642216666666}, {"fusion_lat": 0.0, "type": "electric_scooter", "name": "2007577ab867380e74a6a967e7e36eaa", "fusion_lon": 0.0, "bike_id": "2007577ab867380e74a6a967e7e36eaa", "is_reserved": 0, "rental_uris": {"android": "https://dc.lft.to/lastmile_qr_scan", "ios": "https://dc.lft.to/lastmile_qr_scan"}, "lat": 38.927229833333335, "is_disabled": 0, "lon": -77.02095833333334}, {"fusion_lat": 0.0, "type": "electric_scooter", "name": "f9ab77c9dd2724d800e84b9c4e9474e5", "fusion_lon": 0.0, "bike_id": "f9ab77c9dd2724d800e84b9c4e9474e5", "is_reserved": 0, "rental_uris": {"android": "https://dc.lft.to/lastmile_qr_scan", "ios": "https://dc.lft.to/lastmile_qr_scan"}, "lat": 38.89745666666666, "is_disabled": 0, "lon": -77.04381516666666}, {"fusion_lat": 0.0, "type": "electric_scooter", "name": "80a527d55343693da591335ad92f3479", "fusion_lon": 0.0, "bike_id": "80a527d55343693da591335ad92f3479", "is_reserved": 0, "rental_uris": {"android": "https://dc.lft.to/lastmile_qr_scan", "ios": "https://dc.lft.to/lastmile_qr_scan"}, "lat": 38.905129333333335, "is_disabled": 0, "lon": -77.06886583333333}, {"fusion_lat": 0.0, "type": "electric_scooter", "name": "2a2ce78913379576d7eec16294bfb2bf", "fusion_lon": 0.0, "bike_id": "2a2ce78913379576d7eec16294bfb2bf", "is_reserved": 0, "rental_uris": {"android": "https://dc.lft.to/lastmile_qr_scan", "ios": "https://dc.lft.to/lastmile_qr_scan"}, "lat": 38.90178816666667, "is_disabled": 0, "lon": -77.0600325}, {"fusion_lat": 0.0, "type": "electric_scooter", "name": "05803d970dccff45be73db529ea3572a", "fusion_lon": 0.0, "bike_id": "05803d970dccff45be73db529ea3572a", "is_reserved": 0, "rental_uris": {"android": "https://dc.lft.to/lastmile_qr_scan", "ios": "https://dc.lft.to/lastmile_qr_scan"}, "lat": 38.900783, "is_disabled": 0, "lon": -77.021846}, {"fusion_lat": 0.0, "type": "electric_scooter", "name": "97046bc6c3bce40bafbbcd491025fd7e", "fusion_lon": 0.0, "bike_id": "97046bc6c3bce40bafbbcd491025fd7e", "is_reserved": 0, "rental_uris": {"android": "https://dc.lft.to/lastmile_qr_scan", "ios": "https://dc.lft.to/lastmile_qr_scan"}, "lat": 38.90885083333333, "is_disabled": 0, "lon": -77.04648633333333}, {"fusion_lat": 0.0, "type": "electric_scooter", "name": "a30e690f1fa54969247c9101b2d7e40b", "fusion_lon": 0.0, "bike_id": "a30e690f1fa54969247c9101b2d7e40b", "is_reserved": 0, "rental_uris": {"android": "https://dc.lft.to/lastmile_qr_scan", "ios": "https://dc.lft.to/lastmile_qr_scan"}, "lat": 38.89370983333333, "is_disabled": 0, "lon": -76.948055}, {"fusion_lat": 0.0, "type": "electric_scooter", "name": "6b0b183068f989389694c9ea5d84336d", "fusion_lon": 0.0, "bike_id": "6b0b183068f989389694c9ea5d84336d", "is_reserved": 0, "rental_uris": {"android": "https://dc.lft.to/lastmile_qr_scan", "ios": "https://dc.lft.to/lastmile_qr_scan"}, "lat": 38.911000333333334, "is_disabled": 0, "lon": -77.0046575}, {"fusion_lat": 0.0, "type": "electric_bike", "name": "1429b48cef856e46299f678589562912", "fusion_lon": 0.0, "bike_id": "1429b48cef856e46299f678589562912", "is_reserved": 0, "rental_uris": {"android": "https://dc.lft.to/lastmile_qr_scan", "ios": "https://dc.lft.to/lastmile_qr_scan"}, "lat": 38.959602333333336, "is_disabled": 0, "lon": -77.1008225}, {"fusion_lat": 0.0, "type": "electric_scooter", "name": "57ea13d901e61cf01e07d06c21e0be7f", "fusion_lon": 0.0, "bike_id": "57ea13d901e61cf01e07d06c21e0be7f", "is_reserved": 0, "rental_uris": {"android": "https://dc.lft.to/lastmile_qr_scan", "ios": "https://dc.lft.to/lastmile_qr_scan"}, "lat": 38.93345816666667, "is_disabled": 0, "lon": -77.04123633333333}, {"fusion_lat": 0.0, "type": "electric_bike", "name": "2e1cf71581e7176f813453b22c1ae537", "fusion_lon": 0.0, "bike_id": "2e1cf71581e7176f813453b22c1ae537", "is_reserved": 0, "rental_uris": {"android": "https://dc.lft.to/lastmile_qr_scan", "ios": "https://dc.lft.to/lastmile_qr_scan"}, "lat": 38.83159883333333, "is_disabled": 0, "lon": -76.9954655}, {"fusion_lat": 0.0, "type": "electric_scooter", "name": "91cde12db6125fd63056fdbb3decf2bc", "fusion_lon": 0.0, "bike_id": "91cde12db6125fd63056fdbb3decf2bc", "is_reserved": 0, "rental_uris": {"android": "https://dc.lft.to/lastmile_qr_scan", "ios": "https://dc.lft.to/lastmile_qr_scan"}, "lat": 38.865739, "is_disabled": 0, "lon": -76.98918616666667}, {"fusion_lat": 0.0, "type": "electric_bike", "name": "bc3097317186df7eae152461dd60cc9e", "fusion_lon": 0.0, "bike_id": "bc3097317186df7eae152461dd60cc9e", "is_reserved": 0, "rental_uris": {"android": "https://dc.lft.to/lastmile_qr_scan", "ios": "https://dc.lft.to/lastmile_qr_scan"}, "lat": 38.81207283333333, "is_disabled": 0, "lon": -77.10832766666667}, {"fusion_lat": 0.0, "type": "electric_scooter", "name": "aa888d15e88817bb83a382b35219e5bd", "fusion_lon": 0.0, "bike_id": "aa888d15e88817bb83a382b35219e5bd", "is_reserved": 0, "rental_uris": {"android": "https://dc.lft.to/lastmile_qr_scan", "ios": "https://dc.lft.to/lastmile_qr_scan"}, "lat": 38.884585666666666, "is_disabled": 0, "lon": -76.9262085}, {"fusion_lat": 0.0, "type": "electric_scooter", "name": "f464c8e0935795fb232ab649c8ce84c6", "fusion_lon": 0.0, "bike_id": "f464c8e0935795fb232ab649c8ce84c6", "is_reserved": 0, "rental_uris": {"android": "https://dc.lft.to/lastmile_qr_scan", "ios": "https://dc.lft.to/lastmile_qr_scan"}, "lat": 38.92141216666667, "is_disabled": 0, "lon": -77.02876366666666}, {"fusion_lat": 0.0, "type": "electric_scooter", "name": "8fec8fcb634d52352ed5935596522c6d", "fusion_lon": 0.0, "bike_id": "8fec8fcb634d52352ed5935596522c6d", "is_reserved": 0, "rental_uris": {"android": "https://dc.lft.to/lastmile_qr_scan", "ios": "https://dc.lft.to/lastmile_qr_scan"}, "lat": 38.92341166666667, "is_disabled": 0, "lon": -77.02118266666666}, {"fusion_lat": 0.0, "type": "electric_bike", "name": "7c08200d0060df25862c367d3d65af16", "fusion_lon": 0.0, "bike_id": "7c08200d0060df25862c367d3d65af16", "is_reserved": 0, "rental_uris": {"android": "https://dc.lft.to/lastmile_qr_scan", "ios": "https://dc.lft.to/lastmile_qr_scan"}, "lat": 38.962216166666664, "is_disabled": 0, "lon": -77.0262985}, {"fusion_lat": 0.0, "type": "electric_scooter", "name": "34921273e395b3d3c748bbfd723b2bde", "fusion_lon": 0.0, "bike_id": "34921273e395b3d3c748bbfd723b2bde", "is_reserved": 0, "rental_uris": {"android": "https://dc.lft.to/lastmile_qr_scan", "ios": "https://dc.lft.to/lastmile_qr_scan"}, "lat": 38.92363783333333, "is_disabled": 0, "lon": -77.0504825}, {"fusion_lat": 0.0, "type": "electric_bike", "name": "1bd10f7f6f5f1d91d051e11daef509f0", "fusion_lon": 0.0, "bike_id": "1bd10f7f6f5f1d91d051e11daef509f0", "is_reserved": 0, "rental_uris": {"android": "https://dc.lft.to/lastmile_qr_scan", "ios": "https://dc.lft.to/lastmile_qr_scan"}, "lat": 38.93870366666667, "is_disabled": 0, "lon": -76.94293783333333}, {"fusion_lat": 0.0, "type": "electric_scooter", "name": "5956bf3c9f54e44257d061816c1d8e69", "fusion_lon": 0.0, "bike_id": "5956bf3c9f54e44257d061816c1d8e69", "is_reserved": 0, "rental_uris": {"android": "https://dc.lft.to/lastmile_qr_scan", "ios": "https://dc.lft.to/lastmile_qr_scan"}, "lat": 38.93466166666666, "is_disabled": 0, "lon": -77.02215866666667}, {"fusion_lat": 0.0, "type": "electric_scooter", "name": "5fbb1a52860255f64631ca12a58b3e31", "fusion_lon": 0.0, "bike_id": "5fbb1a52860255f64631ca12a58b3e31", "is_reserved": 0, "rental_uris": {"android": "https://dc.lft.to/lastmile_qr_scan", "ios": "https://dc.lft.to/lastmile_qr_scan"}, "lat": 38.891806, "is_disabled": 0, "lon": -76.990253}, {"fusion_lat": 0.0, "type": "electric_scooter", "name": "2fcad97a03b819038063a5eb1d99b7d9", "fusion_lon": 0.0, "bike_id": "2fcad97a03b819038063a5eb1d99b7d9", "is_reserved": 0, "rental_uris": {"android": "https://dc.lft.to/lastmile_qr_scan", "ios": "https://dc.lft.to/lastmile_qr_scan"}, "lat": 38.89731483333333, "is_disabled": 0, "lon": -77.043697}, {"fusion_lat": 0.0, "type": "electric_scooter", "name": "d0a3ec6eee67d7365fe6cedd445de12b", "fusion_lon": 0.0, "bike_id": "d0a3ec6eee67d7365fe6cedd445de12b", "is_reserved": 0, "rental_uris": {"android": "https://dc.lft.to/lastmile_qr_scan", "ios": "https://dc.lft.to/lastmile_qr_scan"}, "lat": 38.90737416666666, "is_disabled": 0, "lon": -77.02692916666666}, {"fusion_lat": 0.0, "type": "electric_scooter", "name": "abe39f5dd1c782bb52af75e4f1a27e8f", "fusion_lon": 0.0, "bike_id": "abe39f5dd1c782bb52af75e4f1a27e8f", "is_reserved": 0, "rental_uris": {"android": "https://dc.lft.to/lastmile_qr_scan", "ios": "https://dc.lft.to/lastmile_qr_scan"}, "lat": 38.918765666666665, "is_disabled": 0, "lon": -77.03480466666667}, {"fusion_lat": 0.0, "type": "electric_scooter", "name": "233a7399773e021528e005be97bbc896", "fusion_lon": 0.0, "bike_id": "233a7399773e021528e005be97bbc896", "is_reserved": 0, "rental_uris": {"android": "https://dc.lft.to/lastmile_qr_scan", "ios": "https://dc.lft.to/lastmile_qr_scan"}, "lat": 38.9041845, "is_disabled": 0, "lon": -77.02954233333334}, {"fusion_lat": 0.0, "type": "electric_scooter", "name": "db1e9cdd9fc9f1ebf13c01b98fb7f304", "fusion_lon": 0.0, "bike_id": "db1e9cdd9fc9f1ebf13c01b98fb7f304", "is_reserved": 0, "rental_uris": {"android": "https://dc.lft.to/lastmile_qr_scan", "ios": "https://dc.lft.to/lastmile_qr_scan"}, "lat": 38.9290615, "is_disabled": 0, "lon": -77.0545715}, {"fusion_lat": 0.0, "type": "electric_scooter", "name": "67b27f43c09da3953d45d6db2d24bde1", "fusion_lon": 0.0, "bike_id": "67b27f43c09da3953d45d6db2d24bde1", "is_reserved": 0, "rental_uris": {"android": "https://dc.lft.to/lastmile_qr_scan", "ios": "https://dc.lft.to/lastmile_qr_scan"}, "lat": 38.929155, "is_disabled": 0, "lon": -77.0208485}, {"fusion_lat": 0.0, "type": "electric_scooter", "name": "7cfd934af434fc376afb5bec947a3fff", "fusion_lon": 0.0, "bike_id": "7cfd934af434fc376afb5bec947a3fff", "is_reserved": 0, "rental_uris": {"android": "https://dc.lft.to/lastmile_qr_scan", "ios": "https://dc.lft.to/lastmile_qr_scan"}, "lat": 38.88089383333333, "is_disabled": 0, "lon": -76.93008183333333}, {"fusion_lat": 0.0, "type": "electric_scooter", "name": "f0f9da383227a3c74b28f588f348e353", "fusion_lon": 0.0, "bike_id": "f0f9da383227a3c74b28f588f348e353", "is_reserved": 0, "rental_uris": {"android": "https://dc.lft.to/lastmile_qr_scan", "ios": "https://dc.lft.to/lastmile_qr_scan"}, "lat": 38.91124683333334, "is_disabled": 0, "lon": -77.06527416666667}, {"fusion_lat": 0.0, "type": "electric_scooter", "name": "5fbfebdf08706c20d73fc0bfa6d51bf9", "fusion_lon": 0.0, "bike_id": "5fbfebdf08706c20d73fc0bfa6d51bf9", "is_reserved": 0, "rental_uris": {"android": "https://dc.lft.to/lastmile_qr_scan", "ios": "https://dc.lft.to/lastmile_qr_scan"}, "lat": 38.9182185, "is_disabled": 0, "lon": -77.03169883333334}, {"fusion_lat": 0.0, "type": "electric_scooter", "name": "f69e0a2e175335f66bb4ef5eb3c0b802", "fusion_lon": 0.0, "bike_id": "f69e0a2e175335f66bb4ef5eb3c0b802", "is_reserved": 0, "rental_uris": {"android": "https://dc.lft.to/lastmile_qr_scan", "ios": "https://dc.lft.to/lastmile_qr_scan"}, "lat": 38.85196833333333, "is_disabled": 0, "lon": -76.97075216666667}, {"fusion_lat": 0.0, "type": "electric_bike", "name": "2d438633c3fe3998dca9b9e9b324567c", "fusion_lon": 0.0, "bike_id": "2d438633c3fe3998dca9b9e9b324567c", "is_reserved": 0, "rental_uris": {"android": "https://dc.lft.to/lastmile_qr_scan", "ios": "https://dc.lft.to/lastmile_qr_scan"}, "lat": 38.89818366666667, "is_disabled": 0, "lon": -76.99073033333333}, {"fusion_lat": 0.0, "type": "electric_scooter", "name": "3594e1074125bbf93b5986fb68b2f355", "fusion_lon": 0.0, "bike_id": "3594e1074125bbf93b5986fb68b2f355", "is_reserved": 0, "rental_uris": {"android": "https://dc.lft.to/lastmile_qr_scan", "ios": "https://dc.lft.to/lastmile_qr_scan"}, "lat": 38.89231816666667, "is_disabled": 0, "lon": -77.03184266666666}, {"fusion_lat": 0.0, "type": "electric_scooter", "name": "d51b6d0132bb3ec18708aa53a2480f76", "fusion_lon": 0.0, "bike_id": "d51b6d0132bb3ec18708aa53a2480f76", "is_reserved": 0, "rental_uris": {"android": "https://dc.lft.to/lastmile_qr_scan", "ios": "https://dc.lft.to/lastmile_qr_scan"}, "lat": 38.93390683333333, "is_disabled": 0, "lon": -77.035508}, {"fusion_lat": 0.0, "type": "electric_scooter", "name": "547aa1f02d43f13e1ef0cbfd4c81d537", "fusion_lon": 0.0, "bike_id": "547aa1f02d43f13e1ef0cbfd4c81d537", "is_reserved": 0, "rental_uris": {"android": "https://dc.lft.to/lastmile_qr_scan", "ios": "https://dc.lft.to/lastmile_qr_scan"}, "lat": 38.895594833333334, "is_disabled": 0, "lon": -77.04670783333333}, {"fusion_lat": 0.0, "type": "electric_scooter", "name": "ad7429f36b9f2d70f2f7f4e09bb06f0e", "fusion_lon": 0.0, "bike_id": "ad7429f36b9f2d70f2f7f4e09bb06f0e", "is_reserved": 0, "rental_uris": {"android": "https://dc.lft.to/lastmile_qr_scan", "ios": "https://dc.lft.to/lastmile_qr_scan"}, "lat": 38.892250833333335, "is_disabled": 0, "lon": -77.03216616666667}, {"fusion_lat": 0.0, "type": "electric_scooter", "name": "85db265c92d96c23853ebde7b347d872", "fusion_lon": 0.0, "bike_id": "85db265c92d96c23853ebde7b347d872", "is_reserved": 0, "rental_uris": {"android": "https://dc.lft.to/lastmile_qr_scan", "ios": "https://dc.lft.to/lastmile_qr_scan"}, "lat": 38.898428, "is_disabled": 0, "lon": -77.02852266666666}, {"fusion_lat": 0.0, "type": "electric_scooter", "name": "182d305878edf60f3947cefda3097d16", "fusion_lon": 0.0, "bike_id": "182d305878edf60f3947cefda3097d16", "is_reserved": 0, "rental_uris": {"android": "https://dc.lft.to/lastmile_qr_scan", "ios": "https://dc.lft.to/lastmile_qr_scan"}, "lat": 38.92348583333333, "is_disabled": 0, "lon": -77.03504483333333}, {"fusion_lat": 0.0, "type": "electric_scooter", "name": "a41b550f9e865630b82262d7de20a16e", "fusion_lon": 0.0, "bike_id": "a41b550f9e865630b82262d7de20a16e", "is_reserved": 0, "rental_uris": {"android": "https://dc.lft.to/lastmile_qr_scan", "ios": "https://dc.lft.to/lastmile_qr_scan"}, "lat": 38.909161833333336, "is_disabled": 0, "lon": -77.07275166666666}, {"fusion_lat": 0.0, "type": "electric_bike", "name": "5db3e8524e419a1446b4a06c27d8f1d9", "fusion_lon": 0.0, "bike_id": "5db3e8524e419a1446b4a06c27d8f1d9", "is_reserved": 0, "rental_uris": {"android": "https://dc.lft.to/lastmile_qr_scan", "ios": "https://dc.lft.to/lastmile_qr_scan"}, "lat": 38.8190985, "is_disabled": 0, "lon": -76.999092}, {"fusion_lat": 0.0, "type": "electric_scooter", "name": "e48aebd8068b225fbb7563c4d08fcb76", "fusion_lon": 0.0, "bike_id": "e48aebd8068b225fbb7563c4d08fcb76", "is_reserved": 0, "rental_uris": {"android": "https://dc.lft.to/lastmile_qr_scan", "ios": "https://dc.lft.to/lastmile_qr_scan"}, "lat": 38.984593, "is_disabled": 0, "lon": -77.02680733333334}, {"fusion_lat": 0.0, "type": "electric_scooter", "name": "fc62a8db03d4154184f58dc06e4272e0", "fusion_lon": 0.0, "bike_id": "fc62a8db03d4154184f58dc06e4272e0", "is_reserved": 0, "rental_uris": {"android": "https://dc.lft.to/lastmile_qr_scan", "ios": "https://dc.lft.to/lastmile_qr_scan"}, "lat": 38.8828805, "is_disabled": 0, "lon": -77.006387}, {"fusion_lat": 0.0, "type": "electric_scooter", "name": "177f098e53da78313275e674da8f64e4", "fusion_lon": 0.0, "bike_id": "177f098e53da78313275e674da8f64e4", "is_reserved": 0, "rental_uris": {"android": "https://dc.lft.to/lastmile_qr_scan", "ios": "https://dc.lft.to/lastmile_qr_scan"}, "lat": 38.918149, "is_disabled": 0, "lon": -77.031411}, {"fusion_lat": 0.0, "type": "electric_scooter", "name": "d20a1397a9ba944dbc202465e7f2b022", "fusion_lon": 0.0, "bike_id": "d20a1397a9ba944dbc202465e7f2b022", "is_reserved": 0, "rental_uris": {"android": "https://dc.lft.to/lastmile_qr_scan", "ios": "https://dc.lft.to/lastmile_qr_scan"}, "lat": 38.892415666666665, "is_disabled": 0, "lon": -77.03209333333334}, {"fusion_lat": 0.0, "type": "electric_scooter", "name": "d85dcc126231214ccd24185c09fe34a8", "fusion_lon": 0.0, "bike_id": "d85dcc126231214ccd24185c09fe34a8", "is_reserved": 0, "rental_uris": {"android": "https://dc.lft.to/lastmile_qr_scan", "ios": "https://dc.lft.to/lastmile_qr_scan"}, "lat": 38.8972865, "is_disabled": 0, "lon": -77.04353266666666}, {"fusion_lat": 0.0, "type": "electric_scooter", "name": "62532abf53e97ff78c54f19fe9caf839", "fusion_lon": 0.0, "bike_id": "62532abf53e97ff78c54f19fe9caf839", "is_reserved": 0, "rental_uris": {"android": "https://dc.lft.to/lastmile_qr_scan", "ios": "https://dc.lft.to/lastmile_qr_scan"}, "lat": 38.867032, "is_disabled": 0, "lon": -76.9871405}, {"fusion_lat": 0.0, "type": "electric_scooter", "name": "f16fc377e4b1b9adfa4addf0679809cb", "fusion_lon": 0.0, "bike_id": "f16fc377e4b1b9adfa4addf0679809cb", "is_reserved": 0, "rental_uris": {"android": "https://dc.lft.to/lastmile_qr_scan", "ios": "https://dc.lft.to/lastmile_qr_scan"}, "lat": 38.892239333333336, "is_disabled": 0, "lon": -77.04685916666666}, {"fusion_lat": 0.0, "type": "electric_scooter", "name": "262a1b168a24e9b0d8bd601e47e858d8", "fusion_lon": 0.0, "bike_id": "262a1b168a24e9b0d8bd601e47e858d8", "is_reserved": 0, "rental_uris": {"android": "https://dc.lft.to/lastmile_qr_scan", "ios": "https://dc.lft.to/lastmile_qr_scan"}, "lat": 38.909547833333335, "is_disabled": 0, "lon": -77.0271795}, {"fusion_lat": 0.0, "type": "electric_scooter", "name": "b6a8e5741b65708da2dedd8ac1e33fb1", "fusion_lon": 0.0, "bike_id": "b6a8e5741b65708da2dedd8ac1e33fb1", "is_reserved": 0, "rental_uris": {"android": "https://dc.lft.to/lastmile_qr_scan", "ios": "https://dc.lft.to/lastmile_qr_scan"}, "lat": 38.93535933333333, "is_disabled": 0, "lon": -77.02347466666667}, {"fusion_lat": 0.0, "type": "electric_scooter", "name": "93ab13e31383e6b101cfbb3f0fe3aa3a", "fusion_lon": 0.0, "bike_id": "93ab13e31383e6b101cfbb3f0fe3aa3a", "is_reserved": 0, "rental_uris": {"android": "https://dc.lft.to/lastmile_qr_scan", "ios": "https://dc.lft.to/lastmile_qr_scan"}, "lat": 38.93461333333333, "is_disabled": 0, "lon": -77.05780833333333}, {"fusion_lat": 0.0, "type": "electric_scooter", "name": "620fd234966f11cb6d56c4bd65342ae9", "fusion_lon": 0.0, "bike_id": "620fd234966f11cb6d56c4bd65342ae9", "is_reserved": 0, "rental_uris": {"android": "https://dc.lft.to/lastmile_qr_scan", "ios": "https://dc.lft.to/lastmile_qr_scan"}, "lat": 38.90994166666667, "is_disabled": 0, "lon": -77.00892383333333}, {"fusion_lat": 0.0, "type": "electric_scooter", "name": "0a2b6837fdb97040aaf918e1ce423644", "fusion_lon": 0.0, "bike_id": "0a2b6837fdb97040aaf918e1ce423644", "is_reserved": 0, "rental_uris": {"android": "https://dc.lft.to/lastmile_qr_scan", "ios": "https://dc.lft.to/lastmile_qr_scan"}, "lat": 38.92305833333333, "is_disabled": 0, "lon": -77.04462516666666}, {"fusion_lat": 0.0, "type": "electric_scooter", "name": "191be9407c34f7acf8881623cf92adfe", "fusion_lon": 0.0, "bike_id": "191be9407c34f7acf8881623cf92adfe", "is_reserved": 0, "rental_uris": {"android": "https://dc.lft.to/lastmile_qr_scan", "ios": "https://dc.lft.to/lastmile_qr_scan"}, "lat": 38.89844016666667, "is_disabled": 0, "lon": -76.9464085}, {"fusion_lat": 0.0, "type": "electric_scooter", "name": "9ec804ca9fdeb47f8a8254b97995c348", "fusion_lon": 0.0, "bike_id": "9ec804ca9fdeb47f8a8254b97995c348", "is_reserved": 0, "rental_uris": {"android": "https://dc.lft.to/lastmile_qr_scan", "ios": "https://dc.lft.to/lastmile_qr_scan"}, "lat": 38.90900933333333, "is_disabled": 0, "lon": -77.03210916666667}, {"fusion_lat": 0.0, "type": "electric_scooter", "name": "a0e09b129c7e6f9ae8de88324a5220e2", "fusion_lon": 0.0, "bike_id": "a0e09b129c7e6f9ae8de88324a5220e2", "is_reserved": 0, "rental_uris": {"android": "https://dc.lft.to/lastmile_qr_scan", "ios": "https://dc.lft.to/lastmile_qr_scan"}, "lat": 38.86065683333333, "is_disabled": 0, "lon": -76.9842355}, {"fusion_lat": 0.0, "type": "electric_scooter", "name": "b2a3d9c555010be3b3ac1b142ef7c456", "fusion_lon": 0.0, "bike_id": "b2a3d9c555010be3b3ac1b142ef7c456", "is_reserved": 0, "rental_uris": {"android": "https://dc.lft.to/lastmile_qr_scan", "ios": "https://dc.lft.to/lastmile_qr_scan"}, "lat": 38.9037165, "is_disabled": 0, "lon": -77.01746016666667}, {"fusion_lat": 0.0, "type": "electric_bike", "name": "3abe293c7c95267fd4f29190f679f90a", "fusion_lon": 0.0, "bike_id": "3abe293c7c95267fd4f29190f679f90a", "is_reserved": 0, "rental_uris": {"android": "https://dc.lft.to/lastmile_qr_scan", "ios": "https://dc.lft.to/lastmile_qr_scan"}, "lat": 38.877314, "is_disabled": 0, "lon": -76.98106366666667}, {"fusion_lat": 0.0, "type": "electric_scooter", "name": "5373e656660fb4cf834203bd88c38dbf", "fusion_lon": 0.0, "bike_id": "5373e656660fb4cf834203bd88c38dbf", "is_reserved": 0, "rental_uris": {"android": "https://dc.lft.to/lastmile_qr_scan", "ios": "https://dc.lft.to/lastmile_qr_scan"}, "lat": 38.9186185, "is_disabled": 0, "lon": -77.0253275}, {"fusion_lat": 0.0, "type": "electric_scooter", "name": "cd8230b826a345ae9e8987de80b3fc94", "fusion_lon": 0.0, "bike_id": "cd8230b826a345ae9e8987de80b3fc94", "is_reserved": 0, "rental_uris": {"android": "https://dc.lft.to/lastmile_qr_scan", "ios": "https://dc.lft.to/lastmile_qr_scan"}, "lat": 38.898859, "is_disabled": 0, "lon": -76.9317465}, {"fusion_lat": 0.0, "type": "electric_scooter", "name": "9f36812b5a6f459bec64ac67d89d5335", "fusion_lon": 0.0, "bike_id": "9f36812b5a6f459bec64ac67d89d5335", "is_reserved": 0, "rental_uris": {"android": "https://dc.lft.to/lastmile_qr_scan", "ios": "https://dc.lft.to/lastmile_qr_scan"}, "lat": 38.87466283333333, "is_disabled": 0, "lon": -77.00958766666666}, {"fusion_lat": 0.0, "type": "electric_scooter", "name": "2fb1f30e055c6e348ee9a53779db1ce4", "fusion_lon": 0.0, "bike_id": "2fb1f30e055c6e348ee9a53779db1ce4", "is_reserved": 0, "rental_uris": {"android": "https://dc.lft.to/lastmile_qr_scan", "ios": "https://dc.lft.to/lastmile_qr_scan"}, "lat": 38.949027, "is_disabled": 0, "lon": -77.006434}, {"fusion_lat": 0.0, "type": "electric_scooter", "name": "82ce78c262257564f31b7979c7d5f1a7", "fusion_lon": 0.0, "bike_id": "82ce78c262257564f31b7979c7d5f1a7", "is_reserved": 0, "rental_uris": {"android": "https://dc.lft.to/lastmile_qr_scan", "ios": "https://dc.lft.to/lastmile_qr_scan"}, "lat": 38.9050915, "is_disabled": 0, "lon": -77.04798883333333}, {"fusion_lat": 0.0, "type": "electric_scooter", "name": "7b0b6f9f5d5bb1ffddd70a61207ecb9f", "fusion_lon": 0.0, "bike_id": "7b0b6f9f5d5bb1ffddd70a61207ecb9f", "is_reserved": 0, "rental_uris": {"android": "https://dc.lft.to/lastmile_qr_scan", "ios": "https://dc.lft.to/lastmile_qr_scan"}, "lat": 38.89290616666667, "is_disabled": 0, "lon": -77.03196}, {"fusion_lat": 0.0, "type": "electric_scooter", "name": "bb89a7bfa79a3ab0fbfcd3989d5be40f", "fusion_lon": 0.0, "bike_id": "bb89a7bfa79a3ab0fbfcd3989d5be40f", "is_reserved": 0, "rental_uris": {"android": "https://dc.lft.to/lastmile_qr_scan", "ios": "https://dc.lft.to/lastmile_qr_scan"}, "lat": 38.88591516666666, "is_disabled": 0, "lon": -77.01233283333333}, {"fusion_lat": 0.0, "type": "electric_scooter", "name": "ec23d5a507ba4b05123061c51a27c5be", "fusion_lon": 0.0, "bike_id": "ec23d5a507ba4b05123061c51a27c5be", "is_reserved": 0, "rental_uris": {"android": "https://dc.lft.to/lastmile_qr_scan", "ios": "https://dc.lft.to/lastmile_qr_scan"}, "lat": 38.93105333333333, "is_disabled": 0, "lon": -77.03262383333333}, {"fusion_lat": 0.0, "type": "electric_scooter", "name": "e047fa8504662f6173341e4f3b50a08f", "fusion_lon": 0.0, "bike_id": "e047fa8504662f6173341e4f3b50a08f", "is_reserved": 0, "rental_uris": {"android": "https://dc.lft.to/lastmile_qr_scan", "ios": "https://dc.lft.to/lastmile_qr_scan"}, "lat": 38.9051915, "is_disabled": 0, "lon": -77.06858216666667}, {"fusion_lat": 0.0, "type": "electric_bike", "name": "a35d9267b14c52309faa3f363beac71c", "fusion_lon": 0.0, "bike_id": "a35d9267b14c52309faa3f363beac71c", "is_reserved": 0, "rental_uris": {"android": "https://dc.lft.to/lastmile_qr_scan", "ios": "https://dc.lft.to/lastmile_qr_scan"}, "lat": 38.86942483333333, "is_disabled": 0, "lon": -77.09466}, {"fusion_lat": 0.0, "type": "electric_scooter", "name": "8604794640afb62c329e10afb108e518", "fusion_lon": 0.0, "bike_id": "8604794640afb62c329e10afb108e518", "is_reserved": 0, "rental_uris": {"android": "https://dc.lft.to/lastmile_qr_scan", "ios": "https://dc.lft.to/lastmile_qr_scan"}, "lat": 38.91965233333333, "is_disabled": 0, "lon": -77.04513583333333}, {"fusion_lat": 0.0, "type": "electric_scooter", "name": "5ff0581f2cc44a1edd8696f63372f857", "fusion_lon": 0.0, "bike_id": "5ff0581f2cc44a1edd8696f63372f857", "is_reserved": 0, "rental_uris": {"android": "https://dc.lft.to/lastmile_qr_scan", "ios": "https://dc.lft.to/lastmile_qr_scan"}, "lat": 38.87236216666667, "is_disabled": 0, "lon": -77.0115925}, {"fusion_lat": 0.0, "type": "electric_scooter", "name": "35cdcee88c854eda1c6fb8e93d5b903c", "fusion_lon": 0.0, "bike_id": "35cdcee88c854eda1c6fb8e93d5b903c", "is_reserved": 0, "rental_uris": {"android": "https://dc.lft.to/lastmile_qr_scan", "ios": "https://dc.lft.to/lastmile_qr_scan"}, "lat": 38.888498, "is_disabled": 0, "lon": -76.92676483333334}, {"fusion_lat": 0.0, "type": "electric_bike", "name": "24e4e9d0dff552bb5edfead04c65ca50", "fusion_lon": 0.0, "bike_id": "24e4e9d0dff552bb5edfead04c65ca50", "is_reserved": 0, "rental_uris": {"android": "https://dc.lft.to/lastmile_qr_scan", "ios": "https://dc.lft.to/lastmile_qr_scan"}, "lat": 38.98552883333333, "is_disabled": 0, "lon": -77.00403333333334}, {"fusion_lat": 0.0, "type": "electric_scooter", "name": "179bff3c9cefad0bf1529bcb2ba5be09", "fusion_lon": 0.0, "bike_id": "179bff3c9cefad0bf1529bcb2ba5be09", "is_reserved": 0, "rental_uris": {"android": "https://dc.lft.to/lastmile_qr_scan", "ios": "https://dc.lft.to/lastmile_qr_scan"}, "lat": 38.918166666666664, "is_disabled": 0, "lon": -77.03363366666666}, {"fusion_lat": 0.0, "type": "electric_scooter", "name": "18fc1f8d379ee62b06ea78ecb6e197b8", "fusion_lon": 0.0, "bike_id": "18fc1f8d379ee62b06ea78ecb6e197b8", "is_reserved": 0, "rental_uris": {"android": "https://dc.lft.to/lastmile_qr_scan", "ios": "https://dc.lft.to/lastmile_qr_scan"}, "lat": 38.91655766666667, "is_disabled": 0, "lon": -77.03658616666667}, {"fusion_lat": 0.0, "type": "electric_scooter", "name": "86ab4d2edad01be74a219317722335d4", "fusion_lon": 0.0, "bike_id": "86ab4d2edad01be74a219317722335d4", "is_reserved": 0, "rental_uris": {"android": "https://dc.lft.to/lastmile_qr_scan", "ios": "https://dc.lft.to/lastmile_qr_scan"}, "lat": 38.87198383333333, "is_disabled": 0, "lon": -77.00570116666667}, {"fusion_lat": 0.0, "type": "electric_scooter", "name": "6cccd7b0766beadbd1e55b63cd99e5b5", "fusion_lon": 0.0, "bike_id": "6cccd7b0766beadbd1e55b63cd99e5b5", "is_reserved": 0, "rental_uris": {"android": "https://dc.lft.to/lastmile_qr_scan", "ios": "https://dc.lft.to/lastmile_qr_scan"}, "lat": 38.9074275, "is_disabled": 0, "lon": -77.00765383333334}, {"fusion_lat": 0.0, "type": "electric_scooter", "name": "52a6192996a4033f18d601c5b048c213", "fusion_lon": 0.0, "bike_id": "52a6192996a4033f18d601c5b048c213", "is_reserved": 0, "rental_uris": {"android": "https://dc.lft.to/lastmile_qr_scan", "ios": "https://dc.lft.to/lastmile_qr_scan"}, "lat": 38.935638, "is_disabled": 0, "lon": -77.08200533333333}, {"fusion_lat": 0.0, "type": "electric_scooter", "name": "a3d45f3b713b8b32e1c84eda8c145833", "fusion_lon": 0.0, "bike_id": "a3d45f3b713b8b32e1c84eda8c145833", "is_reserved": 0, "rental_uris": {"android": "https://dc.lft.to/lastmile_qr_scan", "ios": "https://dc.lft.to/lastmile_qr_scan"}, "lat": 38.89989466666667, "is_disabled": 0, "lon": -77.0261595}, {"fusion_lat": 0.0, "type": "electric_scooter", "name": "6782d4b53216e7248714effaf97196dd", "fusion_lon": 0.0, "bike_id": "6782d4b53216e7248714effaf97196dd", "is_reserved": 0, "rental_uris": {"android": "https://dc.lft.to/lastmile_qr_scan", "ios": "https://dc.lft.to/lastmile_qr_scan"}, "lat": 38.89226983333333, "is_disabled": 0, "lon": -77.02345283333334}, {"fusion_lat": 0.0, "type": "electric_scooter", "name": "c99f50092103d38de025d65aadbf6c9d", "fusion_lon": 0.0, "bike_id": "c99f50092103d38de025d65aadbf6c9d", "is_reserved": 0, "rental_uris": {"android": "https://dc.lft.to/lastmile_qr_scan", "ios": "https://dc.lft.to/lastmile_qr_scan"}, "lat": 38.917056, "is_disabled": 0, "lon": -77.03418233333333}, {"fusion_lat": 0.0, "type": "electric_scooter", "name": "77faf604b3fe1b286a528bc1d8e6e081", "fusion_lon": 0.0, "bike_id": "77faf604b3fe1b286a528bc1d8e6e081", "is_reserved": 0, "rental_uris": {"android": "https://dc.lft.to/lastmile_qr_scan", "ios": "https://dc.lft.to/lastmile_qr_scan"}, "lat": 38.92474966666666, "is_disabled": 0, "lon": -77.0298735}, {"fusion_lat": 0.0, "type": "electric_scooter", "name": "d0606ce85f95609c924fcfa9150e9da9", "fusion_lon": 0.0, "bike_id": "d0606ce85f95609c924fcfa9150e9da9", "is_reserved": 0, "rental_uris": {"android": "https://dc.lft.to/lastmile_qr_scan", "ios": "https://dc.lft.to/lastmile_qr_scan"}, "lat": 38.8936945, "is_disabled": 0, "lon": -76.94990033333333}, {"fusion_lat": 0.0, "type": "electric_scooter", "name": "b9ab9988e521efb65187b62e00d29b2a", "fusion_lon": 0.0, "bike_id": "b9ab9988e521efb65187b62e00d29b2a", "is_reserved": 0, "rental_uris": {"android": "https://dc.lft.to/lastmile_qr_scan", "ios": "https://dc.lft.to/lastmile_qr_scan"}, "lat": 38.89917166666667, "is_disabled": 0, "lon": -76.93370683333333}, {"fusion_lat": 0.0, "type": "electric_scooter", "name": "f4c3c0e61afbe4bd34388eecb1271e22", "fusion_lon": 0.0, "bike_id": "f4c3c0e61afbe4bd34388eecb1271e22", "is_reserved": 0, "rental_uris": {"android": "https://dc.lft.to/lastmile_qr_scan", "ios": "https://dc.lft.to/lastmile_qr_scan"}, "lat": 38.93573516666667, "is_disabled": 0, "lon": -77.02122116666666}, {"fusion_lat": 0.0, "type": "electric_scooter", "name": "f2239c85c0804701f4c01869771cfd11", "fusion_lon": 0.0, "bike_id": "f2239c85c0804701f4c01869771cfd11", "is_reserved": 0, "rental_uris": {"android": "https://dc.lft.to/lastmile_qr_scan", "ios": "https://dc.lft.to/lastmile_qr_scan"}, "lat": 38.907822, "is_disabled": 0, "lon": -77.04480783333334}, {"fusion_lat": 0.0, "type": "electric_scooter", "name": "0f7170b18424c765307facf36f919eb2", "fusion_lon": 0.0, "bike_id": "0f7170b18424c765307facf36f919eb2", "is_reserved": 0, "rental_uris": {"android": "https://dc.lft.to/lastmile_qr_scan", "ios": "https://dc.lft.to/lastmile_qr_scan"}, "lat": 38.92144433333333, "is_disabled": 0, "lon": -77.03503516666666}, {"fusion_lat": 0.0, "type": "electric_scooter", "name": "b36f93c706630722ca3e4aec39cb7ca3", "fusion_lon": 0.0, "bike_id": "b36f93c706630722ca3e4aec39cb7ca3", "is_reserved": 0, "rental_uris": {"android": "https://dc.lft.to/lastmile_qr_scan", "ios": "https://dc.lft.to/lastmile_qr_scan"}, "lat": 38.887217666666665, "is_disabled": 0, "lon": -77.02206916666667}, {"fusion_lat": 0.0, "type": "electric_bike", "name": "101d0d861929d7a85efea4723989ce22", "fusion_lon": 0.0, "bike_id": "101d0d861929d7a85efea4723989ce22", "is_reserved": 0, "rental_uris": {"android": "https://dc.lft.to/lastmile_qr_scan", "ios": "https://dc.lft.to/lastmile_qr_scan"}, "lat": 38.946717, "is_disabled": 0, "lon": -76.98311283333334}, {"fusion_lat": 0.0, "type": "electric_scooter", "name": "d01ed641f15ad85217effec017ac90b5", "fusion_lon": 0.0, "bike_id": "d01ed641f15ad85217effec017ac90b5", "is_reserved": 0, "rental_uris": {"android": "https://dc.lft.to/lastmile_qr_scan", "ios": "https://dc.lft.to/lastmile_qr_scan"}, "lat": 38.904318333333336, "is_disabled": 0, "lon": -77.02986666666666}, {"fusion_lat": 0.0, "type": "electric_scooter", "name": "c811dcc0e6c7e33b775ea4d21e8a3624", "fusion_lon": 0.0, "bike_id": "c811dcc0e6c7e33b775ea4d21e8a3624", "is_reserved": 0, "rental_uris": {"android": "https://dc.lft.to/lastmile_qr_scan", "ios": "https://dc.lft.to/lastmile_qr_scan"}, "lat": 38.95627133333333, "is_disabled": 0, "lon": -77.024608}, {"fusion_lat": 0.0, "type": "electric_bike", "name": "1a132d8ec2376a1cc979054a9e48c6d3", "fusion_lon": 0.0, "bike_id": "1a132d8ec2376a1cc979054a9e48c6d3", "is_reserved": 0, "rental_uris": {"android": "https://dc.lft.to/lastmile_qr_scan", "ios": "https://dc.lft.to/lastmile_qr_scan"}, "lat": 38.852101166666664, "is_disabled": 0, "lon": -77.10125}, {"fusion_lat": 0.0, "type": "electric_scooter", "name": "36677e98dc53a30c7f6939625a882924", "fusion_lon": 0.0, "bike_id": "36677e98dc53a30c7f6939625a882924", "is_reserved": 0, "rental_uris": {"android": "https://dc.lft.to/lastmile_qr_scan", "ios": "https://dc.lft.to/lastmile_qr_scan"}, "lat": 38.88106466666667, "is_disabled": 0, "lon": -77.0165485}, {"fusion_lat": 0.0, "type": "electric_scooter", "name": "a53d9fded86b99217e61e4fc20fe055d", "fusion_lon": 0.0, "bike_id": "a53d9fded86b99217e61e4fc20fe055d", "is_reserved": 0, "rental_uris": {"android": "https://dc.lft.to/lastmile_qr_scan", "ios": "https://dc.lft.to/lastmile_qr_scan"}, "lat": 38.882689166666665, "is_disabled": 0, "lon": -76.99022066666667}, {"fusion_lat": 0.0, "type": "electric_scooter", "name": "688ff552c85c319cfbe973db66a56d41", "fusion_lon": 0.0, "bike_id": "688ff552c85c319cfbe973db66a56d41", "is_reserved": 0, "rental_uris": {"android": "https://dc.lft.to/lastmile_qr_scan", "ios": "https://dc.lft.to/lastmile_qr_scan"}, "lat": 38.919679333333335, "is_disabled": 0, "lon": -77.04308666666667}, {"fusion_lat": 0.0, "type": "electric_bike", "name": "d29fcdf3e04e077de836d71cb454bda7", "fusion_lon": 0.0, "bike_id": "d29fcdf3e04e077de836d71cb454bda7", "is_reserved": 0, "rental_uris": {"android": "https://dc.lft.to/lastmile_qr_scan", "ios": "https://dc.lft.to/lastmile_qr_scan"}, "lat": 39.056341833333335, "is_disabled": 0, "lon": -77.12526283333334}, {"fusion_lat": 0.0, "type": "electric_scooter", "name": "77827a30fae17e0a31f249ef59bd3f34", "fusion_lon": 0.0, "bike_id": "77827a30fae17e0a31f249ef59bd3f34", "is_reserved": 0, "rental_uris": {"android": "https://dc.lft.to/lastmile_qr_scan", "ios": "https://dc.lft.to/lastmile_qr_scan"}, "lat": 38.94506333333333, "is_disabled": 0, "lon": -77.07455966666667}, {"fusion_lat": 0.0, "type": "electric_scooter", "name": "e7ba6d93caa81bfc61868937c24008cd", "fusion_lon": 0.0, "bike_id": "e7ba6d93caa81bfc61868937c24008cd", "is_reserved": 0, "rental_uris": {"android": "https://dc.lft.to/lastmile_qr_scan", "ios": "https://dc.lft.to/lastmile_qr_scan"}, "lat": 38.91892516666667, "is_disabled": 0, "lon": -77.02983883333333}, {"fusion_lat": 0.0, "type": "electric_scooter", "name": "9f83e550873adb54ade569f6f980159e", "fusion_lon": 0.0, "bike_id": "9f83e550873adb54ade569f6f980159e", "is_reserved": 0, "rental_uris": {"android": "https://dc.lft.to/lastmile_qr_scan", "ios": "https://dc.lft.to/lastmile_qr_scan"}, "lat": 38.91808566666667, "is_disabled": 0, "lon": -77.03171033333334}, {"fusion_lat": 0.0, "type": "electric_scooter", "name": "8e177471b87c267fb8e6cd77cb62adfb", "fusion_lon": 0.0, "bike_id": "8e177471b87c267fb8e6cd77cb62adfb", "is_reserved": 0, "rental_uris": {"android": "https://dc.lft.to/lastmile_qr_scan", "ios": "https://dc.lft.to/lastmile_qr_scan"}, "lat": 38.922655666666664, "is_disabled": 0, "lon": -77.03682983333333}, {"fusion_lat": 0.0, "type": "electric_scooter", "name": "8c63216358910227f00c56dcc0418a94", "fusion_lon": 0.0, "bike_id": "8c63216358910227f00c56dcc0418a94", "is_reserved": 0, "rental_uris": {"android": "https://dc.lft.to/lastmile_qr_scan", "ios": "https://dc.lft.to/lastmile_qr_scan"}, "lat": 38.903207333333334, "is_disabled": 0, "lon": -77.03324883333333}, {"fusion_lat": 0.0, "type": "electric_scooter", "name": "cf3711a714a5a4bab19ffd6c2f276434", "fusion_lon": 0.0, "bike_id": "cf3711a714a5a4bab19ffd6c2f276434", "is_reserved": 0, "rental_uris": {"android": "https://dc.lft.to/lastmile_qr_scan", "ios": "https://dc.lft.to/lastmile_qr_scan"}, "lat": 38.895056833333335, "is_disabled": 0, "lon": -76.93470683333334}, {"fusion_lat": 0.0, "type": "electric_scooter", "name": "8e2cffec034add6fc4863c9de04c1f12", "fusion_lon": 0.0, "bike_id": "8e2cffec034add6fc4863c9de04c1f12", "is_reserved": 0, "rental_uris": {"android": "https://dc.lft.to/lastmile_qr_scan", "ios": "https://dc.lft.to/lastmile_qr_scan"}, "lat": 38.89175916666667, "is_disabled": 0, "lon": -77.01552983333333}, {"fusion_lat": 0.0, "type": "electric_scooter", "name": "bb270697eb7cb60adbbd4e4b76fb8260", "fusion_lon": 0.0, "bike_id": "bb270697eb7cb60adbbd4e4b76fb8260", "is_reserved": 0, "rental_uris": {"android": "https://dc.lft.to/lastmile_qr_scan", "ios": "https://dc.lft.to/lastmile_qr_scan"}, "lat": 38.91527966666666, "is_disabled": 0, "lon": -77.02202966666667}, {"fusion_lat": 0.0, "type": "electric_scooter", "name": "b68076f2691a896a698ee3a768288393", "fusion_lon": 0.0, "bike_id": "b68076f2691a896a698ee3a768288393", "is_reserved": 0, "rental_uris": {"android": "https://dc.lft.to/lastmile_qr_scan", "ios": "https://dc.lft.to/lastmile_qr_scan"}, "lat": 38.9206655, "is_disabled": 0, "lon": -77.04696333333334}, {"fusion_lat": 0.0, "type": "electric_scooter", "name": "0f9a0025bec5eb8a1412d8c0b792f4bd", "fusion_lon": 0.0, "bike_id": "0f9a0025bec5eb8a1412d8c0b792f4bd", "is_reserved": 0, "rental_uris": {"android": "https://dc.lft.to/lastmile_qr_scan", "ios": "https://dc.lft.to/lastmile_qr_scan"}, "lat": 38.90091433333333, "is_disabled": 0, "lon": -77.0503225}, {"fusion_lat": 0.0, "type": "electric_scooter", "name": "6c4ffb486829dea2792665ee710e05b4", "fusion_lon": 0.0, "bike_id": "6c4ffb486829dea2792665ee710e05b4", "is_reserved": 0, "rental_uris": {"android": "https://dc.lft.to/lastmile_qr_scan", "ios": "https://dc.lft.to/lastmile_qr_scan"}, "lat": 38.843212333333334, "is_disabled": 0, "lon": -76.99932966666667}, {"fusion_lat": 0.0, "type": "electric_scooter", "name": "da55cffa64c1c2541a4a0f6952b9ddbe", "fusion_lon": 0.0, "bike_id": "da55cffa64c1c2541a4a0f6952b9ddbe", "is_reserved": 0, "rental_uris": {"android": "https://dc.lft.to/lastmile_qr_scan", "ios": "https://dc.lft.to/lastmile_qr_scan"}, "lat": 38.923344666666665, "is_disabled": 0, "lon": -77.036113}, {"fusion_lat": 0.0, "type": "electric_scooter", "name": "37de140198204355960a14e36642d2ea", "fusion_lon": 0.0, "bike_id": "37de140198204355960a14e36642d2ea", "is_reserved": 0, "rental_uris": {"android": "https://dc.lft.to/lastmile_qr_scan", "ios": "https://dc.lft.to/lastmile_qr_scan"}, "lat": 38.904063666666666, "is_disabled": 0, "lon": -76.98064916666667}, {"fusion_lat": 0.0, "type": "electric_scooter", "name": "a08294c042a3e8b6f3249d7f8808448d", "fusion_lon": 0.0, "bike_id": "a08294c042a3e8b6f3249d7f8808448d", "is_reserved": 0, "rental_uris": {"android": "https://dc.lft.to/lastmile_qr_scan", "ios": "https://dc.lft.to/lastmile_qr_scan"}, "lat": 38.92338216666667, "is_disabled": 0, "lon": -77.03611566666666}, {"fusion_lat": 0.0, "type": "electric_scooter", "name": "7275abefc4a6b9c16feb50cadfaa7248", "fusion_lon": 0.0, "bike_id": "7275abefc4a6b9c16feb50cadfaa7248", "is_reserved": 0, "rental_uris": {"android": "https://dc.lft.to/lastmile_qr_scan", "ios": "https://dc.lft.to/lastmile_qr_scan"}, "lat": 38.9025785, "is_disabled": 0, "lon": -77.00575483333333}, {"fusion_lat": 0.0, "type": "electric_scooter", "name": "a4ca91d99497cb0e3b602d67e3ad4f09", "fusion_lon": 0.0, "bike_id": "a4ca91d99497cb0e3b602d67e3ad4f09", "is_reserved": 0, "rental_uris": {"android": "https://dc.lft.to/lastmile_qr_scan", "ios": "https://dc.lft.to/lastmile_qr_scan"}, "lat": 38.9256305, "is_disabled": 0, "lon": -77.02285216666667}, {"fusion_lat": 0.0, "type": "electric_scooter", "name": "c1d2add335b66d48187af4948ded9928", "fusion_lon": 0.0, "bike_id": "c1d2add335b66d48187af4948ded9928", "is_reserved": 0, "rental_uris": {"android": "https://dc.lft.to/lastmile_qr_scan", "ios": "https://dc.lft.to/lastmile_qr_scan"}, "lat": 38.90574266666667, "is_disabled": 0, "lon": -77.00573833333333}, {"fusion_lat": 0.0, "type": "electric_scooter", "name": "baf3b602aba57a67f7e5333e50db9a25", "fusion_lon": 0.0, "bike_id": "baf3b602aba57a67f7e5333e50db9a25", "is_reserved": 0, "rental_uris": {"android": "https://dc.lft.to/lastmile_qr_scan", "ios": "https://dc.lft.to/lastmile_qr_scan"}, "lat": 38.91119283333333, "is_disabled": 0, "lon": -77.03153233333333}, {"fusion_lat": 0.0, "type": "electric_scooter", "name": "1f58adc3d27ac7ddecf5802e3bad0405", "fusion_lon": 0.0, "bike_id": "1f58adc3d27ac7ddecf5802e3bad0405", "is_reserved": 0, "rental_uris": {"android": "https://dc.lft.to/lastmile_qr_scan", "ios": "https://dc.lft.to/lastmile_qr_scan"}, "lat": 38.902834, "is_disabled": 0, "lon": -77.01881383333334}, {"fusion_lat": 0.0, "type": "electric_bike", "name": "fc1442f50f0cb8994f55a964aa8a735a", "fusion_lon": 0.0, "bike_id": "fc1442f50f0cb8994f55a964aa8a735a", "is_reserved": 0, "rental_uris": {"android": "https://dc.lft.to/lastmile_qr_scan", "ios": "https://dc.lft.to/lastmile_qr_scan"}, "lat": 38.854864166666665, "is_disabled": 0, "lon": -77.1160455}, {"fusion_lat": 0.0, "type": "electric_scooter", "name": "2bd37994bab3fbfbfdc6ae7d9c0e52b5", "fusion_lon": 0.0, "bike_id": "2bd37994bab3fbfbfdc6ae7d9c0e52b5", "is_reserved": 0, "rental_uris": {"android": "https://dc.lft.to/lastmile_qr_scan", "ios": "https://dc.lft.to/lastmile_qr_scan"}, "lat": 38.90219066666667, "is_disabled": 0, "lon": -77.04662766666667}, {"fusion_lat": 0.0, "type": "electric_scooter", "name": "9a6be4e85557e081a6f0238f9a5352e3", "fusion_lon": 0.0, "bike_id": "9a6be4e85557e081a6f0238f9a5352e3", "is_reserved": 0, "rental_uris": {"android": "https://dc.lft.to/lastmile_qr_scan", "ios": "https://dc.lft.to/lastmile_qr_scan"}, "lat": 38.945139833333336, "is_disabled": 0, "lon": -77.03320066666667}, {"fusion_lat": 0.0, "type": "electric_scooter", "name": "3a99663802d2176168dd9027e87216a7", "fusion_lon": 0.0, "bike_id": "3a99663802d2176168dd9027e87216a7", "is_reserved": 0, "rental_uris": {"android": "https://dc.lft.to/lastmile_qr_scan", "ios": "https://dc.lft.to/lastmile_qr_scan"}, "lat": 38.938220666666666, "is_disabled": 0, "lon": -77.07044366666666}, {"fusion_lat": 0.0, "type": "electric_scooter", "name": "7709923503194ffd1975557ba2d1c1ef", "fusion_lon": 0.0, "bike_id": "7709923503194ffd1975557ba2d1c1ef", "is_reserved": 0, "rental_uris": {"android": "https://dc.lft.to/lastmile_qr_scan", "ios": "https://dc.lft.to/lastmile_qr_scan"}, "lat": 38.92099966666667, "is_disabled": 0, "lon": -77.04379283333333}, {"fusion_lat": 0.0, "type": "electric_scooter", "name": "fe490b3d17e06c20de39b97c056d27cf", "fusion_lon": 0.0, "bike_id": "fe490b3d17e06c20de39b97c056d27cf", "is_reserved": 0, "rental_uris": {"android": "https://dc.lft.to/lastmile_qr_scan", "ios": "https://dc.lft.to/lastmile_qr_scan"}, "lat": 38.8922175, "is_disabled": 0, "lon": -77.02634783333333},