{"data": {"bikes": [{"is_disabled": 0, "fusion_lon": 0.0, "fusion_lat": 0.0, "lat": 38.928283, "type": "electric_scooter", "lon": -77.02256066666666, "bike_id": "cc803282a4842d206f3be870c7de6c7f", "rental_uris": {"android": "https://dc.lft.to/lastmile_qr_scan", "ios": "https://dc.lft.to/lastmile_qr_scan"}, "name": "cc803282a4842d206f3be870c7de6c7f", "is_reserved": 0}, {"is_disabled": 0, "fusion_lon": 0.0, "fusion_lat": 0.0, "lat": 38.928734, "type": "electric_scooter", "lon": -76.99029366666667, "bike_id": "e5fb3bebd25b5f4f92b88d315b12abfc", "rental_uris": {"android": "https://dc.lft.to/lastmile_qr_scan", "ios": "https://dc.lft.to/lastmile_qr_scan"}, "name": "e5fb3bebd25b5f4f92b88d315b12abfc", "is_reserved": 0}, {"is_disabled": 0, "fusion_lon": 0.0, "fusion_lat": 0.0, "lat": 38.91338583333334, "type": "electric_scooter", "lon": -77.0522065, "bike_id": "08bdd7c6b9fcfceed29da4d06ae63711", "rental_uris": {"android": "https://dc.lft.to/lastmile_qr_scan", "ios": "https://dc.lft.to/lastmile_qr_scan"}, "name": "08bdd7c6b9fcfceed29da4d06ae63711", "is_reserved": 0}, {"is_disabled": 0, "fusion_lon": 0.0, "fusion_lat": 0.0, "lat": 38.98474916666667, "type": "electric_scooter", "lon": -77.0264845, "bike_id": "b70e8ff9729112d2704c05ae00c27974", "rental_uris": {"android": "https://dc.lft.to/lastmile_qr_scan", "ios": "https://dc.lft.to/lastmile_qr_scan"}, "name": "b70e8ff9729112d2704c05ae00c27974", "is_reserved": 0}, {"is_disabled": 0, "fusion_lon": 0.0, "fusion_lat": 0.0, "lat": 38.9078305, "type": "electric_scooter", "lon": -77.035292, "bike_id": "f658be5de8ddb6e03dfb238d042ae6eb", "rental_uris": {"android": "https://dc.lft.to/lastmile_qr_scan", "ios": "https://dc.lft.to/lastmile_qr_scan"}, "name": "f658be5de8ddb6e03dfb238d042ae6eb", "is_reserved": 0}, {"is_disabled": 0, "fusion_lon": 0.0, "fusion_lat": 0.0, "lat": 38.893609166666664, "type": "electric_scooter", "lon": -76.93988066666667, "bike_id": "39a6d9da01ee4eb78933c8ad44f9ae43", "rental_uris": {"android": "https://dc.lft.to/lastmile_qr_scan", "ios": "https://dc.lft.to/lastmile_qr_scan"}, "name": "39a6d9da01ee4eb78933c8ad44f9ae43", "is_reserved": 0}, {"is_disabled": 0, "fusion_lon": 0.0, "fusion_lat": 0.0, "lat": 38.9273265, "type": "electric_bike", "lon": -76.99370916666666, "bike_id": "b72a6eca3c9340ddf84333a257b7ea56", "rental_uris": {"android": "https://dc.lft.to/lastmile_qr_scan", "ios": "https://dc.lft.to/lastmile_qr_scan"}, "name": "b72a6eca3c9340ddf84333a257b7ea56", "is_reserved": 0}, {"is_disabled": 0, "fusion_lon": 0.0, "fusion_lat": 0.0, "lat": 38.87795116666667, "type": "electric_scooter", "lon": -77.01362466666667, "bike_id": "c6bf3be9dba4ebceca32c33a09fbc664", "rental_uris": {"android": "https://dc.lft.to/lastmile_qr_scan", "ios": "https://dc.lft.to/lastmile_qr_scan"}, "name": "c6bf3be9dba4ebceca32c33a09fbc664", "is_reserved": 0}, {"is_disabled": 0, "fusion_lon": 0.0, "fusion_lat": 0.0, "lat": 38.86722266666666, "type": "electric_scooter", "lon": -76.97915616666667, "bike_id": "d1b1c87e5296ea3076369e1cc686e018", "rental_uris": {"android": "https://dc.lft.to/lastmile_qr_scan", "ios": "https://dc.lft.to/lastmile_qr_scan"}, "name": "d1b1c87e5296ea3076369e1cc686e018", "is_reserved": 0}, {"is_disabled": 0, "fusion_lon": 0.0, "fusion_lat": 0.0, "lat": 38.9388485, "type": "electric_scooter", "lon": -77.02824166666667, "bike_id": "def90da54e1f021b977e3b842cc6cc24", "rental_uris": {"android": "https://dc.lft.to/lastmile_qr_scan", "ios": "https://dc.lft.to/lastmile_qr_scan"}, "name": "def90da54e1f021b977e3b842cc6cc24", "is_reserved": 0}, {"is_disabled": 0, "fusion_lon": 0.0, "fusion_lat": 0.0, "lat": 38.95743266666667, "type": "electric_scooter", "lon": -77.02432316666666, "bike_id": "5c65629da49015e79c9103bce45dc02b", "rental_uris": {"android": "https://dc.lft.to/lastmile_qr_scan", "ios": "https://dc.lft.to/lastmile_qr_scan"}, "name": "5c65629da49015e79c9103bce45dc02b", "is_reserved": 0}, {"is_disabled": 0, "fusion_lon": 0.0, "fusion_lat": 0.0, "lat": 38.93336466666667, "type": "electric_scooter", "lon": -77.0412805, "bike_id": "11f18770241ebe726577c293a0f04f43", "rental_uris": {"android": "https://dc.lft.to/lastmile_qr_scan", "ios": "https://dc.lft.to/lastmile_qr_scan"}, "name": "11f18770241ebe726577c293a0f04f43", "is_reserved": 0}, {"is_disabled": 0, "fusion_lon": 0.0, "fusion_lat": 0.0, "lat": 38.91910433333334, "type": "electric_scooter", "lon": -77.04804283333333, "bike_id": "50392e168e8beb01701901e7745f541f", "rental_uris": {"android": "https://dc.lft.to/lastmile_qr_scan", "ios": "https://dc.lft.to/lastmile_qr_scan"}, "name": "50392e168e8beb01701901e7745f541f", "is_reserved": 0}, {"is_disabled": 0, "fusion_lon": 0.0, "fusion_lat": 0.0, "lat": 38.852065, "type": "electric_bike", "lon": -77.1012725, "bike_id": "ad3318132b25380846338d1b45d6a2ee", "rental_uris": {"android": "https://dc.lft.to/lastmile_qr_scan", "ios": "https://dc.lft.to/lastmile_qr_scan"}, "name": "ad3318132b25380846338d1b45d6a2ee", "is_reserved": 0}, {"is_disabled": 0, "fusion_lon": 0.0, "fusion_lat": 0.0, "lat": 38.90874066666667, "type": "electric_scooter", "lon": -77.035565, "bike_id": "87c39fd7fb004960a482894a376c2fb7", "rental_uris": {"android": "https://dc.lft.to/lastmile_qr_scan", "ios": "https://dc.lft.to/lastmile_qr_scan"}, "name": "87c39fd7fb004960a482894a376c2fb7", "is_reserved": 0}, {"is_disabled": 0, "fusion_lon": 0.0, "fusion_lat": 0.0, "lat": 38.876158333333336, "type": "electric_scooter", "lon": -76.96538633333333, "bike_id": "297b0e85f6a8ea3d95d5f783d1daa97b", "rental_uris": {"android": "https://dc.lft.to/lastmile_qr_scan", "ios": "https://dc.lft.to/lastmile_qr_scan"}, "name": "297b0e85f6a8ea3d95d5f783d1daa97b", "is_reserved": 0}, {"is_disabled": 0, "fusion_lon": 0.0, "fusion_lat": 0.0, "lat": 38.92003116666667, "type": "electric_scooter", "lon": -76.98495933333334, "bike_id": "224b9b24697ffd3268438d9a81019c38", "rental_uris": {"android": "https://dc.lft.to/lastmile_qr_scan", "ios": "https://dc.lft.to/lastmile_qr_scan"}, "name": "224b9b24697ffd3268438d9a81019c38", "is_reserved": 0}, {"is_disabled": 0, "fusion_lon": 0.0, "fusion_lat": 0.0, "lat": 38.964493833333336, "type": "electric_bike", "lon": -76.9772635, "bike_id": "659e11d5c7e80a5736276d8b948c02e0", "rental_uris": {"android": "https://dc.lft.to/lastmile_qr_scan", "ios": "https://dc.lft.to/lastmile_qr_scan"}, "name": "659e11d5c7e80a5736276d8b948c02e0", "is_reserved": 0}, {"is_disabled": 0, "fusion_lon": 0.0, "fusion_lat": 0.0, "lat": 38.93413866666667, "type": "electric_bike", "lon": -77.0250975, "bike_id": "23f743ffc90a6ced7a7db8ef817d378b", "rental_uris": {"android": "https://dc.lft.to/lastmile_qr_scan", "ios": "https://dc.lft.to/lastmile_qr_scan"}, "name": "23f743ffc90a6ced7a7db8ef817d378b", "is_reserved": 0}, {"is_disabled": 0, "fusion_lon": 0.0, "fusion_lat": 0.0, "lat": 38.866029166666664, "type": "electric_bike", "lon": -76.97451, "bike_id": "93536b03d2a3db10d37e43841d732956", "rental_uris": {"android": "https://dc.lft.to/lastmile_qr_scan", "ios": "https://dc.lft.to/lastmile_qr_scan"}, "name": "93536b03d2a3db10d37e43841d732956", "is_reserved": 0}, {"is_disabled": 0, "fusion_lon": 0.0, "fusion_lat": 0.0, "lat": 39.029986, "type": "electric_bike", "lon": -77.10651216666666, "bike_id": "b162efa01ec2af3a1e3ef71cca096874", "rental_uris": {"android": "https://dc.lft.to/lastmile_qr_scan", "ios": "https://dc.lft.to/lastmile_qr_scan"}, "name": "b162efa01ec2af3a1e3ef71cca096874", "is_reserved": 0}, {"is_disabled": 0, "fusion_lon": 0.0, "fusion_lat": 0.0, "lat": 38.858579166666665, "type": "electric_bike", "lon": -77.09757383333333, "bike_id": "8e224111d514a23b59f548cada0bab95", "rental_uris": {"android": "https://dc.lft.to/lastmile_qr_scan", "ios": "https://dc.lft.to/lastmile_qr_scan"}, "name": "8e224111d514a23b59f548cada0bab95", "is_reserved": 0}, {"is_disabled": 0, "fusion_lon": 0.0, "fusion_lat": 0.0, "lat": 38.92034533333333, "type": "electric_scooter", "lon": -77.03114783333334, "bike_id": "7701193b57fec5a6a7ae6d126802566b", "rental_uris": {"android": "https://dc.lft.to/lastmile_qr_scan", "ios": "https://dc.lft.to/lastmile_qr_scan"}, "name": "7701193b57fec5a6a7ae6d126802566b", "is_reserved": 0}, {"is_disabled": 0, "fusion_lon": 0.0, "fusion_lat": 0.0, "lat": 38.8429275, "type": "electric_scooter", "lon": -76.999488, "bike_id": "b98f6de97fc39c687f53357fb492dd61", "rental_uris": {"android": "https://dc.lft.to/lastmile_qr_scan", "ios": "https://dc.lft.to/lastmile_qr_scan"}, "name": "b98f6de97fc39c687f53357fb492dd61", "is_reserved": 0}, {"is_disabled": 0, "fusion_lon": 0.0, "fusion_lat": 0.0, "lat": 38.88740683333333, "type": "electric_scooter", "lon": -77.01606783333334, "bike_id": "6845c859bb7643cc1847bc80fc3cab8b", "rental_uris": {"android": "https://dc.lft.to/lastmile_qr_scan", "ios": "https://dc.lft.to/lastmile_qr_scan"}, "name": "6845c859bb7643cc1847bc80fc3cab8b", "is_reserved": 0}, {"is_disabled": 0, "fusion_lon": 0.0, "fusion_lat": 0.0, "lat": 38.9405355, "type": "electric_scooter", "lon": -77.02497916666667, "bike_id": "82837b40679ab6f124d757a31125bd0b", "rental_uris": {"android": "https://dc.lft.to/lastmile_qr_scan", "ios": "https://dc.lft.to/lastmile_qr_scan"}, "name": "82837b40679ab6f124d757a31125bd0b", "is_reserved": 0}, {"is_disabled": 0, "fusion_lon": 0.0, "fusion_lat": 0.0, "lat": 38.899710166666665, "type": "electric_scooter", "lon": -77.0520295, "bike_id": "215fc9a2788a5698121443c4cdc99eaf", "rental_uris": {"android": "https://dc.lft.to/lastmile_qr_scan", "ios": "https://dc.lft.to/lastmile_qr_scan"}, "name": "215fc9a2788a5698121443c4cdc99eaf", "is_reserved": 0}, {"is_disabled": 0, "fusion_lon": 0.0, "fusion_lat": 0.0, "lat": 38.9427465, "type": "electric_scooter", "lon": -77.0325335, "bike_id": "a21cf36711c9f1c3f735d09ea675543c", "rental_uris": {"android": "https://dc.lft.to/lastmile_qr_scan", "ios": "https://dc.lft.to/lastmile_qr_scan"}, "name": "a21cf36711c9f1c3f735d09ea675543c", "is_reserved": 0}, {"is_disabled": 0, "fusion_lon": 0.0, "fusion_lat": 0.0, "lat": 38.899127666666665, "type": "electric_scooter", "lon": -76.93394733333334, "bike_id": "4ccf88a08e0ab0169a86effb5a7497c4", "rental_uris": {"android": "https://dc.lft.to/lastmile_qr_scan", "ios": "https://dc.lft.to/lastmile_qr_scan"}, "name": "4ccf88a08e0ab0169a86effb5a7497c4", "is_reserved": 0}, {"is_disabled": 0, "fusion_lon": 0.0, "fusion_lat": 0.0, "lat": 38.9288885, "type": "electric_scooter", "lon": -77.02309016666666, "bike_id": "3759f86f3fc3cddea8eba76a8e030f24", "rental_uris": {"android": "https://dc.lft.to/lastmile_qr_scan", "ios": "https://dc.lft.to/lastmile_qr_scan"}, "name": "3759f86f3fc3cddea8eba76a8e030f24", "is_reserved": 0}, {"is_disabled": 0, "fusion_lon": 0.0, "fusion_lat": 0.0, "lat": 38.928787, "type": "electric_scooter", "lon": -77.04134333333333, "bike_id": "8124c59713578743cf9ff585b99a4021", "rental_uris": {"android": "https://dc.lft.to/lastmile_qr_scan", "ios": "https://dc.lft.to/lastmile_qr_scan"}, "name": "8124c59713578743cf9ff585b99a4021", "is_reserved": 0}, {"is_disabled": 0, "fusion_lon": 0.0, "fusion_lat": 0.0, "lat": 38.89726316666667, "type": "electric_scooter", "lon": -77.0093105, "bike_id": "754de7c9e39d41d60b246453c938d0ad", "rental_uris": {"android": "https://dc.lft.to/lastmile_qr_scan", "ios": "https://dc.lft.to/lastmile_qr_scan"}, "name": "754de7c9e39d41d60b246453c938d0ad", "is_reserved": 0}, {"is_disabled": 0, "fusion_lon": 0.0, "fusion_lat": 0.0, "lat": 38.89002133333334, "type": "electric_scooter", "lon": -77.0489965, "bike_id": "cf024204526578d08d1abcfdaf324a9b", "rental_uris": {"android": "https://dc.lft.to/lastmile_qr_scan", "ios": "https://dc.lft.to/lastmile_qr_scan"}, "name": "cf024204526578d08d1abcfdaf324a9b", "is_reserved": 0}, {"is_disabled": 0, "fusion_lon": 0.0, "fusion_lat": 0.0, "lat": 38.94131616666667, "type": "electric_scooter", "lon": -77.01821666666666, "bike_id": "7292e2af61f2d86994c97c9dd741cfef", "rental_uris": {"android": "https://dc.lft.to/lastmile_qr_scan", "ios": "https://dc.lft.to/lastmile_qr_scan"}, "name": "7292e2af61f2d86994c97c9dd741cfef", "is_reserved": 0}, {"is_disabled": 0, "fusion_lon": 0.0, "fusion_lat": 0.0, "lat": 38.860581333333336, "type": "electric_scooter", "lon": -76.98512, "bike_id": "43bd11b54d1ac38ace0760620432b29f", "rental_uris": {"android": "https://dc.lft.to/lastmile_qr_scan", "ios": "https://dc.lft.to/lastmile_qr_scan"}, "name": "43bd11b54d1ac38ace0760620432b29f", "is_reserved": 0}, {"is_disabled": 0, "fusion_lon": 0.0, "fusion_lat": 0.0, "lat": 38.90057316666667, "type": "electric_scooter", "lon": -77.0129, "bike_id": "962221ffd3fcfd46a9805379e43336f2", "rental_uris": {"android": "https://dc.lft.to/lastmile_qr_scan", "ios": "https://dc.lft.to/lastmile_qr_scan"}, "name": "962221ffd3fcfd46a9805379e43336f2", "is_reserved": 0}, {"is_disabled": 0, "fusion_lon": 0.0, "fusion_lat": 0.0, "lat": 38.894746, "type": "electric_scooter", "lon": -76.9330295, "bike_id": "6bef227e379c34faca5986f0f9f2bb10", "rental_uris": {"android": "https://dc.lft.to/lastmile_qr_scan", "ios": "https://dc.lft.to/lastmile_qr_scan"}, "name": "6bef227e379c34faca5986f0f9f2bb10", "is_reserved": 0}, {"is_disabled": 0, "fusion_lon": 0.0, "fusion_lat": 0.0, "lat": 38.93126083333333, "type": "electric_scooter", "lon": -77.01989783333333, "bike_id": "523b56cbe9d5212af2e5da4101febc15", "rental_uris": {"android": "https://dc.lft.to/lastmile_qr_scan", "ios": "https://dc.lft.to/lastmile_qr_scan"}, "name": "523b56cbe9d5212af2e5da4101febc15", "is_reserved": 0}, {"is_disabled": 0, "fusion_lon": 0.0, "fusion_lat": 0.0, "lat": 38.90825983333333, "type": "electric_scooter", "lon": -77.04167366666667, "bike_id": "3d7a04837d0417ebab09b5925694cb78", "rental_uris": {"android": "https://dc.lft.to/lastmile_qr_scan", "ios": "https://dc.lft.to/lastmile_qr_scan"}, "name": "3d7a04837d0417ebab09b5925694cb78", "is_reserved": 0}, {"is_disabled": 0, "fusion_lon": 0.0, "fusion_lat": 0.0, "lat": 38.89614916666667, "type": "electric_scooter", "lon": -77.02931166666667, "bike_id": "e7f18a2df258f4367f1a33359abd5ac4", "rental_uris": {"android": "https://dc.lft.to/lastmile_qr_scan", "ios": "https://dc.lft.to/lastmile_qr_scan"}, "name": "e7f18a2df258f4367f1a33359abd5ac4", "is_reserved": 0}, {"is_disabled": 0, "fusion_lon": 0.0, "fusion_lat": 0.0, "lat": 38.905013833333335, "type": "electric_scooter", "lon": -77.029503, "bike_id": "8403c7c297ba68e6ffe77cd8e493df01", "rental_uris": {"android": "https://dc.lft.to/lastmile_qr_scan", "ios": "https://dc.lft.to/lastmile_qr_scan"}, "name": "8403c7c297ba68e6ffe77cd8e493df01", "is_reserved": 0}, {"is_disabled": 0, "fusion_lon": 0.0, "fusion_lat": 0.0, "lat": 38.92102766666667, "type": "electric_scooter", "lon": -77.030532, "bike_id": "e7d6873d4f6e7cef101180ffdc8b321b", "rental_uris": {"android": "https://dc.lft.to/lastmile_qr_scan", "ios": "https://dc.lft.to/lastmile_qr_scan"}, "name": "e7d6873d4f6e7cef101180ffdc8b321b", "is_reserved": 0}, {"is_disabled": 0, "fusion_lon": 0.0, "fusion_lat": 0.0, "lat": 38.898268, "type": "electric_scooter", "lon": -76.94652916666666, "bike_id": "9856e710a4500b91673075540b560413", "rental_uris": {"android": "https://dc.lft.to/lastmile_qr_scan", "ios": "https://dc.lft.to/lastmile_qr_scan"}, "name": "9856e710a4500b91673075540b560413", "is_reserved": 0}, {"is_disabled": 0, "fusion_lon": 0.0, "fusion_lat": 0.0, "lat": 38.90267716666666, "type": "electric_scooter", "lon": -77.03459416666666, "bike_id": "a202ecd61edf07bd535ed2ef67fd27d2", "rental_uris": {"android": "https://dc.lft.to/lastmile_qr_scan", "ios": "https://dc.lft.to/lastmile_qr_scan"}, "name": "a202ecd61edf07bd535ed2ef67fd27d2", "is_reserved": 0}, {"is_disabled": 0, "fusion_lon": 0.0, "fusion_lat": 0.0, "lat": 38.91051066666667, "type": "electric_scooter", "lon": -77.02288333333334, "bike_id": "3dd94c1a868abed0769853989f609edc", "rental_uris": {"android": "https://dc.lft.to/lastmile_qr_scan", "ios": "https://dc.lft.to/lastmile_qr_scan"}, "name": "3dd94c1a868abed0769853989f609edc", "is_reserved": 0}, {"is_disabled": 0, "fusion_lon": 0.0, "fusion_lat": 0.0, "lat": 38.924622, "type": "electric_scooter", "lon": -77.02965083333333, "bike_id": "150f9704174791d578cafca038c7c75f", "rental_uris": {"android": "https://dc.lft.to/lastmile_qr_scan", "ios": "https://dc.lft.to/lastmile_qr_scan"}, "name": "150f9704174791d578cafca038c7c75f", "is_reserved": 0}, {"is_disabled": 0, "fusion_lon": 0.0, "fusion_lat": 0.0, "lat": 38.9172045, "type": "electric_scooter", "lon": -77.03312033333333, "bike_id": "60f3109bf92de2d5c4ec03d629a3bd02", "rental_uris": {"android": "https://dc.lft.to/lastmile_qr_scan", "ios": "https://dc.lft.to/lastmile_qr_scan"}, "name": "60f3109bf92de2d5c4ec03d629a3bd02", "is_reserved": 0}, {"is_disabled": 0, "fusion_lon": 0.0, "fusion_lat": 0.0, "lat": 38.90388816666667, "type": "electric_scooter", "lon": -76.990033, "bike_id": "e038b9d31ad1153063136a6229d6b59f", "rental_uris": {"android": "https://dc.lft.to/lastmile_qr_scan", "ios": "https://dc.lft.to/lastmile_qr_scan"}, "name": "e038b9d31ad1153063136a6229d6b59f", "is_reserved": 0}, {"is_disabled": 0, "fusion_lon": 0.0, "fusion_lat": 0.0, "lat": 38.951970833333334, "type": "electric_scooter", "lon": -77.026071, "bike_id": "cadf798a10adf739ecf4a37b9b4ac1e1", "rental_uris": {"android": "https://dc.lft.to/lastmile_qr_scan", "ios": "https://dc.lft.to/lastmile_qr_scan"}, "name": "cadf798a10adf739ecf4a37b9b4ac1e1", "is_reserved": 0}, {"is_disabled": 0, "fusion_lon": 0.0, "fusion_lat": 0.0, "lat": 38.946245, "type": "electric_bike", "lon": -76.93411183333333, "bike_id": "b71c7b51d97ea727e477f0153df7c4ad", "rental_uris": {"android": "https://dc.lft.to/lastmile_qr_scan", "ios": "https://dc.lft.to/lastmile_qr_scan"}, "name": "b71c7b51d97ea727e477f0153df7c4ad", "is_reserved": 0}, {"is_disabled": 0, "fusion_lon": 0.0, "fusion_lat": 0.0, "lat": 38.881364833333336, "type": "electric_bike", "lon": -77.01678166666666, "bike_id": "b9c4e9f20570238ace6c8b0f0cc3f8c2", "rental_uris": {"android": "https://dc.lft.to/lastmile_qr_scan", "ios": "https://dc.lft.to/lastmile_qr_scan"}, "name": "b9c4e9f20570238ace6c8b0f0cc3f8c2", "is_reserved": 0}, {"is_disabled": 0, "fusion_lon": 0.0, "fusion_lat": 0.0, "lat": 38.92813316666667, "type": "electric_scooter", "lon": -77.036164, "bike_id": "37660e4382999ee8d26933464d3953e0", "rental_uris": {"android": "https://dc.lft.to/lastmile_qr_scan", "ios": "https://dc.lft.to/lastmile_qr_scan"}, "name": "37660e4382999ee8d26933464d3953e0", "is_reserved": 0}, {"is_disabled": 0, "fusion_lon": 0.0, "fusion_lat": 0.0, "lat": 38.906549, "type": "electric_scooter", "lon": -77.02530916666667, "bike_id": "bf4ce220b539818957264caeac99ef95", "rental_uris": {"android": "https://dc.lft.to/lastmile_qr_scan", "ios": "https://dc.lft.to/lastmile_qr_scan"}, "name": "bf4ce220b539818957264caeac99ef95", "is_reserved": 0}, {"is_disabled": 0, "fusion_lon": 0.0, "fusion_lat": 0.0, "lat": 38.9138985, "type": "electric_scooter", "lon": -77.02972666666666, "bike_id": "27d2b99b1281a5f170aaac5b0599efb3", "rental_uris": {"android": "https://dc.lft.to/lastmile_qr_scan", "ios": "https://dc.lft.to/lastmile_qr_scan"}, "name": "27d2b99b1281a5f170aaac5b0599efb3", "is_reserved": 0}, {"is_disabled": 0, "fusion_lon": 0.0, "fusion_lat": 0.0, "lat": 38.831725166666665, "type": "electric_bike", "lon": -76.99752583333333, "bike_id": "cb83272e95da342a4090e4c1a738a5aa", "rental_uris": {"android": "https://dc.lft.to/lastmile_qr_scan", "ios": "https://dc.lft.to/lastmile_qr_scan"}, "name": "cb83272e95da342a4090e4c1a738a5aa", "is_reserved": 0}, {"is_disabled": 0, "fusion_lon": 0.0, "fusion_lat": 0.0, "lat": 38.923857166666664, "type": "electric_scooter", "lon": -77.02757233333334, "bike_id": "3ae5b45d96bd08ca40b3b552e7a2abd6", "rental_uris": {"android": "https://dc.lft.to/lastmile_qr_scan", "ios": "https://dc.lft.to/lastmile_qr_scan"}, "name": "3ae5b45d96bd08ca40b3b552e7a2abd6", "is_reserved": 0}, {"is_disabled": 0, "fusion_lon": 0.0, "fusion_lat": 0.0, "lat": 38.90952583333333, "type": "electric_scooter", "lon": -77.01525783333334, "bike_id": "d158167534fc19e32216f8918a35f241", "rental_uris": {"android": "https://dc.lft.to/lastmile_qr_scan", "ios": "https://dc.lft.to/lastmile_qr_scan"}, "name": "d158167534fc19e32216f8918a35f241", "is_reserved": 0}, {"is_disabled": 0, "fusion_lon": 0.0, "fusion_lat": 0.0, "lat": 38.89852966666667, "type": "electric_bike", "lon": -76.93189316666667, "bike_id": "9681e9923f013293aeca01caf3e5a657", "rental_uris": {"android": "https://dc.lft.to/lastmile_qr_scan", "ios": "https://dc.lft.to/lastmile_qr_scan"}, "name": "9681e9923f013293aeca01caf3e5a657", "is_reserved": 0}, {"is_disabled": 0, "fusion_lon": 0.0, "fusion_lat": 0.0, "lat": 38.8835075, "type": "electric_scooter", "lon": -76.927903, "bike_id": "1fb4d4f7d3f18368d4cd6f4f92bf7981", "rental_uris": {"android": "https://dc.lft.to/lastmile_qr_scan", "ios": "https://dc.lft.to/lastmile_qr_scan"}, "name": "1fb4d4f7d3f18368d4cd6f4f92bf7981", "is_reserved": 0}, {"is_disabled": 0, "fusion_lon": 0.0, "fusion_lat": 0.0, "lat": 38.87928316666667, "type": "electric_scooter", "lon": -77.0054975, "bike_id": "11bd4aa11cf2cd43d563447389b0d56d", "rental_uris": {"android": "https://dc.lft.to/lastmile_qr_scan", "ios": "https://dc.lft.to/lastmile_qr_scan"}, "name": "11bd4aa11cf2cd43d563447389b0d56d", "is_reserved": 0}, {"is_disabled": 0, "fusion_lon": 0.0, "fusion_lat": 0.0, "lat": 38.8926245, "type": "electric_scooter", "lon": -76.941598, "bike_id": "4499216faf9017c95a3a56e63926f84f", "rental_uris": {"android": "https://dc.lft.to/lastmile_qr_scan", "ios": "https://dc.lft.to/lastmile_qr_scan"}, "name": "4499216faf9017c95a3a56e63926f84f", "is_reserved": 0}, {"is_disabled": 0, "fusion_lon": 0.0, "fusion_lat": 0.0, "lat": 38.90846233333333, "type": "electric_scooter", "lon": -77.03349633333333, "bike_id": "a6bc39d78de543a04df0cf9b9ebe7b93", "rental_uris": {"android": "https://dc.lft.to/lastmile_qr_scan", "ios": "https://dc.lft.to/lastmile_qr_scan"}, "name": "a6bc39d78de543a04df0cf9b9ebe7b93", "is_reserved": 0}, {"is_disabled": 0, "fusion_lon": 0.0, "fusion_lat": 0.0, "lat": 38.8789575, "type": "electric_scooter", "lon": -76.9352295, "bike_id": "1acf3b740d9b96293fbec570996d8ff8", "rental_uris": {"android": "https://dc.lft.to/lastmile_qr_scan", "ios": "https://dc.lft.to/lastmile_qr_scan"}, "name": "1acf3b740d9b96293fbec570996d8ff8", "is_reserved": 0}, {"is_disabled": 0, "fusion_lon": 0.0, "fusion_lat": 0.0, "lat": 38.899602333333334, "type": "electric_scooter", "lon": -77.05141983333333, "bike_id": "c1c1a9b8ea8d58496ec4fab598921d79", "rental_uris": {"android": "https://dc.lft.to/lastmile_qr_scan", "ios": "https://dc.lft.to/lastmile_qr_scan"}, "name": "c1c1a9b8ea8d58496ec4fab598921d79", "is_reserved": 0}, {"is_disabled": 0, "fusion_lon": 0.0, "fusion_lat": 0.0, "lat": 38.913089666666664, "type": "electric_scooter", "lon": -77.03840483333333, "bike_id": "69fe3c17e67ccfdc0163a8d79c649ea2", "rental_uris": {"android": "https://dc.lft.to/lastmile_qr_scan", "ios": "https://dc.lft.to/lastmile_qr_scan"}, "name": "69fe3c17e67ccfdc0163a8d79c649ea2", "is_reserved": 0}, {"is_disabled": 0, "fusion_lon": 0.0, "fusion_lat": 0.0, "lat": 38.876911166666666, "type": "electric_scooter", "lon": -77.005404, "bike_id": "ccd510dda960f7ff29713a6b2e2c042a", "rental_uris": {"android": "https://dc.lft.to/lastmile_qr_scan", "ios": "https://dc.lft.to/lastmile_qr_scan"}, "name": "ccd510dda960f7ff29713a6b2e2c042a", "is_reserved": 0}, {"is_disabled": 0, "fusion_lon": 0.0, "fusion_lat": 0.0, "lat": 38.93602466666667, "type": "electric_scooter", "lon": -77.058585, "bike_id": "de4d8a1e2614407d4772c80a52470810", "rental_uris": {"android": "https://dc.lft.to/lastmile_qr_scan", "ios": "https://dc.lft.to/lastmile_qr_scan"}, "name": "de4d8a1e2614407d4772c80a52470810", "is_reserved": 0}, {"is_disabled": 0, "fusion_lon": 0.0, "fusion_lat": 0.0, "lat": 38.923368833333335, "type": "electric_scooter", "lon": -77.04187516666667, "bike_id": "f4cda9da71ae94d0004e92ad5644457c", "rental_uris": {"android": "https://dc.lft.to/lastmile_qr_scan", "ios": "https://dc.lft.to/lastmile_qr_scan"}, "name": "f4cda9da71ae94d0004e92ad5644457c", "is_reserved": 0}, {"is_disabled": 0, "fusion_lon": 0.0, "fusion_lat": 0.0, "lat": 38.907111666666665, "type": "electric_scooter", "lon": -77.04654766666667, "bike_id": "a7b4c785cfe421cf57fb70e38fc5e290", "rental_uris": {"android": "https://dc.lft.to/lastmile_qr_scan", "ios": "https://dc.lft.to/lastmile_qr_scan"}, "name": "a7b4c785cfe421cf57fb70e38fc5e290", "is_reserved": 0}, {"is_disabled": 0, "fusion_lon": 0.0, "fusion_lat": 0.0, "lat": 38.90062, "type": "electric_scooter", "lon": -76.93387333333334, "bike_id": "de459bbad00d3dbd0710070a5b8245ac", "rental_uris": {"android": "https://dc.lft.to/lastmile_qr_scan", "ios": "https://dc.lft.to/lastmile_qr_scan"}, "name": "de459bbad00d3dbd0710070a5b8245ac", "is_reserved": 0}, {"is_disabled": 0, "fusion_lon": 0.0, "fusion_lat": 0.0, "lat": 38.87160033333333, "type": "electric_scooter", "lon": -77.01352733333333, "bike_id": "5c7a748e48cfaa6b7725f9260846bf9a", "rental_uris": {"android": "https://dc.lft.to/lastmile_qr_scan", "ios": "https://dc.lft.to/lastmile_qr_scan"}, "name": "5c7a748e48cfaa6b7725f9260846bf9a", "is_reserved": 0}, {"is_disabled": 0, "fusion_lon": 0.0, "fusion_lat": 0.0, "lat": 38.94979083333333, "type": "electric_scooter", "lon": -77.0270425, "bike_id": "765af47d080ec253dbd8c36076a154a2", "rental_uris": {"android": "https://dc.lft.to/lastmile_qr_scan", "ios": "https://dc.lft.to/lastmile_qr_scan"}, "name": "765af47d080ec253dbd8c36076a154a2", "is_reserved": 0}, {"is_disabled": 0, "fusion_lon": 0.0, "fusion_lat": 0.0, "lat": 38.917236833333334, "type": "electric_scooter", "lon": -77.03659516666667, "bike_id": "53fbc2e373fce80f9e2fd539a8256082", "rental_uris": {"android": "https://dc.lft.to/lastmile_qr_scan", "ios": "https://dc.lft.to/lastmile_qr_scan"}, "name": "53fbc2e373fce80f9e2fd539a8256082", "is_reserved": 0}, {"is_disabled": 0, "fusion_lon": 0.0, "fusion_lat": 0.0, "lat": 38.858135833333336, "type": "electric_scooter", "lon": -76.98959366666666, "bike_id": "aa20095a28481228b8818c3b25a13b6e", "rental_uris": {"android": "https://dc.lft.to/lastmile_qr_scan", "ios": "https://dc.lft.to/lastmile_qr_scan"}, "name": "aa20095a28481228b8818c3b25a13b6e", "is_reserved": 0}, {"is_disabled": 0, "fusion_lon": 0.0, "fusion_lat": 0.0, "lat": 38.865207, "type": "electric_scooter", "lon": -76.973339, "bike_id": "6d22180f8975f6b63632759d74edfa84", "rental_uris": {"android": "https://dc.lft.to/lastmile_qr_scan", "ios": "https://dc.lft.to/lastmile_qr_scan"}, "name": "6d22180f8975f6b63632759d74edfa84", "is_reserved": 0}, {"is_disabled": 0, "fusion_lon": 0.0, "fusion_lat": 0.0, "lat": 38.907787666666664, "type": "electric_scooter", "lon": -77.035434, "bike_id": "2a557348d247ba9c7b54a02fc28da130", "rental_uris": {"android": "https://dc.lft.to/lastmile_qr_scan", "ios": "https://dc.lft.to/lastmile_qr_scan"}, "name": "2a557348d247ba9c7b54a02fc28da130", "is_reserved": 0}, {"is_disabled": 0, "fusion_lon": 0.0, "fusion_lat": 0.0, "lat": 38.9622015, "type": "electric_scooter", "lon": -77.02799583333334, "bike_id": "1d1cfc49d4e66359ee8e46976f0e3af9", "rental_uris": {"android": "https://dc.lft.to/lastmile_qr_scan", "ios": "https://dc.lft.to/lastmile_qr_scan"}, "name": "1d1cfc49d4e66359ee8e46976f0e3af9", "is_reserved": 0}, {"is_disabled": 0, "fusion_lon": 0.0, "fusion_lat": 0.0, "lat": 38.917096666666666, "type": "electric_scooter", "lon": -77.02848966666667, "bike_id": "65cc24605c19f80be1d4380034254727", "rental_uris": {"android": "https://dc.lft.to/lastmile_qr_scan", "ios": "https://dc.lft.to/lastmile_qr_scan"}, "name": "65cc24605c19f80be1d4380034254727", "is_reserved": 0}, {"is_disabled": 0, "fusion_lon": 0.0, "fusion_lat": 0.0, "lat": 38.89477183333333, "type": "electric_scooter", "lon": -76.99526316666666, "bike_id": "9ccbbad9d60d3423bcada4bbae09ba86", "rental_uris": {"android": "https://dc.lft.to/lastmile_qr_scan", "ios": "https://dc.lft.to/lastmile_qr_scan"}, "name": "9ccbbad9d60d3423bcada4bbae09ba86", "is_reserved": 0}, {"is_disabled": 0, "fusion_lon": 0.0, "fusion_lat": 0.0, "lat": 38.926720333333336, "type": "electric_scooter", "lon": -77.02685233333334, "bike_id": "c976e2bc9ba29f23b1e116c22965945f", "rental_uris": {"android": "https://dc.lft.to/lastmile_qr_scan", "ios": "https://dc.lft.to/lastmile_qr_scan"}, "name": "c976e2bc9ba29f23b1e116c22965945f", "is_reserved": 0}, {"is_disabled": 0, "fusion_lon": 0.0, "fusion_lat": 0.0, "lat": 38.961409333333336, "type": "electric_scooter", "lon": -77.02808433333334, "bike_id": "90f1fe860d93dbac0b638cff698fe592", "rental_uris": {"android": "https://dc.lft.to/lastmile_qr_scan", "ios": "https://dc.lft.to/lastmile_qr_scan"}, "name": "90f1fe860d93dbac0b638cff698fe592", "is_reserved": 0}, {"is_disabled": 0, "fusion_lon": 0.0, "fusion_lat": 0.0, "lat": 38.92109033333333, "type": "electric_scooter", "lon": -77.01765633333333, "bike_id": "150a12ce6417c4aa4760fe5d8991752a", "rental_uris": {"android": "https://dc.lft.to/lastmile_qr_scan", "ios": "https://dc.lft.to/lastmile_qr_scan"}, "name": "150a12ce6417c4aa4760fe5d8991752a", "is_reserved": 0}, {"is_disabled": 0, "fusion_lon": 0.0, "fusion_lat": 0.0, "lat": 38.893128833333336, "type": "electric_scooter", "lon": -77.0213095, "bike_id": "1978e9cdc61b4c9354ba8c38cf761729", "rental_uris": {"android": "https://dc.lft.to/lastmile_qr_scan", "ios": "https://dc.lft.to/lastmile_qr_scan"}, "name": "1978e9cdc61b4c9354ba8c38cf761729", "is_reserved": 0}, {"is_disabled": 0, "fusion_lon": 0.0, "fusion_lat": 0.0, "lat": 38.907323833333336, "type": "electric_scooter", "lon": -77.02415766666667, "bike_id": "e81ecc79928e85446795b5b61fdb26dc", "rental_uris": {"android": "https://dc.lft.to/lastmile_qr_scan", "ios": "https://dc.lft.to/lastmile_qr_scan"}, "name": "e81ecc79928e85446795b5b61fdb26dc", "is_reserved": 0}, {"is_disabled": 0, "fusion_lon": 0.0, "fusion_lat": 0.0, "lat": 38.93098466666667, "type": "electric_scooter", "lon": -77.02455183333333, "bike_id": "5351d3562924cb9a5e6f4fbd056c0e63", "rental_uris": {"android": "https://dc.lft.to/lastmile_qr_scan", "ios": "https://dc.lft.to/lastmile_qr_scan"}, "name": "5351d3562924cb9a5e6f4fbd056c0e63", "is_reserved": 0}, {"is_disabled": 0, "fusion_lon": 0.0, "fusion_lat": 0.0, "lat": 38.919180833333336, "type": "electric_scooter", "lon": -77.0446595, "bike_id": "984702ba29b4babdf6fab8e4fa57c30c", "rental_uris": {"android": "https://dc.lft.to/lastmile_qr_scan", "ios": "https://dc.lft.to/lastmile_qr_scan"}, "name": "984702ba29b4babdf6fab8e4fa57c30c", "is_reserved": 0}, {"is_disabled": 0, "fusion_lon": 0.0, "fusion_lat": 0.0, "lat": 38.84520066666666, "type": "electric_scooter", "lon": -76.98151566666667, "bike_id": "671ff5c92c39912a93b28310b55913f1", "rental_uris": {"android": "https://dc.lft.to/lastmile_qr_scan", "ios": "https://dc.lft.to/lastmile_qr_scan"}, "name": "671ff5c92c39912a93b28310b55913f1", "is_reserved": 0}, {"is_disabled": 0, "fusion_lon": 0.0, "fusion_lat": 0.0, "lat": 38.913456, "type": "electric_scooter", "lon": -77.04231316666667, "bike_id": "086d2cae9d24965422ef8951c4fdb95e", "rental_uris": {"android": "https://dc.lft.to/lastmile_qr_scan", "ios": "https://dc.lft.to/lastmile_qr_scan"}, "name": "086d2cae9d24965422ef8951c4fdb95e", "is_reserved": 0}, {"is_disabled": 0, "fusion_lon": 0.0, "fusion_lat": 0.0, "lat": 38.88723016666667, "type": "electric_scooter", "lon": -77.02205883333333, "bike_id": "57c5784826bbf31dcd96fabcee7a95ac", "rental_uris": {"android": "https://dc.lft.to/lastmile_qr_scan", "ios": "https://dc.lft.to/lastmile_qr_scan"}, "name": "57c5784826bbf31dcd96fabcee7a95ac", "is_reserved": 0}, {"is_disabled": 0, "fusion_lon": 0.0, "fusion_lat": 0.0, "lat": 38.92927366666667, "type": "electric_scooter", "lon": -77.02143983333333, "bike_id": "f9b7d7e6a1a1c1aa2bc3322e471f0402", "rental_uris": {"android": "https://dc.lft.to/lastmile_qr_scan", "ios": "https://dc.lft.to/lastmile_qr_scan"}, "name": "f9b7d7e6a1a1c1aa2bc3322e471f0402", "is_reserved": 0}, {"is_disabled": 0, "fusion_lon": 0.0, "fusion_lat": 0.0, "lat": 38.9025705, "type": "electric_scooter", "lon": -77.000171, "bike_id": "86860ee4c1bc885290eb67d688061406", "rental_uris": {"android": "https://dc.lft.to/lastmile_qr_scan", "ios": "https://dc.lft.to/lastmile_qr_scan"}, "name": "86860ee4c1bc885290eb67d688061406", "is_reserved": 0}, {"is_disabled": 0, "fusion_lon": 0.0, "fusion_lat": 0.0, "lat": 38.87496816666667, "type": "electric_scooter", "lon": -76.9979835, "bike_id": "b856a9f31967eda51908c93c341f7a52", "rental_uris": {"android": "https://dc.lft.to/lastmile_qr_scan", "ios": "https://dc.lft.to/lastmile_qr_scan"}, "name": "b856a9f31967eda51908c93c341f7a52", "is_reserved": 0}, {"is_disabled": 0, "fusion_lon": 0.0, "fusion_lat": 0.0, "lat": 38.86468133333333, "type": "electric_scooter", "lon": -76.99607316666666, "bike_id": "7dd8da42b6548222424cb492b4b4df24", "rental_uris": {"android": "https://dc.lft.to/lastmile_qr_scan", "ios": "https://dc.lft.to/lastmile_qr_scan"}, "name": "7dd8da42b6548222424cb492b4b4df24", "is_reserved": 0}, {"is_disabled": 0, "fusion_lon": 0.0, "fusion_lat": 0.0, "lat": 38.9214115, "type": "electric_scooter", "lon": -77.00917566666666, "bike_id": "e88ec5f0ee27923d8de720cac4f64700", "rental_uris": {"android": "https://dc.lft.to/lastmile_qr_scan", "ios": "https://dc.lft.to/lastmile_qr_scan"}, "name": "e88ec5f0ee27923d8de720cac4f64700", "is_reserved": 0}, {"is_disabled": 0, "fusion_lon": 0.0, "fusion_lat": 0.0, "lat": 38.9291385, "type": "electric_scooter", "lon": -77.02156666666667, "bike_id": "9c94fc1a18549b8fa603b7ec2b20f63c", "rental_uris": {"android": "https://dc.lft.to/lastmile_qr_scan", "ios": "https://dc.lft.to/lastmile_qr_scan"}, "name": "9c94fc1a18549b8fa603b7ec2b20f63c", "is_reserved": 0}, {"is_disabled": 0, "fusion_lon": 0.0, "fusion_lat": 0.0, "lat": 38.9274945, "type": "electric_scooter", "lon": -77.02486066666667, "bike_id": "0731f7ea5c84232bc4be04178588bbc4", "rental_uris": {"android": "https://dc.lft.to/lastmile_qr_scan", "ios": "https://dc.lft.to/lastmile_qr_scan"}, "name": "0731f7ea5c84232bc4be04178588bbc4", "is_reserved": 0}, {"is_disabled": 0, "fusion_lon": 0.0, "fusion_lat": 0.0, "lat": 38.93095483333333, "type": "electric_scooter", "lon": -77.025016, "bike_id": "a5697ac9701c3a7cacc482c2211b2f1d", "rental_uris": {"android": "https://dc.lft.to/lastmile_qr_scan", "ios": "https://dc.lft.to/lastmile_qr_scan"}, "name": "a5697ac9701c3a7cacc482c2211b2f1d", "is_reserved": 0}, {"is_disabled": 0, "fusion_lon": 0.0, "fusion_lat": 0.0, "lat": 38.90877066666667, "type": "electric_scooter", "lon": -77.07636816666667, "bike_id": "5ae025e8b6465d989b00b8b38cf93028", "rental_uris": {"android": "https://dc.lft.to/lastmile_qr_scan", "ios": "https://dc.lft.to/lastmile_qr_scan"}, "name": "5ae025e8b6465d989b00b8b38cf93028", "is_reserved": 0}, {"is_disabled": 0, "fusion_lon": 0.0, "fusion_lat": 0.0, "lat": 38.89743466666667, "type": "electric_scooter", "lon": -77.0031625, "bike_id": "cc84bf6df4d89a87d3920d8cf2163edb", "rental_uris": {"android": "https://dc.lft.to/lastmile_qr_scan", "ios": "https://dc.lft.to/lastmile_qr_scan"}, "name": "cc84bf6df4d89a87d3920d8cf2163edb", "is_reserved": 0}, {"is_disabled": 0, "fusion_lon": 0.0, "fusion_lat": 0.0, "lat": 38.908395666666664, "type": "electric_scooter", "lon": -77.02693833333333, "bike_id": "e68a11809bf5cc7ba5da268020e428f7", "rental_uris": {"android": "https://dc.lft.to/lastmile_qr_scan", "ios": "https://dc.lft.to/lastmile_qr_scan"}, "name": "e68a11809bf5cc7ba5da268020e428f7", "is_reserved": 0}, {"is_disabled": 0, "fusion_lon": 0.0, "fusion_lat": 0.0, "lat": 38.914033333333336, "type": "electric_scooter", "lon": -77.00331316666667, "bike_id": "8752bc6b88c2dc14a26a400475592aa9", "rental_uris": {"android": "https://dc.lft.to/lastmile_qr_scan", "ios": "https://dc.lft.to/lastmile_qr_scan"}, "name": "8752bc6b88c2dc14a26a400475592aa9", "is_reserved": 0}, {"is_disabled": 0, "fusion_lon": 0.0, "fusion_lat": 0.0, "lat": 38.944978, "type": "electric_bike", "lon": -76.98656966666667, "bike_id": "359b86c3edcd166b232f6acbc6b82819", "rental_uris": {"android": "https://dc.lft.to/lastmile_qr_scan", "ios": "https://dc.lft.to/lastmile_qr_scan"}, "name": "359b86c3edcd166b232f6acbc6b82819", "is_reserved": 0}, {"is_disabled": 0, "fusion_lon": 0.0, "fusion_lat": 0.0, "lat": 38.930572166666664, "type": "electric_scooter", "lon": -77.02799116666667, "bike_id": "33f715a0c841809371aeab60286ff950", "rental_uris": {"android": "https://dc.lft.to/lastmile_qr_scan", "ios": "https://dc.lft.to/lastmile_qr_scan"}, "name": "33f715a0c841809371aeab60286ff950", "is_reserved": 0}, {"is_disabled": 0, "fusion_lon": 0.0, "fusion_lat": 0.0, "lat": 38.91784833333333, "type": "electric_scooter", "lon": -77.04300116666667, "bike_id": "a43001b6b67a47b7a9e456bc06dbb92c", "rental_uris": {"android": "https://dc.lft.to/lastmile_qr_scan", "ios": "https://dc.lft.to/lastmile_qr_scan"}, "name": "a43001b6b67a47b7a9e456bc06dbb92c", "is_reserved": 0}, {"is_disabled": 0, "fusion_lon": 0.0, "fusion_lat": 0.0, "lat": 38.885801666666666, "type": "electric_scooter", "lon": -76.91911383333333, "bike_id": "ee9e2011f737127587a1469df2f9fd6b", "rental_uris": {"android": "https://dc.lft.to/lastmile_qr_scan", "ios": "https://dc.lft.to/lastmile_qr_scan"}, "name": "ee9e2011f737127587a1469df2f9fd6b", "is_reserved": 0}, {"is_disabled": 0, "fusion_lon": 0.0, "fusion_lat": 0.0, "lat": 38.88757533333333, "type": "electric_scooter", "lon": -77.03387166666667, "bike_id": "92f4fbb0fd612d9cb1b16f8e39247a13", "rental_uris": {"android": "https://dc.lft.to/lastmile_qr_scan", "ios": "https://dc.lft.to/lastmile_qr_scan"}, "name": "92f4fbb0fd612d9cb1b16f8e39247a13", "is_reserved": 0}, {"is_disabled": 0, "fusion_lon": 0.0, "fusion_lat": 0.0, "lat": 38.91886183333333, "type": "electric_scooter", "lon": -77.03514433333333, "bike_id": "d15c56015f4e68e69514d5fe8d37c4ac", "rental_uris": {"android": "https://dc.lft.to/lastmile_qr_scan", "ios": "https://dc.lft.to/lastmile_qr_scan"}, "name": "d15c56015f4e68e69514d5fe8d37c4ac", "is_reserved": 0}, {"is_disabled": 0, "fusion_lon": 0.0, "fusion_lat": 0.0, "lat": 39.058141, "type": "electric_bike", "lon": -77.12628416666666, "bike_id": "afd15b93596a95a52e1310e362ea3eb3", "rental_uris": {"android": "https://dc.lft.to/lastmile_qr_scan", "ios": "https://dc.lft.to/lastmile_qr_scan"}, "name": "afd15b93596a95a52e1310e362ea3eb3", "is_reserved": 0}, {"is_disabled": 0, "fusion_lon": 0.0, "fusion_lat": 0.0, "lat": 38.876744333333335, "type": "electric_bike", "lon": -77.01440683333334, "bike_id": "42a40750e1792b166bff24ae4322d8b8", "rental_uris": {"android": "https://dc.lft.to/lastmile_qr_scan", "ios": "https://dc.lft.to/lastmile_qr_scan"}, "name": "42a40750e1792b166bff24ae4322d8b8", "is_reserved": 0}, {"is_disabled": 0, "fusion_lon": 0.0, "fusion_lat": 0.0, "lat": 38.941607833333336, "type": "electric_bike", "lon": -77.0019105, "bike_id": "1469629dce1faed6ff0cd585d2ced6ce", "rental_uris": {"android": "https://dc.lft.to/lastmile_qr_scan", "ios": "https://dc.lft.to/lastmile_qr_scan"}, "name": "1469629dce1faed6ff0cd585d2ced6ce", "is_reserved": 0}, {"is_disabled": 0, "fusion_lon": 0.0, "fusion_lat": 0.0, "lat": 38.92660033333333, "type": "electric_scooter", "lon": -77.02431666666666, "bike_id": "4bfc30633bb6b5459eea0aec4d87b022", "rental_uris": {"android": "https://dc.lft.to/lastmile_qr_scan", "ios": "https://dc.lft.to/lastmile_qr_scan"}, "name": "4bfc30633bb6b5459eea0aec4d87b022", "is_reserved": 0}, {"is_disabled": 0, "fusion_lon": 0.0, "fusion_lat": 0.0, "lat": 38.9228765, "type": "electric_scooter", "lon": -77.0403085, "bike_id": "852610575b3986a9b0b3c6cd4f5cb88a", "rental_uris": {"android": "https://dc.lft.to/lastmile_qr_scan", "ios": "https://dc.lft.to/lastmile_qr_scan"}, "name": "852610575b3986a9b0b3c6cd4f5cb88a", "is_reserved": 0}, {"is_disabled": 0, "fusion_lon": 0.0, "fusion_lat": 0.0, "lat": 38.905102, "type": "electric_scooter", "lon": -77.0261325, "bike_id": "5caa788b9cbc337bbdc47d4c58b1aeb4", "rental_uris": {"android": "https://dc.lft.to/lastmile_qr_scan", "ios": "https://dc.lft.to/lastmile_qr_scan"}, "name": "5caa788b9cbc337bbdc47d4c58b1aeb4", "is_reserved": 0}, {"is_disabled": 0, "fusion_lon": 0.0, "fusion_lat": 0.0, "lat": 38.90367916666667, "type": "electric_scooter", "lon": -77.02537883333333, "bike_id": "84e8d568e1827798d0f56ac2aca1eae3", "rental_uris": {"android": "https://dc.lft.to/lastmile_qr_scan", "ios": "https://dc.lft.to/lastmile_qr_scan"}, "name": "84e8d568e1827798d0f56ac2aca1eae3", "is_reserved": 0}, {"is_disabled": 0, "fusion_lon": 0.0, "fusion_lat": 0.0, "lat": 38.90310766666666, "type": "electric_scooter", "lon": -76.98245616666667, "bike_id": "fcd1aed24b0c79a907a66a2307079fee", "rental_uris": {"android": "https://dc.lft.to/lastmile_qr_scan", "ios": "https://dc.lft.to/lastmile_qr_scan"}, "name": "fcd1aed24b0c79a907a66a2307079fee", "is_reserved": 0}, {"is_disabled": 0, "fusion_lon": 0.0, "fusion_lat": 0.0, "lat": 38.89842483333334, "type": "electric_scooter", "lon": -76.94635333333333, "bike_id": "b9d0a30f78b7fc09ade8a74f09668037", "rental_uris": {"android": "https://dc.lft.to/lastmile_qr_scan", "ios": "https://dc.lft.to/lastmile_qr_scan"}, "name": "b9d0a30f78b7fc09ade8a74f09668037", "is_reserved": 0}, {"is_disabled": 0, "fusion_lon": 0.0, "fusion_lat": 0.0, "lat": 38.8733795, "type": "electric_bike", "lon": -77.01859366666666, "bike_id": "7af01918be46f9e8141579662a73f7ef", "rental_uris": {"android": "https://dc.lft.to/lastmile_qr_scan", "ios": "https://dc.lft.to/lastmile_qr_scan"}, "name": "7af01918be46f9e8141579662a73f7ef", "is_reserved": 0}, {"is_disabled": 0, "fusion_lon": 0.0, "fusion_lat": 0.0, "lat": 38.92796083333333, "type": "electric_scooter", "lon": -77.03146666666666, "bike_id": "190805804e92d30d64464cee67bf8551", "rental_uris": {"android": "https://dc.lft.to/lastmile_qr_scan", "ios": "https://dc.lft.to/lastmile_qr_scan"}, "name": "190805804e92d30d64464cee67bf8551", "is_reserved": 0}, {"is_disabled": 0, "fusion_lon": 0.0, "fusion_lat": 0.0, "lat": 38.95094533333334, "type": "electric_bike", "lon": -76.96562083333333, "bike_id": "6cbd1195eab1ff14a224f38d9502f582", "rental_uris": {"android": "https://dc.lft.to/lastmile_qr_scan", "ios": "https://dc.lft.to/lastmile_qr_scan"}, "name": "6cbd1195eab1ff14a224f38d9502f582", "is_reserved": 0}, {"is_disabled": 0, "fusion_lon": 0.0, "fusion_lat": 0.0, "lat": 38.90802266666667, "type": "electric_scooter", "lon": -77.04082216666667, "bike_id": "e74a82f649ee6f21b165c26e27c4b797", "rental_uris": {"android": "https://dc.lft.to/lastmile_qr_scan", "ios": "https://dc.lft.to/lastmile_qr_scan"}, "name": "e74a82f649ee6f21b165c26e27c4b797", "is_reserved": 0}, {"is_disabled": 0, "fusion_lon": 0.0, "fusion_lat": 0.0, "lat": 38.91256383333333, "type": "electric_scooter", "lon": -77.009331, "bike_id": "043c55bbd0844518fffa319676b39490", "rental_uris": {"android": "https://dc.lft.to/lastmile_qr_scan", "ios": "https://dc.lft.to/lastmile_qr_scan"}, "name": "043c55bbd0844518fffa319676b39490", "is_reserved": 0}, {"is_disabled": 0, "fusion_lon": 0.0, "fusion_lat": 0.0, "lat": 38.90031583333333, "type": "electric_scooter", "lon": -77.04691466666667, "bike_id": "bb981ad6fdb9db896438203a296334ef", "rental_uris": {"android": "https://dc.lft.to/lastmile_qr_scan", "ios": "https://dc.lft.to/lastmile_qr_scan"}, "name": "bb981ad6fdb9db896438203a296334ef", "is_reserved": 0}, {"is_disabled": 0, "fusion_lon": 0.0, "fusion_lat": 0.0, "lat": 38.8939445, "type": "electric_scooter", "lon": -76.94999, "bike_id": "56ec1f53dd4e3e504f74dbe19ba53686", "rental_uris": {"android": "https://dc.lft.to/lastmile_qr_scan", "ios": "https://dc.lft.to/lastmile_qr_scan"}, "name": "56ec1f53dd4e3e504f74dbe19ba53686", "is_reserved": 0}, {"is_disabled": 0, "fusion_lon": 0.0, "fusion_lat": 0.0, "lat": 39.054602, "type": "electric_bike", "lon": -77.14327183333333, "bike_id": "f71c0db350d7694f8ddd9d25ceaca3b4", "rental_uris": {"android": "https://dc.lft.to/lastmile_qr_scan", "ios": "https://dc.lft.to/lastmile_qr_scan"}, "name": "f71c0db350d7694f8ddd9d25ceaca3b4", "is_reserved": 0}, {"is_disabled": 0, "fusion_lon": 0.0, "fusion_lat": 0.0, "lat": 38.924773, "type": "electric_scooter", "lon": -77.03787866666667, "bike_id": "fddcf474b87ed53365fb15019fd717bc", "rental_uris": {"android": "https://dc.lft.to/lastmile_qr_scan", "ios": "https://dc.lft.to/lastmile_qr_scan"}, "name": "fddcf474b87ed53365fb15019fd717bc", "is_reserved": 0}, {"is_disabled": 0, "fusion_lon": 0.0, "fusion_lat": 0.0, "lat": 38.888523, "type": "electric_bike", "lon": -76.9770395, "bike_id": "15fff99d67abba4ff1b900c0e219d4bd", "rental_uris": {"android": "https://dc.lft.to/lastmile_qr_scan", "ios": "https://dc.lft.to/lastmile_qr_scan"}, "name": "15fff99d67abba4ff1b900c0e219d4bd", "is_reserved": 0}, {"is_disabled": 0, "fusion_lon": 0.0, "fusion_lat": 0.0, "lat": 38.8960775, "type": "electric_scooter", "lon": -77.00925983333333, "bike_id": "7e03a6c6339a6dbc7f155cf64f8d391e", "rental_uris": {"android": "https://dc.lft.to/lastmile_qr_scan", "ios": "https://dc.lft.to/lastmile_qr_scan"}, "name": "7e03a6c6339a6dbc7f155cf64f8d391e", "is_reserved": 0}, {"is_disabled": 0, "fusion_lon": 0.0, "fusion_lat": 0.0, "lat": 38.90853716666667, "type": "electric_scooter", "lon": -77.05507366666667, "bike_id": "f4eb7719a7eaa2cb781e36c11ee53397", "rental_uris": {"android": "https://dc.lft.to/lastmile_qr_scan", "ios": "https://dc.lft.to/lastmile_qr_scan"}, "name": "f4eb7719a7eaa2cb781e36c11ee53397", "is_reserved": 0}, {"is_disabled": 0, "fusion_lon": 0.0, "fusion_lat": 0.0, "lat": 38.902682, "type": "electric_scooter", "lon": -77.00328516666667, "bike_id": "38eda38640ee3a18344bf1d7c7268a55", "rental_uris": {"android": "https://dc.lft.to/lastmile_qr_scan", "ios": "https://dc.lft.to/lastmile_qr_scan"}, "name": "38eda38640ee3a18344bf1d7c7268a55", "is_reserved": 0}, {"is_disabled": 0, "fusion_lon": 0.0, "fusion_lat": 0.0, "lat": 38.8874685, "type": "electric_scooter", "lon": -77.0142875, "bike_id": "e83ec19132674b3748b2cc5ea6849f0b", "rental_uris": {"android": "https://dc.lft.to/lastmile_qr_scan", "ios": "https://dc.lft.to/lastmile_qr_scan"}, "name": "e83ec19132674b3748b2cc5ea6849f0b", "is_reserved": 0}, {"is_disabled": 0, "fusion_lon": 0.0, "fusion_lat": 0.0, "lat": 38.884389166666665, "type": "electric_scooter", "lon": -77.02969583333334, "bike_id": "1cc41c7415a4c8e2fb580c0aca5ae216", "rental_uris": {"android": "https://dc.lft.to/lastmile_qr_scan", "ios": "https://dc.lft.to/lastmile_qr_scan"}, "name": "1cc41c7415a4c8e2fb580c0aca5ae216", "is_reserved": 0}, {"is_disabled": 0, "fusion_lon": 0.0, "fusion_lat": 0.0, "lat": 38.90559283333333, "type": "electric_scooter", "lon": -76.98147916666667, "bike_id": "9bb98d00af6f667c62ba1e4b927aab38", "rental_uris": {"android": "https://dc.lft.to/lastmile_qr_scan", "ios": "https://dc.lft.to/lastmile_qr_scan"}, "name": "9bb98d00af6f667c62ba1e4b927aab38", "is_reserved": 0}, {"is_disabled": 0, "fusion_lon": 0.0, "fusion_lat": 0.0, "lat": 38.946058666666666, "type": "electric_bike", "lon": -77.34412333333333, "bike_id": "6a0485eee4ba1c39b929617c2cf1e116", "rental_uris": {"android": "https://dc.lft.to/lastmile_qr_scan", "ios": "https://dc.lft.to/lastmile_qr_scan"}, "name": "6a0485eee4ba1c39b929617c2cf1e116", "is_reserved": 0}, {"is_disabled": 0, "fusion_lon": 0.0, "fusion_lat": 0.0, "lat": 38.9255445, "type": "electric_scooter", "lon": -77.02567766666667, "bike_id": "27d7c65e1b04f1d040bfaee1282ac192", "rental_uris": {"android": "https://dc.lft.to/lastmile_qr_scan", "ios": "https://dc.lft.to/lastmile_qr_scan"}, "name": "27d7c65e1b04f1d040bfaee1282ac192", "is_reserved": 0}, {"is_disabled": 0, "fusion_lon": 0.0, "fusion_lat": 0.0, "lat": 38.918123666666666, "type": "electric_scooter", "lon": -77.02403566666666, "bike_id": "3643b4be98c98ead3e1ceeba8339807b", "rental_uris": {"android": "https://dc.lft.to/lastmile_qr_scan", "ios": "https://dc.lft.to/lastmile_qr_scan"}, "name": "3643b4be98c98ead3e1ceeba8339807b", "is_reserved": 0}, {"is_disabled": 0, "fusion_lon": 0.0, "fusion_lat": 0.0, "lat": 38.906728, "type": "electric_scooter", "lon": -77.027207, "bike_id": "474c6a865916f83ac0c25537a875d1e7", "rental_uris": {"android": "https://dc.lft.to/lastmile_qr_scan", "ios": "https://dc.lft.to/lastmile_qr_scan"}, "name": "474c6a865916f83ac0c25537a875d1e7", "is_reserved": 0}, {"is_disabled": 0, "fusion_lon": 0.0, "fusion_lat": 0.0, "lat": 38.92826266666667, "type": "electric_scooter", "lon": -77.022549, "bike_id": "8aa08658516dc33827e46e065419c06e", "rental_uris": {"android": "https://dc.lft.to/lastmile_qr_scan", "ios": "https://dc.lft.to/lastmile_qr_scan"}, "name": "8aa08658516dc33827e46e065419c06e", "is_reserved": 0}, {"is_disabled": 0, "fusion_lon": 0.0, "fusion_lat": 0.0, "lat": 38.86958666666666, "type": "electric_scooter", "lon": -76.97938666666667, "bike_id": "7d44be558cd09458ac70ccd796cf883c", "rental_uris": {"android": "https://dc.lft.to/lastmile_qr_scan", "ios": "https://dc.lft.to/lastmile_qr_scan"}, "name": "7d44be558cd09458ac70ccd796cf883c", "is_reserved": 0}, {"is_disabled": 0, "fusion_lon": 0.0, "fusion_lat": 0.0, "lat": 38.92897216666667, "type": "electric_scooter", "lon": -77.02402366666666, "bike_id": "3d5bd26e1c5d01d31f44cbc4ca87ca96", "rental_uris": {"android": "https://dc.lft.to/lastmile_qr_scan", "ios": "https://dc.lft.to/lastmile_qr_scan"}, "name": "3d5bd26e1c5d01d31f44cbc4ca87ca96", "is_reserved": 0}, {"is_disabled": 0, "fusion_lon": 0.0, "fusion_lat": 0.0, "lat": 38.925313333333335, "type": "electric_scooter", "lon": -77.0733065, "bike_id": "1103ca12a0362d40f401a47995c00e10", "rental_uris": {"android": "https://dc.lft.to/lastmile_qr_scan", "ios": "https://dc.lft.to/lastmile_qr_scan"}, "name": "1103ca12a0362d40f401a47995c00e10", "is_reserved": 0}, {"is_disabled": 0, "fusion_lon": 0.0, "fusion_lat": 0.0, "lat": 38.89790033333333, "type": "electric_scooter", "lon": -77.024823, "bike_id": "55149a09624e0eee1a5ad6153f0bf612", "rental_uris": {"android": "https://dc.lft.to/lastmile_qr_scan", "ios": "https://dc.lft.to/lastmile_qr_scan"}, "name": "55149a09624e0eee1a5ad6153f0bf612", "is_reserved": 0}, {"is_disabled": 0, "fusion_lon": 0.0, "fusion_lat": 0.0, "lat": 38.905127, "type": "electric_scooter", "lon": -77.04363683333334, "bike_id": "defc03bc603764b640590277bd548ac4", "rental_uris": {"android": "https://dc.lft.to/lastmile_qr_scan", "ios": "https://dc.lft.to/lastmile_qr_scan"}, "name": "defc03bc603764b640590277bd548ac4", "is_reserved": 0}, {"is_disabled": 0, "fusion_lon": 0.0, "fusion_lat": 0.0, "lat": 38.95691983333333, "type": "electric_scooter", "lon": -77.023926, "bike_id": "956d8df84c44af4566634e83f1f9be61", "rental_uris": {"android": "https://dc.lft.to/lastmile_qr_scan", "ios": "https://dc.lft.to/lastmile_qr_scan"}, "name": "956d8df84c44af4566634e83f1f9be61", "is_reserved": 0}, {"is_disabled": 0, "fusion_lon": 0.0, "fusion_lat": 0.0, "lat": 38.941812666666664, "type": "electric_scooter", "lon": -77.03655783333333, "bike_id": "42dd306228615d0cb8eb67362c8d203f", "rental_uris": {"android": "https://dc.lft.to/lastmile_qr_scan", "ios": "https://dc.lft.to/lastmile_qr_scan"}, "name": "42dd306228615d0cb8eb67362c8d203f", "is_reserved": 0}, {"is_disabled": 0, "fusion_lon": 0.0, "fusion_lat": 0.0, "lat": 38.907563, "type": "electric_scooter", "lon": -77.007463, "bike_id": "dcf7442afb2ac09fe9d0101afc92b66f", "rental_uris": {"android": "https://dc.lft.to/lastmile_qr_scan", "ios": "https://dc.lft.to/lastmile_qr_scan"}, "name": "dcf7442afb2ac09fe9d0101afc92b66f", "is_reserved": 0}, {"is_disabled": 0, "fusion_lon": 0.0, "fusion_lat": 0.0, "lat": 38.91812516666667, "type": "electric_scooter", "lon": -77.03807233333333, "bike_id": "e01f891f046bb4ef177d972f1e05a23b", "rental_uris": {"android": "https://dc.lft.to/lastmile_qr_scan", "ios": "https://dc.lft.to/lastmile_qr_scan"}, "name": "e01f891f046bb4ef177d972f1e05a23b", "is_reserved": 0}, {"is_disabled": 0, "fusion_lon": 0.0, "fusion_lat": 0.0, "lat": 38.92924566666667, "type": "electric_scooter", "lon": -77.03176766666667, "bike_id": "fac5fff8f4eb520ed8c74c3ced38595a", "rental_uris": {"android": "https://dc.lft.to/lastmile_qr_scan", "ios": "https://dc.lft.to/lastmile_qr_scan"}, "name": "fac5fff8f4eb520ed8c74c3ced38595a", "is_reserved": 0}, {"is_disabled": 0, "fusion_lon": 0.0, "fusion_lat": 0.0, "lat": 38.87672233333333, "type": "electric_bike", "lon": -77.014543, "bike_id": "86bdc9e03432f6903c180a988239f337", "rental_uris": {"android": "https://dc.lft.to/lastmile_qr_scan", "ios": "https://dc.lft.to/lastmile_qr_scan"}, "name": "86bdc9e03432f6903c180a988239f337", "is_reserved": 0}, {"is_disabled": 0, "fusion_lon": 0.0, "fusion_lat": 0.0, "lat": 38.89649566666667, "type": "electric_scooter", "lon": -77.043465, "bike_id": "f706eaad62f556bb78508f2d4b332eaf", "rental_uris": {"android": "https://dc.lft.to/lastmile_qr_scan", "ios": "https://dc.lft.to/lastmile_qr_scan"}, "name": "f706eaad62f556bb78508f2d4b332eaf", "is_reserved": 0}, {"is_disabled": 0, "fusion_lon": 0.0, "fusion_lat": 0.0, "lat": 38.92571266666667, "type": "electric_scooter", "lon": -77.05261433333334, "bike_id": "e4e89ef97a249405a0c3fae83ec67ec9", "rental_uris": {"android": "https://dc.lft.to/lastmile_qr_scan", "ios": "https://dc.lft.to/lastmile_qr_scan"}, "name": "e4e89ef97a249405a0c3fae83ec67ec9", "is_reserved": 0}, {"is_disabled": 0, "fusion_lon": 0.0, "fusion_lat": 0.0, "lat": 38.918081, "type": "electric_scooter", "lon": -77.03435733333333, "bike_id": "431fe88e40d7f2a9b18d7da60e53e3e8", "rental_uris": {"android": "https://dc.lft.to/lastmile_qr_scan", "ios": "https://dc.lft.to/lastmile_qr_scan"}, "name": "431fe88e40d7f2a9b18d7da60e53e3e8", "is_reserved": 0}, {"is_disabled": 0, "fusion_lon": 0.0, "fusion_lat": 0.0, "lat": 38.90260983333334, "type": "electric_scooter", "lon": -77.0540785, "bike_id": "f2a4098f74515b5fd7dd8f8e9731b4e2", "rental_uris": {"android": "https://dc.lft.to/lastmile_qr_scan", "ios": "https://dc.lft.to/lastmile_qr_scan"}, "name": "f2a4098f74515b5fd7dd8f8e9731b4e2", "is_reserved": 0}, {"is_disabled": 0, "fusion_lon": 0.0, "fusion_lat": 0.0, "lat": 38.88373333333333, "type": "electric_scooter", "lon": -76.923776, "bike_id": "3e78c4872e53d2852f12523000423ae6", "rental_uris": {"android": "https://dc.lft.to/lastmile_qr_scan", "ios": "https://dc.lft.to/lastmile_qr_scan"}, "name": "3e78c4872e53d2852f12523000423ae6", "is_reserved": 0}, {"is_disabled": 0, "fusion_lon": 0.0, "fusion_lat": 0.0, "lat": 38.916340166666664, "type": "electric_scooter", "lon": -77.0407825, "bike_id": "bddb8e628da40497b673cbe7439e924b", "rental_uris": {"android": "https://dc.lft.to/lastmile_qr_scan", "ios": "https://dc.lft.to/lastmile_qr_scan"}, "name": "bddb8e628da40497b673cbe7439e924b", "is_reserved": 0}, {"is_disabled": 0, "fusion_lon": 0.0, "fusion_lat": 0.0, "lat": 38.916283666666665, "type": "electric_scooter", "lon": -77.03189316666666, "bike_id": "4edda568257107d213f3e11aa2d6c6d7", "rental_uris": {"android": "https://dc.lft.to/lastmile_qr_scan", "ios": "https://dc.lft.to/lastmile_qr_scan"}, "name": "4edda568257107d213f3e11aa2d6c6d7", "is_reserved": 0}, {"is_disabled": 0, "fusion_lon": 0.0, "fusion_lat": 0.0, "lat": 38.907163, "type": "electric_scooter", "lon": -77.02885883333333, "bike_id": "0743cb9a6b3fd5f5baf27f743438c77f", "rental_uris": {"android": "https://dc.lft.to/lastmile_qr_scan", "ios": "https://dc.lft.to/lastmile_qr_scan"}, "name": "0743cb9a6b3fd5f5baf27f743438c77f", "is_reserved": 0}, {"is_disabled": 0, "fusion_lon": 0.0, "fusion_lat": 0.0, "lat": 38.910918833333334, "type": "electric_bike", "lon": -77.08767316666666, "bike_id": "3dcfece9b5b9b953f5fb81f5d74180dd", "rental_uris": {"android": "https://dc.lft.to/lastmile_qr_scan", "ios": "https://dc.lft.to/lastmile_qr_scan"}, "name": "3dcfece9b5b9b953f5fb81f5d74180dd", "is_reserved": 0}, {"is_disabled": 0, "fusion_lon": 0.0, "fusion_lat": 0.0, "lat": 38.9451875, "type": "electric_scooter", "lon": -77.029814, "bike_id": "136cdb8291dc2c9eb7bf90333dfd73a4", "rental_uris": {"android": "https://dc.lft.to/lastmile_qr_scan", "ios": "https://dc.lft.to/lastmile_qr_scan"}, "name": "136cdb8291dc2c9eb7bf90333dfd73a4", "is_reserved": 0}, {"is_disabled": 0, "fusion_lon": 0.0, "fusion_lat": 0.0, "lat": 38.8939475, "type": "electric_scooter", "lon": -76.94990783333333, "bike_id": "d621bc2bd1706773547985e5b156563b", "rental_uris": {"android": "https://dc.lft.to/lastmile_qr_scan", "ios": "https://dc.lft.to/lastmile_qr_scan"}, "name": "d621bc2bd1706773547985e5b156563b", "is_reserved": 0}, {"is_disabled": 0, "fusion_lon": 0.0, "fusion_lat": 0.0, "lat": 38.911987, "type": "electric_scooter", "lon": -77.03719816666667, "bike_id": "f9a3e40c2543666ecfc5402e4cd44071", "rental_uris": {"android": "https://dc.lft.to/lastmile_qr_scan", "ios": "https://dc.lft.to/lastmile_qr_scan"}, "name": "f9a3e40c2543666ecfc5402e4cd44071", "is_reserved": 0}, {"is_disabled": 0, "fusion_lon": 0.0, "fusion_lat": 0.0, "lat": 38.90334283333333, "type": "electric_scooter", "lon": -76.9759325, "bike_id": "7a2dedeea3801aaba9c272ec5cfafede", "rental_uris": {"android": "https://dc.lft.to/lastmile_qr_scan", "ios": "https://dc.lft.to/lastmile_qr_scan"}, "name": "7a2dedeea3801aaba9c272ec5cfafede", "is_reserved": 0}, {"is_disabled": 0, "fusion_lon": 0.0, "fusion_lat": 0.0, "lat": 38.90533883333333, "type": "electric_scooter", "lon": -77.06780333333333, "bike_id": "57778ee1507ca5ff7b85cabf1f0650bd", "rental_uris": {"android": "https://dc.lft.to/lastmile_qr_scan", "ios": "https://dc.lft.to/lastmile_qr_scan"}, "name": "57778ee1507ca5ff7b85cabf1f0650bd", "is_reserved": 0}, {"is_disabled": 0, "fusion_lon": 0.0, "fusion_lat": 0.0, "lat": 38.905555666666665, "type": "electric_scooter", "lon": -77.04327166666667, "bike_id": "d9e6c7f208732b8f0f25bab8669cb2b3", "rental_uris": {"android": "https://dc.lft.to/lastmile_qr_scan", "ios": "https://dc.lft.to/lastmile_qr_scan"}, "name": "d9e6c7f208732b8f0f25bab8669cb2b3", "is_reserved": 0}, {"is_disabled": 0, "fusion_lon": 0.0, "fusion_lat": 0.0, "lat": 38.914206666666665, "type": "electric_scooter", "lon": -77.02563416666666, "bike_id": "a724b36ef9be01d6e28f9e8768b37f28", "rental_uris": {"android": "https://dc.lft.to/lastmile_qr_scan", "ios": "https://dc.lft.to/lastmile_qr_scan"}, "name": "a724b36ef9be01d6e28f9e8768b37f28", "is_reserved": 0}, {"is_disabled": 0, "fusion_lon": 0.0, "fusion_lat": 0.0, "lat": 38.917143833333334, "type": "electric_scooter", "lon": -77.09806916666666, "bike_id": "07a0ed3c08812157df55b3922e368642", "rental_uris": {"android": "https://dc.lft.to/lastmile_qr_scan", "ios": "https://dc.lft.to/lastmile_qr_scan"}, "name": "07a0ed3c08812157df55b3922e368642", "is_reserved": 0}, {"is_disabled": 0, "fusion_lon": 0.0, "fusion_lat": 0.0, "lat": 38.92164783333333, "type": "electric_scooter", "lon": -77.03393983333333, "bike_id": "efa0df34cb2df1f5564284ca3337ca5c", "rental_uris": {"android": "https://dc.lft.to/lastmile_qr_scan", "ios": "https://dc.lft.to/lastmile_qr_scan"}, "name": "efa0df34cb2df1f5564284ca3337ca5c", "is_reserved": 0}, {"is_disabled": 0, "fusion_lon": 0.0, "fusion_lat": 0.0, "lat": 39.026872166666664, "type": "electric_bike", "lon": -77.12598816666667, "bike_id": "139670bed93d78ae55935d99c7191102", "rental_uris": {"android": "https://dc.lft.to/lastmile_qr_scan", "ios": "https://dc.lft.to/lastmile_qr_scan"}, "name": "139670bed93d78ae55935d99c7191102", "is_reserved": 0}, {"is_disabled": 0, "fusion_lon": 0.0, "fusion_lat": 0.0, "lat": 38.903931, "type": "electric_scooter", "lon": -77.04880783333333, "bike_id": "3ce3baf22588c7d030ce49f3f3bf755e", "rental_uris": {"android": "https://dc.lft.to/lastmile_qr_scan", "ios": "https://dc.lft.to/lastmile_qr_scan"}, "name": "3ce3baf22588c7d030ce49f3f3bf755e", "is_reserved": 0}, {"is_disabled": 0, "fusion_lon": 0.0, "fusion_lat": 0.0, "lat": 38.914203666666666, "type": "electric_scooter", "lon": -77.0428785, "bike_id": "8c90a341757fce56b657c836e55ae9a7", "rental_uris": {"android": "https://dc.lft.to/lastmile_qr_scan", "ios": "https://dc.lft.to/lastmile_qr_scan"}, "name": "8c90a341757fce56b657c836e55ae9a7", "is_reserved": 0}, {"is_disabled": 0, "fusion_lon": 0.0, "fusion_lat": 0.0, "lat": 38.8898645, "type": "electric_scooter", "lon": -77.00247366666666, "bike_id": "4301bc0d197e3f5cb3b4d94a2e982b49", "rental_uris": {"android": "https://dc.lft.to/lastmile_qr_scan", "ios": "https://dc.lft.to/lastmile_qr_scan"}, "name": "4301bc0d197e3f5cb3b4d94a2e982b49", "is_reserved": 0}, {"is_disabled": 0, "fusion_lon": 0.0, "fusion_lat": 0.0, "lat": 38.906393333333334, "type": "electric_scooter", "lon": -76.9856035, "bike_id": "fa2d3ad2902dc18dacdcabaa47732958", "rental_uris": {"android": "https://dc.lft.to/lastmile_qr_scan", "ios": "https://dc.lft.to/lastmile_qr_scan"}, "name": "fa2d3ad2902dc18dacdcabaa47732958", "is_reserved": 0}, {"is_disabled": 0, "fusion_lon": 0.0, "fusion_lat": 0.0, "lat": 38.90132883333333, "type": "electric_scooter", "lon": -76.98962216666666, "bike_id": "ea2a3d46ffc91acdc69912a5ee67fb21", "rental_uris": {"android": "https://dc.lft.to/lastmile_qr_scan", "ios": "https://dc.lft.to/lastmile_qr_scan"}, "name": "ea2a3d46ffc91acdc69912a5ee67fb21", "is_reserved": 0}, {"is_disabled": 0, "fusion_lon": 0.0, "fusion_lat": 0.0, "lat": 38.9233205, "type": "electric_scooter", "lon": -77.03519533333333, "bike_id": "50d2c0d33bc7fd14e8a0a8479d23728f", "rental_uris": {"android": "https://dc.lft.to/lastmile_qr_scan", "ios": "https://dc.lft.to/lastmile_qr_scan"}, "name": "50d2c0d33bc7fd14e8a0a8479d23728f", "is_reserved": 0}, {"is_disabled": 0, "fusion_lon": 0.0, "fusion_lat": 0.0, "lat": 38.90257366666667, "type": "electric_scooter", "lon": -77.034621, "bike_id": "f13d399107275b17f2ee9726c40b900f", "rental_uris": {"android": "https://dc.lft.to/lastmile_qr_scan", "ios": "https://dc.lft.to/lastmile_qr_scan"}, "name": "f13d399107275b17f2ee9726c40b900f", "is_reserved": 0}, {"is_disabled": 0, "fusion_lon": 0.0, "fusion_lat": 0.0, "lat": 38.927379, "type": "electric_bike", "lon": -76.9936195, "bike_id": "9233d3141e9facc372e12c9e06a7a490", "rental_uris": {"android": "https://dc.lft.to/lastmile_qr_scan", "ios": "https://dc.lft.to/lastmile_qr_scan"}, "name": "9233d3141e9facc372e12c9e06a7a490", "is_reserved": 0}, {"is_disabled": 0, "fusion_lon": 0.0, "fusion_lat": 0.0, "lat": 38.95629816666667, "type": "electric_scooter", "lon": -77.02980433333333, "bike_id": "28db7ead927927793471148e0941ae56", "rental_uris": {"android": "https://dc.lft.to/lastmile_qr_scan", "ios": "https://dc.lft.to/lastmile_qr_scan"}, "name": "28db7ead927927793471148e0941ae56", "is_reserved": 0}, {"is_disabled": 0, "fusion_lon": 0.0, "fusion_lat": 0.0, "lat": 38.88147133333333, "type": "electric_scooter", "lon": -77.008835, "bike_id": "f1e76fa7058fe5bcd0dc9abd54e72e19", "rental_uris": {"android": "https://dc.lft.to/lastmile_qr_scan", "ios": "https://dc.lft.to/lastmile_qr_scan"}, "name": "f1e76fa7058fe5bcd0dc9abd54e72e19", "is_reserved": 0}, {"is_disabled": 0, "fusion_lon": 0.0, "fusion_lat": 0.0, "lat": 38.85984, "type": "electric_scooter", "lon": -76.98424983333334, "bike_id": "58a071dce3f0429a6d897bf5ceca0821", "rental_uris": {"android": "https://dc.lft.to/lastmile_qr_scan", "ios": "https://dc.lft.to/lastmile_qr_scan"}, "name": "58a071dce3f0429a6d897bf5ceca0821", "is_reserved": 0}, {"is_disabled": 0, "fusion_lon": 0.0, "fusion_lat": 0.0, "lat": 38.850693666666665, "type": "electric_bike", "lon": -76.97331783333334, "bike_id": "5850702b1e24a8ed8974551dc89990c9", "rental_uris": {"android": "https://dc.lft.to/lastmile_qr_scan", "ios": "https://dc.lft.to/lastmile_qr_scan"}, "name": "5850702b1e24a8ed8974551dc89990c9", "is_reserved": 0}, {"is_disabled": 0, "fusion_lon": 0.0, "fusion_lat": 0.0, "lat": 38.919035, "type": "electric_scooter", "lon": -77.02753783333333, "bike_id": "1e004987ad865ff2d100a48ab80ce8a8", "rental_uris": {"android": "https://dc.lft.to/lastmile_qr_scan", "ios": "https://dc.lft.to/lastmile_qr_scan"}, "name": "1e004987ad865ff2d100a48ab80ce8a8", "is_reserved": 0}, {"is_disabled": 0, "fusion_lon": 0.0, "fusion_lat": 0.0, "lat": 38.917945833333334, "type": "electric_scooter", "lon": -77.03545583333333, "bike_id": "9a5a97d925e8456e211d70fc5ae8b62d", "rental_uris": {"android": "https://dc.lft.to/lastmile_qr_scan", "ios": "https://dc.lft.to/lastmile_qr_scan"}, "name": "9a5a97d925e8456e211d70fc5ae8b62d", "is_reserved": 0}, {"is_disabled": 0, "fusion_lon": 0.0, "fusion_lat": 0.0, "lat": 38.92795366666667, "type": "electric_scooter", "lon": -77.0229785, "bike_id": "8c7c9ae7efee00c7a7057bacb8036c08", "rental_uris": {"android": "https://dc.lft.to/lastmile_qr_scan", "ios": "https://dc.lft.to/lastmile_qr_scan"}, "name": "8c7c9ae7efee00c7a7057bacb8036c08", "is_reserved": 0}, {"is_disabled": 0, "fusion_lon": 0.0, "fusion_lat": 0.0, "lat": 38.9049895, "type": "electric_scooter", "lon": -77.02962783333334, "bike_id": "339e1791a0c9e09ca153a9ee8a265d80", "rental_uris": {"android": "https://dc.lft.to/lastmile_qr_scan", "ios": "https://dc.lft.to/lastmile_qr_scan"}, "name": "339e1791a0c9e09ca153a9ee8a265d80", "is_reserved": 0}, {"is_disabled": 0, "fusion_lon": 0.0, "fusion_lat": 0.0, "lat": 38.937531166666666, "type": "electric_scooter", "lon": -77.02463566666667, "bike_id": "06cb09a71b9c34d9453bb0c341c317a2", "rental_uris": {"android": "https://dc.lft.to/lastmile_qr_scan", "ios": "https://dc.lft.to/lastmile_qr_scan"}, "name": "06cb09a71b9c34d9453bb0c341c317a2", "is_reserved": 0}, {"is_disabled": 0, "fusion_lon": 0.0, "fusion_lat": 0.0, "lat": 38.908425333333334, "type": "electric_scooter", "lon": -77.02695316666667, "bike_id": "285d5f0463eea8d5baf519bc70b6cd88", "rental_uris": {"android": "https://dc.lft.to/lastmile_qr_scan", "ios": "https://dc.lft.to/lastmile_qr_scan"}, "name": "285d5f0463eea8d5baf519bc70b6cd88", "is_reserved": 0}, {"is_disabled": 0, "fusion_lon": 0.0, "fusion_lat": 0.0, "lat": 38.92288516666667, "type": "electric_scooter", "lon": -77.04225216666667, "bike_id": "728732914b42b4d1fc0411c088710a47", "rental_uris": {"android": "https://dc.lft.to/lastmile_qr_scan", "ios": "https://dc.lft.to/lastmile_qr_scan"}, "name": "728732914b42b4d1fc0411c088710a47", "is_reserved": 0}, {"is_disabled": 0, "fusion_lon": 0.0, "fusion_lat": 0.0, "lat": 38.911157833333334, "type": "electric_scooter", "lon": -77.00338683333334, "bike_id": "818cf8949d4a761d6746fbdb102c2b96", "rental_uris": {"android": "https://dc.lft.to/lastmile_qr_scan", "ios": "https://dc.lft.to/lastmile_qr_scan"}, "name": "818cf8949d4a761d6746fbdb102c2b96", "is_reserved": 0}, {"is_disabled": 0, "fusion_lon": 0.0, "fusion_lat": 0.0, "lat": 38.915972333333336, "type": "electric_bike", "lon": -76.97152666666666, "bike_id": "4ec3ddb82bddaa07bc6c92aa32161a7e", "rental_uris": {"android": "https://dc.lft.to/lastmile_qr_scan", "ios": "https://dc.lft.to/lastmile_qr_scan"}, "name": "4ec3ddb82bddaa07bc6c92aa32161a7e", "is_reserved": 0}, {"is_disabled": 0, "fusion_lon": 0.0, "fusion_lat": 0.0, "lat": 38.9289335, "type": "electric_scooter", "lon": -77.02333116666667, "bike_id": "4903055efd9e8269e8b5e942ed03b2d1", "rental_uris": {"android": "https://dc.lft.to/lastmile_qr_scan", "ios": "https://dc.lft.to/lastmile_qr_scan"}, "name": "4903055efd9e8269e8b5e942ed03b2d1", "is_reserved": 0}, {"is_disabled": 0, "fusion_lon": 0.0, "fusion_lat": 0.0, "lat": 38.896106833333334, "type": "electric_scooter", "lon": -77.00908633333333, "bike_id": "9d3b47fdc781f1a43b2b67f8e2bba05c", "rental_uris": {"android": "https://dc.lft.to/lastmile_qr_scan", "ios": "https://dc.lft.to/lastmile_qr_scan"}, "name": "9d3b47fdc781f1a43b2b67f8e2bba05c", "is_reserved": 0}, {"is_disabled": 0, "fusion_lon": 0.0, "fusion_lat": 0.0, "lat": 38.9784205, "type": "electric_bike", "lon": -77.091302, "bike_id": "a97d829bab1344e2ea0b64dcc0e299e4", "rental_uris": {"android": "https://dc.lft.to/lastmile_qr_scan", "ios": "https://dc.lft.to/lastmile_qr_scan"}, "name": "a97d829bab1344e2ea0b64dcc0e299e4", "is_reserved": 0}, {"is_disabled": 0, "fusion_lon": 0.0, "fusion_lat": 0.0, "lat": 38.919974, "type": "electric_bike", "lon": -76.97310983333334, "bike_id": "387f439250e5523b4d3a4af054f15ccb", "rental_uris": {"android": "https://dc.lft.to/lastmile_qr_scan", "ios": "https://dc.lft.to/lastmile_qr_scan"}, "name": "387f439250e5523b4d3a4af054f15ccb", "is_reserved": 0}, {"is_disabled": 0, "fusion_lon": 0.0, "fusion_lat": 0.0, "lat": 38.9246125, "type": "electric_scooter", "lon": -77.029642, "bike_id": "22583fb6913bd066457d611e8b907117", "rental_uris": {"android": "https://dc.lft.to/lastmile_qr_scan", "ios": "https://dc.lft.to/lastmile_qr_scan"}, "name": "22583fb6913bd066457d611e8b907117", "is_reserved": 0}, {"is_disabled": 0, "fusion_lon": 0.0, "fusion_lat": 0.0, "lat": 38.901349, "type": "electric_scooter", "lon": -77.019673, "bike_id": "d3852bdbd5b3634e5fa61161e7fea9b0", "rental_uris": {"android": "https://dc.lft.to/lastmile_qr_scan", "ios": "https://dc.lft.to/lastmile_qr_scan"}, "name": "d3852bdbd5b3634e5fa61161e7fea9b0", "is_reserved": 0}, {"is_disabled": 0, "fusion_lon": 0.0, "fusion_lat": 0.0, "lat": 38.935496666666666, "type": "electric_scooter", "lon": -77.02221966666667, "bike_id": "5232bc5e6a718f602089feb666bff463", "rental_uris": {"android": "https://dc.lft.to/lastmile_qr_scan", "ios": "https://dc.lft.to/lastmile_qr_scan"}, "name": "5232bc5e6a718f602089feb666bff463", "is_reserved": 0}, {"is_disabled": 0, "fusion_lon": 0.0, "fusion_lat": 0.0, "lat": 38.8972855, "type": "electric_scooter", "lon": -77.02156633333334, "bike_id": "1c1060c4c991af4b1e2d3f17b47f3771", "rental_uris": {"android": "https://dc.lft.to/lastmile_qr_scan", "ios": "https://dc.lft.to/lastmile_qr_scan"}, "name": "1c1060c4c991af4b1e2d3f17b47f3771", "is_reserved": 0}, {"is_disabled": 0, "fusion_lon": 0.0, "fusion_lat": 0.0, "lat": 38.922833, "type": "electric_bike", "lon": -76.997802, "bike_id": "13427e447d200655f9f7f1592808f851", "rental_uris": {"android": "https://dc.lft.to/lastmile_qr_scan", "ios": "https://dc.lft.to/lastmile_qr_scan"}, "name": "13427e447d200655f9f7f1592808f851", "is_reserved": 0}, {"is_disabled": 0, "fusion_lon": 0.0, "fusion_lat": 0.0, "lat": 38.933756833333334, "type": "electric_scooter", "lon": -77.07252683333333, "bike_id": "924bb27d073af4a4c7b043dce04eb0ff", "rental_uris": {"android": "https://dc.lft.to/lastmile_qr_scan", "ios": "https://dc.lft.to/lastmile_qr_scan"}, "name": "924bb27d073af4a4c7b043dce04eb0ff", "is_reserved": 0}, {"is_disabled": 0, "fusion_lon": 0.0, "fusion_lat": 0.0, "lat": 38.917651, "type": "electric_scooter", "lon": -77.03576833333334, "bike_id": "84e20d0bf0db603c68aef5708d0d1488", "rental_uris": {"android": "https://dc.lft.to/lastmile_qr_scan", "ios": "https://dc.lft.to/lastmile_qr_scan"}, "name": "84e20d0bf0db603c68aef5708d0d1488", "is_reserved": 0}, {"is_disabled": 0, "fusion_lon": 0.0, "fusion_lat": 0.0, "lat": 38.935920833333334, "type": "electric_bike", "lon": -77.082455, "bike_id": "1ba17c485c35306c8fc3e023af67c8c8", "rental_uris": {"android": "https://dc.lft.to/lastmile_qr_scan", "ios": "https://dc.lft.to/lastmile_qr_scan"}, "name": "1ba17c485c35306c8fc3e023af67c8c8", "is_reserved": 0}, {"is_disabled": 0, "fusion_lon": 0.0, "fusion_lat": 0.0, "lat": 38.90415433333333, "type": "electric_scooter", "lon": -77.03255366666667, "bike_id": "48b22949215a1585cf49f26922a7cdaf", "rental_uris": {"android": "https://dc.lft.to/lastmile_qr_scan", "ios": "https://dc.lft.to/lastmile_qr_scan"}, "name": "48b22949215a1585cf49f26922a7cdaf", "is_reserved": 0}, {"is_disabled": 0, "fusion_lon": 0.0, "fusion_lat": 0.0, "lat": 38.9185575, "type": "electric_scooter", "lon": -77.03224583333333, "bike_id": "4889c317797684cda2c2c1b17a28a2da", "rental_uris": {"android": "https://dc.lft.to/lastmile_qr_scan", "ios": "https://dc.lft.to/lastmile_qr_scan"}, "name": "4889c317797684cda2c2c1b17a28a2da", "is_reserved": 0}, {"is_disabled": 0, "fusion_lon": 0.0, "fusion_lat": 0.0, "lat": 38.97542133333334, "type": "electric_bike", "lon": -76.9952625, "bike_id": "0677e6a159ec89fb5a3a98873b319615", "rental_uris": {"android": "https://dc.lft.to/lastmile_qr_scan", "ios": "https://dc.lft.to/lastmile_qr_scan"}, "name": "0677e6a159ec89fb5a3a98873b319615", "is_reserved": 0}, {"is_disabled": 0, "fusion_lon": 0.0, "fusion_lat": 0.0, "lat": 38.869084, "type": "electric_bike", "lon": -77.131759, "bike_id": "3bf0a7f9561b490cc01846e7f82848b3", "rental_uris": {"android": "https://dc.lft.to/lastmile_qr_scan", "ios": "https://dc.lft.to/lastmile_qr_scan"}, "name": "3bf0a7f9561b490cc01846e7f82848b3", "is_reserved": 0}, {"is_disabled": 0, "fusion_lon": 0.0, "fusion_lat": 0.0, "lat": 38.93007433333333, "type": "electric_scooter", "lon": -77.0220565, "bike_id": "a8d5a4f2850c74aa58566400d30db4b2", "rental_uris": {"android": "https://dc.lft.to/lastmile_qr_scan", "ios": "https://dc.lft.to/lastmile_qr_scan"}, "name": "a8d5a4f2850c74aa58566400d30db4b2", "is_reserved": 0}, {"is_disabled": 0, "fusion_lon": 0.0, "fusion_lat": 0.0, "lat": 38.8948605, "type": "electric_bike", "lon": -76.99522166666667, "bike_id": "aa4282c1e138be496488dacdc535d282", "rental_uris": {"android": "https://dc.lft.to/lastmile_qr_scan", "ios": "https://dc.lft.to/lastmile_qr_scan"}, "name": "aa4282c1e138be496488dacdc535d282", "is_reserved": 0}, {"is_disabled": 0, "fusion_lon": 0.0, "fusion_lat": 0.0, "lat": 38.905607, "type": "electric_scooter", "lon": -77.03470083333333, "bike_id": "19fd4c2c4776b3039a86a91cee002863", "rental_uris": {"android": "https://dc.lft.to/lastmile_qr_scan", "ios": "https://dc.lft.to/lastmile_qr_scan"}, "name": "19fd4c2c4776b3039a86a91cee002863", "is_reserved": 0}, {"is_disabled": 0, "fusion_lon": 0.0, "fusion_lat": 0.0, "lat": 38.922631, "type": "electric_scooter", "lon": -77.041249, "bike_id": "737f6e93c31c7764e9527f561748d548", "rental_uris": {"android": "https://dc.lft.to/lastmile_qr_scan", "ios": "https://dc.lft.to/lastmile_qr_scan"}, "name": "737f6e93c31c7764e9527f561748d548", "is_reserved": 0}, {"is_disabled": 0, "fusion_lon": 0.0, "fusion_lat": 0.0, "lat": 38.937895, "type": "electric_scooter", "lon": -77.01879416666667, "bike_id": "c065125ab46ba76b1c28b578359ec4de", "rental_uris": {"android": "https://dc.lft.to/lastmile_qr_scan", "ios": "https://dc.lft.to/lastmile_qr_scan"}, "name": "c065125ab46ba76b1c28b578359ec4de", "is_reserved": 0}, {"is_disabled": 0, "fusion_lon": 0.0, "fusion_lat": 0.0, "lat": 38.90840433333334, "type": "electric_scooter", "lon": -76.99703383333333, "bike_id": "47f06e562f37da5105abfa6f0413d156", "rental_uris": {"android": "https://dc.lft.to/lastmile_qr_scan", "ios": "https://dc.lft.to/lastmile_qr_scan"}, "name": "47f06e562f37da5105abfa6f0413d156", "is_reserved": 0}, {"is_disabled": 0, "fusion_lon": 0.0, "fusion_lat": 0.0, "lat": 38.92224183333333, "type": "electric_scooter", "lon": -77.03288983333333, "bike_id": "d1cb5dd3428be2f7d122c49465627d75", "rental_uris": {"android": "https://dc.lft.to/lastmile_qr_scan", "ios": "https://dc.lft.to/lastmile_qr_scan"}, "name": "d1cb5dd3428be2f7d122c49465627d75", "is_reserved": 0}, {"is_disabled": 0, "fusion_lon": 0.0, "fusion_lat": 0.0, "lat": 38.961221333333334, "type": "electric_scooter", "lon": -77.085223, "bike_id": "2b730e739b3073f405e357912b3d4655", "rental_uris": {"android": "https://dc.lft.to/lastmile_qr_scan", "ios": "https://dc.lft.to/lastmile_qr_scan"}, "name": "2b730e739b3073f405e357912b3d4655", "is_reserved": 0}, {"is_disabled": 0, "fusion_lon": 0.0, "fusion_lat": 0.0, "lat": 38.8874625, "type": "electric_scooter", "lon": -77.015436, "bike_id": "7ab2f3183c59bb0346544efd9f7ee62e", "rental_uris": {"android": "https://dc.lft.to/lastmile_qr_scan", "ios": "https://dc.lft.to/lastmile_qr_scan"}, "name": "7ab2f3183c59bb0346544efd9f7ee62e", "is_reserved": 0}, {"is_disabled": 0, "fusion_lon": 0.0, "fusion_lat": 0.0, "lat": 38.9162035, "type": "electric_scooter", "lon": -77.04869983333333, "bike_id": "6ea1196cd5273ccd89cd22aee6078960", "rental_uris": {"android": "https://dc.lft.to/lastmile_qr_scan", "ios": "https://dc.lft.to/lastmile_qr_scan"}, "name": "6ea1196cd5273ccd89cd22aee6078960", "is_reserved": 0}, {"is_disabled": 0, "fusion_lon": 0.0, "fusion_lat": 0.0, "lat": 38.89567016666667, "type": "electric_bike", "lon": -77.1273665, "bike_id": "8c3e7ed84afa73d47424c9072f1b1a3b", "rental_uris": {"android": "https://dc.lft.to/lastmile_qr_scan", "ios": "https://dc.lft.to/lastmile_qr_scan"}, "name": "8c3e7ed84afa73d47424c9072f1b1a3b", "is_reserved": 0}, {"is_disabled": 0, "fusion_lon": 0.0, "fusion_lat": 0.0, "lat": 38.94548133333333, "type": "electric_scooter", "lon": -77.04257383333334, "bike_id": "492bbe252fc3b69f30d481b5f784625b", "rental_uris": {"android": "https://dc.lft.to/lastmile_qr_scan", "ios": "https://dc.lft.to/lastmile_qr_scan"}, "name": "492bbe252fc3b69f30d481b5f784625b", "is_reserved": 0}, {"is_disabled": 0, "fusion_lon": 0.0, "fusion_lat": 0.0, "lat": 38.91787883333333, "type": "electric_scooter", "lon": -77.03462483333334, "bike_id": "d33b298f201bf0f953bb100fd1c460ac", "rental_uris": {"android": "https://dc.lft.to/lastmile_qr_scan", "ios": "https://dc.lft.to/lastmile_qr_scan"}, "name": "d33b298f201bf0f953bb100fd1c460ac", "is_reserved": 0}, {"is_disabled": 0, "fusion_lon": 0.0, "fusion_lat": 0.0, "lat": 38.92957066666666, "type": "electric_scooter", "lon": -77.02336966666667, "bike_id": "17a8f5b0cb234fd941062148bcd75aa2", "rental_uris": {"android": "https://dc.lft.to/lastmile_qr_scan", "ios": "https://dc.lft.to/lastmile_qr_scan"}, "name": "17a8f5b0cb234fd941062148bcd75aa2", "is_reserved": 0}, {"is_disabled": 0, "fusion_lon": 0.0, "fusion_lat": 0.0, "lat": 38.904844, "type": "electric_scooter", "lon": -77.02725416666667, "bike_id": "0afeb36809a71355683fe8eb4ad17e65", "rental_uris": {"android": "https://dc.lft.to/lastmile_qr_scan", "ios": "https://dc.lft.to/lastmile_qr_scan"}, "name": "0afeb36809a71355683fe8eb4ad17e65", "is_reserved": 0}, {"is_disabled": 0, "fusion_lon": 0.0, "fusion_lat": 0.0, "lat": 38.927508, "type": "electric_scooter", "lon": -77.025406, "bike_id": "121cd07e7f87629a77046cc6ec935e98", "rental_uris": {"android": "https://dc.lft.to/lastmile_qr_scan", "ios": "https://dc.lft.to/lastmile_qr_scan"}, "name": "121cd07e7f87629a77046cc6ec935e98", "is_reserved": 0}, {"is_disabled": 0, "fusion_lon": 0.0, "fusion_lat": 0.0, "lat": 38.91497316666667, "type": "electric_scooter", "lon": -76.9836755, "bike_id": "f7c4a96a1be868a73ba5f34abe1466f3", "rental_uris": {"android": "https://dc.lft.to/lastmile_qr_scan", "ios": "https://dc.lft.to/lastmile_qr_scan"}, "name": "f7c4a96a1be868a73ba5f34abe1466f3", "is_reserved": 0}, {"is_disabled": 0, "fusion_lon": 0.0, "fusion_lat": 0.0, "lat": 38.870821, "type": "electric_bike", "lon": -77.01207816666667, "bike_id": "cac671555fd5cdf703574cfaaad9765f", "rental_uris": {"android": "https://dc.lft.to/lastmile_qr_scan", "ios": "https://dc.lft.to/lastmile_qr_scan"}, "name": "cac671555fd5cdf703574cfaaad9765f", "is_reserved": 0}, {"is_disabled": 0, "fusion_lon": 0.0, "fusion_lat": 0.0, "lat": 38.87681233333333, "type": "electric_scooter", "lon": -77.01789066666667, "bike_id": "bccfca0aa72f5e0116817cdc12638018", "rental_uris": {"android": "https://dc.lft.to/lastmile_qr_scan", "ios": "https://dc.lft.to/lastmile_qr_scan"}, "name": "bccfca0aa72f5e0116817cdc12638018", "is_reserved": 0}, {"is_disabled": 0, "fusion_lon": 0.0, "fusion_lat": 0.0, "lat": 38.92664, "type": "electric_scooter", "lon": -77.04309583333334, "bike_id": "5371d6072e1a02e9c7c9627100534c81", "rental_uris": {"android": "https://dc.lft.to/lastmile_qr_scan", "ios": "https://dc.lft.to/lastmile_qr_scan"}, "name": "5371d6072e1a02e9c7c9627100534c81", "is_reserved": 0}, {"is_disabled": 0, "fusion_lon": 0.0, "fusion_lat": 0.0, "lat": 38.90574083333333, "type": "electric_scooter", "lon": -77.0246765, "bike_id": "8bf6b9b19a91e259c8a8fe71a782955f", "rental_uris": {"android": "https://dc.lft.to/lastmile_qr_scan", "ios": "https://dc.lft.to/lastmile_qr_scan"}, "name": "8bf6b9b19a91e259c8a8fe71a782955f", "is_reserved": 0}, {"is_disabled": 0, "fusion_lon": 0.0, "fusion_lat": 0.0, "lat": 38.918602, "type": "electric_bike", "lon": -76.96090933333333, "bike_id": "653458c2fcc7dfd575f0154302a25232", "rental_uris": {"android": "https://dc.lft.to/lastmile_qr_scan", "ios": "https://dc.lft.to/lastmile_qr_scan"}, "name": "653458c2fcc7dfd575f0154302a25232", "is_reserved": 0}, {"is_disabled": 0, "fusion_lon": 0.0, "fusion_lat": 0.0, "lat": 38.92842133333333, "type": "electric_scooter", "lon": -77.05627966666667, "bike_id": "972ba4bb5d505560ae3660079b18b035", "rental_uris": {"android": "https://dc.lft.to/lastmile_qr_scan", "ios": "https://dc.lft.to/lastmile_qr_scan"}, "name": "972ba4bb5d505560ae3660079b18b035", "is_reserved": 0}, {"is_disabled": 0, "fusion_lon": 0.0, "fusion_lat": 0.0, "lat": 38.916991333333335, "type": "electric_scooter", "lon": -77.0430155, "bike_id": "c0dc0efc84354818959280e3eabf6078", "rental_uris": {"android": "https://dc.lft.to/lastmile_qr_scan", "ios": "https://dc.lft.to/lastmile_qr_scan"}, "name": "c0dc0efc84354818959280e3eabf6078", "is_reserved": 0}, {"is_disabled": 0, "fusion_lon": 0.0, "fusion_lat": 0.0, "lat": 38.918973666666666, "type": "electric_scooter", "lon": -77.07108783333334, "bike_id": "8df182cbd3ac9d6e154e9f5bc316b806", "rental_uris": {"android": "https://dc.lft.to/lastmile_qr_scan", "ios": "https://dc.lft.to/lastmile_qr_scan"}, "name": "8df182cbd3ac9d6e154e9f5bc316b806", "is_reserved": 0}, {"is_disabled": 0, "fusion_lon": 0.0, "fusion_lat": 0.0, "lat": 38.91937766666667, "type": "electric_bike", "lon": -76.97505233333334, "bike_id": "9fe60a91c431380f9b2ad1121e777b03", "rental_uris": {"android": "https://dc.lft.to/lastmile_qr_scan", "ios": "https://dc.lft.to/lastmile_qr_scan"}, "name": "9fe60a91c431380f9b2ad1121e777b03", "is_reserved": 0}, {"is_disabled": 0, "fusion_lon": 0.0, "fusion_lat": 0.0, "lat": 38.90512833333333, "type": "electric_scooter", "lon": -77.05320383333333, "bike_id": "aa6528446fcbfc71f379391ebb9cd08b", "rental_uris": {"android": "https://dc.lft.to/lastmile_qr_scan", "ios": "https://dc.lft.to/lastmile_qr_scan"}, "name": "aa6528446fcbfc71f379391ebb9cd08b", "is_reserved": 0}, {"is_disabled": 0, "fusion_lon": 0.0, "fusion_lat": 0.0, "lat": 38.943037333333336, "type": "electric_scooter", "lon": -77.0276045, "bike_id": "039f8e03ad28b5899c48f6a6ac451f09", "rental_uris": {"android": "https://dc.lft.to/lastmile_qr_scan", "ios": "https://dc.lft.to/lastmile_qr_scan"}, "name": "039f8e03ad28b5899c48f6a6ac451f09", "is_reserved": 0}, {"is_disabled": 0, "fusion_lon": 0.0, "fusion_lat": 0.0, "lat": 38.910067166666664, "type": "electric_scooter", "lon": -77.0809305, "bike_id": "803a0b21d833aef8b834eedb0e919159", "rental_uris": {"android": "https://dc.lft.to/lastmile_qr_scan", "ios": "https://dc.lft.to/lastmile_qr_scan"}, "name": "803a0b21d833aef8b834eedb0e919159", "is_reserved": 0}, {"is_disabled": 0, "fusion_lon": 0.0, "fusion_lat": 0.0, "lat": 38.920689333333335, "type": "electric_scooter", "lon": -77.043822, "bike_id": "3eff55ec2005df41ee412656265e299e", "rental_uris": {"android": "https://dc.lft.to/lastmile_qr_scan", "ios": "https://dc.lft.to/lastmile_qr_scan"}, "name": "3eff55ec2005df41ee412656265e299e", "is_reserved": 0}, {"is_disabled": 0, "fusion_lon": 0.0, "fusion_lat": 0.0, "lat": 38.89408783333333, "type": "electric_scooter", "lon": -77.01082416666667, "bike_id": "9d30911e694a44ce041ebf4696e398f4", "rental_uris": {"android": "https://dc.lft.to/lastmile_qr_scan", "ios": "https://dc.lft.to/lastmile_qr_scan"}, "name": "9d30911e694a44ce041ebf4696e398f4", "is_reserved": 0}, {"is_disabled": 0, "fusion_lon": 0.0, "fusion_lat": 0.0, "lat": 38.8696045, "type": "electric_scooter", "lon": -76.960328, "bike_id": "5d96abcd7f5c3e909cccea1b8aa24942", "rental_uris": {"android": "https://dc.lft.to/lastmile_qr_scan", "ios": "https://dc.lft.to/lastmile_qr_scan"}, "name": "5d96abcd7f5c3e909cccea1b8aa24942", "is_reserved": 0}, {"is_disabled": 0, "fusion_lon": 0.0, "fusion_lat": 0.0, "lat": 38.923312833333334, "type": "electric_scooter", "lon": -77.04185266666667, "bike_id": "6afe484543119be6a2280cdff816fc7a", "rental_uris": {"android": "https://dc.lft.to/lastmile_qr_scan", "ios": "https://dc.lft.to/lastmile_qr_scan"}, "name": "6afe484543119be6a2280cdff816fc7a", "is_reserved": 0}, {"is_disabled": 0, "fusion_lon": 0.0, "fusion_lat": 0.0, "lat": 38.900132666666664, "type": "electric_scooter", "lon": -77.03307866666667, "bike_id": "ffbd98ffeeeca1f70465679555201d05", "rental_uris": {"android": "https://dc.lft.to/lastmile_qr_scan", "ios": "https://dc.lft.to/lastmile_qr_scan"}, "name": "ffbd98ffeeeca1f70465679555201d05", "is_reserved": 0}, {"is_disabled": 0, "fusion_lon": 0.0, "fusion_lat": 0.0, "lat": 38.81024633333333, "type": "electric_bike", "lon": -77.08439183333333, "bike_id": "b689d775d4a735499f2c89c0a5a7f810", "rental_uris": {"android": "https://dc.lft.to/lastmile_qr_scan", "ios": "https://dc.lft.to/lastmile_qr_scan"}, "name": "b689d775d4a735499f2c89c0a5a7f810", "is_reserved": 0}, {"is_disabled": 0, "fusion_lon": 0.0, "fusion_lat": 0.0, "lat": 38.90960616666667, "type": "electric_scooter", "lon": -77.02375916666666, "bike_id": "3181daf6120086aa3ddc47720df9d9ce", "rental_uris": {"android": "https://dc.lft.to/lastmile_qr_scan", "ios": "https://dc.lft.to/lastmile_qr_scan"}, "name": "3181daf6120086aa3ddc47720df9d9ce", "is_reserved": 0}, {"is_disabled": 0, "fusion_lon": 0.0, "fusion_lat": 0.0, "lat": 38.990911833333335, "type": "electric_bike", "lon": -76.87494583333333, "bike_id": "9dd7ade11b777b02ff2fd6d38f4f4c26", "rental_uris": {"android": "https://dc.lft.to/lastmile_qr_scan", "ios": "https://dc.lft.to/lastmile_qr_scan"}, "name": "9dd7ade11b777b02ff2fd6d38f4f4c26", "is_reserved": 0}, {"is_disabled": 0, "fusion_lon": 0.0, "fusion_lat": 0.0, "lat": 38.88579383333333, "type": "electric_scooter", "lon": -77.019711, "bike_id": "bbc5e957fea70e3714313a3937e2c1df", "rental_uris": {"android": "https://dc.lft.to/lastmile_qr_scan", "ios": "https://dc.lft.to/lastmile_qr_scan"}, "name": "bbc5e957fea70e3714313a3937e2c1df", "is_reserved": 0}, {"is_disabled": 0, "fusion_lon": 0.0, "fusion_lat": 0.0, "lat": 38.926951833333334, "type": "electric_scooter", "lon": -77.0373535, "bike_id": "06b173c00d1b20c04e306dbaf0e61ed4", "rental_uris": {"android": "https://dc.lft.to/lastmile_qr_scan", "ios": "https://dc.lft.to/lastmile_qr_scan"}, "name": "06b173c00d1b20c04e306dbaf0e61ed4", "is_reserved": 0}, {"is_disabled": 0, "fusion_lon": 0.0, "fusion_lat": 0.0, "lat": 38.90783416666667, "type": "electric_scooter", "lon": -77.03197383333334, "bike_id": "74f72182856f48e4363a9c300b116be5", "rental_uris": {"android": "https://dc.lft.to/lastmile_qr_scan", "ios": "https://dc.lft.to/lastmile_qr_scan"}, "name": "74f72182856f48e4363a9c300b116be5", "is_reserved": 0}, {"is_disabled": 0, "fusion_lon": 0.0, "fusion_lat": 0.0, "lat": 38.903689, "type": "electric_scooter", "lon": -77.029118, "bike_id": "e96b89f50e14322f46f95823d427474e", "rental_uris": {"android": "https://dc.lft.to/lastmile_qr_scan", "ios": "https://dc.lft.to/lastmile_qr_scan"}, "name": "e96b89f50e14322f46f95823d427474e", "is_reserved": 0}, {"is_disabled": 0, "fusion_lon": 0.0, "fusion_lat": 0.0, "lat": 38.93305183333333, "type": "electric_scooter", "lon": -77.02139283333334, "bike_id": "a19573cba174827a6338329893f86e5e", "rental_uris": {"android": "https://dc.lft.to/lastmile_qr_scan", "ios": "https://dc.lft.to/lastmile_qr_scan"}, "name": "a19573cba174827a6338329893f86e5e", "is_reserved": 0}, {"is_disabled": 0, "fusion_lon": 0.0, "fusion_lat": 0.0, "lat": 38.86356883333333, "type": "electric_scooter", "lon": -76.99073233333333, "bike_id": "59a663ab8cccbf47e2389fcba335ef7d", "rental_uris": {"android": "https://dc.lft.to/lastmile_qr_scan", "ios": "https://dc.lft.to/lastmile_qr_scan"}, "name": "59a663ab8cccbf47e2389fcba335ef7d", "is_reserved": 0}, {"is_disabled": 0, "fusion_lon": 0.0, "fusion_lat": 0.0, "lat": 38.905345, "type": "electric_scooter", "lon": -77.0499925, "bike_id": "614f60ed3727c1ab6dacce6d3b6a66c2", "rental_uris": {"android": "https://dc.lft.to/lastmile_qr_scan", "ios": "https://dc.lft.to/lastmile_qr_scan"}, "name": "614f60ed3727c1ab6dacce6d3b6a66c2", "is_reserved": 0}, {"is_disabled": 0, "fusion_lon": 0.0, "fusion_lat": 0.0, "lat": 38.92781566666667, "type": "electric_scooter", "lon": -77.01456033333334, "bike_id": "df0c2bfc01d33c846bd56dc4b9def923", "rental_uris": {"android": "https://dc.lft.to/lastmile_qr_scan", "ios": "https://dc.lft.to/lastmile_qr_scan"}, "name": "df0c2bfc01d33c846bd56dc4b9def923", "is_reserved": 0}, {"is_disabled": 0, "fusion_lon": 0.0, "fusion_lat": 0.0, "lat": 38.99064716666667, "type": "electric_bike", "lon": -77.1002925, "bike_id": "2c84cfec5fcfda3d316ba798dbb97f71", "rental_uris": {"android": "https://dc.lft.to/lastmile_qr_scan", "ios": "https://dc.lft.to/lastmile_qr_scan"}, "name": "2c84cfec5fcfda3d316ba798dbb97f71", "is_reserved": 0}, {"is_disabled": 0, "fusion_lon": 0.0, "fusion_lat": 0.0, "lat": 38.935365833333336, "type": "electric_scooter", "lon": -77.03417666666667, "bike_id": "c0d27e6c787fcf4f95307adf56467cee", "rental_uris": {"android": "https://dc.lft.to/lastmile_qr_scan", "ios": "https://dc.lft.to/lastmile_qr_scan"}, "name": "c0d27e6c787fcf4f95307adf56467cee", "is_reserved": 0}, {"is_disabled": 0, "fusion_lon": 0.0, "fusion_lat": 0.0, "lat": 38.904672833333336, "type": "electric_scooter", "lon": -76.99210216666667, "bike_id": "9409e4295257c3a458594d3a34b6fdc5", "rental_uris": {"android": "https://dc.lft.to/lastmile_qr_scan", "ios": "https://dc.lft.to/lastmile_qr_scan"}, "name": "9409e4295257c3a458594d3a34b6fdc5", "is_reserved": 0}, {"is_disabled": 0, "fusion_lon": 0.0, "fusion_lat": 0.0, "lat": 38.93045033333333, "type": "electric_scooter", "lon": -76.99630066666667, "bike_id": "d9f8cd167860de6ff87fa97961bd0b51", "rental_uris": {"android": "https://dc.lft.to/lastmile_qr_scan", "ios": "https://dc.lft.to/lastmile_qr_scan"}, "name": "d9f8cd167860de6ff87fa97961bd0b51", "is_reserved": 0}, {"is_disabled": 0, "fusion_lon": 0.0, "fusion_lat": 0.0, "lat": 38.92261216666667, "type": "electric_scooter", "lon": -77.07136316666667, "bike_id": "430b480271a1319d2f62d44145bce537", "rental_uris": {"android": "https://dc.lft.to/lastmile_qr_scan", "ios": "https://dc.lft.to/lastmile_qr_scan"}, "name": "430b480271a1319d2f62d44145bce537", "is_reserved": 0}, {"is_disabled": 0, "fusion_lon": 0.0, "fusion_lat": 0.0, "lat": 38.911506333333335, "type": "electric_scooter", "lon": -76.9850225, "bike_id": "f7446282b73dba2c91f34923d9f1db02", "rental_uris": {"android": "https://dc.lft.to/lastmile_qr_scan", "ios": "https://dc.lft.to/lastmile_qr_scan"}, "name": "f7446282b73dba2c91f34923d9f1db02", "is_reserved": 0}, {"is_disabled": 0, "fusion_lon": 0.0, "fusion_lat": 0.0, "lat": 38.93229683333333, "type": "electric_scooter", "lon": -76.99931816666667, "bike_id": "bebf770c925ffc368f03130e67661a00", "rental_uris": {"android": "https://dc.lft.to/lastmile_qr_scan", "ios": "https://dc.lft.to/lastmile_qr_scan"}, "name": "bebf770c925ffc368f03130e67661a00", "is_reserved": 0}, {"is_disabled": 0, "fusion_lon": 0.0, "fusion_lat": 0.0, "lat": 38.9181855, "type": "electric_scooter", "lon": -77.045352, "bike_id": "bbc30900283773e260ac36eb90394856", "rental_uris": {"android": "https://dc.lft.to/lastmile_qr_scan", "ios": "https://dc.lft.to/lastmile_qr_scan"}, "name": "bbc30900283773e260ac36eb90394856", "is_reserved": 0}, {"is_disabled": 0, "fusion_lon": 0.0, "fusion_lat": 0.0, "lat": 38.9058245, "type": "electric_scooter", "lon": -77.04671266666666, "bike_id": "4d468ea1ad1951c9c92d9666316e25c2", "rental_uris": {"android": "https://dc.lft.to/lastmile_qr_scan", "ios": "https://dc.lft.to/lastmile_qr_scan"}, "name": "4d468ea1ad1951c9c92d9666316e25c2", "is_reserved": 0}, {"is_disabled": 0, "fusion_lon": 0.0, "fusion_lat": 0.0, "lat": 38.936696166666664, "type": "electric_scooter", "lon": -77.03636883333333, "bike_id": "5268ad7cba1e769de15914883de1c6a7", "rental_uris": {"android": "https://dc.lft.to/lastmile_qr_scan", "ios": "https://dc.lft.to/lastmile_qr_scan"}, "name": "5268ad7cba1e769de15914883de1c6a7", "is_reserved": 0}, {"is_disabled": 0, "fusion_lon": 0.0, "fusion_lat": 0.0, "lat": 38.91693016666667, "type": "electric_scooter", "lon": -77.03465933333334, "bike_id": "fc9084a11b9f955018d109e1e343cb32", "rental_uris": {"android": "https://dc.lft.to/lastmile_qr_scan", "ios": "https://dc.lft.to/lastmile_qr_scan"}, "name": "fc9084a11b9f955018d109e1e343cb32", "is_reserved": 0}, {"is_disabled": 0, "fusion_lon": 0.0, "fusion_lat": 0.0, "lat": 38.83125016666666, "type": "electric_bike", "lon": -77.04329466666667, "bike_id": "45b2aff35a52bd8dfe7b4f234735b95d", "rental_uris": {"android": "https://dc.lft.to/lastmile_qr_scan", "ios": "https://dc.lft.to/lastmile_qr_scan"}, "name": "45b2aff35a52bd8dfe7b4f234735b95d", "is_reserved": 0}, {"is_disabled": 0, "fusion_lon": 0.0, "fusion_lat": 0.0, "lat": 38.91788433333333, "type": "electric_scooter", "lon": -77.04351183333333, "bike_id": "b1ad9accd6dccdce72e5b3b088bcde90", "rental_uris": {"android": "https://dc.lft.to/lastmile_qr_scan", "ios": "https://dc.lft.to/lastmile_qr_scan"}, "name": "b1ad9accd6dccdce72e5b3b088bcde90", "is_reserved": 0}, {"is_disabled": 0, "fusion_lon": 0.0, "fusion_lat": 0.0, "lat": 38.948929666666665, "type": "electric_bike", "lon": -76.96379016666667, "bike_id": "991037325f2b370caf18880d57752eba", "rental_uris": {"android": "https://dc.lft.to/lastmile_qr_scan", "ios": "https://dc.lft.to/lastmile_qr_scan"}, "name": "991037325f2b370caf18880d57752eba", "is_reserved": 0}, {"is_disabled": 0, "fusion_lon": 0.0, "fusion_lat": 0.0, "lat": 38.888369833333336, "type": "electric_scooter", "lon": -76.91773883333333, "bike_id": "1c4b78cd3b462f6b4ccc045cdebdf249", "rental_uris": {"android": "https://dc.lft.to/lastmile_qr_scan", "ios": "https://dc.lft.to/lastmile_qr_scan"}, "name": "1c4b78cd3b462f6b4ccc045cdebdf249", "is_reserved": 0}, {"is_disabled": 0, "fusion_lon": 0.0, "fusion_lat": 0.0, "lat": 38.93928583333334, "type": "electric_bike", "lon": -76.9951645, "bike_id": "54ca50e518b9e6c960e3a87faa05b742", "rental_uris": {"android": "https://dc.lft.to/lastmile_qr_scan", "ios": "https://dc.lft.to/lastmile_qr_scan"}, "name": "54ca50e518b9e6c960e3a87faa05b742", "is_reserved": 0}, {"is_disabled": 0, "fusion_lon": 0.0, "fusion_lat": 0.0, "lat": 38.916572, "type": "electric_scooter", "lon": -77.02967783333334, "bike_id": "ba2986e545f31689a55f882a0ffe8f07", "rental_uris": {"android": "https://dc.lft.to/lastmile_qr_scan", "ios": "https://dc.lft.to/lastmile_qr_scan"}, "name": "ba2986e545f31689a55f882a0ffe8f07", "is_reserved": 0}, {"is_disabled": 0, "fusion_lon": 0.0, "fusion_lat": 0.0, "lat": 38.92756683333333, "type": "electric_scooter", "lon": -77.00596583333333, "bike_id": "406b8f92d0ba7d9c50fdacbc700ccc62", "rental_uris": {"android": "https://dc.lft.to/lastmile_qr_scan", "ios": "https://dc.lft.to/lastmile_qr_scan"}, "name": "406b8f92d0ba7d9c50fdacbc700ccc62", "is_reserved": 0}, {"is_disabled": 0, "fusion_lon": 0.0, "fusion_lat": 0.0, "lat": 38.90763916666667, "type": "electric_scooter", "lon": -77.06314883333333, "bike_id": "7fb7677ce8fd654c5d8b1a7785ea069c", "rental_uris": {"android": "https://dc.lft.to/lastmile_qr_scan", "ios": "https://dc.lft.to/lastmile_qr_scan"}, "name": "7fb7677ce8fd654c5d8b1a7785ea069c", "is_reserved": 0}, {"is_disabled": 0, "fusion_lon": 0.0, "fusion_lat": 0.0, "lat": 38.8521425, "type": "electric_bike", "lon": -77.10129183333333, "bike_id": "80ad71c8f470c5eec64cc47022905abb", "rental_uris": {"android": "https://dc.lft.to/lastmile_qr_scan", "ios": "https://dc.lft.to/lastmile_qr_scan"}, "name": "80ad71c8f470c5eec64cc47022905abb", "is_reserved": 0}, {"is_disabled": 0, "fusion_lon": 0.0, "fusion_lat": 0.0, "lat": 38.932823166666665, "type": "electric_scooter", "lon": -76.97422216666666, "bike_id": "d29c02c4531d39893fd1185f3936b3a4", "rental_uris": {"android": "https://dc.lft.to/lastmile_qr_scan", "ios": "https://dc.lft.to/lastmile_qr_scan"}, "name": "d29c02c4531d39893fd1185f3936b3a4", "is_reserved": 0}, {"is_disabled": 0, "fusion_lon": 0.0, "fusion_lat": 0.0, "lat": 38.905096666666665, "type": "electric_bike", "lon": -76.98133516666667, "bike_id": "e04e0415d9397e6f6bfccaa45adabc85", "rental_uris": {"android": "https://dc.lft.to/lastmile_qr_scan", "ios": "https://dc.lft.to/lastmile_qr_scan"}, "name": "e04e0415d9397e6f6bfccaa45adabc85", "is_reserved": 0}, {"is_disabled": 0, "fusion_lon": 0.0, "fusion_lat": 0.0, "lat": 38.89375016666666, "type": "electric_scooter", "lon": -76.94997316666667, "bike_id": "8d23c9d4f7e716fafabab7f47becc5f1", "rental_uris": {"android": "https://dc.lft.to/lastmile_qr_scan", "ios": "https://dc.lft.to/lastmile_qr_scan"}, "name": "8d23c9d4f7e716fafabab7f47becc5f1", "is_reserved": 0}, {"is_disabled": 0, "fusion_lon": 0.0, "fusion_lat": 0.0, "lat": 38.928555333333335, "type": "electric_bike", "lon": -77.02075716666667, "bike_id": "ffc0e71f7a3795bc74f02f7b07b81d53", "rental_uris": {"android": "https://dc.lft.to/lastmile_qr_scan", "ios": "https://dc.lft.to/lastmile_qr_scan"}, "name": "ffc0e71f7a3795bc74f02f7b07b81d53", "is_reserved": 0}, {"is_disabled": 0, "fusion_lon": 0.0, "fusion_lat": 0.0, "lat": 38.9291095, "type": "electric_scooter", "lon": -77.023444, "bike_id": "9c922a3c052305b9d4abfaf50e59b11d", "rental_uris": {"android": "https://dc.lft.to/lastmile_qr_scan", "ios": "https://dc.lft.to/lastmile_qr_scan"}, "name": "9c922a3c052305b9d4abfaf50e59b11d", "is_reserved": 0}, {"is_disabled": 0, "fusion_lon": 0.0, "fusion_lat": 0.0, "lat": 38.928971833333335, "type": "electric_scooter", "lon": -76.98454666666666, "bike_id": "6d7d62652f0ed230b63e3a544857d997", "rental_uris": {"android": "https://dc.lft.to/lastmile_qr_scan", "ios": "https://dc.lft.to/lastmile_qr_scan"}, "name": "6d7d62652f0ed230b63e3a544857d997", "is_reserved": 0}, {"is_disabled": 0, "fusion_lon": 0.0, "fusion_lat": 0.0, "lat": 38.902825666666665, "type": "electric_scooter", "lon": -77.04261533333333, "bike_id": "443a14c1bafa49639e85c4e1a647a016", "rental_uris": {"android": "https://dc.lft.to/lastmile_qr_scan", "ios": "https://dc.lft.to/lastmile_qr_scan"}, "name": "443a14c1bafa49639e85c4e1a647a016", "is_reserved": 0}, {"is_disabled": 0, "fusion_lon": 0.0, "fusion_lat": 0.0, "lat": 38.936396333333334, "type": "electric_scooter", "lon": -77.0365985, "bike_id": "0488e20f2bbb3043a43780908f92d8bb", "rental_uris": {"android": "https://dc.lft.to/lastmile_qr_scan", "ios": "https://dc.lft.to/lastmile_qr_scan"}, "name": "0488e20f2bbb3043a43780908f92d8bb", "is_reserved": 0}, {"is_disabled": 0, "fusion_lon": 0.0, "fusion_lat": 0.0, "lat": 38.9244825, "type": "electric_bike", "lon": -76.968345, "bike_id": "4183fc0bfecb3d9c329363a7a321defe", "rental_uris": {"android": "https://dc.lft.to/lastmile_qr_scan", "ios": "https://dc.lft.to/lastmile_qr_scan"}, "name": "4183fc0bfecb3d9c329363a7a321defe", "is_reserved": 0}, {"is_disabled": 0, "fusion_lon": 0.0, "fusion_lat": 0.0, "lat": 39.105668666666666, "type": "electric_bike", "lon": -77.15267433333334, "bike_id": "3986df87c019a5fd1c7b0bf06abfbec0", "rental_uris": {"android": "https://dc.lft.to/lastmile_qr_scan", "ios": "https://dc.lft.to/lastmile_qr_scan"}, "name": "3986df87c019a5fd1c7b0bf06abfbec0", "is_reserved": 0}, {"is_disabled": 0, "fusion_lon": 0.0, "fusion_lat": 0.0, "lat": 38.919825833333334, "type": "electric_scooter", "lon": -77.00018966666667, "bike_id": "6aca7f18370b7348af031785b2651ae9", "rental_uris": {"android": "https://dc.lft.to/lastmile_qr_scan", "ios": "https://dc.lft.to/lastmile_qr_scan"}, "name": "6aca7f18370b7348af031785b2651ae9", "is_reserved": 0}, {"is_disabled": 0, "fusion_lon": 0.0, "fusion_lat": 0.0, "lat": 38.9227465, "type": "electric_bike", "lon": -76.99420833333333, "bike_id": "82aff277953fb05696d8b7b383d18926", "rental_uris": {"android": "https://dc.lft.to/lastmile_qr_scan", "ios": "https://dc.lft.to/lastmile_qr_scan"}, "name": "82aff277953fb05696d8b7b383d18926", "is_reserved": 0}, {"is_disabled": 0, "fusion_lon": 0.0, "fusion_lat": 0.0, "lat": 38.97169066666667, "type": "electric_bike", "lon": -76.98024633333333, "bike_id": "4b194ad6630a0060da9ef58f06e82220", "rental_uris": {"android": "https://dc.lft.to/lastmile_qr_scan", "ios": "https://dc.lft.to/lastmile_qr_scan"}, "name": "4b194ad6630a0060da9ef58f06e82220", "is_reserved": 0},