{"data": {"bikes": [{"fusion_lat": 0.0, "type": "electric_scooter", "name": "d55f35cdcb396b56b83f21d56a87f376", "fusion_lon": 0.0, "bike_id": "d55f35cdcb396b56b83f21d56a87f376", "is_reserved": 0, "rental_uris": {"android": "https://dc.lft.to/lastmile_qr_scan", "ios": "https://dc.lft.to/lastmile_qr_scan"}, "lat": 38.915887166666664, "is_disabled": 0, "lon": -77.0416645}, {"fusion_lat": 0.0, "type": "electric_scooter", "name": "645cf621819c6b1b5af2ca30efbe88a1", "fusion_lon": 0.0, "bike_id": "645cf621819c6b1b5af2ca30efbe88a1", "is_reserved": 0, "rental_uris": {"android": "https://dc.lft.to/lastmile_qr_scan", "ios": "https://dc.lft.to/lastmile_qr_scan"}, "lat": 38.922493833333334, "is_disabled": 0, "lon": -77.07235216666666}, {"fusion_lat": 0.0, "type": "electric_scooter", "name": "373f90aac014d10395e6ec512d714a11", "fusion_lon": 0.0, "bike_id": "373f90aac014d10395e6ec512d714a11", "is_reserved": 0, "rental_uris": {"android": "https://dc.lft.to/lastmile_qr_scan", "ios": "https://dc.lft.to/lastmile_qr_scan"}, "lat": 38.9103865, "is_disabled": 0, "lon": -77.03686166666667}, {"fusion_lat": 0.0, "type": "electric_scooter", "name": "7201cfb2030aa3db3f7b4029b693fae4", "fusion_lon": 0.0, "bike_id": "7201cfb2030aa3db3f7b4029b693fae4", "is_reserved": 0, "rental_uris": {"android": "https://dc.lft.to/lastmile_qr_scan", "ios": "https://dc.lft.to/lastmile_qr_scan"}, "lat": 38.92315683333333, "is_disabled": 0, "lon": -77.03406216666667}, {"fusion_lat": 0.0, "type": "electric_scooter", "name": "9f78bcb612c9c160f58e40942c802b08", "fusion_lon": 0.0, "bike_id": "9f78bcb612c9c160f58e40942c802b08", "is_reserved": 0, "rental_uris": {"android": "https://dc.lft.to/lastmile_qr_scan", "ios": "https://dc.lft.to/lastmile_qr_scan"}, "lat": 38.9188655, "is_disabled": 0, "lon": -77.022992}, {"fusion_lat": 0.0, "type": "electric_scooter", "name": "f23a063be517df1b6fa26b4adb4e3f2c", "fusion_lon": 0.0, "bike_id": "f23a063be517df1b6fa26b4adb4e3f2c", "is_reserved": 0, "rental_uris": {"android": "https://dc.lft.to/lastmile_qr_scan", "ios": "https://dc.lft.to/lastmile_qr_scan"}, "lat": 38.880453833333334, "is_disabled": 0, "lon": -77.030626}, {"fusion_lat": 0.0, "type": "electric_scooter", "name": "9759e9ba8e7afc2b39b032b95ee1f87d", "fusion_lon": 0.0, "bike_id": "9759e9ba8e7afc2b39b032b95ee1f87d", "is_reserved": 0, "rental_uris": {"android": "https://dc.lft.to/lastmile_qr_scan", "ios": "https://dc.lft.to/lastmile_qr_scan"}, "lat": 38.914367, "is_disabled": 0, "lon": -77.01711133333333}, {"fusion_lat": 0.0, "type": "electric_scooter", "name": "c44fbca1230ecd858880f5a9b58c7dbf", "fusion_lon": 0.0, "bike_id": "c44fbca1230ecd858880f5a9b58c7dbf", "is_reserved": 0, "rental_uris": {"android": "https://dc.lft.to/lastmile_qr_scan", "ios": "https://dc.lft.to/lastmile_qr_scan"}, "lat": 38.92904383333333, "is_disabled": 0, "lon": -77.037612}, {"fusion_lat": 0.0, "type": "electric_scooter", "name": "9925f5c97671f3c73cc80816c0fdbd47", "fusion_lon": 0.0, "bike_id": "9925f5c97671f3c73cc80816c0fdbd47", "is_reserved": 0, "rental_uris": {"android": "https://dc.lft.to/lastmile_qr_scan", "ios": "https://dc.lft.to/lastmile_qr_scan"}, "lat": 38.90725, "is_disabled": 0, "lon": -77.04357583333334}, {"fusion_lat": 0.0, "type": "electric_scooter", "name": "21083c238fe657f350e766be0bc0dc0a", "fusion_lon": 0.0, "bike_id": "21083c238fe657f350e766be0bc0dc0a", "is_reserved": 0, "rental_uris": {"android": "https://dc.lft.to/lastmile_qr_scan", "ios": "https://dc.lft.to/lastmile_qr_scan"}, "lat": 38.89221083333333, "is_disabled": 0, "lon": -77.02621083333334}, {"fusion_lat": 0.0, "type": "electric_scooter", "name": "7f80a6bba5295852c7ea48f62f05d07b", "fusion_lon": 0.0, "bike_id": "7f80a6bba5295852c7ea48f62f05d07b", "is_reserved": 0, "rental_uris": {"android": "https://dc.lft.to/lastmile_qr_scan", "ios": "https://dc.lft.to/lastmile_qr_scan"}, "lat": 38.9304935, "is_disabled": 0, "lon": -77.03796566666666}, {"fusion_lat": 0.0, "type": "electric_scooter", "name": "d5f1d2f35dea9f78fd60338ca9ad1cbd", "fusion_lon": 0.0, "bike_id": "d5f1d2f35dea9f78fd60338ca9ad1cbd", "is_reserved": 0, "rental_uris": {"android": "https://dc.lft.to/lastmile_qr_scan", "ios": "https://dc.lft.to/lastmile_qr_scan"}, "lat": 38.88025916666667, "is_disabled": 0, "lon": -77.02655283333333}, {"fusion_lat": 0.0, "type": "electric_bike", "name": "66ea3b48d070c074dfbcf55de7503e80", "fusion_lon": 0.0, "bike_id": "66ea3b48d070c074dfbcf55de7503e80", "is_reserved": 0, "rental_uris": {"android": "https://dc.lft.to/lastmile_qr_scan", "ios": "https://dc.lft.to/lastmile_qr_scan"}, "lat": 38.887147666666664, "is_disabled": 0, "lon": -77.1330375}, {"fusion_lat": 0.0, "type": "electric_scooter", "name": "40e9502fde1ab4b4ce681d07d187f1a2", "fusion_lon": 0.0, "bike_id": "40e9502fde1ab4b4ce681d07d187f1a2", "is_reserved": 0, "rental_uris": {"android": "https://dc.lft.to/lastmile_qr_scan", "ios": "https://dc.lft.to/lastmile_qr_scan"}, "lat": 38.93762016666667, "is_disabled": 0, "lon": -77.02196333333333}, {"fusion_lat": 0.0, "type": "electric_scooter", "name": "d0b97de3c719ea9ad77857a9c5cf3c31", "fusion_lon": 0.0, "bike_id": "d0b97de3c719ea9ad77857a9c5cf3c31", "is_reserved": 0, "rental_uris": {"android": "https://dc.lft.to/lastmile_qr_scan", "ios": "https://dc.lft.to/lastmile_qr_scan"}, "lat": 38.929133666666665, "is_disabled": 0, "lon": -77.02191066666667}, {"fusion_lat": 0.0, "type": "electric_scooter", "name": "b0c0e64f4821c9f22280720b2f0ff6a2", "fusion_lon": 0.0, "bike_id": "b0c0e64f4821c9f22280720b2f0ff6a2", "is_reserved": 0, "rental_uris": {"android": "https://dc.lft.to/lastmile_qr_scan", "ios": "https://dc.lft.to/lastmile_qr_scan"}, "lat": 38.89911566666667, "is_disabled": 0, "lon": -76.93369866666667}, {"fusion_lat": 0.0, "type": "electric_scooter", "name": "ec3239b417f1f044a05f31b20d5ac120", "fusion_lon": 0.0, "bike_id": "ec3239b417f1f044a05f31b20d5ac120", "is_reserved": 0, "rental_uris": {"android": "https://dc.lft.to/lastmile_qr_scan", "ios": "https://dc.lft.to/lastmile_qr_scan"}, "lat": 38.900086333333334, "is_disabled": 0, "lon": -77.02601366666667}, {"fusion_lat": 0.0, "type": "electric_scooter", "name": "6aff2da29ec261f18e9153ced992a656", "fusion_lon": 0.0, "bike_id": "6aff2da29ec261f18e9153ced992a656", "is_reserved": 0, "rental_uris": {"android": "https://dc.lft.to/lastmile_qr_scan", "ios": "https://dc.lft.to/lastmile_qr_scan"}, "lat": 38.9140435, "is_disabled": 0, "lon": -77.02022983333333}, {"fusion_lat": 0.0, "type": "electric_scooter", "name": "fdd51a0968482affeec463d899227bbe", "fusion_lon": 0.0, "bike_id": "fdd51a0968482affeec463d899227bbe", "is_reserved": 0, "rental_uris": {"android": "https://dc.lft.to/lastmile_qr_scan", "ios": "https://dc.lft.to/lastmile_qr_scan"}, "lat": 38.89614866666667, "is_disabled": 0, "lon": -77.04461083333334}, {"fusion_lat": 0.0, "type": "electric_scooter", "name": "e7864b1b1e4b1d74099bcbeeb3c1a995", "fusion_lon": 0.0, "bike_id": "e7864b1b1e4b1d74099bcbeeb3c1a995", "is_reserved": 0, "rental_uris": {"android": "https://dc.lft.to/lastmile_qr_scan", "ios": "https://dc.lft.to/lastmile_qr_scan"}, "lat": 38.902701, "is_disabled": 0, "lon": -77.00325283333333}, {"fusion_lat": 0.0, "type": "electric_scooter", "name": "29586722d2dd09e6d0bbc1c4df9c7ede", "fusion_lon": 0.0, "bike_id": "29586722d2dd09e6d0bbc1c4df9c7ede", "is_reserved": 0, "rental_uris": {"android": "https://dc.lft.to/lastmile_qr_scan", "ios": "https://dc.lft.to/lastmile_qr_scan"}, "lat": 38.91715816666667, "is_disabled": 0, "lon": -77.02408933333334}, {"fusion_lat": 0.0, "type": "electric_scooter", "name": "e3760272298e7294c345da773184fb45", "fusion_lon": 0.0, "bike_id": "e3760272298e7294c345da773184fb45", "is_reserved": 0, "rental_uris": {"android": "https://dc.lft.to/lastmile_qr_scan", "ios": "https://dc.lft.to/lastmile_qr_scan"}, "lat": 38.897292166666666, "is_disabled": 0, "lon": -77.04308033333334}, {"fusion_lat": 0.0, "type": "electric_bike", "name": "b20b4df5c044e54488748cd2096a9b7b", "fusion_lon": 0.0, "bike_id": "b20b4df5c044e54488748cd2096a9b7b", "is_reserved": 0, "rental_uris": {"android": "https://dc.lft.to/lastmile_qr_scan", "ios": "https://dc.lft.to/lastmile_qr_scan"}, "lat": 38.918880333333334, "is_disabled": 0, "lon": -77.07048316666666}, {"fusion_lat": 0.0, "type": "electric_scooter", "name": "ad00396af6e4d4edcb84c44d8ee37774", "fusion_lon": 0.0, "bike_id": "ad00396af6e4d4edcb84c44d8ee37774", "is_reserved": 0, "rental_uris": {"android": "https://dc.lft.to/lastmile_qr_scan", "ios": "https://dc.lft.to/lastmile_qr_scan"}, "lat": 38.920062333333334, "is_disabled": 0, "lon": -77.03203616666667}, {"fusion_lat": 0.0, "type": "electric_scooter", "name": "e6f5494b526ba103d6d3cebb78ce145e", "fusion_lon": 0.0, "bike_id": "e6f5494b526ba103d6d3cebb78ce145e", "is_reserved": 0, "rental_uris": {"android": "https://dc.lft.to/lastmile_qr_scan", "ios": "https://dc.lft.to/lastmile_qr_scan"}, "lat": 38.921435, "is_disabled": 0, "lon": -77.03875083333334}, {"fusion_lat": 0.0, "type": "electric_scooter", "name": "332616d7964f31eace10015e9395d156", "fusion_lon": 0.0, "bike_id": "332616d7964f31eace10015e9395d156", "is_reserved": 0, "rental_uris": {"android": "https://dc.lft.to/lastmile_qr_scan", "ios": "https://dc.lft.to/lastmile_qr_scan"}, "lat": 38.90523066666667, "is_disabled": 0, "lon": -77.04843166666667}, {"fusion_lat": 0.0, "type": "electric_bike", "name": "3dbc0b319abedd6ea1c1ef4dbe864e46", "fusion_lon": 0.0, "bike_id": "3dbc0b319abedd6ea1c1ef4dbe864e46", "is_reserved": 0, "rental_uris": {"android": "https://dc.lft.to/lastmile_qr_scan", "ios": "https://dc.lft.to/lastmile_qr_scan"}, "lat": 38.896604333333336, "is_disabled": 0, "lon": -76.93015516666667}, {"fusion_lat": 0.0, "type": "electric_scooter", "name": "f0957e63bd22406faaafeb83546ea79d", "fusion_lon": 0.0, "bike_id": "f0957e63bd22406faaafeb83546ea79d", "is_reserved": 0, "rental_uris": {"android": "https://dc.lft.to/lastmile_qr_scan", "ios": "https://dc.lft.to/lastmile_qr_scan"}, "lat": 38.92125583333333, "is_disabled": 0, "lon": -77.02524183333334}, {"fusion_lat": 0.0, "type": "electric_scooter", "name": "c556c309e1df9630433c4155c0416e3f", "fusion_lon": 0.0, "bike_id": "c556c309e1df9630433c4155c0416e3f", "is_reserved": 0, "rental_uris": {"android": "https://dc.lft.to/lastmile_qr_scan", "ios": "https://dc.lft.to/lastmile_qr_scan"}, "lat": 38.918262, "is_disabled": 0, "lon": -77.034476}, {"fusion_lat": 0.0, "type": "electric_scooter", "name": "12362a6d0693390c72058b9a1fd0041e", "fusion_lon": 0.0, "bike_id": "12362a6d0693390c72058b9a1fd0041e", "is_reserved": 0, "rental_uris": {"android": "https://dc.lft.to/lastmile_qr_scan", "ios": "https://dc.lft.to/lastmile_qr_scan"}, "lat": 38.93518266666667, "is_disabled": 0, "lon": -77.0727895}, {"fusion_lat": 0.0, "type": "electric_scooter", "name": "f9d9dbd6933a14e907105907c4439815", "fusion_lon": 0.0, "bike_id": "f9d9dbd6933a14e907105907c4439815", "is_reserved": 0, "rental_uris": {"android": "https://dc.lft.to/lastmile_qr_scan", "ios": "https://dc.lft.to/lastmile_qr_scan"}, "lat": 38.913197, "is_disabled": 0, "lon": -77.04542116666667}, {"fusion_lat": 0.0, "type": "electric_scooter", "name": "485b2514bcec0f90aa005a940596d843", "fusion_lon": 0.0, "bike_id": "485b2514bcec0f90aa005a940596d843", "is_reserved": 0, "rental_uris": {"android": "https://dc.lft.to/lastmile_qr_scan", "ios": "https://dc.lft.to/lastmile_qr_scan"}, "lat": 38.91953066666667, "is_disabled": 0, "lon": -76.98083316666667}, {"fusion_lat": 0.0, "type": "electric_scooter", "name": "9077f034bfe90ad90d5bc9979abdcaeb", "fusion_lon": 0.0, "bike_id": "9077f034bfe90ad90d5bc9979abdcaeb", "is_reserved": 0, "rental_uris": {"android": "https://dc.lft.to/lastmile_qr_scan", "ios": "https://dc.lft.to/lastmile_qr_scan"}, "lat": 38.908578, "is_disabled": 0, "lon": -77.04254716666667}, {"fusion_lat": 0.0, "type": "electric_scooter", "name": "b4e3d38343affeac35fe4672cef35e35", "fusion_lon": 0.0, "bike_id": "b4e3d38343affeac35fe4672cef35e35", "is_reserved": 0, "rental_uris": {"android": "https://dc.lft.to/lastmile_qr_scan", "ios": "https://dc.lft.to/lastmile_qr_scan"}, "lat": 38.9223645, "is_disabled": 0, "lon": -77.04362633333334}, {"fusion_lat": 0.0, "type": "electric_bike", "name": "ede481217854dcb80918544939d8a487", "fusion_lon": 0.0, "bike_id": "ede481217854dcb80918544939d8a487", "is_reserved": 0, "rental_uris": {"android": "https://dc.lft.to/lastmile_qr_scan", "ios": "https://dc.lft.to/lastmile_qr_scan"}, "lat": 38.84611733333333, "is_disabled": 0, "lon": -77.08968533333334}, {"fusion_lat": 0.0, "type": "electric_scooter", "name": "a977c1ce5ccd82cf61bbd65e18231373", "fusion_lon": 0.0, "bike_id": "a977c1ce5ccd82cf61bbd65e18231373", "is_reserved": 0, "rental_uris": {"android": "https://dc.lft.to/lastmile_qr_scan", "ios": "https://dc.lft.to/lastmile_qr_scan"}, "lat": 38.866533, "is_disabled": 0, "lon": -76.98524516666667}, {"fusion_lat": 0.0, "type": "electric_scooter", "name": "70b8bbdb30272d3d7e49d4bfc6cdee68", "fusion_lon": 0.0, "bike_id": "70b8bbdb30272d3d7e49d4bfc6cdee68", "is_reserved": 0, "rental_uris": {"android": "https://dc.lft.to/lastmile_qr_scan", "ios": "https://dc.lft.to/lastmile_qr_scan"}, "lat": 38.906919, "is_disabled": 0, "lon": -77.0369595}, {"fusion_lat": 0.0, "type": "electric_scooter", "name": "06289de59edcdab112049cba4a90a4c4", "fusion_lon": 0.0, "bike_id": "06289de59edcdab112049cba4a90a4c4", "is_reserved": 0, "rental_uris": {"android": "https://dc.lft.to/lastmile_qr_scan", "ios": "https://dc.lft.to/lastmile_qr_scan"}, "lat": 38.93007633333333, "is_disabled": 0, "lon": -77.05514183333334}, {"fusion_lat": 0.0, "type": "electric_scooter", "name": "9bdbd39162f04eaee3c16fb4f0993944", "fusion_lon": 0.0, "bike_id": "9bdbd39162f04eaee3c16fb4f0993944", "is_reserved": 0, "rental_uris": {"android": "https://dc.lft.to/lastmile_qr_scan", "ios": "https://dc.lft.to/lastmile_qr_scan"}, "lat": 38.9243105, "is_disabled": 0, "lon": -77.04246516666667}, {"fusion_lat": 0.0, "type": "electric_scooter", "name": "e1f04d433c49670fdf1ca9bd67ff0871", "fusion_lon": 0.0, "bike_id": "e1f04d433c49670fdf1ca9bd67ff0871", "is_reserved": 0, "rental_uris": {"android": "https://dc.lft.to/lastmile_qr_scan", "ios": "https://dc.lft.to/lastmile_qr_scan"}, "lat": 38.892989666666665, "is_disabled": 0, "lon": -77.0124085}, {"fusion_lat": 0.0, "type": "electric_scooter", "name": "aa4b4b251d85369ed187c9ff0a755228", "fusion_lon": 0.0, "bike_id": "aa4b4b251d85369ed187c9ff0a755228", "is_reserved": 0, "rental_uris": {"android": "https://dc.lft.to/lastmile_qr_scan", "ios": "https://dc.lft.to/lastmile_qr_scan"}, "lat": 38.892336666666665, "is_disabled": 0, "lon": -77.01981666666667}, {"fusion_lat": 0.0, "type": "electric_scooter", "name": "f5b1f78f356bc34ca39378b7ab95acec", "fusion_lon": 0.0, "bike_id": "f5b1f78f356bc34ca39378b7ab95acec", "is_reserved": 0, "rental_uris": {"android": "https://dc.lft.to/lastmile_qr_scan", "ios": "https://dc.lft.to/lastmile_qr_scan"}, "lat": 38.9223985, "is_disabled": 0, "lon": -77.04242083333334}, {"fusion_lat": 0.0, "type": "electric_scooter", "name": "10c52dd26a052bba7c39c4eba1d186ee", "fusion_lon": 0.0, "bike_id": "10c52dd26a052bba7c39c4eba1d186ee", "is_reserved": 0, "rental_uris": {"android": "https://dc.lft.to/lastmile_qr_scan", "ios": "https://dc.lft.to/lastmile_qr_scan"}, "lat": 38.91664866666667, "is_disabled": 0, "lon": -77.02292833333334}, {"fusion_lat": 0.0, "type": "electric_scooter", "name": "52ab37622c12f553c49b8a2f5360d24f", "fusion_lon": 0.0, "bike_id": "52ab37622c12f553c49b8a2f5360d24f", "is_reserved": 0, "rental_uris": {"android": "https://dc.lft.to/lastmile_qr_scan", "ios": "https://dc.lft.to/lastmile_qr_scan"}, "lat": 38.932900833333335, "is_disabled": 0, "lon": -77.04619616666666}, {"fusion_lat": 0.0, "type": "electric_scooter", "name": "06d05d8a53e39703ab5cd463703adffe", "fusion_lon": 0.0, "bike_id": "06d05d8a53e39703ab5cd463703adffe", "is_reserved": 0, "rental_uris": {"android": "https://dc.lft.to/lastmile_qr_scan", "ios": "https://dc.lft.to/lastmile_qr_scan"}, "lat": 38.89227966666667, "is_disabled": 0, "lon": -77.0433655}, {"fusion_lat": 0.0, "type": "electric_bike", "name": "03fdc9b66d91f8393a5da199939c164d", "fusion_lon": 0.0, "bike_id": "03fdc9b66d91f8393a5da199939c164d", "is_reserved": 0, "rental_uris": {"android": "https://dc.lft.to/lastmile_qr_scan", "ios": "https://dc.lft.to/lastmile_qr_scan"}, "lat": 38.993434, "is_disabled": 0, "lon": -77.11578033333333}, {"fusion_lat": 0.0, "type": "electric_scooter", "name": "25d1b4bf6f46febcbfedb6d56be89786", "fusion_lon": 0.0, "bike_id": "25d1b4bf6f46febcbfedb6d56be89786", "is_reserved": 0, "rental_uris": {"android": "https://dc.lft.to/lastmile_qr_scan", "ios": "https://dc.lft.to/lastmile_qr_scan"}, "lat": 38.90706216666667, "is_disabled": 0, "lon": -77.026989}, {"fusion_lat": 0.0, "type": "electric_scooter", "name": "0e89700b0b32b1363a7e00337a535ce1", "fusion_lon": 0.0, "bike_id": "0e89700b0b32b1363a7e00337a535ce1", "is_reserved": 0, "rental_uris": {"android": "https://dc.lft.to/lastmile_qr_scan", "ios": "https://dc.lft.to/lastmile_qr_scan"}, "lat": 38.901551833333336, "is_disabled": 0, "lon": -77.04390266666667}, {"fusion_lat": 0.0, "type": "electric_scooter", "name": "d8f25fa0ac2bb23bfd4bcad031217b5b", "fusion_lon": 0.0, "bike_id": "d8f25fa0ac2bb23bfd4bcad031217b5b", "is_reserved": 0, "rental_uris": {"android": "https://dc.lft.to/lastmile_qr_scan", "ios": "https://dc.lft.to/lastmile_qr_scan"}, "lat": 38.91712716666667, "is_disabled": 0, "lon": -77.038602}, {"fusion_lat": 0.0, "type": "electric_scooter", "name": "39ffbdf43a2866fecefd6d7fff5a8e81", "fusion_lon": 0.0, "bike_id": "39ffbdf43a2866fecefd6d7fff5a8e81", "is_reserved": 0, "rental_uris": {"android": "https://dc.lft.to/lastmile_qr_scan", "ios": "https://dc.lft.to/lastmile_qr_scan"}, "lat": 38.892217333333335, "is_disabled": 0, "lon": -77.026301}, {"fusion_lat": 0.0, "type": "electric_scooter", "name": "1ace4f94334b2320cf0e443829d4ee7a", "fusion_lon": 0.0, "bike_id": "1ace4f94334b2320cf0e443829d4ee7a", "is_reserved": 0, "rental_uris": {"android": "https://dc.lft.to/lastmile_qr_scan", "ios": "https://dc.lft.to/lastmile_qr_scan"}, "lat": 38.93850616666667, "is_disabled": 0, "lon": -77.02450183333333}, {"fusion_lat": 0.0, "type": "electric_scooter", "name": "a126a696c90bf0a1dad8343ba2c0909b", "fusion_lon": 0.0, "bike_id": "a126a696c90bf0a1dad8343ba2c0909b", "is_reserved": 0, "rental_uris": {"android": "https://dc.lft.to/lastmile_qr_scan", "ios": "https://dc.lft.to/lastmile_qr_scan"}, "lat": 38.9078195, "is_disabled": 0, "lon": -77.02304366666667}, {"fusion_lat": 0.0, "type": "electric_scooter", "name": "bf2b88d0a467c1f1c6974fc69392b4c2", "fusion_lon": 0.0, "bike_id": "bf2b88d0a467c1f1c6974fc69392b4c2", "is_reserved": 0, "rental_uris": {"android": "https://dc.lft.to/lastmile_qr_scan", "ios": "https://dc.lft.to/lastmile_qr_scan"}, "lat": 38.91556533333333, "is_disabled": 0, "lon": -77.03178316666667}, {"fusion_lat": 0.0, "type": "electric_bike", "name": "cc8370beb5674980604a6d3788db9653", "fusion_lon": 0.0, "bike_id": "cc8370beb5674980604a6d3788db9653", "is_reserved": 0, "rental_uris": {"android": "https://dc.lft.to/lastmile_qr_scan", "ios": "https://dc.lft.to/lastmile_qr_scan"}, "lat": 38.9674175, "is_disabled": 0, "lon": -76.98194466666666}, {"fusion_lat": 0.0, "type": "electric_bike", "name": "e690c09cf194d36f9bb053daab5e2582", "fusion_lon": 0.0, "bike_id": "e690c09cf194d36f9bb053daab5e2582", "is_reserved": 0, "rental_uris": {"android": "https://dc.lft.to/lastmile_qr_scan", "ios": "https://dc.lft.to/lastmile_qr_scan"}, "lat": 39.01479283333333, "is_disabled": 0, "lon": -77.05498}, {"fusion_lat": 0.0, "type": "electric_scooter", "name": "0228e78130fa9a93e8a7425defd4db97", "fusion_lon": 0.0, "bike_id": "0228e78130fa9a93e8a7425defd4db97", "is_reserved": 0, "rental_uris": {"android": "https://dc.lft.to/lastmile_qr_scan", "ios": "https://dc.lft.to/lastmile_qr_scan"}, "lat": 38.92456033333333, "is_disabled": 0, "lon": -77.0329095}, {"fusion_lat": 0.0, "type": "electric_scooter", "name": "58f24ffd6c0a9a4d8b8058ea8a771029", "fusion_lon": 0.0, "bike_id": "58f24ffd6c0a9a4d8b8058ea8a771029", "is_reserved": 0, "rental_uris": {"android": "https://dc.lft.to/lastmile_qr_scan", "ios": "https://dc.lft.to/lastmile_qr_scan"}, "lat": 38.89198533333333, "is_disabled": 0, "lon": -77.02773816666667}, {"fusion_lat": 0.0, "type": "electric_scooter", "name": "c257263e4e8eddbee3f83a3ea0d8bd61", "fusion_lon": 0.0, "bike_id": "c257263e4e8eddbee3f83a3ea0d8bd61", "is_reserved": 0, "rental_uris": {"android": "https://dc.lft.to/lastmile_qr_scan", "ios": "https://dc.lft.to/lastmile_qr_scan"}, "lat": 38.91638666666667, "is_disabled": 0, "lon": -77.04817883333334}, {"fusion_lat": 0.0, "type": "electric_scooter", "name": "0e0bab2f83217a61b77a9f2f442bf369", "fusion_lon": 0.0, "bike_id": "0e0bab2f83217a61b77a9f2f442bf369", "is_reserved": 0, "rental_uris": {"android": "https://dc.lft.to/lastmile_qr_scan", "ios": "https://dc.lft.to/lastmile_qr_scan"}, "lat": 38.91392733333333, "is_disabled": 0, "lon": -77.0417825}, {"fusion_lat": 0.0, "type": "electric_scooter", "name": "61fe5fd6119e2371079d790539f526a1", "fusion_lon": 0.0, "bike_id": "61fe5fd6119e2371079d790539f526a1", "is_reserved": 0, "rental_uris": {"android": "https://dc.lft.to/lastmile_qr_scan", "ios": "https://dc.lft.to/lastmile_qr_scan"}, "lat": 38.9023685, "is_disabled": 0, "lon": -76.99887083333333}, {"fusion_lat": 0.0, "type": "electric_scooter", "name": "259dd1263e98725c62c1f9957cb35e3f", "fusion_lon": 0.0, "bike_id": "259dd1263e98725c62c1f9957cb35e3f", "is_reserved": 0, "rental_uris": {"android": "https://dc.lft.to/lastmile_qr_scan", "ios": "https://dc.lft.to/lastmile_qr_scan"}, "lat": 38.93467183333333, "is_disabled": 0, "lon": -77.02846333333333}, {"fusion_lat": 0.0, "type": "electric_scooter", "name": "d304d9f7864a1c1211ca02def9bd4dd1", "fusion_lon": 0.0, "bike_id": "d304d9f7864a1c1211ca02def9bd4dd1", "is_reserved": 0, "rental_uris": {"android": "https://dc.lft.to/lastmile_qr_scan", "ios": "https://dc.lft.to/lastmile_qr_scan"}, "lat": 38.89915116666667, "is_disabled": 0, "lon": -76.93383033333333}, {"fusion_lat": 0.0, "type": "electric_scooter", "name": "c731b95a96f4b60ec2ae751ea2252fe6", "fusion_lon": 0.0, "bike_id": "c731b95a96f4b60ec2ae751ea2252fe6", "is_reserved": 0, "rental_uris": {"android": "https://dc.lft.to/lastmile_qr_scan", "ios": "https://dc.lft.to/lastmile_qr_scan"}, "lat": 38.89248533333333, "is_disabled": 0, "lon": -77.04658383333333}, {"fusion_lat": 0.0, "type": "electric_bike", "name": "6895c5fba6fe54f0fdf4b826e4e20080", "fusion_lon": 0.0, "bike_id": "6895c5fba6fe54f0fdf4b826e4e20080", "is_reserved": 0, "rental_uris": {"android": "https://dc.lft.to/lastmile_qr_scan", "ios": "https://dc.lft.to/lastmile_qr_scan"}, "lat": 39.062931666666664, "is_disabled": 0, "lon": -77.04981933333333}, {"fusion_lat": 0.0, "type": "electric_scooter", "name": "4076490d92a5f7be12d11f6ed0ef1699", "fusion_lon": 0.0, "bike_id": "4076490d92a5f7be12d11f6ed0ef1699", "is_reserved": 0, "rental_uris": {"android": "https://dc.lft.to/lastmile_qr_scan", "ios": "https://dc.lft.to/lastmile_qr_scan"}, "lat": 38.915512, "is_disabled": 0, "lon": -77.04180016666666}, {"fusion_lat": 0.0, "type": "electric_scooter", "name": "54c7fe9cf8bcfcb89911bf0d8e37e231", "fusion_lon": 0.0, "bike_id": "54c7fe9cf8bcfcb89911bf0d8e37e231", "is_reserved": 0, "rental_uris": {"android": "https://dc.lft.to/lastmile_qr_scan", "ios": "https://dc.lft.to/lastmile_qr_scan"}, "lat": 38.89223666666667, "is_disabled": 0, "lon": -77.02346283333334}, {"fusion_lat": 0.0, "type": "electric_scooter", "name": "1426ab8551cba432e9e879c03f5cff2e", "fusion_lon": 0.0, "bike_id": "1426ab8551cba432e9e879c03f5cff2e", "is_reserved": 0, "rental_uris": {"android": "https://dc.lft.to/lastmile_qr_scan", "ios": "https://dc.lft.to/lastmile_qr_scan"}, "lat": 38.921209, "is_disabled": 0, "lon": -77.03659783333333}, {"fusion_lat": 0.0, "type": "electric_scooter", "name": "b7e118d534b00616f30564cc9559e9fc", "fusion_lon": 0.0, "bike_id": "b7e118d534b00616f30564cc9559e9fc", "is_reserved": 0, "rental_uris": {"android": "https://dc.lft.to/lastmile_qr_scan", "ios": "https://dc.lft.to/lastmile_qr_scan"}, "lat": 38.92089133333333, "is_disabled": 0, "lon": -77.03166866666666}, {"fusion_lat": 0.0, "type": "electric_scooter", "name": "24f808958785b85bf9b6993adb01b23c", "fusion_lon": 0.0, "bike_id": "24f808958785b85bf9b6993adb01b23c", "is_reserved": 0, "rental_uris": {"android": "https://dc.lft.to/lastmile_qr_scan", "ios": "https://dc.lft.to/lastmile_qr_scan"}, "lat": 38.89917066666667, "is_disabled": 0, "lon": -76.93378566666667}, {"fusion_lat": 0.0, "type": "electric_scooter", "name": "5c67ed8fa33bee08e1600ba7acfb1cfb", "fusion_lon": 0.0, "bike_id": "5c67ed8fa33bee08e1600ba7acfb1cfb", "is_reserved": 0, "rental_uris": {"android": "https://dc.lft.to/lastmile_qr_scan", "ios": "https://dc.lft.to/lastmile_qr_scan"}, "lat": 38.93980283333333, "is_disabled": 0, "lon": -77.0297855}, {"fusion_lat": 0.0, "type": "electric_scooter", "name": "549fe465d8feb4b2db1068509738947d", "fusion_lon": 0.0, "bike_id": "549fe465d8feb4b2db1068509738947d", "is_reserved": 0, "rental_uris": {"android": "https://dc.lft.to/lastmile_qr_scan", "ios": "https://dc.lft.to/lastmile_qr_scan"}, "lat": 38.916771, "is_disabled": 0, "lon": -77.03668533333334}, {"fusion_lat": 0.0, "type": "electric_scooter", "name": "d216c3bc7872fbc4fa9244db256b9d49", "fusion_lon": 0.0, "bike_id": "d216c3bc7872fbc4fa9244db256b9d49", "is_reserved": 0, "rental_uris": {"android": "https://dc.lft.to/lastmile_qr_scan", "ios": "https://dc.lft.to/lastmile_qr_scan"}, "lat": 38.90725616666667, "is_disabled": 0, "lon": -77.03475533333334}, {"fusion_lat": 0.0, "type": "electric_scooter", "name": "de9038cadaab5e2df34e2c1e555733bb", "fusion_lon": 0.0, "bike_id": "de9038cadaab5e2df34e2c1e555733bb", "is_reserved": 0, "rental_uris": {"android": "https://dc.lft.to/lastmile_qr_scan", "ios": "https://dc.lft.to/lastmile_qr_scan"}, "lat": 38.92444033333334, "is_disabled": 0, "lon": -77.04114683333333}, {"fusion_lat": 0.0, "type": "electric_scooter", "name": "b58c6039dcc723b6a11c5b0527efcffc", "fusion_lon": 0.0, "bike_id": "b58c6039dcc723b6a11c5b0527efcffc", "is_reserved": 0, "rental_uris": {"android": "https://dc.lft.to/lastmile_qr_scan", "ios": "https://dc.lft.to/lastmile_qr_scan"}, "lat": 38.90098883333334, "is_disabled": 0, "lon": -77.04749933333333}, {"fusion_lat": 0.0, "type": "electric_scooter", "name": "277a83090e897ea8d02c11b62e85aa98", "fusion_lon": 0.0, "bike_id": "277a83090e897ea8d02c11b62e85aa98", "is_reserved": 0, "rental_uris": {"android": "https://dc.lft.to/lastmile_qr_scan", "ios": "https://dc.lft.to/lastmile_qr_scan"}, "lat": 38.897839166666664, "is_disabled": 0, "lon": -77.02725183333334}, {"fusion_lat": 0.0, "type": "electric_scooter", "name": "e1bffa674b9cf7560b9f1fb589c90a57", "fusion_lon": 0.0, "bike_id": "e1bffa674b9cf7560b9f1fb589c90a57", "is_reserved": 0, "rental_uris": {"android": "https://dc.lft.to/lastmile_qr_scan", "ios": "https://dc.lft.to/lastmile_qr_scan"}, "lat": 38.88301666666667, "is_disabled": 0, "lon": -76.9786765}, {"fusion_lat": 0.0, "type": "electric_scooter", "name": "fd179f10d48654a26c07cb6b0e02deba", "fusion_lon": 0.0, "bike_id": "fd179f10d48654a26c07cb6b0e02deba", "is_reserved": 0, "rental_uris": {"android": "https://dc.lft.to/lastmile_qr_scan", "ios": "https://dc.lft.to/lastmile_qr_scan"}, "lat": 38.915522333333335, "is_disabled": 0, "lon": -77.03129233333334}, {"fusion_lat": 0.0, "type": "electric_scooter", "name": "984f835e88dee91078c9cf37c4bed97b", "fusion_lon": 0.0, "bike_id": "984f835e88dee91078c9cf37c4bed97b", "is_reserved": 0, "rental_uris": {"android": "https://dc.lft.to/lastmile_qr_scan", "ios": "https://dc.lft.to/lastmile_qr_scan"}, "lat": 38.9271385, "is_disabled": 0, "lon": -77.02090766666667}, {"fusion_lat": 0.0, "type": "electric_scooter", "name": "1fedc90c9bbb292e7a173ea080d818bb", "fusion_lon": 0.0, "bike_id": "1fedc90c9bbb292e7a173ea080d818bb", "is_reserved": 0, "rental_uris": {"android": "https://dc.lft.to/lastmile_qr_scan", "ios": "https://dc.lft.to/lastmile_qr_scan"}, "lat": 38.94429083333333, "is_disabled": 0, "lon": -77.02602966666667}, {"fusion_lat": 0.0, "type": "electric_scooter", "name": "e72fb3197d265233a2ef655294366424", "fusion_lon": 0.0, "bike_id": "e72fb3197d265233a2ef655294366424", "is_reserved": 0, "rental_uris": {"android": "https://dc.lft.to/lastmile_qr_scan", "ios": "https://dc.lft.to/lastmile_qr_scan"}, "lat": 38.8922835, "is_disabled": 0, "lon": -77.03183783333333}, {"fusion_lat": 0.0, "type": "electric_scooter", "name": "11c44fe32c96f5f070797cbf44ba9eea", "fusion_lon": 0.0, "bike_id": "11c44fe32c96f5f070797cbf44ba9eea", "is_reserved": 0, "rental_uris": {"android": "https://dc.lft.to/lastmile_qr_scan", "ios": "https://dc.lft.to/lastmile_qr_scan"}, "lat": 38.931740166666664, "is_disabled": 0, "lon": -77.070985}, {"fusion_lat": 0.0, "type": "electric_scooter", "name": "a046aabc03330b9e2a0b76275b9a6c06", "fusion_lon": 0.0, "bike_id": "a046aabc03330b9e2a0b76275b9a6c06", "is_reserved": 0, "rental_uris": {"android": "https://dc.lft.to/lastmile_qr_scan", "ios": "https://dc.lft.to/lastmile_qr_scan"}, "lat": 38.89273516666667, "is_disabled": 0, "lon": -77.04877716666667}, {"fusion_lat": 0.0, "type": "electric_scooter", "name": "4c6b649c12aecdbbb64f3024d35e8892", "fusion_lon": 0.0, "bike_id": "4c6b649c12aecdbbb64f3024d35e8892", "is_reserved": 0, "rental_uris": {"android": "https://dc.lft.to/lastmile_qr_scan", "ios": "https://dc.lft.to/lastmile_qr_scan"}, "lat": 38.90080733333333, "is_disabled": 0, "lon": -76.930136}, {"fusion_lat": 0.0, "type": "electric_scooter", "name": "f6bf53ae0e3d23223b6213f398796011", "fusion_lon": 0.0, "bike_id": "f6bf53ae0e3d23223b6213f398796011", "is_reserved": 0, "rental_uris": {"android": "https://dc.lft.to/lastmile_qr_scan", "ios": "https://dc.lft.to/lastmile_qr_scan"}, "lat": 38.872045166666666, "is_disabled": 0, "lon": -76.97838316666666}, {"fusion_lat": 0.0, "type": "electric_bike", "name": "8b6411b60d436d1e4ee6c5f1ad0c237f", "fusion_lon": 0.0, "bike_id": "8b6411b60d436d1e4ee6c5f1ad0c237f", "is_reserved": 0, "rental_uris": {"android": "https://dc.lft.to/lastmile_qr_scan", "ios": "https://dc.lft.to/lastmile_qr_scan"}, "lat": 38.9164475, "is_disabled": 0, "lon": -76.97306033333334}, {"fusion_lat": 0.0, "type": "electric_scooter", "name": "197323b28fd3d5ab1ea6bda0ebb24060", "fusion_lon": 0.0, "bike_id": "197323b28fd3d5ab1ea6bda0ebb24060", "is_reserved": 0, "rental_uris": {"android": "https://dc.lft.to/lastmile_qr_scan", "ios": "https://dc.lft.to/lastmile_qr_scan"}, "lat": 38.855349, "is_disabled": 0, "lon": -76.9841555}, {"fusion_lat": 0.0, "type": "electric_scooter", "name": "dd22f279a0dff9be9b26d3a4a82acd90", "fusion_lon": 0.0, "bike_id": "dd22f279a0dff9be9b26d3a4a82acd90", "is_reserved": 0, "rental_uris": {"android": "https://dc.lft.to/lastmile_qr_scan", "ios": "https://dc.lft.to/lastmile_qr_scan"}, "lat": 38.935851166666666, "is_disabled": 0, "lon": -77.08115133333334}, {"fusion_lat": 0.0, "type": "electric_scooter", "name": "00844f531edc5fdaff510374a2b624e3", "fusion_lon": 0.0, "bike_id": "00844f531edc5fdaff510374a2b624e3", "is_reserved": 0, "rental_uris": {"android": "https://dc.lft.to/lastmile_qr_scan", "ios": "https://dc.lft.to/lastmile_qr_scan"}, "lat": 38.950629, "is_disabled": 0, "lon": -77.08014066666667}, {"fusion_lat": 0.0, "type": "electric_scooter", "name": "5714a98bd92ce8d8c42cc118b2c7f826", "fusion_lon": 0.0, "bike_id": "5714a98bd92ce8d8c42cc118b2c7f826", "is_reserved": 0, "rental_uris": {"android": "https://dc.lft.to/lastmile_qr_scan", "ios": "https://dc.lft.to/lastmile_qr_scan"}, "lat": 38.88484233333333, "is_disabled": 0, "lon": -76.92617816666667}, {"fusion_lat": 0.0, "type": "electric_scooter", "name": "2c57bff0228f929dc70f555b1ccccaa5", "fusion_lon": 0.0, "bike_id": "2c57bff0228f929dc70f555b1ccccaa5", "is_reserved": 0, "rental_uris": {"android": "https://dc.lft.to/lastmile_qr_scan", "ios": "https://dc.lft.to/lastmile_qr_scan"}, "lat": 38.89721183333333, "is_disabled": 0, "lon": -77.027032}, {"fusion_lat": 0.0, "type": "electric_bike", "name": "c1de9d0ebd7d54b1ecad04d1f0681d2e", "fusion_lon": 0.0, "bike_id": "c1de9d0ebd7d54b1ecad04d1f0681d2e", "is_reserved": 0, "rental_uris": {"android": "https://dc.lft.to/lastmile_qr_scan", "ios": "https://dc.lft.to/lastmile_qr_scan"}, "lat": 38.9224835, "is_disabled": 0, "lon": -77.0306915}, {"fusion_lat": 0.0, "type": "electric_scooter", "name": "fc0610d6df9cbff5b4f37c2a5da1b041", "fusion_lon": 0.0, "bike_id": "fc0610d6df9cbff5b4f37c2a5da1b041", "is_reserved": 0, "rental_uris": {"android": "https://dc.lft.to/lastmile_qr_scan", "ios": "https://dc.lft.to/lastmile_qr_scan"}, "lat": 38.885792, "is_disabled": 0, "lon": -77.0173595}, {"fusion_lat": 0.0, "type": "electric_scooter", "name": "b8a040526039f068e7f6251190cc8298", "fusion_lon": 0.0, "bike_id": "b8a040526039f068e7f6251190cc8298", "is_reserved": 0, "rental_uris": {"android": "https://dc.lft.to/lastmile_qr_scan", "ios": "https://dc.lft.to/lastmile_qr_scan"}, "lat": 38.95836716666667, "is_disabled": 0, "lon": -77.06858116666666}, {"fusion_lat": 0.0, "type": "electric_scooter", "name": "5d8f34d860d05f0f9ca28710e5d40bb8", "fusion_lon": 0.0, "bike_id": "5d8f34d860d05f0f9ca28710e5d40bb8", "is_reserved": 0, "rental_uris": {"android": "https://dc.lft.to/lastmile_qr_scan", "ios": "https://dc.lft.to/lastmile_qr_scan"}, "lat": 38.91675133333333, "is_disabled": 0, "lon": -77.0321835}, {"fusion_lat": 0.0, "type": "electric_bike", "name": "ae2e84034e8794c205a11164bf9bb8a1", "fusion_lon": 0.0, "bike_id": "ae2e84034e8794c205a11164bf9bb8a1", "is_reserved": 0, "rental_uris": {"android": "https://dc.lft.to/lastmile_qr_scan", "ios": "https://dc.lft.to/lastmile_qr_scan"}, "lat": 38.87836583333333, "is_disabled": 0, "lon": -76.983744}, {"fusion_lat": 0.0, "type": "electric_scooter", "name": "c6df30eeb5ec3bd35b11ce343704ad2d", "fusion_lon": 0.0, "bike_id": "c6df30eeb5ec3bd35b11ce343704ad2d", "is_reserved": 0, "rental_uris": {"android": "https://dc.lft.to/lastmile_qr_scan", "ios": "https://dc.lft.to/lastmile_qr_scan"}, "lat": 38.906617, "is_disabled": 0, "lon": -77.0057115}, {"fusion_lat": 0.0, "type": "electric_bike", "name": "6d7dd582868a420867b6d4a099561ff8", "fusion_lon": 0.0, "bike_id": "6d7dd582868a420867b6d4a099561ff8", "is_reserved": 0, "rental_uris": {"android": "https://dc.lft.to/lastmile_qr_scan", "ios": "https://dc.lft.to/lastmile_qr_scan"}, "lat": 38.93640883333333, "is_disabled": 0, "lon": -77.03705233333334}, {"fusion_lat": 0.0, "type": "electric_scooter", "name": "f10b304e39aa613bc99123bf0953cdc5", "fusion_lon": 0.0, "bike_id": "f10b304e39aa613bc99123bf0953cdc5", "is_reserved": 0, "rental_uris": {"android": "https://dc.lft.to/lastmile_qr_scan", "ios": "https://dc.lft.to/lastmile_qr_scan"}, "lat": 38.92863833333333, "is_disabled": 0, "lon": -77.030912}, {"fusion_lat": 0.0, "type": "electric_scooter", "name": "c390b7a61249e74392031c73bdc348cf", "fusion_lon": 0.0, "bike_id": "c390b7a61249e74392031c73bdc348cf", "is_reserved": 0, "rental_uris": {"android": "https://dc.lft.to/lastmile_qr_scan", "ios": "https://dc.lft.to/lastmile_qr_scan"}, "lat": 38.91483266666667, "is_disabled": 0, "lon": -77.02583083333333}, {"fusion_lat": 0.0, "type": "electric_scooter", "name": "d2cb889abffec7015efb58cb0a35dfe5", "fusion_lon": 0.0, "bike_id": "d2cb889abffec7015efb58cb0a35dfe5", "is_reserved": 0, "rental_uris": {"android": "https://dc.lft.to/lastmile_qr_scan", "ios": "https://dc.lft.to/lastmile_qr_scan"}, "lat": 38.9247975, "is_disabled": 0, "lon": -77.02142416666666}, {"fusion_lat": 0.0, "type": "electric_scooter", "name": "88b5d13728041fd29d7f788667d4bc34", "fusion_lon": 0.0, "bike_id": "88b5d13728041fd29d7f788667d4bc34", "is_reserved": 0, "rental_uris": {"android": "https://dc.lft.to/lastmile_qr_scan", "ios": "https://dc.lft.to/lastmile_qr_scan"}, "lat": 38.920290333333334, "is_disabled": 0, "lon": -77.011155}, {"fusion_lat": 0.0, "type": "electric_scooter", "name": "c5d808c1f90c1612965fbca198b36b7a", "fusion_lon": 0.0, "bike_id": "c5d808c1f90c1612965fbca198b36b7a", "is_reserved": 0, "rental_uris": {"android": "https://dc.lft.to/lastmile_qr_scan", "ios": "https://dc.lft.to/lastmile_qr_scan"}, "lat": 38.90728816666667, "is_disabled": 0, "lon": -77.0015715}, {"fusion_lat": 0.0, "type": "electric_scooter", "name": "1e368d623d40d19079f25b3821532632", "fusion_lon": 0.0, "bike_id": "1e368d623d40d19079f25b3821532632", "is_reserved": 0, "rental_uris": {"android": "https://dc.lft.to/lastmile_qr_scan", "ios": "https://dc.lft.to/lastmile_qr_scan"}, "lat": 38.928017, "is_disabled": 0, "lon": -77.0247805}, {"fusion_lat": 0.0, "type": "electric_scooter", "name": "ad5d59471bc0234fe4b9209a08e35c05", "fusion_lon": 0.0, "bike_id": "ad5d59471bc0234fe4b9209a08e35c05", "is_reserved": 0, "rental_uris": {"android": "https://dc.lft.to/lastmile_qr_scan", "ios": "https://dc.lft.to/lastmile_qr_scan"}, "lat": 38.92054783333333, "is_disabled": 0, "lon": -77.039988}, {"fusion_lat": 0.0, "type": "electric_bike", "name": "a24b4e245b0c34998d5eab936546a18b", "fusion_lon": 0.0, "bike_id": "a24b4e245b0c34998d5eab936546a18b", "is_reserved": 0, "rental_uris": {"android": "https://dc.lft.to/lastmile_qr_scan", "ios": "https://dc.lft.to/lastmile_qr_scan"}, "lat": 38.934032333333334, "is_disabled": 0, "lon": -77.03547166666667}, {"fusion_lat": 0.0, "type": "electric_scooter", "name": "bd0200e0efdf8eb7e01164ed130b34b4", "fusion_lon": 0.0, "bike_id": "bd0200e0efdf8eb7e01164ed130b34b4", "is_reserved": 0, "rental_uris": {"android": "https://dc.lft.to/lastmile_qr_scan", "ios": "https://dc.lft.to/lastmile_qr_scan"}, "lat": 38.97367666666667, "is_disabled": 0, "lon": -77.0186725}, {"fusion_lat": 0.0, "type": "electric_scooter", "name": "e1218e4e0d8a802eebd018e9d5d482f9", "fusion_lon": 0.0, "bike_id": "e1218e4e0d8a802eebd018e9d5d482f9", "is_reserved": 0, "rental_uris": {"android": "https://dc.lft.to/lastmile_qr_scan", "ios": "https://dc.lft.to/lastmile_qr_scan"}, "lat": 38.933378166666664, "is_disabled": 0, "lon": -77.05709233333333}, {"fusion_lat": 0.0, "type": "electric_scooter", "name": "cc1565d0c66c702b55c0d2ef0900f3ad", "fusion_lon": 0.0, "bike_id": "cc1565d0c66c702b55c0d2ef0900f3ad", "is_reserved": 0, "rental_uris": {"android": "https://dc.lft.to/lastmile_qr_scan", "ios": "https://dc.lft.to/lastmile_qr_scan"}, "lat": 38.8707745, "is_disabled": 0, "lon": -76.989087}, {"fusion_lat": 0.0, "type": "electric_scooter", "name": "2f872e6c0bc6908263b75c5295862e6a", "fusion_lon": 0.0, "bike_id": "2f872e6c0bc6908263b75c5295862e6a", "is_reserved": 0, "rental_uris": {"android": "https://dc.lft.to/lastmile_qr_scan", "ios": "https://dc.lft.to/lastmile_qr_scan"}, "lat": 38.90100733333333, "is_disabled": 0, "lon": -77.04316266666666}, {"fusion_lat": 0.0, "type": "electric_scooter", "name": "eef33e544a546008127986975352af60", "fusion_lon": 0.0, "bike_id": "eef33e544a546008127986975352af60", "is_reserved": 0, "rental_uris": {"android": "https://dc.lft.to/lastmile_qr_scan", "ios": "https://dc.lft.to/lastmile_qr_scan"}, "lat": 38.8882825, "is_disabled": 0, "lon": -76.99370366666666}, {"fusion_lat": 0.0, "type": "electric_scooter", "name": "78e599314d2ed92b9f74c5871bc4d0a2", "fusion_lon": 0.0, "bike_id": "78e599314d2ed92b9f74c5871bc4d0a2", "is_reserved": 0, "rental_uris": {"android": "https://dc.lft.to/lastmile_qr_scan", "ios": "https://dc.lft.to/lastmile_qr_scan"}, "lat": 38.908486333333336, "is_disabled": 0, "lon": -77.04240416666667}, {"fusion_lat": 0.0, "type": "electric_scooter", "name": "84e7ce4ae91ea846f4c06b8f58055dd3", "fusion_lon": 0.0, "bike_id": "84e7ce4ae91ea846f4c06b8f58055dd3", "is_reserved": 0, "rental_uris": {"android": "https://dc.lft.to/lastmile_qr_scan", "ios": "https://dc.lft.to/lastmile_qr_scan"}, "lat": 38.86682916666667, "is_disabled": 0, "lon": -76.985922}, {"fusion_lat": 0.0, "type": "electric_scooter", "name": "e8066023c3bbec82d247c4d43fd082fc", "fusion_lon": 0.0, "bike_id": "e8066023c3bbec82d247c4d43fd082fc", "is_reserved": 0, "rental_uris": {"android": "https://dc.lft.to/lastmile_qr_scan", "ios": "https://dc.lft.to/lastmile_qr_scan"}, "lat": 38.9274885, "is_disabled": 0, "lon": -77.025401}, {"fusion_lat": 0.0, "type": "electric_scooter", "name": "7accf4fb1d2585a6aba842526fcb3489", "fusion_lon": 0.0, "bike_id": "7accf4fb1d2585a6aba842526fcb3489", "is_reserved": 0, "rental_uris": {"android": "https://dc.lft.to/lastmile_qr_scan", "ios": "https://dc.lft.to/lastmile_qr_scan"}, "lat": 38.9057205, "is_disabled": 0, "lon": -77.02204516666667}, {"fusion_lat": 0.0, "type": "electric_scooter", "name": "17f622a71a28cf14726129b89fdb8fcb", "fusion_lon": 0.0, "bike_id": "17f622a71a28cf14726129b89fdb8fcb", "is_reserved": 0, "rental_uris": {"android": "https://dc.lft.to/lastmile_qr_scan", "ios": "https://dc.lft.to/lastmile_qr_scan"}, "lat": 38.92365266666667, "is_disabled": 0, "lon": -77.028036}, {"fusion_lat": 0.0, "type": "electric_scooter", "name": "ecceb91d4e61a5ca7f5f64859f59aec7", "fusion_lon": 0.0, "bike_id": "ecceb91d4e61a5ca7f5f64859f59aec7", "is_reserved": 0, "rental_uris": {"android": "https://dc.lft.to/lastmile_qr_scan", "ios": "https://dc.lft.to/lastmile_qr_scan"}, "lat": 38.90008266666667, "is_disabled": 0, "lon": -76.99307916666666}, {"fusion_lat": 0.0, "type": "electric_bike", "name": "82d0cdffe28d7e27e5f7382de8653c77", "fusion_lon": 0.0, "bike_id": "82d0cdffe28d7e27e5f7382de8653c77", "is_reserved": 0, "rental_uris": {"android": "https://dc.lft.to/lastmile_qr_scan", "ios": "https://dc.lft.to/lastmile_qr_scan"}, "lat": 38.962241666666664, "is_disabled": 0, "lon": -77.02636116666666}, {"fusion_lat": 0.0, "type": "electric_scooter", "name": "1b9e645c96128d7f15be933957d583d8", "fusion_lon": 0.0, "bike_id": "1b9e645c96128d7f15be933957d583d8", "is_reserved": 0, "rental_uris": {"android": "https://dc.lft.to/lastmile_qr_scan", "ios": "https://dc.lft.to/lastmile_qr_scan"}, "lat": 38.937017166666664, "is_disabled": 0, "lon": -77.06104116666667}, {"fusion_lat": 0.0, "type": "electric_scooter", "name": "0c53f2f0b5b2e313ecca94615c26063d", "fusion_lon": 0.0, "bike_id": "0c53f2f0b5b2e313ecca94615c26063d", "is_reserved": 0, "rental_uris": {"android": "https://dc.lft.to/lastmile_qr_scan", "ios": "https://dc.lft.to/lastmile_qr_scan"}, "lat": 38.897365666666666, "is_disabled": 0, "lon": -77.01316066666666}, {"fusion_lat": 0.0, "type": "electric_scooter", "name": "34012dd915b1f1b033b6385bcf4ecc10", "fusion_lon": 0.0, "bike_id": "34012dd915b1f1b033b6385bcf4ecc10", "is_reserved": 0, "rental_uris": {"android": "https://dc.lft.to/lastmile_qr_scan", "ios": "https://dc.lft.to/lastmile_qr_scan"}, "lat": 38.94124933333333, "is_disabled": 0, "lon": -77.01543766666667}, {"fusion_lat": 0.0, "type": "electric_scooter", "name": "4c31264ad3e1af5ce87f9e7eb0e094cc", "fusion_lon": 0.0, "bike_id": "4c31264ad3e1af5ce87f9e7eb0e094cc", "is_reserved": 0, "rental_uris": {"android": "https://dc.lft.to/lastmile_qr_scan", "ios": "https://dc.lft.to/lastmile_qr_scan"}, "lat": 38.892493, "is_disabled": 0, "lon": -77.04659383333333}, {"fusion_lat": 0.0, "type": "electric_bike", "name": "d6936d8473bef0c5ce3ab5b379ce8591", "fusion_lon": 0.0, "bike_id": "d6936d8473bef0c5ce3ab5b379ce8591", "is_reserved": 0, "rental_uris": {"android": "https://dc.lft.to/lastmile_qr_scan", "ios": "https://dc.lft.to/lastmile_qr_scan"}, "lat": 38.8544, "is_disabled": 0, "lon": -77.08333566666667}, {"fusion_lat": 0.0, "type": "electric_scooter", "name": "8fd75639aa093461bab1474abe9c7cc3", "fusion_lon": 0.0, "bike_id": "8fd75639aa093461bab1474abe9c7cc3", "is_reserved": 0, "rental_uris": {"android": "https://dc.lft.to/lastmile_qr_scan", "ios": "https://dc.lft.to/lastmile_qr_scan"}, "lat": 38.918869666666666, "is_disabled": 0, "lon": -77.04824216666667}, {"fusion_lat": 0.0, "type": "electric_scooter", "name": "b1c12bc69d3ab5385492744e9acdc3bb", "fusion_lon": 0.0, "bike_id": "b1c12bc69d3ab5385492744e9acdc3bb", "is_reserved": 0, "rental_uris": {"android": "https://dc.lft.to/lastmile_qr_scan", "ios": "https://dc.lft.to/lastmile_qr_scan"}, "lat": 38.9057515, "is_disabled": 0, "lon": -77.02596533333333}, {"fusion_lat": 0.0, "type": "electric_scooter", "name": "65ee44c1f67382a10ae23d78fc1188b8", "fusion_lon": 0.0, "bike_id": "65ee44c1f67382a10ae23d78fc1188b8", "is_reserved": 0, "rental_uris": {"android": "https://dc.lft.to/lastmile_qr_scan", "ios": "https://dc.lft.to/lastmile_qr_scan"}, "lat": 38.919588833333336, "is_disabled": 0, "lon": -77.02395066666666}, {"fusion_lat": 0.0, "type": "electric_scooter", "name": "67828bfd8fe5d65dafea9c389ebf1cfc", "fusion_lon": 0.0, "bike_id": "67828bfd8fe5d65dafea9c389ebf1cfc", "is_reserved": 0, "rental_uris": {"android": "https://dc.lft.to/lastmile_qr_scan", "ios": "https://dc.lft.to/lastmile_qr_scan"}, "lat": 38.927931, "is_disabled": 0, "lon": -77.02119566666667}, {"fusion_lat": 0.0, "type": "electric_scooter", "name": "b1b8cb8711e7d5560dfd731cc97c9b5b", "fusion_lon": 0.0, "bike_id": "b1b8cb8711e7d5560dfd731cc97c9b5b", "is_reserved": 0, "rental_uris": {"android": "https://dc.lft.to/lastmile_qr_scan", "ios": "https://dc.lft.to/lastmile_qr_scan"}, "lat": 38.921620833333336, "is_disabled": 0, "lon": -77.033862}, {"fusion_lat": 0.0, "type": "electric_scooter", "name": "497d1023cdaa290c7517c4fdc9aef9ee", "fusion_lon": 0.0, "bike_id": "497d1023cdaa290c7517c4fdc9aef9ee", "is_reserved": 0, "rental_uris": {"android": "https://dc.lft.to/lastmile_qr_scan", "ios": "https://dc.lft.to/lastmile_qr_scan"}, "lat": 38.966244333333336, "is_disabled": 0, "lon": -77.03508566666666}, {"fusion_lat": 0.0, "type": "electric_bike", "name": "dbd63e6c908d0f00807ea21d77a8ec23", "fusion_lon": 0.0, "bike_id": "dbd63e6c908d0f00807ea21d77a8ec23", "is_reserved": 0, "rental_uris": {"android": "https://dc.lft.to/lastmile_qr_scan", "ios": "https://dc.lft.to/lastmile_qr_scan"}, "lat": 38.857675666666665, "is_disabled": 0, "lon": -76.9876965}, {"fusion_lat": 0.0, "type": "electric_scooter", "name": "a273c75857a5cf8e11825301d6013007", "fusion_lon": 0.0, "bike_id": "a273c75857a5cf8e11825301d6013007", "is_reserved": 0, "rental_uris": {"android": "https://dc.lft.to/lastmile_qr_scan", "ios": "https://dc.lft.to/lastmile_qr_scan"}, "lat": 38.938761666666664, "is_disabled": 0, "lon": -77.02372116666666}, {"fusion_lat": 0.0, "type": "electric_scooter", "name": "9641a239b3c67c6b3cc8d7913c8837be", "fusion_lon": 0.0, "bike_id": "9641a239b3c67c6b3cc8d7913c8837be", "is_reserved": 0, "rental_uris": {"android": "https://dc.lft.to/lastmile_qr_scan", "ios": "https://dc.lft.to/lastmile_qr_scan"}, "lat": 38.926384666666664, "is_disabled": 0, "lon": -77.03468866666667}, {"fusion_lat": 0.0, "type": "electric_scooter", "name": "92f94d449f30032d2cff4e438de151e5", "fusion_lon": 0.0, "bike_id": "92f94d449f30032d2cff4e438de151e5", "is_reserved": 0, "rental_uris": {"android": "https://dc.lft.to/lastmile_qr_scan", "ios": "https://dc.lft.to/lastmile_qr_scan"}, "lat": 38.879669166666666, "is_disabled": 0, "lon": -76.98744183333334}, {"fusion_lat": 0.0, "type": "electric_bike", "name": "c5b7e96d16a05cb3118d7c674dfe0ec3", "fusion_lon": 0.0, "bike_id": "c5b7e96d16a05cb3118d7c674dfe0ec3", "is_reserved": 0, "rental_uris": {"android": "https://dc.lft.to/lastmile_qr_scan", "ios": "https://dc.lft.to/lastmile_qr_scan"}, "lat": 39.034313, "is_disabled": 0, "lon": -77.0409875}, {"fusion_lat": 0.0, "type": "electric_scooter", "name": "b73757427276249125b4994ba8509d0d", "fusion_lon": 0.0, "bike_id": "b73757427276249125b4994ba8509d0d", "is_reserved": 0, "rental_uris": {"android": "https://dc.lft.to/lastmile_qr_scan", "ios": "https://dc.lft.to/lastmile_qr_scan"}, "lat": 38.9168335, "is_disabled": 0, "lon": -77.02810983333333}, {"fusion_lat": 0.0, "type": "electric_scooter", "name": "03d6c65557c2812c951528eb11ffebb3", "fusion_lon": 0.0, "bike_id": "03d6c65557c2812c951528eb11ffebb3", "is_reserved": 0, "rental_uris": {"android": "https://dc.lft.to/lastmile_qr_scan", "ios": "https://dc.lft.to/lastmile_qr_scan"}, "lat": 38.92137483333333, "is_disabled": 0, "lon": -77.01804366666667}, {"fusion_lat": 0.0, "type": "electric_scooter", "name": "1110d1d9171cbe069b08edf13b039479", "fusion_lon": 0.0, "bike_id": "1110d1d9171cbe069b08edf13b039479", "is_reserved": 0, "rental_uris": {"android": "https://dc.lft.to/lastmile_qr_scan", "ios": "https://dc.lft.to/lastmile_qr_scan"}, "lat": 38.89248933333333, "is_disabled": 0, "lon": -76.9883665}, {"fusion_lat": 0.0, "type": "electric_bike", "name": "2866017812733f5018f7bc36fd7811ea", "fusion_lon": 0.0, "bike_id": "2866017812733f5018f7bc36fd7811ea", "is_reserved": 0, "rental_uris": {"android": "https://dc.lft.to/lastmile_qr_scan", "ios": "https://dc.lft.to/lastmile_qr_scan"}, "lat": 38.883339, "is_disabled": 0, "lon": -77.0656535}, {"fusion_lat": 0.0, "type": "electric_scooter", "name": "20bbf9635c26dd0d910099364f39cb13", "fusion_lon": 0.0, "bike_id": "20bbf9635c26dd0d910099364f39cb13", "is_reserved": 0, "rental_uris": {"android": "https://dc.lft.to/lastmile_qr_scan", "ios": "https://dc.lft.to/lastmile_qr_scan"}, "lat": 38.921601, "is_disabled": 0, "lon": -77.033589}, {"fusion_lat": 0.0, "type": "electric_scooter", "name": "c2e8e6dbe54bee89f9b5904c5c4b4763", "fusion_lon": 0.0, "bike_id": "c2e8e6dbe54bee89f9b5904c5c4b4763", "is_reserved": 0, "rental_uris": {"android": "https://dc.lft.to/lastmile_qr_scan", "ios": "https://dc.lft.to/lastmile_qr_scan"}, "lat": 38.903628166666664, "is_disabled": 0, "lon": -77.04000883333333}, {"fusion_lat": 0.0, "type": "electric_bike", "name": "cf025fc294ea005951028e6fee8a34af", "fusion_lon": 0.0, "bike_id": "cf025fc294ea005951028e6fee8a34af", "is_reserved": 0, "rental_uris": {"android": "https://dc.lft.to/lastmile_qr_scan", "ios": "https://dc.lft.to/lastmile_qr_scan"}, "lat": 39.054964, "is_disabled": 0, "lon": -77.11790483333333}, {"fusion_lat": 0.0, "type": "electric_scooter", "name": "8fb883529076abcb006e086aca25c1d6", "fusion_lon": 0.0, "bike_id": "8fb883529076abcb006e086aca25c1d6", "is_reserved": 0, "rental_uris": {"android": "https://dc.lft.to/lastmile_qr_scan", "ios": "https://dc.lft.to/lastmile_qr_scan"}, "lat": 38.91983283333333, "is_disabled": 0, "lon": -77.03795933333333}, {"fusion_lat": 0.0, "type": "electric_scooter", "name": "2b8298d973632585be589befa3229e68", "fusion_lon": 0.0, "bike_id": "2b8298d973632585be589befa3229e68", "is_reserved": 0, "rental_uris": {"android": "https://dc.lft.to/lastmile_qr_scan", "ios": "https://dc.lft.to/lastmile_qr_scan"}, "lat": 38.92077833333333, "is_disabled": 0, "lon": -77.023195}, {"fusion_lat": 0.0, "type": "electric_scooter", "name": "7006000e624badd645243d19289695b5", "fusion_lon": 0.0, "bike_id": "7006000e624badd645243d19289695b5", "is_reserved": 0, "rental_uris": {"android": "https://dc.lft.to/lastmile_qr_scan", "ios": "https://dc.lft.to/lastmile_qr_scan"}, "lat": 38.9244075, "is_disabled": 0, "lon": -77.04028583333333}, {"fusion_lat": 0.0, "type": "electric_scooter", "name": "3f7a4cceb9c3a76c84d30ded308c2aa9", "fusion_lon": 0.0, "bike_id": "3f7a4cceb9c3a76c84d30ded308c2aa9", "is_reserved": 0, "rental_uris": {"android": "https://dc.lft.to/lastmile_qr_scan", "ios": "https://dc.lft.to/lastmile_qr_scan"}, "lat": 38.916326166666664, "is_disabled": 0, "lon": -77.0108635}, {"fusion_lat": 0.0, "type": "electric_scooter", "name": "a151a147fff35e9279d70b6717654135", "fusion_lon": 0.0, "bike_id": "a151a147fff35e9279d70b6717654135", "is_reserved": 0, "rental_uris": {"android": "https://dc.lft.to/lastmile_qr_scan", "ios": "https://dc.lft.to/lastmile_qr_scan"}, "lat": 38.87155516666667, "is_disabled": 0, "lon": -76.977402}, {"fusion_lat": 0.0, "type": "electric_scooter", "name": "53725a56ce0d196ec37662cdc58d322c", "fusion_lon": 0.0, "bike_id": "53725a56ce0d196ec37662cdc58d322c", "is_reserved": 0, "rental_uris": {"android": "https://dc.lft.to/lastmile_qr_scan", "ios": "https://dc.lft.to/lastmile_qr_scan"}, "lat": 38.9555215, "is_disabled": 0, "lon": -77.06999983333333}, {"fusion_lat": 0.0, "type": "electric_scooter", "name": "7d2749727aec65813511bf7c88df40a8", "fusion_lon": 0.0, "bike_id": "7d2749727aec65813511bf7c88df40a8", "is_reserved": 0, "rental_uris": {"android": "https://dc.lft.to/lastmile_qr_scan", "ios": "https://dc.lft.to/lastmile_qr_scan"}, "lat": 38.9310055, "is_disabled": 0, "lon": -77.024807}, {"fusion_lat": 0.0, "type": "electric_scooter", "name": "4b993e986e198a67f89f7b84ada3c9a3", "fusion_lon": 0.0, "bike_id": "4b993e986e198a67f89f7b84ada3c9a3", "is_reserved": 0, "rental_uris": {"android": "https://dc.lft.to/lastmile_qr_scan", "ios": "https://dc.lft.to/lastmile_qr_scan"}, "lat": 38.913878, "is_disabled": 0, "lon": -77.03316216666667}, {"fusion_lat": 0.0, "type": "electric_scooter", "name": "5652d86061648906145b2eb4eb56f994", "fusion_lon": 0.0, "bike_id": "5652d86061648906145b2eb4eb56f994", "is_reserved": 0, "rental_uris": {"android": "https://dc.lft.to/lastmile_qr_scan", "ios": "https://dc.lft.to/lastmile_qr_scan"}, "lat": 38.91706333333333, "is_disabled": 0, "lon": -77.0087145}, {"fusion_lat": 0.0, "type": "electric_scooter", "name": "3c421c4bb160e242f984bd53349dd086", "fusion_lon": 0.0, "bike_id": "3c421c4bb160e242f984bd53349dd086", "is_reserved": 0, "rental_uris": {"android": "https://dc.lft.to/lastmile_qr_scan", "ios": "https://dc.lft.to/lastmile_qr_scan"}, "lat": 38.950191833333335, "is_disabled": 0, "lon": -77.066943}, {"fusion_lat": 0.0, "type": "electric_scooter", "name": "443d0e0122ee02a3c248c34374cff248", "fusion_lon": 0.0, "bike_id": "443d0e0122ee02a3c248c34374cff248", "is_reserved": 0, "rental_uris": {"android": "https://dc.lft.to/lastmile_qr_scan", "ios": "https://dc.lft.to/lastmile_qr_scan"}, "lat": 38.92269316666667, "is_disabled": 0, "lon": -77.03676133333333}, {"fusion_lat": 0.0, "type": "electric_scooter", "name": "33ae9d0691122eb180681729d690ab6b", "fusion_lon": 0.0, "bike_id": "33ae9d0691122eb180681729d690ab6b", "is_reserved": 0, "rental_uris": {"android": "https://dc.lft.to/lastmile_qr_scan", "ios": "https://dc.lft.to/lastmile_qr_scan"}, "lat": 38.933316, "is_disabled": 0, "lon": -77.04406416666667}, {"fusion_lat": 0.0, "type": "electric_scooter", "name": "53907f6f5b27c65b604242cebedef726", "fusion_lon": 0.0, "bike_id": "53907f6f5b27c65b604242cebedef726", "is_reserved": 0, "rental_uris": {"android": "https://dc.lft.to/lastmile_qr_scan", "ios": "https://dc.lft.to/lastmile_qr_scan"}, "lat": 38.9178125, "is_disabled": 0, "lon": -77.02310166666666}, {"fusion_lat": 0.0, "type": "electric_scooter", "name": "642487a79eb48e7ceed01927bd702ef6", "fusion_lon": 0.0, "bike_id": "642487a79eb48e7ceed01927bd702ef6", "is_reserved": 0, "rental_uris": {"android": "https://dc.lft.to/lastmile_qr_scan", "ios": "https://dc.lft.to/lastmile_qr_scan"}, "lat": 38.87710533333333, "is_disabled": 0, "lon": -76.993848}, {"fusion_lat": 0.0, "type": "electric_scooter", "name": "99bf0bcbaeebf89b53568e3654f74446", "fusion_lon": 0.0, "bike_id": "99bf0bcbaeebf89b53568e3654f74446", "is_reserved": 0, "rental_uris": {"android": "https://dc.lft.to/lastmile_qr_scan", "ios": "https://dc.lft.to/lastmile_qr_scan"}, "lat": 38.8831525, "is_disabled": 0, "lon": -76.9923055}, {"fusion_lat": 0.0, "type": "electric_scooter", "name": "f248fa9ea0a0ee911ca67309b8acbbc0", "fusion_lon": 0.0, "bike_id": "f248fa9ea0a0ee911ca67309b8acbbc0", "is_reserved": 0, "rental_uris": {"android": "https://dc.lft.to/lastmile_qr_scan", "ios": "https://dc.lft.to/lastmile_qr_scan"}, "lat": 38.93913416666667, "is_disabled": 0, "lon": -77.03263816666667}, {"fusion_lat": 0.0, "type": "electric_scooter", "name": "80b3c32a56bbd0dc612f523a724ae58d", "fusion_lon": 0.0, "bike_id": "80b3c32a56bbd0dc612f523a724ae58d", "is_reserved": 0, "rental_uris": {"android": "https://dc.lft.to/lastmile_qr_scan", "ios": "https://dc.lft.to/lastmile_qr_scan"}, "lat": 38.909709166666666, "is_disabled": 0, "lon": -77.03865166666667}, {"fusion_lat": 0.0, "type": "electric_scooter", "name": "ddcabae98c95cbb6e2f69d99bef39b73", "fusion_lon": 0.0, "bike_id": "ddcabae98c95cbb6e2f69d99bef39b73", "is_reserved": 0, "rental_uris": {"android": "https://dc.lft.to/lastmile_qr_scan", "ios": "https://dc.lft.to/lastmile_qr_scan"}, "lat": 38.887948, "is_disabled": 0, "lon": -76.933555}, {"fusion_lat": 0.0, "type": "electric_scooter", "name": "4f4d743ca085aebb8c9e439b3ab4fe3c", "fusion_lon": 0.0, "bike_id": "4f4d743ca085aebb8c9e439b3ab4fe3c", "is_reserved": 0, "rental_uris": {"android": "https://dc.lft.to/lastmile_qr_scan", "ios": "https://dc.lft.to/lastmile_qr_scan"}, "lat": 38.906596, "is_disabled": 0, "lon": -77.03874016666667}, {"fusion_lat": 0.0, "type": "electric_scooter", "name": "99ce2fa2d2e7bdf870a795f0ab5d9216", "fusion_lon": 0.0, "bike_id": "99ce2fa2d2e7bdf870a795f0ab5d9216", "is_reserved": 0, "rental_uris": {"android": "https://dc.lft.to/lastmile_qr_scan", "ios": "https://dc.lft.to/lastmile_qr_scan"}, "lat": 38.915550833333334, "is_disabled": 0, "lon": -77.02554266666667}, {"fusion_lat": 0.0, "type": "electric_scooter", "name": "1c2fc96358b169b126d450b1baceaf47", "fusion_lon": 0.0, "bike_id": "1c2fc96358b169b126d450b1baceaf47", "is_reserved": 0, "rental_uris": {"android": "https://dc.lft.to/lastmile_qr_scan", "ios": "https://dc.lft.to/lastmile_qr_scan"}, "lat": 38.91771833333333, "is_disabled": 0, "lon": -77.03199466666666}, {"fusion_lat": 0.0, "type": "electric_scooter", "name": "6a6728db03a0200b23cfccfafae3c52d", "fusion_lon": 0.0, "bike_id": "6a6728db03a0200b23cfccfafae3c52d", "is_reserved": 0, "rental_uris": {"android": "https://dc.lft.to/lastmile_qr_scan", "ios": "https://dc.lft.to/lastmile_qr_scan"}, "lat": 38.91806316666667, "is_disabled": 0, "lon": -77.03435883333333}, {"fusion_lat": 0.0, "type": "electric_scooter", "name": "b00ef26ad90133f3415f39fd005d0cb7", "fusion_lon": 0.0, "bike_id": "b00ef26ad90133f3415f39fd005d0cb7", "is_reserved": 0, "rental_uris": {"android": "https://dc.lft.to/lastmile_qr_scan", "ios": "https://dc.lft.to/lastmile_qr_scan"}, "lat": 38.876269, "is_disabled": 0, "lon": -77.005643}, {"fusion_lat": 0.0, "type": "electric_scooter", "name": "90a8df0e5e4a6f5947b03f83aac14389", "fusion_lon": 0.0, "bike_id": "90a8df0e5e4a6f5947b03f83aac14389", "is_reserved": 0, "rental_uris": {"android": "https://dc.lft.to/lastmile_qr_scan", "ios": "https://dc.lft.to/lastmile_qr_scan"}, "lat": 38.9096685, "is_disabled": 0, "lon": -77.03470466666667}, {"fusion_lat": 0.0, "type": "electric_scooter", "name": "63118d173b3af189c63895c1c55bb22d", "fusion_lon": 0.0, "bike_id": "63118d173b3af189c63895c1c55bb22d", "is_reserved": 0, "rental_uris": {"android": "https://dc.lft.to/lastmile_qr_scan", "ios": "https://dc.lft.to/lastmile_qr_scan"}, "lat": 38.922347, "is_disabled": 0, "lon": -77.0309135}, {"fusion_lat": 0.0, "type": "electric_scooter", "name": "58db1436a8f29d96c3918f8a1e702d4e", "fusion_lon": 0.0, "bike_id": "58db1436a8f29d96c3918f8a1e702d4e", "is_reserved": 0, "rental_uris": {"android": "https://dc.lft.to/lastmile_qr_scan", "ios": "https://dc.lft.to/lastmile_qr_scan"}, "lat": 38.900669666666666, "is_disabled": 0, "lon": -76.92745216666667}, {"fusion_lat": 0.0, "type": "electric_scooter", "name": "7d77d80a32564af59bffafa289bf7839", "fusion_lon": 0.0, "bike_id": "7d77d80a32564af59bffafa289bf7839", "is_reserved": 0, "rental_uris": {"android": "https://dc.lft.to/lastmile_qr_scan", "ios": "https://dc.lft.to/lastmile_qr_scan"}, "lat": 38.9012705, "is_disabled": 0, "lon": -77.03228266666666}, {"fusion_lat": 0.0, "type": "electric_scooter", "name": "3dfe35b257763b37183f0aa9f41f9fa7", "fusion_lon": 0.0, "bike_id": "3dfe35b257763b37183f0aa9f41f9fa7", "is_reserved": 0, "rental_uris": {"android": "https://dc.lft.to/lastmile_qr_scan", "ios": "https://dc.lft.to/lastmile_qr_scan"}, "lat": 38.8356115, "is_disabled": 0, "lon": -76.99500583333334}, {"fusion_lat": 0.0, "type": "electric_scooter", "name": "7ecff57e2cb032492b9309cce3564b3c", "fusion_lon": 0.0, "bike_id": "7ecff57e2cb032492b9309cce3564b3c", "is_reserved": 0, "rental_uris": {"android": "https://dc.lft.to/lastmile_qr_scan", "ios": "https://dc.lft.to/lastmile_qr_scan"}, "lat": 38.900118666666664, "is_disabled": 0, "lon": -77.04798633333333}, {"fusion_lat": 0.0, "type": "electric_scooter", "name": "e52ac2506f37610eba71005096ef7ec9", "fusion_lon": 0.0, "bike_id": "e52ac2506f37610eba71005096ef7ec9", "is_reserved": 0, "rental_uris": {"android": "https://dc.lft.to/lastmile_qr_scan", "ios": "https://dc.lft.to/lastmile_qr_scan"}, "lat": 38.917389666666665, "is_disabled": 0, "lon": -77.0108645}, {"fusion_lat": 0.0, "type": "electric_bike", "name": "778afe5ff4dccd8e40fee735905f1a59", "fusion_lon": 0.0, "bike_id": "778afe5ff4dccd8e40fee735905f1a59", "is_reserved": 0, "rental_uris": {"android": "https://dc.lft.to/lastmile_qr_scan", "ios": "https://dc.lft.to/lastmile_qr_scan"}, "lat": 38.939686333333334, "is_disabled": 0, "lon": -76.986167}, {"fusion_lat": 0.0, "type": "electric_scooter", "name": "09f312499b1c78b1abfc7f32eeba66d6", "fusion_lon": 0.0, "bike_id": "09f312499b1c78b1abfc7f32eeba66d6", "is_reserved": 0, "rental_uris": {"android": "https://dc.lft.to/lastmile_qr_scan", "ios": "https://dc.lft.to/lastmile_qr_scan"}, "lat": 38.88596616666667, "is_disabled": 0, "lon": -76.9914925}, {"fusion_lat": 0.0, "type": "electric_scooter", "name": "59fa733b656c82ecf242b201dc2676be", "fusion_lon": 0.0, "bike_id": "59fa733b656c82ecf242b201dc2676be", "is_reserved": 0, "rental_uris": {"android": "https://dc.lft.to/lastmile_qr_scan", "ios": "https://dc.lft.to/lastmile_qr_scan"}, "lat": 38.92467933333333, "is_disabled": 0, "lon": -77.02216133333333}, {"fusion_lat": 0.0, "type": "electric_scooter", "name": "601fda46138046d1fa04bcff3f5b78bc", "fusion_lon": 0.0, "bike_id": "601fda46138046d1fa04bcff3f5b78bc", "is_reserved": 0, "rental_uris": {"android": "https://dc.lft.to/lastmile_qr_scan", "ios": "https://dc.lft.to/lastmile_qr_scan"}, "lat": 38.92121983333333, "is_disabled": 0, "lon": -77.03242766666666}, {"fusion_lat": 0.0, "type": "electric_scooter", "name": "82b7039b4cd85a6be5fa05ac56bfdabb", "fusion_lon": 0.0, "bike_id": "82b7039b4cd85a6be5fa05ac56bfdabb", "is_reserved": 0, "rental_uris": {"android": "https://dc.lft.to/lastmile_qr_scan", "ios": "https://dc.lft.to/lastmile_qr_scan"}, "lat": 38.9398635, "is_disabled": 0, "lon": -77.0289065}, {"fusion_lat": 0.0, "type": "electric_scooter", "name": "8351c1d989a76759182c84370e73c901", "fusion_lon": 0.0, "bike_id": "8351c1d989a76759182c84370e73c901", "is_reserved": 0, "rental_uris": {"android": "https://dc.lft.to/lastmile_qr_scan", "ios": "https://dc.lft.to/lastmile_qr_scan"}, "lat": 38.91932166666667, "is_disabled": 0, "lon": -77.04494233333334}, {"fusion_lat": 0.0, "type": "electric_scooter", "name": "ea8ceaac7f58126e4e4786d4aeee9442", "fusion_lon": 0.0, "bike_id": "ea8ceaac7f58126e4e4786d4aeee9442", "is_reserved": 0, "rental_uris": {"android": "https://dc.lft.to/lastmile_qr_scan", "ios": "https://dc.lft.to/lastmile_qr_scan"}, "lat": 38.909383, "is_disabled": 0, "lon": -77.04424766666666}, {"fusion_lat": 0.0, "type": "electric_scooter", "name": "70e3a88e50c171ac593c443b44786877", "fusion_lon": 0.0, "bike_id": "70e3a88e50c171ac593c443b44786877", "is_reserved": 0, "rental_uris": {"android": "https://dc.lft.to/lastmile_qr_scan", "ios": "https://dc.lft.to/lastmile_qr_scan"}, "lat": 38.90731016666667, "is_disabled": 0, "lon": -77.02537316666667}, {"fusion_lat": 0.0, "type": "electric_scooter", "name": "929f0bd772ede306aa6eeafec7d5d18b", "fusion_lon": 0.0, "bike_id": "929f0bd772ede306aa6eeafec7d5d18b", "is_reserved": 0, "rental_uris": {"android": "https://dc.lft.to/lastmile_qr_scan", "ios": "https://dc.lft.to/lastmile_qr_scan"}, "lat": 38.9459525, "is_disabled": 0, "lon": -77.02668016666667}, {"fusion_lat": 0.0, "type": "electric_scooter", "name": "9cc9f0ad9179d20c5e7021604926ec25", "fusion_lon": 0.0, "bike_id": "9cc9f0ad9179d20c5e7021604926ec25", "is_reserved": 0, "rental_uris": {"android": "https://dc.lft.to/lastmile_qr_scan", "ios": "https://dc.lft.to/lastmile_qr_scan"}, "lat": 38.85754816666667, "is_disabled": 0, "lon": -76.9930865}, {"fusion_lat": 0.0, "type": "electric_bike", "name": "e9fa594dadc2cdb3fab27c12a73f21d2", "fusion_lon": 0.0, "bike_id": "e9fa594dadc2cdb3fab27c12a73f21d2", "is_reserved": 0, "rental_uris": {"android": "https://dc.lft.to/lastmile_qr_scan", "ios": "https://dc.lft.to/lastmile_qr_scan"}, "lat": 39.024346333333334, "is_disabled": 0, "lon": -77.13102683333334}, {"fusion_lat": 0.0, "type": "electric_scooter", "name": "1152cdbc88a913872c43281b932a33ff", "fusion_lon": 0.0, "bike_id": "1152cdbc88a913872c43281b932a33ff", "is_reserved": 0, "rental_uris": {"android": "https://dc.lft.to/lastmile_qr_scan", "ios": "https://dc.lft.to/lastmile_qr_scan"}, "lat": 38.924014666666665, "is_disabled": 0, "lon": -77.035429}, {"fusion_lat": 0.0, "type": "electric_scooter", "name": "9cdb644efcf6867cdaf915b2c13543b6", "fusion_lon": 0.0, "bike_id": "9cdb644efcf6867cdaf915b2c13543b6", "is_reserved": 0, "rental_uris": {"android": "https://dc.lft.to/lastmile_qr_scan", "ios": "https://dc.lft.to/lastmile_qr_scan"}, "lat": 38.91714666666667, "is_disabled": 0, "lon": -77.0386355}, {"fusion_lat": 0.0, "type": "electric_scooter", "name": "0243dcb9d74c8c231832a38d91da6485", "fusion_lon": 0.0, "bike_id": "0243dcb9d74c8c231832a38d91da6485", "is_reserved": 0, "rental_uris": {"android": "https://dc.lft.to/lastmile_qr_scan", "ios": "https://dc.lft.to/lastmile_qr_scan"}, "lat": 38.9057935, "is_disabled": 0, "lon": -77.00278883333333}, {"fusion_lat": 0.0, "type": "electric_scooter", "name": "7f70af274df504b1c916c6c75be2ef69", "fusion_lon": 0.0, "bike_id": "7f70af274df504b1c916c6c75be2ef69", "is_reserved": 0, "rental_uris": {"android": "https://dc.lft.to/lastmile_qr_scan", "ios": "https://dc.lft.to/lastmile_qr_scan"}, "lat": 38.909412333333336, "is_disabled": 0, "lon": -77.0449945}, {"fusion_lat": 0.0, "type": "electric_scooter", "name": "55c4e7a1a6f56952b3bd5b51fb2cf3fd", "fusion_lon": 0.0, "bike_id": "55c4e7a1a6f56952b3bd5b51fb2cf3fd", "is_reserved": 0, "rental_uris": {"android": "https://dc.lft.to/lastmile_qr_scan", "ios": "https://dc.lft.to/lastmile_qr_scan"}, "lat": 38.92619833333333, "is_disabled": 0, "lon": -77.0431995}, {"fusion_lat": 0.0, "type": "electric_scooter", "name": "7631f2da24ca1f562949d144f975db21", "fusion_lon": 0.0, "bike_id": "7631f2da24ca1f562949d144f975db21", "is_reserved": 0, "rental_uris": {"android": "https://dc.lft.to/lastmile_qr_scan", "ios": "https://dc.lft.to/lastmile_qr_scan"}, "lat": 38.903423333333336, "is_disabled": 0, "lon": -76.9827925}, {"fusion_lat": 0.0, "type": "electric_scooter", "name": "d8d96c01c662b035e7b01d992977a91a", "fusion_lon": 0.0, "bike_id": "d8d96c01c662b035e7b01d992977a91a", "is_reserved": 0, "rental_uris": {"android": "https://dc.lft.to/lastmile_qr_scan", "ios": "https://dc.lft.to/lastmile_qr_scan"}, "lat": 38.9572975, "is_disabled": 0, "lon": -77.0240455}, {"fusion_lat": 0.0, "type": "electric_scooter", "name": "adfc70ccc2a354c121254554c04bd288", "fusion_lon": 0.0, "bike_id": "adfc70ccc2a354c121254554c04bd288", "is_reserved": 0, "rental_uris": {"android": "https://dc.lft.to/lastmile_qr_scan", "ios": "https://dc.lft.to/lastmile_qr_scan"}, "lat": 38.90044066666667, "is_disabled": 0, "lon": -77.04892716666667}, {"fusion_lat": 0.0, "type": "electric_scooter", "name": "b08d772ae28c6140b3a739478813bd84", "fusion_lon": 0.0, "bike_id": "b08d772ae28c6140b3a739478813bd84", "is_reserved": 0, "rental_uris": {"android": "https://dc.lft.to/lastmile_qr_scan", "ios": "https://dc.lft.to/lastmile_qr_scan"}, "lat": 38.9290525, "is_disabled": 0, "lon": -77.0328175}, {"fusion_lat": 0.0, "type": "electric_scooter", "name": "c8e9a88ba85f63416a01a4181996b34c", "fusion_lon": 0.0, "bike_id": "c8e9a88ba85f63416a01a4181996b34c", "is_reserved": 0, "rental_uris": {"android": "https://dc.lft.to/lastmile_qr_scan", "ios": "https://dc.lft.to/lastmile_qr_scan"}, "lat": 38.915525833333334, "is_disabled": 0, "lon": -77.02427616666667}, {"fusion_lat": 0.0, "type": "electric_scooter", "name": "f3774861a8a63f07610901e2f833181f", "fusion_lon": 0.0, "bike_id": "f3774861a8a63f07610901e2f833181f", "is_reserved": 0, "rental_uris": {"android": "https://dc.lft.to/lastmile_qr_scan", "ios": "https://dc.lft.to/lastmile_qr_scan"}, "lat": 38.89229366666667, "is_disabled": 0, "lon": -77.03185066666667}, {"fusion_lat": 0.0, "type": "electric_scooter", "name": "2e19b1800121d8cf498364a9511be958", "fusion_lon": 0.0, "bike_id": "2e19b1800121d8cf498364a9511be958", "is_reserved": 0, "rental_uris": {"android": "https://dc.lft.to/lastmile_qr_scan", "ios": "https://dc.lft.to/lastmile_qr_scan"}, "lat": 38.911170166666665, "is_disabled": 0, "lon": -77.02087616666667}, {"fusion_lat": 0.0, "type": "electric_scooter", "name": "fbcf9bcd98ab93caa7c3dbb84cc4fba2", "fusion_lon": 0.0, "bike_id": "fbcf9bcd98ab93caa7c3dbb84cc4fba2", "is_reserved": 0, "rental_uris": {"android": "https://dc.lft.to/lastmile_qr_scan", "ios": "https://dc.lft.to/lastmile_qr_scan"}, "lat": 38.921415333333336, "is_disabled": 0, "lon": -77.0351015}, {"fusion_lat": 0.0, "type": "electric_scooter", "name": "7331991ebd2fcc7c0d35bd5f8f379ac2", "fusion_lon": 0.0, "bike_id": "7331991ebd2fcc7c0d35bd5f8f379ac2", "is_reserved": 0, "rental_uris": {"android": "https://dc.lft.to/lastmile_qr_scan", "ios": "https://dc.lft.to/lastmile_qr_scan"}, "lat": 38.907175, "is_disabled": 0, "lon": -77.07436766666666}, {"fusion_lat": 0.0, "type": "electric_scooter", "name": "7296b66137b889f219e22dad44a6d43d", "fusion_lon": 0.0, "bike_id": "7296b66137b889f219e22dad44a6d43d", "is_reserved": 0, "rental_uris": {"android": "https://dc.lft.to/lastmile_qr_scan", "ios": "https://dc.lft.to/lastmile_qr_scan"}, "lat": 38.91100733333333, "is_disabled": 0, "lon": -77.002126}, {"fusion_lat": 0.0, "type": "electric_scooter", "name": "900ac402c5fe265d52e5a05fabce7d3a", "fusion_lon": 0.0, "bike_id": "900ac402c5fe265d52e5a05fabce7d3a", "is_reserved": 0, "rental_uris": {"android": "https://dc.lft.to/lastmile_qr_scan", "ios": "https://dc.lft.to/lastmile_qr_scan"}, "lat": 38.921337666666666, "is_disabled": 0, "lon": -77.03663233333333}, {"fusion_lat": 0.0, "type": "electric_scooter", "name": "9f3db75b82d7c44707517403ce509f98", "fusion_lon": 0.0, "bike_id": "9f3db75b82d7c44707517403ce509f98", "is_reserved": 0, "rental_uris": {"android": "https://dc.lft.to/lastmile_qr_scan", "ios": "https://dc.lft.to/lastmile_qr_scan"}, "lat": 38.86257283333333, "is_disabled": 0, "lon": -76.99609}, {"fusion_lat": 0.0, "type": "electric_scooter", "name": "21cda5759a814c51ee5bb9d8428cedb8", "fusion_lon": 0.0, "bike_id": "21cda5759a814c51ee5bb9d8428cedb8", "is_reserved": 0, "rental_uris": {"android": "https://dc.lft.to/lastmile_qr_scan", "ios": "https://dc.lft.to/lastmile_qr_scan"}, "lat": 38.911271166666666, "is_disabled": 0, "lon": -77.02693133333334}, {"fusion_lat": 0.0, "type": "electric_scooter", "name": "bcd73f6baf9839905b52005add1a1311", "fusion_lon": 0.0, "bike_id": "bcd73f6baf9839905b52005add1a1311", "is_reserved": 0, "rental_uris": {"android": "https://dc.lft.to/lastmile_qr_scan", "ios": "https://dc.lft.to/lastmile_qr_scan"}, "lat": 38.89705766666667, "is_disabled": 0, "lon": -77.02700866666666}, {"fusion_lat": 0.0, "type": "electric_scooter", "name": "9f8285080f8d67dda7438619c7f3ecf1", "fusion_lon": 0.0, "bike_id": "9f8285080f8d67dda7438619c7f3ecf1", "is_reserved": 0, "rental_uris": {"android": "https://dc.lft.to/lastmile_qr_scan", "ios": "https://dc.lft.to/lastmile_qr_scan"}, "lat": 38.90632316666667, "is_disabled": 0, "lon": -77.04859116666667}, {"fusion_lat": 0.0, "type": "electric_scooter", "name": "2f3da6f96e2725024462de072fd27a14", "fusion_lon": 0.0, "bike_id": "2f3da6f96e2725024462de072fd27a14", "is_reserved": 0, "rental_uris": {"android": "https://dc.lft.to/lastmile_qr_scan", "ios": "https://dc.lft.to/lastmile_qr_scan"}, "lat": 38.921638, "is_disabled": 0, "lon": -77.03261866666666}, {"fusion_lat": 0.0, "type": "electric_scooter", "name": "8c5b17c3b4dc0fe86d6c34f189835fd3", "fusion_lon": 0.0, "bike_id": "8c5b17c3b4dc0fe86d6c34f189835fd3", "is_reserved": 0, "rental_uris": {"android": "https://dc.lft.to/lastmile_qr_scan", "ios": "https://dc.lft.to/lastmile_qr_scan"}, "lat": 38.90736716666667, "is_disabled": 0, "lon": -77.0321385}, {"fusion_lat": 0.0, "type": "electric_scooter", "name": "60327cb5987f78c6d68ce4f17b239ab1", "fusion_lon": 0.0, "bike_id": "60327cb5987f78c6d68ce4f17b239ab1", "is_reserved": 0, "rental_uris": {"android": "https://dc.lft.to/lastmile_qr_scan", "ios": "https://dc.lft.to/lastmile_qr_scan"}, "lat": 38.91446, "is_disabled": 0, "lon": -77.02186716666667}, {"fusion_lat": 0.0, "type": "electric_scooter", "name": "86a32ccfa99a4add534a01089269a295", "fusion_lon": 0.0, "bike_id": "86a32ccfa99a4add534a01089269a295", "is_reserved": 0, "rental_uris": {"android": "https://dc.lft.to/lastmile_qr_scan", "ios": "https://dc.lft.to/lastmile_qr_scan"}, "lat": 38.941799333333336, "is_disabled": 0, "lon": -77.02532466666666}, {"fusion_lat": 0.0, "type": "electric_scooter", "name": "54bc19002c2212b0fd7a6904c96b1401", "fusion_lon": 0.0, "bike_id": "54bc19002c2212b0fd7a6904c96b1401", "is_reserved": 0, "rental_uris": {"android": "https://dc.lft.to/lastmile_qr_scan", "ios": "https://dc.lft.to/lastmile_qr_scan"}, "lat": 38.88767683333333, "is_disabled": 0, "lon": -76.95574}, {"fusion_lat": 0.0, "type": "electric_scooter", "name": "c536efbb1515d9ee70999cf67f58021b", "fusion_lon": 0.0, "bike_id": "c536efbb1515d9ee70999cf67f58021b", "is_reserved": 0, "rental_uris": {"android": "https://dc.lft.to/lastmile_qr_scan", "ios": "https://dc.lft.to/lastmile_qr_scan"}, "lat": 38.91632533333333, "is_disabled": 0, "lon": -77.010795}, {"fusion_lat": 0.0, "type": "electric_scooter", "name": "db97dfe80e699f457177de68da8cc53f", "fusion_lon": 0.0, "bike_id": "db97dfe80e699f457177de68da8cc53f", "is_reserved": 0, "rental_uris": {"android": "https://dc.lft.to/lastmile_qr_scan", "ios": "https://dc.lft.to/lastmile_qr_scan"}, "lat": 38.900808, "is_disabled": 0, "lon": -76.99365216666666}, {"fusion_lat": 0.0, "type": "electric_scooter", "name": "a3e1a1657a792b66d70fb5c170249989", "fusion_lon": 0.0, "bike_id": "a3e1a1657a792b66d70fb5c170249989", "is_reserved": 0, "rental_uris": {"android": "https://dc.lft.to/lastmile_qr_scan", "ios": "https://dc.lft.to/lastmile_qr_scan"}, "lat": 38.922659, "is_disabled": 0, "lon": -77.03672033333334}, {"fusion_lat": 0.0, "type": "electric_scooter", "name": "60e80c55b978ef83381684166a3c7008", "fusion_lon": 0.0, "bike_id": "60e80c55b978ef83381684166a3c7008", "is_reserved": 0, "rental_uris": {"android": "https://dc.lft.to/lastmile_qr_scan", "ios": "https://dc.lft.to/lastmile_qr_scan"}, "lat": 38.9257045, "is_disabled": 0, "lon": -77.02842833333334}, {"fusion_lat": 0.0, "type": "electric_scooter", "name": "13e3e1f1e93fb998589bed1f7ffabe04", "fusion_lon": 0.0, "bike_id": "13e3e1f1e93fb998589bed1f7ffabe04", "is_reserved": 0, "rental_uris": {"android": "https://dc.lft.to/lastmile_qr_scan", "ios": "https://dc.lft.to/lastmile_qr_scan"}, "lat": 38.9172235, "is_disabled": 0, "lon": -77.02970816666667}, {"fusion_lat": 0.0, "type": "electric_scooter", "name": "8132e5901fff27b22a39c937635cd2a2", "fusion_lon": 0.0, "bike_id": "8132e5901fff27b22a39c937635cd2a2", "is_reserved": 0, "rental_uris": {"android": "https://dc.lft.to/lastmile_qr_scan", "ios": "https://dc.lft.to/lastmile_qr_scan"}, "lat": 38.935428, "is_disabled": 0, "lon": -77.05821116666667}, {"fusion_lat": 0.0, "type": "electric_scooter", "name": "9f7e5d46c5311eec03fcebf35249dcb2", "fusion_lon": 0.0, "bike_id": "9f7e5d46c5311eec03fcebf35249dcb2", "is_reserved": 0, "rental_uris": {"android": "https://dc.lft.to/lastmile_qr_scan", "ios": "https://dc.lft.to/lastmile_qr_scan"}, "lat": 38.91721783333333, "is_disabled": 0, "lon": -77.03622716666666}, {"fusion_lat": 0.0, "type": "electric_scooter", "name": "e9bf6ada3bb48516da3bd5840811a173", "fusion_lon": 0.0, "bike_id": "e9bf6ada3bb48516da3bd5840811a173", "is_reserved": 0, "rental_uris": {"android": "https://dc.lft.to/lastmile_qr_scan", "ios": "https://dc.lft.to/lastmile_qr_scan"}, "lat": 38.894986, "is_disabled": 0, "lon": -77.009485}, {"fusion_lat": 0.0, "type": "electric_scooter", "name": "9ffd21ca83e04df3c1323b2dfb2fa18d", "fusion_lon": 0.0, "bike_id": "9ffd21ca83e04df3c1323b2dfb2fa18d", "is_reserved": 0, "rental_uris": {"android": "https://dc.lft.to/lastmile_qr_scan", "ios": "https://dc.lft.to/lastmile_qr_scan"}, "lat": 38.909382, "is_disabled": 0, "lon": -77.04391333333334}, {"fusion_lat": 0.0, "type": "electric_bike", "name": "eb4ba414af1be48e9edc9f108438ccf9", "fusion_lon": 0.0, "bike_id": "eb4ba414af1be48e9edc9f108438ccf9", "is_reserved": 0, "rental_uris": {"android": "https://dc.lft.to/lastmile_qr_scan", "ios": "https://dc.lft.to/lastmile_qr_scan"}, "lat": 38.9901235, "is_disabled": 0, "lon": -77.00442816666667}, {"fusion_lat": 0.0, "type": "electric_scooter", "name": "d2f2257af1429e4d257cc72fe59cf9d8", "fusion_lon": 0.0, "bike_id": "d2f2257af1429e4d257cc72fe59cf9d8", "is_reserved": 0, "rental_uris": {"android": "https://dc.lft.to/lastmile_qr_scan", "ios": "https://dc.lft.to/lastmile_qr_scan"}, "lat": 38.922815166666666, "is_disabled": 0, "lon": -77.03898233333334}, {"fusion_lat": 0.0, "type": "electric_scooter", "name": "72119d152025ef4e6a21e94d399680dd", "fusion_lon": 0.0, "bike_id": "72119d152025ef4e6a21e94d399680dd", "is_reserved": 0, "rental_uris": {"android": "https://dc.lft.to/lastmile_qr_scan", "ios": "https://dc.lft.to/lastmile_qr_scan"}, "lat": 38.87465866666667, "is_disabled": 0, "lon": -77.01127616666666}, {"fusion_lat": 0.0, "type": "electric_scooter", "name": "8d1f703bd7f25f20b85c44f9e49147f9", "fusion_lon": 0.0, "bike_id": "8d1f703bd7f25f20b85c44f9e49147f9", "is_reserved": 0, "rental_uris": {"android": "https://dc.lft.to/lastmile_qr_scan", "ios": "https://dc.lft.to/lastmile_qr_scan"}, "lat": 38.87658716666667, "is_disabled": 0, "lon": -76.99451233333333}, {"fusion_lat": 0.0, "type": "electric_scooter", "name": "94cb8cdf898c14e5ab7aad1830514542", "fusion_lon": 0.0, "bike_id": "94cb8cdf898c14e5ab7aad1830514542", "is_reserved": 0, "rental_uris": {"android": "https://dc.lft.to/lastmile_qr_scan", "ios": "https://dc.lft.to/lastmile_qr_scan"}, "lat": 38.91453883333333, "is_disabled": 0, "lon": -77.0219365}, {"fusion_lat": 0.0, "type": "electric_scooter", "name": "6655be1c268b688badbd00ade3473c13", "fusion_lon": 0.0, "bike_id": "6655be1c268b688badbd00ade3473c13", "is_reserved": 0, "rental_uris": {"android": "https://dc.lft.to/lastmile_qr_scan", "ios": "https://dc.lft.to/lastmile_qr_scan"}, "lat": 38.90021016666667, "is_disabled": 0, "lon": -77.01852466666666}, {"fusion_lat": 0.0, "type": "electric_scooter", "name": "4d55da35a0263441cb92628b097e38dd", "fusion_lon": 0.0, "bike_id": "4d55da35a0263441cb92628b097e38dd", "is_reserved": 0, "rental_uris": {"android": "https://dc.lft.to/lastmile_qr_scan", "ios": "https://dc.lft.to/lastmile_qr_scan"}, "lat": 38.94896033333333, "is_disabled": 0, "lon": -77.006471}, {"fusion_lat": 0.0, "type": "electric_scooter", "name": "055b0abbeed994e1d84fc0814f5cdfd1", "fusion_lon": 0.0, "bike_id": "055b0abbeed994e1d84fc0814f5cdfd1", "is_reserved": 0, "rental_uris": {"android": "https://dc.lft.to/lastmile_qr_scan", "ios": "https://dc.lft.to/lastmile_qr_scan"}, "lat": 38.89224266666667, "is_disabled": 0, "lon": -77.02348983333333}, {"fusion_lat": 0.0, "type": "electric_scooter", "name": "77114c8365b93bc5e60c3a65e1fd6e3b", "fusion_lon": 0.0, "bike_id": "77114c8365b93bc5e60c3a65e1fd6e3b", "is_reserved": 0, "rental_uris": {"android": "https://dc.lft.to/lastmile_qr_scan", "ios": "https://dc.lft.to/lastmile_qr_scan"}, "lat": 38.91119416666667, "is_disabled": 0, "lon": -77.04369266666667}, {"fusion_lat": 0.0, "type": "electric_scooter", "name": "a3c1f41de9fe09afcc8832b3cccc7a5f", "fusion_lon": 0.0, "bike_id": "a3c1f41de9fe09afcc8832b3cccc7a5f", "is_reserved": 0, "rental_uris": {"android": "https://dc.lft.to/lastmile_qr_scan", "ios": "https://dc.lft.to/lastmile_qr_scan"}, "lat": 38.919839, "is_disabled": 0, "lon": -77.02382816666666}, {"fusion_lat": 0.0, "type": "electric_scooter", "name": "90198cd9733331a9e6068d95d174b052", "fusion_lon": 0.0, "bike_id": "90198cd9733331a9e6068d95d174b052", "is_reserved": 0, "rental_uris": {"android": "https://dc.lft.to/lastmile_qr_scan", "ios": "https://dc.lft.to/lastmile_qr_scan"}, "lat": 38.917802333333334, "is_disabled": 0, "lon": -77.0231645}, {"fusion_lat": 0.0, "type": "electric_bike", "name": "915e5c57ebd0bbbec35fcd897e7aa09d", "fusion_lon": 0.0, "bike_id": "915e5c57ebd0bbbec35fcd897e7aa09d", "is_reserved": 0, "rental_uris": {"android": "https://dc.lft.to/lastmile_qr_scan", "ios": "https://dc.lft.to/lastmile_qr_scan"}, "lat": 38.922004333333334, "is_disabled": 0, "lon": -77.08196366666667}, {"fusion_lat": 0.0, "type": "electric_scooter", "name": "355dd5e51e3b2b58e0266d4f3a3f9bb7", "fusion_lon": 0.0, "bike_id": "355dd5e51e3b2b58e0266d4f3a3f9bb7", "is_reserved": 0, "rental_uris": {"android": "https://dc.lft.to/lastmile_qr_scan", "ios": "https://dc.lft.to/lastmile_qr_scan"}, "lat": 38.898054333333334, "is_disabled": 0, "lon": -77.033034}, {"fusion_lat": 0.0, "type": "electric_scooter", "name": "2854a25f2ba34ecb0a2233a96a3441db", "fusion_lon": 0.0, "bike_id": "2854a25f2ba34ecb0a2233a96a3441db", "is_reserved": 0, "rental_uris": {"android": "https://dc.lft.to/lastmile_qr_scan", "ios": "https://dc.lft.to/lastmile_qr_scan"}, "lat": 38.918885833333334, "is_disabled": 0, "lon": -77.03777666666667}, {"fusion_lat": 0.0, "type": "electric_scooter", "name": "ca404a918653abc061122ce4b8ee06c8", "fusion_lon": 0.0, "bike_id": "ca404a918653abc061122ce4b8ee06c8", "is_reserved": 0, "rental_uris": {"android": "https://dc.lft.to/lastmile_qr_scan", "ios": "https://dc.lft.to/lastmile_qr_scan"}, "lat": 38.8874135, "is_disabled": 0, "lon": -77.0273925}, {"fusion_lat": 0.0, "type": "electric_scooter", "name": "0166f1a104b285b36d6e0530277e841f", "fusion_lon": 0.0, "bike_id": "0166f1a104b285b36d6e0530277e841f", "is_reserved": 0, "rental_uris": {"android": "https://dc.lft.to/lastmile_qr_scan", "ios": "https://dc.lft.to/lastmile_qr_scan"}, "lat": 38.8571015, "is_disabled": 0, "lon": -76.989528}, {"fusion_lat": 0.0, "type": "electric_scooter", "name": "7513edfa49ec2ca51d9fe52a92f90735", "fusion_lon": 0.0, "bike_id": "7513edfa49ec2ca51d9fe52a92f90735", "is_reserved": 0, "rental_uris": {"android": "https://dc.lft.to/lastmile_qr_scan", "ios": "https://dc.lft.to/lastmile_qr_scan"}, "lat": 38.9076335, "is_disabled": 0, "lon": -76.993058}, {"fusion_lat": 0.0, "type": "electric_scooter", "name": "cbb41932e1839141bf28962ebed75351", "fusion_lon": 0.0, "bike_id": "cbb41932e1839141bf28962ebed75351", "is_reserved": 0, "rental_uris": {"android": "https://dc.lft.to/lastmile_qr_scan", "ios": "https://dc.lft.to/lastmile_qr_scan"}, "lat": 38.8778135, "is_disabled": 0, "lon": -76.99357166666667}, {"fusion_lat": 0.0, "type": "electric_scooter", "name": "df957c83facb96b3350cb496493704e7", "fusion_lon": 0.0, "bike_id": "df957c83facb96b3350cb496493704e7", "is_reserved": 0, "rental_uris": {"android": "https://dc.lft.to/lastmile_qr_scan", "ios": "https://dc.lft.to/lastmile_qr_scan"}, "lat": 38.9135645, "is_disabled": 0, "lon": -77.03832}, {"fusion_lat": 0.0, "type": "electric_scooter", "name": "bed5daf8903bf5519d122cf5898faa33", "fusion_lon": 0.0, "bike_id": "bed5daf8903bf5519d122cf5898faa33", "is_reserved": 0, "rental_uris": {"android": "https://dc.lft.to/lastmile_qr_scan", "ios": "https://dc.lft.to/lastmile_qr_scan"}, "lat": 38.8773915, "is_disabled": 0, "lon": -77.01777416666667}, {"fusion_lat": 0.0, "type": "electric_scooter", "name": "bfd0013374df37482e71c7a775cc0a60", "fusion_lon": 0.0, "bike_id": "bfd0013374df37482e71c7a775cc0a60", "is_reserved": 0, "rental_uris": {"android": "https://dc.lft.to/lastmile_qr_scan", "ios": "https://dc.lft.to/lastmile_qr_scan"}, "lat": 38.9235855, "is_disabled": 0, "lon": -77.05044366666667}, {"fusion_lat": 0.0, "type": "electric_bike", "name": "5af71ecc04f16037804e7d5f7d201ca1", "fusion_lon": 0.0, "bike_id": "5af71ecc04f16037804e7d5f7d201ca1", "is_reserved": 0, "rental_uris": {"android": "https://dc.lft.to/lastmile_qr_scan", "ios": "https://dc.lft.to/lastmile_qr_scan"}, "lat": 38.827834, "is_disabled": 0, "lon": -77.009161}, {"fusion_lat": 0.0, "type": "electric_scooter", "name": "35e7b925d5b8fa2d11a8c3f9b893d1cd", "fusion_lon": 0.0, "bike_id": "35e7b925d5b8fa2d11a8c3f9b893d1cd", "is_reserved": 0, "rental_uris": {"android": "https://dc.lft.to/lastmile_qr_scan", "ios": "https://dc.lft.to/lastmile_qr_scan"}, "lat": 38.892306166666664, "is_disabled": 0, "lon": -77.04366433333334}, {"fusion_lat": 0.0, "type": "electric_scooter", "name": "bfae9e6d79769495b965f59bb394492b", "fusion_lon": 0.0, "bike_id": "bfae9e6d79769495b965f59bb394492b", "is_reserved": 0, "rental_uris": {"android": "https://dc.lft.to/lastmile_qr_scan", "ios": "https://dc.lft.to/lastmile_qr_scan"}, "lat": 38.92793116666667, "is_disabled": 0, "lon": -77.04350216666667}, {"fusion_lat": 0.0, "type": "electric_scooter", "name": "8389c1807a711c0e615acf0066235f2c", "fusion_lon": 0.0, "bike_id": "8389c1807a711c0e615acf0066235f2c", "is_reserved": 0, "rental_uris": {"android": "https://dc.lft.to/lastmile_qr_scan", "ios": "https://dc.lft.to/lastmile_qr_scan"}, "lat": 38.90558633333333, "is_disabled": 0, "lon": -76.9838005}, {"fusion_lat": 0.0, "type": "electric_scooter", "name": "1a740df7384470f23801628067843efc", "fusion_lon": 0.0, "bike_id": "1a740df7384470f23801628067843efc", "is_reserved": 0, "rental_uris": {"android": "https://dc.lft.to/lastmile_qr_scan", "ios": "https://dc.lft.to/lastmile_qr_scan"}, "lat": 38.940685, "is_disabled": 0, "lon": -77.01151716666666}, {"fusion_lat": 0.0, "type": "electric_scooter", "name": "57a99b9fa222a0630355cfb5362cfae8", "fusion_lon": 0.0, "bike_id": "57a99b9fa222a0630355cfb5362cfae8", "is_reserved": 0, "rental_uris": {"android": "https://dc.lft.to/lastmile_qr_scan", "ios": "https://dc.lft.to/lastmile_qr_scan"}, "lat": 38.92601966666667, "is_disabled": 0, "lon": -77.037594}, {"fusion_lat": 0.0, "type": "electric_scooter", "name": "d938f94b36fe76c95502ad7d107fee74", "fusion_lon": 0.0, "bike_id": "d938f94b36fe76c95502ad7d107fee74", "is_reserved": 0, "rental_uris": {"android": "https://dc.lft.to/lastmile_qr_scan", "ios": "https://dc.lft.to/lastmile_qr_scan"}, "lat": 38.918268166666664, "is_disabled": 0, "lon": -77.03947116666667}, {"fusion_lat": 0.0, "type": "electric_scooter", "name": "db2bcbf9de5e07caea8121ed1708ad3f", "fusion_lon": 0.0, "bike_id": "db2bcbf9de5e07caea8121ed1708ad3f", "is_reserved": 0, "rental_uris": {"android": "https://dc.lft.to/lastmile_qr_scan", "ios": "https://dc.lft.to/lastmile_qr_scan"}, "lat": 38.92041916666667, "is_disabled": 0, "lon": -77.02354833333334}, {"fusion_lat": 0.0, "type": "electric_scooter", "name": "8bce8d82de5752feb5df8b9db6639654", "fusion_lon": 0.0, "bike_id": "8bce8d82de5752feb5df8b9db6639654", "is_reserved": 0, "rental_uris": {"android": "https://dc.lft.to/lastmile_qr_scan", "ios": "https://dc.lft.to/lastmile_qr_scan"}, "lat": 38.908579333333336, "is_disabled": 0, "lon": -77.04562333333334}, {"fusion_lat": 0.0, "type": "electric_bike", "name": "aa5c7cd311e3fda38bc5a7d65286ee36", "fusion_lon": 0.0, "bike_id": "aa5c7cd311e3fda38bc5a7d65286ee36", "is_reserved": 0, "rental_uris": {"android": "https://dc.lft.to/lastmile_qr_scan", "ios": "https://dc.lft.to/lastmile_qr_scan"}, "lat": 39.052771666666665, "is_disabled": 0, "lon": -77.08074416666666}, {"fusion_lat": 0.0, "type": "electric_scooter", "name": "58d8c44f3711bdb0bc429fe58a5bb821", "fusion_lon": 0.0, "bike_id": "58d8c44f3711bdb0bc429fe58a5bb821", "is_reserved": 0, "rental_uris": {"android": "https://dc.lft.to/lastmile_qr_scan", "ios": "https://dc.lft.to/lastmile_qr_scan"}, "lat": 38.890813, "is_disabled": 0, "lon": -77.04044083333334}, {"fusion_lat": 0.0, "type": "electric_scooter", "name": "cc3f6e222c868eef025249bd1369b9e5", "fusion_lon": 0.0, "bike_id": "cc3f6e222c868eef025249bd1369b9e5", "is_reserved": 0, "rental_uris": {"android": "https://dc.lft.to/lastmile_qr_scan", "ios": "https://dc.lft.to/lastmile_qr_scan"}, "lat": 38.887262, "is_disabled": 0, "lon": -77.02838833333334}, {"fusion_lat": 0.0, "type": "electric_scooter", "name": "8660db83fb8a92fa02b654d4c4b53bae", "fusion_lon": 0.0, "bike_id": "8660db83fb8a92fa02b654d4c4b53bae", "is_reserved": 0, "rental_uris": {"android": "https://dc.lft.to/lastmile_qr_scan", "ios": "https://dc.lft.to/lastmile_qr_scan"}, "lat": 38.9024855, "is_disabled": 0, "lon": -76.99556966666667}, {"fusion_lat": 0.0, "type": "electric_bike", "name": "416e2699b1c867f787e89874dbb60c7e", "fusion_lon": 0.0, "bike_id": "416e2699b1c867f787e89874dbb60c7e", "is_reserved": 0, "rental_uris": {"android": "https://dc.lft.to/lastmile_qr_scan", "ios": "https://dc.lft.to/lastmile_qr_scan"}, "lat": 38.960991666666665, "is_disabled": 0, "lon": -76.928171}, {"fusion_lat": 0.0, "type": "electric_scooter", "name": "43cbce976af418d0210425dd870f227e", "fusion_lon": 0.0, "bike_id": "43cbce976af418d0210425dd870f227e", "is_reserved": 0, "rental_uris": {"android": "https://dc.lft.to/lastmile_qr_scan", "ios": "https://dc.lft.to/lastmile_qr_scan"}, "lat": 38.895038166666666, "is_disabled": 0, "lon": -77.00330916666667}, {"fusion_lat": 0.0, "type": "electric_scooter", "name": "467b10dd75b511cd071c97f79dbb0dd5", "fusion_lon": 0.0, "bike_id": "467b10dd75b511cd071c97f79dbb0dd5", "is_reserved": 0, "rental_uris": {"android": "https://dc.lft.to/lastmile_qr_scan", "ios": "https://dc.lft.to/lastmile_qr_scan"}, "lat": 38.918157, "is_disabled": 0, "lon": -77.03726283333333}, {"fusion_lat": 0.0, "type": "electric_scooter", "name": "7622b362a1a0237b1acda5324b7fde57", "fusion_lon": 0.0, "bike_id": "7622b362a1a0237b1acda5324b7fde57", "is_reserved": 0, "rental_uris": {"android": "https://dc.lft.to/lastmile_qr_scan", "ios": "https://dc.lft.to/lastmile_qr_scan"}, "lat": 38.924159333333336, "is_disabled": 0, "lon": -77.01957283333333}, {"fusion_lat": 0.0, "type": "electric_scooter", "name": "71596f42eaa360fd55f6fccb8a49f35b", "fusion_lon": 0.0, "bike_id": "71596f42eaa360fd55f6fccb8a49f35b", "is_reserved": 0, "rental_uris": {"android": "https://dc.lft.to/lastmile_qr_scan", "ios": "https://dc.lft.to/lastmile_qr_scan"}, "lat": 38.93204, "is_disabled": 0, "lon": -77.02834566666667}, {"fusion_lat": 0.0, "type": "electric_scooter", "name": "8e94aba8afc2b15c2d854b7d4d76bca3", "fusion_lon": 0.0, "bike_id": "8e94aba8afc2b15c2d854b7d4d76bca3", "is_reserved": 0, "rental_uris": {"android": "https://dc.lft.to/lastmile_qr_scan", "ios": "https://dc.lft.to/lastmile_qr_scan"}, "lat": 38.984514, "is_disabled": 0, "lon": -77.02642366666667}, {"fusion_lat": 0.0, "type": "electric_bike", "name": "9a110c2c92e28072535c237a893aad54", "fusion_lon": 0.0, "bike_id": "9a110c2c92e28072535c237a893aad54", "is_reserved": 0, "rental_uris": {"android": "https://dc.lft.to/lastmile_qr_scan", "ios": "https://dc.lft.to/lastmile_qr_scan"}, "lat": 38.932957, "is_disabled": 0, "lon": -77.02290383333333}, {"fusion_lat": 0.0, "type": "electric_scooter", "name": "a147859a73ec95b31506f422219159d8", "fusion_lon": 0.0, "bike_id": "a147859a73ec95b31506f422219159d8", "is_reserved": 0, "rental_uris": {"android": "https://dc.lft.to/lastmile_qr_scan", "ios": "https://dc.lft.to/lastmile_qr_scan"}, "lat": 38.8698875, "is_disabled": 0, "lon": -76.97600283333334}, {"fusion_lat": 0.0, "type": "electric_scooter", "name": "139d151fd29db917baa8c68e468da277", "fusion_lon": 0.0, "bike_id": "139d151fd29db917baa8c68e468da277", "is_reserved": 0, "rental_uris": {"android": "https://dc.lft.to/lastmile_qr_scan", "ios": "https://dc.lft.to/lastmile_qr_scan"}, "lat": 38.87196266666667, "is_disabled": 0, "lon": -77.01073983333333}, {"fusion_lat": 0.0, "type": "electric_scooter", "name": "2da2d671733c219795b091abfe36d11b", "fusion_lon": 0.0, "bike_id": "2da2d671733c219795b091abfe36d11b", "is_reserved": 0, "rental_uris": {"android": "https://dc.lft.to/lastmile_qr_scan", "ios": "https://dc.lft.to/lastmile_qr_scan"}, "lat": 38.91919, "is_disabled": 0, "lon": -77.03156433333334}, {"fusion_lat": 0.0, "type": "electric_scooter", "name": "6a624649e0b6da0b249e0e3ccfe5375f", "fusion_lon": 0.0, "bike_id": "6a624649e0b6da0b249e0e3ccfe5375f", "is_reserved": 0, "rental_uris": {"android": "https://dc.lft.to/lastmile_qr_scan", "ios": "https://dc.lft.to/lastmile_qr_scan"}, "lat": 38.901742166666665, "is_disabled": 0, "lon": -77.04847983333333}, {"fusion_lat": 0.0, "type": "electric_scooter", "name": "2a64c3fa28728d7367e60555a6183348", "fusion_lon": 0.0, "bike_id": "2a64c3fa28728d7367e60555a6183348", "is_reserved": 0, "rental_uris": {"android": "https://dc.lft.to/lastmile_qr_scan", "ios": "https://dc.lft.to/lastmile_qr_scan"}, "lat": 38.92502983333333, "is_disabled": 0, "lon": -77.03792866666667}, {"fusion_lat": 0.0, "type": "electric_scooter", "name": "4c2e129810466425a7f4f46e966aedc9", "fusion_lon": 0.0, "bike_id": "4c2e129810466425a7f4f46e966aedc9", "is_reserved": 0, "rental_uris": {"android": "https://dc.lft.to/lastmile_qr_scan", "ios": "https://dc.lft.to/lastmile_qr_scan"}, "lat": 38.91412966666667, "is_disabled": 0, "lon": -77.01835533333333}, {"fusion_lat": 0.0, "type": "electric_scooter", "name": "9a168c3bce9b4755e8e588826575386e", "fusion_lon": 0.0, "bike_id": "9a168c3bce9b4755e8e588826575386e", "is_reserved": 0, "rental_uris": {"android": "https://dc.lft.to/lastmile_qr_scan", "ios": "https://dc.lft.to/lastmile_qr_scan"}, "lat": 38.921412333333336, "is_disabled": 0, "lon": -77.018127}, {"fusion_lat": 0.0, "type": "electric_bike", "name": "ab7e6d06f392143fdbba63afb5bbe351", "fusion_lon": 0.0, "bike_id": "ab7e6d06f392143fdbba63afb5bbe351", "is_reserved": 0, "rental_uris": {"android": "https://dc.lft.to/lastmile_qr_scan", "ios": "https://dc.lft.to/lastmile_qr_scan"}, "lat": 38.87300533333333, "is_disabled": 0, "lon": -77.139311}, {"fusion_lat": 0.0, "type": "electric_scooter", "name": "9587d107ce4e283b36544fcd198e0096", "fusion_lon": 0.0, "bike_id": "9587d107ce4e283b36544fcd198e0096", "is_reserved": 0, "rental_uris": {"android": "https://dc.lft.to/lastmile_qr_scan", "ios": "https://dc.lft.to/lastmile_qr_scan"}, "lat": 38.8989685, "is_disabled": 0, "lon": -77.03936833333333}, {"fusion_lat": 0.0, "type": "electric_scooter", "name": "d79a40b933a45a8d1262fda26d067517", "fusion_lon": 0.0, "bike_id": "d79a40b933a45a8d1262fda26d067517", "is_reserved": 0, "rental_uris": {"android": "https://dc.lft.to/lastmile_qr_scan", "ios": "https://dc.lft.to/lastmile_qr_scan"}, "lat": 38.90661766666667, "is_disabled": 0, "lon": -77.0387775}, {"fusion_lat": 0.0, "type": "electric_bike", "name": "e978b97b0222b06493c51da814969d90", "fusion_lon": 0.0, "bike_id": "e978b97b0222b06493c51da814969d90", "is_reserved": 0, "rental_uris": {"android": "https://dc.lft.to/lastmile_qr_scan", "ios": "https://dc.lft.to/lastmile_qr_scan"}, "lat": 38.853729666666666, "is_disabled": 0, "lon": -77.1246805}, {"fusion_lat": 0.0, "type": "electric_scooter", "name": "16b2d1f988ee9f14ac30e079b140c80e", "fusion_lon": 0.0, "bike_id": "16b2d1f988ee9f14ac30e079b140c80e", "is_reserved": 0, "rental_uris": {"android": "https://dc.lft.to/lastmile_qr_scan", "ios": "https://dc.lft.to/lastmile_qr_scan"}, "lat": 38.90735166666666, "is_disabled": 0, "lon": -77.02693116666667}, {"fusion_lat": 0.0, "type": "electric_scooter", "name": "7d64e4e55c93007ae05a8ce6951aa9e0", "fusion_lon": 0.0, "bike_id": "7d64e4e55c93007ae05a8ce6951aa9e0", "is_reserved": 0, "rental_uris": {"android": "https://dc.lft.to/lastmile_qr_scan", "ios": "https://dc.lft.to/lastmile_qr_scan"}, "lat": 38.89721433333333, "is_disabled": 0, "lon": -77.02702933333333}, {"fusion_lat": 0.0, "type": "electric_scooter", "name": "ad0e2a1e37925cdb92672e900f6e0e6b", "fusion_lon": 0.0, "bike_id": "ad0e2a1e37925cdb92672e900f6e0e6b", "is_reserved": 0, "rental_uris": {"android": "https://dc.lft.to/lastmile_qr_scan", "ios": "https://dc.lft.to/lastmile_qr_scan"}, "lat": 38.918072, "is_disabled": 0, "lon": -77.0343855}, {"fusion_lat": 0.0, "type": "electric_scooter", "name": "d2ee9b76b3dc3a14d997c993754d7977", "fusion_lon": 0.0, "bike_id": "d2ee9b76b3dc3a14d997c993754d7977", "is_reserved": 0, "rental_uris": {"android": "https://dc.lft.to/lastmile_qr_scan", "ios": "https://dc.lft.to/lastmile_qr_scan"}, "lat": 38.908621333333336, "is_disabled": 0, "lon": -77.03451316666667}, {"fusion_lat": 0.0, "type": "electric_scooter", "name": "42417bf0b27324b996b8fc41c38bcdbb", "fusion_lon": 0.0, "bike_id": "42417bf0b27324b996b8fc41c38bcdbb", "is_reserved": 0, "rental_uris": {"android": "https://dc.lft.to/lastmile_qr_scan", "ios": "https://dc.lft.to/lastmile_qr_scan"}, "lat": 38.89229066666667, "is_disabled": 0, "lon": -77.05001133333333}, {"fusion_lat": 0.0, "type": "electric_scooter", "name": "6a0b30ebb038ff5370e398d4fc2566d2", "fusion_lon": 0.0, "bike_id": "6a0b30ebb038ff5370e398d4fc2566d2", "is_reserved": 0, "rental_uris": {"android": "https://dc.lft.to/lastmile_qr_scan", "ios": "https://dc.lft.to/lastmile_qr_scan"}, "lat": 38.8923945, "is_disabled": 0, "lon": -77.0416545}, {"fusion_lat": 0.0, "type": "electric_bike", "name": "cd9bef9acf6b0007f6094c2ffa09e784", "fusion_lon": 0.0, "bike_id": "cd9bef9acf6b0007f6094c2ffa09e784", "is_reserved": 0, "rental_uris": {"android": "https://dc.lft.to/lastmile_qr_scan", "ios": "https://dc.lft.to/lastmile_qr_scan"}, "lat": 38.85576183333333, "is_disabled": 0, "lon": -77.11763283333333}, {"fusion_lat": 0.0, "type": "electric_scooter", "name": "359e14127d4290cc85152f9642441edd", "fusion_lon": 0.0, "bike_id": "359e14127d4290cc85152f9642441edd", "is_reserved": 0, "rental_uris": {"android": "https://dc.lft.to/lastmile_qr_scan", "ios": "https://dc.lft.to/lastmile_qr_scan"}, "lat": 38.92047266666667, "is_disabled": 0, "lon": -77.0235425}, {"fusion_lat": 0.0, "type": "electric_scooter", "name": "13c0c9aa4e1f6e7bb59df0d98aa3fb2a", "fusion_lon": 0.0, "bike_id": "13c0c9aa4e1f6e7bb59df0d98aa3fb2a", "is_reserved": 0, "rental_uris": {"android": "https://dc.lft.to/lastmile_qr_scan", "ios": "https://dc.lft.to/lastmile_qr_scan"}, "lat": 38.9142025, "is_disabled": 0, "lon": -77.041582}, {"fusion_lat": 0.0, "type": "electric_bike", "name": "61d7bca6a893bd6af2c313d379eb6e60", "fusion_lon": 0.0, "bike_id": "61d7bca6a893bd6af2c313d379eb6e60", "is_reserved": 0, "rental_uris": {"android": "https://dc.lft.to/lastmile_qr_scan", "ios": "https://dc.lft.to/lastmile_qr_scan"}, "lat": 38.8450235, "is_disabled": 0, "lon": -76.99357016666667}, {"fusion_lat": 0.0, "type": "electric_scooter", "name": "30adc2cd1199c11b16f51ca5360de265", "fusion_lon": 0.0, "bike_id": "30adc2cd1199c11b16f51ca5360de265", "is_reserved": 0, "rental_uris": {"android": "https://dc.lft.to/lastmile_qr_scan", "ios": "https://dc.lft.to/lastmile_qr_scan"}, "lat": 38.9046355, "is_disabled": 0, "lon": -77.03449083333334}, {"fusion_lat": 0.0, "type": "electric_scooter", "name": "9d8dc10412ef5124f4f172575fd6f068", "fusion_lon": 0.0, "bike_id": "9d8dc10412ef5124f4f172575fd6f068", "is_reserved": 0, "rental_uris": {"android": "https://dc.lft.to/lastmile_qr_scan", "ios": "https://dc.lft.to/lastmile_qr_scan"}, "lat": 38.918934666666665, "is_disabled": 0, "lon": -77.03197766666666}, {"fusion_lat": 0.0, "type": "electric_scooter", "name": "24d2b25321f750e5d49f3cf291b7eb36", "fusion_lon": 0.0, "bike_id": "24d2b25321f750e5d49f3cf291b7eb36", "is_reserved": 0, "rental_uris": {"android": "https://dc.lft.to/lastmile_qr_scan", "ios": "https://dc.lft.to/lastmile_qr_scan"}, "lat": 38.938593833333336, "is_disabled": 0, "lon": -77.02654583333333}, {"fusion_lat": 0.0, "type": "electric_scooter", "name": "08beb23563bd8a49e72b21961157d811", "fusion_lon": 0.0, "bike_id": "08beb23563bd8a49e72b21961157d811", "is_reserved": 0, "rental_uris": {"android": "https://dc.lft.to/lastmile_qr_scan", "ios": "https://dc.lft.to/lastmile_qr_scan"}, "lat": 38.9150015, "is_disabled": 0, "lon": -76.98377083333334}, {"fusion_lat": 0.0, "type": "electric_scooter", "name": "f2d90694001c5c8b6a45193e95d01200", "fusion_lon": 0.0, "bike_id": "f2d90694001c5c8b6a45193e95d01200", "is_reserved": 0, "rental_uris": {"android": "https://dc.lft.to/lastmile_qr_scan", "ios": "https://dc.lft.to/lastmile_qr_scan"}, "lat": 38.88681016666666, "is_disabled": 0, "lon": -76.990132},