{"data": {"bikes": [{"bike_id": "46f00dc0096e1da0ab294134c96a2d4a", "type": "electric_scooter", "is_disabled": 0, "lat": 38.93129416666667, "rental_uris": {"ios": "https://dc.lft.to/lastmile_qr_scan", "android": "https://dc.lft.to/lastmile_qr_scan"}, "is_reserved": 0, "fusion_lon": 0.0, "fusion_lat": 0.0, "lon": -76.99574966666667, "name": "46f00dc0096e1da0ab294134c96a2d4a"}, {"bike_id": "bc0c7cf7772a41662dad4af6658d3e1a", "type": "electric_scooter", "is_disabled": 0, "lat": 38.918259, "rental_uris": {"ios": "https://dc.lft.to/lastmile_qr_scan", "android": "https://dc.lft.to/lastmile_qr_scan"}, "is_reserved": 0, "fusion_lon": 0.0, "fusion_lat": 0.0, "lon": -77.04943366666667, "name": "bc0c7cf7772a41662dad4af6658d3e1a"}, {"bike_id": "49b20335a1993c3710efcc0c1fe2d707", "type": "electric_scooter", "is_disabled": 0, "lat": 38.933374666666666, "rental_uris": {"ios": "https://dc.lft.to/lastmile_qr_scan", "android": "https://dc.lft.to/lastmile_qr_scan"}, "is_reserved": 0, "fusion_lon": 0.0, "fusion_lat": 0.0, "lon": -77.0205905, "name": "49b20335a1993c3710efcc0c1fe2d707"}, {"bike_id": "6165dffb554283dc54db5223a9e776c3", "type": "electric_scooter", "is_disabled": 0, "lat": 38.90702116666667, "rental_uris": {"ios": "https://dc.lft.to/lastmile_qr_scan", "android": "https://dc.lft.to/lastmile_qr_scan"}, "is_reserved": 0, "fusion_lon": 0.0, "fusion_lat": 0.0, "lon": -77.02407566666666, "name": "6165dffb554283dc54db5223a9e776c3"}, {"bike_id": "84c6eafa07475a82b72c93cc96e6ac91", "type": "electric_scooter", "is_disabled": 0, "lat": 38.916796833333336, "rental_uris": {"ios": "https://dc.lft.to/lastmile_qr_scan", "android": "https://dc.lft.to/lastmile_qr_scan"}, "is_reserved": 0, "fusion_lon": 0.0, "fusion_lat": 0.0, "lon": -77.029599, "name": "84c6eafa07475a82b72c93cc96e6ac91"}, {"bike_id": "3cae21c110e50fe0200526560a6ad68c", "type": "electric_scooter", "is_disabled": 0, "lat": 38.929784833333336, "rental_uris": {"ios": "https://dc.lft.to/lastmile_qr_scan", "android": "https://dc.lft.to/lastmile_qr_scan"}, "is_reserved": 0, "fusion_lon": 0.0, "fusion_lat": 0.0, "lon": -77.03205233333334, "name": "3cae21c110e50fe0200526560a6ad68c"}, {"bike_id": "cf3134767ca0dad09bd9359d0fdae155", "type": "electric_scooter", "is_disabled": 0, "lat": 38.86694816666667, "rental_uris": {"ios": "https://dc.lft.to/lastmile_qr_scan", "android": "https://dc.lft.to/lastmile_qr_scan"}, "is_reserved": 0, "fusion_lon": 0.0, "fusion_lat": 0.0, "lon": -76.98708483333333, "name": "cf3134767ca0dad09bd9359d0fdae155"}, {"bike_id": "ab67594af67004f0ecc489e6d685e302", "type": "electric_scooter", "is_disabled": 0, "lat": 38.91703366666667, "rental_uris": {"ios": "https://dc.lft.to/lastmile_qr_scan", "android": "https://dc.lft.to/lastmile_qr_scan"}, "is_reserved": 0, "fusion_lon": 0.0, "fusion_lat": 0.0, "lon": -77.00659666666667, "name": "ab67594af67004f0ecc489e6d685e302"}, {"bike_id": "72ca0d07184c571b368de8d632affff6", "type": "electric_bike", "is_disabled": 0, "lat": 39.05280583333333, "rental_uris": {"ios": "https://dc.lft.to/lastmile_qr_scan", "android": "https://dc.lft.to/lastmile_qr_scan"}, "is_reserved": 0, "fusion_lon": 0.0, "fusion_lat": 0.0, "lon": -77.0807235, "name": "72ca0d07184c571b368de8d632affff6"}, {"bike_id": "84a782af1fa377721a621930dcaf887c", "type": "electric_scooter", "is_disabled": 0, "lat": 38.8669375, "rental_uris": {"ios": "https://dc.lft.to/lastmile_qr_scan", "android": "https://dc.lft.to/lastmile_qr_scan"}, "is_reserved": 0, "fusion_lon": 0.0, "fusion_lat": 0.0, "lon": -76.98711883333333, "name": "84a782af1fa377721a621930dcaf887c"}, {"bike_id": "341c8d8668a22247e84a874865654abb", "type": "electric_bike", "is_disabled": 0, "lat": 38.89846583333333, "rental_uris": {"ios": "https://dc.lft.to/lastmile_qr_scan", "android": "https://dc.lft.to/lastmile_qr_scan"}, "is_reserved": 0, "fusion_lon": 0.0, "fusion_lat": 0.0, "lon": -77.053028, "name": "341c8d8668a22247e84a874865654abb"}, {"bike_id": "0b8368b28658f2c8ec8d7796bcd18e1e", "type": "electric_scooter", "is_disabled": 0, "lat": 38.91246566666667, "rental_uris": {"ios": "https://dc.lft.to/lastmile_qr_scan", "android": "https://dc.lft.to/lastmile_qr_scan"}, "is_reserved": 0, "fusion_lon": 0.0, "fusion_lat": 0.0, "lon": -77.02953, "name": "0b8368b28658f2c8ec8d7796bcd18e1e"}, {"bike_id": "2a52618ea4098b29fb45e5d3d33af13d", "type": "electric_scooter", "is_disabled": 0, "lat": 38.91691083333333, "rental_uris": {"ios": "https://dc.lft.to/lastmile_qr_scan", "android": "https://dc.lft.to/lastmile_qr_scan"}, "is_reserved": 0, "fusion_lon": 0.0, "fusion_lat": 0.0, "lon": -77.028685, "name": "2a52618ea4098b29fb45e5d3d33af13d"}, {"bike_id": "e9c3a9c800314c9d0756b0f0bde4ce47", "type": "electric_scooter", "is_disabled": 0, "lat": 38.900856, "rental_uris": {"ios": "https://dc.lft.to/lastmile_qr_scan", "android": "https://dc.lft.to/lastmile_qr_scan"}, "is_reserved": 0, "fusion_lon": 0.0, "fusion_lat": 0.0, "lon": -77.019369, "name": "e9c3a9c800314c9d0756b0f0bde4ce47"}, {"bike_id": "bb64f86567cec6209486b8b589a9f16c", "type": "electric_scooter", "is_disabled": 0, "lat": 38.89970566666667, "rental_uris": {"ios": "https://dc.lft.to/lastmile_qr_scan", "android": "https://dc.lft.to/lastmile_qr_scan"}, "is_reserved": 0, "fusion_lon": 0.0, "fusion_lat": 0.0, "lon": -77.019095, "name": "bb64f86567cec6209486b8b589a9f16c"}, {"bike_id": "3d2699c600f2c94120061d84c0893e20", "type": "electric_bike", "is_disabled": 0, "lat": 39.0243195, "rental_uris": {"ios": "https://dc.lft.to/lastmile_qr_scan", "android": "https://dc.lft.to/lastmile_qr_scan"}, "is_reserved": 0, "fusion_lon": 0.0, "fusion_lat": 0.0, "lon": -77.13104333333334, "name": "3d2699c600f2c94120061d84c0893e20"}, {"bike_id": "bee77183e5acb8fc0076f4936b683e15", "type": "electric_scooter", "is_disabled": 0, "lat": 38.9203785, "rental_uris": {"ios": "https://dc.lft.to/lastmile_qr_scan", "android": "https://dc.lft.to/lastmile_qr_scan"}, "is_reserved": 0, "fusion_lon": 0.0, "fusion_lat": 0.0, "lon": -77.0419795, "name": "bee77183e5acb8fc0076f4936b683e15"}, {"bike_id": "889707f026b553b50223b89e9638787a", "type": "electric_scooter", "is_disabled": 0, "lat": 38.909575833333335, "rental_uris": {"ios": "https://dc.lft.to/lastmile_qr_scan", "android": "https://dc.lft.to/lastmile_qr_scan"}, "is_reserved": 0, "fusion_lon": 0.0, "fusion_lat": 0.0, "lon": -77.02120616666667, "name": "889707f026b553b50223b89e9638787a"}, {"bike_id": "a04f3ebd9aac93974d00a47493f741b7", "type": "electric_scooter", "is_disabled": 0, "lat": 38.93143833333333, "rental_uris": {"ios": "https://dc.lft.to/lastmile_qr_scan", "android": "https://dc.lft.to/lastmile_qr_scan"}, "is_reserved": 0, "fusion_lon": 0.0, "fusion_lat": 0.0, "lon": -77.04239766666667, "name": "a04f3ebd9aac93974d00a47493f741b7"}, {"bike_id": "63c44d0d0f417297ed35f603ad105dda", "type": "electric_scooter", "is_disabled": 0, "lat": 38.921116, "rental_uris": {"ios": "https://dc.lft.to/lastmile_qr_scan", "android": "https://dc.lft.to/lastmile_qr_scan"}, "is_reserved": 0, "fusion_lon": 0.0, "fusion_lat": 0.0, "lon": -76.9945445, "name": "63c44d0d0f417297ed35f603ad105dda"}, {"bike_id": "fad29d011538d77f1c5debf0f754bf61", "type": "electric_scooter", "is_disabled": 0, "lat": 38.93044033333334, "rental_uris": {"ios": "https://dc.lft.to/lastmile_qr_scan", "android": "https://dc.lft.to/lastmile_qr_scan"}, "is_reserved": 0, "fusion_lon": 0.0, "fusion_lat": 0.0, "lon": -77.03300883333333, "name": "fad29d011538d77f1c5debf0f754bf61"}, {"bike_id": "b002f15fb46d5aab656f447fafff0a03", "type": "electric_scooter", "is_disabled": 0, "lat": 38.929485, "rental_uris": {"ios": "https://dc.lft.to/lastmile_qr_scan", "android": "https://dc.lft.to/lastmile_qr_scan"}, "is_reserved": 0, "fusion_lon": 0.0, "fusion_lat": 0.0, "lon": -77.03281033333333, "name": "b002f15fb46d5aab656f447fafff0a03"}, {"bike_id": "67fdc9a22f89ef8bde4d7235d5cc8688", "type": "electric_scooter", "is_disabled": 0, "lat": 38.9057255, "rental_uris": {"ios": "https://dc.lft.to/lastmile_qr_scan", "android": "https://dc.lft.to/lastmile_qr_scan"}, "is_reserved": 0, "fusion_lon": 0.0, "fusion_lat": 0.0, "lon": -77.03067433333334, "name": "67fdc9a22f89ef8bde4d7235d5cc8688"}, {"bike_id": "ab0b0f80dfdd637eadfe9ec84002156b", "type": "electric_scooter", "is_disabled": 0, "lat": 38.920246166666665, "rental_uris": {"ios": "https://dc.lft.to/lastmile_qr_scan", "android": "https://dc.lft.to/lastmile_qr_scan"}, "is_reserved": 0, "fusion_lon": 0.0, "fusion_lat": 0.0, "lon": -76.9956395, "name": "ab0b0f80dfdd637eadfe9ec84002156b"}, {"bike_id": "9f34d65040d2211a5fbc84a12afffa31", "type": "electric_scooter", "is_disabled": 0, "lat": 38.911901, "rental_uris": {"ios": "https://dc.lft.to/lastmile_qr_scan", "android": "https://dc.lft.to/lastmile_qr_scan"}, "is_reserved": 0, "fusion_lon": 0.0, "fusion_lat": 0.0, "lon": -77.0321355, "name": "9f34d65040d2211a5fbc84a12afffa31"}, {"bike_id": "56c3daaca879e58285cfd20c90756671", "type": "electric_scooter", "is_disabled": 0, "lat": 38.901379, "rental_uris": {"ios": "https://dc.lft.to/lastmile_qr_scan", "android": "https://dc.lft.to/lastmile_qr_scan"}, "is_reserved": 0, "fusion_lon": 0.0, "fusion_lat": 0.0, "lon": -77.01621783333333, "name": "56c3daaca879e58285cfd20c90756671"}, {"bike_id": "0f9655c3fcd2d9b69a525dfb53c9588b", "type": "electric_scooter", "is_disabled": 0, "lat": 38.917972166666665, "rental_uris": {"ios": "https://dc.lft.to/lastmile_qr_scan", "android": "https://dc.lft.to/lastmile_qr_scan"}, "is_reserved": 0, "fusion_lon": 0.0, "fusion_lat": 0.0, "lon": -77.03448666666667, "name": "0f9655c3fcd2d9b69a525dfb53c9588b"}, {"bike_id": "cb107244886f6655122f57d27a4e604c", "type": "electric_scooter", "is_disabled": 0, "lat": 38.9099875, "rental_uris": {"ios": "https://dc.lft.to/lastmile_qr_scan", "android": "https://dc.lft.to/lastmile_qr_scan"}, "is_reserved": 0, "fusion_lon": 0.0, "fusion_lat": 0.0, "lon": -77.04008083333333, "name": "cb107244886f6655122f57d27a4e604c"}, {"bike_id": "195756abb4f24ffdfe26e7e3bc2af601", "type": "electric_scooter", "is_disabled": 0, "lat": 38.867158333333336, "rental_uris": {"ios": "https://dc.lft.to/lastmile_qr_scan", "android": "https://dc.lft.to/lastmile_qr_scan"}, "is_reserved": 0, "fusion_lon": 0.0, "fusion_lat": 0.0, "lon": -77.01004266666666, "name": "195756abb4f24ffdfe26e7e3bc2af601"}, {"bike_id": "993676d5568e7aafe68468503db8008b", "type": "electric_scooter", "is_disabled": 0, "lat": 38.93192, "rental_uris": {"ios": "https://dc.lft.to/lastmile_qr_scan", "android": "https://dc.lft.to/lastmile_qr_scan"}, "is_reserved": 0, "fusion_lon": 0.0, "fusion_lat": 0.0, "lon": -77.020213, "name": "993676d5568e7aafe68468503db8008b"}, {"bike_id": "89bc6b19da939392c6b99db7f3013623", "type": "electric_scooter", "is_disabled": 0, "lat": 38.90029283333333, "rental_uris": {"ios": "https://dc.lft.to/lastmile_qr_scan", "android": "https://dc.lft.to/lastmile_qr_scan"}, "is_reserved": 0, "fusion_lon": 0.0, "fusion_lat": 0.0, "lon": -76.99158, "name": "89bc6b19da939392c6b99db7f3013623"}, {"bike_id": "833238c126eba82358d6de3a0f1eecca", "type": "electric_scooter", "is_disabled": 0, "lat": 38.923269833333336, "rental_uris": {"ios": "https://dc.lft.to/lastmile_qr_scan", "android": "https://dc.lft.to/lastmile_qr_scan"}, "is_reserved": 0, "fusion_lon": 0.0, "fusion_lat": 0.0, "lon": -77.02971016666666, "name": "833238c126eba82358d6de3a0f1eecca"}, {"bike_id": "ad7c4a5caa1feea8e73756a7dc2bf357", "type": "electric_scooter", "is_disabled": 0, "lat": 38.919261166666665, "rental_uris": {"ios": "https://dc.lft.to/lastmile_qr_scan", "android": "https://dc.lft.to/lastmile_qr_scan"}, "is_reserved": 0, "fusion_lon": 0.0, "fusion_lat": 0.0, "lon": -77.04167316666667, "name": "ad7c4a5caa1feea8e73756a7dc2bf357"}, {"bike_id": "ab1977aa6b2d2b6213087895ecf85462", "type": "electric_scooter", "is_disabled": 0, "lat": 38.923368333333336, "rental_uris": {"ios": "https://dc.lft.to/lastmile_qr_scan", "android": "https://dc.lft.to/lastmile_qr_scan"}, "is_reserved": 0, "fusion_lon": 0.0, "fusion_lat": 0.0, "lon": -77.05252416666667, "name": "ab1977aa6b2d2b6213087895ecf85462"}, {"bike_id": "02ef5c04e0458d38fdc1dcb5a1cfa06f", "type": "electric_scooter", "is_disabled": 0, "lat": 38.91267766666667, "rental_uris": {"ios": "https://dc.lft.to/lastmile_qr_scan", "android": "https://dc.lft.to/lastmile_qr_scan"}, "is_reserved": 0, "fusion_lon": 0.0, "fusion_lat": 0.0, "lon": -77.03139016666667, "name": "02ef5c04e0458d38fdc1dcb5a1cfa06f"}, {"bike_id": "55c3e9fb8fb9a0613e37867267137a9e", "type": "electric_scooter", "is_disabled": 0, "lat": 38.922335333333336, "rental_uris": {"ios": "https://dc.lft.to/lastmile_qr_scan", "android": "https://dc.lft.to/lastmile_qr_scan"}, "is_reserved": 0, "fusion_lon": 0.0, "fusion_lat": 0.0, "lon": -76.97530083333334, "name": "55c3e9fb8fb9a0613e37867267137a9e"}, {"bike_id": "ce4727eb78739b006c4bb29c1aa73159", "type": "electric_scooter", "is_disabled": 0, "lat": 38.90361866666667, "rental_uris": {"ios": "https://dc.lft.to/lastmile_qr_scan", "android": "https://dc.lft.to/lastmile_qr_scan"}, "is_reserved": 0, "fusion_lon": 0.0, "fusion_lat": 0.0, "lon": -76.99217233333333, "name": "ce4727eb78739b006c4bb29c1aa73159"}, {"bike_id": "e660fc0420a8b6585110eca165d44049", "type": "electric_scooter", "is_disabled": 0, "lat": 38.911383, "rental_uris": {"ios": "https://dc.lft.to/lastmile_qr_scan", "android": "https://dc.lft.to/lastmile_qr_scan"}, "is_reserved": 0, "fusion_lon": 0.0, "fusion_lat": 0.0, "lon": -77.0450145, "name": "e660fc0420a8b6585110eca165d44049"}, {"bike_id": "fb7dd69570fc336c0aadc65136475073", "type": "electric_scooter", "is_disabled": 0, "lat": 38.887130166666665, "rental_uris": {"ios": "https://dc.lft.to/lastmile_qr_scan", "android": "https://dc.lft.to/lastmile_qr_scan"}, "is_reserved": 0, "fusion_lon": 0.0, "fusion_lat": 0.0, "lon": -77.02190283333333, "name": "fb7dd69570fc336c0aadc65136475073"}, {"bike_id": "4eb87cf417c08a1105e3e0944fda8b6b", "type": "electric_bike", "is_disabled": 0, "lat": 38.88043166666667, "rental_uris": {"ios": "https://dc.lft.to/lastmile_qr_scan", "android": "https://dc.lft.to/lastmile_qr_scan"}, "is_reserved": 0, "fusion_lon": 0.0, "fusion_lat": 0.0, "lon": -77.02527766666667, "name": "4eb87cf417c08a1105e3e0944fda8b6b"}, {"bike_id": "854c0561a29ad597f047690f566f62fe", "type": "electric_scooter", "is_disabled": 0, "lat": 38.956378, "rental_uris": {"ios": "https://dc.lft.to/lastmile_qr_scan", "android": "https://dc.lft.to/lastmile_qr_scan"}, "is_reserved": 0, "fusion_lon": 0.0, "fusion_lat": 0.0, "lon": -77.036328, "name": "854c0561a29ad597f047690f566f62fe"}, {"bike_id": "5a5f42d30f93e3b56e793ee9f1e7d514", "type": "electric_bike", "is_disabled": 0, "lat": 39.05109683333333, "rental_uris": {"ios": "https://dc.lft.to/lastmile_qr_scan", "android": "https://dc.lft.to/lastmile_qr_scan"}, "is_reserved": 0, "fusion_lon": 0.0, "fusion_lat": 0.0, "lon": -77.11736316666666, "name": "5a5f42d30f93e3b56e793ee9f1e7d514"}, {"bike_id": "dde0bfac59c045f3fc76ad2860df0f8c", "type": "electric_scooter", "is_disabled": 0, "lat": 38.933163, "rental_uris": {"ios": "https://dc.lft.to/lastmile_qr_scan", "android": "https://dc.lft.to/lastmile_qr_scan"}, "is_reserved": 0, "fusion_lon": 0.0, "fusion_lat": 0.0, "lon": -77.02755733333333, "name": "dde0bfac59c045f3fc76ad2860df0f8c"}, {"bike_id": "7a3db6b255671226b7123dcf7690f748", "type": "electric_scooter", "is_disabled": 0, "lat": 38.89504983333333, "rental_uris": {"ios": "https://dc.lft.to/lastmile_qr_scan", "android": "https://dc.lft.to/lastmile_qr_scan"}, "is_reserved": 0, "fusion_lon": 0.0, "fusion_lat": 0.0, "lon": -77.043664, "name": "7a3db6b255671226b7123dcf7690f748"}, {"bike_id": "ad3f1d10868314391c7cbc183a7b1a0c", "type": "electric_scooter", "is_disabled": 0, "lat": 38.899840166666664, "rental_uris": {"ios": "https://dc.lft.to/lastmile_qr_scan", "android": "https://dc.lft.to/lastmile_qr_scan"}, "is_reserved": 0, "fusion_lon": 0.0, "fusion_lat": 0.0, "lon": -77.027162, "name": "ad3f1d10868314391c7cbc183a7b1a0c"}, {"bike_id": "e5b350d0da894c7d61baf500659f1f74", "type": "electric_scooter", "is_disabled": 0, "lat": 38.929464, "rental_uris": {"ios": "https://dc.lft.to/lastmile_qr_scan", "android": "https://dc.lft.to/lastmile_qr_scan"}, "is_reserved": 0, "fusion_lon": 0.0, "fusion_lat": 0.0, "lon": -77.03470433333334, "name": "e5b350d0da894c7d61baf500659f1f74"}, {"bike_id": "76cc887e2b2d395a0faf60901bef159e", "type": "electric_scooter", "is_disabled": 0, "lat": 38.92894916666667, "rental_uris": {"ios": "https://dc.lft.to/lastmile_qr_scan", "android": "https://dc.lft.to/lastmile_qr_scan"}, "is_reserved": 0, "fusion_lon": 0.0, "fusion_lat": 0.0, "lon": -77.03286833333334, "name": "76cc887e2b2d395a0faf60901bef159e"}, {"bike_id": "7e4799f9598427adce26281d43020e39", "type": "electric_scooter", "is_disabled": 0, "lat": 38.9237895, "rental_uris": {"ios": "https://dc.lft.to/lastmile_qr_scan", "android": "https://dc.lft.to/lastmile_qr_scan"}, "is_reserved": 0, "fusion_lon": 0.0, "fusion_lat": 0.0, "lon": -77.0282425, "name": "7e4799f9598427adce26281d43020e39"}, {"bike_id": "f0a2af9518b67b38e03a2103683ba766", "type": "electric_scooter", "is_disabled": 0, "lat": 38.914019333333336, "rental_uris": {"ios": "https://dc.lft.to/lastmile_qr_scan", "android": "https://dc.lft.to/lastmile_qr_scan"}, "is_reserved": 0, "fusion_lon": 0.0, "fusion_lat": 0.0, "lon": -77.03170633333333, "name": "f0a2af9518b67b38e03a2103683ba766"}, {"bike_id": "632b79d44ebb0ce23754ef7ec9871162", "type": "electric_bike", "is_disabled": 0, "lat": 39.0341985, "rental_uris": {"ios": "https://dc.lft.to/lastmile_qr_scan", "android": "https://dc.lft.to/lastmile_qr_scan"}, "is_reserved": 0, "fusion_lon": 0.0, "fusion_lat": 0.0, "lon": -77.04167716666667, "name": "632b79d44ebb0ce23754ef7ec9871162"}, {"bike_id": "c499604ab16d9df4cbc2d75a0f267841", "type": "electric_scooter", "is_disabled": 0, "lat": 38.89606, "rental_uris": {"ios": "https://dc.lft.to/lastmile_qr_scan", "android": "https://dc.lft.to/lastmile_qr_scan"}, "is_reserved": 0, "fusion_lon": 0.0, "fusion_lat": 0.0, "lon": -77.0092785, "name": "c499604ab16d9df4cbc2d75a0f267841"}, {"bike_id": "be5d62fb4cec240842d91dd9b9bcb24e", "type": "electric_scooter", "is_disabled": 0, "lat": 38.921456, "rental_uris": {"ios": "https://dc.lft.to/lastmile_qr_scan", "android": "https://dc.lft.to/lastmile_qr_scan"}, "is_reserved": 0, "fusion_lon": 0.0, "fusion_lat": 0.0, "lon": -77.03867066666666, "name": "be5d62fb4cec240842d91dd9b9bcb24e"}, {"bike_id": "768545a81ebe93008b8fcbddac93dd15", "type": "electric_scooter", "is_disabled": 0, "lat": 38.881774666666665, "rental_uris": {"ios": "https://dc.lft.to/lastmile_qr_scan", "android": "https://dc.lft.to/lastmile_qr_scan"}, "is_reserved": 0, "fusion_lon": 0.0, "fusion_lat": 0.0, "lon": -77.02810916666667, "name": "768545a81ebe93008b8fcbddac93dd15"}, {"bike_id": "ea070dc6173603dfe7718d72a7a3a583", "type": "electric_scooter", "is_disabled": 0, "lat": 38.90299866666667, "rental_uris": {"ios": "https://dc.lft.to/lastmile_qr_scan", "android": "https://dc.lft.to/lastmile_qr_scan"}, "is_reserved": 0, "fusion_lon": 0.0, "fusion_lat": 0.0, "lon": -77.05052016666667, "name": "ea070dc6173603dfe7718d72a7a3a583"}, {"bike_id": "b150c9336fa8120ac37c75659e5df105", "type": "electric_scooter", "is_disabled": 0, "lat": 38.90779833333333, "rental_uris": {"ios": "https://dc.lft.to/lastmile_qr_scan", "android": "https://dc.lft.to/lastmile_qr_scan"}, "is_reserved": 0, "fusion_lon": 0.0, "fusion_lat": 0.0, "lon": -77.04181633333333, "name": "b150c9336fa8120ac37c75659e5df105"}, {"bike_id": "09973bcaa7ff9986d8ee1e45fdc6501e", "type": "electric_scooter", "is_disabled": 0, "lat": 38.900426833333334, "rental_uris": {"ios": "https://dc.lft.to/lastmile_qr_scan", "android": "https://dc.lft.to/lastmile_qr_scan"}, "is_reserved": 0, "fusion_lon": 0.0, "fusion_lat": 0.0, "lon": -77.00227833333334, "name": "09973bcaa7ff9986d8ee1e45fdc6501e"}, {"bike_id": "b4c362f04ea966117405ccb61603643c", "type": "electric_scooter", "is_disabled": 0, "lat": 38.89739016666667, "rental_uris": {"ios": "https://dc.lft.to/lastmile_qr_scan", "android": "https://dc.lft.to/lastmile_qr_scan"}, "is_reserved": 0, "fusion_lon": 0.0, "fusion_lat": 0.0, "lon": -76.94730816666667, "name": "b4c362f04ea966117405ccb61603643c"}, {"bike_id": "f164e1791f22f8a9a464ee2d8bdd8cd9", "type": "electric_scooter", "is_disabled": 0, "lat": 38.9024865, "rental_uris": {"ios": "https://dc.lft.to/lastmile_qr_scan", "android": "https://dc.lft.to/lastmile_qr_scan"}, "is_reserved": 0, "fusion_lon": 0.0, "fusion_lat": 0.0, "lon": -77.029441, "name": "f164e1791f22f8a9a464ee2d8bdd8cd9"}, {"bike_id": "bc36e4a58eb5c12684a70b4b21f72484", "type": "electric_scooter", "is_disabled": 0, "lat": 38.916688, "rental_uris": {"ios": "https://dc.lft.to/lastmile_qr_scan", "android": "https://dc.lft.to/lastmile_qr_scan"}, "is_reserved": 0, "fusion_lon": 0.0, "fusion_lat": 0.0, "lon": -77.02390316666667, "name": "bc36e4a58eb5c12684a70b4b21f72484"}, {"bike_id": "462e9e8e455549a6da3c3357fa3d5db0", "type": "electric_scooter", "is_disabled": 0, "lat": 38.90719933333333, "rental_uris": {"ios": "https://dc.lft.to/lastmile_qr_scan", "android": "https://dc.lft.to/lastmile_qr_scan"}, "is_reserved": 0, "fusion_lon": 0.0, "fusion_lat": 0.0, "lon": -77.02625116666667, "name": "462e9e8e455549a6da3c3357fa3d5db0"}, {"bike_id": "b5a5e1d05029f4bc815dd3e43705d840", "type": "electric_scooter", "is_disabled": 0, "lat": 38.89494166666667, "rental_uris": {"ios": "https://dc.lft.to/lastmile_qr_scan", "android": "https://dc.lft.to/lastmile_qr_scan"}, "is_reserved": 0, "fusion_lon": 0.0, "fusion_lat": 0.0, "lon": -77.01103816666667, "name": "b5a5e1d05029f4bc815dd3e43705d840"}, {"bike_id": "8089bffacac04cf426557b6f9e8fb8d5", "type": "electric_scooter", "is_disabled": 0, "lat": 38.912426833333335, "rental_uris": {"ios": "https://dc.lft.to/lastmile_qr_scan", "android": "https://dc.lft.to/lastmile_qr_scan"}, "is_reserved": 0, "fusion_lon": 0.0, "fusion_lat": 0.0, "lon": -77.02214883333333, "name": "8089bffacac04cf426557b6f9e8fb8d5"}, {"bike_id": "46fbb8e51d9a14ee8d0ac578d0bbbfa7", "type": "electric_scooter", "is_disabled": 0, "lat": 38.940662, "rental_uris": {"ios": "https://dc.lft.to/lastmile_qr_scan", "android": "https://dc.lft.to/lastmile_qr_scan"}, "is_reserved": 0, "fusion_lon": 0.0, "fusion_lat": 0.0, "lon": -77.06102716666666, "name": "46fbb8e51d9a14ee8d0ac578d0bbbfa7"}, {"bike_id": "f5df4d1197c969f12bcfb3c60cbcb15e", "type": "electric_scooter", "is_disabled": 0, "lat": 38.91192083333333, "rental_uris": {"ios": "https://dc.lft.to/lastmile_qr_scan", "android": "https://dc.lft.to/lastmile_qr_scan"}, "is_reserved": 0, "fusion_lon": 0.0, "fusion_lat": 0.0, "lon": -77.01903516666667, "name": "f5df4d1197c969f12bcfb3c60cbcb15e"}, {"bike_id": "e2d2c6402d325a85c777113dbcf8773f", "type": "electric_scooter", "is_disabled": 0, "lat": 38.910332, "rental_uris": {"ios": "https://dc.lft.to/lastmile_qr_scan", "android": "https://dc.lft.to/lastmile_qr_scan"}, "is_reserved": 0, "fusion_lon": 0.0, "fusion_lat": 0.0, "lon": -77.03805483333333, "name": "e2d2c6402d325a85c777113dbcf8773f"}, {"bike_id": "00e3f84bb0efbf61c667dfddb3976d8c", "type": "electric_bike", "is_disabled": 0, "lat": 38.881007833333335, "rental_uris": {"ios": "https://dc.lft.to/lastmile_qr_scan", "android": "https://dc.lft.to/lastmile_qr_scan"}, "is_reserved": 0, "fusion_lon": 0.0, "fusion_lat": 0.0, "lon": -77.01509133333333, "name": "00e3f84bb0efbf61c667dfddb3976d8c"}, {"bike_id": "c38ad984a3a1f817015910d4fdc312db", "type": "electric_scooter", "is_disabled": 0, "lat": 38.907775, "rental_uris": {"ios": "https://dc.lft.to/lastmile_qr_scan", "android": "https://dc.lft.to/lastmile_qr_scan"}, "is_reserved": 0, "fusion_lon": 0.0, "fusion_lat": 0.0, "lon": -77.0417925, "name": "c38ad984a3a1f817015910d4fdc312db"}, {"bike_id": "ccd1ac2b5a83fa1584c8c94c853b9519", "type": "electric_scooter", "is_disabled": 0, "lat": 38.94291416666667, "rental_uris": {"ios": "https://dc.lft.to/lastmile_qr_scan", "android": "https://dc.lft.to/lastmile_qr_scan"}, "is_reserved": 0, "fusion_lon": 0.0, "fusion_lat": 0.0, "lon": -77.02173, "name": "ccd1ac2b5a83fa1584c8c94c853b9519"}, {"bike_id": "031c4758e5ea658706c23d70910978ce", "type": "electric_scooter", "is_disabled": 0, "lat": 38.92191116666667, "rental_uris": {"ios": "https://dc.lft.to/lastmile_qr_scan", "android": "https://dc.lft.to/lastmile_qr_scan"}, "is_reserved": 0, "fusion_lon": 0.0, "fusion_lat": 0.0, "lon": -77.02086133333333, "name": "031c4758e5ea658706c23d70910978ce"}, {"bike_id": "25cd0f26c06b00240ac11b729866d9ba", "type": "electric_scooter", "is_disabled": 0, "lat": 38.88507216666667, "rental_uris": {"ios": "https://dc.lft.to/lastmile_qr_scan", "android": "https://dc.lft.to/lastmile_qr_scan"}, "is_reserved": 0, "fusion_lon": 0.0, "fusion_lat": 0.0, "lon": -77.025289, "name": "25cd0f26c06b00240ac11b729866d9ba"}, {"bike_id": "f5625d48ea9e4174d2f9922addb1f235", "type": "electric_scooter", "is_disabled": 0, "lat": 38.93422533333333, "rental_uris": {"ios": "https://dc.lft.to/lastmile_qr_scan", "android": "https://dc.lft.to/lastmile_qr_scan"}, "is_reserved": 0, "fusion_lon": 0.0, "fusion_lat": 0.0, "lon": -77.02846383333333, "name": "f5625d48ea9e4174d2f9922addb1f235"}, {"bike_id": "7adcacf427448192c6bb8ce4f5017938", "type": "electric_scooter", "is_disabled": 0, "lat": 38.925412333333334, "rental_uris": {"ios": "https://dc.lft.to/lastmile_qr_scan", "android": "https://dc.lft.to/lastmile_qr_scan"}, "is_reserved": 0, "fusion_lon": 0.0, "fusion_lat": 0.0, "lon": -77.04061516666667, "name": "7adcacf427448192c6bb8ce4f5017938"}, {"bike_id": "4f6c99710af1acd4d052394bb68f835b", "type": "electric_scooter", "is_disabled": 0, "lat": 38.90679216666667, "rental_uris": {"ios": "https://dc.lft.to/lastmile_qr_scan", "android": "https://dc.lft.to/lastmile_qr_scan"}, "is_reserved": 0, "fusion_lon": 0.0, "fusion_lat": 0.0, "lon": -77.0004825, "name": "4f6c99710af1acd4d052394bb68f835b"}, {"bike_id": "214094825c94335a15bb785dc59f9027", "type": "electric_scooter", "is_disabled": 0, "lat": 38.90793266666667, "rental_uris": {"ios": "https://dc.lft.to/lastmile_qr_scan", "android": "https://dc.lft.to/lastmile_qr_scan"}, "is_reserved": 0, "fusion_lon": 0.0, "fusion_lat": 0.0, "lon": -77.04284933333334, "name": "214094825c94335a15bb785dc59f9027"}, {"bike_id": "bc17c66209898ec7967a05dc2d0dec01", "type": "electric_scooter", "is_disabled": 0, "lat": 38.9212795, "rental_uris": {"ios": "https://dc.lft.to/lastmile_qr_scan", "android": "https://dc.lft.to/lastmile_qr_scan"}, "is_reserved": 0, "fusion_lon": 0.0, "fusion_lat": 0.0, "lon": -77.02533833333334, "name": "bc17c66209898ec7967a05dc2d0dec01"}, {"bike_id": "93a7e7522fca69e3c85dd4431f08bbea", "type": "electric_scooter", "is_disabled": 0, "lat": 38.924566666666664, "rental_uris": {"ios": "https://dc.lft.to/lastmile_qr_scan", "android": "https://dc.lft.to/lastmile_qr_scan"}, "is_reserved": 0, "fusion_lon": 0.0, "fusion_lat": 0.0, "lon": -77.05207816666666, "name": "93a7e7522fca69e3c85dd4431f08bbea"}, {"bike_id": "816db14309dfb9f6041d2622473927d8", "type": "electric_scooter", "is_disabled": 0, "lat": 38.89724366666667, "rental_uris": {"ios": "https://dc.lft.to/lastmile_qr_scan", "android": "https://dc.lft.to/lastmile_qr_scan"}, "is_reserved": 0, "fusion_lon": 0.0, "fusion_lat": 0.0, "lon": -77.0480875, "name": "816db14309dfb9f6041d2622473927d8"}, {"bike_id": "05ffe461034e3223e33af5a1aa67642b", "type": "electric_bike", "is_disabled": 0, "lat": 38.957049833333336, "rental_uris": {"ios": "https://dc.lft.to/lastmile_qr_scan", "android": "https://dc.lft.to/lastmile_qr_scan"}, "is_reserved": 0, "fusion_lon": 0.0, "fusion_lat": 0.0, "lon": -77.024118, "name": "05ffe461034e3223e33af5a1aa67642b"}, {"bike_id": "fe3eb91c12f0fa58955a977cf6be234b", "type": "electric_scooter", "is_disabled": 0, "lat": 38.91917183333333, "rental_uris": {"ios": "https://dc.lft.to/lastmile_qr_scan", "android": "https://dc.lft.to/lastmile_qr_scan"}, "is_reserved": 0, "fusion_lon": 0.0, "fusion_lat": 0.0, "lon": -77.00258, "name": "fe3eb91c12f0fa58955a977cf6be234b"}, {"bike_id": "1854ad8543b6942394985e6c602e48b1", "type": "electric_scooter", "is_disabled": 0, "lat": 38.902816666666666, "rental_uris": {"ios": "https://dc.lft.to/lastmile_qr_scan", "android": "https://dc.lft.to/lastmile_qr_scan"}, "is_reserved": 0, "fusion_lon": 0.0, "fusion_lat": 0.0, "lon": -77.0366325, "name": "1854ad8543b6942394985e6c602e48b1"}, {"bike_id": "0ed3767d43cdeccf4600024c21f1bd48", "type": "electric_scooter", "is_disabled": 0, "lat": 38.93215, "rental_uris": {"ios": "https://dc.lft.to/lastmile_qr_scan", "android": "https://dc.lft.to/lastmile_qr_scan"}, "is_reserved": 0, "fusion_lon": 0.0, "fusion_lat": 0.0, "lon": -77.03650966666666, "name": "0ed3767d43cdeccf4600024c21f1bd48"}, {"bike_id": "3b797e65e9631d77293324731db4f19d", "type": "electric_scooter", "is_disabled": 0, "lat": 38.927457, "rental_uris": {"ios": "https://dc.lft.to/lastmile_qr_scan", "android": "https://dc.lft.to/lastmile_qr_scan"}, "is_reserved": 0, "fusion_lon": 0.0, "fusion_lat": 0.0, "lon": -77.02383483333334, "name": "3b797e65e9631d77293324731db4f19d"}, {"bike_id": "818b8c4ebbc0919fba49fd038f53aa9e", "type": "electric_bike", "is_disabled": 0, "lat": 38.9922025, "rental_uris": {"ios": "https://dc.lft.to/lastmile_qr_scan", "android": "https://dc.lft.to/lastmile_qr_scan"}, "is_reserved": 0, "fusion_lon": 0.0, "fusion_lat": 0.0, "lon": -76.94433333333333, "name": "818b8c4ebbc0919fba49fd038f53aa9e"}, {"bike_id": "e1be95e46bc123727535b1591997edcc", "type": "electric_scooter", "is_disabled": 0, "lat": 38.916889, "rental_uris": {"ios": "https://dc.lft.to/lastmile_qr_scan", "android": "https://dc.lft.to/lastmile_qr_scan"}, "is_reserved": 0, "fusion_lon": 0.0, "fusion_lat": 0.0, "lon": -77.02601333333334, "name": "e1be95e46bc123727535b1591997edcc"}, {"bike_id": "bb65af207b1561f3a99f53f6181fd461", "type": "electric_bike", "is_disabled": 0, "lat": 38.854819666666664, "rental_uris": {"ios": "https://dc.lft.to/lastmile_qr_scan", "android": "https://dc.lft.to/lastmile_qr_scan"}, "is_reserved": 0, "fusion_lon": 0.0, "fusion_lat": 0.0, "lon": -77.11601333333333, "name": "bb65af207b1561f3a99f53f6181fd461"}, {"bike_id": "5908bce0e3e082d7a147b1e24555ede1", "type": "electric_scooter", "is_disabled": 0, "lat": 38.90691783333333, "rental_uris": {"ios": "https://dc.lft.to/lastmile_qr_scan", "android": "https://dc.lft.to/lastmile_qr_scan"}, "is_reserved": 0, "fusion_lon": 0.0, "fusion_lat": 0.0, "lon": -77.0259855, "name": "5908bce0e3e082d7a147b1e24555ede1"}, {"bike_id": "e35a6f67d3754e966be1608a841b0c3e", "type": "electric_scooter", "is_disabled": 0, "lat": 38.916794, "rental_uris": {"ios": "https://dc.lft.to/lastmile_qr_scan", "android": "https://dc.lft.to/lastmile_qr_scan"}, "is_reserved": 0, "fusion_lon": 0.0, "fusion_lat": 0.0, "lon": -77.02982433333334, "name": "e35a6f67d3754e966be1608a841b0c3e"}, {"bike_id": "6527c82a116aebdf9e1ca5f57167591e", "type": "electric_scooter", "is_disabled": 0, "lat": 38.91254416666666, "rental_uris": {"ios": "https://dc.lft.to/lastmile_qr_scan", "android": "https://dc.lft.to/lastmile_qr_scan"}, "is_reserved": 0, "fusion_lon": 0.0, "fusion_lat": 0.0, "lon": -77.05879, "name": "6527c82a116aebdf9e1ca5f57167591e"}, {"bike_id": "21688e78147f35a0b3bc690113086090", "type": "electric_scooter", "is_disabled": 0, "lat": 38.9276875, "rental_uris": {"ios": "https://dc.lft.to/lastmile_qr_scan", "android": "https://dc.lft.to/lastmile_qr_scan"}, "is_reserved": 0, "fusion_lon": 0.0, "fusion_lat": 0.0, "lon": -77.02732766666666, "name": "21688e78147f35a0b3bc690113086090"}, {"bike_id": "613194b1cbc6d190c4eaf831fa1409dc", "type": "electric_bike", "is_disabled": 0, "lat": 38.855294, "rental_uris": {"ios": "https://dc.lft.to/lastmile_qr_scan", "android": "https://dc.lft.to/lastmile_qr_scan"}, "is_reserved": 0, "fusion_lon": 0.0, "fusion_lat": 0.0, "lon": -77.120048, "name": "613194b1cbc6d190c4eaf831fa1409dc"}, {"bike_id": "361da7ae3880021ce719d0a47ad89cdf", "type": "electric_scooter", "is_disabled": 0, "lat": 38.916267833333336, "rental_uris": {"ios": "https://dc.lft.to/lastmile_qr_scan", "android": "https://dc.lft.to/lastmile_qr_scan"}, "is_reserved": 0, "fusion_lon": 0.0, "fusion_lat": 0.0, "lon": -77.03212933333333, "name": "361da7ae3880021ce719d0a47ad89cdf"}, {"bike_id": "8a650cb818e68c3bc3c0334f78498da6", "type": "electric_scooter", "is_disabled": 0, "lat": 38.91703833333333, "rental_uris": {"ios": "https://dc.lft.to/lastmile_qr_scan", "android": "https://dc.lft.to/lastmile_qr_scan"}, "is_reserved": 0, "fusion_lon": 0.0, "fusion_lat": 0.0, "lon": -77.03472866666667, "name": "8a650cb818e68c3bc3c0334f78498da6"}, {"bike_id": "6ea78d90bae6c7392083332b7859954a", "type": "electric_scooter", "is_disabled": 0, "lat": 38.94713866666667, "rental_uris": {"ios": "https://dc.lft.to/lastmile_qr_scan", "android": "https://dc.lft.to/lastmile_qr_scan"}, "is_reserved": 0, "fusion_lon": 0.0, "fusion_lat": 0.0, "lon": -77.06548816666667, "name": "6ea78d90bae6c7392083332b7859954a"}, {"bike_id": "97a4b9600c41f5217a29d7637de556d8", "type": "electric_scooter", "is_disabled": 0, "lat": 38.92086, "rental_uris": {"ios": "https://dc.lft.to/lastmile_qr_scan", "android": "https://dc.lft.to/lastmile_qr_scan"}, "is_reserved": 0, "fusion_lon": 0.0, "fusion_lat": 0.0, "lon": -77.03885166666667, "name": "97a4b9600c41f5217a29d7637de556d8"}, {"bike_id": "bea7961021bcef0cb4ba3070e68faa9a", "type": "electric_scooter", "is_disabled": 0, "lat": 38.919136, "rental_uris": {"ios": "https://dc.lft.to/lastmile_qr_scan", "android": "https://dc.lft.to/lastmile_qr_scan"}, "is_reserved": 0, "fusion_lon": 0.0, "fusion_lat": 0.0, "lon": -77.030608, "name": "bea7961021bcef0cb4ba3070e68faa9a"}, {"bike_id": "67d76d2aa003095de93b85443cc3d437", "type": "electric_scooter", "is_disabled": 0, "lat": 38.91834733333334, "rental_uris": {"ios": "https://dc.lft.to/lastmile_qr_scan", "android": "https://dc.lft.to/lastmile_qr_scan"}, "is_reserved": 0, "fusion_lon": 0.0, "fusion_lat": 0.0, "lon": -77.0417915, "name": "67d76d2aa003095de93b85443cc3d437"}, {"bike_id": "2653e77123a1ce238268a8ab31f49d5e", "type": "electric_scooter", "is_disabled": 0, "lat": 38.901217833333334, "rental_uris": {"ios": "https://dc.lft.to/lastmile_qr_scan", "android": "https://dc.lft.to/lastmile_qr_scan"}, "is_reserved": 0, "fusion_lon": 0.0, "fusion_lat": 0.0, "lon": -77.01797966666666, "name": "2653e77123a1ce238268a8ab31f49d5e"}, {"bike_id": "03f1903ac8d375a76bb6562c87027c2b", "type": "electric_bike", "is_disabled": 0, "lat": 38.8556365, "rental_uris": {"ios": "https://dc.lft.to/lastmile_qr_scan", "android": "https://dc.lft.to/lastmile_qr_scan"}, "is_reserved": 0, "fusion_lon": 0.0, "fusion_lat": 0.0, "lon": -77.11317483333333, "name": "03f1903ac8d375a76bb6562c87027c2b"}, {"bike_id": "cce1a81e0d53d1c0fe9e3b140fa1b231", "type": "electric_bike", "is_disabled": 0, "lat": 39.0147865, "rental_uris": {"ios": "https://dc.lft.to/lastmile_qr_scan", "android": "https://dc.lft.to/lastmile_qr_scan"}, "is_reserved": 0, "fusion_lon": 0.0, "fusion_lat": 0.0, "lon": -77.05496233333334, "name": "cce1a81e0d53d1c0fe9e3b140fa1b231"}, {"bike_id": "ef06c78a979163f9e8c12b0a6d646c83", "type": "electric_scooter", "is_disabled": 0, "lat": 38.900151666666666, "rental_uris": {"ios": "https://dc.lft.to/lastmile_qr_scan", "android": "https://dc.lft.to/lastmile_qr_scan"}, "is_reserved": 0, "fusion_lon": 0.0, "fusion_lat": 0.0, "lon": -77.0008455, "name": "ef06c78a979163f9e8c12b0a6d646c83"}, {"bike_id": "17c58c7f54a76493313ba55b89de75fc", "type": "electric_bike", "is_disabled": 0, "lat": 38.9086535, "rental_uris": {"ios": "https://dc.lft.to/lastmile_qr_scan", "android": "https://dc.lft.to/lastmile_qr_scan"}, "is_reserved": 0, "fusion_lon": 0.0, "fusion_lat": 0.0, "lon": -77.0764715, "name": "17c58c7f54a76493313ba55b89de75fc"}, {"bike_id": "679755f8a89de3e0c830bd4c9834bb34", "type": "electric_scooter", "is_disabled": 0, "lat": 38.90560166666667, "rental_uris": {"ios": "https://dc.lft.to/lastmile_qr_scan", "android": "https://dc.lft.to/lastmile_qr_scan"}, "is_reserved": 0, "fusion_lon": 0.0, "fusion_lat": 0.0, "lon": -77.00291816666666, "name": "679755f8a89de3e0c830bd4c9834bb34"}, {"bike_id": "483da92fe27513c98e719d22b5e7d5b7", "type": "electric_scooter", "is_disabled": 0, "lat": 38.9146565, "rental_uris": {"ios": "https://dc.lft.to/lastmile_qr_scan", "android": "https://dc.lft.to/lastmile_qr_scan"}, "is_reserved": 0, "fusion_lon": 0.0, "fusion_lat": 0.0, "lon": -77.04550933333333, "name": "483da92fe27513c98e719d22b5e7d5b7"}, {"bike_id": "fa326135a1b1a978c0a0b8b647b5693c", "type": "electric_scooter", "is_disabled": 0, "lat": 38.917239, "rental_uris": {"ios": "https://dc.lft.to/lastmile_qr_scan", "android": "https://dc.lft.to/lastmile_qr_scan"}, "is_reserved": 0, "fusion_lon": 0.0, "fusion_lat": 0.0, "lon": -77.0288065, "name": "fa326135a1b1a978c0a0b8b647b5693c"}, {"bike_id": "a4d97ab5f60efd3cbceaec859f05fedf", "type": "electric_scooter", "is_disabled": 0, "lat": 38.89472166666667, "rental_uris": {"ios": "https://dc.lft.to/lastmile_qr_scan", "android": "https://dc.lft.to/lastmile_qr_scan"}, "is_reserved": 0, "fusion_lon": 0.0, "fusion_lat": 0.0, "lon": -76.99486383333333, "name": "a4d97ab5f60efd3cbceaec859f05fedf"}, {"bike_id": "e627b8638e92c67fe87381be37e12e88", "type": "electric_scooter", "is_disabled": 0, "lat": 38.917021, "rental_uris": {"ios": "https://dc.lft.to/lastmile_qr_scan", "android": "https://dc.lft.to/lastmile_qr_scan"}, "is_reserved": 0, "fusion_lon": 0.0, "fusion_lat": 0.0, "lon": -77.02381866666667, "name": "e627b8638e92c67fe87381be37e12e88"}, {"bike_id": "24c2c8bde793469ecc25596fd180d553", "type": "electric_scooter", "is_disabled": 0, "lat": 38.89842383333333, "rental_uris": {"ios": "https://dc.lft.to/lastmile_qr_scan", "android": "https://dc.lft.to/lastmile_qr_scan"}, "is_reserved": 0, "fusion_lon": 0.0, "fusion_lat": 0.0, "lon": -76.94636966666667, "name": "24c2c8bde793469ecc25596fd180d553"}, {"bike_id": "4b90db3bfc3858d487d049bdd930b367", "type": "electric_scooter", "is_disabled": 0, "lat": 38.919645333333335, "rental_uris": {"ios": "https://dc.lft.to/lastmile_qr_scan", "android": "https://dc.lft.to/lastmile_qr_scan"}, "is_reserved": 0, "fusion_lon": 0.0, "fusion_lat": 0.0, "lon": -77.01433316666666, "name": "4b90db3bfc3858d487d049bdd930b367"}, {"bike_id": "0bafa24ae3e5fef460d6de665f89142a", "type": "electric_scooter", "is_disabled": 0, "lat": 38.89225416666667, "rental_uris": {"ios": "https://dc.lft.to/lastmile_qr_scan", "android": "https://dc.lft.to/lastmile_qr_scan"}, "is_reserved": 0, "fusion_lon": 0.0, "fusion_lat": 0.0, "lon": -77.013788, "name": "0bafa24ae3e5fef460d6de665f89142a"}, {"bike_id": "1f0f3826eb1151b7496c10ba9e226153", "type": "electric_scooter", "is_disabled": 0, "lat": 38.9023115, "rental_uris": {"ios": "https://dc.lft.to/lastmile_qr_scan", "android": "https://dc.lft.to/lastmile_qr_scan"}, "is_reserved": 0, "fusion_lon": 0.0, "fusion_lat": 0.0, "lon": -77.02320966666667, "name": "1f0f3826eb1151b7496c10ba9e226153"}, {"bike_id": "3ac1b78a954cd6d03c3b8ea11da990e2", "type": "electric_scooter", "is_disabled": 0, "lat": 38.91657633333333, "rental_uris": {"ios": "https://dc.lft.to/lastmile_qr_scan", "android": "https://dc.lft.to/lastmile_qr_scan"}, "is_reserved": 0, "fusion_lon": 0.0, "fusion_lat": 0.0, "lon": -77.02307016666667, "name": "3ac1b78a954cd6d03c3b8ea11da990e2"}, {"bike_id": "7aa768eea4484cf4abc4dd62e069130d", "type": "electric_scooter", "is_disabled": 0, "lat": 38.924518166666665, "rental_uris": {"ios": "https://dc.lft.to/lastmile_qr_scan", "android": "https://dc.lft.to/lastmile_qr_scan"}, "is_reserved": 0, "fusion_lon": 0.0, "fusion_lat": 0.0, "lon": -77.0440295, "name": "7aa768eea4484cf4abc4dd62e069130d"}, {"bike_id": "f35d60155db94e5bd15a396add33fdf2", "type": "electric_scooter", "is_disabled": 0, "lat": 38.886519666666665, "rental_uris": {"ios": "https://dc.lft.to/lastmile_qr_scan", "android": "https://dc.lft.to/lastmile_qr_scan"}, "is_reserved": 0, "fusion_lon": 0.0, "fusion_lat": 0.0, "lon": -77.00118416666666, "name": "f35d60155db94e5bd15a396add33fdf2"}, {"bike_id": "7edb6b6f7f6c05dc28209710037e34ed", "type": "electric_scooter", "is_disabled": 0, "lat": 38.92207033333333, "rental_uris": {"ios": "https://dc.lft.to/lastmile_qr_scan", "android": "https://dc.lft.to/lastmile_qr_scan"}, "is_reserved": 0, "fusion_lon": 0.0, "fusion_lat": 0.0, "lon": -76.9969445, "name": "7edb6b6f7f6c05dc28209710037e34ed"}, {"bike_id": "ef2dbbe2dc26a228be394e03dd971cba", "type": "electric_scooter", "is_disabled": 0, "lat": 38.912563, "rental_uris": {"ios": "https://dc.lft.to/lastmile_qr_scan", "android": "https://dc.lft.to/lastmile_qr_scan"}, "is_reserved": 0, "fusion_lon": 0.0, "fusion_lat": 0.0, "lon": -77.01229466666666, "name": "ef2dbbe2dc26a228be394e03dd971cba"}, {"bike_id": "6fe04df8d1a0c66308e539cf23ee721a", "type": "electric_scooter", "is_disabled": 0, "lat": 38.91116366666667, "rental_uris": {"ios": "https://dc.lft.to/lastmile_qr_scan", "android": "https://dc.lft.to/lastmile_qr_scan"}, "is_reserved": 0, "fusion_lon": 0.0, "fusion_lat": 0.0, "lon": -77.03170983333334, "name": "6fe04df8d1a0c66308e539cf23ee721a"}, {"bike_id": "55b450c60f0e39efd428183fd0670d39", "type": "electric_scooter", "is_disabled": 0, "lat": 38.9016665, "rental_uris": {"ios": "https://dc.lft.to/lastmile_qr_scan", "android": "https://dc.lft.to/lastmile_qr_scan"}, "is_reserved": 0, "fusion_lon": 0.0, "fusion_lat": 0.0, "lon": -76.93024883333334, "name": "55b450c60f0e39efd428183fd0670d39"}, {"bike_id": "843620096e5850e8887da22623e36f23", "type": "electric_scooter", "is_disabled": 0, "lat": 38.88697233333333, "rental_uris": {"ios": "https://dc.lft.to/lastmile_qr_scan", "android": "https://dc.lft.to/lastmile_qr_scan"}, "is_reserved": 0, "fusion_lon": 0.0, "fusion_lat": 0.0, "lon": -76.99608566666667, "name": "843620096e5850e8887da22623e36f23"}, {"bike_id": "604b6bd649d88a2423f1e54ec066075a", "type": "electric_bike", "is_disabled": 0, "lat": 38.8747225, "rental_uris": {"ios": "https://dc.lft.to/lastmile_qr_scan", "android": "https://dc.lft.to/lastmile_qr_scan"}, "is_reserved": 0, "fusion_lon": 0.0, "fusion_lat": 0.0, "lon": -76.96531016666667, "name": "604b6bd649d88a2423f1e54ec066075a"}, {"bike_id": "36dd38a378e83e4ca832b36541751b57", "type": "electric_scooter", "is_disabled": 0, "lat": 38.95638366666667, "rental_uris": {"ios": "https://dc.lft.to/lastmile_qr_scan", "android": "https://dc.lft.to/lastmile_qr_scan"}, "is_reserved": 0, "fusion_lon": 0.0, "fusion_lat": 0.0, "lon": -77.0115405, "name": "36dd38a378e83e4ca832b36541751b57"}, {"bike_id": "5e4a10eb8c48c53c05886ae18e42f836", "type": "electric_scooter", "is_disabled": 0, "lat": 38.9565595, "rental_uris": {"ios": "https://dc.lft.to/lastmile_qr_scan", "android": "https://dc.lft.to/lastmile_qr_scan"}, "is_reserved": 0, "fusion_lon": 0.0, "fusion_lat": 0.0, "lon": -77.01003083333333, "name": "5e4a10eb8c48c53c05886ae18e42f836"}, {"bike_id": "1aa04b4043d401c74249a74500b54d0a", "type": "electric_scooter", "is_disabled": 0, "lat": 38.917049166666665, "rental_uris": {"ios": "https://dc.lft.to/lastmile_qr_scan", "android": "https://dc.lft.to/lastmile_qr_scan"}, "is_reserved": 0, "fusion_lon": 0.0, "fusion_lat": 0.0, "lon": -77.02385366666667, "name": "1aa04b4043d401c74249a74500b54d0a"}, {"bike_id": "9f313fb845879342dfd44461f4046287", "type": "electric_bike", "is_disabled": 0, "lat": 38.798544, "rental_uris": {"ios": "https://dc.lft.to/lastmile_qr_scan", "android": "https://dc.lft.to/lastmile_qr_scan"}, "is_reserved": 0, "fusion_lon": 0.0, "fusion_lat": 0.0, "lon": -77.06307166666667, "name": "9f313fb845879342dfd44461f4046287"}, {"bike_id": "dcd260324870c5efc38f9dc24f11cfde", "type": "electric_scooter", "is_disabled": 0, "lat": 38.90526333333333, "rental_uris": {"ios": "https://dc.lft.to/lastmile_qr_scan", "android": "https://dc.lft.to/lastmile_qr_scan"}, "is_reserved": 0, "fusion_lon": 0.0, "fusion_lat": 0.0, "lon": -77.0638265, "name": "dcd260324870c5efc38f9dc24f11cfde"}, {"bike_id": "fd0a3a0d66e1194f90861167aa6c2310", "type": "electric_scooter", "is_disabled": 0, "lat": 38.915040833333336, "rental_uris": {"ios": "https://dc.lft.to/lastmile_qr_scan", "android": "https://dc.lft.to/lastmile_qr_scan"}, "is_reserved": 0, "fusion_lon": 0.0, "fusion_lat": 0.0, "lon": -77.01775316666667, "name": "fd0a3a0d66e1194f90861167aa6c2310"}, {"bike_id": "55735e10cbc96800766432f9ef3e2596", "type": "electric_scooter", "is_disabled": 0, "lat": 38.90725916666667, "rental_uris": {"ios": "https://dc.lft.to/lastmile_qr_scan", "android": "https://dc.lft.to/lastmile_qr_scan"}, "is_reserved": 0, "fusion_lon": 0.0, "fusion_lat": 0.0, "lon": -77.03930533333333, "name": "55735e10cbc96800766432f9ef3e2596"}, {"bike_id": "d8adfeafd39f8947f6759f727205df66", "type": "electric_scooter", "is_disabled": 0, "lat": 38.93661016666667, "rental_uris": {"ios": "https://dc.lft.to/lastmile_qr_scan", "android": "https://dc.lft.to/lastmile_qr_scan"}, "is_reserved": 0, "fusion_lon": 0.0, "fusion_lat": 0.0, "lon": -77.02395, "name": "d8adfeafd39f8947f6759f727205df66"}, {"bike_id": "5c41367255421c82a2eee2f0798be5a4", "type": "electric_scooter", "is_disabled": 0, "lat": 38.91631783333333, "rental_uris": {"ios": "https://dc.lft.to/lastmile_qr_scan", "android": "https://dc.lft.to/lastmile_qr_scan"}, "is_reserved": 0, "fusion_lon": 0.0, "fusion_lat": 0.0, "lon": -77.03216, "name": "5c41367255421c82a2eee2f0798be5a4"}, {"bike_id": "526226e9c9bdf8a5b03b7d3ee3898e46", "type": "electric_scooter", "is_disabled": 0, "lat": 38.93743383333333, "rental_uris": {"ios": "https://dc.lft.to/lastmile_qr_scan", "android": "https://dc.lft.to/lastmile_qr_scan"}, "is_reserved": 0, "fusion_lon": 0.0, "fusion_lat": 0.0, "lon": -77.03500083333333, "name": "526226e9c9bdf8a5b03b7d3ee3898e46"}, {"bike_id": "9a6719756b0daebb02a0a8bb94b8f8a6", "type": "electric_scooter", "is_disabled": 0, "lat": 38.89855883333333, "rental_uris": {"ios": "https://dc.lft.to/lastmile_qr_scan", "android": "https://dc.lft.to/lastmile_qr_scan"}, "is_reserved": 0, "fusion_lon": 0.0, "fusion_lat": 0.0, "lon": -77.03106116666666, "name": "9a6719756b0daebb02a0a8bb94b8f8a6"}, {"bike_id": "550ebcaa03807e8e8e5241be5e9b3666", "type": "electric_scooter", "is_disabled": 0, "lat": 38.92032416666667, "rental_uris": {"ios": "https://dc.lft.to/lastmile_qr_scan", "android": "https://dc.lft.to/lastmile_qr_scan"}, "is_reserved": 0, "fusion_lon": 0.0, "fusion_lat": 0.0, "lon": -77.013149, "name": "550ebcaa03807e8e8e5241be5e9b3666"}, {"bike_id": "4e11070039c25c76ad0febed28685279", "type": "electric_scooter", "is_disabled": 0, "lat": 38.901140833333336, "rental_uris": {"ios": "https://dc.lft.to/lastmile_qr_scan", "android": "https://dc.lft.to/lastmile_qr_scan"}, "is_reserved": 0, "fusion_lon": 0.0, "fusion_lat": 0.0, "lon": -76.98014483333333, "name": "4e11070039c25c76ad0febed28685279"}, {"bike_id": "d6e1f2be832f1912b94555a378f4e94c", "type": "electric_scooter", "is_disabled": 0, "lat": 38.925378, "rental_uris": {"ios": "https://dc.lft.to/lastmile_qr_scan", "android": "https://dc.lft.to/lastmile_qr_scan"}, "is_reserved": 0, "fusion_lon": 0.0, "fusion_lat": 0.0, "lon": -77.034852, "name": "d6e1f2be832f1912b94555a378f4e94c"}, {"bike_id": "da23df5b643d02be46481dda4133247a", "type": "electric_scooter", "is_disabled": 0, "lat": 38.9233905, "rental_uris": {"ios": "https://dc.lft.to/lastmile_qr_scan", "android": "https://dc.lft.to/lastmile_qr_scan"}, "is_reserved": 0, "fusion_lon": 0.0, "fusion_lat": 0.0, "lon": -77.05112966666667, "name": "da23df5b643d02be46481dda4133247a"}, {"bike_id": "89b7382e22db3795ef18be4817bf8bd9", "type": "electric_scooter", "is_disabled": 0, "lat": 38.91876333333333, "rental_uris": {"ios": "https://dc.lft.to/lastmile_qr_scan", "android": "https://dc.lft.to/lastmile_qr_scan"}, "is_reserved": 0, "fusion_lon": 0.0, "fusion_lat": 0.0, "lon": -77.05944966666667, "name": "89b7382e22db3795ef18be4817bf8bd9"}, {"bike_id": "de905c9764293ce66082fcdbdeb994c2", "type": "electric_bike", "is_disabled": 0, "lat": 38.872952, "rental_uris": {"ios": "https://dc.lft.to/lastmile_qr_scan", "android": "https://dc.lft.to/lastmile_qr_scan"}, "is_reserved": 0, "fusion_lon": 0.0, "fusion_lat": 0.0, "lon": -77.13937866666667, "name": "de905c9764293ce66082fcdbdeb994c2"}, {"bike_id": "c75cbe8b88c972aa59eff859c6d56aac", "type": "electric_scooter", "is_disabled": 0, "lat": 38.893855, "rental_uris": {"ios": "https://dc.lft.to/lastmile_qr_scan", "android": "https://dc.lft.to/lastmile_qr_scan"}, "is_reserved": 0, "fusion_lon": 0.0, "fusion_lat": 0.0, "lon": -77.02265516666667, "name": "c75cbe8b88c972aa59eff859c6d56aac"}, {"bike_id": "537786a7b23233ec93044530f6c4230a", "type": "electric_scooter", "is_disabled": 0, "lat": 38.8923405, "rental_uris": {"ios": "https://dc.lft.to/lastmile_qr_scan", "android": "https://dc.lft.to/lastmile_qr_scan"}, "is_reserved": 0, "fusion_lon": 0.0, "fusion_lat": 0.0, "lon": -77.04674383333334, "name": "537786a7b23233ec93044530f6c4230a"}, {"bike_id": "e00c1e5e0b1c9a482ca5bb71dc9caab6", "type": "electric_scooter", "is_disabled": 0, "lat": 38.919410666666664, "rental_uris": {"ios": "https://dc.lft.to/lastmile_qr_scan", "android": "https://dc.lft.to/lastmile_qr_scan"}, "is_reserved": 0, "fusion_lon": 0.0, "fusion_lat": 0.0, "lon": -77.02506366666667, "name": "e00c1e5e0b1c9a482ca5bb71dc9caab6"}, {"bike_id": "ec3fb88e5a5bf4d063237b8d256a8419", "type": "electric_scooter", "is_disabled": 0, "lat": 38.91697466666667, "rental_uris": {"ios": "https://dc.lft.to/lastmile_qr_scan", "android": "https://dc.lft.to/lastmile_qr_scan"}, "is_reserved": 0, "fusion_lon": 0.0, "fusion_lat": 0.0, "lon": -77.02881716666667, "name": "ec3fb88e5a5bf4d063237b8d256a8419"}, {"bike_id": "f32e491c6c34a7e280b1b4613d01880d", "type": "electric_scooter", "is_disabled": 0, "lat": 38.9391865, "rental_uris": {"ios": "https://dc.lft.to/lastmile_qr_scan", "android": "https://dc.lft.to/lastmile_qr_scan"}, "is_reserved": 0, "fusion_lon": 0.0, "fusion_lat": 0.0, "lon": -77.060542, "name": "f32e491c6c34a7e280b1b4613d01880d"}, {"bike_id": "f6fa94d03a20093ce6cee242417f7ba0", "type": "electric_scooter", "is_disabled": 0, "lat": 38.929489333333336, "rental_uris": {"ios": "https://dc.lft.to/lastmile_qr_scan", "android": "https://dc.lft.to/lastmile_qr_scan"}, "is_reserved": 0, "fusion_lon": 0.0, "fusion_lat": 0.0, "lon": -77.03758833333333, "name": "f6fa94d03a20093ce6cee242417f7ba0"}, {"bike_id": "f116c57a93d7c69616bd8c7b445ee11d", "type": "electric_scooter", "is_disabled": 0, "lat": 38.90190466666667, "rental_uris": {"ios": "https://dc.lft.to/lastmile_qr_scan", "android": "https://dc.lft.to/lastmile_qr_scan"}, "is_reserved": 0, "fusion_lon": 0.0, "fusion_lat": 0.0, "lon": -76.9967955, "name": "f116c57a93d7c69616bd8c7b445ee11d"}, {"bike_id": "8a6033ba14aa4fd8d5010a0236e9f4d5", "type": "electric_scooter", "is_disabled": 0, "lat": 38.882157166666666, "rental_uris": {"ios": "https://dc.lft.to/lastmile_qr_scan", "android": "https://dc.lft.to/lastmile_qr_scan"}, "is_reserved": 0, "fusion_lon": 0.0, "fusion_lat": 0.0, "lon": -77.02911333333333, "name": "8a6033ba14aa4fd8d5010a0236e9f4d5"}, {"bike_id": "8c1b5a9a104bd392ba6aecbd4690c8f6", "type": "electric_scooter", "is_disabled": 0, "lat": 38.895642333333335, "rental_uris": {"ios": "https://dc.lft.to/lastmile_qr_scan", "android": "https://dc.lft.to/lastmile_qr_scan"}, "is_reserved": 0, "fusion_lon": 0.0, "fusion_lat": 0.0, "lon": -77.03145766666667, "name": "8c1b5a9a104bd392ba6aecbd4690c8f6"}, {"bike_id": "7a2153c4f7a466ab751cd1cb66ac89c0", "type": "electric_scooter", "is_disabled": 0, "lat": 38.8789165, "rental_uris": {"ios": "https://dc.lft.to/lastmile_qr_scan", "android": "https://dc.lft.to/lastmile_qr_scan"}, "is_reserved": 0, "fusion_lon": 0.0, "fusion_lat": 0.0, "lon": -76.99162233333334, "name": "7a2153c4f7a466ab751cd1cb66ac89c0"}, {"bike_id": "45f56039fcb68117143f1edcb2ee3120", "type": "electric_scooter", "is_disabled": 0, "lat": 38.930362, "rental_uris": {"ios": "https://dc.lft.to/lastmile_qr_scan", "android": "https://dc.lft.to/lastmile_qr_scan"}, "is_reserved": 0, "fusion_lon": 0.0, "fusion_lat": 0.0, "lon": -77.01826516666667, "name": "45f56039fcb68117143f1edcb2ee3120"}, {"bike_id": "237e0571a542059108308e47959244f9", "type": "electric_scooter", "is_disabled": 0, "lat": 38.884343666666666, "rental_uris": {"ios": "https://dc.lft.to/lastmile_qr_scan", "android": "https://dc.lft.to/lastmile_qr_scan"}, "is_reserved": 0, "fusion_lon": 0.0, "fusion_lat": 0.0, "lon": -76.95755833333334, "name": "237e0571a542059108308e47959244f9"}, {"bike_id": "97d03379b1ba0c3c5038141c4a50902f", "type": "electric_scooter", "is_disabled": 0, "lat": 38.908095333333335, "rental_uris": {"ios": "https://dc.lft.to/lastmile_qr_scan", "android": "https://dc.lft.to/lastmile_qr_scan"}, "is_reserved": 0, "fusion_lon": 0.0, "fusion_lat": 0.0, "lon": -77.02603683333334, "name": "97d03379b1ba0c3c5038141c4a50902f"}, {"bike_id": "d5ed15b8790e47b52c9a73443bfec260", "type": "electric_scooter", "is_disabled": 0, "lat": 38.89957833333333, "rental_uris": {"ios": "https://dc.lft.to/lastmile_qr_scan", "android": "https://dc.lft.to/lastmile_qr_scan"}, "is_reserved": 0, "fusion_lon": 0.0, "fusion_lat": 0.0, "lon": -77.01512083333333, "name": "d5ed15b8790e47b52c9a73443bfec260"}, {"bike_id": "797c56b05a44e37aee6c14d93d551976", "type": "electric_scooter", "is_disabled": 0, "lat": 38.8871645, "rental_uris": {"ios": "https://dc.lft.to/lastmile_qr_scan", "android": "https://dc.lft.to/lastmile_qr_scan"}, "is_reserved": 0, "fusion_lon": 0.0, "fusion_lat": 0.0, "lon": -77.02176583333333, "name": "797c56b05a44e37aee6c14d93d551976"}, {"bike_id": "d716954be2a10a025b977422536dcb8c", "type": "electric_scooter", "is_disabled": 0, "lat": 38.902697833333335, "rental_uris": {"ios": "https://dc.lft.to/lastmile_qr_scan", "android": "https://dc.lft.to/lastmile_qr_scan"}, "is_reserved": 0, "fusion_lon": 0.0, "fusion_lat": 0.0, "lon": -77.03583816666666, "name": "d716954be2a10a025b977422536dcb8c"}, {"bike_id": "1c87e22e5ae5f13ecd2d4b7052a5deda", "type": "electric_scooter", "is_disabled": 0, "lat": 38.900644666666665, "rental_uris": {"ios": "https://dc.lft.to/lastmile_qr_scan", "android": "https://dc.lft.to/lastmile_qr_scan"}, "is_reserved": 0, "fusion_lon": 0.0, "fusion_lat": 0.0, "lon": -77.05061833333333, "name": "1c87e22e5ae5f13ecd2d4b7052a5deda"}, {"bike_id": "104f85621b0c79f2e02a3642468bfda7", "type": "electric_scooter", "is_disabled": 0, "lat": 38.897020833333336, "rental_uris": {"ios": "https://dc.lft.to/lastmile_qr_scan", "android": "https://dc.lft.to/lastmile_qr_scan"}, "is_reserved": 0, "fusion_lon": 0.0, "fusion_lat": 0.0, "lon": -76.92997683333333, "name": "104f85621b0c79f2e02a3642468bfda7"}, {"bike_id": "89c2a56f4205746e54a57da4dde3bb98", "type": "electric_bike", "is_disabled": 0, "lat": 38.86512483333333, "rental_uris": {"ios": "https://dc.lft.to/lastmile_qr_scan", "android": "https://dc.lft.to/lastmile_qr_scan"}, "is_reserved": 0, "fusion_lon": 0.0, "fusion_lat": 0.0, "lon": -77.12937333333333, "name": "89c2a56f4205746e54a57da4dde3bb98"}, {"bike_id": "82de2e50efbc19c39d56c0709c5ab6c9", "type": "electric_scooter", "is_disabled": 0, "lat": 38.94468533333333, "rental_uris": {"ios": "https://dc.lft.to/lastmile_qr_scan", "android": "https://dc.lft.to/lastmile_qr_scan"}, "is_reserved": 0, "fusion_lon": 0.0, "fusion_lat": 0.0, "lon": -77.02342683333333, "name": "82de2e50efbc19c39d56c0709c5ab6c9"}, {"bike_id": "4fe7f2a797951ce2004e1a0b0403a3b2", "type": "electric_bike", "is_disabled": 0, "lat": 38.80390633333333, "rental_uris": {"ios": "https://dc.lft.to/lastmile_qr_scan", "android": "https://dc.lft.to/lastmile_qr_scan"}, "is_reserved": 0, "fusion_lon": 0.0, "fusion_lat": 0.0, "lon": -77.05565916666667, "name": "4fe7f2a797951ce2004e1a0b0403a3b2"}, {"bike_id": "a80451bfafba62ce411a9b898d60c604", "type": "electric_bike", "is_disabled": 0, "lat": 38.9190145, "rental_uris": {"ios": "https://dc.lft.to/lastmile_qr_scan", "android": "https://dc.lft.to/lastmile_qr_scan"}, "is_reserved": 0, "fusion_lon": 0.0, "fusion_lat": 0.0, "lon": -77.000598, "name": "a80451bfafba62ce411a9b898d60c604"}, {"bike_id": "b574492ba2a1b413b37f8003004c6a4a", "type": "electric_scooter", "is_disabled": 0, "lat": 38.9084625, "rental_uris": {"ios": "https://dc.lft.to/lastmile_qr_scan", "android": "https://dc.lft.to/lastmile_qr_scan"}, "is_reserved": 0, "fusion_lon": 0.0, "fusion_lat": 0.0, "lon": -77.02061216666667, "name": "b574492ba2a1b413b37f8003004c6a4a"}, {"bike_id": "87763b375aacd6ec6e80cf30372cc663", "type": "electric_scooter", "is_disabled": 0, "lat": 38.915527166666664, "rental_uris": {"ios": "https://dc.lft.to/lastmile_qr_scan", "android": "https://dc.lft.to/lastmile_qr_scan"}, "is_reserved": 0, "fusion_lon": 0.0, "fusion_lat": 0.0, "lon": -77.02134933333333, "name": "87763b375aacd6ec6e80cf30372cc663"}, {"bike_id": "9abd370245294c19dd6717f2bf64aca9", "type": "electric_scooter", "is_disabled": 0, "lat": 38.915000166666665, "rental_uris": {"ios": "https://dc.lft.to/lastmile_qr_scan", "android": "https://dc.lft.to/lastmile_qr_scan"}, "is_reserved": 0, "fusion_lon": 0.0, "fusion_lat": 0.0, "lon": -77.03188883333333, "name": "9abd370245294c19dd6717f2bf64aca9"}, {"bike_id": "eafa1bf5c379a6b952409a9365d03418", "type": "electric_scooter", "is_disabled": 0, "lat": 38.950053, "rental_uris": {"ios": "https://dc.lft.to/lastmile_qr_scan", "android": "https://dc.lft.to/lastmile_qr_scan"}, "is_reserved": 0, "fusion_lon": 0.0, "fusion_lat": 0.0, "lon": -77.018431, "name": "eafa1bf5c379a6b952409a9365d03418"}, {"bike_id": "3a553b0085b83e578f70ab688fd543c7", "type": "electric_scooter", "is_disabled": 0, "lat": 38.92283466666667, "rental_uris": {"ios": "https://dc.lft.to/lastmile_qr_scan", "android": "https://dc.lft.to/lastmile_qr_scan"}, "is_reserved": 0, "fusion_lon": 0.0, "fusion_lat": 0.0, "lon": -77.029742, "name": "3a553b0085b83e578f70ab688fd543c7"}, {"bike_id": "78aed34cab72da3470a24e9f381f417e", "type": "electric_scooter", "is_disabled": 0, "lat": 38.844352666666666, "rental_uris": {"ios": "https://dc.lft.to/lastmile_qr_scan", "android": "https://dc.lft.to/lastmile_qr_scan"}, "is_reserved": 0, "fusion_lon": 0.0, "fusion_lat": 0.0, "lon": -76.99871966666667, "name": "78aed34cab72da3470a24e9f381f417e"}, {"bike_id": "44378a70d2784e125af9e7a6915c7f65", "type": "electric_scooter", "is_disabled": 0, "lat": 38.91709816666667, "rental_uris": {"ios": "https://dc.lft.to/lastmile_qr_scan", "android": "https://dc.lft.to/lastmile_qr_scan"}, "is_reserved": 0, "fusion_lon": 0.0, "fusion_lat": 0.0, "lon": -77.02481066666667, "name": "44378a70d2784e125af9e7a6915c7f65"}, {"bike_id": "72f5b8b1c1d32b29a04f0f6b891150ab", "type": "electric_scooter", "is_disabled": 0, "lat": 38.918076666666664, "rental_uris": {"ios": "https://dc.lft.to/lastmile_qr_scan", "android": "https://dc.lft.to/lastmile_qr_scan"}, "is_reserved": 0, "fusion_lon": 0.0, "fusion_lat": 0.0, "lon": -77.02493516666667, "name": "72f5b8b1c1d32b29a04f0f6b891150ab"}, {"bike_id": "18e37e229e2f838e9cfd0d53e7ea348a", "type": "electric_scooter", "is_disabled": 0, "lat": 38.91650933333333, "rental_uris": {"ios": "https://dc.lft.to/lastmile_qr_scan", "android": "https://dc.lft.to/lastmile_qr_scan"}, "is_reserved": 0, "fusion_lon": 0.0, "fusion_lat": 0.0, "lon": -76.97912733333334, "name": "18e37e229e2f838e9cfd0d53e7ea348a"}, {"bike_id": "4744768c5085576aecf3b55d661662ca", "type": "electric_scooter", "is_disabled": 0, "lat": 38.898427, "rental_uris": {"ios": "https://dc.lft.to/lastmile_qr_scan", "android": "https://dc.lft.to/lastmile_qr_scan"}, "is_reserved": 0, "fusion_lon": 0.0, "fusion_lat": 0.0, "lon": -77.0419525, "name": "4744768c5085576aecf3b55d661662ca"}, {"bike_id": "a4228feff55838fe6be0eb3c8f6b2c26", "type": "electric_bike", "is_disabled": 0, "lat": 38.987688, "rental_uris": {"ios": "https://dc.lft.to/lastmile_qr_scan", "android": "https://dc.lft.to/lastmile_qr_scan"}, "is_reserved": 0, "fusion_lon": 0.0, "fusion_lat": 0.0, "lon": -77.14060133333334, "name": "a4228feff55838fe6be0eb3c8f6b2c26"}, {"bike_id": "0a0e0ac999c89a4c99e637c07053a245", "type": "electric_scooter", "is_disabled": 0, "lat": 38.92327016666667, "rental_uris": {"ios": "https://dc.lft.to/lastmile_qr_scan", "android": "https://dc.lft.to/lastmile_qr_scan"}, "is_reserved": 0, "fusion_lon": 0.0, "fusion_lat": 0.0, "lon": -77.00886616666666, "name": "0a0e0ac999c89a4c99e637c07053a245"}, {"bike_id": "59d87782a4e4dee862ee59c7f91cc203", "type": "electric_scooter", "is_disabled": 0, "lat": 38.93361866666667, "rental_uris": {"ios": "https://dc.lft.to/lastmile_qr_scan", "android": "https://dc.lft.to/lastmile_qr_scan"}, "is_reserved": 0, "fusion_lon": 0.0, "fusion_lat": 0.0, "lon": -77.02647733333333, "name": "59d87782a4e4dee862ee59c7f91cc203"}, {"bike_id": "b2c44f3d49a7ead3ecb489ac56cbe651", "type": "electric_bike", "is_disabled": 0, "lat": 38.900145333333334, "rental_uris": {"ios": "https://dc.lft.to/lastmile_qr_scan", "android": "https://dc.lft.to/lastmile_qr_scan"}, "is_reserved": 0, "fusion_lon": 0.0, "fusion_lat": 0.0, "lon": -77.0061985, "name": "b2c44f3d49a7ead3ecb489ac56cbe651"}, {"bike_id": "b1d30d44f6d0819759cf686aba1a074e", "type": "electric_scooter", "is_disabled": 0, "lat": 38.920811666666665, "rental_uris": {"ios": "https://dc.lft.to/lastmile_qr_scan", "android": "https://dc.lft.to/lastmile_qr_scan"}, "is_reserved": 0, "fusion_lon": 0.0, "fusion_lat": 0.0, "lon": -77.02553283333333, "name": "b1d30d44f6d0819759cf686aba1a074e"}, {"bike_id": "c34c3942b0e10bab06f98e398f74740f", "type": "electric_scooter", "is_disabled": 0, "lat": 38.90692083333333, "rental_uris": {"ios": "https://dc.lft.to/lastmile_qr_scan", "android": "https://dc.lft.to/lastmile_qr_scan"}, "is_reserved": 0, "fusion_lon": 0.0, "fusion_lat": 0.0, "lon": -77.0418945, "name": "c34c3942b0e10bab06f98e398f74740f"}, {"bike_id": "b6d06ba2ab021a13fba17c68121e1c66", "type": "electric_scooter", "is_disabled": 0, "lat": 38.92485416666667, "rental_uris": {"ios": "https://dc.lft.to/lastmile_qr_scan", "android": "https://dc.lft.to/lastmile_qr_scan"}, "is_reserved": 0, "fusion_lon": 0.0, "fusion_lat": 0.0, "lon": -77.03183066666666, "name": "b6d06ba2ab021a13fba17c68121e1c66"}, {"bike_id": "0e7714e0063d640ca892b9a6dcce4b3d", "type": "electric_scooter", "is_disabled": 0, "lat": 38.900590666666666, "rental_uris": {"ios": "https://dc.lft.to/lastmile_qr_scan", "android": "https://dc.lft.to/lastmile_qr_scan"}, "is_reserved": 0, "fusion_lon": 0.0, "fusion_lat": 0.0, "lon": -77.01726783333334, "name": "0e7714e0063d640ca892b9a6dcce4b3d"}, {"bike_id": "b8a7b192c5d928dd5c17efe314521643", "type": "electric_scooter", "is_disabled": 0, "lat": 38.9056045, "rental_uris": {"ios": "https://dc.lft.to/lastmile_qr_scan", "android": "https://dc.lft.to/lastmile_qr_scan"}, "is_reserved": 0, "fusion_lon": 0.0, "fusion_lat": 0.0, "lon": -77.0219275, "name": "b8a7b192c5d928dd5c17efe314521643"}, {"bike_id": "d40217088e734312e7f6f4ea2680967f", "type": "electric_scooter", "is_disabled": 0, "lat": 38.933538166666665, "rental_uris": {"ios": "https://dc.lft.to/lastmile_qr_scan", "android": "https://dc.lft.to/lastmile_qr_scan"}, "is_reserved": 0, "fusion_lon": 0.0, "fusion_lat": 0.0, "lon": -77.04126733333334, "name": "d40217088e734312e7f6f4ea2680967f"}, {"bike_id": "bab61f7afdcd1bae72eca963a02b2e86", "type": "electric_scooter", "is_disabled": 0, "lat": 38.910506, "rental_uris": {"ios": "https://dc.lft.to/lastmile_qr_scan", "android": "https://dc.lft.to/lastmile_qr_scan"}, "is_reserved": 0, "fusion_lon": 0.0, "fusion_lat": 0.0, "lon": -77.04104366666667, "name": "bab61f7afdcd1bae72eca963a02b2e86"}, {"bike_id": "dac6b62e3312a8d89e205ba14e5c1327", "type": "electric_scooter", "is_disabled": 0, "lat": 38.916913, "rental_uris": {"ios": "https://dc.lft.to/lastmile_qr_scan", "android": "https://dc.lft.to/lastmile_qr_scan"}, "is_reserved": 0, "fusion_lon": 0.0, "fusion_lat": 0.0, "lon": -77.037728, "name": "dac6b62e3312a8d89e205ba14e5c1327"}, {"bike_id": "541a871d78eef4cc2bb4653d3ccb9285", "type": "electric_scooter", "is_disabled": 0, "lat": 38.9109225, "rental_uris": {"ios": "https://dc.lft.to/lastmile_qr_scan", "android": "https://dc.lft.to/lastmile_qr_scan"}, "is_reserved": 0, "fusion_lon": 0.0, "fusion_lat": 0.0, "lon": -77.04211566666666, "name": "541a871d78eef4cc2bb4653d3ccb9285"}, {"bike_id": "2b870996170f87a28b7341cb75ec3651", "type": "electric_scooter", "is_disabled": 0, "lat": 38.91613316666667, "rental_uris": {"ios": "https://dc.lft.to/lastmile_qr_scan", "android": "https://dc.lft.to/lastmile_qr_scan"}, "is_reserved": 0, "fusion_lon": 0.0, "fusion_lat": 0.0, "lon": -77.0339185, "name": "2b870996170f87a28b7341cb75ec3651"}, {"bike_id": "553f13bb584be34e2ca79a02f6104306", "type": "electric_scooter", "is_disabled": 0, "lat": 38.918136, "rental_uris": {"ios": "https://dc.lft.to/lastmile_qr_scan", "android": "https://dc.lft.to/lastmile_qr_scan"}, "is_reserved": 0, "fusion_lon": 0.0, "fusion_lat": 0.0, "lon": -77.02476066666667, "name": "553f13bb584be34e2ca79a02f6104306"}, {"bike_id": "ec66a9dd3291100c41f09f9557ed91f1", "type": "electric_scooter", "is_disabled": 0, "lat": 38.916906833333336, "rental_uris": {"ios": "https://dc.lft.to/lastmile_qr_scan", "android": "https://dc.lft.to/lastmile_qr_scan"}, "is_reserved": 0, "fusion_lon": 0.0, "fusion_lat": 0.0, "lon": -77.037491, "name": "ec66a9dd3291100c41f09f9557ed91f1"}, {"bike_id": "91f6e7611bc4c564f8b8effffde6d752", "type": "electric_scooter", "is_disabled": 0, "lat": 38.86504566666667, "rental_uris": {"ios": "https://dc.lft.to/lastmile_qr_scan", "android": "https://dc.lft.to/lastmile_qr_scan"}, "is_reserved": 0, "fusion_lon": 0.0, "fusion_lat": 0.0, "lon": -76.99002716666666, "name": "91f6e7611bc4c564f8b8effffde6d752"}, {"bike_id": "cc1d32ef12bf3272fcb9b9dd5e7d27c7", "type": "electric_bike", "is_disabled": 0, "lat": 38.80028383333333, "rental_uris": {"ios": "https://dc.lft.to/lastmile_qr_scan", "android": "https://dc.lft.to/lastmile_qr_scan"}, "is_reserved": 0, "fusion_lon": 0.0, "fusion_lat": 0.0, "lon": -77.06338033333333, "name": "cc1d32ef12bf3272fcb9b9dd5e7d27c7"}, {"bike_id": "7a362fbcdc6367dcc518d546f571ed55", "type": "electric_scooter", "is_disabled": 0, "lat": 38.9238905, "rental_uris": {"ios": "https://dc.lft.to/lastmile_qr_scan", "android": "https://dc.lft.to/lastmile_qr_scan"}, "is_reserved": 0, "fusion_lon": 0.0, "fusion_lat": 0.0, "lon": -77.04470916666666, "name": "7a362fbcdc6367dcc518d546f571ed55"}, {"bike_id": "2baa787532a27a54a645a8a6ea75b75c", "type": "electric_scooter", "is_disabled": 0, "lat": 38.923246, "rental_uris": {"ios": "https://dc.lft.to/lastmile_qr_scan", "android": "https://dc.lft.to/lastmile_qr_scan"}, "is_reserved": 0, "fusion_lon": 0.0, "fusion_lat": 0.0, "lon": -77.05744983333334, "name": "2baa787532a27a54a645a8a6ea75b75c"}, {"bike_id": "5a3118ec5154c660ca1698e1459981bf", "type": "electric_scooter", "is_disabled": 0, "lat": 38.91692283333333, "rental_uris": {"ios": "https://dc.lft.to/lastmile_qr_scan", "android": "https://dc.lft.to/lastmile_qr_scan"}, "is_reserved": 0, "fusion_lon": 0.0, "fusion_lat": 0.0, "lon": -77.02600933333333, "name": "5a3118ec5154c660ca1698e1459981bf"}, {"bike_id": "cbd8f775c39208199f5874fcac6e0b41", "type": "electric_scooter", "is_disabled": 0, "lat": 38.915616666666665, "rental_uris": {"ios": "https://dc.lft.to/lastmile_qr_scan", "android": "https://dc.lft.to/lastmile_qr_scan"}, "is_reserved": 0, "fusion_lon": 0.0, "fusion_lat": 0.0, "lon": -77.04413666666666, "name": "cbd8f775c39208199f5874fcac6e0b41"}, {"bike_id": "db83b95474030c89560bb4e970da8f52", "type": "electric_scooter", "is_disabled": 0, "lat": 38.920767166666664, "rental_uris": {"ios": "https://dc.lft.to/lastmile_qr_scan", "android": "https://dc.lft.to/lastmile_qr_scan"}, "is_reserved": 0, "fusion_lon": 0.0, "fusion_lat": 0.0, "lon": -77.0240295, "name": "db83b95474030c89560bb4e970da8f52"}, {"bike_id": "ac00a68c51b9e4bd496d5e7f088cabee", "type": "electric_bike", "is_disabled": 0, "lat": 38.92234883333333, "rental_uris": {"ios": "https://dc.lft.to/lastmile_qr_scan", "android": "https://dc.lft.to/lastmile_qr_scan"}, "is_reserved": 0, "fusion_lon": 0.0, "fusion_lat": 0.0, "lon": -77.0448125, "name": "ac00a68c51b9e4bd496d5e7f088cabee"}, {"bike_id": "eaa226c240c217337389dd95d053728f", "type": "electric_scooter", "is_disabled": 0, "lat": 38.93463283333333, "rental_uris": {"ios": "https://dc.lft.to/lastmile_qr_scan", "android": "https://dc.lft.to/lastmile_qr_scan"}, "is_reserved": 0, "fusion_lon": 0.0, "fusion_lat": 0.0, "lon": -77.04529733333334, "name": "eaa226c240c217337389dd95d053728f"}, {"bike_id": "e7169a7e96394f617b491b11ae17f36f", "type": "electric_scooter", "is_disabled": 0, "lat": 38.919498833333336, "rental_uris": {"ios": "https://dc.lft.to/lastmile_qr_scan", "android": "https://dc.lft.to/lastmile_qr_scan"}, "is_reserved": 0, "fusion_lon": 0.0, "fusion_lat": 0.0, "lon": -77.04160083333333, "name": "e7169a7e96394f617b491b11ae17f36f"}, {"bike_id": "e9bb81f14578bc83a0dd258a431c6b58", "type": "electric_bike", "is_disabled": 0, "lat": 38.90523616666667, "rental_uris": {"ios": "https://dc.lft.to/lastmile_qr_scan", "android": "https://dc.lft.to/lastmile_qr_scan"}, "is_reserved": 0, "fusion_lon": 0.0, "fusion_lat": 0.0, "lon": -77.057403, "name": "e9bb81f14578bc83a0dd258a431c6b58"}, {"bike_id": "a581aa19899979ef38b1f9f7ceb7677e", "type": "electric_scooter", "is_disabled": 0, "lat": 38.913599, "rental_uris": {"ios": "https://dc.lft.to/lastmile_qr_scan", "android": "https://dc.lft.to/lastmile_qr_scan"}, "is_reserved": 0, "fusion_lon": 0.0, "fusion_lat": 0.0, "lon": -77.0199375, "name": "a581aa19899979ef38b1f9f7ceb7677e"}, {"bike_id": "2cff0f6177a6ffee69a6a6ed33b6fe80", "type": "electric_scooter", "is_disabled": 0, "lat": 38.882763, "rental_uris": {"ios": "https://dc.lft.to/lastmile_qr_scan", "android": "https://dc.lft.to/lastmile_qr_scan"}, "is_reserved": 0, "fusion_lon": 0.0, "fusion_lat": 0.0, "lon": -77.0214515, "name": "2cff0f6177a6ffee69a6a6ed33b6fe80"}, {"bike_id": "c378d99c8dc6716ef7cb77fc21cf9e45", "type": "electric_scooter", "is_disabled": 0, "lat": 38.8991595, "rental_uris": {"ios": "https://dc.lft.to/lastmile_qr_scan", "android": "https://dc.lft.to/lastmile_qr_scan"}, "is_reserved": 0, "fusion_lon": 0.0, "fusion_lat": 0.0, "lon": -76.9336655, "name": "c378d99c8dc6716ef7cb77fc21cf9e45"}, {"bike_id": "bc13c2c404a05b83c0d4cf5bef338bd7", "type": "electric_scooter", "is_disabled": 0, "lat": 38.9224425, "rental_uris": {"ios": "https://dc.lft.to/lastmile_qr_scan", "android": "https://dc.lft.to/lastmile_qr_scan"}, "is_reserved": 0, "fusion_lon": 0.0, "fusion_lat": 0.0, "lon": -77.04212683333333, "name": "bc13c2c404a05b83c0d4cf5bef338bd7"}, {"bike_id": "7006bb0330f91c36c7fd59d46838da9e", "type": "electric_scooter", "is_disabled": 0, "lat": 38.91726666666667, "rental_uris": {"ios": "https://dc.lft.to/lastmile_qr_scan", "android": "https://dc.lft.to/lastmile_qr_scan"}, "is_reserved": 0, "fusion_lon": 0.0, "fusion_lat": 0.0, "lon": -77.02393183333334, "name": "7006bb0330f91c36c7fd59d46838da9e"}, {"bike_id": "28de3ade236e5022843de5b6274e5872", "type": "electric_scooter", "is_disabled": 0, "lat": 38.904968333333336, "rental_uris": {"ios": "https://dc.lft.to/lastmile_qr_scan", "android": "https://dc.lft.to/lastmile_qr_scan"}, "is_reserved": 0, "fusion_lon": 0.0, "fusion_lat": 0.0, "lon": -77.02957866666667, "name": "28de3ade236e5022843de5b6274e5872"}, {"bike_id": "923ce6a5463f2d3918e9a96e9a897017", "type": "electric_bike", "is_disabled": 0, "lat": 38.85726416666667, "rental_uris": {"ios": "https://dc.lft.to/lastmile_qr_scan", "android": "https://dc.lft.to/lastmile_qr_scan"}, "is_reserved": 0, "fusion_lon": 0.0, "fusion_lat": 0.0, "lon": -77.07967683333334, "name": "923ce6a5463f2d3918e9a96e9a897017"}, {"bike_id": "fdb7ad291697c48607419847bc8e26e3", "type": "electric_scooter", "is_disabled": 0, "lat": 38.91723833333333, "rental_uris": {"ios": "https://dc.lft.to/lastmile_qr_scan", "android": "https://dc.lft.to/lastmile_qr_scan"}, "is_reserved": 0, "fusion_lon": 0.0, "fusion_lat": 0.0, "lon": -77.01915733333334, "name": "fdb7ad291697c48607419847bc8e26e3"}, {"bike_id": "d34b7c27181d9c81f5e4e4843aa845d6", "type": "electric_scooter", "is_disabled": 0, "lat": 38.87665633333334, "rental_uris": {"ios": "https://dc.lft.to/lastmile_qr_scan", "android": "https://dc.lft.to/lastmile_qr_scan"}, "is_reserved": 0, "fusion_lon": 0.0, "fusion_lat": 0.0, "lon": -77.0081835, "name": "d34b7c27181d9c81f5e4e4843aa845d6"}, {"bike_id": "728d59623f818624adba10fa8af9de45", "type": "electric_scooter", "is_disabled": 0, "lat": 38.9021495, "rental_uris": {"ios": "https://dc.lft.to/lastmile_qr_scan", "android": "https://dc.lft.to/lastmile_qr_scan"}, "is_reserved": 0, "fusion_lon": 0.0, "fusion_lat": 0.0, "lon": -77.02077183333333, "name": "728d59623f818624adba10fa8af9de45"}, {"bike_id": "7eaacc6c5e51d102be6a9eb02824711b", "type": "electric_scooter", "is_disabled": 0, "lat": 38.911941666666664, "rental_uris": {"ios": "https://dc.lft.to/lastmile_qr_scan", "android": "https://dc.lft.to/lastmile_qr_scan"}, "is_reserved": 0, "fusion_lon": 0.0, "fusion_lat": 0.0, "lon": -77.010561, "name": "7eaacc6c5e51d102be6a9eb02824711b"}, {"bike_id": "56572be2b0fbae8845bbf1b43849da1d", "type": "electric_scooter", "is_disabled": 0, "lat": 38.94015383333333, "rental_uris": {"ios": "https://dc.lft.to/lastmile_qr_scan", "android": "https://dc.lft.to/lastmile_qr_scan"}, "is_reserved": 0, "fusion_lon": 0.0, "fusion_lat": 0.0, "lon": -77.026346, "name": "56572be2b0fbae8845bbf1b43849da1d"}, {"bike_id": "ebe91731465f55b9ea2094cc730cb2dd", "type": "electric_scooter", "is_disabled": 0, "lat": 38.92055, "rental_uris": {"ios": "https://dc.lft.to/lastmile_qr_scan", "android": "https://dc.lft.to/lastmile_qr_scan"}, "is_reserved": 0, "fusion_lon": 0.0, "fusion_lat": 0.0, "lon": -76.99877616666667, "name": "ebe91731465f55b9ea2094cc730cb2dd"}, {"bike_id": "0568b22a8d23cdabf66d655303a298d2", "type": "electric_scooter", "is_disabled": 0, "lat": 38.956102333333334, "rental_uris": {"ios": "https://dc.lft.to/lastmile_qr_scan", "android": "https://dc.lft.to/lastmile_qr_scan"}, "is_reserved": 0, "fusion_lon": 0.0, "fusion_lat": 0.0, "lon": -77.01022533333334, "name": "0568b22a8d23cdabf66d655303a298d2"}, {"bike_id": "21f21ccec235adf1970398421392c601", "type": "electric_scooter", "is_disabled": 0, "lat": 38.9204815, "rental_uris": {"ios": "https://dc.lft.to/lastmile_qr_scan", "android": "https://dc.lft.to/lastmile_qr_scan"}, "is_reserved": 0, "fusion_lon": 0.0, "fusion_lat": 0.0, "lon": -77.033964, "name": "21f21ccec235adf1970398421392c601"}, {"bike_id": "773bced754f659173dbe4ac90080cfe3", "type": "electric_scooter", "is_disabled": 0, "lat": 38.87625716666667, "rental_uris": {"ios": "https://dc.lft.to/lastmile_qr_scan", "android": "https://dc.lft.to/lastmile_qr_scan"}, "is_reserved": 0, "fusion_lon": 0.0, "fusion_lat": 0.0, "lon": -76.9653105, "name": "773bced754f659173dbe4ac90080cfe3"}, {"bike_id": "f5ddeddce576dee9337e36c5d5129b3b", "type": "electric_scooter", "is_disabled": 0, "lat": 38.902329333333334, "rental_uris": {"ios": "https://dc.lft.to/lastmile_qr_scan", "android": "https://dc.lft.to/lastmile_qr_scan"}, "is_reserved": 0, "fusion_lon": 0.0, "fusion_lat": 0.0, "lon": -77.05347133333333, "name": "f5ddeddce576dee9337e36c5d5129b3b"}, {"bike_id": "de6a279a3c95907b89bafdec8f700407", "type": "electric_scooter", "is_disabled": 0, "lat": 38.928376, "rental_uris": {"ios": "https://dc.lft.to/lastmile_qr_scan", "android": "https://dc.lft.to/lastmile_qr_scan"}, "is_reserved": 0, "fusion_lon": 0.0, "fusion_lat": 0.0, "lon": -77.01386333333333, "name": "de6a279a3c95907b89bafdec8f700407"}, {"bike_id": "d7a64b6ed4a13002d2860ef839703125", "type": "electric_scooter", "is_disabled": 0, "lat": 38.876482, "rental_uris": {"ios": "https://dc.lft.to/lastmile_qr_scan", "android": "https://dc.lft.to/lastmile_qr_scan"}, "is_reserved": 0, "fusion_lon": 0.0, "fusion_lat": 0.0, "lon": -76.9651045, "name": "d7a64b6ed4a13002d2860ef839703125"}, {"bike_id": "35839b880b7dcda13ed05c0536b46625", "type": "electric_scooter", "is_disabled": 0, "lat": 38.91413133333333, "rental_uris": {"ios": "https://dc.lft.to/lastmile_qr_scan", "android": "https://dc.lft.to/lastmile_qr_scan"}, "is_reserved": 0, "fusion_lon": 0.0, "fusion_lat": 0.0, "lon": -77.03224333333333, "name": "35839b880b7dcda13ed05c0536b46625"}, {"bike_id": "776511cfac305b211d86421e21ff3b94", "type": "electric_scooter", "is_disabled": 0, "lat": 38.913847, "rental_uris": {"ios": "https://dc.lft.to/lastmile_qr_scan", "android": "https://dc.lft.to/lastmile_qr_scan"}, "is_reserved": 0, "fusion_lon": 0.0, "fusion_lat": 0.0, "lon": -77.01701883333334, "name": "776511cfac305b211d86421e21ff3b94"}, {"bike_id": "c223fca86051322f20f60cf51b34f714", "type": "electric_scooter", "is_disabled": 0, "lat": 38.927447666666666, "rental_uris": {"ios": "https://dc.lft.to/lastmile_qr_scan", "android": "https://dc.lft.to/lastmile_qr_scan"}, "is_reserved": 0, "fusion_lon": 0.0, "fusion_lat": 0.0, "lon": -77.03426866666666, "name": "c223fca86051322f20f60cf51b34f714"}, {"bike_id": "12e2d48c854ccd37551f0b94a591d083", "type": "electric_scooter", "is_disabled": 0, "lat": 38.879002, "rental_uris": {"ios": "https://dc.lft.to/lastmile_qr_scan", "android": "https://dc.lft.to/lastmile_qr_scan"}, "is_reserved": 0, "fusion_lon": 0.0, "fusion_lat": 0.0, "lon": -77.02194066666667, "name": "12e2d48c854ccd37551f0b94a591d083"}, {"bike_id": "6460376969d2cc97983a7b9d5bdb8ff6", "type": "electric_bike", "is_disabled": 0, "lat": 38.908787833333335, "rental_uris": {"ios": "https://dc.lft.to/lastmile_qr_scan", "android": "https://dc.lft.to/lastmile_qr_scan"}, "is_reserved": 0, "fusion_lon": 0.0, "fusion_lat": 0.0, "lon": -76.99123016666667, "name": "6460376969d2cc97983a7b9d5bdb8ff6"}, {"bike_id": "621715c7beea9afd6fb78e8ffc91a127", "type": "electric_scooter", "is_disabled": 0, "lat": 38.910957, "rental_uris": {"ios": "https://dc.lft.to/lastmile_qr_scan", "android": "https://dc.lft.to/lastmile_qr_scan"}, "is_reserved": 0, "fusion_lon": 0.0, "fusion_lat": 0.0, "lon": -77.0421165, "name": "621715c7beea9afd6fb78e8ffc91a127"}, {"bike_id": "a2cfbc45b1c190f635f8cb5b1851506f", "type": "electric_scooter", "is_disabled": 0, "lat": 38.90574866666667, "rental_uris": {"ios": "https://dc.lft.to/lastmile_qr_scan", "android": "https://dc.lft.to/lastmile_qr_scan"}, "is_reserved": 0, "fusion_lon": 0.0, "fusion_lat": 0.0, "lon": -77.0239175, "name": "a2cfbc45b1c190f635f8cb5b1851506f"}, {"bike_id": "cf9ff3583d6bc5b53e2918ae3689a5c7", "type": "electric_scooter", "is_disabled": 0, "lat": 38.88025916666667, "rental_uris": {"ios": "https://dc.lft.to/lastmile_qr_scan", "android": "https://dc.lft.to/lastmile_qr_scan"}, "is_reserved": 0, "fusion_lon": 0.0, "fusion_lat": 0.0, "lon": -77.010046, "name": "cf9ff3583d6bc5b53e2918ae3689a5c7"}, {"bike_id": "2190110a135d76e986af4a32fcc45322", "type": "electric_scooter", "is_disabled": 0, "lat": 38.916968, "rental_uris": {"ios": "https://dc.lft.to/lastmile_qr_scan", "android": "https://dc.lft.to/lastmile_qr_scan"}, "is_reserved": 0, "fusion_lon": 0.0, "fusion_lat": 0.0, "lon": -77.02874933333334, "name": "2190110a135d76e986af4a32fcc45322"}, {"bike_id": "65f20ff7ccae8d8869a4a89a878e42f7", "type": "electric_scooter", "is_disabled": 0, "lat": 38.92862566666667, "rental_uris": {"ios": "https://dc.lft.to/lastmile_qr_scan", "android": "https://dc.lft.to/lastmile_qr_scan"}, "is_reserved": 0, "fusion_lon": 0.0, "fusion_lat": 0.0, "lon": -77.03295283333334, "name": "65f20ff7ccae8d8869a4a89a878e42f7"}, {"bike_id": "67704ec7b8e13a54934d26c438bc8c5d", "type": "electric_scooter", "is_disabled": 0, "lat": 38.92257933333333, "rental_uris": {"ios": "https://dc.lft.to/lastmile_qr_scan", "android": "https://dc.lft.to/lastmile_qr_scan"}, "is_reserved": 0, "fusion_lon": 0.0, "fusion_lat": 0.0, "lon": -77.04246666666667, "name": "67704ec7b8e13a54934d26c438bc8c5d"}, {"bike_id": "877456a49eb92f63e92c8062557adb83", "type": "electric_scooter", "is_disabled": 0, "lat": 38.89994316666667, "rental_uris": {"ios": "https://dc.lft.to/lastmile_qr_scan", "android": "https://dc.lft.to/lastmile_qr_scan"}, "is_reserved": 0, "fusion_lon": 0.0, "fusion_lat": 0.0, "lon": -77.02161483333333, "name": "877456a49eb92f63e92c8062557adb83"}, {"bike_id": "8d9950bba99029e6d2b5639f3c1c17d5", "type": "electric_scooter", "is_disabled": 0, "lat": 38.92075066666666, "rental_uris": {"ios": "https://dc.lft.to/lastmile_qr_scan", "android": "https://dc.lft.to/lastmile_qr_scan"}, "is_reserved": 0, "fusion_lon": 0.0, "fusion_lat": 0.0, "lon": -77.04198433333333, "name": "8d9950bba99029e6d2b5639f3c1c17d5"}, {"bike_id": "2d6a71121bb75ecf9b682d76e44d700d", "type": "electric_scooter", "is_disabled": 0, "lat": 38.89822983333333, "rental_uris": {"ios": "https://dc.lft.to/lastmile_qr_scan", "android": "https://dc.lft.to/lastmile_qr_scan"}, "is_reserved": 0, "fusion_lon": 0.0, "fusion_lat": 0.0, "lon": -77.02765866666667, "name": "2d6a71121bb75ecf9b682d76e44d700d"}, {"bike_id": "01e8ed4af90404c1db1ae6597a01a1df", "type": "electric_scooter", "is_disabled": 0, "lat": 38.93207433333333, "rental_uris": {"ios": "https://dc.lft.to/lastmile_qr_scan", "android": "https://dc.lft.to/lastmile_qr_scan"}, "is_reserved": 0, "fusion_lon": 0.0, "fusion_lat": 0.0, "lon": -77.02385966666667, "name": "01e8ed4af90404c1db1ae6597a01a1df"}, {"bike_id": "5dd6479578feb154def661b9f9791a8e", "type": "electric_scooter", "is_disabled": 0, "lat": 38.90821033333334, "rental_uris": {"ios": "https://dc.lft.to/lastmile_qr_scan", "android": "https://dc.lft.to/lastmile_qr_scan"}, "is_reserved": 0, "fusion_lon": 0.0, "fusion_lat": 0.0, "lon": -76.99710966666666, "name": "5dd6479578feb154def661b9f9791a8e"}, {"bike_id": "7449a69516a267f530244bd027fc1b30", "type": "electric_scooter", "is_disabled": 0, "lat": 38.887093166666666, "rental_uris": {"ios": "https://dc.lft.to/lastmile_qr_scan", "android": "https://dc.lft.to/lastmile_qr_scan"}, "is_reserved": 0, "fusion_lon": 0.0, "fusion_lat": 0.0, "lon": -77.01779483333334, "name": "7449a69516a267f530244bd027fc1b30"}, {"bike_id": "2de2f7c048db01e7f4d8b44217899f1a", "type": "electric_scooter", "is_disabled": 0, "lat": 38.923236833333334, "rental_uris": {"ios": "https://dc.lft.to/lastmile_qr_scan", "android": "https://dc.lft.to/lastmile_qr_scan"}, "is_reserved": 0, "fusion_lon": 0.0, "fusion_lat": 0.0, "lon": -77.046169, "name": "2de2f7c048db01e7f4d8b44217899f1a"}, {"bike_id": "33bd58297ff49fb61616b701c5d96b23", "type": "electric_scooter", "is_disabled": 0, "lat": 38.91768866666666, "rental_uris": {"ios": "https://dc.lft.to/lastmile_qr_scan", "android": "https://dc.lft.to/lastmile_qr_scan"}, "is_reserved": 0, "fusion_lon": 0.0, "fusion_lat": 0.0, "lon": -77.02950133333333, "name": "33bd58297ff49fb61616b701c5d96b23"}, {"bike_id": "14d0abbb156b65196af475cc10b4a641", "type": "electric_bike", "is_disabled": 0, "lat": 39.013700666666665, "rental_uris": {"ios": "https://dc.lft.to/lastmile_qr_scan", "android": "https://dc.lft.to/lastmile_qr_scan"}, "is_reserved": 0, "fusion_lon": 0.0, "fusion_lat": 0.0, "lon": -76.9213535, "name": "14d0abbb156b65196af475cc10b4a641"}, {"bike_id": "0d30a0bb905a551d2d31aa546f954a66", "type": "electric_scooter", "is_disabled": 0, "lat": 38.8841865, "rental_uris": {"ios": "https://dc.lft.to/lastmile_qr_scan", "android": "https://dc.lft.to/lastmile_qr_scan"}, "is_reserved": 0, "fusion_lon": 0.0, "fusion_lat": 0.0, "lon": -77.0301795, "name": "0d30a0bb905a551d2d31aa546f954a66"}, {"bike_id": "ebd4f8f02308611ab748a078cdcfe0a2", "type": "electric_scooter", "is_disabled": 0, "lat": 38.923309833333334, "rental_uris": {"ios": "https://dc.lft.to/lastmile_qr_scan", "android": "https://dc.lft.to/lastmile_qr_scan"}, "is_reserved": 0, "fusion_lon": 0.0, "fusion_lat": 0.0, "lon": -77.02299766666667, "name": "ebd4f8f02308611ab748a078cdcfe0a2"}, {"bike_id": "64eac212069e1fe1c1789c41a23d4271", "type": "electric_scooter", "is_disabled": 0, "lat": 38.914213, "rental_uris": {"ios": "https://dc.lft.to/lastmile_qr_scan", "android": "https://dc.lft.to/lastmile_qr_scan"}, "is_reserved": 0, "fusion_lon": 0.0, "fusion_lat": 0.0, "lon": -77.01988466666667, "name": "64eac212069e1fe1c1789c41a23d4271"}, {"bike_id": "1135c6e451d41aa50a6883759f19a9bb", "type": "electric_scooter", "is_disabled": 0, "lat": 38.91258233333333, "rental_uris": {"ios": "https://dc.lft.to/lastmile_qr_scan", "android": "https://dc.lft.to/lastmile_qr_scan"}, "is_reserved": 0, "fusion_lon": 0.0, "fusion_lat": 0.0, "lon": -77.01229883333333, "name": "1135c6e451d41aa50a6883759f19a9bb"}, {"bike_id": "dc2038796defd0b18acc6dc4c40700e7", "type": "electric_scooter", "is_disabled": 0, "lat": 38.91563383333333, "rental_uris": {"ios": "https://dc.lft.to/lastmile_qr_scan", "android": "https://dc.lft.to/lastmile_qr_scan"}, "is_reserved": 0, "fusion_lon": 0.0, "fusion_lat": 0.0, "lon": -77.02021783333333, "name": "dc2038796defd0b18acc6dc4c40700e7"}, {"bike_id": "f7be1b1a89220e66cfbd5a7ad0c3600f", "type": "electric_scooter", "is_disabled": 0, "lat": 38.9223515, "rental_uris": {"ios": "https://dc.lft.to/lastmile_qr_scan", "android": "https://dc.lft.to/lastmile_qr_scan"}, "is_reserved": 0, "fusion_lon": 0.0, "fusion_lat": 0.0, "lon": -77.04245566666667, "name": "f7be1b1a89220e66cfbd5a7ad0c3600f"}, {"bike_id": "df7a3a430b4befd05b5b94076e42b7aa", "type": "electric_scooter", "is_disabled": 0, "lat": 38.885362, "rental_uris": {"ios": "https://dc.lft.to/lastmile_qr_scan", "android": "https://dc.lft.to/lastmile_qr_scan"}, "is_reserved": 0, "fusion_lon": 0.0, "fusion_lat": 0.0, "lon": -76.99827, "name": "df7a3a430b4befd05b5b94076e42b7aa"}, {"bike_id": "cfa28f627b14ba80e8693a399cfcfd80", "type": "electric_scooter", "is_disabled": 0, "lat": 38.923164, "rental_uris": {"ios": "https://dc.lft.to/lastmile_qr_scan", "android": "https://dc.lft.to/lastmile_qr_scan"}, "is_reserved": 0, "fusion_lon": 0.0, "fusion_lat": 0.0, "lon": -77.0213655, "name": "cfa28f627b14ba80e8693a399cfcfd80"}, {"bike_id": "b6e86d8a6cb808d02e8bc42b2664dfec", "type": "electric_scooter", "is_disabled": 0, "lat": 38.922204, "rental_uris": {"ios": "https://dc.lft.to/lastmile_qr_scan", "android": "https://dc.lft.to/lastmile_qr_scan"}, "is_reserved": 0, "fusion_lon": 0.0, "fusion_lat": 0.0, "lon": -77.043332, "name": "b6e86d8a6cb808d02e8bc42b2664dfec"}, {"bike_id": "3377a9f1a6cc19806f7192ce0e0712c9", "type": "electric_bike", "is_disabled": 0, "lat": 38.90208033333333, "rental_uris": {"ios": "https://dc.lft.to/lastmile_qr_scan", "android": "https://dc.lft.to/lastmile_qr_scan"}, "is_reserved": 0, "fusion_lon": 0.0, "fusion_lat": 0.0, "lon": -77.01612033333333, "name": "3377a9f1a6cc19806f7192ce0e0712c9"}, {"bike_id": "7548a905cc01219f4d6878f5b7d9bc23", "type": "electric_scooter", "is_disabled": 0, "lat": 38.91061783333333, "rental_uris": {"ios": "https://dc.lft.to/lastmile_qr_scan", "android": "https://dc.lft.to/lastmile_qr_scan"}, "is_reserved": 0, "fusion_lon": 0.0, "fusion_lat": 0.0, "lon": -77.04495766666666, "name": "7548a905cc01219f4d6878f5b7d9bc23"}, {"bike_id": "8af711778122ed37c4b2dadd1d23d054", "type": "electric_scooter", "is_disabled": 0, "lat": 38.893306333333335, "rental_uris": {"ios": "https://dc.lft.to/lastmile_qr_scan", "android": "https://dc.lft.to/lastmile_qr_scan"}, "is_reserved": 0, "fusion_lon": 0.0, "fusion_lat": 0.0, "lon": -77.031705, "name": "8af711778122ed37c4b2dadd1d23d054"}, {"bike_id": "96e07343a3d14591ae4cc4fc71ad2cb8", "type": "electric_scooter", "is_disabled": 0, "lat": 38.912408666666664, "rental_uris": {"ios": "https://dc.lft.to/lastmile_qr_scan", "android": "https://dc.lft.to/lastmile_qr_scan"}, "is_reserved": 0, "fusion_lon": 0.0, "fusion_lat": 0.0, "lon": -77.04513716666666, "name": "96e07343a3d14591ae4cc4fc71ad2cb8"}, {"bike_id": "d2a8a0872f2d6982a61ac49f85a45692", "type": "electric_scooter", "is_disabled": 0, "lat": 38.938286833333336, "rental_uris": {"ios": "https://dc.lft.to/lastmile_qr_scan", "android": "https://dc.lft.to/lastmile_qr_scan"}, "is_reserved": 0, "fusion_lon": 0.0, "fusion_lat": 0.0, "lon": -76.99048916666666, "name": "d2a8a0872f2d6982a61ac49f85a45692"}, {"bike_id": "3ae42983dc232ce09eeefeaf8c59064f", "type": "electric_scooter", "is_disabled": 0, "lat": 38.91170533333333, "rental_uris": {"ios": "https://dc.lft.to/lastmile_qr_scan", "android": "https://dc.lft.to/lastmile_qr_scan"}, "is_reserved": 0, "fusion_lon": 0.0, "fusion_lat": 0.0, "lon": -77.0386765, "name": "3ae42983dc232ce09eeefeaf8c59064f"}, {"bike_id": "abd942b85d2cb17a6490a098dffe2e4d", "type": "electric_bike", "is_disabled": 0, "lat": 38.84523933333333, "rental_uris": {"ios": "https://dc.lft.to/lastmile_qr_scan", "android": "https://dc.lft.to/lastmile_qr_scan"}, "is_reserved": 0, "fusion_lon": 0.0, "fusion_lat": 0.0, "lon": -76.97399966666667, "name": "abd942b85d2cb17a6490a098dffe2e4d"}, {"bike_id": "800a3c3189f430f24d410046d57c2367", "type": "electric_scooter", "is_disabled": 0, "lat": 38.94791633333333, "rental_uris": {"ios": "https://dc.lft.to/lastmile_qr_scan", "android": "https://dc.lft.to/lastmile_qr_scan"}, "is_reserved": 0, "fusion_lon": 0.0, "fusion_lat": 0.0, "lon": -77.0213555, "name": "800a3c3189f430f24d410046d57c2367"}, {"bike_id": "8c069f0a6816e5013e60a80d1f97f232", "type": "electric_bike", "is_disabled": 0, "lat": 38.91951183333333, "rental_uris": {"ios": "https://dc.lft.to/lastmile_qr_scan", "android": "https://dc.lft.to/lastmile_qr_scan"}, "is_reserved": 0, "fusion_lon": 0.0, "fusion_lat": 0.0, "lon": -77.00318166666666, "name": "8c069f0a6816e5013e60a80d1f97f232"}, {"bike_id": "f82ecfbd664a7c5d5d16685c9a446088", "type": "electric_scooter", "is_disabled": 0, "lat": 38.865046, "rental_uris": {"ios": "https://dc.lft.to/lastmile_qr_scan", "android": "https://dc.lft.to/lastmile_qr_scan"}, "is_reserved": 0, "fusion_lon": 0.0, "fusion_lat": 0.0, "lon": -76.9900455, "name": "f82ecfbd664a7c5d5d16685c9a446088"}, {"bike_id": "38d2e3da9f64b8add2f9a5a6e1f1e200", "type": "electric_scooter", "is_disabled": 0, "lat": 38.9076935, "rental_uris": {"ios": "https://dc.lft.to/lastmile_qr_scan", "android": "https://dc.lft.to/lastmile_qr_scan"}, "is_reserved": 0, "fusion_lon": 0.0, "fusion_lat": 0.0, "lon": -77.0271565, "name": "38d2e3da9f64b8add2f9a5a6e1f1e200"}, {"bike_id": "c87e6351b9ff55aa11351dad50490381", "type": "electric_scooter", "is_disabled": 0, "lat": 38.892379166666665, "rental_uris": {"ios": "https://dc.lft.to/lastmile_qr_scan", "android": "https://dc.lft.to/lastmile_qr_scan"}, "is_reserved": 0, "fusion_lon": 0.0, "fusion_lat": 0.0, "lon": -76.9532775, "name": "c87e6351b9ff55aa11351dad50490381"}, {"bike_id": "9a4a5153791da1db5f611083e2fb6c98", "type": "electric_bike", "is_disabled": 0, "lat": 38.80902616666667, "rental_uris": {"ios": "https://dc.lft.to/lastmile_qr_scan", "android": "https://dc.lft.to/lastmile_qr_scan"}, "is_reserved": 0, "fusion_lon": 0.0, "fusion_lat": 0.0, "lon": -77.08660316666666, "name": "9a4a5153791da1db5f611083e2fb6c98"}, {"bike_id": "34e638d8c103f3ea589877df939c59ff", "type": "electric_scooter", "is_disabled": 0, "lat": 38.87831083333333, "rental_uris": {"ios": "https://dc.lft.to/lastmile_qr_scan", "android": "https://dc.lft.to/lastmile_qr_scan"}, "is_reserved": 0, "fusion_lon": 0.0, "fusion_lat": 0.0, "lon": -77.008593, "name": "34e638d8c103f3ea589877df939c59ff"}, {"bike_id": "8785c4b02812c419bf26598441146d8a", "type": "electric_scooter", "is_disabled": 0, "lat": 38.92634966666667, "rental_uris": {"ios": "https://dc.lft.to/lastmile_qr_scan", "android": "https://dc.lft.to/lastmile_qr_scan"}, "is_reserved": 0, "fusion_lon": 0.0, "fusion_lat": 0.0, "lon": -77.01380966666666, "name": "8785c4b02812c419bf26598441146d8a"}, {"bike_id": "865372997ee308165b3b92a598dc17cb", "type": "electric_scooter", "is_disabled": 0, "lat": 38.91381533333333, "rental_uris": {"ios": "https://dc.lft.to/lastmile_qr_scan", "android": "https://dc.lft.to/lastmile_qr_scan"}, "is_reserved": 0, "fusion_lon": 0.0, "fusion_lat": 0.0, "lon": -77.06922383333334, "name": "865372997ee308165b3b92a598dc17cb"}, {"bike_id": "e8e9b137ff18bb6c1a42f15948c2651b", "type": "electric_scooter", "is_disabled": 0, "lat": 38.900581, "rental_uris": {"ios": "https://dc.lft.to/lastmile_qr_scan", "android": "https://dc.lft.to/lastmile_qr_scan"}, "is_reserved": 0, "fusion_lon": 0.0, "fusion_lat": 0.0, "lon": -77.026122, "name": "e8e9b137ff18bb6c1a42f15948c2651b"}, {"bike_id": "731bfe61bab70f610175b9a4c92622b1", "type": "electric_scooter", "is_disabled": 0, "lat": 38.917663833333336, "rental_uris": {"ios": "https://dc.lft.to/lastmile_qr_scan", "android": "https://dc.lft.to/lastmile_qr_scan"}, "is_reserved": 0, "fusion_lon": 0.0, "fusion_lat": 0.0, "lon": -77.02961316666666, "name": "731bfe61bab70f610175b9a4c92622b1"}, {"bike_id": "699360228f0202cf443fab1b3873c31d", "type": "electric_scooter", "is_disabled": 0, "lat": 38.892996, "rental_uris": {"ios": "https://dc.lft.to/lastmile_qr_scan", "android": "https://dc.lft.to/lastmile_qr_scan"}, "is_reserved": 0, "fusion_lon": 0.0, "fusion_lat": 0.0, "lon": -77.04163633333333, "name": "699360228f0202cf443fab1b3873c31d"}, {"bike_id": "330e45c8ab968546cb595038ce90d453", "type": "electric_scooter", "is_disabled": 0, "lat": 38.91693033333333, "rental_uris": {"ios": "https://dc.lft.to/lastmile_qr_scan", "android": "https://dc.lft.to/lastmile_qr_scan"}, "is_reserved": 0, "fusion_lon": 0.0, "fusion_lat": 0.0, "lon": -77.04107016666667, "name": "330e45c8ab968546cb595038ce90d453"}, {"bike_id": "abb5f251af61a5925959a140674c14fb", "type": "electric_scooter", "is_disabled": 0, "lat": 38.898588833333335, "rental_uris": {"ios": "https://dc.lft.to/lastmile_qr_scan", "android": "https://dc.lft.to/lastmile_qr_scan"}, "is_reserved": 0, "fusion_lon": 0.0, "fusion_lat": 0.0, "lon": -77.02247683333333, "name": "abb5f251af61a5925959a140674c14fb"}, {"bike_id": "5478832c4afcb7df24212cd780e26db8", "type": "electric_scooter", "is_disabled": 0, "lat": 38.922376666666665, "rental_uris": {"ios": "https://dc.lft.to/lastmile_qr_scan", "android": "https://dc.lft.to/lastmile_qr_scan"}, "is_reserved": 0, "fusion_lon": 0.0, "fusion_lat": 0.0, "lon": -77.04244883333334, "name": "5478832c4afcb7df24212cd780e26db8"}, {"bike_id": "1a19112b0780f7f880d9ab4cb9b0f5a0", "type": "electric_scooter", "is_disabled": 0, "lat": 38.90117733333334, "rental_uris": {"ios": "https://dc.lft.to/lastmile_qr_scan", "android": "https://dc.lft.to/lastmile_qr_scan"}, "is_reserved": 0, "fusion_lon": 0.0, "fusion_lat": 0.0, "lon": -77.03839466666666, "name": "1a19112b0780f7f880d9ab4cb9b0f5a0"}, {"bike_id": "d6a604fd1f3f748caf6b347a448c01bd", "type": "electric_scooter", "is_disabled": 0, "lat": 38.906689166666666, "rental_uris": {"ios": "https://dc.lft.to/lastmile_qr_scan", "android": "https://dc.lft.to/lastmile_qr_scan"}, "is_reserved": 0, "fusion_lon": 0.0, "fusion_lat": 0.0, "lon": -77.02717616666666, "name": "d6a604fd1f3f748caf6b347a448c01bd"}, {"bike_id": "f0407219730657f588642889bf803b84", "type": "electric_scooter", "is_disabled": 0, "lat": 38.911452, "rental_uris": {"ios": "https://dc.lft.to/lastmile_qr_scan", "android": "https://dc.lft.to/lastmile_qr_scan"}, "is_reserved": 0, "fusion_lon": 0.0, "fusion_lat": 0.0, "lon": -77.0269105, "name": "f0407219730657f588642889bf803b84"}, {"bike_id": "93959fba6cbe917ee19d72e146c8d92b", "type": "electric_scooter", "is_disabled": 0, "lat": 38.922399166666665, "rental_uris": {"ios": "https://dc.lft.to/lastmile_qr_scan", "android": "https://dc.lft.to/lastmile_qr_scan"}, "is_reserved": 0, "fusion_lon": 0.0, "fusion_lat": 0.0, "lon": -77.02987133333333, "name": "93959fba6cbe917ee19d72e146c8d92b"}, {"bike_id": "8fba705e9782b128cea7d12f4f287d37", "type": "electric_scooter", "is_disabled": 0, "lat": 38.93953233333333, "rental_uris": {"ios": "https://dc.lft.to/lastmile_qr_scan", "android": "https://dc.lft.to/lastmile_qr_scan"}, "is_reserved": 0, "fusion_lon": 0.0, "fusion_lat": 0.0, "lon": -77.07242733333334, "name": "8fba705e9782b128cea7d12f4f287d37"}, {"bike_id": "a95c49f4babf86f511ac70b0d7775b00", "type": "electric_bike", "is_disabled": 0, "lat": 38.88677466666667, "rental_uris": {"ios": "https://dc.lft.to/lastmile_qr_scan", "android": "https://dc.lft.to/lastmile_qr_scan"}, "is_reserved": 0, "fusion_lon": 0.0, "fusion_lat": 0.0, "lon": -77.16241016666666, "name": "a95c49f4babf86f511ac70b0d7775b00"}, {"bike_id": "51fd83987f591e7c659c9de8f41735ec", "type": "electric_scooter", "is_disabled": 0, "lat": 38.914162166666664, "rental_uris": {"ios": "https://dc.lft.to/lastmile_qr_scan", "android": "https://dc.lft.to/lastmile_qr_scan"}, "is_reserved": 0, "fusion_lon": 0.0, "fusion_lat": 0.0, "lon": -77.01988683333333, "name": "51fd83987f591e7c659c9de8f41735ec"}, {"bike_id": "f0bdac74cf35ee9a9d4d669588b8f95c", "type": "electric_bike", "is_disabled": 0, "lat": 38.83609333333333, "rental_uris": {"ios": "https://dc.lft.to/lastmile_qr_scan", "android": "https://dc.lft.to/lastmile_qr_scan"}, "is_reserved": 0, "fusion_lon": 0.0, "fusion_lat": 0.0, "lon": -77.00383833333333, "name": "f0bdac74cf35ee9a9d4d669588b8f95c"}, {"bike_id": "8dd339b539f4612498540f236a70d959", "type": "electric_scooter", "is_disabled": 0, "lat": 38.91723233333333, "rental_uris": {"ios": "https://dc.lft.to/lastmile_qr_scan", "android": "https://dc.lft.to/lastmile_qr_scan"}, "is_reserved": 0, "fusion_lon": 0.0, "fusion_lat": 0.0, "lon": -77.03320283333333, "name": "8dd339b539f4612498540f236a70d959"}, {"bike_id": "dfcb3bda36b8cadf4c3477514c4d181a", "type": "electric_scooter", "is_disabled": 0, "lat": 38.9197185, "rental_uris": {"ios": "https://dc.lft.to/lastmile_qr_scan", "android": "https://dc.lft.to/lastmile_qr_scan"}, "is_reserved": 0, "fusion_lon": 0.0, "fusion_lat": 0.0, "lon": -77.07098783333333, "name": "dfcb3bda36b8cadf4c3477514c4d181a"}, {"bike_id": "2011a8362de49650c0f8a6ad4c2e83bd", "type": "electric_scooter", "is_disabled": 0, "lat": 38.92475366666667, "rental_uris": {"ios": "https://dc.lft.to/lastmile_qr_scan", "android": "https://dc.lft.to/lastmile_qr_scan"}, "is_reserved": 0, "fusion_lon": 0.0, "fusion_lat": 0.0, "lon": -77.0224725, "name": "2011a8362de49650c0f8a6ad4c2e83bd"}, {"bike_id": "b3d8385e71097431183f07a8b0298fc7", "type": "electric_scooter", "is_disabled": 0, "lat": 38.908211666666666, "rental_uris": {"ios": "https://dc.lft.to/lastmile_qr_scan", "android": "https://dc.lft.to/lastmile_qr_scan"}, "is_reserved": 0, "fusion_lon": 0.0, "fusion_lat": 0.0, "lon": -77.03193366666666, "name": "b3d8385e71097431183f07a8b0298fc7"}, {"bike_id": "354f49246e2ec490689c6e7941b2f7ed", "type": "electric_scooter", "is_disabled": 0, "lat": 38.91324316666667, "rental_uris": {"ios": "https://dc.lft.to/lastmile_qr_scan", "android": "https://dc.lft.to/lastmile_qr_scan"}, "is_reserved": 0, "fusion_lon": 0.0, "fusion_lat": 0.0, "lon": -77.031909, "name": "354f49246e2ec490689c6e7941b2f7ed"}, {"bike_id": "056d15408356789b7aac755fe2f41285", "type": "electric_scooter", "is_disabled": 0, "lat": 38.93146183333333, "rental_uris": {"ios": "https://dc.lft.to/lastmile_qr_scan", "android": "https://dc.lft.to/lastmile_qr_scan"}, "is_reserved": 0, "fusion_lon": 0.0, "fusion_lat": 0.0, "lon": -77.03354683333333, "name": "056d15408356789b7aac755fe2f41285"}, {"bike_id": "a1d3a52badc622e6a725a9039fa85dcd", "type": "electric_scooter", "is_disabled": 0, "lat": 38.92443333333333, "rental_uris": {"ios": "https://dc.lft.to/lastmile_qr_scan", "android": "https://dc.lft.to/lastmile_qr_scan"}, "is_reserved": 0, "fusion_lon": 0.0, "fusion_lat": 0.0, "lon": -77.00008433333333, "name": "a1d3a52badc622e6a725a9039fa85dcd"}, {"bike_id": "375f1d18392066c3a30951fa97d4758a", "type": "electric_scooter", "is_disabled": 0, "lat": 38.94327633333333, "rental_uris": {"ios": "https://dc.lft.to/lastmile_qr_scan", "android": "https://dc.lft.to/lastmile_qr_scan"}, "is_reserved": 0, "fusion_lon": 0.0, "fusion_lat": 0.0, "lon": -77.014824, "name": "375f1d18392066c3a30951fa97d4758a"}, {"bike_id": "770a2a1024329a643082b0dfdfbff244", "type": "electric_scooter", "is_disabled": 0, "lat": 38.897920166666665, "rental_uris": {"ios": "https://dc.lft.to/lastmile_qr_scan", "android": "https://dc.lft.to/lastmile_qr_scan"}, "is_reserved": 0, "fusion_lon": 0.0, "fusion_lat": 0.0, "lon": -77.023837, "name": "770a2a1024329a643082b0dfdfbff244"},