{"data": {"bikes": [{"rental_uris": {"ios": "https://dc.lft.to/lastmile_qr_scan", "android": "https://dc.lft.to/lastmile_qr_scan"}, "lon": -77.00516233333333, "type": "electric_scooter", "fusion_lat": 0.0, "lat": 38.87473266666667, "name": "bff097008b41367fcf9acd550787172a", "fusion_lon": 0.0, "bike_id": "bff097008b41367fcf9acd550787172a", "is_disabled": 0, "is_reserved": 0}, {"rental_uris": {"ios": "https://dc.lft.to/lastmile_qr_scan", "android": "https://dc.lft.to/lastmile_qr_scan"}, "lon": -77.0278235, "type": "electric_scooter", "fusion_lat": 0.0, "lat": 38.91817366666667, "name": "895c7fc083ab74aede7b503db996c14c", "fusion_lon": 0.0, "bike_id": "895c7fc083ab74aede7b503db996c14c", "is_disabled": 0, "is_reserved": 0}, {"rental_uris": {"ios": "https://dc.lft.to/lastmile_qr_scan", "android": "https://dc.lft.to/lastmile_qr_scan"}, "lon": -76.99608166666667, "type": "electric_scooter", "fusion_lat": 0.0, "lat": 38.886257, "name": "4a4e91c2804ecfb56b0c93801da8e137", "fusion_lon": 0.0, "bike_id": "4a4e91c2804ecfb56b0c93801da8e137", "is_disabled": 0, "is_reserved": 0}, {"rental_uris": {"ios": "https://dc.lft.to/lastmile_qr_scan", "android": "https://dc.lft.to/lastmile_qr_scan"}, "lon": -77.01099616666667, "type": "electric_scooter", "fusion_lat": 0.0, "lat": 38.895091666666666, "name": "9290a99d8f3bf230f7eb3942cbc73838", "fusion_lon": 0.0, "bike_id": "9290a99d8f3bf230f7eb3942cbc73838", "is_disabled": 0, "is_reserved": 0}, {"rental_uris": {"ios": "https://dc.lft.to/lastmile_qr_scan", "android": "https://dc.lft.to/lastmile_qr_scan"}, "lon": -76.98883683333334, "type": "electric_scooter", "fusion_lat": 0.0, "lat": 38.86660766666667, "name": "73ac86a23e2baa6bd3256ee8cc499f13", "fusion_lon": 0.0, "bike_id": "73ac86a23e2baa6bd3256ee8cc499f13", "is_disabled": 0, "is_reserved": 0}, {"rental_uris": {"ios": "https://dc.lft.to/lastmile_qr_scan", "android": "https://dc.lft.to/lastmile_qr_scan"}, "lon": -76.97795566666667, "type": "electric_scooter", "fusion_lat": 0.0, "lat": 38.90315666666667, "name": "f974f8393c7ce1fabfc6f0acfeb83ff6", "fusion_lon": 0.0, "bike_id": "f974f8393c7ce1fabfc6f0acfeb83ff6", "is_disabled": 0, "is_reserved": 0}, {"rental_uris": {"ios": "https://dc.lft.to/lastmile_qr_scan", "android": "https://dc.lft.to/lastmile_qr_scan"}, "lon": -76.97561666666667, "type": "electric_scooter", "fusion_lat": 0.0, "lat": 38.90442633333333, "name": "3c621b76af7453063b725b3bbab506d3", "fusion_lon": 0.0, "bike_id": "3c621b76af7453063b725b3bbab506d3", "is_disabled": 0, "is_reserved": 0}, {"rental_uris": {"ios": "https://dc.lft.to/lastmile_qr_scan", "android": "https://dc.lft.to/lastmile_qr_scan"}, "lon": -76.99778683333334, "type": "electric_bike", "fusion_lat": 0.0, "lat": 38.90928233333333, "name": "ba6913c3b3ff366a7f0cb946563bdb3b", "fusion_lon": 0.0, "bike_id": "ba6913c3b3ff366a7f0cb946563bdb3b", "is_disabled": 0, "is_reserved": 0}, {"rental_uris": {"ios": "https://dc.lft.to/lastmile_qr_scan", "android": "https://dc.lft.to/lastmile_qr_scan"}, "lon": -77.04528333333333, "type": "electric_scooter", "fusion_lat": 0.0, "lat": 38.913278166666665, "name": "d622f72853d25aecc7b1fab9f5a77986", "fusion_lon": 0.0, "bike_id": "d622f72853d25aecc7b1fab9f5a77986", "is_disabled": 0, "is_reserved": 0}, {"rental_uris": {"ios": "https://dc.lft.to/lastmile_qr_scan", "android": "https://dc.lft.to/lastmile_qr_scan"}, "lon": -77.04460566666667, "type": "electric_scooter", "fusion_lat": 0.0, "lat": 38.89674933333333, "name": "c913f8512cd92effa46b6901a301350f", "fusion_lon": 0.0, "bike_id": "c913f8512cd92effa46b6901a301350f", "is_disabled": 0, "is_reserved": 0}, {"rental_uris": {"ios": "https://dc.lft.to/lastmile_qr_scan", "android": "https://dc.lft.to/lastmile_qr_scan"}, "lon": -77.04289833333333, "type": "electric_scooter", "fusion_lat": 0.0, "lat": 38.905635, "name": "edf4de653bc6cfcae24ceeb12748b92c", "fusion_lon": 0.0, "bike_id": "edf4de653bc6cfcae24ceeb12748b92c", "is_disabled": 0, "is_reserved": 0}, {"rental_uris": {"ios": "https://dc.lft.to/lastmile_qr_scan", "android": "https://dc.lft.to/lastmile_qr_scan"}, "lon": -77.042221, "type": "electric_scooter", "fusion_lat": 0.0, "lat": 38.921271, "name": "75cfc93b40d533dff56fc0807bbaa330", "fusion_lon": 0.0, "bike_id": "75cfc93b40d533dff56fc0807bbaa330", "is_disabled": 0, "is_reserved": 0}, {"rental_uris": {"ios": "https://dc.lft.to/lastmile_qr_scan", "android": "https://dc.lft.to/lastmile_qr_scan"}, "lon": -76.98559316666666, "type": "electric_scooter", "fusion_lat": 0.0, "lat": 38.86143166666667, "name": "493ada7802940af88ce428a113ac04c1", "fusion_lon": 0.0, "bike_id": "493ada7802940af88ce428a113ac04c1", "is_disabled": 0, "is_reserved": 0}, {"rental_uris": {"ios": "https://dc.lft.to/lastmile_qr_scan", "android": "https://dc.lft.to/lastmile_qr_scan"}, "lon": -77.00346983333333, "type": "electric_scooter", "fusion_lat": 0.0, "lat": 38.9081405, "name": "b29c3494fc6fd86a7ed38e400b32ad5a", "fusion_lon": 0.0, "bike_id": "b29c3494fc6fd86a7ed38e400b32ad5a", "is_disabled": 0, "is_reserved": 0}, {"rental_uris": {"ios": "https://dc.lft.to/lastmile_qr_scan", "android": "https://dc.lft.to/lastmile_qr_scan"}, "lon": -77.04286933333333, "type": "electric_scooter", "fusion_lat": 0.0, "lat": 38.895411333333335, "name": "3aecf0ceba426778308175bdf30939b7", "fusion_lon": 0.0, "bike_id": "3aecf0ceba426778308175bdf30939b7", "is_disabled": 0, "is_reserved": 0}, {"rental_uris": {"ios": "https://dc.lft.to/lastmile_qr_scan", "android": "https://dc.lft.to/lastmile_qr_scan"}, "lon": -77.01374066666666, "type": "electric_scooter", "fusion_lat": 0.0, "lat": 38.8865375, "name": "a2557b44227f803da03f06deedb872fd", "fusion_lon": 0.0, "bike_id": "a2557b44227f803da03f06deedb872fd", "is_disabled": 0, "is_reserved": 0}, {"rental_uris": {"ios": "https://dc.lft.to/lastmile_qr_scan", "android": "https://dc.lft.to/lastmile_qr_scan"}, "lon": -77.05786933333333, "type": "electric_scooter", "fusion_lat": 0.0, "lat": 38.934786, "name": "30b8b412bf3c52f9078a181091573722", "fusion_lon": 0.0, "bike_id": "30b8b412bf3c52f9078a181091573722", "is_disabled": 0, "is_reserved": 0}, {"rental_uris": {"ios": "https://dc.lft.to/lastmile_qr_scan", "android": "https://dc.lft.to/lastmile_qr_scan"}, "lon": -77.081903, "type": "electric_bike", "fusion_lat": 0.0, "lat": 38.922034, "name": "741ad844cccb13d9f6d606557b0fc430", "fusion_lon": 0.0, "bike_id": "741ad844cccb13d9f6d606557b0fc430", "is_disabled": 0, "is_reserved": 0}, {"rental_uris": {"ios": "https://dc.lft.to/lastmile_qr_scan", "android": "https://dc.lft.to/lastmile_qr_scan"}, "lon": -77.048935, "type": "electric_scooter", "fusion_lat": 0.0, "lat": 38.905997166666666, "name": "1656bdca7f0fc0218d2b511a40f56351", "fusion_lon": 0.0, "bike_id": "1656bdca7f0fc0218d2b511a40f56351", "is_disabled": 0, "is_reserved": 0}, {"rental_uris": {"ios": "https://dc.lft.to/lastmile_qr_scan", "android": "https://dc.lft.to/lastmile_qr_scan"}, "lon": -77.00196666666666, "type": "electric_scooter", "fusion_lat": 0.0, "lat": 38.900330333333336, "name": "d54cbe41465a6ca037c2efb33af67994", "fusion_lon": 0.0, "bike_id": "d54cbe41465a6ca037c2efb33af67994", "is_disabled": 0, "is_reserved": 0}, {"rental_uris": {"ios": "https://dc.lft.to/lastmile_qr_scan", "android": "https://dc.lft.to/lastmile_qr_scan"}, "lon": -77.011168, "type": "electric_scooter", "fusion_lat": 0.0, "lat": 38.90352816666667, "name": "847cabdc60e7b03cad9a84ea53207021", "fusion_lon": 0.0, "bike_id": "847cabdc60e7b03cad9a84ea53207021", "is_disabled": 0, "is_reserved": 0}, {"rental_uris": {"ios": "https://dc.lft.to/lastmile_qr_scan", "android": "https://dc.lft.to/lastmile_qr_scan"}, "lon": -77.06308483333333, "type": "electric_scooter", "fusion_lat": 0.0, "lat": 38.9437505, "name": "d471e3592b4dfdc8597172c1dbd6bfd9", "fusion_lon": 0.0, "bike_id": "d471e3592b4dfdc8597172c1dbd6bfd9", "is_disabled": 0, "is_reserved": 0}, {"rental_uris": {"ios": "https://dc.lft.to/lastmile_qr_scan", "android": "https://dc.lft.to/lastmile_qr_scan"}, "lon": -77.0364915, "type": "electric_scooter", "fusion_lat": 0.0, "lat": 38.918671333333336, "name": "1baed435b3596be1173763d901309626", "fusion_lon": 0.0, "bike_id": "1baed435b3596be1173763d901309626", "is_disabled": 0, "is_reserved": 0}, {"rental_uris": {"ios": "https://dc.lft.to/lastmile_qr_scan", "android": "https://dc.lft.to/lastmile_qr_scan"}, "lon": -76.95187283333334, "type": "electric_bike", "fusion_lat": 0.0, "lat": 38.9069115, "name": "0a26dbd294e450550820bdf23b16b650", "fusion_lon": 0.0, "bike_id": "0a26dbd294e450550820bdf23b16b650", "is_disabled": 0, "is_reserved": 0}, {"rental_uris": {"ios": "https://dc.lft.to/lastmile_qr_scan", "android": "https://dc.lft.to/lastmile_qr_scan"}, "lon": -77.04413266666667, "type": "electric_scooter", "fusion_lat": 0.0, "lat": 38.91312333333333, "name": "8588708094d7e34494f291385e120271", "fusion_lon": 0.0, "bike_id": "8588708094d7e34494f291385e120271", "is_disabled": 0, "is_reserved": 0}, {"rental_uris": {"ios": "https://dc.lft.to/lastmile_qr_scan", "android": "https://dc.lft.to/lastmile_qr_scan"}, "lon": -76.93172433333334, "type": "electric_scooter", "fusion_lat": 0.0, "lat": 38.898869833333336, "name": "909d5f2f5a245e18b42f768beb92c285", "fusion_lon": 0.0, "bike_id": "909d5f2f5a245e18b42f768beb92c285", "is_disabled": 0, "is_reserved": 0}, {"rental_uris": {"ios": "https://dc.lft.to/lastmile_qr_scan", "android": "https://dc.lft.to/lastmile_qr_scan"}, "lon": -77.023645, "type": "electric_scooter", "fusion_lat": 0.0, "lat": 38.935493, "name": "11d9aaa2aa1eb7f08a2540027e449f53", "fusion_lon": 0.0, "bike_id": "11d9aaa2aa1eb7f08a2540027e449f53", "is_disabled": 0, "is_reserved": 0}, {"rental_uris": {"ios": "https://dc.lft.to/lastmile_qr_scan", "android": "https://dc.lft.to/lastmile_qr_scan"}, "lon": -77.08575483333334, "type": "electric_bike", "fusion_lat": 0.0, "lat": 38.9097175, "name": "0564beda9f86bd3464e235b94479f2b4", "fusion_lon": 0.0, "bike_id": "0564beda9f86bd3464e235b94479f2b4", "is_disabled": 0, "is_reserved": 0}, {"rental_uris": {"ios": "https://dc.lft.to/lastmile_qr_scan", "android": "https://dc.lft.to/lastmile_qr_scan"}, "lon": -77.04187516666667, "type": "electric_scooter", "fusion_lat": 0.0, "lat": 38.922033166666665, "name": "62afec83f698357e5d29df56e715b343", "fusion_lon": 0.0, "bike_id": "62afec83f698357e5d29df56e715b343", "is_disabled": 0, "is_reserved": 0}, {"rental_uris": {"ios": "https://dc.lft.to/lastmile_qr_scan", "android": "https://dc.lft.to/lastmile_qr_scan"}, "lon": -77.04477966666667, "type": "electric_scooter", "fusion_lat": 0.0, "lat": 38.922396, "name": "7d1f561391bbe6d0c0869e9341426174", "fusion_lon": 0.0, "bike_id": "7d1f561391bbe6d0c0869e9341426174", "is_disabled": 0, "is_reserved": 0}, {"rental_uris": {"ios": "https://dc.lft.to/lastmile_qr_scan", "android": "https://dc.lft.to/lastmile_qr_scan"}, "lon": -77.04188833333333, "type": "electric_scooter", "fusion_lat": 0.0, "lat": 38.92018633333333, "name": "a9430db4a081926e3bb1621e0eb33a0e", "fusion_lon": 0.0, "bike_id": "a9430db4a081926e3bb1621e0eb33a0e", "is_disabled": 0, "is_reserved": 0}, {"rental_uris": {"ios": "https://dc.lft.to/lastmile_qr_scan", "android": "https://dc.lft.to/lastmile_qr_scan"}, "lon": -76.99506816666667, "type": "electric_scooter", "fusion_lat": 0.0, "lat": 38.88031, "name": "115de64d7ad65d33be54eff5b2185415", "fusion_lon": 0.0, "bike_id": "115de64d7ad65d33be54eff5b2185415", "is_disabled": 0, "is_reserved": 0}, {"rental_uris": {"ios": "https://dc.lft.to/lastmile_qr_scan", "android": "https://dc.lft.to/lastmile_qr_scan"}, "lon": -76.99607316666666, "type": "electric_scooter", "fusion_lat": 0.0, "lat": 38.89748083333333, "name": "a33fda56986b6c0ae1b75f700cc4961a", "fusion_lon": 0.0, "bike_id": "a33fda56986b6c0ae1b75f700cc4961a", "is_disabled": 0, "is_reserved": 0}, {"rental_uris": {"ios": "https://dc.lft.to/lastmile_qr_scan", "android": "https://dc.lft.to/lastmile_qr_scan"}, "lon": -77.05342166666667, "type": "electric_scooter", "fusion_lat": 0.0, "lat": 38.902303, "name": "77a86b13556734f460323445dc546892", "fusion_lon": 0.0, "bike_id": "77a86b13556734f460323445dc546892", "is_disabled": 0, "is_reserved": 0}, {"rental_uris": {"ios": "https://dc.lft.to/lastmile_qr_scan", "android": "https://dc.lft.to/lastmile_qr_scan"}, "lon": -77.07089816666667, "type": "electric_scooter", "fusion_lat": 0.0, "lat": 38.933674333333336, "name": "c68db9acfee7984d5695e9785612cd0c", "fusion_lon": 0.0, "bike_id": "c68db9acfee7984d5695e9785612cd0c", "is_disabled": 0, "is_reserved": 0}, {"rental_uris": {"ios": "https://dc.lft.to/lastmile_qr_scan", "android": "https://dc.lft.to/lastmile_qr_scan"}, "lon": -77.01187383333334, "type": "electric_scooter", "fusion_lat": 0.0, "lat": 38.90021683333333, "name": "21a7c35da293370163b2fbec2e1bf200", "fusion_lon": 0.0, "bike_id": "21a7c35da293370163b2fbec2e1bf200", "is_disabled": 0, "is_reserved": 0}, {"rental_uris": {"ios": "https://dc.lft.to/lastmile_qr_scan", "android": "https://dc.lft.to/lastmile_qr_scan"}, "lon": -77.04543833333334, "type": "electric_scooter", "fusion_lat": 0.0, "lat": 38.907240333333334, "name": "b629540a844aa087a0688624bd130299", "fusion_lon": 0.0, "bike_id": "b629540a844aa087a0688624bd130299", "is_disabled": 0, "is_reserved": 0}, {"rental_uris": {"ios": "https://dc.lft.to/lastmile_qr_scan", "android": "https://dc.lft.to/lastmile_qr_scan"}, "lon": -77.0770855, "type": "electric_scooter", "fusion_lat": 0.0, "lat": 38.95615083333333, "name": "2d21ff23ac330577dbee3e1e76624bd7", "fusion_lon": 0.0, "bike_id": "2d21ff23ac330577dbee3e1e76624bd7", "is_disabled": 0, "is_reserved": 0}, {"rental_uris": {"ios": "https://dc.lft.to/lastmile_qr_scan", "android": "https://dc.lft.to/lastmile_qr_scan"}, "lon": -77.00523733333333, "type": "electric_scooter", "fusion_lat": 0.0, "lat": 38.92904983333333, "name": "59bb6bc31b3c00fef4e32e5ddb51c567", "fusion_lon": 0.0, "bike_id": "59bb6bc31b3c00fef4e32e5ddb51c567", "is_disabled": 0, "is_reserved": 0}, {"rental_uris": {"ios": "https://dc.lft.to/lastmile_qr_scan", "android": "https://dc.lft.to/lastmile_qr_scan"}, "lon": -76.98707383333333, "type": "electric_scooter", "fusion_lat": 0.0, "lat": 38.86536983333333, "name": "bf33bd6c8466cb8b7d222d74e7d7d1b1", "fusion_lon": 0.0, "bike_id": "bf33bd6c8466cb8b7d222d74e7d7d1b1", "is_disabled": 0, "is_reserved": 0}, {"rental_uris": {"ios": "https://dc.lft.to/lastmile_qr_scan", "android": "https://dc.lft.to/lastmile_qr_scan"}, "lon": -77.03536916666667, "type": "electric_scooter", "fusion_lat": 0.0, "lat": 38.918105833333335, "name": "dae3947882bb982e62bdd90658e63419", "fusion_lon": 0.0, "bike_id": "dae3947882bb982e62bdd90658e63419", "is_disabled": 0, "is_reserved": 0}, {"rental_uris": {"ios": "https://dc.lft.to/lastmile_qr_scan", "android": "https://dc.lft.to/lastmile_qr_scan"}, "lon": -77.03317816666667, "type": "electric_scooter", "fusion_lat": 0.0, "lat": 38.900236666666665, "name": "98e5e62b881f2da070ef970dd263f181", "fusion_lon": 0.0, "bike_id": "98e5e62b881f2da070ef970dd263f181", "is_disabled": 0, "is_reserved": 0}, {"rental_uris": {"ios": "https://dc.lft.to/lastmile_qr_scan", "android": "https://dc.lft.to/lastmile_qr_scan"}, "lon": -77.03748866666666, "type": "electric_scooter", "fusion_lat": 0.0, "lat": 38.9291, "name": "f3517ab7f7ca4bd428fd4152864afe91", "fusion_lon": 0.0, "bike_id": "f3517ab7f7ca4bd428fd4152864afe91", "is_disabled": 0, "is_reserved": 0}, {"rental_uris": {"ios": "https://dc.lft.to/lastmile_qr_scan", "android": "https://dc.lft.to/lastmile_qr_scan"}, "lon": -77.03196033333333, "type": "electric_scooter", "fusion_lat": 0.0, "lat": 38.89961366666667, "name": "97b93857c565edbc190b00bf6422fcac", "fusion_lon": 0.0, "bike_id": "97b93857c565edbc190b00bf6422fcac", "is_disabled": 0, "is_reserved": 0}, {"rental_uris": {"ios": "https://dc.lft.to/lastmile_qr_scan", "android": "https://dc.lft.to/lastmile_qr_scan"}, "lon": -76.97881433333333, "type": "electric_scooter", "fusion_lat": 0.0, "lat": 38.88510266666667, "name": "d46aae46e769dcc1c6575738c801c0b2", "fusion_lon": 0.0, "bike_id": "d46aae46e769dcc1c6575738c801c0b2", "is_disabled": 0, "is_reserved": 0}, {"rental_uris": {"ios": "https://dc.lft.to/lastmile_qr_scan", "android": "https://dc.lft.to/lastmile_qr_scan"}, "lon": -76.986949, "type": "electric_scooter", "fusion_lat": 0.0, "lat": 38.9070385, "name": "2017c26547f7381200cf70021bbbb8e5", "fusion_lon": 0.0, "bike_id": "2017c26547f7381200cf70021bbbb8e5", "is_disabled": 0, "is_reserved": 0}, {"rental_uris": {"ios": "https://dc.lft.to/lastmile_qr_scan", "android": "https://dc.lft.to/lastmile_qr_scan"}, "lon": -77.010974, "type": "electric_scooter", "fusion_lat": 0.0, "lat": 38.89449466666667, "name": "77c4159a52ddcbb38d03408a74490f40", "fusion_lon": 0.0, "bike_id": "77c4159a52ddcbb38d03408a74490f40", "is_disabled": 0, "is_reserved": 0}, {"rental_uris": {"ios": "https://dc.lft.to/lastmile_qr_scan", "android": "https://dc.lft.to/lastmile_qr_scan"}, "lon": -77.00203766666667, "type": "electric_bike", "fusion_lat": 0.0, "lat": 38.819408, "name": "a8897489eb6996b45a081a2d3218551a", "fusion_lon": 0.0, "bike_id": "a8897489eb6996b45a081a2d3218551a", "is_disabled": 0, "is_reserved": 0}, {"rental_uris": {"ios": "https://dc.lft.to/lastmile_qr_scan", "android": "https://dc.lft.to/lastmile_qr_scan"}, "lon": -77.03662133333333, "type": "electric_scooter", "fusion_lat": 0.0, "lat": 38.923214, "name": "c11b90f61e714e5713bc6f345859d6f7", "fusion_lon": 0.0, "bike_id": "c11b90f61e714e5713bc6f345859d6f7", "is_disabled": 0, "is_reserved": 0}, {"rental_uris": {"ios": "https://dc.lft.to/lastmile_qr_scan", "android": "https://dc.lft.to/lastmile_qr_scan"}, "lon": -77.05543266666666, "type": "electric_scooter", "fusion_lat": 0.0, "lat": 38.930069333333336, "name": "1b9fc42071b5e30bd760f712d0c4a477", "fusion_lon": 0.0, "bike_id": "1b9fc42071b5e30bd760f712d0c4a477", "is_disabled": 0, "is_reserved": 0}, {"rental_uris": {"ios": "https://dc.lft.to/lastmile_qr_scan", "android": "https://dc.lft.to/lastmile_qr_scan"}, "lon": -77.04744016666666, "type": "electric_scooter", "fusion_lat": 0.0, "lat": 38.901832, "name": "0f222c97c18b66c9b31b910abbb136c9", "fusion_lon": 0.0, "bike_id": "0f222c97c18b66c9b31b910abbb136c9", "is_disabled": 0, "is_reserved": 0}, {"rental_uris": {"ios": "https://dc.lft.to/lastmile_qr_scan", "android": "https://dc.lft.to/lastmile_qr_scan"}, "lon": -77.01013083333333, "type": "electric_scooter", "fusion_lat": 0.0, "lat": 38.89481033333333, "name": "1a91aa0651d5a686e254fe62b8198dc8", "fusion_lon": 0.0, "bike_id": "1a91aa0651d5a686e254fe62b8198dc8", "is_disabled": 0, "is_reserved": 0}, {"rental_uris": {"ios": "https://dc.lft.to/lastmile_qr_scan", "android": "https://dc.lft.to/lastmile_qr_scan"}, "lon": -77.03519983333334, "type": "electric_bike", "fusion_lat": 0.0, "lat": 38.96536866666667, "name": "7f8987bcb954a25e6aa09bdbbe8d5542", "fusion_lon": 0.0, "bike_id": "7f8987bcb954a25e6aa09bdbbe8d5542", "is_disabled": 0, "is_reserved": 0}, {"rental_uris": {"ios": "https://dc.lft.to/lastmile_qr_scan", "android": "https://dc.lft.to/lastmile_qr_scan"}, "lon": -77.04071716666667, "type": "electric_scooter", "fusion_lat": 0.0, "lat": 38.90277783333333, "name": "b7996b52989fd0ee25bcab9ef288b50d", "fusion_lon": 0.0, "bike_id": "b7996b52989fd0ee25bcab9ef288b50d", "is_disabled": 0, "is_reserved": 0}, {"rental_uris": {"ios": "https://dc.lft.to/lastmile_qr_scan", "android": "https://dc.lft.to/lastmile_qr_scan"}, "lon": -77.06516766666667, "type": "electric_bike", "fusion_lat": 0.0, "lat": 38.904545166666665, "name": "b3e3622fa25c2112e62057bebdb2e799", "fusion_lon": 0.0, "bike_id": "b3e3622fa25c2112e62057bebdb2e799", "is_disabled": 0, "is_reserved": 0}, {"rental_uris": {"ios": "https://dc.lft.to/lastmile_qr_scan", "android": "https://dc.lft.to/lastmile_qr_scan"}, "lon": -77.032618, "type": "electric_scooter", "fusion_lat": 0.0, "lat": 38.9390725, "name": "97f48d6785916a5da08f8c2674939947", "fusion_lon": 0.0, "bike_id": "97f48d6785916a5da08f8c2674939947", "is_disabled": 0, "is_reserved": 0}, {"rental_uris": {"ios": "https://dc.lft.to/lastmile_qr_scan", "android": "https://dc.lft.to/lastmile_qr_scan"}, "lon": -77.0182585, "type": "electric_scooter", "fusion_lat": 0.0, "lat": 38.90081516666667, "name": "1ed4a95c0e7f6da02369014ffaa9a5eb", "fusion_lon": 0.0, "bike_id": "1ed4a95c0e7f6da02369014ffaa9a5eb", "is_disabled": 0, "is_reserved": 0}, {"rental_uris": {"ios": "https://dc.lft.to/lastmile_qr_scan", "android": "https://dc.lft.to/lastmile_qr_scan"}, "lon": -77.027177, "type": "electric_scooter", "fusion_lat": 0.0, "lat": 38.899443166666664, "name": "3f94c20b50ccab175b8b4acec28f4c0b", "fusion_lon": 0.0, "bike_id": "3f94c20b50ccab175b8b4acec28f4c0b", "is_disabled": 0, "is_reserved": 0}, {"rental_uris": {"ios": "https://dc.lft.to/lastmile_qr_scan", "android": "https://dc.lft.to/lastmile_qr_scan"}, "lon": -76.94654116666666, "type": "electric_scooter", "fusion_lat": 0.0, "lat": 38.8982775, "name": "64bbcc4bf1adfb9d9ee73ea365a8ca06", "fusion_lon": 0.0, "bike_id": "64bbcc4bf1adfb9d9ee73ea365a8ca06", "is_disabled": 0, "is_reserved": 0}, {"rental_uris": {"ios": "https://dc.lft.to/lastmile_qr_scan", "android": "https://dc.lft.to/lastmile_qr_scan"}, "lon": -77.029633, "type": "electric_scooter", "fusion_lat": 0.0, "lat": 38.92297216666667, "name": "aa13d2a15b4f45d1013027edf7c3d98b", "fusion_lon": 0.0, "bike_id": "aa13d2a15b4f45d1013027edf7c3d98b", "is_disabled": 0, "is_reserved": 0}, {"rental_uris": {"ios": "https://dc.lft.to/lastmile_qr_scan", "android": "https://dc.lft.to/lastmile_qr_scan"}, "lon": -77.02861883333334, "type": "electric_scooter", "fusion_lat": 0.0, "lat": 38.882808, "name": "64daf7d3e57fec62fe3d8b322bd4b1ca", "fusion_lon": 0.0, "bike_id": "64daf7d3e57fec62fe3d8b322bd4b1ca", "is_disabled": 0, "is_reserved": 0}, {"rental_uris": {"ios": "https://dc.lft.to/lastmile_qr_scan", "android": "https://dc.lft.to/lastmile_qr_scan"}, "lon": -77.05120016666666, "type": "electric_scooter", "fusion_lat": 0.0, "lat": 38.906043833333335, "name": "209199375c51bcdcc5084bfeaf8076d6", "fusion_lon": 0.0, "bike_id": "209199375c51bcdcc5084bfeaf8076d6", "is_disabled": 0, "is_reserved": 0}, {"rental_uris": {"ios": "https://dc.lft.to/lastmile_qr_scan", "android": "https://dc.lft.to/lastmile_qr_scan"}, "lon": -76.97666866666667, "type": "electric_bike", "fusion_lat": 0.0, "lat": 38.96623866666667, "name": "932b64dc3b59437685b920aeab626915", "fusion_lon": 0.0, "bike_id": "932b64dc3b59437685b920aeab626915", "is_disabled": 0, "is_reserved": 0}, {"rental_uris": {"ios": "https://dc.lft.to/lastmile_qr_scan", "android": "https://dc.lft.to/lastmile_qr_scan"}, "lon": -77.02573733333334, "type": "electric_scooter", "fusion_lat": 0.0, "lat": 38.89222933333333, "name": "d64fdc2249ea020993181768ad1bcf5f", "fusion_lon": 0.0, "bike_id": "d64fdc2249ea020993181768ad1bcf5f", "is_disabled": 0, "is_reserved": 0}, {"rental_uris": {"ios": "https://dc.lft.to/lastmile_qr_scan", "android": "https://dc.lft.to/lastmile_qr_scan"}, "lon": -77.02075783333333, "type": "electric_scooter", "fusion_lat": 0.0, "lat": 38.899832333333336, "name": "0f44c624a20f24365276af9a4aa3c1eb", "fusion_lon": 0.0, "bike_id": "0f44c624a20f24365276af9a4aa3c1eb", "is_disabled": 0, "is_reserved": 0}, {"rental_uris": {"ios": "https://dc.lft.to/lastmile_qr_scan", "android": "https://dc.lft.to/lastmile_qr_scan"}, "lon": -77.02979466666666, "type": "electric_scooter", "fusion_lat": 0.0, "lat": 38.9004705, "name": "c71dd528e8d42b10158dd540ed58f749", "fusion_lon": 0.0, "bike_id": "c71dd528e8d42b10158dd540ed58f749", "is_disabled": 0, "is_reserved": 0}, {"rental_uris": {"ios": "https://dc.lft.to/lastmile_qr_scan", "android": "https://dc.lft.to/lastmile_qr_scan"}, "lon": -77.01410066666666, "type": "electric_scooter", "fusion_lat": 0.0, "lat": 38.92019066666667, "name": "8a50a80c598463d81072d5efaaae85a5", "fusion_lon": 0.0, "bike_id": "8a50a80c598463d81072d5efaaae85a5", "is_disabled": 0, "is_reserved": 0}, {"rental_uris": {"ios": "https://dc.lft.to/lastmile_qr_scan", "android": "https://dc.lft.to/lastmile_qr_scan"}, "lon": -77.0121185, "type": "electric_bike", "fusion_lat": 0.0, "lat": 38.870917, "name": "d79ab690eac5c10faebfa355ef6c6ff9", "fusion_lon": 0.0, "bike_id": "d79ab690eac5c10faebfa355ef6c6ff9", "is_disabled": 0, "is_reserved": 0}, {"rental_uris": {"ios": "https://dc.lft.to/lastmile_qr_scan", "android": "https://dc.lft.to/lastmile_qr_scan"}, "lon": -77.02224583333333, "type": "electric_scooter", "fusion_lat": 0.0, "lat": 38.892213, "name": "cdf42539cd9cca050fcf9eaa8f5e0ca4", "fusion_lon": 0.0, "bike_id": "cdf42539cd9cca050fcf9eaa8f5e0ca4", "is_disabled": 0, "is_reserved": 0}, {"rental_uris": {"ios": "https://dc.lft.to/lastmile_qr_scan", "android": "https://dc.lft.to/lastmile_qr_scan"}, "lon": -77.031817, "type": "electric_scooter", "fusion_lat": 0.0, "lat": 38.91274533333333, "name": "0200d0538b85a3c971a5ea06d4cf76e3", "fusion_lon": 0.0, "bike_id": "0200d0538b85a3c971a5ea06d4cf76e3", "is_disabled": 0, "is_reserved": 0}, {"rental_uris": {"ios": "https://dc.lft.to/lastmile_qr_scan", "android": "https://dc.lft.to/lastmile_qr_scan"}, "lon": -77.00757816666666, "type": "electric_scooter", "fusion_lat": 0.0, "lat": 38.91028683333333, "name": "7336334410d2086da531111cc5775472", "fusion_lon": 0.0, "bike_id": "7336334410d2086da531111cc5775472", "is_disabled": 0, "is_reserved": 0}, {"rental_uris": {"ios": "https://dc.lft.to/lastmile_qr_scan", "android": "https://dc.lft.to/lastmile_qr_scan"}, "lon": -77.03171916666666, "type": "electric_scooter", "fusion_lat": 0.0, "lat": 38.89964783333333, "name": "5628cf8fd213c6d3a2caf8bd2c4e97b5", "fusion_lon": 0.0, "bike_id": "5628cf8fd213c6d3a2caf8bd2c4e97b5", "is_disabled": 0, "is_reserved": 0}, {"rental_uris": {"ios": "https://dc.lft.to/lastmile_qr_scan", "android": "https://dc.lft.to/lastmile_qr_scan"}, "lon": -76.9662585, "type": "electric_bike", "fusion_lat": 0.0, "lat": 38.942035833333335, "name": "f700ea9cacfa643e3654f0983e8a7605", "fusion_lon": 0.0, "bike_id": "f700ea9cacfa643e3654f0983e8a7605", "is_disabled": 0, "is_reserved": 0}, {"rental_uris": {"ios": "https://dc.lft.to/lastmile_qr_scan", "android": "https://dc.lft.to/lastmile_qr_scan"}, "lon": -77.02781466666667, "type": "electric_scooter", "fusion_lat": 0.0, "lat": 38.892211, "name": "0c030dfe4042076e5665bec72139766e", "fusion_lon": 0.0, "bike_id": "0c030dfe4042076e5665bec72139766e", "is_disabled": 0, "is_reserved": 0}, {"rental_uris": {"ios": "https://dc.lft.to/lastmile_qr_scan", "android": "https://dc.lft.to/lastmile_qr_scan"}, "lon": -76.92887283333333, "type": "electric_scooter", "fusion_lat": 0.0, "lat": 38.893292, "name": "c531478220c833a512964b0c1e68a5ab", "fusion_lon": 0.0, "bike_id": "c531478220c833a512964b0c1e68a5ab", "is_disabled": 0, "is_reserved": 0}, {"rental_uris": {"ios": "https://dc.lft.to/lastmile_qr_scan", "android": "https://dc.lft.to/lastmile_qr_scan"}, "lon": -77.00119183333334, "type": "electric_scooter", "fusion_lat": 0.0, "lat": 38.903805166666665, "name": "c149e2305a216f362713d1568e6b98e6", "fusion_lon": 0.0, "bike_id": "c149e2305a216f362713d1568e6b98e6", "is_disabled": 0, "is_reserved": 0}, {"rental_uris": {"ios": "https://dc.lft.to/lastmile_qr_scan", "android": "https://dc.lft.to/lastmile_qr_scan"}, "lon": -77.02696916666666, "type": "electric_scooter", "fusion_lat": 0.0, "lat": 38.94978016666666, "name": "a62a9452b2df8c2bf29630bfeeb4554f", "fusion_lon": 0.0, "bike_id": "a62a9452b2df8c2bf29630bfeeb4554f", "is_disabled": 0, "is_reserved": 0}, {"rental_uris": {"ios": "https://dc.lft.to/lastmile_qr_scan", "android": "https://dc.lft.to/lastmile_qr_scan"}, "lon": -77.04609083333334, "type": "electric_scooter", "fusion_lat": 0.0, "lat": 38.90387233333333, "name": "390c448407f895b58f6691bf586cc996", "fusion_lon": 0.0, "bike_id": "390c448407f895b58f6691bf586cc996", "is_disabled": 0, "is_reserved": 0}, {"rental_uris": {"ios": "https://dc.lft.to/lastmile_qr_scan", "android": "https://dc.lft.to/lastmile_qr_scan"}, "lon": -77.0088575, "type": "electric_scooter", "fusion_lat": 0.0, "lat": 38.8784215, "name": "72b96cad4b00b0134e8cdcb88cd9ecc2", "fusion_lon": 0.0, "bike_id": "72b96cad4b00b0134e8cdcb88cd9ecc2", "is_disabled": 0, "is_reserved": 0}, {"rental_uris": {"ios": "https://dc.lft.to/lastmile_qr_scan", "android": "https://dc.lft.to/lastmile_qr_scan"}, "lon": -77.02135883333334, "type": "electric_scooter", "fusion_lat": 0.0, "lat": 38.8949685, "name": "705db0d2d9775773d288c3b1f225aaa0", "fusion_lon": 0.0, "bike_id": "705db0d2d9775773d288c3b1f225aaa0", "is_disabled": 0, "is_reserved": 0}, {"rental_uris": {"ios": "https://dc.lft.to/lastmile_qr_scan", "android": "https://dc.lft.to/lastmile_qr_scan"}, "lon": -76.95748833333333, "type": "electric_scooter", "fusion_lat": 0.0, "lat": 38.8842595, "name": "088affc95ebcf1ae02041b00bc8944ad", "fusion_lon": 0.0, "bike_id": "088affc95ebcf1ae02041b00bc8944ad", "is_disabled": 0, "is_reserved": 0}, {"rental_uris": {"ios": "https://dc.lft.to/lastmile_qr_scan", "android": "https://dc.lft.to/lastmile_qr_scan"}, "lon": -77.05906083333333, "type": "electric_bike", "fusion_lat": 0.0, "lat": 38.902308833333336, "name": "a50374aa1488d9f31044d29d229b5089", "fusion_lon": 0.0, "bike_id": "a50374aa1488d9f31044d29d229b5089", "is_disabled": 0, "is_reserved": 0}, {"rental_uris": {"ios": "https://dc.lft.to/lastmile_qr_scan", "android": "https://dc.lft.to/lastmile_qr_scan"}, "lon": -77.0566645, "type": "electric_scooter", "fusion_lat": 0.0, "lat": 38.9052705, "name": "4f9bce6483d0331daba5a3ee66f9c44a", "fusion_lon": 0.0, "bike_id": "4f9bce6483d0331daba5a3ee66f9c44a", "is_disabled": 0, "is_reserved": 0}, {"rental_uris": {"ios": "https://dc.lft.to/lastmile_qr_scan", "android": "https://dc.lft.to/lastmile_qr_scan"}, "lon": -77.06301183333333, "type": "electric_scooter", "fusion_lat": 0.0, "lat": 38.9066695, "name": "6707caf7119fcfb41cd7947c9f1d0386", "fusion_lon": 0.0, "bike_id": "6707caf7119fcfb41cd7947c9f1d0386", "is_disabled": 0, "is_reserved": 0}, {"rental_uris": {"ios": "https://dc.lft.to/lastmile_qr_scan", "android": "https://dc.lft.to/lastmile_qr_scan"}, "lon": -76.981285, "type": "electric_scooter", "fusion_lat": 0.0, "lat": 38.85712866666667, "name": "3417b0e9b8160dd5bcc688355d77999c", "fusion_lon": 0.0, "bike_id": "3417b0e9b8160dd5bcc688355d77999c", "is_disabled": 0, "is_reserved": 0}, {"rental_uris": {"ios": "https://dc.lft.to/lastmile_qr_scan", "android": "https://dc.lft.to/lastmile_qr_scan"}, "lon": -77.0547245, "type": "electric_scooter", "fusion_lat": 0.0, "lat": 38.91062216666667, "name": "d1411a0dba0fce116d2f0d12508da4ef", "fusion_lon": 0.0, "bike_id": "d1411a0dba0fce116d2f0d12508da4ef", "is_disabled": 0, "is_reserved": 0}, {"rental_uris": {"ios": "https://dc.lft.to/lastmile_qr_scan", "android": "https://dc.lft.to/lastmile_qr_scan"}, "lon": -77.02287766666667, "type": "electric_scooter", "fusion_lat": 0.0, "lat": 38.897108833333334, "name": "987dde492773a9c62988ed1be7115d9e", "fusion_lon": 0.0, "bike_id": "987dde492773a9c62988ed1be7115d9e", "is_disabled": 0, "is_reserved": 0}, {"rental_uris": {"ios": "https://dc.lft.to/lastmile_qr_scan", "android": "https://dc.lft.to/lastmile_qr_scan"}, "lon": -77.08043233333333, "type": "electric_bike", "fusion_lat": 0.0, "lat": 38.848490166666664, "name": "c005441bc09760fd6b3b9df44f98418f", "fusion_lon": 0.0, "bike_id": "c005441bc09760fd6b3b9df44f98418f", "is_disabled": 0, "is_reserved": 0}, {"rental_uris": {"ios": "https://dc.lft.to/lastmile_qr_scan", "android": "https://dc.lft.to/lastmile_qr_scan"}, "lon": -77.04710816666666, "type": "electric_scooter", "fusion_lat": 0.0, "lat": 38.89962883333333, "name": "424760e66eb189e55f8c22b8024d0003", "fusion_lon": 0.0, "bike_id": "424760e66eb189e55f8c22b8024d0003", "is_disabled": 0, "is_reserved": 0}, {"rental_uris": {"ios": "https://dc.lft.to/lastmile_qr_scan", "android": "https://dc.lft.to/lastmile_qr_scan"}, "lon": -76.99458116666666, "type": "electric_scooter", "fusion_lat": 0.0, "lat": 38.85163633333333, "name": "0d13e7829bab3b239ddff7e7ead45e15", "fusion_lon": 0.0, "bike_id": "0d13e7829bab3b239ddff7e7ead45e15", "is_disabled": 0, "is_reserved": 0}, {"rental_uris": {"ios": "https://dc.lft.to/lastmile_qr_scan", "android": "https://dc.lft.to/lastmile_qr_scan"}, "lon": -76.98606866666667, "type": "electric_scooter", "fusion_lat": 0.0, "lat": 38.878404, "name": "ecb727ef902521aff6abbe4d752fd4c3", "fusion_lon": 0.0, "bike_id": "ecb727ef902521aff6abbe4d752fd4c3", "is_disabled": 0, "is_reserved": 0}, {"rental_uris": {"ios": "https://dc.lft.to/lastmile_qr_scan", "android": "https://dc.lft.to/lastmile_qr_scan"}, "lon": -77.05542383333334, "type": "electric_scooter", "fusion_lat": 0.0, "lat": 38.925300166666666, "name": "4e1b738da036baf7c30d7914ed4e4bdf", "fusion_lon": 0.0, "bike_id": "4e1b738da036baf7c30d7914ed4e4bdf", "is_disabled": 0, "is_reserved": 0}, {"rental_uris": {"ios": "https://dc.lft.to/lastmile_qr_scan", "android": "https://dc.lft.to/lastmile_qr_scan"}, "lon": -77.00434216666666, "type": "electric_scooter", "fusion_lat": 0.0, "lat": 38.918335, "name": "63ed7313eed262ccf2da1a7a3058cbe8", "fusion_lon": 0.0, "bike_id": "63ed7313eed262ccf2da1a7a3058cbe8", "is_disabled": 0, "is_reserved": 0}, {"rental_uris": {"ios": "https://dc.lft.to/lastmile_qr_scan", "android": "https://dc.lft.to/lastmile_qr_scan"}, "lon": -77.03558533333333, "type": "electric_scooter", "fusion_lat": 0.0, "lat": 38.939851166666664, "name": "687aa3d5752ccfccd3eb611aae02031a", "fusion_lon": 0.0, "bike_id": "687aa3d5752ccfccd3eb611aae02031a", "is_disabled": 0, "is_reserved": 0}, {"rental_uris": {"ios": "https://dc.lft.to/lastmile_qr_scan", "android": "https://dc.lft.to/lastmile_qr_scan"}, "lon": -77.03963083333333, "type": "electric_scooter", "fusion_lat": 0.0, "lat": 38.89905066666667, "name": "25e8258cfc2c4f504e61df2774bfd795", "fusion_lon": 0.0, "bike_id": "25e8258cfc2c4f504e61df2774bfd795", "is_disabled": 0, "is_reserved": 0}, {"rental_uris": {"ios": "https://dc.lft.to/lastmile_qr_scan", "android": "https://dc.lft.to/lastmile_qr_scan"}, "lon": -76.939654, "type": "electric_scooter", "fusion_lat": 0.0, "lat": 38.89967633333333, "name": "1b5582389443226a69dfa8b9cd31d09e", "fusion_lon": 0.0, "bike_id": "1b5582389443226a69dfa8b9cd31d09e", "is_disabled": 0, "is_reserved": 0}, {"rental_uris": {"ios": "https://dc.lft.to/lastmile_qr_scan", "android": "https://dc.lft.to/lastmile_qr_scan"}, "lon": -77.03180666666667, "type": "electric_scooter", "fusion_lat": 0.0, "lat": 38.9097195, "name": "add9121509872c8582a02e25760967aa", "fusion_lon": 0.0, "bike_id": "add9121509872c8582a02e25760967aa", "is_disabled": 0, "is_reserved": 0}, {"rental_uris": {"ios": "https://dc.lft.to/lastmile_qr_scan", "android": "https://dc.lft.to/lastmile_qr_scan"}, "lon": -77.03215833333333, "type": "electric_scooter", "fusion_lat": 0.0, "lat": 38.933818, "name": "6a9df1abd7deb0844a5f6e95e998bf19", "fusion_lon": 0.0, "bike_id": "6a9df1abd7deb0844a5f6e95e998bf19", "is_disabled": 0, "is_reserved": 0}, {"rental_uris": {"ios": "https://dc.lft.to/lastmile_qr_scan", "android": "https://dc.lft.to/lastmile_qr_scan"}, "lon": -77.01122466666666, "type": "electric_scooter", "fusion_lat": 0.0, "lat": 38.9126835, "name": "22ef2208aa2ae5c2c2cee0720215c052", "fusion_lon": 0.0, "bike_id": "22ef2208aa2ae5c2c2cee0720215c052", "is_disabled": 0, "is_reserved": 0}, {"rental_uris": {"ios": "https://dc.lft.to/lastmile_qr_scan", "android": "https://dc.lft.to/lastmile_qr_scan"}, "lon": -77.04193283333333, "type": "electric_scooter", "fusion_lat": 0.0, "lat": 38.91669383333333, "name": "07990d64d6c6ed15615eaaa09d2f0d39", "fusion_lon": 0.0, "bike_id": "07990d64d6c6ed15615eaaa09d2f0d39", "is_disabled": 0, "is_reserved": 0}, {"rental_uris": {"ios": "https://dc.lft.to/lastmile_qr_scan", "android": "https://dc.lft.to/lastmile_qr_scan"}, "lon": -77.032067, "type": "electric_scooter", "fusion_lat": 0.0, "lat": 38.90990566666667, "name": "a730d9e04458baf1039d073182c4e73b", "fusion_lon": 0.0, "bike_id": "a730d9e04458baf1039d073182c4e73b", "is_disabled": 0, "is_reserved": 0}, {"rental_uris": {"ios": "https://dc.lft.to/lastmile_qr_scan", "android": "https://dc.lft.to/lastmile_qr_scan"}, "lon": -76.97213716666667, "type": "electric_bike", "fusion_lat": 0.0, "lat": 38.844800166666666, "name": "7a071364017ce1c5c7845c21830c285e", "fusion_lon": 0.0, "bike_id": "7a071364017ce1c5c7845c21830c285e", "is_disabled": 0, "is_reserved": 0}, {"rental_uris": {"ios": "https://dc.lft.to/lastmile_qr_scan", "android": "https://dc.lft.to/lastmile_qr_scan"}, "lon": -76.94438816666667, "type": "electric_bike", "fusion_lat": 0.0, "lat": 38.9029855, "name": "bdfd5fdc22d583567632db4cf473adbb", "fusion_lon": 0.0, "bike_id": "bdfd5fdc22d583567632db4cf473adbb", "is_disabled": 0, "is_reserved": 0}, {"rental_uris": {"ios": "https://dc.lft.to/lastmile_qr_scan", "android": "https://dc.lft.to/lastmile_qr_scan"}, "lon": -77.04839933333334, "type": "electric_scooter", "fusion_lat": 0.0, "lat": 38.90377866666667, "name": "2bf46394bd6bef30c606ebd427ae15ca", "fusion_lon": 0.0, "bike_id": "2bf46394bd6bef30c606ebd427ae15ca", "is_disabled": 0, "is_reserved": 0}, {"rental_uris": {"ios": "https://dc.lft.to/lastmile_qr_scan", "android": "https://dc.lft.to/lastmile_qr_scan"}, "lon": -77.05930183333334, "type": "electric_scooter", "fusion_lat": 0.0, "lat": 38.9095405, "name": "72d515c291f0b1f11174cf47732480b4", "fusion_lon": 0.0, "bike_id": "72d515c291f0b1f11174cf47732480b4", "is_disabled": 0, "is_reserved": 0}, {"rental_uris": {"ios": "https://dc.lft.to/lastmile_qr_scan", "android": "https://dc.lft.to/lastmile_qr_scan"}, "lon": -77.02841333333333, "type": "electric_scooter", "fusion_lat": 0.0, "lat": 38.928605166666664, "name": "5490072f06c7047aa113bd6f5bf08758", "fusion_lon": 0.0, "bike_id": "5490072f06c7047aa113bd6f5bf08758", "is_disabled": 0, "is_reserved": 0}, {"rental_uris": {"ios": "https://dc.lft.to/lastmile_qr_scan", "android": "https://dc.lft.to/lastmile_qr_scan"}, "lon": -77.02309683333333, "type": "electric_scooter", "fusion_lat": 0.0, "lat": 38.91621966666666, "name": "450c24c1f349a686acef41cf0de466d1", "fusion_lon": 0.0, "bike_id": "450c24c1f349a686acef41cf0de466d1", "is_disabled": 0, "is_reserved": 0}, {"rental_uris": {"ios": "https://dc.lft.to/lastmile_qr_scan", "android": "https://dc.lft.to/lastmile_qr_scan"}, "lon": -77.01011316666667, "type": "electric_scooter", "fusion_lat": 0.0, "lat": 38.9181855, "name": "67be728775cb4a1671e571f4c179dd69", "fusion_lon": 0.0, "bike_id": "67be728775cb4a1671e571f4c179dd69", "is_disabled": 0, "is_reserved": 0}, {"rental_uris": {"ios": "https://dc.lft.to/lastmile_qr_scan", "android": "https://dc.lft.to/lastmile_qr_scan"}, "lon": -77.024546, "type": "electric_scooter", "fusion_lat": 0.0, "lat": 38.937112166666665, "name": "31f1769adf8a38e8b238f19cc2c3a761", "fusion_lon": 0.0, "bike_id": "31f1769adf8a38e8b238f19cc2c3a761", "is_disabled": 0, "is_reserved": 0}, {"rental_uris": {"ios": "https://dc.lft.to/lastmile_qr_scan", "android": "https://dc.lft.to/lastmile_qr_scan"}, "lon": -76.98991616666666, "type": "electric_scooter", "fusion_lat": 0.0, "lat": 38.903912166666665, "name": "65ecb00c9e808ccf691e653d27b7ccea", "fusion_lon": 0.0, "bike_id": "65ecb00c9e808ccf691e653d27b7ccea", "is_disabled": 0, "is_reserved": 0}, {"rental_uris": {"ios": "https://dc.lft.to/lastmile_qr_scan", "android": "https://dc.lft.to/lastmile_qr_scan"}, "lon": -77.03183916666667, "type": "electric_scooter", "fusion_lat": 0.0, "lat": 38.89966066666667, "name": "69859f76205d5d8e97615f762cc8effb", "fusion_lon": 0.0, "bike_id": "69859f76205d5d8e97615f762cc8effb", "is_disabled": 0, "is_reserved": 0}, {"rental_uris": {"ios": "https://dc.lft.to/lastmile_qr_scan", "android": "https://dc.lft.to/lastmile_qr_scan"}, "lon": -77.0426345, "type": "electric_scooter", "fusion_lat": 0.0, "lat": 38.895908, "name": "037bd29ce8fc0e1f0030bf4938acf16e", "fusion_lon": 0.0, "bike_id": "037bd29ce8fc0e1f0030bf4938acf16e", "is_disabled": 0, "is_reserved": 0}, {"rental_uris": {"ios": "https://dc.lft.to/lastmile_qr_scan", "android": "https://dc.lft.to/lastmile_qr_scan"}, "lon": -77.02417783333334, "type": "electric_scooter", "fusion_lat": 0.0, "lat": 38.9265685, "name": "d36e2b82b3f35523ebdbee9ccedfaa56", "fusion_lon": 0.0, "bike_id": "d36e2b82b3f35523ebdbee9ccedfaa56", "is_disabled": 0, "is_reserved": 0}, {"rental_uris": {"ios": "https://dc.lft.to/lastmile_qr_scan", "android": "https://dc.lft.to/lastmile_qr_scan"}, "lon": -77.05383283333333, "type": "electric_scooter", "fusion_lat": 0.0, "lat": 38.902607333333336, "name": "beadaa8ecd0d0e5181c30b8e8617c576", "fusion_lon": 0.0, "bike_id": "beadaa8ecd0d0e5181c30b8e8617c576", "is_disabled": 0, "is_reserved": 0}, {"rental_uris": {"ios": "https://dc.lft.to/lastmile_qr_scan", "android": "https://dc.lft.to/lastmile_qr_scan"}, "lon": -76.9927635, "type": "electric_scooter", "fusion_lat": 0.0, "lat": 38.921355166666665, "name": "e12dcf84052c81c661eb827426b27c54", "fusion_lon": 0.0, "bike_id": "e12dcf84052c81c661eb827426b27c54", "is_disabled": 0, "is_reserved": 0}, {"rental_uris": {"ios": "https://dc.lft.to/lastmile_qr_scan", "android": "https://dc.lft.to/lastmile_qr_scan"}, "lon": -77.016848, "type": "electric_bike", "fusion_lat": 0.0, "lat": 38.975222, "name": "0f0140ba86d27391e6f212d07e2e2c67", "fusion_lon": 0.0, "bike_id": "0f0140ba86d27391e6f212d07e2e2c67", "is_disabled": 0, "is_reserved": 0}, {"rental_uris": {"ios": "https://dc.lft.to/lastmile_qr_scan", "android": "https://dc.lft.to/lastmile_qr_scan"}, "lon": -77.06398866666666, "type": "electric_bike", "fusion_lat": 0.0, "lat": 38.8434975, "name": "bd11e95b64dfb795c0468c2137931046", "fusion_lon": 0.0, "bike_id": "bd11e95b64dfb795c0468c2137931046", "is_disabled": 0, "is_reserved": 0}, {"rental_uris": {"ios": "https://dc.lft.to/lastmile_qr_scan", "android": "https://dc.lft.to/lastmile_qr_scan"}, "lon": -77.02953966666666, "type": "electric_scooter", "fusion_lat": 0.0, "lat": 38.90505816666666, "name": "74617191a78a09414340e50b7cac49a0", "fusion_lon": 0.0, "bike_id": "74617191a78a09414340e50b7cac49a0", "is_disabled": 0, "is_reserved": 0}, {"rental_uris": {"ios": "https://dc.lft.to/lastmile_qr_scan", "android": "https://dc.lft.to/lastmile_qr_scan"}, "lon": -77.1262455, "type": "electric_bike", "fusion_lat": 0.0, "lat": 39.05812683333333, "name": "4831dccc6cdc5bf92c6c5fa4088efad7", "fusion_lon": 0.0, "bike_id": "4831dccc6cdc5bf92c6c5fa4088efad7", "is_disabled": 0, "is_reserved": 0}, {"rental_uris": {"ios": "https://dc.lft.to/lastmile_qr_scan", "android": "https://dc.lft.to/lastmile_qr_scan"}, "lon": -77.01400483333333, "type": "electric_scooter", "fusion_lat": 0.0, "lat": 38.9282825, "name": "9fcaf13b624d8bf568faec5606deb66c", "fusion_lon": 0.0, "bike_id": "9fcaf13b624d8bf568faec5606deb66c", "is_disabled": 0, "is_reserved": 0}, {"rental_uris": {"ios": "https://dc.lft.to/lastmile_qr_scan", "android": "https://dc.lft.to/lastmile_qr_scan"}, "lon": -77.1784005, "type": "electric_bike", "fusion_lat": 0.0, "lat": 39.089027333333334, "name": "0104c33b07b5ca708cc80cd3e91fb47c", "fusion_lon": 0.0, "bike_id": "0104c33b07b5ca708cc80cd3e91fb47c", "is_disabled": 0, "is_reserved": 0}, {"rental_uris": {"ios": "https://dc.lft.to/lastmile_qr_scan", "android": "https://dc.lft.to/lastmile_qr_scan"}, "lon": -76.97830466666667, "type": "electric_bike", "fusion_lat": 0.0, "lat": 38.846158333333335, "name": "1ea2f105e897676ec9e898ce22f757fa", "fusion_lon": 0.0, "bike_id": "1ea2f105e897676ec9e898ce22f757fa", "is_disabled": 0, "is_reserved": 0}, {"rental_uris": {"ios": "https://dc.lft.to/lastmile_qr_scan", "android": "https://dc.lft.to/lastmile_qr_scan"}, "lon": -77.03467583333334, "type": "electric_scooter", "fusion_lat": 0.0, "lat": 38.91821433333333, "name": "088fb59cdc4bd47400f59b9c1f55ab31", "fusion_lon": 0.0, "bike_id": "088fb59cdc4bd47400f59b9c1f55ab31", "is_disabled": 0, "is_reserved": 0}, {"rental_uris": {"ios": "https://dc.lft.to/lastmile_qr_scan", "android": "https://dc.lft.to/lastmile_qr_scan"}, "lon": -77.04681216666667, "type": "electric_scooter", "fusion_lat": 0.0, "lat": 38.905422333333334, "name": "883ed863f0e85c82b4f8aff0e9d32024", "fusion_lon": 0.0, "bike_id": "883ed863f0e85c82b4f8aff0e9d32024", "is_disabled": 0, "is_reserved": 0}, {"rental_uris": {"ios": "https://dc.lft.to/lastmile_qr_scan", "android": "https://dc.lft.to/lastmile_qr_scan"}, "lon": -76.99899266666667, "type": "electric_bike", "fusion_lat": 0.0, "lat": 38.953016166666664, "name": "5d4d7eb3f393604fc40047509fb066e5", "fusion_lon": 0.0, "bike_id": "5d4d7eb3f393604fc40047509fb066e5", "is_disabled": 0, "is_reserved": 0}, {"rental_uris": {"ios": "https://dc.lft.to/lastmile_qr_scan", "android": "https://dc.lft.to/lastmile_qr_scan"}, "lon": -77.04062066666667, "type": "electric_scooter", "fusion_lat": 0.0, "lat": 38.91776333333333, "name": "2ffce5de8269cad67bf7f06ef3fe0bd7", "fusion_lon": 0.0, "bike_id": "2ffce5de8269cad67bf7f06ef3fe0bd7", "is_disabled": 0, "is_reserved": 0}, {"rental_uris": {"ios": "https://dc.lft.to/lastmile_qr_scan", "android": "https://dc.lft.to/lastmile_qr_scan"}, "lon": -77.020729, "type": "electric_scooter", "fusion_lat": 0.0, "lat": 38.91546, "name": "beb05ff6a187a141c0922ba9df911986", "fusion_lon": 0.0, "bike_id": "beb05ff6a187a141c0922ba9df911986", "is_disabled": 0, "is_reserved": 0}, {"rental_uris": {"ios": "https://dc.lft.to/lastmile_qr_scan", "android": "https://dc.lft.to/lastmile_qr_scan"}, "lon": -77.04765533333334, "type": "electric_scooter", "fusion_lat": 0.0, "lat": 38.91253733333333, "name": "2afffc84ea8faa2760f6173644a4a8b6", "fusion_lon": 0.0, "bike_id": "2afffc84ea8faa2760f6173644a4a8b6", "is_disabled": 0, "is_reserved": 0}, {"rental_uris": {"ios": "https://dc.lft.to/lastmile_qr_scan", "android": "https://dc.lft.to/lastmile_qr_scan"}, "lon": -77.043328, "type": "electric_scooter", "fusion_lat": 0.0, "lat": 38.8922685, "name": "e4fadc1927d72a598080c88c5583dd55", "fusion_lon": 0.0, "bike_id": "e4fadc1927d72a598080c88c5583dd55", "is_disabled": 0, "is_reserved": 0}, {"rental_uris": {"ios": "https://dc.lft.to/lastmile_qr_scan", "android": "https://dc.lft.to/lastmile_qr_scan"}, "lon": -77.05041833333334, "type": "electric_scooter", "fusion_lat": 0.0, "lat": 38.92360816666667, "name": "155c131a5787bb220e1f6328f7935508", "fusion_lon": 0.0, "bike_id": "155c131a5787bb220e1f6328f7935508", "is_disabled": 0, "is_reserved": 0}, {"rental_uris": {"ios": "https://dc.lft.to/lastmile_qr_scan", "android": "https://dc.lft.to/lastmile_qr_scan"}, "lon": -77.00789133333333, "type": "electric_bike", "fusion_lat": 0.0, "lat": 38.9269505, "name": "a1c3edbacd39d517e0ea2854f314685d", "fusion_lon": 0.0, "bike_id": "a1c3edbacd39d517e0ea2854f314685d", "is_disabled": 0, "is_reserved": 0}, {"rental_uris": {"ios": "https://dc.lft.to/lastmile_qr_scan", "android": "https://dc.lft.to/lastmile_qr_scan"}, "lon": -77.03179183333333, "type": "electric_scooter", "fusion_lat": 0.0, "lat": 38.88733283333333, "name": "760be7e23b6856c03a5100c7c7c088e8", "fusion_lon": 0.0, "bike_id": "760be7e23b6856c03a5100c7c7c088e8", "is_disabled": 0, "is_reserved": 0}, {"rental_uris": {"ios": "https://dc.lft.to/lastmile_qr_scan", "android": "https://dc.lft.to/lastmile_qr_scan"}, "lon": -77.05214083333334, "type": "electric_scooter", "fusion_lat": 0.0, "lat": 38.8981375, "name": "8aa22ea8cd12d6b737239cfa53422b4e", "fusion_lon": 0.0, "bike_id": "8aa22ea8cd12d6b737239cfa53422b4e", "is_disabled": 0, "is_reserved": 0}, {"rental_uris": {"ios": "https://dc.lft.to/lastmile_qr_scan", "android": "https://dc.lft.to/lastmile_qr_scan"}, "lon": -77.36095816666666, "type": "electric_bike", "fusion_lat": 0.0, "lat": 38.9395685, "name": "971f19a915f4a47babcb1ec1c5f29b16", "fusion_lon": 0.0, "bike_id": "971f19a915f4a47babcb1ec1c5f29b16", "is_disabled": 0, "is_reserved": 0}, {"rental_uris": {"ios": "https://dc.lft.to/lastmile_qr_scan", "android": "https://dc.lft.to/lastmile_qr_scan"}, "lon": -76.98366783333333, "type": "electric_bike", "fusion_lat": 0.0, "lat": 38.90225483333333, "name": "8c478c59a8d7b6a1127f81b5322877b8", "fusion_lon": 0.0, "bike_id": "8c478c59a8d7b6a1127f81b5322877b8", "is_disabled": 0, "is_reserved": 0}, {"rental_uris": {"ios": "https://dc.lft.to/lastmile_qr_scan", "android": "https://dc.lft.to/lastmile_qr_scan"}, "lon": -77.05322083333333, "type": "electric_scooter", "fusion_lat": 0.0, "lat": 38.900246833333334, "name": "0a4427d4fcb214a8983a678726ad4fc2", "fusion_lon": 0.0, "bike_id": "0a4427d4fcb214a8983a678726ad4fc2", "is_disabled": 0, "is_reserved": 0}, {"rental_uris": {"ios": "https://dc.lft.to/lastmile_qr_scan", "android": "https://dc.lft.to/lastmile_qr_scan"}, "lon": -77.028128, "type": "electric_scooter", "fusion_lat": 0.0, "lat": 38.89240016666667, "name": "b7242b2f70e99f677b829e4fd2afe214", "fusion_lon": 0.0, "bike_id": "b7242b2f70e99f677b829e4fd2afe214", "is_disabled": 0, "is_reserved": 0}, {"rental_uris": {"ios": "https://dc.lft.to/lastmile_qr_scan", "android": "https://dc.lft.to/lastmile_qr_scan"}, "lon": -77.01979183333333, "type": "electric_scooter", "fusion_lat": 0.0, "lat": 38.886104, "name": "e5432af60c1903a580ef17b947bcf69b", "fusion_lon": 0.0, "bike_id": "e5432af60c1903a580ef17b947bcf69b", "is_disabled": 0, "is_reserved": 0}, {"rental_uris": {"ios": "https://dc.lft.to/lastmile_qr_scan", "android": "https://dc.lft.to/lastmile_qr_scan"}, "lon": -76.9798235, "type": "electric_bike", "fusion_lat": 0.0, "lat": 38.8775715, "name": "dcfae95577dd58ee095b3d3a55f4ac02", "fusion_lon": 0.0, "bike_id": "dcfae95577dd58ee095b3d3a55f4ac02", "is_disabled": 0, "is_reserved": 0}, {"rental_uris": {"ios": "https://dc.lft.to/lastmile_qr_scan", "android": "https://dc.lft.to/lastmile_qr_scan"}, "lon": -77.0092745, "type": "electric_scooter", "fusion_lat": 0.0, "lat": 38.902451, "name": "96eaf3cc97dbbf265ea8492c909a33eb", "fusion_lon": 0.0, "bike_id": "96eaf3cc97dbbf265ea8492c909a33eb", "is_disabled": 0, "is_reserved": 0}, {"rental_uris": {"ios": "https://dc.lft.to/lastmile_qr_scan", "android": "https://dc.lft.to/lastmile_qr_scan"}, "lon": -77.04631216666667, "type": "electric_scooter", "fusion_lat": 0.0, "lat": 38.915207, "name": "0b9176eb77d66446bfa0e8c0936f7e25", "fusion_lon": 0.0, "bike_id": "0b9176eb77d66446bfa0e8c0936f7e25", "is_disabled": 0, "is_reserved": 0}, {"rental_uris": {"ios": "https://dc.lft.to/lastmile_qr_scan", "android": "https://dc.lft.to/lastmile_qr_scan"}, "lon": -77.03840933333333, "type": "electric_scooter", "fusion_lat": 0.0, "lat": 38.931118166666664, "name": "f7492adbe1fa5377efc5f19d52f3cc6d", "fusion_lon": 0.0, "bike_id": "f7492adbe1fa5377efc5f19d52f3cc6d", "is_disabled": 0, "is_reserved": 0}, {"rental_uris": {"ios": "https://dc.lft.to/lastmile_qr_scan", "android": "https://dc.lft.to/lastmile_qr_scan"}, "lon": -77.01631333333333, "type": "electric_scooter", "fusion_lat": 0.0, "lat": 38.9294235, "name": "c7d89f10e6f99311bc080ccf627ec071", "fusion_lon": 0.0, "bike_id": "c7d89f10e6f99311bc080ccf627ec071", "is_disabled": 0, "is_reserved": 0}, {"rental_uris": {"ios": "https://dc.lft.to/lastmile_qr_scan", "android": "https://dc.lft.to/lastmile_qr_scan"}, "lon": -77.037733, "type": "electric_scooter", "fusion_lat": 0.0, "lat": 38.936089833333334, "name": "c84d743a4c4f7fbcb4940d5d430c2dba", "fusion_lon": 0.0, "bike_id": "c84d743a4c4f7fbcb4940d5d430c2dba", "is_disabled": 0, "is_reserved": 0}, {"rental_uris": {"ios": "https://dc.lft.to/lastmile_qr_scan", "android": "https://dc.lft.to/lastmile_qr_scan"}, "lon": -77.06364566666667, "type": "electric_scooter", "fusion_lat": 0.0, "lat": 38.90930566666667, "name": "618144bf481119ef12dbd408338a0386", "fusion_lon": 0.0, "bike_id": "618144bf481119ef12dbd408338a0386", "is_disabled": 0, "is_reserved": 0}, {"rental_uris": {"ios": "https://dc.lft.to/lastmile_qr_scan", "android": "https://dc.lft.to/lastmile_qr_scan"}, "lon": -77.04153883333333, "type": "electric_scooter", "fusion_lat": 0.0, "lat": 38.91031016666667, "name": "0f53ef2bca1b81c9b38f3d81418966b2", "fusion_lon": 0.0, "bike_id": "0f53ef2bca1b81c9b38f3d81418966b2", "is_disabled": 0, "is_reserved": 0}, {"rental_uris": {"ios": "https://dc.lft.to/lastmile_qr_scan", "android": "https://dc.lft.to/lastmile_qr_scan"}, "lon": -77.0693325, "type": "electric_scooter", "fusion_lat": 0.0, "lat": 38.905117, "name": "3a8b8f04be0dc3a44c8ae2fed2b34861", "fusion_lon": 0.0, "bike_id": "3a8b8f04be0dc3a44c8ae2fed2b34861", "is_disabled": 0, "is_reserved": 0}, {"rental_uris": {"ios": "https://dc.lft.to/lastmile_qr_scan", "android": "https://dc.lft.to/lastmile_qr_scan"}, "lon": -76.9969595, "type": "electric_scooter", "fusion_lat": 0.0, "lat": 38.90793466666667, "name": "5e434773ab302ae8e187eb16e4ba5fcf", "fusion_lon": 0.0, "bike_id": "5e434773ab302ae8e187eb16e4ba5fcf", "is_disabled": 0, "is_reserved": 0}, {"rental_uris": {"ios": "https://dc.lft.to/lastmile_qr_scan", "android": "https://dc.lft.to/lastmile_qr_scan"}, "lon": -77.02174383333333, "type": "electric_bike", "fusion_lat": 0.0, "lat": 38.892534166666664, "name": "fc4feadfbe89d4eb251c0a7d521d66e9", "fusion_lon": 0.0, "bike_id": "fc4feadfbe89d4eb251c0a7d521d66e9", "is_disabled": 0, "is_reserved": 0}, {"rental_uris": {"ios": "https://dc.lft.to/lastmile_qr_scan", "android": "https://dc.lft.to/lastmile_qr_scan"}, "lon": -77.0698105, "type": "electric_scooter", "fusion_lat": 0.0, "lat": 38.95486116666667, "name": "9d430b3afc9ff299ff975f9357d0c05f", "fusion_lon": 0.0, "bike_id": "9d430b3afc9ff299ff975f9357d0c05f", "is_disabled": 0, "is_reserved": 0}, {"rental_uris": {"ios": "https://dc.lft.to/lastmile_qr_scan", "android": "https://dc.lft.to/lastmile_qr_scan"}, "lon": -77.00199266666667, "type": "electric_scooter", "fusion_lat": 0.0, "lat": 38.900339333333335, "name": "e84203ae76ffd5e010b43926dc21eb12", "fusion_lon": 0.0, "bike_id": "e84203ae76ffd5e010b43926dc21eb12", "is_disabled": 0, "is_reserved": 0}, {"rental_uris": {"ios": "https://dc.lft.to/lastmile_qr_scan", "android": "https://dc.lft.to/lastmile_qr_scan"}, "lon": -77.0396415, "type": "electric_scooter", "fusion_lat": 0.0, "lat": 38.89534783333333, "name": "32032ec57f0c9760c48a2ffb47e1c023", "fusion_lon": 0.0, "bike_id": "32032ec57f0c9760c48a2ffb47e1c023", "is_disabled": 0, "is_reserved": 0}, {"rental_uris": {"ios": "https://dc.lft.to/lastmile_qr_scan", "android": "https://dc.lft.to/lastmile_qr_scan"}, "lon": -76.99499066666667, "type": "electric_bike", "fusion_lat": 0.0, "lat": 39.0000265, "name": "ebc67af17f90b152c278c75cd6e748b6", "fusion_lon": 0.0, "bike_id": "ebc67af17f90b152c278c75cd6e748b6", "is_disabled": 0, "is_reserved": 0}, {"rental_uris": {"ios": "https://dc.lft.to/lastmile_qr_scan", "android": "https://dc.lft.to/lastmile_qr_scan"}, "lon": -77.00419583333333, "type": "electric_scooter", "fusion_lat": 0.0, "lat": 38.90559616666667, "name": "29797fcde4cf9158eef7d243637688a9", "fusion_lon": 0.0, "bike_id": "29797fcde4cf9158eef7d243637688a9", "is_disabled": 0, "is_reserved": 0}, {"rental_uris": {"ios": "https://dc.lft.to/lastmile_qr_scan", "android": "https://dc.lft.to/lastmile_qr_scan"}, "lon": -77.05149666666667, "type": "electric_scooter", "fusion_lat": 0.0, "lat": 38.901239833333335, "name": "f7952406eda732d2623780f4c0ad87d1", "fusion_lon": 0.0, "bike_id": "f7952406eda732d2623780f4c0ad87d1", "is_disabled": 0, "is_reserved": 0}, {"rental_uris": {"ios": "https://dc.lft.to/lastmile_qr_scan", "android": "https://dc.lft.to/lastmile_qr_scan"}, "lon": -76.9652825, "type": "electric_scooter", "fusion_lat": 0.0, "lat": 38.8786695, "name": "4fb8cb5074d29386d2ac89dd46e4e9c2", "fusion_lon": 0.0, "bike_id": "4fb8cb5074d29386d2ac89dd46e4e9c2", "is_disabled": 0, "is_reserved": 0}, {"rental_uris": {"ios": "https://dc.lft.to/lastmile_qr_scan", "android": "https://dc.lft.to/lastmile_qr_scan"}, "lon": -76.99978333333334, "type": "electric_scooter", "fusion_lat": 0.0, "lat": 38.83838383333333, "name": "da251fb809b0734c9fcaada32a71acb9", "fusion_lon": 0.0, "bike_id": "da251fb809b0734c9fcaada32a71acb9", "is_disabled": 0, "is_reserved": 0}, {"rental_uris": {"ios": "https://dc.lft.to/lastmile_qr_scan", "android": "https://dc.lft.to/lastmile_qr_scan"}, "lon": -77.06942816666667, "type": "electric_scooter", "fusion_lat": 0.0, "lat": 38.905013333333336, "name": "7fbea8711f045edd113a735a17f6294e", "fusion_lon": 0.0, "bike_id": "7fbea8711f045edd113a735a17f6294e", "is_disabled": 0, "is_reserved": 0}, {"rental_uris": {"ios": "https://dc.lft.to/lastmile_qr_scan", "android": "https://dc.lft.to/lastmile_qr_scan"}, "lon": -77.04265966666667, "type": "electric_scooter", "fusion_lat": 0.0, "lat": 38.9224265, "name": "c0e5a7d851546c4922aa8975f05d4595", "fusion_lon": 0.0, "bike_id": "c0e5a7d851546c4922aa8975f05d4595", "is_disabled": 0, "is_reserved": 0}, {"rental_uris": {"ios": "https://dc.lft.to/lastmile_qr_scan", "android": "https://dc.lft.to/lastmile_qr_scan"}, "lon": -77.04862216666666, "type": "electric_scooter", "fusion_lat": 0.0, "lat": 38.892221, "name": "6317dcc2f8e692a7f60fc0146091c5aa", "fusion_lon": 0.0, "bike_id": "6317dcc2f8e692a7f60fc0146091c5aa", "is_disabled": 0, "is_reserved": 0}, {"rental_uris": {"ios": "https://dc.lft.to/lastmile_qr_scan", "android": "https://dc.lft.to/lastmile_qr_scan"}, "lon": -77.03642066666667, "type": "electric_scooter", "fusion_lat": 0.0, "lat": 38.90285466666667, "name": "b33de71282acaaffb188902b6b3d4b21", "fusion_lon": 0.0, "bike_id": "b33de71282acaaffb188902b6b3d4b21", "is_disabled": 0, "is_reserved": 0}, {"rental_uris": {"ios": "https://dc.lft.to/lastmile_qr_scan", "android": "https://dc.lft.to/lastmile_qr_scan"}, "lon": -77.01179533333334, "type": "electric_scooter", "fusion_lat": 0.0, "lat": 38.9002645, "name": "be7746d5f06dedab7fc9f8fc58ac2171", "fusion_lon": 0.0, "bike_id": "be7746d5f06dedab7fc9f8fc58ac2171", "is_disabled": 0, "is_reserved": 0}, {"rental_uris": {"ios": "https://dc.lft.to/lastmile_qr_scan", "android": "https://dc.lft.to/lastmile_qr_scan"}, "lon": -77.03255083333333, "type": "electric_scooter", "fusion_lat": 0.0, "lat": 38.9277125, "name": "6aa1181de36ce760ddcb52b0a0e68e8a", "fusion_lon": 0.0, "bike_id": "6aa1181de36ce760ddcb52b0a0e68e8a", "is_disabled": 0, "is_reserved": 0}, {"rental_uris": {"ios": "https://dc.lft.to/lastmile_qr_scan", "android": "https://dc.lft.to/lastmile_qr_scan"}, "lon": -77.00787066666666, "type": "electric_scooter", "fusion_lat": 0.0, "lat": 38.90651533333333, "name": "3f52f6e94303dc420f4a2bc0c0ec6fcf", "fusion_lon": 0.0, "bike_id": "3f52f6e94303dc420f4a2bc0c0ec6fcf", "is_disabled": 0, "is_reserved": 0}, {"rental_uris": {"ios": "https://dc.lft.to/lastmile_qr_scan", "android": "https://dc.lft.to/lastmile_qr_scan"}, "lon": -77.01432916666667, "type": "electric_scooter", "fusion_lat": 0.0, "lat": 38.906471333333336, "name": "74114189597137ae7ce6a4a6937422bf", "fusion_lon": 0.0, "bike_id": "74114189597137ae7ce6a4a6937422bf", "is_disabled": 0, "is_reserved": 0}, {"rental_uris": {"ios": "https://dc.lft.to/lastmile_qr_scan", "android": "https://dc.lft.to/lastmile_qr_scan"}, "lon": -77.0355715, "type": "electric_scooter", "fusion_lat": 0.0, "lat": 38.91805933333333, "name": "c6327fac4d6f7e28ad1eec02e33fb5a7", "fusion_lon": 0.0, "bike_id": "c6327fac4d6f7e28ad1eec02e33fb5a7", "is_disabled": 0, "is_reserved": 0}, {"rental_uris": {"ios": "https://dc.lft.to/lastmile_qr_scan", "android": "https://dc.lft.to/lastmile_qr_scan"}, "lon": -77.01358983333333, "type": "electric_scooter", "fusion_lat": 0.0, "lat": 38.863746, "name": "054aa51d9053ec98413473382510782d", "fusion_lon": 0.0, "bike_id": "054aa51d9053ec98413473382510782d", "is_disabled": 0, "is_reserved": 0}, {"rental_uris": {"ios": "https://dc.lft.to/lastmile_qr_scan", "android": "https://dc.lft.to/lastmile_qr_scan"}, "lon": -77.00193266666666, "type": "electric_scooter", "fusion_lat": 0.0, "lat": 38.90041566666667, "name": "f85e7a9954ca3779fdc3104f224a0693", "fusion_lon": 0.0, "bike_id": "f85e7a9954ca3779fdc3104f224a0693", "is_disabled": 0, "is_reserved": 0}, {"rental_uris": {"ios": "https://dc.lft.to/lastmile_qr_scan", "android": "https://dc.lft.to/lastmile_qr_scan"}, "lon": -77.12503833333334, "type": "electric_bike", "fusion_lat": 0.0, "lat": 39.02422266666667, "name": "245f99ed37adc49be2054a8696a18791", "fusion_lon": 0.0, "bike_id": "245f99ed37adc49be2054a8696a18791", "is_disabled": 0, "is_reserved": 0}, {"rental_uris": {"ios": "https://dc.lft.to/lastmile_qr_scan", "android": "https://dc.lft.to/lastmile_qr_scan"}, "lon": -77.00588483333334, "type": "electric_scooter", "fusion_lat": 0.0, "lat": 38.915616, "name": "f5ee3a25c3d04e17ab901285ae12dd6c", "fusion_lon": 0.0, "bike_id": "f5ee3a25c3d04e17ab901285ae12dd6c", "is_disabled": 0, "is_reserved": 0}, {"rental_uris": {"ios": "https://dc.lft.to/lastmile_qr_scan", "android": "https://dc.lft.to/lastmile_qr_scan"}, "lon": -77.00101233333334, "type": "electric_scooter", "fusion_lat": 0.0, "lat": 38.90735933333333, "name": "777617575cd49b883b15550f79022f58", "fusion_lon": 0.0, "bike_id": "777617575cd49b883b15550f79022f58", "is_disabled": 0, "is_reserved": 0}, {"rental_uris": {"ios": "https://dc.lft.to/lastmile_qr_scan", "android": "https://dc.lft.to/lastmile_qr_scan"}, "lon": -77.02469066666667, "type": "electric_scooter", "fusion_lat": 0.0, "lat": 38.931025166666664, "name": "4cf6b7fbf44848aef13404a6a2f560d2", "fusion_lon": 0.0, "bike_id": "4cf6b7fbf44848aef13404a6a2f560d2", "is_disabled": 0, "is_reserved": 0}, {"rental_uris": {"ios": "https://dc.lft.to/lastmile_qr_scan", "android": "https://dc.lft.to/lastmile_qr_scan"}, "lon": -77.046935, "type": "electric_scooter", "fusion_lat": 0.0, "lat": 38.897404, "name": "6a6b0078a14dd075c9e45276e60b8bc0", "fusion_lon": 0.0, "bike_id": "6a6b0078a14dd075c9e45276e60b8bc0", "is_disabled": 0, "is_reserved": 0}, {"rental_uris": {"ios": "https://dc.lft.to/lastmile_qr_scan", "android": "https://dc.lft.to/lastmile_qr_scan"}, "lon": -77.03853716666667, "type": "electric_scooter", "fusion_lat": 0.0, "lat": 38.902749166666666, "name": "9b3c657f7faebacb2d8993c489433fcb", "fusion_lon": 0.0, "bike_id": "9b3c657f7faebacb2d8993c489433fcb", "is_disabled": 0, "is_reserved": 0}, {"rental_uris": {"ios": "https://dc.lft.to/lastmile_qr_scan", "android": "https://dc.lft.to/lastmile_qr_scan"}, "lon": -77.03222433333333, "type": "electric_scooter", "fusion_lat": 0.0, "lat": 38.887391, "name": "0cb8511f91ba9617d519a5f67fe2300a", "fusion_lon": 0.0, "bike_id": "0cb8511f91ba9617d519a5f67fe2300a", "is_disabled": 0, "is_reserved": 0}, {"rental_uris": {"ios": "https://dc.lft.to/lastmile_qr_scan", "android": "https://dc.lft.to/lastmile_qr_scan"}, "lon": -77.04513633333333, "type": "electric_scooter", "fusion_lat": 0.0, "lat": 38.91286483333333, "name": "a5bc56adb4631614f1333febc9480b8f", "fusion_lon": 0.0, "bike_id": "a5bc56adb4631614f1333febc9480b8f", "is_disabled": 0, "is_reserved": 0}, {"rental_uris": {"ios": "https://dc.lft.to/lastmile_qr_scan", "android": "https://dc.lft.to/lastmile_qr_scan"}, "lon": -77.01348416666667, "type": "electric_scooter", "fusion_lat": 0.0, "lat": 38.895687, "name": "8a8bc042d2844c13bb621ce85b00478e", "fusion_lon": 0.0, "bike_id": "8a8bc042d2844c13bb621ce85b00478e", "is_disabled": 0, "is_reserved": 0}, {"rental_uris": {"ios": "https://dc.lft.to/lastmile_qr_scan", "android": "https://dc.lft.to/lastmile_qr_scan"}, "lon": -77.02476516666667, "type": "electric_scooter", "fusion_lat": 0.0, "lat": 38.938554833333335, "name": "4828d608eae8034b1e9cc29711f1ba5e", "fusion_lon": 0.0, "bike_id": "4828d608eae8034b1e9cc29711f1ba5e", "is_disabled": 0, "is_reserved": 0}, {"rental_uris": {"ios": "https://dc.lft.to/lastmile_qr_scan", "android": "https://dc.lft.to/lastmile_qr_scan"}, "lon": -77.02646233333333, "type": "electric_scooter", "fusion_lat": 0.0, "lat": 38.90569333333333, "name": "31805523640ae3dd985cdb1147a1eb22", "fusion_lon": 0.0, "bike_id": "31805523640ae3dd985cdb1147a1eb22", "is_disabled": 0, "is_reserved": 0}, {"rental_uris": {"ios": "https://dc.lft.to/lastmile_qr_scan", "android": "https://dc.lft.to/lastmile_qr_scan"}, "lon": -77.02762383333334, "type": "electric_scooter", "fusion_lat": 0.0, "lat": 38.915533833333335, "name": "2b7d9b966edc417f8f456660eac3a0dc", "fusion_lon": 0.0, "bike_id": "2b7d9b966edc417f8f456660eac3a0dc", "is_disabled": 0, "is_reserved": 0}, {"rental_uris": {"ios": "https://dc.lft.to/lastmile_qr_scan", "android": "https://dc.lft.to/lastmile_qr_scan"}, "lon": -76.995224, "type": "electric_scooter", "fusion_lat": 0.0, "lat": 38.862578, "name": "4544eac53ae1ad27a2ea173e3b44bad4", "fusion_lon": 0.0, "bike_id": "4544eac53ae1ad27a2ea173e3b44bad4", "is_disabled": 0, "is_reserved": 0}, {"rental_uris": {"ios": "https://dc.lft.to/lastmile_qr_scan", "android": "https://dc.lft.to/lastmile_qr_scan"}, "lon": -77.00843466666667, "type": "electric_bike", "fusion_lat": 0.0, "lat": 38.949166166666664, "name": "20893dab6ac432e5edb1b9847be0942b", "fusion_lon": 0.0, "bike_id": "20893dab6ac432e5edb1b9847be0942b", "is_disabled": 0, "is_reserved": 0}, {"rental_uris": {"ios": "https://dc.lft.to/lastmile_qr_scan", "android": "https://dc.lft.to/lastmile_qr_scan"}, "lon": -77.02688083333334, "type": "electric_scooter", "fusion_lat": 0.0, "lat": 38.924008, "name": "9b28f8467ae5c09810bfe094f028a280", "fusion_lon": 0.0, "bike_id": "9b28f8467ae5c09810bfe094f028a280", "is_disabled": 0, "is_reserved": 0}, {"rental_uris": {"ios": "https://dc.lft.to/lastmile_qr_scan", "android": "https://dc.lft.to/lastmile_qr_scan"}, "lon": -77.029779, "type": "electric_scooter", "fusion_lat": 0.0, "lat": 38.96230416666667, "name": "c725c375ddbc68ea9c206b8dae32a7e0", "fusion_lon": 0.0, "bike_id": "c725c375ddbc68ea9c206b8dae32a7e0", "is_disabled": 0, "is_reserved": 0}, {"rental_uris": {"ios": "https://dc.lft.to/lastmile_qr_scan", "android": "https://dc.lft.to/lastmile_qr_scan"}, "lon": -77.04273866666666, "type": "electric_scooter", "fusion_lat": 0.0, "lat": 38.916971333333336, "name": "d35a284392e0a123a5ab6b7fdbea06b2", "fusion_lon": 0.0, "bike_id": "d35a284392e0a123a5ab6b7fdbea06b2", "is_disabled": 0, "is_reserved": 0}, {"rental_uris": {"ios": "https://dc.lft.to/lastmile_qr_scan", "android": "https://dc.lft.to/lastmile_qr_scan"}, "lon": -77.03547816666666, "type": "electric_scooter", "fusion_lat": 0.0, "lat": 38.92415833333333, "name": "42b73627a210652df90d9f5127d3cb0c", "fusion_lon": 0.0, "bike_id": "42b73627a210652df90d9f5127d3cb0c", "is_disabled": 0, "is_reserved": 0}, {"rental_uris": {"ios": "https://dc.lft.to/lastmile_qr_scan", "android": "https://dc.lft.to/lastmile_qr_scan"}, "lon": -77.05130333333334, "type": "electric_scooter", "fusion_lat": 0.0, "lat": 38.90235883333333, "name": "99ad67e513ba966a25de1af6c5daca45", "fusion_lon": 0.0, "bike_id": "99ad67e513ba966a25de1af6c5daca45", "is_disabled": 0, "is_reserved": 0}, {"rental_uris": {"ios": "https://dc.lft.to/lastmile_qr_scan", "android": "https://dc.lft.to/lastmile_qr_scan"}, "lon": -77.03252433333333, "type": "electric_scooter", "fusion_lat": 0.0, "lat": 38.938741666666665, "name": "b9fd84442d3ac28cd97bbf9e5b60ab32", "fusion_lon": 0.0, "bike_id": "b9fd84442d3ac28cd97bbf9e5b60ab32", "is_disabled": 0, "is_reserved": 0}, {"rental_uris": {"ios": "https://dc.lft.to/lastmile_qr_scan", "android": "https://dc.lft.to/lastmile_qr_scan"}, "lon": -77.022043, "type": "electric_bike", "fusion_lat": 0.0, "lat": 38.91309783333333, "name": "3fbcda59662adc7921e6d0f8c41f6963", "fusion_lon": 0.0, "bike_id": "3fbcda59662adc7921e6d0f8c41f6963", "is_disabled": 0, "is_reserved": 0}, {"rental_uris": {"ios": "https://dc.lft.to/lastmile_qr_scan", "android": "https://dc.lft.to/lastmile_qr_scan"}, "lon": -77.010703, "type": "electric_scooter", "fusion_lat": 0.0, "lat": 38.90729783333333, "name": "7f93599f2645d5d14316623259a6c011", "fusion_lon": 0.0, "bike_id": "7f93599f2645d5d14316623259a6c011", "is_disabled": 0, "is_reserved": 0}, {"rental_uris": {"ios": "https://dc.lft.to/lastmile_qr_scan", "android": "https://dc.lft.to/lastmile_qr_scan"}, "lon": -77.02306883333334, "type": "electric_scooter", "fusion_lat": 0.0, "lat": 38.9298085, "name": "5366fa2379ecbcddcb4a8637ee092ea5", "fusion_lon": 0.0, "bike_id": "5366fa2379ecbcddcb4a8637ee092ea5", "is_disabled": 0, "is_reserved": 0}, {"rental_uris": {"ios": "https://dc.lft.to/lastmile_qr_scan", "android": "https://dc.lft.to/lastmile_qr_scan"}, "lon": -77.036427, "type": "electric_scooter", "fusion_lat": 0.0, "lat": 38.917350666666664, "name": "2bcc2c3ff91140ab9bcf62323ce7965c", "fusion_lon": 0.0, "bike_id": "2bcc2c3ff91140ab9bcf62323ce7965c", "is_disabled": 0, "is_reserved": 0}, {"rental_uris": {"ios": "https://dc.lft.to/lastmile_qr_scan", "android": "https://dc.lft.to/lastmile_qr_scan"}, "lon": -77.01085383333333, "type": "electric_scooter", "fusion_lat": 0.0, "lat": 38.916281166666664, "name": "e66f5739d0773092170aafe32a0278e7", "fusion_lon": 0.0, "bike_id": "e66f5739d0773092170aafe32a0278e7", "is_disabled": 0, "is_reserved": 0}, {"rental_uris": {"ios": "https://dc.lft.to/lastmile_qr_scan", "android": "https://dc.lft.to/lastmile_qr_scan"}, "lon": -77.02926883333333, "type": "electric_scooter", "fusion_lat": 0.0, "lat": 38.8953775, "name": "e2c6f916eef7b3412d8a7dbd11b7accb", "fusion_lon": 0.0, "bike_id": "e2c6f916eef7b3412d8a7dbd11b7accb", "is_disabled": 0, "is_reserved": 0}, {"rental_uris": {"ios": "https://dc.lft.to/lastmile_qr_scan", "android": "https://dc.lft.to/lastmile_qr_scan"}, "lon": -77.02580266666666, "type": "electric_scooter", "fusion_lat": 0.0, "lat": 38.882312, "name": "d3986d6ee6144e842fcdfca434c85107", "fusion_lon": 0.0, "bike_id": "d3986d6ee6144e842fcdfca434c85107", "is_disabled": 0, "is_reserved": 0}, {"rental_uris": {"ios": "https://dc.lft.to/lastmile_qr_scan", "android": "https://dc.lft.to/lastmile_qr_scan"}, "lon": -77.035524, "type": "electric_scooter", "fusion_lat": 0.0, "lat": 38.92423766666667, "name": "736b643eab8369c99010371009a930a0", "fusion_lon": 0.0, "bike_id": "736b643eab8369c99010371009a930a0", "is_disabled": 0, "is_reserved": 0}, {"rental_uris": {"ios": "https://dc.lft.to/lastmile_qr_scan", "android": "https://dc.lft.to/lastmile_qr_scan"}, "lon": -77.03913333333334, "type": "electric_scooter", "fusion_lat": 0.0, "lat": 38.92475183333333, "name": "56084f75f67a388cc974539d594eb658", "fusion_lon": 0.0, "bike_id": "56084f75f67a388cc974539d594eb658", "is_disabled": 0, "is_reserved": 0}, {"rental_uris": {"ios": "https://dc.lft.to/lastmile_qr_scan", "android": "https://dc.lft.to/lastmile_qr_scan"}, "lon": -77.0122195, "type": "electric_scooter", "fusion_lat": 0.0, "lat": 38.909806833333334, "name": "8eade3c8ef1b35e41e8ff6184f086cfd", "fusion_lon": 0.0, "bike_id": "8eade3c8ef1b35e41e8ff6184f086cfd", "is_disabled": 0, "is_reserved": 0}, {"rental_uris": {"ios": "https://dc.lft.to/lastmile_qr_scan", "android": "https://dc.lft.to/lastmile_qr_scan"}, "lon": -76.98550933333334, "type": "electric_scooter", "fusion_lat": 0.0, "lat": 38.8994975, "name": "80472053e25db583572c8085eb3fce41", "fusion_lon": 0.0, "bike_id": "80472053e25db583572c8085eb3fce41", "is_disabled": 0, "is_reserved": 0}, {"rental_uris": {"ios": "https://dc.lft.to/lastmile_qr_scan", "android": "https://dc.lft.to/lastmile_qr_scan"}, "lon": -77.05854833333333, "type": "electric_scooter", "fusion_lat": 0.0, "lat": 38.93606716666667, "name": "20d6cf343b564be8e602c0148c013eb2", "fusion_lon": 0.0, "bike_id": "20d6cf343b564be8e602c0148c013eb2", "is_disabled": 0, "is_reserved": 0}, {"rental_uris": {"ios": "https://dc.lft.to/lastmile_qr_scan", "android": "https://dc.lft.to/lastmile_qr_scan"}, "lon": -77.03418016666667, "type": "electric_scooter", "fusion_lat": 0.0, "lat": 38.919266666666665, "name": "dd566a1e41379bed7b99a1be7e1cb0aa", "fusion_lon": 0.0, "bike_id": "dd566a1e41379bed7b99a1be7e1cb0aa", "is_disabled": 0, "is_reserved": 0}, {"rental_uris": {"ios": "https://dc.lft.to/lastmile_qr_scan", "android": "https://dc.lft.to/lastmile_qr_scan"}, "lon": -77.025963, "type": "electric_scooter", "fusion_lat": 0.0, "lat": 38.89218966666667, "name": "bbf19a3be8f6da3a3d3bbb78004c94b0", "fusion_lon": 0.0, "bike_id": "bbf19a3be8f6da3a3d3bbb78004c94b0", "is_disabled": 0, "is_reserved": 0}, {"rental_uris": {"ios": "https://dc.lft.to/lastmile_qr_scan", "android": "https://dc.lft.to/lastmile_qr_scan"}, "lon": -77.042345, "type": "electric_scooter", "fusion_lat": 0.0, "lat": 38.911082666666665, "name": "02b38c1f12187caf65d61b4580a49cb4", "fusion_lon": 0.0, "bike_id": "02b38c1f12187caf65d61b4580a49cb4", "is_disabled": 0, "is_reserved": 0}, {"rental_uris": {"ios": "https://dc.lft.to/lastmile_qr_scan", "android": "https://dc.lft.to/lastmile_qr_scan"}, "lon": -76.98815933333333, "type": "electric_scooter", "fusion_lat": 0.0, "lat": 38.903383833333336, "name": "34e04345aa85c2993dea522caf34945a", "fusion_lon": 0.0, "bike_id": "34e04345aa85c2993dea522caf34945a", "is_disabled": 0, "is_reserved": 0}, {"rental_uris": {"ios": "https://dc.lft.to/lastmile_qr_scan", "android": "https://dc.lft.to/lastmile_qr_scan"}, "lon": -77.02763733333333, "type": "electric_scooter", "fusion_lat": 0.0, "lat": 38.92385066666667, "name": "8af2e4e9dafe5b6ced2b29983f0ef159", "fusion_lon": 0.0, "bike_id": "8af2e4e9dafe5b6ced2b29983f0ef159", "is_disabled": 0, "is_reserved": 0}, {"rental_uris": {"ios": "https://dc.lft.to/lastmile_qr_scan", "android": "https://dc.lft.to/lastmile_qr_scan"}, "lon": -77.09552483333333, "type": "electric_scooter", "fusion_lat": 0.0, "lat": 38.91658533333333, "name": "0496a367108fde1cd7b3a0cdbdd11af2", "fusion_lon": 0.0, "bike_id": "0496a367108fde1cd7b3a0cdbdd11af2", "is_disabled": 0, "is_reserved": 0}, {"rental_uris": {"ios": "https://dc.lft.to/lastmile_qr_scan", "android": "https://dc.lft.to/lastmile_qr_scan"}, "lon": -76.932984, "type": "electric_scooter", "fusion_lat": 0.0, "lat": 38.898968333333336, "name": "6391283419089ccc2671f19728723fc7", "fusion_lon": 0.0, "bike_id": "6391283419089ccc2671f19728723fc7", "is_disabled": 0, "is_reserved": 0}, {"rental_uris": {"ios": "https://dc.lft.to/lastmile_qr_scan", "android": "https://dc.lft.to/lastmile_qr_scan"}, "lon": -76.98586283333333, "type": "electric_scooter", "fusion_lat": 0.0, "lat": 38.906563166666665, "name": "9af7fcde5c5aaf645f81a9ab4be96d66", "fusion_lon": 0.0, "bike_id": "9af7fcde5c5aaf645f81a9ab4be96d66", "is_disabled": 0, "is_reserved": 0}, {"rental_uris": {"ios": "https://dc.lft.to/lastmile_qr_scan", "android": "https://dc.lft.to/lastmile_qr_scan"}, "lon": -77.032902, "type": "electric_scooter", "fusion_lat": 0.0, "lat": 38.909715, "name": "268f246bfb71ec2d1d85aa0da643b6e9", "fusion_lon": 0.0, "bike_id": "268f246bfb71ec2d1d85aa0da643b6e9", "is_disabled": 0, "is_reserved": 0}, {"rental_uris": {"ios": "https://dc.lft.to/lastmile_qr_scan", "android": "https://dc.lft.to/lastmile_qr_scan"}, "lon": -76.9986005, "type": "electric_scooter", "fusion_lat": 0.0, "lat": 38.90776983333333, "name": "0dcbc1e4435738d253e79b8d356aa35f", "fusion_lon": 0.0, "bike_id": "0dcbc1e4435738d253e79b8d356aa35f", "is_disabled": 0, "is_reserved": 0}, {"rental_uris": {"ios": "https://dc.lft.to/lastmile_qr_scan", "android": "https://dc.lft.to/lastmile_qr_scan"}, "lon": -76.987134, "type": "electric_scooter", "fusion_lat": 0.0, "lat": 38.8670095, "name": "7c19c7fc73d255ab07f19e57cdae8a3a", "fusion_lon": 0.0, "bike_id": "7c19c7fc73d255ab07f19e57cdae8a3a", "is_disabled": 0, "is_reserved": 0}, {"rental_uris": {"ios": "https://dc.lft.to/lastmile_qr_scan", "android": "https://dc.lft.to/lastmile_qr_scan"}, "lon": -76.931734, "type": "electric_scooter", "fusion_lat": 0.0, "lat": 38.898853, "name": "54203df9e23942b68e425ac0483c11a6", "fusion_lon": 0.0, "bike_id": "54203df9e23942b68e425ac0483c11a6", "is_disabled": 0, "is_reserved": 0}, {"rental_uris": {"ios": "https://dc.lft.to/lastmile_qr_scan", "android": "https://dc.lft.to/lastmile_qr_scan"}, "lon": -77.02207333333334, "type": "electric_scooter", "fusion_lat": 0.0, "lat": 38.9223155, "name": "bf22bde7869687995f83a49a657466cd", "fusion_lon": 0.0, "bike_id": "bf22bde7869687995f83a49a657466cd", "is_disabled": 0, "is_reserved": 0}, {"rental_uris": {"ios": "https://dc.lft.to/lastmile_qr_scan", "android": "https://dc.lft.to/lastmile_qr_scan"}, "lon": -77.03187916666667, "type": "electric_scooter", "fusion_lat": 0.0, "lat": 38.8874505, "name": "66e3b2a556beb85b5714fe6d0141916c", "fusion_lon": 0.0, "bike_id": "66e3b2a556beb85b5714fe6d0141916c", "is_disabled": 0, "is_reserved": 0}, {"rental_uris": {"ios": "https://dc.lft.to/lastmile_qr_scan", "android": "https://dc.lft.to/lastmile_qr_scan"}, "lon": -77.051317, "type": "electric_scooter", "fusion_lat": 0.0, "lat": 38.90642116666667, "name": "6f609517b47be415bad914ca2c50ae87", "fusion_lon": 0.0, "bike_id": "6f609517b47be415bad914ca2c50ae87", "is_disabled": 0, "is_reserved": 0}, {"rental_uris": {"ios": "https://dc.lft.to/lastmile_qr_scan", "android": "https://dc.lft.to/lastmile_qr_scan"}, "lon": -77.07092116666666, "type": "electric_scooter", "fusion_lat": 0.0, "lat": 38.899124666666665, "name": "d78240b6b592aaacd2d278c850e4f6de", "fusion_lon": 0.0, "bike_id": "d78240b6b592aaacd2d278c850e4f6de", "is_disabled": 0, "is_reserved": 0}, {"rental_uris": {"ios": "https://dc.lft.to/lastmile_qr_scan", "android": "https://dc.lft.to/lastmile_qr_scan"}, "lon": -77.044715, "type": "electric_scooter", "fusion_lat": 0.0, "lat": 38.91115766666667, "name": "ca91ebd0b8adca03672ece9422ef0ec8", "fusion_lon": 0.0, "bike_id": "ca91ebd0b8adca03672ece9422ef0ec8", "is_disabled": 0, "is_reserved": 0}, {"rental_uris": {"ios": "https://dc.lft.to/lastmile_qr_scan", "android": "https://dc.lft.to/lastmile_qr_scan"}, "lon": -76.98194516666666, "type": "electric_scooter", "fusion_lat": 0.0, "lat": 38.90394666666667, "name": "0ddd9329e69fd0d8942acbf4257fb9c8", "fusion_lon": 0.0, "bike_id": "0ddd9329e69fd0d8942acbf4257fb9c8", "is_disabled": 0, "is_reserved": 0}, {"rental_uris": {"ios": "https://dc.lft.to/lastmile_qr_scan", "android": "https://dc.lft.to/lastmile_qr_scan"}, "lon": -77.05499933333333, "type": "electric_scooter", "fusion_lat": 0.0, "lat": 38.929772166666666, "name": "f0f40b12c1b527b991cb73196d3450a3", "fusion_lon": 0.0, "bike_id": "f0f40b12c1b527b991cb73196d3450a3", "is_disabled": 0, "is_reserved": 0}, {"rental_uris": {"ios": "https://dc.lft.to/lastmile_qr_scan", "android": "https://dc.lft.to/lastmile_qr_scan"}, "lon": -77.03139766666666, "type": "electric_scooter", "fusion_lat": 0.0, "lat": 38.911261833333334, "name": "d5cc7622e91f7c7f9b5fe1f8cad0fdbb", "fusion_lon": 0.0, "bike_id": "d5cc7622e91f7c7f9b5fe1f8cad0fdbb", "is_disabled": 0, "is_reserved": 0}, {"rental_uris": {"ios": "https://dc.lft.to/lastmile_qr_scan", "android": "https://dc.lft.to/lastmile_qr_scan"}, "lon": -76.99250283333333, "type": "electric_scooter", "fusion_lat": 0.0, "lat": 38.91976666666667, "name": "69356f0b84c61f0ca917b758e2418502", "fusion_lon": 0.0, "bike_id": "69356f0b84c61f0ca917b758e2418502", "is_disabled": 0, "is_reserved": 0}, {"rental_uris": {"ios": "https://dc.lft.to/lastmile_qr_scan", "android": "https://dc.lft.to/lastmile_qr_scan"}, "lon": -77.00209733333334, "type": "electric_scooter", "fusion_lat": 0.0, "lat": 38.8972295, "name": "5abb525475e9ce025270dd7d6d9450ab", "fusion_lon": 0.0, "bike_id": "5abb525475e9ce025270dd7d6d9450ab", "is_disabled": 0, "is_reserved": 0}, {"rental_uris": {"ios": "https://dc.lft.to/lastmile_qr_scan", "android": "https://dc.lft.to/lastmile_qr_scan"}, "lon": -76.99017883333333, "type": "electric_scooter", "fusion_lat": 0.0, "lat": 38.8826855, "name": "c323321de351ae381e41b6bc74ecb883", "fusion_lon": 0.0, "bike_id": "c323321de351ae381e41b6bc74ecb883", "is_disabled": 0, "is_reserved": 0}, {"rental_uris": {"ios": "https://dc.lft.to/lastmile_qr_scan", "android": "https://dc.lft.to/lastmile_qr_scan"}, "lon": -77.06415783333334, "type": "electric_scooter", "fusion_lat": 0.0, "lat": 38.905220666666665, "name": "f15962d22514a54045da0cef3b7bf421", "fusion_lon": 0.0, "bike_id": "f15962d22514a54045da0cef3b7bf421", "is_disabled": 0, "is_reserved": 0}, {"rental_uris": {"ios": "https://dc.lft.to/lastmile_qr_scan", "android": "https://dc.lft.to/lastmile_qr_scan"}, "lon": -76.97301966666667, "type": "electric_scooter", "fusion_lat": 0.0, "lat": 38.9198855, "name": "7ead4ca7e7abb3dcdfce9b8fa58c3295", "fusion_lon": 0.0, "bike_id": "7ead4ca7e7abb3dcdfce9b8fa58c3295", "is_disabled": 0, "is_reserved": 0}, {"rental_uris": {"ios": "https://dc.lft.to/lastmile_qr_scan", "android": "https://dc.lft.to/lastmile_qr_scan"}, "lon": -77.03859233333333, "type": "electric_scooter", "fusion_lat": 0.0, "lat": 38.941993833333335, "name": "b33e1bcf7ded7bddc64137dbddd13c91", "fusion_lon": 0.0, "bike_id": "b33e1bcf7ded7bddc64137dbddd13c91", "is_disabled": 0, "is_reserved": 0}, {"rental_uris": {"ios": "https://dc.lft.to/lastmile_qr_scan", "android": "https://dc.lft.to/lastmile_qr_scan"}, "lon": -77.02453883333334, "type": "electric_scooter", "fusion_lat": 0.0, "lat": 38.918913, "name": "4cc9db13de9c461742bd807da84a6a4a", "fusion_lon": 0.0, "bike_id": "4cc9db13de9c461742bd807da84a6a4a", "is_disabled": 0, "is_reserved": 0}, {"rental_uris": {"ios": "https://dc.lft.to/lastmile_qr_scan", "android": "https://dc.lft.to/lastmile_qr_scan"}, "lon": -77.0326975, "type": "electric_scooter", "fusion_lat": 0.0, "lat": 38.93748266666667, "name": "2105ffd771a2730183516db461ff358f", "fusion_lon": 0.0, "bike_id": "2105ffd771a2730183516db461ff358f", "is_disabled": 0, "is_reserved": 0}, {"rental_uris": {"ios": "https://dc.lft.to/lastmile_qr_scan", "android": "https://dc.lft.to/lastmile_qr_scan"}, "lon": -77.06112683333333, "type": "electric_scooter", "fusion_lat": 0.0, "lat": 38.912934166666666, "name": "ad905623041199d697e888889e5d778f", "fusion_lon": 0.0, "bike_id": "ad905623041199d697e888889e5d778f", "is_disabled": 0, "is_reserved": 0}, {"rental_uris": {"ios": "https://dc.lft.to/lastmile_qr_scan", "android": "https://dc.lft.to/lastmile_qr_scan"}, "lon": -76.98999816666667, "type": "electric_scooter", "fusion_lat": 0.0, "lat": 38.8650495, "name": "35da099d8c7e8ba4e98cd6be87b8d974", "fusion_lon": 0.0, "bike_id": "35da099d8c7e8ba4e98cd6be87b8d974", "is_disabled": 0, "is_reserved": 0}, {"rental_uris": {"ios": "https://dc.lft.to/lastmile_qr_scan", "android": "https://dc.lft.to/lastmile_qr_scan"}, "lon": -77.041449, "type": "electric_scooter", "fusion_lat": 0.0, "lat": 38.922983, "name": "363ef3dab4f66c2fc00a8251bc77592b", "fusion_lon": 0.0, "bike_id": "363ef3dab4f66c2fc00a8251bc77592b", "is_disabled": 0, "is_reserved": 0}, {"rental_uris": {"ios": "https://dc.lft.to/lastmile_qr_scan", "android": "https://dc.lft.to/lastmile_qr_scan"}, "lon": -77.007524, "type": "electric_scooter", "fusion_lat": 0.0, "lat": 38.89834466666667, "name": "c435771d926fe841f73fb7f47fa9d240", "fusion_lon": 0.0, "bike_id": "c435771d926fe841f73fb7f47fa9d240", "is_disabled": 0, "is_reserved": 0}, {"rental_uris": {"ios": "https://dc.lft.to/lastmile_qr_scan", "android": "https://dc.lft.to/lastmile_qr_scan"}, "lon": -76.90811366666667, "type": "electric_bike", "fusion_lat": 0.0, "lat": 38.994553833333335, "name": "a672778305b841fe77cff18b6fb9f05e", "fusion_lon": 0.0, "bike_id": "a672778305b841fe77cff18b6fb9f05e", "is_disabled": 0, "is_reserved": 0}, {"rental_uris": {"ios": "https://dc.lft.to/lastmile_qr_scan", "android": "https://dc.lft.to/lastmile_qr_scan"}, "lon": -77.041764, "type": "electric_scooter", "fusion_lat": 0.0, "lat": 38.919653, "name": "283032a715507e05bb36050bb000aad7", "fusion_lon": 0.0, "bike_id": "283032a715507e05bb36050bb000aad7", "is_disabled": 0, "is_reserved": 0}, {"rental_uris": {"ios": "https://dc.lft.to/lastmile_qr_scan", "android": "https://dc.lft.to/lastmile_qr_scan"}, "lon": -77.03249983333333, "type": "electric_scooter", "fusion_lat": 0.0, "lat": 38.9073305, "name": "ef84a126bfdfa41ce42522aabd50676c", "fusion_lon": 0.0, "bike_id": "ef84a126bfdfa41ce42522aabd50676c", "is_disabled": 0, "is_reserved": 0}, {"rental_uris": {"ios": "https://dc.lft.to/lastmile_qr_scan", "android": "https://dc.lft.to/lastmile_qr_scan"}, "lon": -77.02581766666667, "type": "electric_scooter", "fusion_lat": 0.0, "lat": 38.88739416666667, "name": "32176727631860671c2404cbd081a671", "fusion_lon": 0.0, "bike_id": "32176727631860671c2404cbd081a671", "is_disabled": 0, "is_reserved": 0}, {"rental_uris": {"ios": "https://dc.lft.to/lastmile_qr_scan", "android": "https://dc.lft.to/lastmile_qr_scan"}, "lon": -77.04816183333334, "type": "electric_scooter", "fusion_lat": 0.0, "lat": 38.91332333333333, "name": "5d8fb34c185645fc57146532be277828", "fusion_lon": 0.0, "bike_id": "5d8fb34c185645fc57146532be277828", "is_disabled": 0, "is_reserved": 0}, {"rental_uris": {"ios": "https://dc.lft.to/lastmile_qr_scan", "android": "https://dc.lft.to/lastmile_qr_scan"}, "lon": -77.02698366666667, "type": "electric_scooter", "fusion_lat": 0.0, "lat": 38.92601283333333, "name": "704872a511126970ddc83683047d5ed8", "fusion_lon": 0.0, "bike_id": "704872a511126970ddc83683047d5ed8", "is_disabled": 0, "is_reserved": 0}, {"rental_uris": {"ios": "https://dc.lft.to/lastmile_qr_scan", "android": "https://dc.lft.to/lastmile_qr_scan"}, "lon": -77.08197316666667, "type": "electric_scooter", "fusion_lat": 0.0, "lat": 38.9492715, "name": "26ea2456671b2ae93b78b2e6a89f68e9", "fusion_lon": 0.0, "bike_id": "26ea2456671b2ae93b78b2e6a89f68e9", "is_disabled": 0, "is_reserved": 0}, {"rental_uris": {"ios": "https://dc.lft.to/lastmile_qr_scan", "android": "https://dc.lft.to/lastmile_qr_scan"}, "lon": -77.03876283333334, "type": "electric_scooter", "fusion_lat": 0.0, "lat": 38.93252583333334, "name": "86ec0681cc5f0a5d03eb6db92cfa6151", "fusion_lon": 0.0, "bike_id": "86ec0681cc5f0a5d03eb6db92cfa6151", "is_disabled": 0, "is_reserved": 0}, {"rental_uris": {"ios": "https://dc.lft.to/lastmile_qr_scan", "android": "https://dc.lft.to/lastmile_qr_scan"}, "lon": -77.0109495, "type": "electric_bike", "fusion_lat": 0.0, "lat": 38.873044666666665, "name": "c9647289e746abd1682e9f9a74fed76b", "fusion_lon": 0.0, "bike_id": "c9647289e746abd1682e9f9a74fed76b", "is_disabled": 0, "is_reserved": 0}, {"rental_uris": {"ios": "https://dc.lft.to/lastmile_qr_scan", "android": "https://dc.lft.to/lastmile_qr_scan"}, "lon": -77.01146183333333, "type": "electric_scooter", "fusion_lat": 0.0, "lat": 38.895274666666666, "name": "0a74a7d35036201848949cfa5dc4014c", "fusion_lon": 0.0, "bike_id": "0a74a7d35036201848949cfa5dc4014c", "is_disabled": 0, "is_reserved": 0}, {"rental_uris": {"ios": "https://dc.lft.to/lastmile_qr_scan", "android": "https://dc.lft.to/lastmile_qr_scan"}, "lon": -77.02977516666667, "type": "electric_scooter", "fusion_lat": 0.0, "lat": 38.9623115, "name": "894e7463fc15fd34cb798bbb752b24dc", "fusion_lon": 0.0, "bike_id": "894e7463fc15fd34cb798bbb752b24dc", "is_disabled": 0, "is_reserved": 0}, {"rental_uris": {"ios": "https://dc.lft.to/lastmile_qr_scan", "android": "https://dc.lft.to/lastmile_qr_scan"}, "lon": -77.10335916666666, "type": "electric_bike", "fusion_lat": 0.0, "lat": 38.852285, "name": "7b6f64ceaa64d46084e58888ea967b4b", "fusion_lon": 0.0, "bike_id": "7b6f64ceaa64d46084e58888ea967b4b", "is_disabled": 0, "is_reserved": 0}, {"rental_uris": {"ios": "https://dc.lft.to/lastmile_qr_scan", "android": "https://dc.lft.to/lastmile_qr_scan"}, "lon": -76.92585433333333, "type": "electric_scooter", "fusion_lat": 0.0, "lat": 38.897322333333335, "name": "5f1822ab291c88794622673f0e9857f2", "fusion_lon": 0.0, "bike_id": "5f1822ab291c88794622673f0e9857f2", "is_disabled": 0, "is_reserved": 0}, {"rental_uris": {"ios": "https://dc.lft.to/lastmile_qr_scan", "android": "https://dc.lft.to/lastmile_qr_scan"}, "lon": -77.012752, "type": "electric_bike", "fusion_lat": 0.0, "lat": 38.881219, "name": "0bf2a3987f5ba55324b2422040359824", "fusion_lon": 0.0, "bike_id": "0bf2a3987f5ba55324b2422040359824", "is_disabled": 0, "is_reserved": 0}, {"rental_uris": {"ios": "https://dc.lft.to/lastmile_qr_scan", "android": "https://dc.lft.to/lastmile_qr_scan"}, "lon": -77.00708833333333, "type": "electric_scooter", "fusion_lat": 0.0, "lat": 38.8849225, "name": "097f64ba1fd3cf49af843e5ff7680f4d", "fusion_lon": 0.0, "bike_id": "097f64ba1fd3cf49af843e5ff7680f4d", "is_disabled": 0, "is_reserved": 0}, {"rental_uris": {"ios": "https://dc.lft.to/lastmile_qr_scan", "android": "https://dc.lft.to/lastmile_qr_scan"}, "lon": -77.03020466666666, "type": "electric_scooter", "fusion_lat": 0.0, "lat": 38.89732166666667, "name": "c66cf57ca59350699ec9b4be9186da6b", "fusion_lon": 0.0, "bike_id": "c66cf57ca59350699ec9b4be9186da6b", "is_disabled": 0, "is_reserved": 0}, {"rental_uris": {"ios": "https://dc.lft.to/lastmile_qr_scan", "android": "https://dc.lft.to/lastmile_qr_scan"}, "lon": -77.02723533333334, "type": "electric_scooter", "fusion_lat": 0.0, "lat": 38.93401683333333, "name": "170af370766f5223227e2f8bbf6130bd", "fusion_lon": 0.0, "bike_id": "170af370766f5223227e2f8bbf6130bd", "is_disabled": 0, "is_reserved": 0}, {"rental_uris": {"ios": "https://dc.lft.to/lastmile_qr_scan", "android": "https://dc.lft.to/lastmile_qr_scan"}, "lon": -77.001358, "type": "electric_scooter", "fusion_lat": 0.0, "lat": 38.9040945, "name": "e2c3d1852327119cb82bfab3b2a2f49d", "fusion_lon": 0.0, "bike_id": "e2c3d1852327119cb82bfab3b2a2f49d", "is_disabled": 0, "is_reserved": 0}, {"rental_uris": {"ios": "https://dc.lft.to/lastmile_qr_scan", "android": "https://dc.lft.to/lastmile_qr_scan"}, "lon": -76.92723466666666, "type": "electric_scooter", "fusion_lat": 0.0, "lat": 38.88040316666667, "name": "401997c1ccffb6f78650060cd863f048", "fusion_lon": 0.0, "bike_id": "401997c1ccffb6f78650060cd863f048", "is_disabled": 0, "is_reserved": 0}, {"rental_uris": {"ios": "https://dc.lft.to/lastmile_qr_scan", "android": "https://dc.lft.to/lastmile_qr_scan"}, "lon": -77.02213216666667, "type": "electric_scooter", "fusion_lat": 0.0, "lat": 38.905702833333336, "name": "009a3a2ff61f1dc5626a22da03bc5a39", "fusion_lon": 0.0, "bike_id": "009a3a2ff61f1dc5626a22da03bc5a39", "is_disabled": 0, "is_reserved": 0}, {"rental_uris": {"ios": "https://dc.lft.to/lastmile_qr_scan", "android": "https://dc.lft.to/lastmile_qr_scan"}, "lon": -77.02748966666667, "type": "electric_scooter", "fusion_lat": 0.0, "lat": 38.881445, "name": "598d862b27f68c58862dead6f1f0ae88", "fusion_lon": 0.0, "bike_id": "598d862b27f68c58862dead6f1f0ae88", "is_disabled": 0, "is_reserved": 0}, {"rental_uris": {"ios": "https://dc.lft.to/lastmile_qr_scan", "android": "https://dc.lft.to/lastmile_qr_scan"}, "lon": -77.04359566666666, "type": "electric_scooter", "fusion_lat": 0.0, "lat": 38.921156833333335, "name": "cc87a96676aaf908f831f2294c4e1317", "fusion_lon": 0.0, "bike_id": "cc87a96676aaf908f831f2294c4e1317", "is_disabled": 0, "is_reserved": 0}, {"rental_uris": {"ios": "https://dc.lft.to/lastmile_qr_scan", "android": "https://dc.lft.to/lastmile_qr_scan"}, "lon": -76.98411083333333, "type": "electric_scooter", "fusion_lat": 0.0, "lat": 38.91389733333333, "name": "68159db44b05d325b0886d879eed3643", "fusion_lon": 0.0, "bike_id": "68159db44b05d325b0886d879eed3643", "is_disabled": 0, "is_reserved": 0}, {"rental_uris": {"ios": "https://dc.lft.to/lastmile_qr_scan", "android": "https://dc.lft.to/lastmile_qr_scan"}, "lon": -77.07491233333333, "type": "electric_scooter", "fusion_lat": 0.0, "lat": 38.914934333333335, "name": "e4fba01a4e8bdc544c6df079c0f7a9bf", "fusion_lon": 0.0, "bike_id": "e4fba01a4e8bdc544c6df079c0f7a9bf", "is_disabled": 0, "is_reserved": 0}, {"rental_uris": {"ios": "https://dc.lft.to/lastmile_qr_scan", "android": "https://dc.lft.to/lastmile_qr_scan"}, "lon": -77.00293933333333, "type": "electric_scooter", "fusion_lat": 0.0, "lat": 38.90907716666667, "name": "07ff33344793e625201b8b98d74c17e3", "fusion_lon": 0.0, "bike_id": "07ff33344793e625201b8b98d74c17e3", "is_disabled": 0, "is_reserved": 0}, {"rental_uris": {"ios": "https://dc.lft.to/lastmile_qr_scan", "android": "https://dc.lft.to/lastmile_qr_scan"}, "lon": -77.1051945, "type": "electric_bike", "fusion_lat": 0.0, "lat": 38.85169033333333, "name": "f659af9da3bae84e34963de07238b9c5", "fusion_lon": 0.0, "bike_id": "f659af9da3bae84e34963de07238b9c5", "is_disabled": 0, "is_reserved": 0}, {"rental_uris": {"ios": "https://dc.lft.to/lastmile_qr_scan", "android": "https://dc.lft.to/lastmile_qr_scan"}, "lon": -77.00228616666666, "type": "electric_scooter", "fusion_lat": 0.0, "lat": 38.90547466666666, "name": "fd24db75effc7ac820329c383e9837e5", "fusion_lon": 0.0, "bike_id": "fd24db75effc7ac820329c383e9837e5", "is_disabled": 0, "is_reserved": 0}, {"rental_uris": {"ios": "https://dc.lft.to/lastmile_qr_scan", "android": "https://dc.lft.to/lastmile_qr_scan"}, "lon": -77.0443415, "type": "electric_scooter", "fusion_lat": 0.0, "lat": 38.91803683333333, "name": "68043a239972d33be82507c67644fe0d", "fusion_lon": 0.0, "bike_id": "68043a239972d33be82507c67644fe0d", "is_disabled": 0, "is_reserved": 0}, {"rental_uris": {"ios": "https://dc.lft.to/lastmile_qr_scan", "android": "https://dc.lft.to/lastmile_qr_scan"}, "lon": -76.9678785, "type": "electric_scooter", "fusion_lat": 0.0, "lat": 38.861407, "name": "d07ec7aae0c0ee1c8d82d3afa67ed2d2", "fusion_lon": 0.0, "bike_id": "d07ec7aae0c0ee1c8d82d3afa67ed2d2", "is_disabled": 0, "is_reserved": 0}, {"rental_uris": {"ios": "https://dc.lft.to/lastmile_qr_scan", "android": "https://dc.lft.to/lastmile_qr_scan"}, "lon": -77.02303033333334, "type": "electric_scooter", "fusion_lat": 0.0, "lat": 38.917899166666665, "name": "8dba2b98a0cf293be77d8a6671c9a93f", "fusion_lon": 0.0, "bike_id": "8dba2b98a0cf293be77d8a6671c9a93f", "is_disabled": 0, "is_reserved": 0}, {"rental_uris": {"ios": "https://dc.lft.to/lastmile_qr_scan", "android": "https://dc.lft.to/lastmile_qr_scan"}, "lon": -77.03656183333334, "type": "electric_scooter", "fusion_lat": 0.0, "lat": 38.922889166666664, "name": "236495f42fdac36aba80598bbf859916", "fusion_lon": 0.0, "bike_id": "236495f42fdac36aba80598bbf859916", "is_disabled": 0, "is_reserved": 0}, {"rental_uris": {"ios": "https://dc.lft.to/lastmile_qr_scan", "android": "https://dc.lft.to/lastmile_qr_scan"}, "lon": -77.00283833333333, "type": "electric_scooter", "fusion_lat": 0.0, "lat": 38.905621, "name": "c37d5f03e34e8d50da71c7dda141535f", "fusion_lon": 0.0, "bike_id": "c37d5f03e34e8d50da71c7dda141535f", "is_disabled": 0, "is_reserved": 0}, {"rental_uris": {"ios": "https://dc.lft.to/lastmile_qr_scan", "android": "https://dc.lft.to/lastmile_qr_scan"}, "lon": -77.01966183333333, "type": "electric_scooter", "fusion_lat": 0.0, "lat": 38.900641, "name": "1e7cd166891d3be38cb6223f79d49a31", "fusion_lon": 0.0, "bike_id": "1e7cd166891d3be38cb6223f79d49a31", "is_disabled": 0, "is_reserved": 0}, {"rental_uris": {"ios": "https://dc.lft.to/lastmile_qr_scan", "android": "https://dc.lft.to/lastmile_qr_scan"}, "lon": -76.93927283333333, "type": "electric_scooter", "fusion_lat": 0.0, "lat": 38.892995166666665, "name": "a115401f7404d75617ae0a932fe76e31", "fusion_lon": 0.0, "bike_id": "a115401f7404d75617ae0a932fe76e31", "is_disabled": 0, "is_reserved": 0}, {"rental_uris": {"ios": "https://dc.lft.to/lastmile_qr_scan", "android": "https://dc.lft.to/lastmile_qr_scan"}, "lon": -77.05543383333334, "type": "electric_bike", "fusion_lat": 0.0, "lat": 38.9252675, "name": "5907ac0e2bdf0b11cb4b8e873f67d5bb", "fusion_lon": 0.0, "bike_id": "5907ac0e2bdf0b11cb4b8e873f67d5bb", "is_disabled": 0, "is_reserved": 0}, {"rental_uris": {"ios": "https://dc.lft.to/lastmile_qr_scan", "android": "https://dc.lft.to/lastmile_qr_scan"}, "lon": -77.02964566666667, "type": "electric_scooter", "fusion_lat": 0.0, "lat": 38.90843866666667, "name": "0c25d11083845589cf9d4631bc175fe1", "fusion_lon": 0.0, "bike_id": "0c25d11083845589cf9d4631bc175fe1", "is_disabled": 0, "is_reserved": 0}, {"rental_uris": {"ios": "https://dc.lft.to/lastmile_qr_scan", "android": "https://dc.lft.to/lastmile_qr_scan"}, "lon": -77.04859466666667, "type": "electric_scooter", "fusion_lat": 0.0, "lat": 38.89226083333333, "name": "a241b40759dc9491bd781768edc0ed31", "fusion_lon": 0.0, "bike_id": "a241b40759dc9491bd781768edc0ed31", "is_disabled": 0, "is_reserved": 0}, {"rental_uris": {"ios": "https://dc.lft.to/lastmile_qr_scan", "android": "https://dc.lft.to/lastmile_qr_scan"}, "lon": -77.04365783333333, "type": "electric_scooter", "fusion_lat": 0.0, "lat": 38.933388666666666, "name": "6ff2257ed71d49e3e0f1fada22db63b8", "fusion_lon": 0.0, "bike_id": "6ff2257ed71d49e3e0f1fada22db63b8", "is_disabled": 0, "is_reserved": 0}, {"rental_uris": {"ios": "https://dc.lft.to/lastmile_qr_scan", "android": "https://dc.lft.to/lastmile_qr_scan"}, "lon": -76.94625983333333, "type": "electric_bike", "fusion_lat": 0.0, "lat": 38.83238766666667, "name": "21e56617a63502884e25c84c8d503d2e", "fusion_lon": 0.0, "bike_id": "21e56617a63502884e25c84c8d503d2e", "is_disabled": 0, "is_reserved": 0}, {"rental_uris": {"ios": "https://dc.lft.to/lastmile_qr_scan", "android": "https://dc.lft.to/lastmile_qr_scan"}, "lon": -76.98542066666667, "type": "electric_scooter", "fusion_lat": 0.0, "lat": 38.904218666666665, "name": "7d10e4e309c11c99c05452f22135291f", "fusion_lon": 0.0, "bike_id": "7d10e4e309c11c99c05452f22135291f", "is_disabled": 0, "is_reserved": 0}, {"rental_uris": {"ios": "https://dc.lft.to/lastmile_qr_scan", "android": "https://dc.lft.to/lastmile_qr_scan"}, "lon": -77.02520116666666, "type": "electric_scooter", "fusion_lat": 0.0, "lat": 38.901055, "name": "7d00dc6c971f5a2ec18773fc40297eff", "fusion_lon": 0.0, "bike_id": "7d00dc6c971f5a2ec18773fc40297eff", "is_disabled": 0, "is_reserved": 0}, {"rental_uris": {"ios": "https://dc.lft.to/lastmile_qr_scan", "android": "https://dc.lft.to/lastmile_qr_scan"}, "lon": -77.05700033333333, "type": "electric_scooter", "fusion_lat": 0.0, "lat": 38.90539283333333, "name": "56c7131c1dd1d5005613790fece90edf", "fusion_lon": 0.0, "bike_id": "56c7131c1dd1d5005613790fece90edf", "is_disabled": 0, "is_reserved": 0}, {"rental_uris": {"ios": "https://dc.lft.to/lastmile_qr_scan", "android": "https://dc.lft.to/lastmile_qr_scan"}, "lon": -77.04862483333334, "type": "electric_scooter", "fusion_lat": 0.0, "lat": 38.90852666666667, "name": "edd527eb77588e851e299825f969e9c9", "fusion_lon": 0.0, "bike_id": "edd527eb77588e851e299825f969e9c9", "is_disabled": 0, "is_reserved": 0}, {"rental_uris": {"ios": "https://dc.lft.to/lastmile_qr_scan", "android": "https://dc.lft.to/lastmile_qr_scan"}, "lon": -76.9536435, "type": "electric_bike", "fusion_lat": 0.0, "lat": 38.93953916666667, "name": "c33bad256e9faeecf657a4c208d8a9a8", "fusion_lon": 0.0, "bike_id": "c33bad256e9faeecf657a4c208d8a9a8", "is_disabled": 0, "is_reserved": 0}, {"rental_uris": {"ios": "https://dc.lft.to/lastmile_qr_scan", "android": "https://dc.lft.to/lastmile_qr_scan"}, "lon": -77.17838516666667, "type": "electric_bike", "fusion_lat": 0.0, "lat": 39.08861116666667, "name": "65ad23107aa45fee65c461d3150e0199", "fusion_lon": 0.0, "bike_id": "65ad23107aa45fee65c461d3150e0199", "is_disabled": 0, "is_reserved": 0}, {"rental_uris": {"ios": "https://dc.lft.to/lastmile_qr_scan", "android": "https://dc.lft.to/lastmile_qr_scan"}, "lon": -77.021265, "type": "electric_scooter", "fusion_lat": 0.0, "lat": 38.91609716666667, "name": "6534c1a5eb37ccd86eedc23cfe7d32a5", "fusion_lon": 0.0, "bike_id": "6534c1a5eb37ccd86eedc23cfe7d32a5", "is_disabled": 0, "is_reserved": 0}, {"rental_uris": {"ios": "https://dc.lft.to/lastmile_qr_scan", "android": "https://dc.lft.to/lastmile_qr_scan"}, "lon": -76.9871, "type": "electric_scooter", "fusion_lat": 0.0, "lat": 38.90271516666667, "name": "e6981f60777b8018e3d8be68ae74a5cb", "fusion_lon": 0.0, "bike_id": "e6981f60777b8018e3d8be68ae74a5cb", "is_disabled": 0, "is_reserved": 0}, {"rental_uris": {"ios": "https://dc.lft.to/lastmile_qr_scan", "android": "https://dc.lft.to/lastmile_qr_scan"}, "lon": -77.043322, "type": "electric_scooter", "fusion_lat": 0.0, "lat": 38.8922785, "name": "208a6fa189180df4d51463bab63074b0", "fusion_lon": 0.0, "bike_id": "208a6fa189180df4d51463bab63074b0", "is_disabled": 0, "is_reserved": 0}, {"rental_uris": {"ios": "https://dc.lft.to/lastmile_qr_scan", "android": "https://dc.lft.to/lastmile_qr_scan"}, "lon": -76.99504366666666, "type": "electric_scooter", "fusion_lat": 0.0, "lat": 38.86248966666667, "name": "451c9e6636934ba69b124ef54efb1b06", "fusion_lon": 0.0, "bike_id": "451c9e6636934ba69b124ef54efb1b06", "is_disabled": 0, "is_reserved": 0}, {"rental_uris": {"ios": "https://dc.lft.to/lastmile_qr_scan", "android": "https://dc.lft.to/lastmile_qr_scan"}, "lon": -76.989025, "type": "electric_scooter", "fusion_lat": 0.0, "lat": 38.866945333333334, "name": "1b98a27ed2a5606f54fef8c2333174db", "fusion_lon": 0.0, "bike_id": "1b98a27ed2a5606f54fef8c2333174db", "is_disabled": 0, "is_reserved": 0},