{"data": {"bikes": [{"is_reserved": 0, "fusion_lon": 0.0, "fusion_lat": 0.0, "name": "0b651c9604efb42c5a4facaa63896061", "type": "electric_scooter", "is_disabled": 0, "lat": 38.9181965, "rental_uris": {"android": "https://dc.lft.to/lastmile_qr_scan", "ios": "https://dc.lft.to/lastmile_qr_scan"}, "bike_id": "0b651c9604efb42c5a4facaa63896061", "lon": -77.02976033333333}, {"is_reserved": 0, "fusion_lon": 0.0, "fusion_lat": 0.0, "name": "d13eef3847d3526628f7143579883b04", "type": "electric_scooter", "is_disabled": 0, "lat": 38.909598, "rental_uris": {"android": "https://dc.lft.to/lastmile_qr_scan", "ios": "https://dc.lft.to/lastmile_qr_scan"}, "bike_id": "d13eef3847d3526628f7143579883b04", "lon": -77.03864966666667}, {"is_reserved": 0, "fusion_lon": 0.0, "fusion_lat": 0.0, "name": "bfc13c9208ab8cd035a314179168025a", "type": "electric_scooter", "is_disabled": 0, "lat": 38.908207, "rental_uris": {"android": "https://dc.lft.to/lastmile_qr_scan", "ios": "https://dc.lft.to/lastmile_qr_scan"}, "bike_id": "bfc13c9208ab8cd035a314179168025a", "lon": -77.03310883333333}, {"is_reserved": 0, "fusion_lon": 0.0, "fusion_lat": 0.0, "name": "584bca1f58db48cdb1e31e7fb722457e", "type": "electric_scooter", "is_disabled": 0, "lat": 38.88082433333334, "rental_uris": {"android": "https://dc.lft.to/lastmile_qr_scan", "ios": "https://dc.lft.to/lastmile_qr_scan"}, "bike_id": "584bca1f58db48cdb1e31e7fb722457e", "lon": -76.985137}, {"is_reserved": 0, "fusion_lon": 0.0, "fusion_lat": 0.0, "name": "6cfae9d8ca493234cacc39a153273311", "type": "electric_scooter", "is_disabled": 0, "lat": 38.9263905, "rental_uris": {"android": "https://dc.lft.to/lastmile_qr_scan", "ios": "https://dc.lft.to/lastmile_qr_scan"}, "bike_id": "6cfae9d8ca493234cacc39a153273311", "lon": -77.0413185}, {"is_reserved": 0, "fusion_lon": 0.0, "fusion_lat": 0.0, "name": "d8e05f06a0e819aebb93b06aef194651", "type": "electric_scooter", "is_disabled": 0, "lat": 38.907211, "rental_uris": {"android": "https://dc.lft.to/lastmile_qr_scan", "ios": "https://dc.lft.to/lastmile_qr_scan"}, "bike_id": "d8e05f06a0e819aebb93b06aef194651", "lon": -77.043465}, {"is_reserved": 0, "fusion_lon": 0.0, "fusion_lat": 0.0, "name": "37a7699db10be16989017e5b224bc6cf", "type": "electric_scooter", "is_disabled": 0, "lat": 38.89622683333333, "rental_uris": {"android": "https://dc.lft.to/lastmile_qr_scan", "ios": "https://dc.lft.to/lastmile_qr_scan"}, "bike_id": "37a7699db10be16989017e5b224bc6cf", "lon": -77.02405483333334}, {"is_reserved": 0, "fusion_lon": 0.0, "fusion_lat": 0.0, "name": "677e4ecbba39b8d682556ddd2e5727ee", "type": "electric_scooter", "is_disabled": 0, "lat": 38.90388166666666, "rental_uris": {"android": "https://dc.lft.to/lastmile_qr_scan", "ios": "https://dc.lft.to/lastmile_qr_scan"}, "bike_id": "677e4ecbba39b8d682556ddd2e5727ee", "lon": -77.04355283333334}, {"is_reserved": 0, "fusion_lon": 0.0, "fusion_lat": 0.0, "name": "d1a370595599d2eff1e5d3d705761e73", "type": "electric_scooter", "is_disabled": 0, "lat": 38.91116533333334, "rental_uris": {"android": "https://dc.lft.to/lastmile_qr_scan", "ios": "https://dc.lft.to/lastmile_qr_scan"}, "bike_id": "d1a370595599d2eff1e5d3d705761e73", "lon": -77.02283933333334}, {"is_reserved": 0, "fusion_lon": 0.0, "fusion_lat": 0.0, "name": "3da8c8c649a07570fd623a5eef267155", "type": "electric_scooter", "is_disabled": 0, "lat": 38.93106216666666, "rental_uris": {"android": "https://dc.lft.to/lastmile_qr_scan", "ios": "https://dc.lft.to/lastmile_qr_scan"}, "bike_id": "3da8c8c649a07570fd623a5eef267155", "lon": -77.0235055}, {"is_reserved": 0, "fusion_lon": 0.0, "fusion_lat": 0.0, "name": "8701ff395bff9b4e5b9b3846aad53c4f", "type": "electric_scooter", "is_disabled": 0, "lat": 38.922339666666666, "rental_uris": {"android": "https://dc.lft.to/lastmile_qr_scan", "ios": "https://dc.lft.to/lastmile_qr_scan"}, "bike_id": "8701ff395bff9b4e5b9b3846aad53c4f", "lon": -77.04492133333333}, {"is_reserved": 0, "fusion_lon": 0.0, "fusion_lat": 0.0, "name": "f47181b647b32f7a2dfc552f66547e81", "type": "electric_scooter", "is_disabled": 0, "lat": 38.9202925, "rental_uris": {"android": "https://dc.lft.to/lastmile_qr_scan", "ios": "https://dc.lft.to/lastmile_qr_scan"}, "bike_id": "f47181b647b32f7a2dfc552f66547e81", "lon": -76.98482316666667}, {"is_reserved": 0, "fusion_lon": 0.0, "fusion_lat": 0.0, "name": "333ec03d551b239d1a9ee7f83f50ed8c", "type": "electric_scooter", "is_disabled": 0, "lat": 38.89222433333333, "rental_uris": {"android": "https://dc.lft.to/lastmile_qr_scan", "ios": "https://dc.lft.to/lastmile_qr_scan"}, "bike_id": "333ec03d551b239d1a9ee7f83f50ed8c", "lon": -77.04860316666667}, {"is_reserved": 0, "fusion_lon": 0.0, "fusion_lat": 0.0, "name": "cf54c686ee2a838ee5784c5c15988c87", "type": "electric_scooter", "is_disabled": 0, "lat": 38.88301116666667, "rental_uris": {"android": "https://dc.lft.to/lastmile_qr_scan", "ios": "https://dc.lft.to/lastmile_qr_scan"}, "bike_id": "cf54c686ee2a838ee5784c5c15988c87", "lon": -77.03155583333333}, {"is_reserved": 0, "fusion_lon": 0.0, "fusion_lat": 0.0, "name": "a1463d4ed419b396c380937c1027a6a6", "type": "electric_scooter", "is_disabled": 0, "lat": 38.93816866666667, "rental_uris": {"android": "https://dc.lft.to/lastmile_qr_scan", "ios": "https://dc.lft.to/lastmile_qr_scan"}, "bike_id": "a1463d4ed419b396c380937c1027a6a6", "lon": -77.03388966666667}, {"is_reserved": 0, "fusion_lon": 0.0, "fusion_lat": 0.0, "name": "0442c55cb01ced784b389ff58ec6d42a", "type": "electric_scooter", "is_disabled": 0, "lat": 38.893695, "rental_uris": {"android": "https://dc.lft.to/lastmile_qr_scan", "ios": "https://dc.lft.to/lastmile_qr_scan"}, "bike_id": "0442c55cb01ced784b389ff58ec6d42a", "lon": -77.047834}, {"is_reserved": 0, "fusion_lon": 0.0, "fusion_lat": 0.0, "name": "07e8fa3fe1d17d5ae53d14e9c29d56e4", "type": "electric_scooter", "is_disabled": 0, "lat": 38.95481216666667, "rental_uris": {"android": "https://dc.lft.to/lastmile_qr_scan", "ios": "https://dc.lft.to/lastmile_qr_scan"}, "bike_id": "07e8fa3fe1d17d5ae53d14e9c29d56e4", "lon": -76.9887355}, {"is_reserved": 0, "fusion_lon": 0.0, "fusion_lat": 0.0, "name": "33a621bf2411abb8975346e75521c877", "type": "electric_scooter", "is_disabled": 0, "lat": 38.926027500000004, "rental_uris": {"android": "https://dc.lft.to/lastmile_qr_scan", "ios": "https://dc.lft.to/lastmile_qr_scan"}, "bike_id": "33a621bf2411abb8975346e75521c877", "lon": -77.02156366666667}, {"is_reserved": 0, "fusion_lon": 0.0, "fusion_lat": 0.0, "name": "d1ee1fcf307d9f0383e320b59029f71c", "type": "electric_scooter", "is_disabled": 0, "lat": 38.892242833333334, "rental_uris": {"android": "https://dc.lft.to/lastmile_qr_scan", "ios": "https://dc.lft.to/lastmile_qr_scan"}, "bike_id": "d1ee1fcf307d9f0383e320b59029f71c", "lon": -77.02349166666667}, {"is_reserved": 0, "fusion_lon": 0.0, "fusion_lat": 0.0, "name": "773fc188626dad56e1e19a114f004b73", "type": "electric_scooter", "is_disabled": 0, "lat": 38.917867333333334, "rental_uris": {"android": "https://dc.lft.to/lastmile_qr_scan", "ios": "https://dc.lft.to/lastmile_qr_scan"}, "bike_id": "773fc188626dad56e1e19a114f004b73", "lon": -77.04015216666667}, {"is_reserved": 0, "fusion_lon": 0.0, "fusion_lat": 0.0, "name": "1433c3e8f0279378d83f1f9104c40c11", "type": "electric_bike", "is_disabled": 0, "lat": 39.06294616666667, "rental_uris": {"android": "https://dc.lft.to/lastmile_qr_scan", "ios": "https://dc.lft.to/lastmile_qr_scan"}, "bike_id": "1433c3e8f0279378d83f1f9104c40c11", "lon": -77.04981883333333}, {"is_reserved": 0, "fusion_lon": 0.0, "fusion_lat": 0.0, "name": "cd75315f810a0e42ce77691950f28914", "type": "electric_scooter", "is_disabled": 0, "lat": 38.892192, "rental_uris": {"android": "https://dc.lft.to/lastmile_qr_scan", "ios": "https://dc.lft.to/lastmile_qr_scan"}, "bike_id": "cd75315f810a0e42ce77691950f28914", "lon": -77.02350333333334}, {"is_reserved": 0, "fusion_lon": 0.0, "fusion_lat": 0.0, "name": "af1acf7951292bc90482141a16d78123", "type": "electric_scooter", "is_disabled": 0, "lat": 38.906318666666664, "rental_uris": {"android": "https://dc.lft.to/lastmile_qr_scan", "ios": "https://dc.lft.to/lastmile_qr_scan"}, "bike_id": "af1acf7951292bc90482141a16d78123", "lon": -77.048032}, {"is_reserved": 0, "fusion_lon": 0.0, "fusion_lat": 0.0, "name": "ab11400dbd011112f207441e44bd0072", "type": "electric_scooter", "is_disabled": 0, "lat": 38.88303833333333, "rental_uris": {"android": "https://dc.lft.to/lastmile_qr_scan", "ios": "https://dc.lft.to/lastmile_qr_scan"}, "bike_id": "ab11400dbd011112f207441e44bd0072", "lon": -76.97867716666667}, {"is_reserved": 0, "fusion_lon": 0.0, "fusion_lat": 0.0, "name": "86ef828423b364405e8ac650de830488", "type": "electric_scooter", "is_disabled": 0, "lat": 38.8991195, "rental_uris": {"android": "https://dc.lft.to/lastmile_qr_scan", "ios": "https://dc.lft.to/lastmile_qr_scan"}, "bike_id": "86ef828423b364405e8ac650de830488", "lon": -76.93379633333333}, {"is_reserved": 0, "fusion_lon": 0.0, "fusion_lat": 0.0, "name": "b1871be5ea3a3331fc3c5b9219ae47ad", "type": "electric_scooter", "is_disabled": 0, "lat": 38.89323133333333, "rental_uris": {"android": "https://dc.lft.to/lastmile_qr_scan", "ios": "https://dc.lft.to/lastmile_qr_scan"}, "bike_id": "b1871be5ea3a3331fc3c5b9219ae47ad", "lon": -76.94316566666667}, {"is_reserved": 0, "fusion_lon": 0.0, "fusion_lat": 0.0, "name": "7e8bb5b9471f82c83442875c051812dc", "type": "electric_scooter", "is_disabled": 0, "lat": 38.907353666666666, "rental_uris": {"android": "https://dc.lft.to/lastmile_qr_scan", "ios": "https://dc.lft.to/lastmile_qr_scan"}, "bike_id": "7e8bb5b9471f82c83442875c051812dc", "lon": -77.02692616666667}, {"is_reserved": 0, "fusion_lon": 0.0, "fusion_lat": 0.0, "name": "15fd22cd2ef5ce743a6cc9f95dd19dab", "type": "electric_scooter", "is_disabled": 0, "lat": 38.9268775, "rental_uris": {"android": "https://dc.lft.to/lastmile_qr_scan", "ios": "https://dc.lft.to/lastmile_qr_scan"}, "bike_id": "15fd22cd2ef5ce743a6cc9f95dd19dab", "lon": -77.02996466666667}, {"is_reserved": 0, "fusion_lon": 0.0, "fusion_lat": 0.0, "name": "cceefb961b3d7c30e0127af3ee43f3b6", "type": "electric_scooter", "is_disabled": 0, "lat": 38.91764583333333, "rental_uris": {"android": "https://dc.lft.to/lastmile_qr_scan", "ios": "https://dc.lft.to/lastmile_qr_scan"}, "bike_id": "cceefb961b3d7c30e0127af3ee43f3b6", "lon": -77.04553783333333}, {"is_reserved": 0, "fusion_lon": 0.0, "fusion_lat": 0.0, "name": "1354686aab15b397a46ddb89b37a1541", "type": "electric_scooter", "is_disabled": 0, "lat": 38.90640066666667, "rental_uris": {"android": "https://dc.lft.to/lastmile_qr_scan", "ios": "https://dc.lft.to/lastmile_qr_scan"}, "bike_id": "1354686aab15b397a46ddb89b37a1541", "lon": -77.04860116666667}, {"is_reserved": 0, "fusion_lon": 0.0, "fusion_lat": 0.0, "name": "9acd5e247b15e8c3898cbd4557fdc7bd", "type": "electric_scooter", "is_disabled": 0, "lat": 38.915674, "rental_uris": {"android": "https://dc.lft.to/lastmile_qr_scan", "ios": "https://dc.lft.to/lastmile_qr_scan"}, "bike_id": "9acd5e247b15e8c3898cbd4557fdc7bd", "lon": -77.019899}, {"is_reserved": 0, "fusion_lon": 0.0, "fusion_lat": 0.0, "name": "08ff3d80688711a21d294d0c44dcbe38", "type": "electric_scooter", "is_disabled": 0, "lat": 38.908113166666666, "rental_uris": {"android": "https://dc.lft.to/lastmile_qr_scan", "ios": "https://dc.lft.to/lastmile_qr_scan"}, "bike_id": "08ff3d80688711a21d294d0c44dcbe38", "lon": -77.03444283333333}, {"is_reserved": 0, "fusion_lon": 0.0, "fusion_lat": 0.0, "name": "b3e225ad75a5f927e32c067718463969", "type": "electric_scooter", "is_disabled": 0, "lat": 38.89714033333333, "rental_uris": {"android": "https://dc.lft.to/lastmile_qr_scan", "ios": "https://dc.lft.to/lastmile_qr_scan"}, "bike_id": "b3e225ad75a5f927e32c067718463969", "lon": -77.04714633333333}, {"is_reserved": 0, "fusion_lon": 0.0, "fusion_lat": 0.0, "name": "0976c7d968a5e4429e07d121a647d0ce", "type": "electric_scooter", "is_disabled": 0, "lat": 38.893904166666665, "rental_uris": {"android": "https://dc.lft.to/lastmile_qr_scan", "ios": "https://dc.lft.to/lastmile_qr_scan"}, "bike_id": "0976c7d968a5e4429e07d121a647d0ce", "lon": -77.02252166666666}, {"is_reserved": 0, "fusion_lon": 0.0, "fusion_lat": 0.0, "name": "5eeb9f5be6f032dc5614e7012861bfc2", "type": "electric_scooter", "is_disabled": 0, "lat": 38.912811166666664, "rental_uris": {"android": "https://dc.lft.to/lastmile_qr_scan", "ios": "https://dc.lft.to/lastmile_qr_scan"}, "bike_id": "5eeb9f5be6f032dc5614e7012861bfc2", "lon": -77.04506083333334}, {"is_reserved": 0, "fusion_lon": 0.0, "fusion_lat": 0.0, "name": "68006e11fb6007a731989ac585b36378", "type": "electric_scooter", "is_disabled": 0, "lat": 38.93264583333333, "rental_uris": {"android": "https://dc.lft.to/lastmile_qr_scan", "ios": "https://dc.lft.to/lastmile_qr_scan"}, "bike_id": "68006e11fb6007a731989ac585b36378", "lon": -77.03849183333334}, {"is_reserved": 0, "fusion_lon": 0.0, "fusion_lat": 0.0, "name": "a94a0840f3f3f1a8a4ed2e993cc6bd27", "type": "electric_scooter", "is_disabled": 0, "lat": 38.91270633333333, "rental_uris": {"android": "https://dc.lft.to/lastmile_qr_scan", "ios": "https://dc.lft.to/lastmile_qr_scan"}, "bike_id": "a94a0840f3f3f1a8a4ed2e993cc6bd27", "lon": -77.03179933333334}, {"is_reserved": 0, "fusion_lon": 0.0, "fusion_lat": 0.0, "name": "5e0a710e664ed5edbb99d4b6316c9540", "type": "electric_bike", "is_disabled": 0, "lat": 38.854103333333335, "rental_uris": {"android": "https://dc.lft.to/lastmile_qr_scan", "ios": "https://dc.lft.to/lastmile_qr_scan"}, "bike_id": "5e0a710e664ed5edbb99d4b6316c9540", "lon": -77.1208065}, {"is_reserved": 0, "fusion_lon": 0.0, "fusion_lat": 0.0, "name": "473af494acb9fb7da9a8ce6833f13625", "type": "electric_scooter", "is_disabled": 0, "lat": 38.917207, "rental_uris": {"android": "https://dc.lft.to/lastmile_qr_scan", "ios": "https://dc.lft.to/lastmile_qr_scan"}, "bike_id": "473af494acb9fb7da9a8ce6833f13625", "lon": -77.0684075}, {"is_reserved": 0, "fusion_lon": 0.0, "fusion_lat": 0.0, "name": "0064e9c3f182c112d6f94ab87ccb7466", "type": "electric_scooter", "is_disabled": 0, "lat": 38.89898066666667, "rental_uris": {"android": "https://dc.lft.to/lastmile_qr_scan", "ios": "https://dc.lft.to/lastmile_qr_scan"}, "bike_id": "0064e9c3f182c112d6f94ab87ccb7466", "lon": -76.9915355}, {"is_reserved": 0, "fusion_lon": 0.0, "fusion_lat": 0.0, "name": "2378365939010e804e732236047a611b", "type": "electric_scooter", "is_disabled": 0, "lat": 38.8992965, "rental_uris": {"android": "https://dc.lft.to/lastmile_qr_scan", "ios": "https://dc.lft.to/lastmile_qr_scan"}, "bike_id": "2378365939010e804e732236047a611b", "lon": -76.94572983333333}, {"is_reserved": 0, "fusion_lon": 0.0, "fusion_lat": 0.0, "name": "c73cfab1c8c7b57d78a0bf3f59edaaa9", "type": "electric_scooter", "is_disabled": 0, "lat": 38.87112, "rental_uris": {"android": "https://dc.lft.to/lastmile_qr_scan", "ios": "https://dc.lft.to/lastmile_qr_scan"}, "bike_id": "c73cfab1c8c7b57d78a0bf3f59edaaa9", "lon": -77.007539}, {"is_reserved": 0, "fusion_lon": 0.0, "fusion_lat": 0.0, "name": "2fc8ed262d2c56323a104288131a6d38", "type": "electric_scooter", "is_disabled": 0, "lat": 38.89914016666667, "rental_uris": {"android": "https://dc.lft.to/lastmile_qr_scan", "ios": "https://dc.lft.to/lastmile_qr_scan"}, "bike_id": "2fc8ed262d2c56323a104288131a6d38", "lon": -76.93377416666667}, {"is_reserved": 0, "fusion_lon": 0.0, "fusion_lat": 0.0, "name": "3ac79e24df7886388476ca115f2cc508", "type": "electric_scooter", "is_disabled": 0, "lat": 38.90574816666667, "rental_uris": {"android": "https://dc.lft.to/lastmile_qr_scan", "ios": "https://dc.lft.to/lastmile_qr_scan"}, "bike_id": "3ac79e24df7886388476ca115f2cc508", "lon": -77.02371416666666}, {"is_reserved": 0, "fusion_lon": 0.0, "fusion_lat": 0.0, "name": "e5b6d5653a41b8f2599bddd19300ba18", "type": "electric_bike", "is_disabled": 0, "lat": 38.96618866666667, "rental_uris": {"android": "https://dc.lft.to/lastmile_qr_scan", "ios": "https://dc.lft.to/lastmile_qr_scan"}, "bike_id": "e5b6d5653a41b8f2599bddd19300ba18", "lon": -77.03431833333333}, {"is_reserved": 0, "fusion_lon": 0.0, "fusion_lat": 0.0, "name": "bbb848d04779e75799eee36c63bab0c7", "type": "electric_bike", "is_disabled": 0, "lat": 38.8934895, "rental_uris": {"android": "https://dc.lft.to/lastmile_qr_scan", "ios": "https://dc.lft.to/lastmile_qr_scan"}, "bike_id": "bbb848d04779e75799eee36c63bab0c7", "lon": -77.18740016666666}, {"is_reserved": 0, "fusion_lon": 0.0, "fusion_lat": 0.0, "name": "0f5b4bcc9f0a4c2eb06ef073d1e971f7", "type": "electric_scooter", "is_disabled": 0, "lat": 38.917071166666666, "rental_uris": {"android": "https://dc.lft.to/lastmile_qr_scan", "ios": "https://dc.lft.to/lastmile_qr_scan"}, "bike_id": "0f5b4bcc9f0a4c2eb06ef073d1e971f7", "lon": -77.02294283333333}, {"is_reserved": 0, "fusion_lon": 0.0, "fusion_lat": 0.0, "name": "5f6a3fc95ba7c6bc03fe9c95e5faf038", "type": "electric_scooter", "is_disabled": 0, "lat": 38.92158333333333, "rental_uris": {"android": "https://dc.lft.to/lastmile_qr_scan", "ios": "https://dc.lft.to/lastmile_qr_scan"}, "bike_id": "5f6a3fc95ba7c6bc03fe9c95e5faf038", "lon": -77.0432145}, {"is_reserved": 0, "fusion_lon": 0.0, "fusion_lat": 0.0, "name": "b3142d946ec468c69be24d68ef9624c8", "type": "electric_scooter", "is_disabled": 0, "lat": 38.9043225, "rental_uris": {"android": "https://dc.lft.to/lastmile_qr_scan", "ios": "https://dc.lft.to/lastmile_qr_scan"}, "bike_id": "b3142d946ec468c69be24d68ef9624c8", "lon": -77.034321}, {"is_reserved": 0, "fusion_lon": 0.0, "fusion_lat": 0.0, "name": "df523b78b84622e9ab2634c872b6512e", "type": "electric_scooter", "is_disabled": 0, "lat": 38.910905666666665, "rental_uris": {"android": "https://dc.lft.to/lastmile_qr_scan", "ios": "https://dc.lft.to/lastmile_qr_scan"}, "bike_id": "df523b78b84622e9ab2634c872b6512e", "lon": -77.04480683333334}, {"is_reserved": 0, "fusion_lon": 0.0, "fusion_lat": 0.0, "name": "559f408dc1c9bf5dd334ec0fec2db527", "type": "electric_scooter", "is_disabled": 0, "lat": 38.904142666666665, "rental_uris": {"android": "https://dc.lft.to/lastmile_qr_scan", "ios": "https://dc.lft.to/lastmile_qr_scan"}, "bike_id": "559f408dc1c9bf5dd334ec0fec2db527", "lon": -77.03088}, {"is_reserved": 0, "fusion_lon": 0.0, "fusion_lat": 0.0, "name": "fd1b16737420f4af9e464adcef5a6bc8", "type": "electric_bike", "is_disabled": 0, "lat": 38.853739, "rental_uris": {"android": "https://dc.lft.to/lastmile_qr_scan", "ios": "https://dc.lft.to/lastmile_qr_scan"}, "bike_id": "fd1b16737420f4af9e464adcef5a6bc8", "lon": -77.1246455}, {"is_reserved": 0, "fusion_lon": 0.0, "fusion_lat": 0.0, "name": "5606f0e91f462cdd1504de351fd48e63", "type": "electric_scooter", "is_disabled": 0, "lat": 38.936172666666664, "rental_uris": {"android": "https://dc.lft.to/lastmile_qr_scan", "ios": "https://dc.lft.to/lastmile_qr_scan"}, "bike_id": "5606f0e91f462cdd1504de351fd48e63", "lon": -77.067545}, {"is_reserved": 0, "fusion_lon": 0.0, "fusion_lat": 0.0, "name": "b48cbc6353285261eafae0d4cf1d0253", "type": "electric_bike", "is_disabled": 0, "lat": 38.87303, "rental_uris": {"android": "https://dc.lft.to/lastmile_qr_scan", "ios": "https://dc.lft.to/lastmile_qr_scan"}, "bike_id": "b48cbc6353285261eafae0d4cf1d0253", "lon": -77.13933783333333}, {"is_reserved": 0, "fusion_lon": 0.0, "fusion_lat": 0.0, "name": "c20d805e533062a491dbaf15234a086a", "type": "electric_scooter", "is_disabled": 0, "lat": 38.950151166666664, "rental_uris": {"android": "https://dc.lft.to/lastmile_qr_scan", "ios": "https://dc.lft.to/lastmile_qr_scan"}, "bike_id": "c20d805e533062a491dbaf15234a086a", "lon": -77.06705183333334}, {"is_reserved": 0, "fusion_lon": 0.0, "fusion_lat": 0.0, "name": "3809699417ba857c6dac283685277081", "type": "electric_scooter", "is_disabled": 0, "lat": 38.91695516666667, "rental_uris": {"android": "https://dc.lft.to/lastmile_qr_scan", "ios": "https://dc.lft.to/lastmile_qr_scan"}, "bike_id": "3809699417ba857c6dac283685277081", "lon": -77.028961}, {"is_reserved": 0, "fusion_lon": 0.0, "fusion_lat": 0.0, "name": "4dbe2fc965e600ddbc263f1ec8cc566f", "type": "electric_scooter", "is_disabled": 0, "lat": 38.897284, "rental_uris": {"android": "https://dc.lft.to/lastmile_qr_scan", "ios": "https://dc.lft.to/lastmile_qr_scan"}, "bike_id": "4dbe2fc965e600ddbc263f1ec8cc566f", "lon": -77.044077}, {"is_reserved": 0, "fusion_lon": 0.0, "fusion_lat": 0.0, "name": "e1e5af49aac7863fe9e0c2ec5e5ad878", "type": "electric_scooter", "is_disabled": 0, "lat": 38.8962085, "rental_uris": {"android": "https://dc.lft.to/lastmile_qr_scan", "ios": "https://dc.lft.to/lastmile_qr_scan"}, "bike_id": "e1e5af49aac7863fe9e0c2ec5e5ad878", "lon": -77.03187016666666}, {"is_reserved": 0, "fusion_lon": 0.0, "fusion_lat": 0.0, "name": "3ec405c166154a9074d92e4d647c9e73", "type": "electric_scooter", "is_disabled": 0, "lat": 38.90476133333333, "rental_uris": {"android": "https://dc.lft.to/lastmile_qr_scan", "ios": "https://dc.lft.to/lastmile_qr_scan"}, "bike_id": "3ec405c166154a9074d92e4d647c9e73", "lon": -77.03560016666667}, {"is_reserved": 0, "fusion_lon": 0.0, "fusion_lat": 0.0, "name": "454e0a96fa497d456c368aec2eec8ee5", "type": "electric_scooter", "is_disabled": 0, "lat": 38.9065265, "rental_uris": {"android": "https://dc.lft.to/lastmile_qr_scan", "ios": "https://dc.lft.to/lastmile_qr_scan"}, "bike_id": "454e0a96fa497d456c368aec2eec8ee5", "lon": -77.04875066666666}, {"is_reserved": 0, "fusion_lon": 0.0, "fusion_lat": 0.0, "name": "456d579a6af2f117ef27ce232ef0d727", "type": "electric_bike", "is_disabled": 0, "lat": 38.87987433333333, "rental_uris": {"android": "https://dc.lft.to/lastmile_qr_scan", "ios": "https://dc.lft.to/lastmile_qr_scan"}, "bike_id": "456d579a6af2f117ef27ce232ef0d727", "lon": -76.91604866666667}, {"is_reserved": 0, "fusion_lon": 0.0, "fusion_lat": 0.0, "name": "f63786a1acf086de094b765020c7e385", "type": "electric_scooter", "is_disabled": 0, "lat": 38.9051675, "rental_uris": {"android": "https://dc.lft.to/lastmile_qr_scan", "ios": "https://dc.lft.to/lastmile_qr_scan"}, "bike_id": "f63786a1acf086de094b765020c7e385", "lon": -77.0638395}, {"is_reserved": 0, "fusion_lon": 0.0, "fusion_lat": 0.0, "name": "5a6044b0abdb2355c45397c27d122d1f", "type": "electric_scooter", "is_disabled": 0, "lat": 38.903492, "rental_uris": {"android": "https://dc.lft.to/lastmile_qr_scan", "ios": "https://dc.lft.to/lastmile_qr_scan"}, "bike_id": "5a6044b0abdb2355c45397c27d122d1f", "lon": -77.04203433333333}, {"is_reserved": 0, "fusion_lon": 0.0, "fusion_lat": 0.0, "name": "3c96b840e75d92052dd998b7e26a2d58", "type": "electric_scooter", "is_disabled": 0, "lat": 38.9041335, "rental_uris": {"android": "https://dc.lft.to/lastmile_qr_scan", "ios": "https://dc.lft.to/lastmile_qr_scan"}, "bike_id": "3c96b840e75d92052dd998b7e26a2d58", "lon": -77.02938983333334}, {"is_reserved": 0, "fusion_lon": 0.0, "fusion_lat": 0.0, "name": "c0d235eb529d6099c2984cbac3a0f306", "type": "electric_scooter", "is_disabled": 0, "lat": 38.9611415, "rental_uris": {"android": "https://dc.lft.to/lastmile_qr_scan", "ios": "https://dc.lft.to/lastmile_qr_scan"}, "bike_id": "c0d235eb529d6099c2984cbac3a0f306", "lon": -77.009536}, {"is_reserved": 0, "fusion_lon": 0.0, "fusion_lat": 0.0, "name": "7768aff555f2c359f607798c6c92e398", "type": "electric_scooter", "is_disabled": 0, "lat": 38.916980333333335, "rental_uris": {"android": "https://dc.lft.to/lastmile_qr_scan", "ios": "https://dc.lft.to/lastmile_qr_scan"}, "bike_id": "7768aff555f2c359f607798c6c92e398", "lon": -77.04194866666667}, {"is_reserved": 0, "fusion_lon": 0.0, "fusion_lat": 0.0, "name": "003fae23f15bb4f9d582883353c30e68", "type": "electric_scooter", "is_disabled": 0, "lat": 38.900544833333335, "rental_uris": {"android": "https://dc.lft.to/lastmile_qr_scan", "ios": "https://dc.lft.to/lastmile_qr_scan"}, "bike_id": "003fae23f15bb4f9d582883353c30e68", "lon": -77.04839183333333}, {"is_reserved": 0, "fusion_lon": 0.0, "fusion_lat": 0.0, "name": "1fd261da393078c71f3e4d7d704dc5c1", "type": "electric_scooter", "is_disabled": 0, "lat": 38.936716833333335, "rental_uris": {"android": "https://dc.lft.to/lastmile_qr_scan", "ios": "https://dc.lft.to/lastmile_qr_scan"}, "bike_id": "1fd261da393078c71f3e4d7d704dc5c1", "lon": -77.03634883333334}, {"is_reserved": 0, "fusion_lon": 0.0, "fusion_lat": 0.0, "name": "8e3e3c056e63c6000ddf38910a26fd96", "type": "electric_scooter", "is_disabled": 0, "lat": 38.916924333333334, "rental_uris": {"android": "https://dc.lft.to/lastmile_qr_scan", "ios": "https://dc.lft.to/lastmile_qr_scan"}, "bike_id": "8e3e3c056e63c6000ddf38910a26fd96", "lon": -77.026014}, {"is_reserved": 0, "fusion_lon": 0.0, "fusion_lat": 0.0, "name": "8746f3a3c5f65f3b235125c7a6ea371d", "type": "electric_scooter", "is_disabled": 0, "lat": 38.9190985, "rental_uris": {"android": "https://dc.lft.to/lastmile_qr_scan", "ios": "https://dc.lft.to/lastmile_qr_scan"}, "bike_id": "8746f3a3c5f65f3b235125c7a6ea371d", "lon": -77.04803766666667}, {"is_reserved": 0, "fusion_lon": 0.0, "fusion_lat": 0.0, "name": "fddba3deac8ffec352fbcdc3ec596415", "type": "electric_scooter", "is_disabled": 0, "lat": 38.882993666666664, "rental_uris": {"android": "https://dc.lft.to/lastmile_qr_scan", "ios": "https://dc.lft.to/lastmile_qr_scan"}, "bike_id": "fddba3deac8ffec352fbcdc3ec596415", "lon": -77.01752733333333}, {"is_reserved": 0, "fusion_lon": 0.0, "fusion_lat": 0.0, "name": "45a270699af99540c625784c6e2c1e50", "type": "electric_scooter", "is_disabled": 0, "lat": 38.91712533333333, "rental_uris": {"android": "https://dc.lft.to/lastmile_qr_scan", "ios": "https://dc.lft.to/lastmile_qr_scan"}, "bike_id": "45a270699af99540c625784c6e2c1e50", "lon": -77.03473616666666}, {"is_reserved": 0, "fusion_lon": 0.0, "fusion_lat": 0.0, "name": "0a95b73b84eda0dc887c798d151ad0c9", "type": "electric_scooter", "is_disabled": 0, "lat": 38.92319416666667, "rental_uris": {"android": "https://dc.lft.to/lastmile_qr_scan", "ios": "https://dc.lft.to/lastmile_qr_scan"}, "bike_id": "0a95b73b84eda0dc887c798d151ad0c9", "lon": -76.999031}, {"is_reserved": 0, "fusion_lon": 0.0, "fusion_lat": 0.0, "name": "54c1a9d70715e6256aa03ce811e12f13", "type": "electric_scooter", "is_disabled": 0, "lat": 38.880254666666666, "rental_uris": {"android": "https://dc.lft.to/lastmile_qr_scan", "ios": "https://dc.lft.to/lastmile_qr_scan"}, "bike_id": "54c1a9d70715e6256aa03ce811e12f13", "lon": -76.98479416666666}, {"is_reserved": 0, "fusion_lon": 0.0, "fusion_lat": 0.0, "name": "dc386371939321fd81a3ec7d4f50b1f0", "type": "electric_scooter", "is_disabled": 0, "lat": 38.905776833333334, "rental_uris": {"android": "https://dc.lft.to/lastmile_qr_scan", "ios": "https://dc.lft.to/lastmile_qr_scan"}, "bike_id": "dc386371939321fd81a3ec7d4f50b1f0", "lon": -77.00887116666667}, {"is_reserved": 0, "fusion_lon": 0.0, "fusion_lat": 0.0, "name": "df073f145b35880cec39e5559798f3f4", "type": "electric_scooter", "is_disabled": 0, "lat": 38.91881766666667, "rental_uris": {"android": "https://dc.lft.to/lastmile_qr_scan", "ios": "https://dc.lft.to/lastmile_qr_scan"}, "bike_id": "df073f145b35880cec39e5559798f3f4", "lon": -77.03491366666667}, {"is_reserved": 0, "fusion_lon": 0.0, "fusion_lat": 0.0, "name": "6a2a059095488d183d3ebd5c3589f3c4", "type": "electric_scooter", "is_disabled": 0, "lat": 38.90978283333333, "rental_uris": {"android": "https://dc.lft.to/lastmile_qr_scan", "ios": "https://dc.lft.to/lastmile_qr_scan"}, "bike_id": "6a2a059095488d183d3ebd5c3589f3c4", "lon": -77.031819}, {"is_reserved": 0, "fusion_lon": 0.0, "fusion_lat": 0.0, "name": "759196a01025250020937abab859e849", "type": "electric_scooter", "is_disabled": 0, "lat": 38.879461, "rental_uris": {"android": "https://dc.lft.to/lastmile_qr_scan", "ios": "https://dc.lft.to/lastmile_qr_scan"}, "bike_id": "759196a01025250020937abab859e849", "lon": -77.00740983333333}, {"is_reserved": 0, "fusion_lon": 0.0, "fusion_lat": 0.0, "name": "111a12927a8950170b294d3a05eff9ce", "type": "electric_scooter", "is_disabled": 0, "lat": 38.904117666666664, "rental_uris": {"android": "https://dc.lft.to/lastmile_qr_scan", "ios": "https://dc.lft.to/lastmile_qr_scan"}, "bike_id": "111a12927a8950170b294d3a05eff9ce", "lon": -77.0170255}, {"is_reserved": 0, "fusion_lon": 0.0, "fusion_lat": 0.0, "name": "b49f47eeb787e884754220481f048cc6", "type": "electric_scooter", "is_disabled": 0, "lat": 38.91819816666667, "rental_uris": {"android": "https://dc.lft.to/lastmile_qr_scan", "ios": "https://dc.lft.to/lastmile_qr_scan"}, "bike_id": "b49f47eeb787e884754220481f048cc6", "lon": -77.03454716666667}, {"is_reserved": 0, "fusion_lon": 0.0, "fusion_lat": 0.0, "name": "9ca490a72db89c1c65c3a57f63e9a2b8", "type": "electric_scooter", "is_disabled": 0, "lat": 38.8973045, "rental_uris": {"android": "https://dc.lft.to/lastmile_qr_scan", "ios": "https://dc.lft.to/lastmile_qr_scan"}, "bike_id": "9ca490a72db89c1c65c3a57f63e9a2b8", "lon": -77.033526}, {"is_reserved": 0, "fusion_lon": 0.0, "fusion_lat": 0.0, "name": "d71001ccf6ff31430c32926752419595", "type": "electric_scooter", "is_disabled": 0, "lat": 38.904995666666665, "rental_uris": {"android": "https://dc.lft.to/lastmile_qr_scan", "ios": "https://dc.lft.to/lastmile_qr_scan"}, "bike_id": "d71001ccf6ff31430c32926752419595", "lon": -76.9742455}, {"is_reserved": 0, "fusion_lon": 0.0, "fusion_lat": 0.0, "name": "57e825e0b4431e97f899d508827607fa", "type": "electric_scooter", "is_disabled": 0, "lat": 38.903866, "rental_uris": {"android": "https://dc.lft.to/lastmile_qr_scan", "ios": "https://dc.lft.to/lastmile_qr_scan"}, "bike_id": "57e825e0b4431e97f899d508827607fa", "lon": -77.03014716666667}, {"is_reserved": 0, "fusion_lon": 0.0, "fusion_lat": 0.0, "name": "520547420efa70696e6073db982fb27e", "type": "electric_bike", "is_disabled": 0, "lat": 38.89614366666667, "rental_uris": {"android": "https://dc.lft.to/lastmile_qr_scan", "ios": "https://dc.lft.to/lastmile_qr_scan"}, "bike_id": "520547420efa70696e6073db982fb27e", "lon": -76.90742}, {"is_reserved": 0, "fusion_lon": 0.0, "fusion_lat": 0.0, "name": "f88ef0abcceb557f158b4801c26f2801", "type": "electric_scooter", "is_disabled": 0, "lat": 38.8973335, "rental_uris": {"android": "https://dc.lft.to/lastmile_qr_scan", "ios": "https://dc.lft.to/lastmile_qr_scan"}, "bike_id": "f88ef0abcceb557f158b4801c26f2801", "lon": -77.05573766666667}, {"is_reserved": 0, "fusion_lon": 0.0, "fusion_lat": 0.0, "name": "3621eceee03f8df47edea1fe6885c9fd", "type": "electric_scooter", "is_disabled": 0, "lat": 38.9332165, "rental_uris": {"android": "https://dc.lft.to/lastmile_qr_scan", "ios": "https://dc.lft.to/lastmile_qr_scan"}, "bike_id": "3621eceee03f8df47edea1fe6885c9fd", "lon": -77.03441183333334}, {"is_reserved": 0, "fusion_lon": 0.0, "fusion_lat": 0.0, "name": "c884b2f71dbff531ff8ceb5ab4e7e8a3", "type": "electric_scooter", "is_disabled": 0, "lat": 38.885319833333334, "rental_uris": {"android": "https://dc.lft.to/lastmile_qr_scan", "ios": "https://dc.lft.to/lastmile_qr_scan"}, "bike_id": "c884b2f71dbff531ff8ceb5ab4e7e8a3", "lon": -76.98268916666666}, {"is_reserved": 0, "fusion_lon": 0.0, "fusion_lat": 0.0, "name": "e342788f0482b7c29ccd6475a04f0dfb", "type": "electric_scooter", "is_disabled": 0, "lat": 38.93606033333333, "rental_uris": {"android": "https://dc.lft.to/lastmile_qr_scan", "ios": "https://dc.lft.to/lastmile_qr_scan"}, "bike_id": "e342788f0482b7c29ccd6475a04f0dfb", "lon": -77.02918333333334}, {"is_reserved": 0, "fusion_lon": 0.0, "fusion_lat": 0.0, "name": "c406ccf9c252be25bcaec26a441721d8", "type": "electric_scooter", "is_disabled": 0, "lat": 38.837018666666665, "rental_uris": {"android": "https://dc.lft.to/lastmile_qr_scan", "ios": "https://dc.lft.to/lastmile_qr_scan"}, "bike_id": "c406ccf9c252be25bcaec26a441721d8", "lon": -77.00572133333333}, {"is_reserved": 0, "fusion_lon": 0.0, "fusion_lat": 0.0, "name": "8a84eff1b94001122d63f12d8dcb4ec8", "type": "electric_scooter", "is_disabled": 0, "lat": 38.90113683333333, "rental_uris": {"android": "https://dc.lft.to/lastmile_qr_scan", "ios": "https://dc.lft.to/lastmile_qr_scan"}, "bike_id": "8a84eff1b94001122d63f12d8dcb4ec8", "lon": -77.06005283333333}, {"is_reserved": 0, "fusion_lon": 0.0, "fusion_lat": 0.0, "name": "7f505cbcbbbdd5fb1d134861b710d9e5", "type": "electric_scooter", "is_disabled": 0, "lat": 38.885820333333335, "rental_uris": {"android": "https://dc.lft.to/lastmile_qr_scan", "ios": "https://dc.lft.to/lastmile_qr_scan"}, "bike_id": "7f505cbcbbbdd5fb1d134861b710d9e5", "lon": -77.02005516666667}, {"is_reserved": 0, "fusion_lon": 0.0, "fusion_lat": 0.0, "name": "4fc1105d1ce9da5d2819ca3550a76c10", "type": "electric_scooter", "is_disabled": 0, "lat": 38.91794483333334, "rental_uris": {"android": "https://dc.lft.to/lastmile_qr_scan", "ios": "https://dc.lft.to/lastmile_qr_scan"}, "bike_id": "4fc1105d1ce9da5d2819ca3550a76c10", "lon": -77.031796}, {"is_reserved": 0, "fusion_lon": 0.0, "fusion_lat": 0.0, "name": "38806dec2387a0b9d20a2fe725ad174d", "type": "electric_scooter", "is_disabled": 0, "lat": 38.84430733333333, "rental_uris": {"android": "https://dc.lft.to/lastmile_qr_scan", "ios": "https://dc.lft.to/lastmile_qr_scan"}, "bike_id": "38806dec2387a0b9d20a2fe725ad174d", "lon": -76.99712183333334}, {"is_reserved": 0, "fusion_lon": 0.0, "fusion_lat": 0.0, "name": "c52c3a71964e5b4efaff6509a4d7854a", "type": "electric_scooter", "is_disabled": 0, "lat": 38.941127333333334, "rental_uris": {"android": "https://dc.lft.to/lastmile_qr_scan", "ios": "https://dc.lft.to/lastmile_qr_scan"}, "bike_id": "c52c3a71964e5b4efaff6509a4d7854a", "lon": -77.01538583333334}, {"is_reserved": 0, "fusion_lon": 0.0, "fusion_lat": 0.0, "name": "4986dc0359a2980ec738c6d8625f2350", "type": "electric_scooter", "is_disabled": 0, "lat": 38.908201, "rental_uris": {"android": "https://dc.lft.to/lastmile_qr_scan", "ios": "https://dc.lft.to/lastmile_qr_scan"}, "bike_id": "4986dc0359a2980ec738c6d8625f2350", "lon": -77.03297366666666}, {"is_reserved": 0, "fusion_lon": 0.0, "fusion_lat": 0.0, "name": "7caf7be14481da2e477c3627f52399ee", "type": "electric_scooter", "is_disabled": 0, "lat": 38.906481666666664, "rental_uris": {"android": "https://dc.lft.to/lastmile_qr_scan", "ios": "https://dc.lft.to/lastmile_qr_scan"}, "bike_id": "7caf7be14481da2e477c3627f52399ee", "lon": -77.02693683333334}, {"is_reserved": 0, "fusion_lon": 0.0, "fusion_lat": 0.0, "name": "6478771c0c03225467699d7c043a465a", "type": "electric_scooter", "is_disabled": 0, "lat": 38.909000166666665, "rental_uris": {"android": "https://dc.lft.to/lastmile_qr_scan", "ios": "https://dc.lft.to/lastmile_qr_scan"}, "bike_id": "6478771c0c03225467699d7c043a465a", "lon": -77.04137033333333}, {"is_reserved": 0, "fusion_lon": 0.0, "fusion_lat": 0.0, "name": "e50e9faf02ad3cd66b2a88ca97c4bda7", "type": "electric_scooter", "is_disabled": 0, "lat": 38.9072685, "rental_uris": {"android": "https://dc.lft.to/lastmile_qr_scan", "ios": "https://dc.lft.to/lastmile_qr_scan"}, "bike_id": "e50e9faf02ad3cd66b2a88ca97c4bda7", "lon": -77.0107275}, {"is_reserved": 0, "fusion_lon": 0.0, "fusion_lat": 0.0, "name": "2b75331beda3ffd5bde5df509b355441", "type": "electric_scooter", "is_disabled": 0, "lat": 38.921028166666666, "rental_uris": {"android": "https://dc.lft.to/lastmile_qr_scan", "ios": "https://dc.lft.to/lastmile_qr_scan"}, "bike_id": "2b75331beda3ffd5bde5df509b355441", "lon": -77.039208}, {"is_reserved": 0, "fusion_lon": 0.0, "fusion_lat": 0.0, "name": "19adc5bc788ad1d14d8f3b8fed03d48a", "type": "electric_bike", "is_disabled": 0, "lat": 39.043026166666664, "rental_uris": {"android": "https://dc.lft.to/lastmile_qr_scan", "ios": "https://dc.lft.to/lastmile_qr_scan"}, "bike_id": "19adc5bc788ad1d14d8f3b8fed03d48a", "lon": -77.05162416666667}, {"is_reserved": 0, "fusion_lon": 0.0, "fusion_lat": 0.0, "name": "914cc5460dd773f481fba746c5bdbad9", "type": "electric_scooter", "is_disabled": 0, "lat": 38.896079, "rental_uris": {"android": "https://dc.lft.to/lastmile_qr_scan", "ios": "https://dc.lft.to/lastmile_qr_scan"}, "bike_id": "914cc5460dd773f481fba746c5bdbad9", "lon": -76.99971766666667}, {"is_reserved": 0, "fusion_lon": 0.0, "fusion_lat": 0.0, "name": "ca1e0dd170cf6f032b5520dc0bcc3bf6", "type": "electric_scooter", "is_disabled": 0, "lat": 38.9000495, "rental_uris": {"android": "https://dc.lft.to/lastmile_qr_scan", "ios": "https://dc.lft.to/lastmile_qr_scan"}, "bike_id": "ca1e0dd170cf6f032b5520dc0bcc3bf6", "lon": -76.99616933333333}, {"is_reserved": 0, "fusion_lon": 0.0, "fusion_lat": 0.0, "name": "b9e094c672711539ec2b078a533e994d", "type": "electric_scooter", "is_disabled": 0, "lat": 38.8987165, "rental_uris": {"android": "https://dc.lft.to/lastmile_qr_scan", "ios": "https://dc.lft.to/lastmile_qr_scan"}, "bike_id": "b9e094c672711539ec2b078a533e994d", "lon": -77.032821}, {"is_reserved": 0, "fusion_lon": 0.0, "fusion_lat": 0.0, "name": "281ed10e69b07dbab2c513f7d529721f", "type": "electric_scooter", "is_disabled": 0, "lat": 38.8871645, "rental_uris": {"android": "https://dc.lft.to/lastmile_qr_scan", "ios": "https://dc.lft.to/lastmile_qr_scan"}, "bike_id": "281ed10e69b07dbab2c513f7d529721f", "lon": -77.0320555}, {"is_reserved": 0, "fusion_lon": 0.0, "fusion_lat": 0.0, "name": "2c6a44a2368738c32a2e7830999a908d", "type": "electric_scooter", "is_disabled": 0, "lat": 38.9059635, "rental_uris": {"android": "https://dc.lft.to/lastmile_qr_scan", "ios": "https://dc.lft.to/lastmile_qr_scan"}, "bike_id": "2c6a44a2368738c32a2e7830999a908d", "lon": -77.0641935}, {"is_reserved": 0, "fusion_lon": 0.0, "fusion_lat": 0.0, "name": "a34165588be3a8439d7645ccc714692b", "type": "electric_scooter", "is_disabled": 0, "lat": 38.922177, "rental_uris": {"android": "https://dc.lft.to/lastmile_qr_scan", "ios": "https://dc.lft.to/lastmile_qr_scan"}, "bike_id": "a34165588be3a8439d7645ccc714692b", "lon": -77.04333466666667}, {"is_reserved": 0, "fusion_lon": 0.0, "fusion_lat": 0.0, "name": "f39bb7e78e88c6ab2abfedd7130f1b8a", "type": "electric_scooter", "is_disabled": 0, "lat": 38.896014666666666, "rental_uris": {"android": "https://dc.lft.to/lastmile_qr_scan", "ios": "https://dc.lft.to/lastmile_qr_scan"}, "bike_id": "f39bb7e78e88c6ab2abfedd7130f1b8a", "lon": -77.01146666666666}, {"is_reserved": 0, "fusion_lon": 0.0, "fusion_lat": 0.0, "name": "e2de2b7020e69d95eacb5122a3224c83", "type": "electric_scooter", "is_disabled": 0, "lat": 38.915242, "rental_uris": {"android": "https://dc.lft.to/lastmile_qr_scan", "ios": "https://dc.lft.to/lastmile_qr_scan"}, "bike_id": "e2de2b7020e69d95eacb5122a3224c83", "lon": -76.9705185}, {"is_reserved": 0, "fusion_lon": 0.0, "fusion_lat": 0.0, "name": "8771ae1ce338bfaf5131f12cf7b6c8de", "type": "electric_scooter", "is_disabled": 0, "lat": 38.92036133333333, "rental_uris": {"android": "https://dc.lft.to/lastmile_qr_scan", "ios": "https://dc.lft.to/lastmile_qr_scan"}, "bike_id": "8771ae1ce338bfaf5131f12cf7b6c8de", "lon": -76.99729666666667}, {"is_reserved": 0, "fusion_lon": 0.0, "fusion_lat": 0.0, "name": "501c016eab41448bfb08736e1865a631", "type": "electric_scooter", "is_disabled": 0, "lat": 38.86060483333333, "rental_uris": {"android": "https://dc.lft.to/lastmile_qr_scan", "ios": "https://dc.lft.to/lastmile_qr_scan"}, "bike_id": "501c016eab41448bfb08736e1865a631", "lon": -76.985019}, {"is_reserved": 0, "fusion_lon": 0.0, "fusion_lat": 0.0, "name": "c5c8bc8c3b3e60efa1f2bf9a06894f3d", "type": "electric_scooter", "is_disabled": 0, "lat": 38.907318333333336, "rental_uris": {"android": "https://dc.lft.to/lastmile_qr_scan", "ios": "https://dc.lft.to/lastmile_qr_scan"}, "bike_id": "c5c8bc8c3b3e60efa1f2bf9a06894f3d", "lon": -76.98698516666667}, {"is_reserved": 0, "fusion_lon": 0.0, "fusion_lat": 0.0, "name": "9f62e5c0dc505bd4cceddc87b817e74c", "type": "electric_scooter", "is_disabled": 0, "lat": 38.917001666666664, "rental_uris": {"android": "https://dc.lft.to/lastmile_qr_scan", "ios": "https://dc.lft.to/lastmile_qr_scan"}, "bike_id": "9f62e5c0dc505bd4cceddc87b817e74c", "lon": -77.028992}, {"is_reserved": 0, "fusion_lon": 0.0, "fusion_lat": 0.0, "name": "022668dd77e16c4441d681b4bed709d4", "type": "electric_scooter", "is_disabled": 0, "lat": 38.92359666666667, "rental_uris": {"android": "https://dc.lft.to/lastmile_qr_scan", "ios": "https://dc.lft.to/lastmile_qr_scan"}, "bike_id": "022668dd77e16c4441d681b4bed709d4", "lon": -77.0192465}, {"is_reserved": 0, "fusion_lon": 0.0, "fusion_lat": 0.0, "name": "7d103124a604f3ac3acd9c4e074956b6", "type": "electric_scooter", "is_disabled": 0, "lat": 38.9037, "rental_uris": {"android": "https://dc.lft.to/lastmile_qr_scan", "ios": "https://dc.lft.to/lastmile_qr_scan"}, "bike_id": "7d103124a604f3ac3acd9c4e074956b6", "lon": -76.99710766666666}, {"is_reserved": 0, "fusion_lon": 0.0, "fusion_lat": 0.0, "name": "63a663bd8d7524ba23f0c438e96ad1d1", "type": "electric_scooter", "is_disabled": 0, "lat": 38.937118, "rental_uris": {"android": "https://dc.lft.to/lastmile_qr_scan", "ios": "https://dc.lft.to/lastmile_qr_scan"}, "bike_id": "63a663bd8d7524ba23f0c438e96ad1d1", "lon": -77.02938166666667}, {"is_reserved": 0, "fusion_lon": 0.0, "fusion_lat": 0.0, "name": "7b0b8dc37cde7a7ae66f59a2d43a13ac", "type": "electric_scooter", "is_disabled": 0, "lat": 38.923441833333335, "rental_uris": {"android": "https://dc.lft.to/lastmile_qr_scan", "ios": "https://dc.lft.to/lastmile_qr_scan"}, "bike_id": "7b0b8dc37cde7a7ae66f59a2d43a13ac", "lon": -77.0512585}, {"is_reserved": 0, "fusion_lon": 0.0, "fusion_lat": 0.0, "name": "01d627abff5cbc5841777cf4c66cd070", "type": "electric_scooter", "is_disabled": 0, "lat": 38.9274945, "rental_uris": {"android": "https://dc.lft.to/lastmile_qr_scan", "ios": "https://dc.lft.to/lastmile_qr_scan"}, "bike_id": "01d627abff5cbc5841777cf4c66cd070", "lon": -77.0242245}, {"is_reserved": 0, "fusion_lon": 0.0, "fusion_lat": 0.0, "name": "e03560b8411a7a0b80b54bf086137cff", "type": "electric_scooter", "is_disabled": 0, "lat": 38.90260983333334, "rental_uris": {"android": "https://dc.lft.to/lastmile_qr_scan", "ios": "https://dc.lft.to/lastmile_qr_scan"}, "bike_id": "e03560b8411a7a0b80b54bf086137cff", "lon": -76.98996816666667}, {"is_reserved": 0, "fusion_lon": 0.0, "fusion_lat": 0.0, "name": "8d7558f8f808d7bc5fd16db22cbf936f", "type": "electric_scooter", "is_disabled": 0, "lat": 38.918788666666664, "rental_uris": {"android": "https://dc.lft.to/lastmile_qr_scan", "ios": "https://dc.lft.to/lastmile_qr_scan"}, "bike_id": "8d7558f8f808d7bc5fd16db22cbf936f", "lon": -77.03508983333333}, {"is_reserved": 0, "fusion_lon": 0.0, "fusion_lat": 0.0, "name": "2966045bbf112ae1d6cdd725437e0c3b", "type": "electric_scooter", "is_disabled": 0, "lat": 38.907362666666664, "rental_uris": {"android": "https://dc.lft.to/lastmile_qr_scan", "ios": "https://dc.lft.to/lastmile_qr_scan"}, "bike_id": "2966045bbf112ae1d6cdd725437e0c3b", "lon": -77.04203016666666}, {"is_reserved": 0, "fusion_lon": 0.0, "fusion_lat": 0.0, "name": "e5e7643a87a2fd33ec7061427ef127be", "type": "electric_scooter", "is_disabled": 0, "lat": 38.91183916666667, "rental_uris": {"android": "https://dc.lft.to/lastmile_qr_scan", "ios": "https://dc.lft.to/lastmile_qr_scan"}, "bike_id": "e5e7643a87a2fd33ec7061427ef127be", "lon": -77.03831366666667}, {"is_reserved": 0, "fusion_lon": 0.0, "fusion_lat": 0.0, "name": "6141156cabb82ec7073427a6b9319f90", "type": "electric_scooter", "is_disabled": 0, "lat": 38.913393666666664, "rental_uris": {"android": "https://dc.lft.to/lastmile_qr_scan", "ios": "https://dc.lft.to/lastmile_qr_scan"}, "bike_id": "6141156cabb82ec7073427a6b9319f90", "lon": -77.03967416666667}, {"is_reserved": 0, "fusion_lon": 0.0, "fusion_lat": 0.0, "name": "d2f9f06fd80b1d33357970f5ec17899f", "type": "electric_scooter", "is_disabled": 0, "lat": 38.9037305, "rental_uris": {"android": "https://dc.lft.to/lastmile_qr_scan", "ios": "https://dc.lft.to/lastmile_qr_scan"}, "bike_id": "d2f9f06fd80b1d33357970f5ec17899f", "lon": -77.00983366666667}, {"is_reserved": 0, "fusion_lon": 0.0, "fusion_lat": 0.0, "name": "21189709f9507c255582b8532d1587c4", "type": "electric_scooter", "is_disabled": 0, "lat": 38.90132833333333, "rental_uris": {"android": "https://dc.lft.to/lastmile_qr_scan", "ios": "https://dc.lft.to/lastmile_qr_scan"}, "bike_id": "21189709f9507c255582b8532d1587c4", "lon": -77.0499815}, {"is_reserved": 0, "fusion_lon": 0.0, "fusion_lat": 0.0, "name": "0796d01c0d941a18aa04a32d7c8f0690", "type": "electric_scooter", "is_disabled": 0, "lat": 38.9207325, "rental_uris": {"android": "https://dc.lft.to/lastmile_qr_scan", "ios": "https://dc.lft.to/lastmile_qr_scan"}, "bike_id": "0796d01c0d941a18aa04a32d7c8f0690", "lon": -77.041044}, {"is_reserved": 0, "fusion_lon": 0.0, "fusion_lat": 0.0, "name": "e84458f4e45859ae13079c9cb871bce1", "type": "electric_scooter", "is_disabled": 0, "lat": 38.900280333333335, "rental_uris": {"android": "https://dc.lft.to/lastmile_qr_scan", "ios": "https://dc.lft.to/lastmile_qr_scan"}, "bike_id": "e84458f4e45859ae13079c9cb871bce1", "lon": -76.99617333333333}, {"is_reserved": 0, "fusion_lon": 0.0, "fusion_lat": 0.0, "name": "5dab2d0ee829208633c44175da9028a2", "type": "electric_scooter", "is_disabled": 0, "lat": 38.8798335, "rental_uris": {"android": "https://dc.lft.to/lastmile_qr_scan", "ios": "https://dc.lft.to/lastmile_qr_scan"}, "bike_id": "5dab2d0ee829208633c44175da9028a2", "lon": -77.01532766666666}, {"is_reserved": 0, "fusion_lon": 0.0, "fusion_lat": 0.0, "name": "c0ef4e08bb296450faeadf953c687110", "type": "electric_scooter", "is_disabled": 0, "lat": 38.909476, "rental_uris": {"android": "https://dc.lft.to/lastmile_qr_scan", "ios": "https://dc.lft.to/lastmile_qr_scan"}, "bike_id": "c0ef4e08bb296450faeadf953c687110", "lon": -77.04572183333333}, {"is_reserved": 0, "fusion_lon": 0.0, "fusion_lat": 0.0, "name": "bd522850f754140e783865c7c2418c33", "type": "electric_bike", "is_disabled": 0, "lat": 38.82785633333334, "rental_uris": {"android": "https://dc.lft.to/lastmile_qr_scan", "ios": "https://dc.lft.to/lastmile_qr_scan"}, "bike_id": "bd522850f754140e783865c7c2418c33", "lon": -77.00916383333333}, {"is_reserved": 0, "fusion_lon": 0.0, "fusion_lat": 0.0, "name": "e339e5b5960c5a59eb384dd019a53c96", "type": "electric_scooter", "is_disabled": 0, "lat": 38.905061, "rental_uris": {"android": "https://dc.lft.to/lastmile_qr_scan", "ios": "https://dc.lft.to/lastmile_qr_scan"}, "bike_id": "e339e5b5960c5a59eb384dd019a53c96", "lon": -76.98484166666667}, {"is_reserved": 0, "fusion_lon": 0.0, "fusion_lat": 0.0, "name": "7d01f8791130163a227034c9423f3bd9", "type": "electric_scooter", "is_disabled": 0, "lat": 38.90958766666667, "rental_uris": {"android": "https://dc.lft.to/lastmile_qr_scan", "ios": "https://dc.lft.to/lastmile_qr_scan"}, "bike_id": "7d01f8791130163a227034c9423f3bd9", "lon": -77.0341875}, {"is_reserved": 0, "fusion_lon": 0.0, "fusion_lat": 0.0, "name": "5187e3b1311058099d4fbd8658c5eab0", "type": "electric_bike", "is_disabled": 0, "lat": 39.05498583333333, "rental_uris": {"android": "https://dc.lft.to/lastmile_qr_scan", "ios": "https://dc.lft.to/lastmile_qr_scan"}, "bike_id": "5187e3b1311058099d4fbd8658c5eab0", "lon": -77.11794383333333}, {"is_reserved": 0, "fusion_lon": 0.0, "fusion_lat": 0.0, "name": "e3618a7fd51020f6664219437156269d", "type": "electric_scooter", "is_disabled": 0, "lat": 38.914569666666665, "rental_uris": {"android": "https://dc.lft.to/lastmile_qr_scan", "ios": "https://dc.lft.to/lastmile_qr_scan"}, "bike_id": "e3618a7fd51020f6664219437156269d", "lon": -77.04546883333333}, {"is_reserved": 0, "fusion_lon": 0.0, "fusion_lat": 0.0, "name": "c36265ab654bb6d59e6db673da588d97", "type": "electric_scooter", "is_disabled": 0, "lat": 38.9266125, "rental_uris": {"android": "https://dc.lft.to/lastmile_qr_scan", "ios": "https://dc.lft.to/lastmile_qr_scan"}, "bike_id": "c36265ab654bb6d59e6db673da588d97", "lon": -77.008719}, {"is_reserved": 0, "fusion_lon": 0.0, "fusion_lat": 0.0, "name": "10587bef1f8f3e918835ea185c9c7364", "type": "electric_scooter", "is_disabled": 0, "lat": 38.881247333333334, "rental_uris": {"android": "https://dc.lft.to/lastmile_qr_scan", "ios": "https://dc.lft.to/lastmile_qr_scan"}, "bike_id": "10587bef1f8f3e918835ea185c9c7364", "lon": -77.0008045}, {"is_reserved": 0, "fusion_lon": 0.0, "fusion_lat": 0.0, "name": "64a6547ae9370c445376eb54053a10cf", "type": "electric_bike", "is_disabled": 0, "lat": 39.0343155, "rental_uris": {"android": "https://dc.lft.to/lastmile_qr_scan", "ios": "https://dc.lft.to/lastmile_qr_scan"}, "bike_id": "64a6547ae9370c445376eb54053a10cf", "lon": -77.04090216666667}, {"is_reserved": 0, "fusion_lon": 0.0, "fusion_lat": 0.0, "name": "374604443f0376180cb4a20c95dbe130", "type": "electric_scooter", "is_disabled": 0, "lat": 38.929631666666666, "rental_uris": {"android": "https://dc.lft.to/lastmile_qr_scan", "ios": "https://dc.lft.to/lastmile_qr_scan"}, "bike_id": "374604443f0376180cb4a20c95dbe130", "lon": -77.02760216666667}, {"is_reserved": 0, "fusion_lon": 0.0, "fusion_lat": 0.0, "name": "726e8d316cca53584ca7d850fe241d06", "type": "electric_bike", "is_disabled": 0, "lat": 38.88332283333333, "rental_uris": {"android": "https://dc.lft.to/lastmile_qr_scan", "ios": "https://dc.lft.to/lastmile_qr_scan"}, "bike_id": "726e8d316cca53584ca7d850fe241d06", "lon": -77.06566833333333}, {"is_reserved": 0, "fusion_lon": 0.0, "fusion_lat": 0.0, "name": "982dd50243d55066c0124ebe155b95d6", "type": "electric_bike", "is_disabled": 0, "lat": 38.924581833333335, "rental_uris": {"android": "https://dc.lft.to/lastmile_qr_scan", "ios": "https://dc.lft.to/lastmile_qr_scan"}, "bike_id": "982dd50243d55066c0124ebe155b95d6", "lon": -76.97561483333334}, {"is_reserved": 0, "fusion_lon": 0.0, "fusion_lat": 0.0, "name": "f6ed3136b4cf0901a6b647f7391ed2a3", "type": "electric_scooter", "is_disabled": 0, "lat": 38.928647166666664, "rental_uris": {"android": "https://dc.lft.to/lastmile_qr_scan", "ios": "https://dc.lft.to/lastmile_qr_scan"}, "bike_id": "f6ed3136b4cf0901a6b647f7391ed2a3", "lon": -77.0333465}, {"is_reserved": 0, "fusion_lon": 0.0, "fusion_lat": 0.0, "name": "4c24ad6d4a36739dc01984740aeeff23", "type": "electric_scooter", "is_disabled": 0, "lat": 38.93093983333333, "rental_uris": {"android": "https://dc.lft.to/lastmile_qr_scan", "ios": "https://dc.lft.to/lastmile_qr_scan"}, "bike_id": "4c24ad6d4a36739dc01984740aeeff23", "lon": -77.02800283333333}, {"is_reserved": 0, "fusion_lon": 0.0, "fusion_lat": 0.0, "name": "cf1d5b583818e612ec028f8b19c0a04f", "type": "electric_scooter", "is_disabled": 0, "lat": 38.91962983333333, "rental_uris": {"android": "https://dc.lft.to/lastmile_qr_scan", "ios": "https://dc.lft.to/lastmile_qr_scan"}, "bike_id": "cf1d5b583818e612ec028f8b19c0a04f", "lon": -77.0241555}, {"is_reserved": 0, "fusion_lon": 0.0, "fusion_lat": 0.0, "name": "fd8045c487e1015ce0c49071834518b6", "type": "electric_scooter", "is_disabled": 0, "lat": 38.916888166666666, "rental_uris": {"android": "https://dc.lft.to/lastmile_qr_scan", "ios": "https://dc.lft.to/lastmile_qr_scan"}, "bike_id": "fd8045c487e1015ce0c49071834518b6", "lon": -77.03314066666667}, {"is_reserved": 0, "fusion_lon": 0.0, "fusion_lat": 0.0, "name": "3b42c9bbd93e2a5d1c24c7152faea603", "type": "electric_scooter", "is_disabled": 0, "lat": 38.904533666666666, "rental_uris": {"android": "https://dc.lft.to/lastmile_qr_scan", "ios": "https://dc.lft.to/lastmile_qr_scan"}, "bike_id": "3b42c9bbd93e2a5d1c24c7152faea603", "lon": -77.04329466666667}, {"is_reserved": 0, "fusion_lon": 0.0, "fusion_lat": 0.0, "name": "2e8cf4916d2f9eaf61f892781ba355f1", "type": "electric_scooter", "is_disabled": 0, "lat": 38.954963, "rental_uris": {"android": "https://dc.lft.to/lastmile_qr_scan", "ios": "https://dc.lft.to/lastmile_qr_scan"}, "bike_id": "2e8cf4916d2f9eaf61f892781ba355f1", "lon": -77.02963733333333}, {"is_reserved": 0, "fusion_lon": 0.0, "fusion_lat": 0.0, "name": "e74dad4c92999cd13a046ae67b90e6f3", "type": "electric_scooter", "is_disabled": 0, "lat": 38.91725316666667, "rental_uris": {"android": "https://dc.lft.to/lastmile_qr_scan", "ios": "https://dc.lft.to/lastmile_qr_scan"}, "bike_id": "e74dad4c92999cd13a046ae67b90e6f3", "lon": -77.03661216666667}, {"is_reserved": 0, "fusion_lon": 0.0, "fusion_lat": 0.0, "name": "1104e1315f3638fdeb29c039a64f38b6", "type": "electric_scooter", "is_disabled": 0, "lat": 38.906412, "rental_uris": {"android": "https://dc.lft.to/lastmile_qr_scan", "ios": "https://dc.lft.to/lastmile_qr_scan"}, "bike_id": "1104e1315f3638fdeb29c039a64f38b6", "lon": -77.06919}, {"is_reserved": 0, "fusion_lon": 0.0, "fusion_lat": 0.0, "name": "e86f5593fcecb98af952dd4b76cdc54f", "type": "electric_scooter", "is_disabled": 0, "lat": 38.900687833333336, "rental_uris": {"android": "https://dc.lft.to/lastmile_qr_scan", "ios": "https://dc.lft.to/lastmile_qr_scan"}, "bike_id": "e86f5593fcecb98af952dd4b76cdc54f", "lon": -77.04535116666666}, {"is_reserved": 0, "fusion_lon": 0.0, "fusion_lat": 0.0, "name": "744eb7e8d7e9ac0ad23ecd4f37751765", "type": "electric_scooter", "is_disabled": 0, "lat": 38.90025083333333, "rental_uris": {"android": "https://dc.lft.to/lastmile_qr_scan", "ios": "https://dc.lft.to/lastmile_qr_scan"}, "bike_id": "744eb7e8d7e9ac0ad23ecd4f37751765", "lon": -77.033749}, {"is_reserved": 0, "fusion_lon": 0.0, "fusion_lat": 0.0, "name": "e47361624bbee23b4b62b34230734d72", "type": "electric_scooter", "is_disabled": 0, "lat": 38.910769, "rental_uris": {"android": "https://dc.lft.to/lastmile_qr_scan", "ios": "https://dc.lft.to/lastmile_qr_scan"}, "bike_id": "e47361624bbee23b4b62b34230734d72", "lon": -77.065434}, {"is_reserved": 0, "fusion_lon": 0.0, "fusion_lat": 0.0, "name": "47d10f0542ef8d5e335e4f30a0abdde4", "type": "electric_scooter", "is_disabled": 0, "lat": 38.90008016666667, "rental_uris": {"android": "https://dc.lft.to/lastmile_qr_scan", "ios": "https://dc.lft.to/lastmile_qr_scan"}, "bike_id": "47d10f0542ef8d5e335e4f30a0abdde4", "lon": -77.04397133333333}, {"is_reserved": 0, "fusion_lon": 0.0, "fusion_lat": 0.0, "name": "1cd2ee4055bcbb4cbe78f2e88657f6a5", "type": "electric_scooter", "is_disabled": 0, "lat": 38.883239333333336, "rental_uris": {"android": "https://dc.lft.to/lastmile_qr_scan", "ios": "https://dc.lft.to/lastmile_qr_scan"}, "bike_id": "1cd2ee4055bcbb4cbe78f2e88657f6a5", "lon": -77.01692866666667}, {"is_reserved": 0, "fusion_lon": 0.0, "fusion_lat": 0.0, "name": "8f1f91b7756ea68f032911f6971a5129", "type": "electric_bike", "is_disabled": 0, "lat": 38.80707683333333, "rental_uris": {"android": "https://dc.lft.to/lastmile_qr_scan", "ios": "https://dc.lft.to/lastmile_qr_scan"}, "bike_id": "8f1f91b7756ea68f032911f6971a5129", "lon": -77.06175216666666}, {"is_reserved": 0, "fusion_lon": 0.0, "fusion_lat": 0.0, "name": "5cc9ba1836d355ddb7eb4a5d255bd39d", "type": "electric_scooter", "is_disabled": 0, "lat": 38.90984733333333, "rental_uris": {"android": "https://dc.lft.to/lastmile_qr_scan", "ios": "https://dc.lft.to/lastmile_qr_scan"}, "bike_id": "5cc9ba1836d355ddb7eb4a5d255bd39d", "lon": -77.04870733333334}, {"is_reserved": 0, "fusion_lon": 0.0, "fusion_lat": 0.0, "name": "ab6285605031d05eb6d94471b596619f", "type": "electric_scooter", "is_disabled": 0, "lat": 38.897507833333336, "rental_uris": {"android": "https://dc.lft.to/lastmile_qr_scan", "ios": "https://dc.lft.to/lastmile_qr_scan"}, "bike_id": "ab6285605031d05eb6d94471b596619f", "lon": -77.046621}, {"is_reserved": 0, "fusion_lon": 0.0, "fusion_lat": 0.0, "name": "6df8231c8784146f85b94e5e95507153", "type": "electric_scooter", "is_disabled": 0, "lat": 38.90204966666667, "rental_uris": {"android": "https://dc.lft.to/lastmile_qr_scan", "ios": "https://dc.lft.to/lastmile_qr_scan"}, "bike_id": "6df8231c8784146f85b94e5e95507153", "lon": -76.97603366666667}, {"is_reserved": 0, "fusion_lon": 0.0, "fusion_lat": 0.0, "name": "a462ffaabd1955747ef0809947d09bd7", "type": "electric_scooter", "is_disabled": 0, "lat": 38.927877, "rental_uris": {"android": "https://dc.lft.to/lastmile_qr_scan", "ios": "https://dc.lft.to/lastmile_qr_scan"}, "bike_id": "a462ffaabd1955747ef0809947d09bd7", "lon": -77.0141095}, {"is_reserved": 0, "fusion_lon": 0.0, "fusion_lat": 0.0, "name": "64352008fd2b8be25c995a5353d8a543", "type": "electric_scooter", "is_disabled": 0, "lat": 38.90066783333333, "rental_uris": {"android": "https://dc.lft.to/lastmile_qr_scan", "ios": "https://dc.lft.to/lastmile_qr_scan"}, "bike_id": "64352008fd2b8be25c995a5353d8a543", "lon": -77.01314016666667}, {"is_reserved": 0, "fusion_lon": 0.0, "fusion_lat": 0.0, "name": "aaa9d2c800274e0335c35fcebca0ad2a", "type": "electric_bike", "is_disabled": 0, "lat": 38.80759233333333, "rental_uris": {"android": "https://dc.lft.to/lastmile_qr_scan", "ios": "https://dc.lft.to/lastmile_qr_scan"}, "bike_id": "aaa9d2c800274e0335c35fcebca0ad2a", "lon": -77.094698}, {"is_reserved": 0, "fusion_lon": 0.0, "fusion_lat": 0.0, "name": "8ec1339896bd3db34eb09417130aa90d", "type": "electric_scooter", "is_disabled": 0, "lat": 38.88611366666667, "rental_uris": {"android": "https://dc.lft.to/lastmile_qr_scan", "ios": "https://dc.lft.to/lastmile_qr_scan"}, "bike_id": "8ec1339896bd3db34eb09417130aa90d", "lon": -76.95583683333334}, {"is_reserved": 0, "fusion_lon": 0.0, "fusion_lat": 0.0, "name": "c42b107d05c1eb6284517251e814f16a", "type": "electric_scooter", "is_disabled": 0, "lat": 38.86696366666666, "rental_uris": {"android": "https://dc.lft.to/lastmile_qr_scan", "ios": "https://dc.lft.to/lastmile_qr_scan"}, "bike_id": "c42b107d05c1eb6284517251e814f16a", "lon": -76.98589616666666}, {"is_reserved": 0, "fusion_lon": 0.0, "fusion_lat": 0.0, "name": "1954ca73c45ef8a352bab594d259b726", "type": "electric_scooter", "is_disabled": 0, "lat": 38.8984755, "rental_uris": {"android": "https://dc.lft.to/lastmile_qr_scan", "ios": "https://dc.lft.to/lastmile_qr_scan"}, "bike_id": "1954ca73c45ef8a352bab594d259b726", "lon": -76.98176616666667}, {"is_reserved": 0, "fusion_lon": 0.0, "fusion_lat": 0.0, "name": "9ed93e104dd960c9f4321af88e6c2821", "type": "electric_scooter", "is_disabled": 0, "lat": 38.883053833333335, "rental_uris": {"android": "https://dc.lft.to/lastmile_qr_scan", "ios": "https://dc.lft.to/lastmile_qr_scan"}, "bike_id": "9ed93e104dd960c9f4321af88e6c2821", "lon": -77.03154333333333}, {"is_reserved": 0, "fusion_lon": 0.0, "fusion_lat": 0.0, "name": "813fb2067e990e3653d818036c211506", "type": "electric_scooter", "is_disabled": 0, "lat": 38.895451666666666, "rental_uris": {"android": "https://dc.lft.to/lastmile_qr_scan", "ios": "https://dc.lft.to/lastmile_qr_scan"}, "bike_id": "813fb2067e990e3653d818036c211506", "lon": -77.03259683333333}, {"is_reserved": 0, "fusion_lon": 0.0, "fusion_lat": 0.0, "name": "e3a1761b54a766fd2debd489ebfd50c0", "type": "electric_scooter", "is_disabled": 0, "lat": 38.882205, "rental_uris": {"android": "https://dc.lft.to/lastmile_qr_scan", "ios": "https://dc.lft.to/lastmile_qr_scan"}, "bike_id": "e3a1761b54a766fd2debd489ebfd50c0", "lon": -76.98984233333333}, {"is_reserved": 0, "fusion_lon": 0.0, "fusion_lat": 0.0, "name": "6603ea43489e42686f7331e1fec0076c", "type": "electric_bike", "is_disabled": 0, "lat": 38.9348325, "rental_uris": {"android": "https://dc.lft.to/lastmile_qr_scan", "ios": "https://dc.lft.to/lastmile_qr_scan"}, "bike_id": "6603ea43489e42686f7331e1fec0076c", "lon": -77.03020633333334}, {"is_reserved": 0, "fusion_lon": 0.0, "fusion_lat": 0.0, "name": "67e78579fb7ea25d94ad2b1dc4a1e353", "type": "electric_scooter", "is_disabled": 0, "lat": 38.887305166666664, "rental_uris": {"android": "https://dc.lft.to/lastmile_qr_scan", "ios": "https://dc.lft.to/lastmile_qr_scan"}, "bike_id": "67e78579fb7ea25d94ad2b1dc4a1e353", "lon": -77.02832466666666}, {"is_reserved": 0, "fusion_lon": 0.0, "fusion_lat": 0.0, "name": "e74af09b6a01334388bc0e339134456a", "type": "electric_scooter", "is_disabled": 0, "lat": 38.91530983333333, "rental_uris": {"android": "https://dc.lft.to/lastmile_qr_scan", "ios": "https://dc.lft.to/lastmile_qr_scan"}, "bike_id": "e74af09b6a01334388bc0e339134456a", "lon": -77.07415633333333}, {"is_reserved": 0, "fusion_lon": 0.0, "fusion_lat": 0.0, "name": "745e04c0a35f1149e3b4e6511feff0f3", "type": "electric_scooter", "is_disabled": 0, "lat": 38.917955, "rental_uris": {"android": "https://dc.lft.to/lastmile_qr_scan", "ios": "https://dc.lft.to/lastmile_qr_scan"}, "bike_id": "745e04c0a35f1149e3b4e6511feff0f3", "lon": -77.03227383333333}, {"is_reserved": 0, "fusion_lon": 0.0, "fusion_lat": 0.0, "name": "0722dfa5dbe83adc184672bf0ec7529d", "type": "electric_scooter", "is_disabled": 0, "lat": 38.92463216666667, "rental_uris": {"android": "https://dc.lft.to/lastmile_qr_scan", "ios": "https://dc.lft.to/lastmile_qr_scan"}, "bike_id": "0722dfa5dbe83adc184672bf0ec7529d", "lon": -77.03540833333334}, {"is_reserved": 0, "fusion_lon": 0.0, "fusion_lat": 0.0, "name": "fd596b181f02f3b41cf752100adcd57e", "type": "electric_scooter", "is_disabled": 0, "lat": 38.905612166666664, "rental_uris": {"android": "https://dc.lft.to/lastmile_qr_scan", "ios": "https://dc.lft.to/lastmile_qr_scan"}, "bike_id": "fd596b181f02f3b41cf752100adcd57e", "lon": -77.005925}, {"is_reserved": 0, "fusion_lon": 0.0, "fusion_lat": 0.0, "name": "87e068b803667662c6ced9ff2dc1d0fd", "type": "electric_scooter", "is_disabled": 0, "lat": 38.9127975, "rental_uris": {"android": "https://dc.lft.to/lastmile_qr_scan", "ios": "https://dc.lft.to/lastmile_qr_scan"}, "bike_id": "87e068b803667662c6ced9ff2dc1d0fd", "lon": -77.04510116666667}, {"is_reserved": 0, "fusion_lon": 0.0, "fusion_lat": 0.0, "name": "f05616f936a636160fc469a8c3c423a1", "type": "electric_scooter", "is_disabled": 0, "lat": 38.92405466666666, "rental_uris": {"android": "https://dc.lft.to/lastmile_qr_scan", "ios": "https://dc.lft.to/lastmile_qr_scan"}, "bike_id": "f05616f936a636160fc469a8c3c423a1", "lon": -77.0201535}, {"is_reserved": 0, "fusion_lon": 0.0, "fusion_lat": 0.0, "name": "0c705206ee0449ac38d92796a15e99de", "type": "electric_bike", "is_disabled": 0, "lat": 38.8693815, "rental_uris": {"android": "https://dc.lft.to/lastmile_qr_scan", "ios": "https://dc.lft.to/lastmile_qr_scan"}, "bike_id": "0c705206ee0449ac38d92796a15e99de", "lon": -77.09465666666667}, {"is_reserved": 0, "fusion_lon": 0.0, "fusion_lat": 0.0, "name": "2b664c129a9802dd925dd477818a7a49", "type": "electric_bike", "is_disabled": 0, "lat": 38.88395233333333, "rental_uris": {"android": "https://dc.lft.to/lastmile_qr_scan", "ios": "https://dc.lft.to/lastmile_qr_scan"}, "bike_id": "2b664c129a9802dd925dd477818a7a49", "lon": -76.96059316666667}, {"is_reserved": 0, "fusion_lon": 0.0, "fusion_lat": 0.0, "name": "fd566f43fe53ebf90640f305013047c6", "type": "electric_scooter", "is_disabled": 0, "lat": 38.89220016666667, "rental_uris": {"android": "https://dc.lft.to/lastmile_qr_scan", "ios": "https://dc.lft.to/lastmile_qr_scan"}, "bike_id": "fd566f43fe53ebf90640f305013047c6", "lon": -77.0235045}, {"is_reserved": 0, "fusion_lon": 0.0, "fusion_lat": 0.0, "name": "164e9bdbf9a15371a32da3c97cd4424c", "type": "electric_scooter", "is_disabled": 0, "lat": 38.918513833333336, "rental_uris": {"android": "https://dc.lft.to/lastmile_qr_scan", "ios": "https://dc.lft.to/lastmile_qr_scan"}, "bike_id": "164e9bdbf9a15371a32da3c97cd4424c", "lon": -77.01349833333333}, {"is_reserved": 0, "fusion_lon": 0.0, "fusion_lat": 0.0, "name": "26dcfa28742bd10f10eef9040b994005", "type": "electric_scooter", "is_disabled": 0, "lat": 38.87198516666667, "rental_uris": {"android": "https://dc.lft.to/lastmile_qr_scan", "ios": "https://dc.lft.to/lastmile_qr_scan"}, "bike_id": "26dcfa28742bd10f10eef9040b994005", "lon": -77.00570216666667}, {"is_reserved": 0, "fusion_lon": 0.0, "fusion_lat": 0.0, "name": "140183d8cf2b048f0e779b3146a00e8f", "type": "electric_scooter", "is_disabled": 0, "lat": 38.941782833333335, "rental_uris": {"android": "https://dc.lft.to/lastmile_qr_scan", "ios": "https://dc.lft.to/lastmile_qr_scan"}, "bike_id": "140183d8cf2b048f0e779b3146a00e8f", "lon": -77.02963166666666}, {"is_reserved": 0, "fusion_lon": 0.0, "fusion_lat": 0.0, "name": "edf13076436037600cd5812081bb939b", "type": "electric_scooter", "is_disabled": 0, "lat": 38.90785283333334, "rental_uris": {"android": "https://dc.lft.to/lastmile_qr_scan", "ios": "https://dc.lft.to/lastmile_qr_scan"}, "bike_id": "edf13076436037600cd5812081bb939b", "lon": -77.00969266666667}, {"is_reserved": 0, "fusion_lon": 0.0, "fusion_lat": 0.0, "name": "ba9c6f0d820f678bdfd95e03572c8b91", "type": "electric_scooter", "is_disabled": 0, "lat": 38.914508166666664, "rental_uris": {"android": "https://dc.lft.to/lastmile_qr_scan", "ios": "https://dc.lft.to/lastmile_qr_scan"}, "bike_id": "ba9c6f0d820f678bdfd95e03572c8b91", "lon": -77.04548566666666}, {"is_reserved": 0, "fusion_lon": 0.0, "fusion_lat": 0.0, "name": "5aac41160eb99d84ecd921899f2be81b", "type": "electric_scooter", "is_disabled": 0, "lat": 38.8901575, "rental_uris": {"android": "https://dc.lft.to/lastmile_qr_scan", "ios": "https://dc.lft.to/lastmile_qr_scan"}, "bike_id": "5aac41160eb99d84ecd921899f2be81b", "lon": -76.93697583333334}, {"is_reserved": 0, "fusion_lon": 0.0, "fusion_lat": 0.0, "name": "2e92d6ab68b87fd1a83c773e25f7605e", "type": "electric_scooter", "is_disabled": 0, "lat": 38.9257155, "rental_uris": {"android": "https://dc.lft.to/lastmile_qr_scan", "ios": "https://dc.lft.to/lastmile_qr_scan"}, "bike_id": "2e92d6ab68b87fd1a83c773e25f7605e", "lon": -77.02610683333333}, {"is_reserved": 0, "fusion_lon": 0.0, "fusion_lat": 0.0, "name": "ae0c9e25e01836fef6e15db56c812130", "type": "electric_scooter", "is_disabled": 0, "lat": 38.87941983333333, "rental_uris": {"android": "https://dc.lft.to/lastmile_qr_scan", "ios": "https://dc.lft.to/lastmile_qr_scan"}, "bike_id": "ae0c9e25e01836fef6e15db56c812130", "lon": -77.00404916666666}, {"is_reserved": 0, "fusion_lon": 0.0, "fusion_lat": 0.0, "name": "e1be8b7c261bd9cdc17a6e52dfc2d786", "type": "electric_scooter", "is_disabled": 0, "lat": 38.90150583333333, "rental_uris": {"android": "https://dc.lft.to/lastmile_qr_scan", "ios": "https://dc.lft.to/lastmile_qr_scan"}, "bike_id": "e1be8b7c261bd9cdc17a6e52dfc2d786", "lon": -76.9902035}, {"is_reserved": 0, "fusion_lon": 0.0, "fusion_lat": 0.0, "name": "a702576a0950f785d3ee284f442bebb1", "type": "electric_scooter", "is_disabled": 0, "lat": 38.893066, "rental_uris": {"android": "https://dc.lft.to/lastmile_qr_scan", "ios": "https://dc.lft.to/lastmile_qr_scan"}, "bike_id": "a702576a0950f785d3ee284f442bebb1", "lon": -77.0500205}, {"is_reserved": 0, "fusion_lon": 0.0, "fusion_lat": 0.0, "name": "d9cb091d563041e03df6a7aeca3b6511", "type": "electric_scooter", "is_disabled": 0, "lat": 38.91633366666667, "rental_uris": {"android": "https://dc.lft.to/lastmile_qr_scan", "ios": "https://dc.lft.to/lastmile_qr_scan"}, "bike_id": "d9cb091d563041e03df6a7aeca3b6511", "lon": -77.010881}, {"is_reserved": 0, "fusion_lon": 0.0, "fusion_lat": 0.0, "name": "3f08f79ff5cb3791f22c24ffdf927b85", "type": "electric_bike", "is_disabled": 0, "lat": 38.9396985, "rental_uris": {"android": "https://dc.lft.to/lastmile_qr_scan", "ios": "https://dc.lft.to/lastmile_qr_scan"}, "bike_id": "3f08f79ff5cb3791f22c24ffdf927b85", "lon": -76.98614033333334}, {"is_reserved": 0, "fusion_lon": 0.0, "fusion_lat": 0.0, "name": "30e739979cc973c3a767290d73014c92", "type": "electric_scooter", "is_disabled": 0, "lat": 38.9072125, "rental_uris": {"android": "https://dc.lft.to/lastmile_qr_scan", "ios": "https://dc.lft.to/lastmile_qr_scan"}, "bike_id": "30e739979cc973c3a767290d73014c92", "lon": -77.01643666666666}, {"is_reserved": 0, "fusion_lon": 0.0, "fusion_lat": 0.0, "name": "03b5254159106a17aabf6c11c7405777", "type": "electric_scooter", "is_disabled": 0, "lat": 38.89906416666667, "rental_uris": {"android": "https://dc.lft.to/lastmile_qr_scan", "ios": "https://dc.lft.to/lastmile_qr_scan"}, "bike_id": "03b5254159106a17aabf6c11c7405777", "lon": -76.977169}, {"is_reserved": 0, "fusion_lon": 0.0, "fusion_lat": 0.0, "name": "de78e8dae0db06c09f096e5373de6ba2", "type": "electric_scooter", "is_disabled": 0, "lat": 38.94986766666667, "rental_uris": {"android": "https://dc.lft.to/lastmile_qr_scan", "ios": "https://dc.lft.to/lastmile_qr_scan"}, "bike_id": "de78e8dae0db06c09f096e5373de6ba2", "lon": -77.02706983333333}, {"is_reserved": 0, "fusion_lon": 0.0, "fusion_lat": 0.0, "name": "acb92fb8fbb9258d8db483a566c06034", "type": "electric_scooter", "is_disabled": 0, "lat": 38.971207666666665, "rental_uris": {"android": "https://dc.lft.to/lastmile_qr_scan", "ios": "https://dc.lft.to/lastmile_qr_scan"}, "bike_id": "acb92fb8fbb9258d8db483a566c06034", "lon": -77.016825}, {"is_reserved": 0, "fusion_lon": 0.0, "fusion_lat": 0.0, "name": "0e53dc503f73239170e4e6fed9e2f6dd", "type": "electric_bike", "is_disabled": 0, "lat": 38.857696833333335, "rental_uris": {"android": "https://dc.lft.to/lastmile_qr_scan", "ios": "https://dc.lft.to/lastmile_qr_scan"}, "bike_id": "0e53dc503f73239170e4e6fed9e2f6dd", "lon": -76.98771383333333}, {"is_reserved": 0, "fusion_lon": 0.0, "fusion_lat": 0.0, "name": "79e6a0885b1fea0ec16e4d5f223e056c", "type": "electric_bike", "is_disabled": 0, "lat": 38.838095333333335, "rental_uris": {"android": "https://dc.lft.to/lastmile_qr_scan", "ios": "https://dc.lft.to/lastmile_qr_scan"}, "bike_id": "79e6a0885b1fea0ec16e4d5f223e056c", "lon": -77.09527133333333}, {"is_reserved": 0, "fusion_lon": 0.0, "fusion_lat": 0.0, "name": "2714adf549bbfd78bbae2f0757970cc2", "type": "electric_scooter", "is_disabled": 0, "lat": 38.930180166666666, "rental_uris": {"android": "https://dc.lft.to/lastmile_qr_scan", "ios": "https://dc.lft.to/lastmile_qr_scan"}, "bike_id": "2714adf549bbfd78bbae2f0757970cc2", "lon": -77.06086533333334}, {"is_reserved": 0, "fusion_lon": 0.0, "fusion_lat": 0.0, "name": "8d65b8d508a34900e2bef3494a4366c3", "type": "electric_scooter", "is_disabled": 0, "lat": 38.866633666666665, "rental_uris": {"android": "https://dc.lft.to/lastmile_qr_scan", "ios": "https://dc.lft.to/lastmile_qr_scan"}, "bike_id": "8d65b8d508a34900e2bef3494a4366c3", "lon": -76.9850145}, {"is_reserved": 0, "fusion_lon": 0.0, "fusion_lat": 0.0, "name": "d4876f50e760643c3db3ea3f264d8ce2", "type": "electric_scooter", "is_disabled": 0, "lat": 38.9177195, "rental_uris": {"android": "https://dc.lft.to/lastmile_qr_scan", "ios": "https://dc.lft.to/lastmile_qr_scan"}, "bike_id": "d4876f50e760643c3db3ea3f264d8ce2", "lon": -77.02320233333333}, {"is_reserved": 0, "fusion_lon": 0.0, "fusion_lat": 0.0, "name": "16844b813d15a382378852b4c2ca8a8a", "type": "electric_scooter", "is_disabled": 0, "lat": 38.88287, "rental_uris": {"android": "https://dc.lft.to/lastmile_qr_scan", "ios": "https://dc.lft.to/lastmile_qr_scan"}, "bike_id": "16844b813d15a382378852b4c2ca8a8a", "lon": -76.98780033333334}, {"is_reserved": 0, "fusion_lon": 0.0, "fusion_lat": 0.0, "name": "de3338d8f3e990baef7c7c031e2e3c5f", "type": "electric_scooter", "is_disabled": 0, "lat": 38.9058095, "rental_uris": {"android": "https://dc.lft.to/lastmile_qr_scan", "ios": "https://dc.lft.to/lastmile_qr_scan"}, "bike_id": "de3338d8f3e990baef7c7c031e2e3c5f", "lon": -77.02381183333334}, {"is_reserved": 0, "fusion_lon": 0.0, "fusion_lat": 0.0, "name": "061451001f0f1357fc4fedcb29711cc2", "type": "electric_bike", "is_disabled": 0, "lat": 38.945527166666665, "rental_uris": {"android": "https://dc.lft.to/lastmile_qr_scan", "ios": "https://dc.lft.to/lastmile_qr_scan"}, "bike_id": "061451001f0f1357fc4fedcb29711cc2", "lon": -76.89536433333333}, {"is_reserved": 0, "fusion_lon": 0.0, "fusion_lat": 0.0, "name": "c5aafbf357b56b8d427f82fc17a8d2bf", "type": "electric_bike", "is_disabled": 0, "lat": 38.905629833333336, "rental_uris": {"android": "https://dc.lft.to/lastmile_qr_scan", "ios": "https://dc.lft.to/lastmile_qr_scan"}, "bike_id": "c5aafbf357b56b8d427f82fc17a8d2bf", "lon": -77.06281633333333}, {"is_reserved": 0, "fusion_lon": 0.0, "fusion_lat": 0.0, "name": "43b593319b48688af74d105b7b03f70b", "type": "electric_scooter", "is_disabled": 0, "lat": 38.935226666666665, "rental_uris": {"android": "https://dc.lft.to/lastmile_qr_scan", "ios": "https://dc.lft.to/lastmile_qr_scan"}, "bike_id": "43b593319b48688af74d105b7b03f70b", "lon": -77.0235375}, {"is_reserved": 0, "fusion_lon": 0.0, "fusion_lat": 0.0, "name": "6b9d922230fb221d65a0cc79eef24cda", "type": "electric_scooter", "is_disabled": 0, "lat": 38.9515065, "rental_uris": {"android": "https://dc.lft.to/lastmile_qr_scan", "ios": "https://dc.lft.to/lastmile_qr_scan"}, "bike_id": "6b9d922230fb221d65a0cc79eef24cda", "lon": -77.01867483333334}, {"is_reserved": 0, "fusion_lon": 0.0, "fusion_lat": 0.0, "name": "3c3dc16f1e23a1fa6056f5d696cade72", "type": "electric_scooter", "is_disabled": 0, "lat": 38.9426115, "rental_uris": {"android": "https://dc.lft.to/lastmile_qr_scan", "ios": "https://dc.lft.to/lastmile_qr_scan"}, "bike_id": "3c3dc16f1e23a1fa6056f5d696cade72", "lon": -77.02843183333333}, {"is_reserved": 0, "fusion_lon": 0.0, "fusion_lat": 0.0, "name": "6f7db681d49b0fc0f3717f523fadc14b", "type": "electric_scooter", "is_disabled": 0, "lat": 38.922225, "rental_uris": {"android": "https://dc.lft.to/lastmile_qr_scan", "ios": "https://dc.lft.to/lastmile_qr_scan"}, "bike_id": "6f7db681d49b0fc0f3717f523fadc14b", "lon": -77.03731666666667}, {"is_reserved": 0, "fusion_lon": 0.0, "fusion_lat": 0.0, "name": "88c32a124db47a50faac14b8d7e79891", "type": "electric_scooter", "is_disabled": 0, "lat": 38.886131166666665, "rental_uris": {"android": "https://dc.lft.to/lastmile_qr_scan", "ios": "https://dc.lft.to/lastmile_qr_scan"}, "bike_id": "88c32a124db47a50faac14b8d7e79891", "lon": -76.99654716666667}, {"is_reserved": 0, "fusion_lon": 0.0, "fusion_lat": 0.0, "name": "48c39520bde57aa9518743d997e78682", "type": "electric_scooter", "is_disabled": 0, "lat": 38.913342166666666, "rental_uris": {"android": "https://dc.lft.to/lastmile_qr_scan", "ios": "https://dc.lft.to/lastmile_qr_scan"}, "bike_id": "48c39520bde57aa9518743d997e78682", "lon": -77.01032166666667}, {"is_reserved": 0, "fusion_lon": 0.0, "fusion_lat": 0.0, "name": "08a127a34a7921d6040e68d7622bfa21", "type": "electric_scooter", "is_disabled": 0, "lat": 38.9058375, "rental_uris": {"android": "https://dc.lft.to/lastmile_qr_scan", "ios": "https://dc.lft.to/lastmile_qr_scan"}, "bike_id": "08a127a34a7921d6040e68d7622bfa21", "lon": -77.02390783333334}, {"is_reserved": 0, "fusion_lon": 0.0, "fusion_lat": 0.0, "name": "90691dfbd6d05739fab7bace0800b289", "type": "electric_scooter", "is_disabled": 0, "lat": 38.90676933333334, "rental_uris": {"android": "https://dc.lft.to/lastmile_qr_scan", "ios": "https://dc.lft.to/lastmile_qr_scan"}, "bike_id": "90691dfbd6d05739fab7bace0800b289", "lon": -76.986671}, {"is_reserved": 0, "fusion_lon": 0.0, "fusion_lat": 0.0, "name": "1454572e101b10e7e0f0f227cbc6d4c5", "type": "electric_scooter", "is_disabled": 0, "lat": 38.916865, "rental_uris": {"android": "https://dc.lft.to/lastmile_qr_scan", "ios": "https://dc.lft.to/lastmile_qr_scan"}, "bike_id": "1454572e101b10e7e0f0f227cbc6d4c5", "lon": -77.02949733333334}, {"is_reserved": 0, "fusion_lon": 0.0, "fusion_lat": 0.0, "name": "3078d1a6d36830695af5de03ec956cbb", "type": "electric_scooter", "is_disabled": 0, "lat": 38.91865416666667, "rental_uris": {"android": "https://dc.lft.to/lastmile_qr_scan", "ios": "https://dc.lft.to/lastmile_qr_scan"}, "bike_id": "3078d1a6d36830695af5de03ec956cbb", "lon": -77.02551683333333}, {"is_reserved": 0, "fusion_lon": 0.0, "fusion_lat": 0.0, "name": "bcaa05d673a195e4862cf0516d6dbff3", "type": "electric_scooter", "is_disabled": 0, "lat": 38.92138683333334, "rental_uris": {"android": "https://dc.lft.to/lastmile_qr_scan", "ios": "https://dc.lft.to/lastmile_qr_scan"}, "bike_id": "bcaa05d673a195e4862cf0516d6dbff3", "lon": -77.02063166666667}, {"is_reserved": 0, "fusion_lon": 0.0, "fusion_lat": 0.0, "name": "d86f4834f6faf3f94adf9d188c5db245", "type": "electric_scooter", "is_disabled": 0, "lat": 38.934914, "rental_uris": {"android": "https://dc.lft.to/lastmile_qr_scan", "ios": "https://dc.lft.to/lastmile_qr_scan"}, "bike_id": "d86f4834f6faf3f94adf9d188c5db245", "lon": -77.03657366666667}, {"is_reserved": 0, "fusion_lon": 0.0, "fusion_lat": 0.0, "name": "d78c2c38518ad4f7d305928b3c711d87", "type": "electric_scooter", "is_disabled": 0, "lat": 38.923157, "rental_uris": {"android": "https://dc.lft.to/lastmile_qr_scan", "ios": "https://dc.lft.to/lastmile_qr_scan"}, "bike_id": "d78c2c38518ad4f7d305928b3c711d87", "lon": -77.04347216666666}, {"is_reserved": 0, "fusion_lon": 0.0, "fusion_lat": 0.0, "name": "cf987fe353799fa027a462e9bcd88db5", "type": "electric_scooter", "is_disabled": 0, "lat": 38.8929895, "rental_uris": {"android": "https://dc.lft.to/lastmile_qr_scan", "ios": "https://dc.lft.to/lastmile_qr_scan"}, "bike_id": "cf987fe353799fa027a462e9bcd88db5", "lon": -76.93923433333333}, {"is_reserved": 0, "fusion_lon": 0.0, "fusion_lat": 0.0, "name": "87d538c8d26fa36c8ff1bfcf6050ce4d", "type": "electric_scooter", "is_disabled": 0, "lat": 38.880380833333334, "rental_uris": {"android": "https://dc.lft.to/lastmile_qr_scan", "ios": "https://dc.lft.to/lastmile_qr_scan"}, "bike_id": "87d538c8d26fa36c8ff1bfcf6050ce4d", "lon": -77.024883}, {"is_reserved": 0, "fusion_lon": 0.0, "fusion_lat": 0.0, "name": "2f8154bf1699fa1cd3bf4979eadd7cc5", "type": "electric_scooter", "is_disabled": 0, "lat": 38.909661, "rental_uris": {"android": "https://dc.lft.to/lastmile_qr_scan", "ios": "https://dc.lft.to/lastmile_qr_scan"}, "bike_id": "2f8154bf1699fa1cd3bf4979eadd7cc5", "lon": -77.04233533333333}, {"is_reserved": 0, "fusion_lon": 0.0, "fusion_lat": 0.0, "name": "64630625c57da9a0dd3bfe17de20567c", "type": "electric_scooter", "is_disabled": 0, "lat": 38.9367305, "rental_uris": {"android": "https://dc.lft.to/lastmile_qr_scan", "ios": "https://dc.lft.to/lastmile_qr_scan"}, "bike_id": "64630625c57da9a0dd3bfe17de20567c", "lon": -77.03576333333334}, {"is_reserved": 0, "fusion_lon": 0.0, "fusion_lat": 0.0, "name": "723d8d2737d71c96d425f98cd575b7c7", "type": "electric_scooter", "is_disabled": 0, "lat": 38.907348666666664, "rental_uris": {"android": "https://dc.lft.to/lastmile_qr_scan", "ios": "https://dc.lft.to/lastmile_qr_scan"}, "bike_id": "723d8d2737d71c96d425f98cd575b7c7", "lon": -76.98693533333334}, {"is_reserved": 0, "fusion_lon": 0.0, "fusion_lat": 0.0, "name": "1d307c6c1b048ab8f0e38934bffebfd1", "type": "electric_scooter", "is_disabled": 0, "lat": 38.9198555, "rental_uris": {"android": "https://dc.lft.to/lastmile_qr_scan", "ios": "https://dc.lft.to/lastmile_qr_scan"}, "bike_id": "1d307c6c1b048ab8f0e38934bffebfd1", "lon": -77.03243716666667}, {"is_reserved": 0, "fusion_lon": 0.0, "fusion_lat": 0.0, "name": "948048fc819e9d30bdd365c0fb9da098", "type": "electric_scooter", "is_disabled": 0, "lat": 38.872278, "rental_uris": {"android": "https://dc.lft.to/lastmile_qr_scan", "ios": "https://dc.lft.to/lastmile_qr_scan"}, "bike_id": "948048fc819e9d30bdd365c0fb9da098", "lon": -77.01175366666666}, {"is_reserved": 0, "fusion_lon": 0.0, "fusion_lat": 0.0, "name": "da5ec8256bf2249095f9cf57ce9eb2e0", "type": "electric_bike", "is_disabled": 0, "lat": 38.9593325, "rental_uris": {"android": "https://dc.lft.to/lastmile_qr_scan", "ios": "https://dc.lft.to/lastmile_qr_scan"}, "bike_id": "da5ec8256bf2249095f9cf57ce9eb2e0", "lon": -76.92534566666667}, {"is_reserved": 0, "fusion_lon": 0.0, "fusion_lat": 0.0, "name": "ecba6f4fc0b40c9900ecf160547b28c6", "type": "electric_scooter", "is_disabled": 0, "lat": 38.8922285, "rental_uris": {"android": "https://dc.lft.to/lastmile_qr_scan", "ios": "https://dc.lft.to/lastmile_qr_scan"}, "bike_id": "ecba6f4fc0b40c9900ecf160547b28c6", "lon": -77.04376866666667}, {"is_reserved": 0, "fusion_lon": 0.0, "fusion_lat": 0.0, "name": "d09542b4a7ab7fa4b5adc29d3ad5e994", "type": "electric_scooter", "is_disabled": 0, "lat": 38.89954016666667, "rental_uris": {"android": "https://dc.lft.to/lastmile_qr_scan", "ios": "https://dc.lft.to/lastmile_qr_scan"}, "bike_id": "d09542b4a7ab7fa4b5adc29d3ad5e994", "lon": -77.042515}, {"is_reserved": 0, "fusion_lon": 0.0, "fusion_lat": 0.0, "name": "d076114ea9ae82d3505e16c190580cb9", "type": "electric_scooter", "is_disabled": 0, "lat": 38.8922315, "rental_uris": {"android": "https://dc.lft.to/lastmile_qr_scan", "ios": "https://dc.lft.to/lastmile_qr_scan"}, "bike_id": "d076114ea9ae82d3505e16c190580cb9", "lon": -77.04374966666667}, {"is_reserved": 0, "fusion_lon": 0.0, "fusion_lat": 0.0, "name": "a478ff4d743680b686f7b3c8adedfc6c", "type": "electric_scooter", "is_disabled": 0, "lat": 38.935659, "rental_uris": {"android": "https://dc.lft.to/lastmile_qr_scan", "ios": "https://dc.lft.to/lastmile_qr_scan"}, "bike_id": "a478ff4d743680b686f7b3c8adedfc6c", "lon": -77.07310966666667}, {"is_reserved": 0, "fusion_lon": 0.0, "fusion_lat": 0.0, "name": "d5bbcb669b4ec5b8b31a7180a1389b8d", "type": "electric_scooter", "is_disabled": 0, "lat": 38.9017355, "rental_uris": {"android": "https://dc.lft.to/lastmile_qr_scan", "ios": "https://dc.lft.to/lastmile_qr_scan"}, "bike_id": "d5bbcb669b4ec5b8b31a7180a1389b8d", "lon": -77.02289633333334}, {"is_reserved": 0, "fusion_lon": 0.0, "fusion_lat": 0.0, "name": "3c6614d748d579b1a891318b2b26dfce", "type": "electric_scooter", "is_disabled": 0, "lat": 38.89513216666667, "rental_uris": {"android": "https://dc.lft.to/lastmile_qr_scan", "ios": "https://dc.lft.to/lastmile_qr_scan"}, "bike_id": "3c6614d748d579b1a891318b2b26dfce", "lon": -77.02864133333334}, {"is_reserved": 0, "fusion_lon": 0.0, "fusion_lat": 0.0, "name": "68bc4692bcbe25ba0923469cbb95f077", "type": "electric_scooter", "is_disabled": 0, "lat": 38.919467166666664, "rental_uris": {"android": "https://dc.lft.to/lastmile_qr_scan", "ios": "https://dc.lft.to/lastmile_qr_scan"}, "bike_id": "68bc4692bcbe25ba0923469cbb95f077", "lon": -77.0251955}, {"is_reserved": 0, "fusion_lon": 0.0, "fusion_lat": 0.0, "name": "6dc610b48fd857075a497fc6d4e29429", "type": "electric_bike", "is_disabled": 0, "lat": 38.9415805, "rental_uris": {"android": "https://dc.lft.to/lastmile_qr_scan", "ios": "https://dc.lft.to/lastmile_qr_scan"}, "bike_id": "6dc610b48fd857075a497fc6d4e29429", "lon": -77.00194583333334}, {"is_reserved": 0, "fusion_lon": 0.0, "fusion_lat": 0.0, "name": "156d81c5eff5c976488ca36d87654fac", "type": "electric_scooter", "is_disabled": 0, "lat": 38.94868483333333, "rental_uris": {"android": "https://dc.lft.to/lastmile_qr_scan", "ios": "https://dc.lft.to/lastmile_qr_scan"}, "bike_id": "156d81c5eff5c976488ca36d87654fac", "lon": -77.03886733333333}, {"is_reserved": 0, "fusion_lon": 0.0, "fusion_lat": 0.0, "name": "fef04c8ed10c415a98b34c8abec120b9", "type": "electric_scooter", "is_disabled": 0, "lat": 38.878457833333336, "rental_uris": {"android": "https://dc.lft.to/lastmile_qr_scan", "ios": "https://dc.lft.to/lastmile_qr_scan"}, "bike_id": "fef04c8ed10c415a98b34c8abec120b9", "lon": -77.03022733333333}, {"is_reserved": 0, "fusion_lon": 0.0, "fusion_lat": 0.0, "name": "514dd2224d0c6ce61699e6812b632d06", "type": "electric_scooter", "is_disabled": 0, "lat": 38.91465216666667, "rental_uris": {"android": "https://dc.lft.to/lastmile_qr_scan", "ios": "https://dc.lft.to/lastmile_qr_scan"}, "bike_id": "514dd2224d0c6ce61699e6812b632d06", "lon": -77.03211966666667}, {"is_reserved": 0, "fusion_lon": 0.0, "fusion_lat": 0.0, "name": "5fa6d74296d94b12e65be923e5debd31", "type": "electric_scooter", "is_disabled": 0, "lat": 38.915738166666664, "rental_uris": {"android": "https://dc.lft.to/lastmile_qr_scan", "ios": "https://dc.lft.to/lastmile_qr_scan"}, "bike_id": "5fa6d74296d94b12e65be923e5debd31", "lon": -77.01251433333333}, {"is_reserved": 0, "fusion_lon": 0.0, "fusion_lat": 0.0, "name": "04f6d2bad1d8e338ee82672ebf4e35c3", "type": "electric_scooter", "is_disabled": 0, "lat": 38.9140555, "rental_uris": {"android": "https://dc.lft.to/lastmile_qr_scan", "ios": "https://dc.lft.to/lastmile_qr_scan"}, "bike_id": "04f6d2bad1d8e338ee82672ebf4e35c3", "lon": -77.039478}, {"is_reserved": 0, "fusion_lon": 0.0, "fusion_lat": 0.0, "name": "cf7638a575505c6029f1c843599e9429", "type": "electric_scooter", "is_disabled": 0, "lat": 38.9176265, "rental_uris": {"android": "https://dc.lft.to/lastmile_qr_scan", "ios": "https://dc.lft.to/lastmile_qr_scan"}, "bike_id": "cf7638a575505c6029f1c843599e9429", "lon": -77.01923516666666}, {"is_reserved": 0, "fusion_lon": 0.0, "fusion_lat": 0.0, "name": "18c65a13a8bff8adcdfbb6e28303ea3c", "type": "electric_scooter", "is_disabled": 0, "lat": 38.916819833333335, "rental_uris": {"android": "https://dc.lft.to/lastmile_qr_scan", "ios": "https://dc.lft.to/lastmile_qr_scan"}, "bike_id": "18c65a13a8bff8adcdfbb6e28303ea3c", "lon": -77.029687}, {"is_reserved": 0, "fusion_lon": 0.0, "fusion_lat": 0.0, "name": "57b072bfcdd96dd91e5aa12e87f89ea9", "type": "electric_scooter", "is_disabled": 0, "lat": 38.909743666666664, "rental_uris": {"android": "https://dc.lft.to/lastmile_qr_scan", "ios": "https://dc.lft.to/lastmile_qr_scan"}, "bike_id": "57b072bfcdd96dd91e5aa12e87f89ea9", "lon": -77.02696316666666}, {"is_reserved": 0, "fusion_lon": 0.0, "fusion_lat": 0.0, "name": "8c544fd289143352eda7ccc405019aa7", "type": "electric_scooter", "is_disabled": 0, "lat": 38.908115333333335, "rental_uris": {"android": "https://dc.lft.to/lastmile_qr_scan", "ios": "https://dc.lft.to/lastmile_qr_scan"}, "bike_id": "8c544fd289143352eda7ccc405019aa7", "lon": -77.0344465}, {"is_reserved": 0, "fusion_lon": 0.0, "fusion_lat": 0.0, "name": "b62d67c5b8e28ca6c80630b5f4b906d4", "type": "electric_scooter", "is_disabled": 0, "lat": 38.905322, "rental_uris": {"android": "https://dc.lft.to/lastmile_qr_scan", "ios": "https://dc.lft.to/lastmile_qr_scan"}, "bike_id": "b62d67c5b8e28ca6c80630b5f4b906d4", "lon": -77.03141666666667}, {"is_reserved": 0, "fusion_lon": 0.0, "fusion_lat": 0.0, "name": "e7c9d3cf2fcac1f98271da7ad08231c5", "type": "electric_scooter", "is_disabled": 0, "lat": 38.901569, "rental_uris": {"android": "https://dc.lft.to/lastmile_qr_scan", "ios": "https://dc.lft.to/lastmile_qr_scan"}, "bike_id": "e7c9d3cf2fcac1f98271da7ad08231c5", "lon": -76.97628783333333}, {"is_reserved": 0, "fusion_lon": 0.0, "fusion_lat": 0.0, "name": "be797d05097f8811c7fd57136a134483", "type": "electric_scooter", "is_disabled": 0, "lat": 38.901635, "rental_uris": {"android": "https://dc.lft.to/lastmile_qr_scan", "ios": "https://dc.lft.to/lastmile_qr_scan"}, "bike_id": "be797d05097f8811c7fd57136a134483", "lon": -77.02289066666667}, {"is_reserved": 0, "fusion_lon": 0.0, "fusion_lat": 0.0, "name": "4cfc2fe413550d254b134168a8018be6", "type": "electric_scooter", "is_disabled": 0, "lat": 38.917108166666665, "rental_uris": {"android": "https://dc.lft.to/lastmile_qr_scan", "ios": "https://dc.lft.to/lastmile_qr_scan"}, "bike_id": "4cfc2fe413550d254b134168a8018be6", "lon": -77.00883416666667}, {"is_reserved": 0, "fusion_lon": 0.0, "fusion_lat": 0.0, "name": "4f5f06e671ed98e7172243074eedb7d0", "type": "electric_scooter", "is_disabled": 0, "lat": 38.9239975, "rental_uris": {"android": "https://dc.lft.to/lastmile_qr_scan", "ios": "https://dc.lft.to/lastmile_qr_scan"}, "bike_id": "4f5f06e671ed98e7172243074eedb7d0", "lon": -77.02696266666666}, {"is_reserved": 0, "fusion_lon": 0.0, "fusion_lat": 0.0, "name": "81691d7a66683e79e762dbeabdae1a3f", "type": "electric_scooter", "is_disabled": 0, "lat": 38.901348666666664, "rental_uris": {"android": "https://dc.lft.to/lastmile_qr_scan", "ios": "https://dc.lft.to/lastmile_qr_scan"}, "bike_id": "81691d7a66683e79e762dbeabdae1a3f", "lon": -77.0001895}, {"is_reserved": 0, "fusion_lon": 0.0, "fusion_lat": 0.0, "name": "26f27ca515cd27fe24992b4f83c2f922", "type": "electric_scooter", "is_disabled": 0, "lat": 38.899193, "rental_uris": {"android": "https://dc.lft.to/lastmile_qr_scan", "ios": "https://dc.lft.to/lastmile_qr_scan"}, "bike_id": "26f27ca515cd27fe24992b4f83c2f922", "lon": -76.93358533333334}, {"is_reserved": 0, "fusion_lon": 0.0, "fusion_lat": 0.0, "name": "44947cec71abfe2080f039287aa16541", "type": "electric_scooter", "is_disabled": 0, "lat": 38.9265695, "rental_uris": {"android": "https://dc.lft.to/lastmile_qr_scan", "ios": "https://dc.lft.to/lastmile_qr_scan"}, "bike_id": "44947cec71abfe2080f039287aa16541", "lon": -77.02275816666666}, {"is_reserved": 0, "fusion_lon": 0.0, "fusion_lat": 0.0, "name": "5692941551d0d1fbcece693e949b7042", "type": "electric_scooter", "is_disabled": 0, "lat": 38.887458, "rental_uris": {"android": "https://dc.lft.to/lastmile_qr_scan", "ios": "https://dc.lft.to/lastmile_qr_scan"}, "bike_id": "5692941551d0d1fbcece693e949b7042", "lon": -77.02737366666666}, {"is_reserved": 0, "fusion_lon": 0.0, "fusion_lat": 0.0, "name": "c9615f21781801eda95901414419768f", "type": "electric_scooter", "is_disabled": 0, "lat": 38.88678566666667, "rental_uris": {"android": "https://dc.lft.to/lastmile_qr_scan", "ios": "https://dc.lft.to/lastmile_qr_scan"}, "bike_id": "c9615f21781801eda95901414419768f", "lon": -76.954686}, {"is_reserved": 0, "fusion_lon": 0.0, "fusion_lat": 0.0, "name": "b0c6287455ba542e415621e1a6efd491", "type": "electric_scooter", "is_disabled": 0, "lat": 38.86348, "rental_uris": {"android": "https://dc.lft.to/lastmile_qr_scan", "ios": "https://dc.lft.to/lastmile_qr_scan"}, "bike_id": "b0c6287455ba542e415621e1a6efd491", "lon": -76.98713866666667}, {"is_reserved": 0, "fusion_lon": 0.0, "fusion_lat": 0.0, "name": "024dbae4339a35b3f9b20589e3e945c4", "type": "electric_scooter", "is_disabled": 0, "lat": 38.892255666666664, "rental_uris": {"android": "https://dc.lft.to/lastmile_qr_scan", "ios": "https://dc.lft.to/lastmile_qr_scan"}, "bike_id": "024dbae4339a35b3f9b20589e3e945c4", "lon": -77.03144316666666}, {"is_reserved": 0, "fusion_lon": 0.0, "fusion_lat": 0.0, "name": "d75062aa8d5f2f3bf62038d9820be4ba", "type": "electric_scooter", "is_disabled": 0, "lat": 38.9088665, "rental_uris": {"android": "https://dc.lft.to/lastmile_qr_scan", "ios": "https://dc.lft.to/lastmile_qr_scan"}, "bike_id": "d75062aa8d5f2f3bf62038d9820be4ba", "lon": -76.98542833333333}, {"is_reserved": 0, "fusion_lon": 0.0, "fusion_lat": 0.0, "name": "52ac87b11a8ff54d84cdd6d7fbf4040d", "type": "electric_scooter", "is_disabled": 0, "lat": 38.907309, "rental_uris": {"android": "https://dc.lft.to/lastmile_qr_scan", "ios": "https://dc.lft.to/lastmile_qr_scan"}, "bike_id": "52ac87b11a8ff54d84cdd6d7fbf4040d", "lon": -77.05009266666667}, {"is_reserved": 0, "fusion_lon": 0.0, "fusion_lat": 0.0, "name": "616e396fadb8c6f4aac4df146813e3c4", "type": "electric_scooter", "is_disabled": 0, "lat": 38.915538166666664, "rental_uris": {"android": "https://dc.lft.to/lastmile_qr_scan", "ios": "https://dc.lft.to/lastmile_qr_scan"}, "bike_id": "616e396fadb8c6f4aac4df146813e3c4", "lon": -77.022109}, {"is_reserved": 0, "fusion_lon": 0.0, "fusion_lat": 0.0, "name": "0aa0ee9974d198a2111302ba678d12bc", "type": "electric_scooter", "is_disabled": 0, "lat": 38.90010683333333, "rental_uris": {"android": "https://dc.lft.to/lastmile_qr_scan", "ios": "https://dc.lft.to/lastmile_qr_scan"}, "bike_id": "0aa0ee9974d198a2111302ba678d12bc", "lon": -76.99592583333333}, {"is_reserved": 0, "fusion_lon": 0.0, "fusion_lat": 0.0, "name": "065527c2215bad6cd426aaba0b068ec8", "type": "electric_scooter", "is_disabled": 0, "lat": 38.892181, "rental_uris": {"android": "https://dc.lft.to/lastmile_qr_scan", "ios": "https://dc.lft.to/lastmile_qr_scan"}, "bike_id": "065527c2215bad6cd426aaba0b068ec8", "lon": -77.04262166666666}, {"is_reserved": 0, "fusion_lon": 0.0, "fusion_lat": 0.0, "name": "777ba098c2946695d884a87171865822", "type": "electric_scooter", "is_disabled": 0, "lat": 38.87799533333333, "rental_uris": {"android": "https://dc.lft.to/lastmile_qr_scan", "ios": "https://dc.lft.to/lastmile_qr_scan"}, "bike_id": "777ba098c2946695d884a87171865822", "lon": -76.93098116666667}, {"is_reserved": 0, "fusion_lon": 0.0, "fusion_lat": 0.0, "name": "344ad523acfd0370411facd2211fe413", "type": "electric_scooter", "is_disabled": 0, "lat": 38.92320083333333, "rental_uris": {"android": "https://dc.lft.to/lastmile_qr_scan", "ios": "https://dc.lft.to/lastmile_qr_scan"}, "bike_id": "344ad523acfd0370411facd2211fe413", "lon": -77.04326283333333}, {"is_reserved": 0, "fusion_lon": 0.0, "fusion_lat": 0.0, "name": "e377acbd5fcbc6872ee6a88bca7de3ff", "type": "electric_scooter", "is_disabled": 0, "lat": 38.88592533333333, "rental_uris": {"android": "https://dc.lft.to/lastmile_qr_scan", "ios": "https://dc.lft.to/lastmile_qr_scan"}, "bike_id": "e377acbd5fcbc6872ee6a88bca7de3ff", "lon": -76.99627683333334}, {"is_reserved": 0, "fusion_lon": 0.0, "fusion_lat": 0.0, "name": "7b14d2d2a183d43d9c51af338ab8b7ac", "type": "electric_scooter", "is_disabled": 0, "lat": 38.915383166666665, "rental_uris": {"android": "https://dc.lft.to/lastmile_qr_scan", "ios": "https://dc.lft.to/lastmile_qr_scan"}, "bike_id": "7b14d2d2a183d43d9c51af338ab8b7ac", "lon": -77.01268033333334}, {"is_reserved": 0, "fusion_lon": 0.0, "fusion_lat": 0.0, "name": "ef0148d2ff8d179b070a7170bd497384", "type": "electric_scooter", "is_disabled": 0, "lat": 38.865025833333334, "rental_uris": {"android": "https://dc.lft.to/lastmile_qr_scan", "ios": "https://dc.lft.to/lastmile_qr_scan"}, "bike_id": "ef0148d2ff8d179b070a7170bd497384", "lon": -76.99000683333334}, {"is_reserved": 0, "fusion_lon": 0.0, "fusion_lat": 0.0, "name": "1ade5a1a8be68fd9a302b378ac2958e7", "type": "electric_scooter", "is_disabled": 0, "lat": 38.9396035, "rental_uris": {"android": "https://dc.lft.to/lastmile_qr_scan", "ios": "https://dc.lft.to/lastmile_qr_scan"}, "bike_id": "1ade5a1a8be68fd9a302b378ac2958e7", "lon": -77.02755766666667}, {"is_reserved": 0, "fusion_lon": 0.0, "fusion_lat": 0.0, "name": "7eba98858042d6c50ee8b28aaadc0d9f", "type": "electric_scooter", "is_disabled": 0, "lat": 38.91693166666667, "rental_uris": {"android": "https://dc.lft.to/lastmile_qr_scan", "ios": "https://dc.lft.to/lastmile_qr_scan"}, "bike_id": "7eba98858042d6c50ee8b28aaadc0d9f", "lon": -77.0259595}, {"is_reserved": 0, "fusion_lon": 0.0, "fusion_lat": 0.0, "name": "2ed4a20348cc4533fbb20a4e89982ea4", "type": "electric_scooter", "is_disabled": 0, "lat": 38.90737383333333, "rental_uris": {"android": "https://dc.lft.to/lastmile_qr_scan", "ios": "https://dc.lft.to/lastmile_qr_scan"}, "bike_id": "2ed4a20348cc4533fbb20a4e89982ea4", "lon": -77.0269355}, {"is_reserved": 0, "fusion_lon": 0.0, "fusion_lat": 0.0, "name": "ee7b8106aa251649eda536f6d5347375", "type": "electric_scooter", "is_disabled": 0, "lat": 38.9103355, "rental_uris": {"android": "https://dc.lft.to/lastmile_qr_scan", "ios": "https://dc.lft.to/lastmile_qr_scan"}, "bike_id": "ee7b8106aa251649eda536f6d5347375", "lon": -76.9933825}, {"is_reserved": 0, "fusion_lon": 0.0, "fusion_lat": 0.0, "name": "0f65b6e62ef105860e956e4408ad1709", "type": "electric_scooter", "is_disabled": 0, "lat": 38.93541533333333, "rental_uris": {"android": "https://dc.lft.to/lastmile_qr_scan", "ios": "https://dc.lft.to/lastmile_qr_scan"}, "bike_id": "0f65b6e62ef105860e956e4408ad1709", "lon": -77.05748283333334}, {"is_reserved": 0, "fusion_lon": 0.0, "fusion_lat": 0.0, "name": "1fd13d86f30a6cdea649c7e36900ef74", "type": "electric_scooter", "is_disabled": 0, "lat": 38.89099316666667, "rental_uris": {"android": "https://dc.lft.to/lastmile_qr_scan", "ios": "https://dc.lft.to/lastmile_qr_scan"}, "bike_id": "1fd13d86f30a6cdea649c7e36900ef74", "lon": -77.00283783333333}, {"is_reserved": 0, "fusion_lon": 0.0, "fusion_lat": 0.0, "name": "06d3911f03381760ed905b0869a4e423", "type": "electric_scooter", "is_disabled": 0, "lat": 38.922623, "rental_uris": {"android": "https://dc.lft.to/lastmile_qr_scan", "ios": "https://dc.lft.to/lastmile_qr_scan"}, "bike_id": "06d3911f03381760ed905b0869a4e423", "lon": -77.02963733333333}, {"is_reserved": 0, "fusion_lon": 0.0, "fusion_lat": 0.0, "name": "c2b3e6bced5129478a71b22f84074271", "type": "electric_scooter", "is_disabled": 0, "lat": 38.9233675, "rental_uris": {"android": "https://dc.lft.to/lastmile_qr_scan", "ios": "https://dc.lft.to/lastmile_qr_scan"}, "bike_id": "c2b3e6bced5129478a71b22f84074271", "lon": -77.04790033333333}, {"is_reserved": 0, "fusion_lon": 0.0, "fusion_lat": 0.0, "name": "1cb1ae4ca189e8fed9dd77395a879698", "type": "electric_scooter", "is_disabled": 0, "lat": 38.90972, "rental_uris": {"android": "https://dc.lft.to/lastmile_qr_scan", "ios": "https://dc.lft.to/lastmile_qr_scan"}, "bike_id": "1cb1ae4ca189e8fed9dd77395a879698", "lon": -77.03208866666667}, {"is_reserved": 0, "fusion_lon": 0.0, "fusion_lat": 0.0, "name": "d4c92ba3fa4e6e4742c4d866e00a54cb", "type": "electric_scooter", "is_disabled": 0, "lat": 38.914034, "rental_uris": {"android": "https://dc.lft.to/lastmile_qr_scan", "ios": "https://dc.lft.to/lastmile_qr_scan"}, "bike_id": "d4c92ba3fa4e6e4742c4d866e00a54cb", "lon": -77.0419305}, {"is_reserved": 0, "fusion_lon": 0.0, "fusion_lat": 0.0, "name": "3963eb2e95f84fd46a19772e351f993f", "type": "electric_scooter", "is_disabled": 0, "lat": 38.90888666666667, "rental_uris": {"android": "https://dc.lft.to/lastmile_qr_scan", "ios": "https://dc.lft.to/lastmile_qr_scan"}, "bike_id": "3963eb2e95f84fd46a19772e351f993f", "lon": -77.04580066666666}, {"is_reserved": 0, "fusion_lon": 0.0, "fusion_lat": 0.0, "name": "2b2063f237d809a51da3a19e7f1e3960", "type": "electric_scooter", "is_disabled": 0, "lat": 38.908534, "rental_uris": {"android": "https://dc.lft.to/lastmile_qr_scan", "ios": "https://dc.lft.to/lastmile_qr_scan"}, "bike_id": "2b2063f237d809a51da3a19e7f1e3960", "lon": -77.0428955}, {"is_reserved": 0, "fusion_lon": 0.0, "fusion_lat": 0.0, "name": "f8aa2b0757dcd48fd0a985b224833f1b", "type": "electric_scooter", "is_disabled": 0, "lat": 38.91110483333333, "rental_uris": {"android": "https://dc.lft.to/lastmile_qr_scan", "ios": "https://dc.lft.to/lastmile_qr_scan"}, "bike_id": "f8aa2b0757dcd48fd0a985b224833f1b", "lon": -77.04321866666666}, {"is_reserved": 0, "fusion_lon": 0.0, "fusion_lat": 0.0, "name": "f0bb840380d46a154e5f53d6cc3d3d72", "type": "electric_scooter", "is_disabled": 0, "lat": 38.9086295, "rental_uris": {"android": "https://dc.lft.to/lastmile_qr_scan", "ios": "https://dc.lft.to/lastmile_qr_scan"}, "bike_id": "f0bb840380d46a154e5f53d6cc3d3d72", "lon": -77.07097216666666}, {"is_reserved": 0, "fusion_lon": 0.0, "fusion_lat": 0.0, "name": "d1517badccf429078c757c04769d1b82", "type": "electric_scooter", "is_disabled": 0, "lat": 38.87684433333333, "rental_uris": {"android": "https://dc.lft.to/lastmile_qr_scan", "ios": "https://dc.lft.to/lastmile_qr_scan"}, "bike_id": "d1517badccf429078c757c04769d1b82", "lon": -77.017909}, {"is_reserved": 0, "fusion_lon": 0.0, "fusion_lat": 0.0, "name": "fe966041854c33655618f044a57e9a84", "type": "electric_scooter", "is_disabled": 0, "lat": 38.88049766666666, "rental_uris": {"android": "https://dc.lft.to/lastmile_qr_scan", "ios": "https://dc.lft.to/lastmile_qr_scan"}, "bike_id": "fe966041854c33655618f044a57e9a84", "lon": -76.93221933333334}, {"is_reserved": 0, "fusion_lon": 0.0, "fusion_lat": 0.0, "name": "20844117c40feba5075702562bff49d9", "type": "electric_scooter", "is_disabled": 0, "lat": 38.905422333333334, "rental_uris": {"android": "https://dc.lft.to/lastmile_qr_scan", "ios": "https://dc.lft.to/lastmile_qr_scan"}, "bike_id": "20844117c40feba5075702562bff49d9", "lon": -77.00702566666666}, {"is_reserved": 0, "fusion_lon": 0.0, "fusion_lat": 0.0, "name": "48581d27a6cfd59a4ebea25db2491dbe", "type": "electric_scooter", "is_disabled": 0, "lat": 38.919858833333336, "rental_uris": {"android": "https://dc.lft.to/lastmile_qr_scan", "ios": "https://dc.lft.to/lastmile_qr_scan"}, "bike_id": "48581d27a6cfd59a4ebea25db2491dbe", "lon": -77.03242616666667}, {"is_reserved": 0, "fusion_lon": 0.0, "fusion_lat": 0.0, "name": "813288d526fbe68a790e7c2c29d13ba2", "type": "electric_bike", "is_disabled": 0, "lat": 38.949204333333334, "rental_uris": {"android": "https://dc.lft.to/lastmile_qr_scan", "ios": "https://dc.lft.to/lastmile_qr_scan"}, "bike_id": "813288d526fbe68a790e7c2c29d13ba2", "lon": -77.00798566666667}, {"is_reserved": 0, "fusion_lon": 0.0, "fusion_lat": 0.0, "name": "62585eb05eeb090cdce7559dfc28c56e", "type": "electric_scooter", "is_disabled": 0, "lat": 38.9011255, "rental_uris": {"android": "https://dc.lft.to/lastmile_qr_scan", "ios": "https://dc.lft.to/lastmile_qr_scan"}, "bike_id": "62585eb05eeb090cdce7559dfc28c56e", "lon": -77.043569}, {"is_reserved": 0, "fusion_lon": 0.0, "fusion_lat": 0.0, "name": "f7f8a12c64e837669e52cb71f67cbba8", "type": "electric_scooter", "is_disabled": 0, "lat": 38.90642783333333, "rental_uris": {"android": "https://dc.lft.to/lastmile_qr_scan", "ios": "https://dc.lft.to/lastmile_qr_scan"}, "bike_id": "f7f8a12c64e837669e52cb71f67cbba8", "lon": -77.0269365},